[{"poiid":"B2094757D06FA2FD439D","title":"华山医院(宝山分院)","lon":"121.44274","lat":"31.3322","category":"162","category_name":"医院","address":"上海宝山区长江西路1999号(共和新路)"},{"poiid":"B2094757D06EAAFF4198","title":"通河新村地铁站","lon":"121.441482688","lat":"31.3312286998","category":"36","category_name":"地铁站","address":"上海轨道交通 一号线 轨交通河新村站 1"},{"poiid":"B2094757DA69A1FA469E","title":"上海婚礼中心","lon":"121.43717610502","lat":"31.339079734167","category":"638","category_name":"金融服务类公司","address":"宝山区纪蕴路458号(近南蕴藻路)查看地图"},{"poiid":"B2094654DB65A7FB489A","title":"易买得(长江店)","lon":"121.44047","lat":"31.33125","category":"118","category_name":"超级市场","address":"宝山区长江西路2211号(近一号线通河新村站)"},{"poiid":"B2094757D06FA1FE489B","title":"和欣国际花园","lon":"121.43712","lat":"31.335199","category":"47","category_name":"住宅区","address":"宝山区场北路36弄"},{"poiid":"B2094757D06EAAFC4093","title":"呼兰路地铁站","lon":"121.43764864","lat":"31.340091187","category":"36","category_name":"地铁站","address":"上海轨道交通 一号线 轨交呼兰路站 1"},{"poiid":"B2094655D26FA1FA4693","title":"麦当劳长江西路餐厅","lon":"121.44217","lat":"31.33108","category":"68","category_name":"快餐厅","address":"宝山区共和新路5523号(长江西路共和新路)"},{"poiid":"B2094757D06FA6F4489A","title":"通河全民健身活动中心","lon":"121.44552","lat":"31.33684","category":"221","category_name":"健身中心","address":"宝山区通河路590号(近呼玛路)"},{"poiid":"B2094757D06FA5F9499A","title":"长江西路通河路","lon":"121.44644","lat":"31.334228","category":"500","category_name":"未知分类","address":"上海长江西路通河路"},{"poiid":"B2094654D464A5FB4098","title":"北斗星商业广场","lon":"121.442","lat":"31.3317","category":"249","category_name":"购物服务","address":"宝山区长临路913-999号(共康服饰城对面)"},{"poiid":"B2094757D06FABFD409E","title":"通河中学","lon":"121.44054","lat":"31.33593","category":"55","category_name":"中学","address":"宝山区呼玛路888号(共和新路呼玛路)"},{"poiid":"B2094654D469ABF44499","title":"上海交通职业技术学院(上海市交通学校)","lon":"121.44139","lat":"31.34187","category":"52","category_name":"高等院校","address":"宝山区呼兰路883号(呼兰路呼青路)"},{"poiid":"B2094757D06FA7FA419F","title":"宝宸共和家园","lon":"121.43735","lat":"31.331989","category":"47","category_name":"住宅区","address":"上海三泉路1858弄"},{"poiid":"B2094757D068A7FB419D","title":"胖子烧烤","lon":"121.44590595","lat":"31.3347402976","category":"247","category_name":"餐饮美食","address":"上海长江西路通河路"},{"poiid":"B2094757D06AA6FF429A","title":"呼玛三村","lon":"121.44167595","lat":"31.339503388","category":"252","category_name":"楼宇机构","address":"上海宝山区呼玛路近共和新路"},{"poiid":"B2094757D06FA1F4489A","title":"上海智力产业园","lon":"121.437162","lat":"31.339822","category":"260","category_name":"其他","address":"上海纪蕴路588号南区6号楼"},{"poiid":"B2094757D16BABFA409B","title":"上海婚庆中心","lon":"121.442654","lat":"31.337633","category":"500","category_name":"未知分类","address":"上海市宝山区纪蕰路478号"},{"poiid":"B2094655D26AA7F8449E","title":"仁和医院","lon":"121.44192","lat":"31.3315","category":"162","category_name":"医院","address":"宝山区长江西路1999号(近一号线通河新村站)"},{"poiid":"B2094757DB69A1FE409E","title":"鲜芋仙 长江西路店","lon":"121.4429741","lat":"31.3320887","category":"67","category_name":"甜品店","address":"宝山区长江西路2211号易买得1楼(近1号线通河新村站)"},{"poiid":"B2094757D068ABFB419B","title":"新石器(烤肉&amp;石锅拌饭)","lon":"121.440329","lat":"31.331259","category":"257","category_name":"中餐厅","address":"宝山区长江西路2211号通河易买得1楼"},{"poiid":"B2094757D06FA0F8499C","title":"DQ冰雪皇后(长江店)","lon":"121.44006426","lat":"31.3312968","category":"113","category_name":"冷饮店","address":"宝山区长江西路2211号1楼入口处(近共和新路)"},{"poiid":"B2094757D069A3FF449E","title":"民悦苑","lon":"121.44317","lat":"31.333025","category":"47","category_name":"住宅区","address":"上海宝山区长江西路1959弄"},{"poiid":"B2094757D465A0FA4692","title":"百味鲜海鲜酒楼","lon":"121.44724","lat":"31.33868","category":"76","category_name":"上海菜","address":"宝山区呼玛路616号(近通河路)"},{"poiid":"B2094655D264A0F9469D","title":"牧羊鱼林港通河路店","lon":"121.44555","lat":"31.3361","category":"86","category_name":"火锅店","address":"宝山区通河路500号(近长江西路)"},{"poiid":"B2094757D068A4FC439D","title":"通河四村","lon":"121.44411","lat":"31.331343","category":"47","category_name":"住宅区","address":"通河四村1~139号"},{"poiid":"B2094654D46AA1FC4493","title":"东东骨头王火锅城 宝山店","lon":"121.44707777469","lat":"31.332782671506","category":"86","category_name":"火锅店","address":"宝山区通河路508号(近长江西路)"},{"poiid":"B2094654DB6AA5F84299","title":"龙缘花园","lon":"121.44145","lat":"31.336372","category":"47","category_name":"住宅区","address":"上海市宝山区呼玛路726号"},{"poiid":"B2094757D168A6F8489D","title":"呼玛五村","lon":"121.43906","lat":"31.340595","category":"47","category_name":"住宅区","address":"上海宝山区呼兰路1017弄"},{"poiid":"B2094757D465A7FF459D","title":"东方既白 宝宸店","lon":"121.441292054","lat":"31.331213793","category":"68","category_name":"快餐厅","address":"宝山区长江西路2211号易买得超市(近一号线通河新村站)"},{"poiid":"B2094654D46AA1FB4692","title":"上海市宝山区第三中心小学","lon":"121.44211","lat":"31.33602","category":"56","category_name":"小学","address":""},{"poiid":"B2094750D768ABF94599","title":"柳州螺蛳粉","lon":"121.438","lat":"31.3348","category":"68","category_name":"快餐厅","address":"宝山区纪蕴路112号(近一号线通河新村站)"},{"poiid":"B2094654D46AA0FE449D","title":"优必客奶茶店呼玛店","lon":"121.44125","lat":"31.33658","category":"113","category_name":"冷饮店","address":"宝山区呼玛路826号"},{"poiid":"B2094757D06AA7F54398","title":"锦萃缘粗菜馆","lon":"121.435713","lat":"31.333601","category":"76","category_name":"上海菜","address":"宝山区场北路123号(近三泉路)"},{"poiid":"B2094654D469ABFF4599","title":"上海市泗塘中学","lon":"121.44522","lat":"31.33233","category":"55","category_name":"中学","address":"长江西路1888"},{"poiid":"B2094757D06BA2F9469F","title":"通河全民健身中心游泳池","lon":"121.44472","lat":"31.33802","category":"220","category_name":"运动场所","address":"宝山区通河路590号(近呼玛路)"},{"poiid":"B2094655D36CA7FF429C","title":"呼玛路共和新路","lon":"121.44051","lat":"31.33651","category":"38","category_name":"公交车站","address":""},{"poiid":"B2094757D168A3F5469A","title":"老好人大酒店","lon":"121.44604375","lat":"31.3391038811","category":"76","category_name":"上海菜","address":"宝山区呼玛路588号"},{"poiid":"B2094654D46AA1FB479A","title":"呼玛教师公寓","lon":"121.44138","lat":"31.337336","category":"47","category_name":"住宅区","address":"呼玛路共和新路"},{"poiid":"B2094655D36CA7FF439A","title":"呼玛路","lon":"121.43934","lat":"31.33542","category":"38","category_name":"公交车站","address":"宝山区呼玛菜场对面(近泗塘公园)"},{"poiid":"B2094750D365AAF54892","title":"虹口足球场","lon":"121.4423087","lat":"31.336529","category":"220","category_name":"运动场所","address":null},{"poiid":"B2094654D46AA2FF429A","title":"通河三村","lon":"121.44467","lat":"31.332876","category":"47","category_name":"住宅区","address":"通河三村96号-107号"},{"poiid":"B2094655D36CA6FD409A","title":"共和新路呼玛路","lon":"121.43945","lat":"31.3352","category":"38","category_name":"公交车站","address":""},{"poiid":"B2094655D26CA1F9489D","title":"易·买得生活购物中心(长江西路)","lon":"121.44018","lat":"31.33124","category":"119","category_name":"商场","address":""},{"poiid":"B2094757D06BA6F54092","title":"三商巧福(长江西路店)","lon":"121.44040645","lat":"31.3316964394","category":"68","category_name":"快餐厅","address":"宝山区长江西路2211号易买得1楼(近一号线通河新村站)"},{"poiid":"B2094757D569A3FF4698","title":"传人雅居","lon":"121.442547","lat":"31.337141","category":"47","category_name":"住宅区","address":"传人雅居位于宝山呼玛路699号"},{"poiid":"B2094757D06AA0F9419D","title":"通河三村龙缘花园","lon":"121.44295295","lat":"31.3376968542","category":"47","category_name":"住宅区","address":"上海通河新村"},{"poiid":"B2094757D06BA7FB409F","title":"红玫瑰烤涮馆","lon":"121.44592295","lat":"31.3349613019","category":"247","category_name":"餐饮美食","address":"上海宝山通河路460号"},{"poiid":"B2094654D46AA7FD499D","title":"好德(呼玛路)","lon":"121.44323","lat":"31.33724","category":"117","category_name":"便民商店/便利店","address":""},{"poiid":"B2094757D16FA6F5469E","title":"红星幼儿园","lon":"121.44204395","lat":"31.3389433781","category":"57","category_name":"幼儿园","address":"宝山区呼玛三村369号(近呼兰路)"},{"poiid":"B2094757D169A2F5419C","title":"拿渡麻辣香锅(易买得店)","lon":"121.44044995","lat":"31.331261231","category":"247","category_name":"餐饮美食","address":"上海市宝山区三泉路"},{"poiid":"B2094757D06FA2FD439D","title":"华山医院(宝山分院)","lon":"121.44274","lat":"31.3322","category":"162","category_name":"医院","address":"上海宝山区长江西路1999号(共和新路)"},{"poiid":"B2094757D06EAAFF4198","title":"通河新村地铁站","lon":"121.441482688","lat":"31.3312286998","category":"36","category_name":"地铁站","address":"上海轨道交通 一号线 轨交通河新村站 1"},{"poiid":"B2094757DA69A1FA469E","title":"上海婚礼中心","lon":"121.43717610502","lat":"31.339079734167","category":"638","category_name":"金融服务类公司","address":"宝山区纪蕴路458号(近南蕴藻路)查看地图"},{"poiid":"B2094654DB65A7FB489A","title":"易买得(长江店)","lon":"121.44047","lat":"31.33125","category":"118","category_name":"超级市场","address":"宝山区长江西路2211号(近一号线通河新村站)"},{"poiid":"B2094757D06FA1FE489B","title":"和欣国际花园","lon":"121.43712","lat":"31.335199","category":"47","category_name":"住宅区","address":"宝山区场北路36弄"},{"poiid":"B2094757D06EAAFC4093","title":"呼兰路地铁站","lon":"121.43764864","lat":"31.340091187","category":"36","category_name":"地铁站","address":"上海轨道交通 一号线 轨交呼兰路站 1"},{"poiid":"B2094655D26FA1FA4693","title":"麦当劳长江西路餐厅","lon":"121.44217","lat":"31.33108","category":"68","category_name":"快餐厅","address":"宝山区共和新路5523号(长江西路共和新路)"},{"poiid":"B2094757D06FA6F4489A","title":"通河全民健身活动中心","lon":"121.44552","lat":"31.33684","category":"221","category_name":"健身中心","address":"宝山区通河路590号(近呼玛路)"},{"poiid":"B2094757D06FA5F9499A","title":"长江西路通河路","lon":"121.44644","lat":"31.334228","category":"500","category_name":"未知分类","address":"上海长江西路通河路"},{"poiid":"B2094654D464A5FB4098","title":"北斗星商业广场","lon":"121.442","lat":"31.3317","category":"249","category_name":"购物服务","address":"宝山区长临路913-999号(共康服饰城对面)"},{"poiid":"B2094757D06FABFD409E","title":"通河中学","lon":"121.44054","lat":"31.33593","category":"55","category_name":"中学","address":"宝山区呼玛路888号(共和新路呼玛路)"},{"poiid":"B2094654D469ABF44499","title":"上海交通职业技术学院(上海市交通学校)","lon":"121.44139","lat":"31.34187","category":"52","category_name":"高等院校","address":"宝山区呼兰路883号(呼兰路呼青路)"},{"poiid":"B2094757D06FA7FA419F","title":"宝宸共和家园","lon":"121.43735","lat":"31.331989","category":"47","category_name":"住宅区","address":"上海三泉路1858弄"},{"poiid":"B2094757D068A7FB419D","title":"胖子烧烤","lon":"121.44590595","lat":"31.3347402976","category":"247","category_name":"餐饮美食","address":"上海长江西路通河路"},{"poiid":"B2094757D06AA6FF429A","title":"呼玛三村","lon":"121.44167595","lat":"31.339503388","category":"252","category_name":"楼宇机构","address":"上海宝山区呼玛路近共和新路"},{"poiid":"B2094757D06FA1F4489A","title":"上海智力产业园","lon":"121.437162","lat":"31.339822","category":"260","category_name":"其他","address":"上海纪蕴路588号南区6号楼"},{"poiid":"B2094757D16BABFA409B","title":"上海婚庆中心","lon":"121.442654","lat":"31.337633","category":"500","category_name":"未知分类","address":"上海市宝山区纪蕰路478号"},{"poiid":"B2094655D26AA7F8449E","title":"仁和医院","lon":"121.44192","lat":"31.3315","category":"162","category_name":"医院","address":"宝山区长江西路1999号(近一号线通河新村站)"},{"poiid":"B2094757DB69A1FE409E","title":"鲜芋仙 长江西路店","lon":"121.4429741","lat":"31.3320887","category":"67","category_name":"甜品店","address":"宝山区长江西路2211号易买得1楼(近1号线通河新村站)"},{"poiid":"B2094757D068ABFB419B","title":"新石器(烤肉&amp;石锅拌饭)","lon":"121.440329","lat":"31.331259","category":"257","category_name":"中餐厅","address":"宝山区长江西路2211号通河易买得1楼"},{"poiid":"B2094757D06FA0F8499C","title":"DQ冰雪皇后(长江店)","lon":"121.44006426","lat":"31.3312968","category":"113","category_name":"冷饮店","address":"宝山区长江西路2211号1楼入口处(近共和新路)"},{"poiid":"B2094757D069A3FF449E","title":"民悦苑","lon":"121.44317","lat":"31.333025","category":"47","category_name":"住宅区","address":"上海宝山区长江西路1959弄"},{"poiid":"B2094757D465A0FA4692","title":"百味鲜海鲜酒楼","lon":"121.44724","lat":"31.33868","category":"76","category_name":"上海菜","address":"宝山区呼玛路616号(近通河路)"},{"poiid":"B2094655D264A0F9469D","title":"牧羊鱼林港通河路店","lon":"121.44555","lat":"31.3361","category":"86","category_name":"火锅店","address":"宝山区通河路500号(近长江西路)"},{"poiid":"B2094757D068A4FC439D","title":"通河四村","lon":"121.44411","lat":"31.331343","category":"47","category_name":"住宅区","address":"通河四村1~139号"},{"poiid":"B2094654D46AA1FC4493","title":"东东骨头王火锅城 宝山店","lon":"121.44707777469","lat":"31.332782671506","category":"86","category_name":"火锅店","address":"宝山区通河路508号(近长江西路)"},{"poiid":"B2094654DB6AA5F84299","title":"龙缘花园","lon":"121.44145","lat":"31.336372","category":"47","category_name":"住宅区","address":"上海市宝山区呼玛路726号"},{"poiid":"B2094757D168A6F8489D","title":"呼玛五村","lon":"121.43906","lat":"31.340595","category":"47","category_name":"住宅区","address":"上海宝山区呼兰路1017弄"},{"poiid":"B2094757D465A7FF459D","title":"东方既白 宝宸店","lon":"121.441292054","lat":"31.331213793","category":"68","category_name":"快餐厅","address":"宝山区长江西路2211号易买得超市(近一号线通河新村站)"},{"poiid":"B2094654D46AA1FB4692","title":"上海市宝山区第三中心小学","lon":"121.44211","lat":"31.33602","category":"56","category_name":"小学","address":""},{"poiid":"B2094750D768ABF94599","title":"柳州螺蛳粉","lon":"121.438","lat":"31.3348","category":"68","category_name":"快餐厅","address":"宝山区纪蕴路112号(近一号线通河新村站)"},{"poiid":"B2094654D46AA0FE449D","title":"优必客奶茶店呼玛店","lon":"121.44125","lat":"31.33658","category":"113","category_name":"冷饮店","address":"宝山区呼玛路826号"},{"poiid":"B2094757D06AA7F54398","title":"锦萃缘粗菜馆","lon":"121.435713","lat":"31.333601","category":"76","category_name":"上海菜","address":"宝山区场北路123号(近三泉路)"},{"poiid":"B2094654D469ABFF4599","title":"上海市泗塘中学","lon":"121.44522","lat":"31.33233","category":"55","category_name":"中学","address":"长江西路1888"},{"poiid":"B2094757D06BA2F9469F","title":"通河全民健身中心游泳池","lon":"121.44472","lat":"31.33802","category":"220","category_name":"运动场所","address":"宝山区通河路590号(近呼玛路)"},{"poiid":"B2094655D36CA7FF429C","title":"呼玛路共和新路","lon":"121.44051","lat":"31.33651","category":"38","category_name":"公交车站","address":""},{"poiid":"B2094757D168A3F5469A","title":"老好人大酒店","lon":"121.44604375","lat":"31.3391038811","category":"76","category_name":"上海菜","address":"宝山区呼玛路588号"},{"poiid":"B2094654D46AA1FB479A","title":"呼玛教师公寓","lon":"121.44138","lat":"31.337336","category":"47","category_name":"住宅区","address":"呼玛路共和新路"},{"poiid":"B2094655D36CA7FF439A","title":"呼玛路","lon":"121.43934","lat":"31.33542","category":"38","category_name":"公交车站","address":"宝山区呼玛菜场对面(近泗塘公园)"},{"poiid":"B2094750D365AAF54892","title":"虹口足球场","lon":"121.4423087","lat":"31.336529","category":"220","category_name":"运动场所","address":null},{"poiid":"B2094654D46AA2FF429A","title":"通河三村","lon":"121.44467","lat":"31.332876","category":"47","category_name":"住宅区","address":"通河三村96号-107号"},{"poiid":"B2094655D36CA6FD409A","title":"共和新路呼玛路","lon":"121.43945","lat":"31.3352","category":"38","category_name":"公交车站","address":""},{"poiid":"B2094655D26CA1F9489D","title":"易·买得生活购物中心(长江西路)","lon":"121.44018","lat":"31.33124","category":"119","category_name":"商场","address":""},{"poiid":"B2094757D06BA6F54092","title":"三商巧福(长江西路店)","lon":"121.44040645","lat":"31.3316964394","category":"68","category_name":"快餐厅","address":"宝山区长江西路2211号易买得1楼(近一号线通河新村站)"},{"poiid":"B2094757D569A3FF4698","title":"传人雅居","lon":"121.442547","lat":"31.337141","category":"47","category_name":"住宅区","address":"传人雅居位于宝山呼玛路699号"},{"poiid":"B2094757D06AA0F9419D","title":"通河三村龙缘花园","lon":"121.44295295","lat":"31.3376968542","category":"47","category_name":"住宅区","address":"上海通河新村"},{"poiid":"B2094757D06BA7FB409F","title":"红玫瑰烤涮馆","lon":"121.44592295","lat":"31.3349613019","category":"247","category_name":"餐饮美食","address":"上海宝山通河路460号"},{"poiid":"B2094654D46AA7FD499D","title":"好德(呼玛路)","lon":"121.44323","lat":"31.33724","category":"117","category_name":"便民商店/便利店","address":""},{"poiid":"B2094757D16FA6F5469E","title":"红星幼儿园","lon":"121.44204395","lat":"31.3389433781","category":"57","category_name":"幼儿园","address":"宝山区呼玛三村369号(近呼兰路)"},{"poiid":"B2094757D169A2F5419C","title":"拿渡麻辣香锅(易买得店)","lon":"121.44044995","lat":"31.331261231","category":"247","category_name":"餐饮美食","address":"上海市宝山区三泉路"},{"poiid":"B2094757D06FA2FD439D","title":"华山医院(宝山分院)","lon":"121.44274","lat":"31.3322","category":"162","category_name":"医院","address":"上海宝山区长江西路1999号(共和新路)"},{"poiid":"B2094757D06EAAFF4198","title":"通河新村地铁站","lon":"121.441482688","lat":"31.3312286998","category":"36","category_name":"地铁站","address":"上海轨道交通 一号线 轨交通河新村站 1"},{"poiid":"B2094757DA69A1FA469E","title":"上海婚礼中心","lon":"121.43717610502","lat":"31.339079734167","category":"638","category_name":"金融服务类公司","address":"宝山区纪蕴路458号(近南蕴藻路)查看地图"},{"poiid":"B2094654DB65A7FB489A","title":"易买得(长江店)","lon":"121.44047","lat":"31.33125","category":"118","category_name":"超级市场","address":"宝山区长江西路2211号(近一号线通河新村站)"},{"poiid":"B2094757D06FA1FE489B","title":"和欣国际花园","lon":"121.43712","lat":"31.335199","category":"47","category_name":"住宅区","address":"宝山区场北路36弄"},{"poiid":"B2094757D06EAAFC4093","title":"呼兰路地铁站","lon":"121.43764864","lat":"31.340091187","category":"36","category_name":"地铁站","address":"上海轨道交通 一号线 轨交呼兰路站 1"},{"poiid":"B2094655D26FA1FA4693","title":"麦当劳长江西路餐厅","lon":"121.44217","lat":"31.33108","category":"68","category_name":"快餐厅","address":"宝山区共和新路5523号(长江西路共和新路)"},{"poiid":"B2094757D06FA6F4489A","title":"通河全民健身活动中心","lon":"121.44552","lat":"31.33684","category":"221","category_name":"健身中心","address":"宝山区通河路590号(近呼玛路)"},{"poiid":"B2094757D06FA5F9499A","title":"长江西路通河路","lon":"121.44644","lat":"31.334228","category":"500","category_name":"未知分类","address":"上海长江西路通河路"},{"poiid":"B2094654D464A5FB4098","title":"北斗星商业广场","lon":"121.442","lat":"31.3317","category":"249","category_name":"购物服务","address":"宝山区长临路913-999号(共康服饰城对面)"},{"poiid":"B2094757D06FABFD409E","title":"通河中学","lon":"121.44054","lat":"31.33593","category":"55","category_name":"中学","address":"宝山区呼玛路888号(共和新路呼玛路)"},{"poiid":"B2094654D469ABF44499","title":"上海交通职业技术学院(上海市交通学校)","lon":"121.44139","lat":"31.34187","category":"52","category_name":"高等院校","address":"宝山区呼兰路883号(呼兰路呼青路)"},{"poiid":"B2094757D06FA7FA419F","title":"宝宸共和家园","lon":"121.43735","lat":"31.331989","category":"47","category_name":"住宅区","address":"上海三泉路1858弄"},{"poiid":"B2094757D068A7FB419D","title":"胖子烧烤","lon":"121.44590595","lat":"31.3347402976","category":"247","category_name":"餐饮美食","address":"上海长江西路通河路"},{"poiid":"B2094757D06AA6FF429A","title":"呼玛三村","lon":"121.44167595","lat":"31.339503388","category":"252","category_name":"楼宇机构","address":"上海宝山区呼玛路近共和新路"},{"poiid":"B2094757D06FA1F4489A","title":"上海智力产业园","lon":"121.437162","lat":"31.339822","category":"260","category_name":"其他","address":"上海纪蕴路588号南区6号楼"},{"poiid":"B2094757D16BABFA409B","title":"上海婚庆中心","lon":"121.442654","lat":"31.337633","category":"500","category_name":"未知分类","address":"上海市宝山区纪蕰路478号"},{"poiid":"B2094655D26AA7F8449E","title":"仁和医院","lon":"121.44192","lat":"31.3315","category":"162","category_name":"医院","address":"宝山区长江西路1999号(近一号线通河新村站)"},{"poiid":"B2094757DB69A1FE409E","title":"鲜芋仙 长江西路店","lon":"121.4429741","lat":"31.3320887","category":"67","category_name":"甜品店","address":"宝山区长江西路2211号易买得1楼(近1号线通河新村站)"},{"poiid":"B2094757D068ABFB419B","title":"新石器(烤肉&amp;石锅拌饭)","lon":"121.440329","lat":"31.331259","category":"257","category_name":"中餐厅","address":"宝山区长江西路2211号通河易买得1楼"},{"poiid":"B2094757D06FA0F8499C","title":"DQ冰雪皇后(长江店)","lon":"121.44006426","lat":"31.3312968","category":"113","category_name":"冷饮店","address":"宝山区长江西路2211号1楼入口处(近共和新路)"},{"poiid":"B2094757D069A3FF449E","title":"民悦苑","lon":"121.44317","lat":"31.333025","category":"47","category_name":"住宅区","address":"上海宝山区长江西路1959弄"},{"poiid":"B2094757D465A0FA4692","title":"百味鲜海鲜酒楼","lon":"121.44724","lat":"31.33868","category":"76","category_name":"上海菜","address":"宝山区呼玛路616号(近通河路)"},{"poiid":"B2094655D264A0F9469D","title":"牧羊鱼林港通河路店","lon":"121.44555","lat":"31.3361","category":"86","category_name":"火锅店","address":"宝山区通河路500号(近长江西路)"},{"poiid":"B2094757D068A4FC439D","title":"通河四村","lon":"121.44411","lat":"31.331343","category":"47","category_name":"住宅区","address":"通河四村1~139号"},{"poiid":"B2094654D46AA1FC4493","title":"东东骨头王火锅城 宝山店","lon":"121.44707777469","lat":"31.332782671506","category":"86","category_name":"火锅店","address":"宝山区通河路508号(近长江西路)"},{"poiid":"B2094654DB6AA5F84299","title":"龙缘花园","lon":"121.44145","lat":"31.336372","category":"47","category_name":"住宅区","address":"上海市宝山区呼玛路726号"},{"poiid":"B2094757D168A6F8489D","title":"呼玛五村","lon":"121.43906","lat":"31.340595","category":"47","category_name":"住宅区","address":"上海宝山区呼兰路1017弄"},{"poiid":"B2094757D465A7FF459D","title":"东方既白 宝宸店","lon":"121.441292054","lat":"31.331213793","category":"68","category_name":"快餐厅","address":"宝山区长江西路2211号易买得超市(近一号线通河新村站)"},{"poiid":"B2094654D46AA1FB4692","title":"上海市宝山区第三中心小学","lon":"121.44211","lat":"31.33602","category":"56","category_name":"小学","address":""},{"poiid":"B2094750D768ABF94599","title":"柳州螺蛳粉","lon":"121.438","lat":"31.3348","category":"68","category_name":"快餐厅","address":"宝山区纪蕴路112号(近一号线通河新村站)"},{"poiid":"B2094654D46AA0FE449D","title":"优必客奶茶店呼玛店","lon":"121.44125","lat":"31.33658","category":"113","category_name":"冷饮店","address":"宝山区呼玛路826号"},{"poiid":"B2094757D06AA7F54398","title":"锦萃缘粗菜馆","lon":"121.435713","lat":"31.333601","category":"76","category_name":"上海菜","address":"宝山区场北路123号(近三泉路)"},{"poiid":"B2094654D469ABFF4599","title":"上海市泗塘中学","lon":"121.44522","lat":"31.33233","category":"55","category_name":"中学","address":"长江西路1888"},{"poiid":"B2094757D06BA2F9469F","title":"通河全民健身中心游泳池","lon":"121.44472","lat":"31.33802","category":"220","category_name":"运动场所","address":"宝山区通河路590号(近呼玛路)"},{"poiid":"B2094655D36CA7FF429C","title":"呼玛路共和新路","lon":"121.44051","lat":"31.33651","category":"38","category_name":"公交车站","address":""},{"poiid":"B2094757D168A3F5469A","title":"老好人大酒店","lon":"121.44604375","lat":"31.3391038811","category":"76","category_name":"上海菜","address":"宝山区呼玛路588号"},{"poiid":"B2094654D46AA1FB479A","title":"呼玛教师公寓","lon":"121.44138","lat":"31.337336","category":"47","category_name":"住宅区","address":"呼玛路共和新路"},{"poiid":"B2094655D36CA7FF439A","title":"呼玛路","lon":"121.43934","lat":"31.33542","category":"38","category_name":"公交车站","address":"宝山区呼玛菜场对面(近泗塘公园)"},{"poiid":"B2094750D365AAF54892","title":"虹口足球场","lon":"121.4423087","lat":"31.336529","category":"220","category_name":"运动场所","address":null},{"poiid":"B2094654D46AA2FF429A","title":"通河三村","lon":"121.44467","lat":"31.332876","category":"47","category_name":"住宅区","address":"通河三村96号-107号"},{"poiid":"B2094655D36CA6FD409A","title":"共和新路呼玛路","lon":"121.43945","lat":"31.3352","category":"38","category_name":"公交车站","address":""},{"poiid":"B2094655D26CA1F9489D","title":"易·买得生活购物中心(长江西路)","lon":"121.44018","lat":"31.33124","category":"119","category_name":"商场","address":""},{"poiid":"B2094757D06BA6F54092","title":"三商巧福(长江西路店)","lon":"121.44040645","lat":"31.3316964394","category":"68","category_name":"快餐厅","address":"宝山区长江西路2211号易买得1楼(近一号线通河新村站)"},{"poiid":"B2094757D569A3FF4698","title":"传人雅居","lon":"121.442547","lat":"31.337141","category":"47","category_name":"住宅区","address":"传人雅居位于宝山呼玛路699号"},{"poiid":"B2094757D06AA0F9419D","title":"通河三村龙缘花园","lon":"121.44295295","lat":"31.3376968542","category":"47","category_name":"住宅区","address":"上海通河新村"},{"poiid":"B2094757D06BA7FB409F","title":"红玫瑰烤涮馆","lon":"121.44592295","lat":"31.3349613019","category":"247","category_name":"餐饮美食","address":"上海宝山通河路460号"},{"poiid":"B2094654D46AA7FD499D","title":"好德(呼玛路)","lon":"121.44323","lat":"31.33724","category":"117","category_name":"便民商店/便利店","address":""},{"poiid":"B2094757D16FA6F5469E","title":"红星幼儿园","lon":"121.44204395","lat":"31.3389433781","category":"57","category_name":"幼儿园","address":"宝山区呼玛三村369号(近呼兰路)"},{"poiid":"B2094757D169A2F5419C","title":"拿渡麻辣香锅(易买得店)","lon":"121.44044995","lat":"31.331261231","category":"247","category_name":"餐饮美食","address":"上海市宝山区三泉路"},{"poiid":"B2094757D06FA2FD439D","title":"华山医院(宝山分院)","lon":"121.44274","lat":"31.3322","category":"162","category_name":"医院","address":"上海宝山区长江西路1999号(共和新路)"},{"poiid":"B2094757D06EAAFF4198","title":"通河新村地铁站","lon":"121.441482688","lat":"31.3312286998","category":"36","category_name":"地铁站","address":"上海轨道交通 一号线 轨交通河新村站 1"},{"poiid":"B2094757DA69A1FA469E","title":"上海婚礼中心","lon":"121.43717610502","lat":"31.339079734167","category":"638","category_name":"金融服务类公司","address":"宝山区纪蕴路458号(近南蕴藻路)查看地图"},{"poiid":"B2094654DB65A7FB489A","title":"易买得(长江店)","lon":"121.44047","lat":"31.33125","category":"118","category_name":"超级市场","address":"宝山区长江西路2211号(近一号线通河新村站)"},{"poiid":"B2094757D06FA1FE489B","title":"和欣国际花园","lon":"121.43712","lat":"31.335199","category":"47","category_name":"住宅区","address":"宝山区场北路36弄"},{"poiid":"B2094757D06EAAFC4093","title":"呼兰路地铁站","lon":"121.43764864","lat":"31.340091187","category":"36","category_name":"地铁站","address":"上海轨道交通 一号线 轨交呼兰路站 1"},{"poiid":"B2094655D26FA1FA4693","title":"麦当劳长江西路餐厅","lon":"121.44217","lat":"31.33108","category":"68","category_name":"快餐厅","address":"宝山区共和新路5523号(长江西路共和新路)"},{"poiid":"B2094757D06FA6F4489A","title":"通河全民健身活动中心","lon":"121.44552","lat":"31.33684","category":"221","category_name":"健身中心","address":"宝山区通河路590号(近呼玛路)"},{"poiid":"B2094757D06FA5F9499A","title":"长江西路通河路","lon":"121.44644","lat":"31.334228","category":"500","category_name":"未知分类","address":"上海长江西路通河路"},{"poiid":"B2094654D464A5FB4098","title":"北斗星商业广场","lon":"121.442","lat":"31.3317","category":"249","category_name":"购物服务","address":"宝山区长临路913-999号(共康服饰城对面)"},{"poiid":"B2094757D06FABFD409E","title":"通河中学","lon":"121.44054","lat":"31.33593","category":"55","category_name":"中学","address":"宝山区呼玛路888号(共和新路呼玛路)"},{"poiid":"B2094654D469ABF44499","title":"上海交通职业技术学院(上海市交通学校)","lon":"121.44139","lat":"31.34187","category":"52","category_name":"高等院校","address":"宝山区呼兰路883号(呼兰路呼青路)"},{"poiid":"B2094757D06FA7FA419F","title":"宝宸共和家园","lon":"121.43735","lat":"31.331989","category":"47","category_name":"住宅区","address":"上海三泉路1858弄"},{"poiid":"B2094757D068A7FB419D","title":"胖子烧烤","lon":"121.44590595","lat":"31.3347402976","category":"247","category_name":"餐饮美食","address":"上海长江西路通河路"},{"poiid":"B2094757D06AA6FF429A","title":"呼玛三村","lon":"121.44167595","lat":"31.339503388","category":"252","category_name":"楼宇机构","address":"上海宝山区呼玛路近共和新路"},{"poiid":"B2094757D06FA1F4489A","title":"上海智力产业园","lon":"121.437162","lat":"31.339822","category":"260","category_name":"其他","address":"上海纪蕴路588号南区6号楼"},{"poiid":"B2094757D16BABFA409B","title":"上海婚庆中心","lon":"121.442654","lat":"31.337633","category":"500","category_name":"未知分类","address":"上海市宝山区纪蕰路478号"},{"poiid":"B2094655D26AA7F8449E","title":"仁和医院","lon":"121.44192","lat":"31.3315","category":"162","category_name":"医院","address":"宝山区长江西路1999号(近一号线通河新村站)"},{"poiid":"B2094757DB69A1FE409E","title":"鲜芋仙 长江西路店","lon":"121.4429741","lat":"31.3320887","category":"67","category_name":"甜品店","address":"宝山区长江西路2211号易买得1楼(近1号线通河新村站)"},{"poiid":"B2094757D068ABFB419B","title":"新石器(烤肉&amp;石锅拌饭)","lon":"121.440329","lat":"31.331259","category":"257","category_name":"中餐厅","address":"宝山区长江西路2211号通河易买得1楼"},{"poiid":"B2094757D06FA0F8499C","title":"DQ冰雪皇后(长江店)","lon":"121.44006426","lat":"31.3312968","category":"113","category_name":"冷饮店","address":"宝山区长江西路2211号1楼入口处(近共和新路)"},{"poiid":"B2094757D069A3FF449E","title":"民悦苑","lon":"121.44317","lat":"31.333025","category":"47","category_name":"住宅区","address":"上海宝山区长江西路1959弄"},{"poiid":"B2094757D465A0FA4692","title":"百味鲜海鲜酒楼","lon":"121.44724","lat":"31.33868","category":"76","category_name":"上海菜","address":"宝山区呼玛路616号(近通河路)"},{"poiid":"B2094655D264A0F9469D","title":"牧羊鱼林港通河路店","lon":"121.44555","lat":"31.3361","category":"86","category_name":"火锅店","address":"宝山区通河路500号(近长江西路)"},{"poiid":"B2094757D068A4FC439D","title":"通河四村","lon":"121.44411","lat":"31.331343","category":"47","category_name":"住宅区","address":"通河四村1~139号"},{"poiid":"B2094654D46AA1FC4493","title":"东东骨头王火锅城 宝山店","lon":"121.44707777469","lat":"31.332782671506","category":"86","category_name":"火锅店","address":"宝山区通河路508号(近长江西路)"},{"poiid":"B2094654DB6AA5F84299","title":"龙缘花园","lon":"121.44145","lat":"31.336372","category":"47","category_name":"住宅区","address":"上海市宝山区呼玛路726号"},{"poiid":"B2094757D168A6F8489D","title":"呼玛五村","lon":"121.43906","lat":"31.340595","category":"47","category_name":"住宅区","address":"上海宝山区呼兰路1017弄"},{"poiid":"B2094757D465A7FF459D","title":"东方既白 宝宸店","lon":"121.441292054","lat":"31.331213793","category":"68","category_name":"快餐厅","address":"宝山区长江西路2211号易买得超市(近一号线通河新村站)"},{"poiid":"B2094654D46AA1FB4692","title":"上海市宝山区第三中心小学","lon":"121.44211","lat":"31.33602","category":"56","category_name":"小学","address":""},{"poiid":"B2094750D768ABF94599","title":"柳州螺蛳粉","lon":"121.438","lat":"31.3348","category":"68","category_name":"快餐厅","address":"宝山区纪蕴路112号(近一号线通河新村站)"},{"poiid":"B2094654D46AA0FE449D","title":"优必客奶茶店呼玛店","lon":"121.44125","lat":"31.33658","category":"113","category_name":"冷饮店","address":"宝山区呼玛路826号"},{"poiid":"B2094757D06AA7F54398","title":"锦萃缘粗菜馆","lon":"121.435713","lat":"31.333601","category":"76","category_name":"上海菜","address":"宝山区场北路123号(近三泉路)"},{"poiid":"B2094654D469ABFF4599","title":"上海市泗塘中学","lon":"121.44522","lat":"31.33233","category":"55","category_name":"中学","address":"长江西路1888"},{"poiid":"B2094757D06BA2F9469F","title":"通河全民健身中心游泳池","lon":"121.44472","lat":"31.33802","category":"220","category_name":"运动场所","address":"宝山区通河路590号(近呼玛路)"},{"poiid":"B2094655D36CA7FF429C","title":"呼玛路共和新路","lon":"121.44051","lat":"31.33651","category":"38","category_name":"公交车站","address":""},{"poiid":"B2094757D168A3F5469A","title":"老好人大酒店","lon":"121.44604375","lat":"31.3391038811","category":"76","category_name":"上海菜","address":"宝山区呼玛路588号"},{"poiid":"B2094654D46AA1FB479A","title":"呼玛教师公寓","lon":"121.44138","lat":"31.337336","category":"47","category_name":"住宅区","address":"呼玛路共和新路"},{"poiid":"B2094655D36CA7FF439A","title":"呼玛路","lon":"121.43934","lat":"31.33542","category":"38","category_name":"公交车站","address":"宝山区呼玛菜场对面(近泗塘公园)"},{"poiid":"B2094750D365AAF54892","title":"虹口足球场","lon":"121.4423087","lat":"31.336529","category":"220","category_name":"运动场所","address":null},{"poiid":"B2094654D46AA2FF429A","title":"通河三村","lon":"121.44467","lat":"31.332876","category":"47","category_name":"住宅区","address":"通河三村96号-107号"},{"poiid":"B2094655D36CA6FD409A","title":"共和新路呼玛路","lon":"121.43945","lat":"31.3352","category":"38","category_name":"公交车站","address":""},{"poiid":"B2094655D26CA1F9489D","title":"易·买得生活购物中心(长江西路)","lon":"121.44018","lat":"31.33124","category":"119","category_name":"商场","address":""},{"poiid":"B2094757D06BA6F54092","title":"三商巧福(长江西路店)","lon":"121.44040645","lat":"31.3316964394","category":"68","category_name":"快餐厅","address":"宝山区长江西路2211号易买得1楼(近一号线通河新村站)"},{"poiid":"B2094757D569A3FF4698","title":"传人雅居","lon":"121.442547","lat":"31.337141","category":"47","category_name":"住宅区","address":"传人雅居位于宝山呼玛路699号"},{"poiid":"B2094757D06AA0F9419D","title":"通河三村龙缘花园","lon":"121.44295295","lat":"31.3376968542","category":"47","category_name":"住宅区","address":"上海通河新村"},{"poiid":"B2094757D06BA7FB409F","title":"红玫瑰烤涮馆","lon":"121.44592295","lat":"31.3349613019","category":"247","category_name":"餐饮美食","address":"上海宝山通河路460号"},{"poiid":"B2094654D46AA7FD499D","title":"好德(呼玛路)","lon":"121.44323","lat":"31.33724","category":"117","category_name":"便民商店/便利店","address":""},{"poiid":"B2094757D16FA6F5469E","title":"红星幼儿园","lon":"121.44204395","lat":"31.3389433781","category":"57","category_name":"幼儿园","address":"宝山区呼玛三村369号(近呼兰路)"},{"poiid":"B2094757D169A2F5419C","title":"拿渡麻辣香锅(易买得店)","lon":"121.44044995","lat":"31.331261231","category":"247","category_name":"餐饮美食","address":"上海市宝山区三泉路"}]