[{"poiid":"B2094654D56DA2F8499B","title":"家乐福宝山购物中心","lon":"121.4447","lat":"31.32596","category":"118","category_name":"超级市场","address":"共和新路5219"},{"poiid":"B2094655D26FA1FA4693","title":"麦当劳长江西路餐厅","lon":"121.44217","lat":"31.33108","category":"68","category_name":"快餐厅","address":"宝山区共和新路5523号(长江西路共和新路)"},{"poiid":"B2094654DB69A4FC4193","title":"家乐福超市(宝山店)","lon":"121.44399","lat":"31.32689","category":"118","category_name":"超级市场","address":"上海宝山区共江路1208号(近共和新路)"},{"poiid":"B2094757D06FAAF8479B","title":"麦盛莉(共江店)","lon":"121.44551","lat":"31.32475","category":"76","category_name":"上海菜","address":"宝山区共和新路5199号骏利财富大厦3楼(近宝山家乐福)"},{"poiid":"B2094750D26FA7F84999","title":"细味物语","lon":"121.447357","lat":"31.325754","category":"67","category_name":"甜品店","address":"宝山区一二八纪念路903号(万达对面)"},{"poiid":"B2094655D265ABFA4498","title":"巴贝拉 共江店 Babela's Kitchen","lon":"121.443502054","lat":"31.326883793","category":"247","category_name":"餐饮美食","address":"宝山区共江路1208号宝山家乐福1楼(近共和新路)"},{"poiid":"B2094757D06FA7FD469C","title":"呀咪咖喱屋(共和新路店)","lon":"121.4433","lat":"31.32659","category":"94","category_name":"西餐厅","address":"上海宝山区共和新路5219号家乐福1楼(近共江路路)"},{"poiid":"B2094757DB69A1FE409E","title":"鲜芋仙 长江西路店","lon":"121.4429741","lat":"31.3320887","category":"67","category_name":"甜品店","address":"宝山区长江西路2211号易买得1楼(近1号线通河新村站)"},{"poiid":"B2094757D06FA7FA4092","title":"肯德基 KFC (共康店)","lon":"121.445343","lat":"31.327676","category":"68","category_name":"快餐厅","address":"宝山区共江路1168号家乐福1楼(近共和新路)"},{"poiid":"B2094757D068A6F84898","title":"骏利财富大厦","lon":"121.445201","lat":"31.324983","category":"46","category_name":"楼宇","address":"宝山区共和新路5199号"},{"poiid":"B2094654D56DA2FC409D","title":"通河八村","lon":"121.44704","lat":"31.329357","category":"47","category_name":"住宅区","address":"通河路337号"},{"poiid":"B2094750D26FABFF429A","title":"巨麦时尚KTV 共江店","lon":"121.445274","lat":"31.325677","category":"248","category_name":"生活娱乐","address":"共和新路5199号骏利财富大厦1楼近共江路家乐福"},{"poiid":"B2094757D06FAAF9439B","title":"争鲜回转寿司(宝山店)","lon":"121.44359","lat":"31.32628","category":"95","category_name":"日本料理","address":"宝山区共和新路5219号家乐福1楼(近共江路)"},{"poiid":"B2094757D06FAAFE499B","title":"味千拉面 共江店","lon":"121.443366054","lat":"31.326937793","category":"95","category_name":"日本料理","address":"宝山区共江路1168号家乐福内(共和新路口)"},{"poiid":"B2094757D06FA5FB4792","title":"通河六村","lon":"121.44988","lat":"31.329971","category":"47","category_name":"住宅区","address":"通河路221号"},{"poiid":"B2094757D469A7F8489A","title":"盱眙小二龙虾","lon":"121.449650054","lat":"31.329316793","category":"68","category_name":"快餐厅","address":"宝山区共江路906号(近通河路)"},{"poiid":"B2094757D068A4FC439D","title":"通河四村","lon":"121.44411","lat":"31.331343","category":"47","category_name":"住宅区","address":"通河四村1~139号"},{"poiid":"B2094654D56DA2F8499A","title":"永和大王 宝山店","lon":"121.443502054","lat":"31.326883793","category":"68","category_name":"快餐厅","address":"闸北区共和新路5219号家乐福内1楼(近共江路)"},{"poiid":"B2094655D264A0F4499C","title":"新概念东北菜 共和新路店","lon":"121.443708054","lat":"31.326559793","category":"82","category_name":"东北菜","address":"宝山区共和新路5199号骏利财富大厦1楼(近家乐福)"},{"poiid":"B2094654D56DA3F5469A","title":"银和家园","lon":"121.44524","lat":"31.328463","category":"47","category_name":"住宅区","address":"共江路1169号"},{"poiid":"B2094654D469ABFF4599","title":"上海市泗塘中学","lon":"121.44522","lat":"31.33233","category":"55","category_name":"中学","address":"长江西路1888"},{"poiid":"B2094757D16EA1FF409E","title":"易买得","lon":"121.44544095","lat":"31.330825222","category":"500","category_name":"未知分类","address":"上海市宝山区共和新路"},{"poiid":"B2094757D464A5F9439E","title":"大唐人家面馆 共江路店","lon":"121.4475935043","lat":"31.328802793351","category":"247","category_name":"餐饮美食","address":"宝山区共江路1165号(近共和新路家乐福共江店)"},{"poiid":"B2094757D164A2FD489A","title":"家乐福","lon":"121.44454257","lat":"31.326868723","category":"500","category_name":"未知分类","address":"宝山区共江路1208号(近共和新路)"},{"poiid":"B2094757DA65A6F54499","title":"绿地风尚天地","lon":"121.44921834053","lat":"31.330638509695","category":"500","category_name":"未知分类","address":"共和新路5000弄1号(近共康路)"},{"poiid":"B2094757D769A4FB489F","title":"盱眙小龙虾","lon":"121.449024","lat":"31.329151","category":"68","category_name":"快餐厅","address":"闸北区共江路971号(近通河路)"},{"poiid":"B2094757D46EA4F5409C","title":"和牛铁板烧","lon":"121.44457","lat":"31.32616","category":"269","category_name":"烧烤","address":"宝山区共和新路5219号家乐福内(共和新路共江路)"},{"poiid":"B2094654D56DA2F8489C","title":"共江小区","lon":"121.4467","lat":"31.32723","category":"47","category_name":"住宅区","address":"上海市宝山区共和新路"},{"poiid":"B2094757D469A0FB4793","title":"鼎记西安名小吃","lon":"121.444996","lat":"31.327985","category":"84","category_name":"西北菜","address":"宝山区共江路1185号(家乐福对面)"},{"poiid":"B2094757D76FA5FF4892","title":"大食代 共江路店","lon":"121.44439","lat":"31.32673","category":"68","category_name":"快餐厅","address":"宝山区共江路1208号家乐福内(近共和新路)"},{"poiid":"B2094757D16EA2FD4198","title":"客尔拉石锅拌饭","lon":"121.447037863","lat":"31.3292923309","category":"247","category_name":"餐饮美食","address":"上海長江西路共和新路易買得內"},{"poiid":"B2094654D56DA3F5459C","title":"伊兰牛肉拉面共江店","lon":"121.44535","lat":"31.3279","category":"68","category_name":"快餐厅","address":"闸北区共江路1183号"},{"poiid":"B2094753D164A7FF4799","title":"尚品签","lon":"121.44329478047","lat":"31.326397747462","category":"247","category_name":"餐饮美食","address":"上海市 宝山区一二八纪念路1000弄宝山万达广场金街3楼349号"},{"poiid":"B2094654D56DA2F84698","title":"艺流美容美发(共江花苑西)","lon":"121.44678","lat":"31.32785","category":"148","category_name":"美容美发店","address":""},{"poiid":"B2094655D26EA2FB469C","title":"面包新语 宝山店 Bread Talk","lon":"121.4439108719","lat":"31.326960284035","category":"112","category_name":"糕饼店","address":"宝山区共江路1208号宝山家乐福N-17店铺(共和新路口)"},{"poiid":"B2094757D664AAF54498","title":"振鼎鸡 通河路店","lon":"121.447301054","lat":"31.332234793","category":"247","category_name":"餐饮美食","address":"宝山区通河路496号(近长江西路)"},{"poiid":"B2094757D568A6FB4498","title":"品镇鸡","lon":"121.4451244","lat":"31.32759","category":"257","category_name":"中餐厅","address":"宝山区共江路1208号家乐福大食代内(近共和新路)"},{"poiid":"B2094655D264A5F54692","title":"七蜀酸辣粉 共江路店","lon":"121.443474054","lat":"31.326888793","category":"247","category_name":"餐饮美食","address":"宝山区共江路1208号家乐福大食代内(近共和新路)"},{"poiid":"B2094654D46AA2FF429A","title":"通河三村","lon":"121.44467","lat":"31.332876","category":"47","category_name":"住宅区","address":"通河三村96号-107号"},{"poiid":"B2094757DB69A4FD409A","title":"宝山万达广场汉拿山韩式烤肉","lon":"121.44325494","lat":"31.32571506","category":"247","category_name":"餐饮美食","address":null},{"poiid":"B2094757D66BA6FE449F","title":"楼约楼酒楼","lon":"121.44955955973","lat":"31.329432822855","category":"76","category_name":"上海菜","address":"宝山区通河路173号(近共江路)"},{"poiid":"B2094757D06AA7F5419D","title":"拿渡麻辣香锅(宝山易买得店)","lon":"121.44182005","lat":"31.329797203","category":"71","category_name":"四川菜","address":"宝山区长江西路2211号易买得1楼(近一号线通河新村站)"},{"poiid":"B2094757D068A0FB4592","title":"好美家(共江店)","lon":"121.44304","lat":"31.32739","category":"500","category_name":"未知分类","address":"上海闸北区共和新路5288号(家乐福对面)  "},{"poiid":"B2094654DB6BA3FC409B","title":"共江花苑(北门)","lon":"121.44781","lat":"31.32828","category":"47","category_name":"住宅区","address":"共江路1048弄"},{"poiid":"B2094655D26EAAF5479F","title":"明仁火锅","lon":"121.44290660807","lat":"31.330714890041","category":"247","category_name":"餐饮美食","address":"共江路1167号"},{"poiid":"B2094757D465A1FB429A","title":"大娘水饺 共江路店","lon":"121.443502054","lat":"31.326883793","category":"68","category_name":"快餐厅","address":"宝山区共江路1208号家乐福2楼(近共和新路)"},{"poiid":"B2094655D36CA6FC479D","title":"共江路通河路","lon":"121.44926","lat":"31.32906","category":"38","category_name":"公交车站","address":""},{"poiid":"B2094757D568A0FC469C","title":"艺流造型SPA中心(共江店)","lon":"121.44746392","lat":"31.32819634","category":"148","category_name":"美容美发店","address":"共江路1068"},{"poiid":"B2094654DB6AA5FD499D","title":"重庆鸡公煲 共江路店","lon":"121.45092","lat":"31.32955","category":"68","category_name":"快餐厅","address":"宝山区共江路873号"},{"poiid":"B2094750D66CA6F5419F","title":"泗塘中学羽毛球馆","lon":"121.446159","lat":"31.331365","category":"500","category_name":"未知分类","address":null},{"poiid":"B2094654D56DA2F8499B","title":"家乐福宝山购物中心","lon":"121.4447","lat":"31.32596","category":"118","category_name":"超级市场","address":"共和新路5219"},{"poiid":"B2094655D26FA1FA4693","title":"麦当劳长江西路餐厅","lon":"121.44217","lat":"31.33108","category":"68","category_name":"快餐厅","address":"宝山区共和新路5523号(长江西路共和新路)"},{"poiid":"B2094654DB69A4FC4193","title":"家乐福超市(宝山店)","lon":"121.44399","lat":"31.32689","category":"118","category_name":"超级市场","address":"上海宝山区共江路1208号(近共和新路)"},{"poiid":"B2094757D06FAAF8479B","title":"麦盛莉(共江店)","lon":"121.44551","lat":"31.32475","category":"76","category_name":"上海菜","address":"宝山区共和新路5199号骏利财富大厦3楼(近宝山家乐福)"},{"poiid":"B2094750D26FA7F84999","title":"细味物语","lon":"121.447357","lat":"31.325754","category":"67","category_name":"甜品店","address":"宝山区一二八纪念路903号(万达对面)"},{"poiid":"B2094655D265ABFA4498","title":"巴贝拉 共江店 Babela's Kitchen","lon":"121.443502054","lat":"31.326883793","category":"247","category_name":"餐饮美食","address":"宝山区共江路1208号宝山家乐福1楼(近共和新路)"},{"poiid":"B2094757D06FA7FD469C","title":"呀咪咖喱屋(共和新路店)","lon":"121.4433","lat":"31.32659","category":"94","category_name":"西餐厅","address":"上海宝山区共和新路5219号家乐福1楼(近共江路路)"},{"poiid":"B2094757DB69A1FE409E","title":"鲜芋仙 长江西路店","lon":"121.4429741","lat":"31.3320887","category":"67","category_name":"甜品店","address":"宝山区长江西路2211号易买得1楼(近1号线通河新村站)"},{"poiid":"B2094757D06FA7FA4092","title":"肯德基 KFC (共康店)","lon":"121.445343","lat":"31.327676","category":"68","category_name":"快餐厅","address":"宝山区共江路1168号家乐福1楼(近共和新路)"},{"poiid":"B2094757D068A6F84898","title":"骏利财富大厦","lon":"121.445201","lat":"31.324983","category":"46","category_name":"楼宇","address":"宝山区共和新路5199号"},{"poiid":"B2094654D56DA2FC409D","title":"通河八村","lon":"121.44704","lat":"31.329357","category":"47","category_name":"住宅区","address":"通河路337号"},{"poiid":"B2094750D26FABFF429A","title":"巨麦时尚KTV 共江店","lon":"121.445274","lat":"31.325677","category":"248","category_name":"生活娱乐","address":"共和新路5199号骏利财富大厦1楼近共江路家乐福"},{"poiid":"B2094757D06FAAF9439B","title":"争鲜回转寿司(宝山店)","lon":"121.44359","lat":"31.32628","category":"95","category_name":"日本料理","address":"宝山区共和新路5219号家乐福1楼(近共江路)"},{"poiid":"B2094757D06FAAFE499B","title":"味千拉面 共江店","lon":"121.443366054","lat":"31.326937793","category":"95","category_name":"日本料理","address":"宝山区共江路1168号家乐福内(共和新路口)"},{"poiid":"B2094757D06FA5FB4792","title":"通河六村","lon":"121.44988","lat":"31.329971","category":"47","category_name":"住宅区","address":"通河路221号"},{"poiid":"B2094757D469A7F8489A","title":"盱眙小二龙虾","lon":"121.449650054","lat":"31.329316793","category":"68","category_name":"快餐厅","address":"宝山区共江路906号(近通河路)"},{"poiid":"B2094757D068A4FC439D","title":"通河四村","lon":"121.44411","lat":"31.331343","category":"47","category_name":"住宅区","address":"通河四村1~139号"},{"poiid":"B2094654D56DA2F8499A","title":"永和大王 宝山店","lon":"121.443502054","lat":"31.326883793","category":"68","category_name":"快餐厅","address":"闸北区共和新路5219号家乐福内1楼(近共江路)"},{"poiid":"B2094655D264A0F4499C","title":"新概念东北菜 共和新路店","lon":"121.443708054","lat":"31.326559793","category":"82","category_name":"东北菜","address":"宝山区共和新路5199号骏利财富大厦1楼(近家乐福)"},{"poiid":"B2094654D56DA3F5469A","title":"银和家园","lon":"121.44524","lat":"31.328463","category":"47","category_name":"住宅区","address":"共江路1169号"},{"poiid":"B2094654D469ABFF4599","title":"上海市泗塘中学","lon":"121.44522","lat":"31.33233","category":"55","category_name":"中学","address":"长江西路1888"},{"poiid":"B2094757D16EA1FF409E","title":"易买得","lon":"121.44544095","lat":"31.330825222","category":"500","category_name":"未知分类","address":"上海市宝山区共和新路"},{"poiid":"B2094757D464A5F9439E","title":"大唐人家面馆 共江路店","lon":"121.4475935043","lat":"31.328802793351","category":"247","category_name":"餐饮美食","address":"宝山区共江路1165号(近共和新路家乐福共江店)"},{"poiid":"B2094757D164A2FD489A","title":"家乐福","lon":"121.44454257","lat":"31.326868723","category":"500","category_name":"未知分类","address":"宝山区共江路1208号(近共和新路)"},{"poiid":"B2094757DA65A6F54499","title":"绿地风尚天地","lon":"121.44921834053","lat":"31.330638509695","category":"500","category_name":"未知分类","address":"共和新路5000弄1号(近共康路)"},{"poiid":"B2094757D769A4FB489F","title":"盱眙小龙虾","lon":"121.449024","lat":"31.329151","category":"68","category_name":"快餐厅","address":"闸北区共江路971号(近通河路)"},{"poiid":"B2094757D46EA4F5409C","title":"和牛铁板烧","lon":"121.44457","lat":"31.32616","category":"269","category_name":"烧烤","address":"宝山区共和新路5219号家乐福内(共和新路共江路)"},{"poiid":"B2094654D56DA2F8489C","title":"共江小区","lon":"121.4467","lat":"31.32723","category":"47","category_name":"住宅区","address":"上海市宝山区共和新路"},{"poiid":"B2094757D469A0FB4793","title":"鼎记西安名小吃","lon":"121.444996","lat":"31.327985","category":"84","category_name":"西北菜","address":"宝山区共江路1185号(家乐福对面)"},{"poiid":"B2094757D76FA5FF4892","title":"大食代 共江路店","lon":"121.44439","lat":"31.32673","category":"68","category_name":"快餐厅","address":"宝山区共江路1208号家乐福内(近共和新路)"},{"poiid":"B2094757D16EA2FD4198","title":"客尔拉石锅拌饭","lon":"121.447037863","lat":"31.3292923309","category":"247","category_name":"餐饮美食","address":"上海長江西路共和新路易買得內"},{"poiid":"B2094654D56DA3F5459C","title":"伊兰牛肉拉面共江店","lon":"121.44535","lat":"31.3279","category":"68","category_name":"快餐厅","address":"闸北区共江路1183号"},{"poiid":"B2094753D164A7FF4799","title":"尚品签","lon":"121.44329478047","lat":"31.326397747462","category":"247","category_name":"餐饮美食","address":"上海市 宝山区一二八纪念路1000弄宝山万达广场金街3楼349号"},{"poiid":"B2094654D56DA2F84698","title":"艺流美容美发(共江花苑西)","lon":"121.44678","lat":"31.32785","category":"148","category_name":"美容美发店","address":""},{"poiid":"B2094655D26EA2FB469C","title":"面包新语 宝山店 Bread Talk","lon":"121.4439108719","lat":"31.326960284035","category":"112","category_name":"糕饼店","address":"宝山区共江路1208号宝山家乐福N-17店铺(共和新路口)"},{"poiid":"B2094757D664AAF54498","title":"振鼎鸡 通河路店","lon":"121.447301054","lat":"31.332234793","category":"247","category_name":"餐饮美食","address":"宝山区通河路496号(近长江西路)"},{"poiid":"B2094757D568A6FB4498","title":"品镇鸡","lon":"121.4451244","lat":"31.32759","category":"257","category_name":"中餐厅","address":"宝山区共江路1208号家乐福大食代内(近共和新路)"},{"poiid":"B2094655D264A5F54692","title":"七蜀酸辣粉 共江路店","lon":"121.443474054","lat":"31.326888793","category":"247","category_name":"餐饮美食","address":"宝山区共江路1208号家乐福大食代内(近共和新路)"},{"poiid":"B2094654D46AA2FF429A","title":"通河三村","lon":"121.44467","lat":"31.332876","category":"47","category_name":"住宅区","address":"通河三村96号-107号"},{"poiid":"B2094757DB69A4FD409A","title":"宝山万达广场汉拿山韩式烤肉","lon":"121.44325494","lat":"31.32571506","category":"247","category_name":"餐饮美食","address":null},{"poiid":"B2094757D66BA6FE449F","title":"楼约楼酒楼","lon":"121.44955955973","lat":"31.329432822855","category":"76","category_name":"上海菜","address":"宝山区通河路173号(近共江路)"},{"poiid":"B2094757D06AA7F5419D","title":"拿渡麻辣香锅(宝山易买得店)","lon":"121.44182005","lat":"31.329797203","category":"71","category_name":"四川菜","address":"宝山区长江西路2211号易买得1楼(近一号线通河新村站)"},{"poiid":"B2094757D068A0FB4592","title":"好美家(共江店)","lon":"121.44304","lat":"31.32739","category":"500","category_name":"未知分类","address":"上海闸北区共和新路5288号(家乐福对面)  "},{"poiid":"B2094654DB6BA3FC409B","title":"共江花苑(北门)","lon":"121.44781","lat":"31.32828","category":"47","category_name":"住宅区","address":"共江路1048弄"},{"poiid":"B2094655D26EAAF5479F","title":"明仁火锅","lon":"121.44290660807","lat":"31.330714890041","category":"247","category_name":"餐饮美食","address":"共江路1167号"},{"poiid":"B2094757D465A1FB429A","title":"大娘水饺 共江路店","lon":"121.443502054","lat":"31.326883793","category":"68","category_name":"快餐厅","address":"宝山区共江路1208号家乐福2楼(近共和新路)"},{"poiid":"B2094655D36CA6FC479D","title":"共江路通河路","lon":"121.44926","lat":"31.32906","category":"38","category_name":"公交车站","address":""},{"poiid":"B2094757D568A0FC469C","title":"艺流造型SPA中心(共江店)","lon":"121.44746392","lat":"31.32819634","category":"148","category_name":"美容美发店","address":"共江路1068"},{"poiid":"B2094654DB6AA5FD499D","title":"重庆鸡公煲 共江路店","lon":"121.45092","lat":"31.32955","category":"68","category_name":"快餐厅","address":"宝山区共江路873号"},{"poiid":"B2094750D66CA6F5419F","title":"泗塘中学羽毛球馆","lon":"121.446159","lat":"31.331365","category":"500","category_name":"未知分类","address":null},{"poiid":"B2094654D56DA2F8499B","title":"家乐福宝山购物中心","lon":"121.4447","lat":"31.32596","category":"118","category_name":"超级市场","address":"共和新路5219"},{"poiid":"B2094655D26FA1FA4693","title":"麦当劳长江西路餐厅","lon":"121.44217","lat":"31.33108","category":"68","category_name":"快餐厅","address":"宝山区共和新路5523号(长江西路共和新路)"},{"poiid":"B2094654DB69A4FC4193","title":"家乐福超市(宝山店)","lon":"121.44399","lat":"31.32689","category":"118","category_name":"超级市场","address":"上海宝山区共江路1208号(近共和新路)"},{"poiid":"B2094757D06FAAF8479B","title":"麦盛莉(共江店)","lon":"121.44551","lat":"31.32475","category":"76","category_name":"上海菜","address":"宝山区共和新路5199号骏利财富大厦3楼(近宝山家乐福)"},{"poiid":"B2094750D26FA7F84999","title":"细味物语","lon":"121.447357","lat":"31.325754","category":"67","category_name":"甜品店","address":"宝山区一二八纪念路903号(万达对面)"},{"poiid":"B2094655D265ABFA4498","title":"巴贝拉 共江店 Babela's Kitchen","lon":"121.443502054","lat":"31.326883793","category":"247","category_name":"餐饮美食","address":"宝山区共江路1208号宝山家乐福1楼(近共和新路)"},{"poiid":"B2094757D06FA7FD469C","title":"呀咪咖喱屋(共和新路店)","lon":"121.4433","lat":"31.32659","category":"94","category_name":"西餐厅","address":"上海宝山区共和新路5219号家乐福1楼(近共江路路)"},{"poiid":"B2094757DB69A1FE409E","title":"鲜芋仙 长江西路店","lon":"121.4429741","lat":"31.3320887","category":"67","category_name":"甜品店","address":"宝山区长江西路2211号易买得1楼(近1号线通河新村站)"},{"poiid":"B2094757D06FA7FA4092","title":"肯德基 KFC (共康店)","lon":"121.445343","lat":"31.327676","category":"68","category_name":"快餐厅","address":"宝山区共江路1168号家乐福1楼(近共和新路)"},{"poiid":"B2094757D068A6F84898","title":"骏利财富大厦","lon":"121.445201","lat":"31.324983","category":"46","category_name":"楼宇","address":"宝山区共和新路5199号"},{"poiid":"B2094654D56DA2FC409D","title":"通河八村","lon":"121.44704","lat":"31.329357","category":"47","category_name":"住宅区","address":"通河路337号"},{"poiid":"B2094750D26FABFF429A","title":"巨麦时尚KTV 共江店","lon":"121.445274","lat":"31.325677","category":"248","category_name":"生活娱乐","address":"共和新路5199号骏利财富大厦1楼近共江路家乐福"},{"poiid":"B2094757D06FAAF9439B","title":"争鲜回转寿司(宝山店)","lon":"121.44359","lat":"31.32628","category":"95","category_name":"日本料理","address":"宝山区共和新路5219号家乐福1楼(近共江路)"},{"poiid":"B2094757D06FAAFE499B","title":"味千拉面 共江店","lon":"121.443366054","lat":"31.326937793","category":"95","category_name":"日本料理","address":"宝山区共江路1168号家乐福内(共和新路口)"},{"poiid":"B2094757D06FA5FB4792","title":"通河六村","lon":"121.44988","lat":"31.329971","category":"47","category_name":"住宅区","address":"通河路221号"},{"poiid":"B2094757D469A7F8489A","title":"盱眙小二龙虾","lon":"121.449650054","lat":"31.329316793","category":"68","category_name":"快餐厅","address":"宝山区共江路906号(近通河路)"},{"poiid":"B2094757D068A4FC439D","title":"通河四村","lon":"121.44411","lat":"31.331343","category":"47","category_name":"住宅区","address":"通河四村1~139号"},{"poiid":"B2094654D56DA2F8499A","title":"永和大王 宝山店","lon":"121.443502054","lat":"31.326883793","category":"68","category_name":"快餐厅","address":"闸北区共和新路5219号家乐福内1楼(近共江路)"},{"poiid":"B2094655D264A0F4499C","title":"新概念东北菜 共和新路店","lon":"121.443708054","lat":"31.326559793","category":"82","category_name":"东北菜","address":"宝山区共和新路5199号骏利财富大厦1楼(近家乐福)"},{"poiid":"B2094654D56DA3F5469A","title":"银和家园","lon":"121.44524","lat":"31.328463","category":"47","category_name":"住宅区","address":"共江路1169号"},{"poiid":"B2094654D469ABFF4599","title":"上海市泗塘中学","lon":"121.44522","lat":"31.33233","category":"55","category_name":"中学","address":"长江西路1888"},{"poiid":"B2094757D16EA1FF409E","title":"易买得","lon":"121.44544095","lat":"31.330825222","category":"500","category_name":"未知分类","address":"上海市宝山区共和新路"},{"poiid":"B2094757D464A5F9439E","title":"大唐人家面馆 共江路店","lon":"121.4475935043","lat":"31.328802793351","category":"247","category_name":"餐饮美食","address":"宝山区共江路1165号(近共和新路家乐福共江店)"},{"poiid":"B2094757D164A2FD489A","title":"家乐福","lon":"121.44454257","lat":"31.326868723","category":"500","category_name":"未知分类","address":"宝山区共江路1208号(近共和新路)"},{"poiid":"B2094757DA65A6F54499","title":"绿地风尚天地","lon":"121.44921834053","lat":"31.330638509695","category":"500","category_name":"未知分类","address":"共和新路5000弄1号(近共康路)"},{"poiid":"B2094757D769A4FB489F","title":"盱眙小龙虾","lon":"121.449024","lat":"31.329151","category":"68","category_name":"快餐厅","address":"闸北区共江路971号(近通河路)"},{"poiid":"B2094757D46EA4F5409C","title":"和牛铁板烧","lon":"121.44457","lat":"31.32616","category":"269","category_name":"烧烤","address":"宝山区共和新路5219号家乐福内(共和新路共江路)"},{"poiid":"B2094654D56DA2F8489C","title":"共江小区","lon":"121.4467","lat":"31.32723","category":"47","category_name":"住宅区","address":"上海市宝山区共和新路"},{"poiid":"B2094757D469A0FB4793","title":"鼎记西安名小吃","lon":"121.444996","lat":"31.327985","category":"84","category_name":"西北菜","address":"宝山区共江路1185号(家乐福对面)"},{"poiid":"B2094757D76FA5FF4892","title":"大食代 共江路店","lon":"121.44439","lat":"31.32673","category":"68","category_name":"快餐厅","address":"宝山区共江路1208号家乐福内(近共和新路)"},{"poiid":"B2094757D16EA2FD4198","title":"客尔拉石锅拌饭","lon":"121.447037863","lat":"31.3292923309","category":"247","category_name":"餐饮美食","address":"上海長江西路共和新路易買得內"},{"poiid":"B2094654D56DA3F5459C","title":"伊兰牛肉拉面共江店","lon":"121.44535","lat":"31.3279","category":"68","category_name":"快餐厅","address":"闸北区共江路1183号"},{"poiid":"B2094753D164A7FF4799","title":"尚品签","lon":"121.44329478047","lat":"31.326397747462","category":"247","category_name":"餐饮美食","address":"上海市 宝山区一二八纪念路1000弄宝山万达广场金街3楼349号"},{"poiid":"B2094654D56DA2F84698","title":"艺流美容美发(共江花苑西)","lon":"121.44678","lat":"31.32785","category":"148","category_name":"美容美发店","address":""},{"poiid":"B2094655D26EA2FB469C","title":"面包新语 宝山店 Bread Talk","lon":"121.4439108719","lat":"31.326960284035","category":"112","category_name":"糕饼店","address":"宝山区共江路1208号宝山家乐福N-17店铺(共和新路口)"},{"poiid":"B2094757D664AAF54498","title":"振鼎鸡 通河路店","lon":"121.447301054","lat":"31.332234793","category":"247","category_name":"餐饮美食","address":"宝山区通河路496号(近长江西路)"},{"poiid":"B2094757D568A6FB4498","title":"品镇鸡","lon":"121.4451244","lat":"31.32759","category":"257","category_name":"中餐厅","address":"宝山区共江路1208号家乐福大食代内(近共和新路)"},{"poiid":"B2094655D264A5F54692","title":"七蜀酸辣粉 共江路店","lon":"121.443474054","lat":"31.326888793","category":"247","category_name":"餐饮美食","address":"宝山区共江路1208号家乐福大食代内(近共和新路)"},{"poiid":"B2094654D46AA2FF429A","title":"通河三村","lon":"121.44467","lat":"31.332876","category":"47","category_name":"住宅区","address":"通河三村96号-107号"},{"poiid":"B2094757DB69A4FD409A","title":"宝山万达广场汉拿山韩式烤肉","lon":"121.44325494","lat":"31.32571506","category":"247","category_name":"餐饮美食","address":null},{"poiid":"B2094757D66BA6FE449F","title":"楼约楼酒楼","lon":"121.44955955973","lat":"31.329432822855","category":"76","category_name":"上海菜","address":"宝山区通河路173号(近共江路)"},{"poiid":"B2094757D06AA7F5419D","title":"拿渡麻辣香锅(宝山易买得店)","lon":"121.44182005","lat":"31.329797203","category":"71","category_name":"四川菜","address":"宝山区长江西路2211号易买得1楼(近一号线通河新村站)"},{"poiid":"B2094757D068A0FB4592","title":"好美家(共江店)","lon":"121.44304","lat":"31.32739","category":"500","category_name":"未知分类","address":"上海闸北区共和新路5288号(家乐福对面)  "},{"poiid":"B2094654DB6BA3FC409B","title":"共江花苑(北门)","lon":"121.44781","lat":"31.32828","category":"47","category_name":"住宅区","address":"共江路1048弄"},{"poiid":"B2094655D26EAAF5479F","title":"明仁火锅","lon":"121.44290660807","lat":"31.330714890041","category":"247","category_name":"餐饮美食","address":"共江路1167号"},{"poiid":"B2094757D465A1FB429A","title":"大娘水饺 共江路店","lon":"121.443502054","lat":"31.326883793","category":"68","category_name":"快餐厅","address":"宝山区共江路1208号家乐福2楼(近共和新路)"},{"poiid":"B2094655D36CA6FC479D","title":"共江路通河路","lon":"121.44926","lat":"31.32906","category":"38","category_name":"公交车站","address":""},{"poiid":"B2094757D568A0FC469C","title":"艺流造型SPA中心(共江店)","lon":"121.44746392","lat":"31.32819634","category":"148","category_name":"美容美发店","address":"共江路1068"},{"poiid":"B2094654DB6AA5FD499D","title":"重庆鸡公煲 共江路店","lon":"121.45092","lat":"31.32955","category":"68","category_name":"快餐厅","address":"宝山区共江路873号"},{"poiid":"B2094750D66CA6F5419F","title":"泗塘中学羽毛球馆","lon":"121.446159","lat":"31.331365","category":"500","category_name":"未知分类","address":null},{"poiid":"B2094654D56DA2F8499B","title":"家乐福宝山购物中心","lon":"121.4447","lat":"31.32596","category":"118","category_name":"超级市场","address":"共和新路5219"},{"poiid":"B2094655D26FA1FA4693","title":"麦当劳长江西路餐厅","lon":"121.44217","lat":"31.33108","category":"68","category_name":"快餐厅","address":"宝山区共和新路5523号(长江西路共和新路)"},{"poiid":"B2094654DB69A4FC4193","title":"家乐福超市(宝山店)","lon":"121.44399","lat":"31.32689","category":"118","category_name":"超级市场","address":"上海宝山区共江路1208号(近共和新路)"},{"poiid":"B2094757D06FAAF8479B","title":"麦盛莉(共江店)","lon":"121.44551","lat":"31.32475","category":"76","category_name":"上海菜","address":"宝山区共和新路5199号骏利财富大厦3楼(近宝山家乐福)"},{"poiid":"B2094750D26FA7F84999","title":"细味物语","lon":"121.447357","lat":"31.325754","category":"67","category_name":"甜品店","address":"宝山区一二八纪念路903号(万达对面)"},{"poiid":"B2094655D265ABFA4498","title":"巴贝拉 共江店 Babela's Kitchen","lon":"121.443502054","lat":"31.326883793","category":"247","category_name":"餐饮美食","address":"宝山区共江路1208号宝山家乐福1楼(近共和新路)"},{"poiid":"B2094757D06FA7FD469C","title":"呀咪咖喱屋(共和新路店)","lon":"121.4433","lat":"31.32659","category":"94","category_name":"西餐厅","address":"上海宝山区共和新路5219号家乐福1楼(近共江路路)"},{"poiid":"B2094757DB69A1FE409E","title":"鲜芋仙 长江西路店","lon":"121.4429741","lat":"31.3320887","category":"67","category_name":"甜品店","address":"宝山区长江西路2211号易买得1楼(近1号线通河新村站)"},{"poiid":"B2094757D06FA7FA4092","title":"肯德基 KFC (共康店)","lon":"121.445343","lat":"31.327676","category":"68","category_name":"快餐厅","address":"宝山区共江路1168号家乐福1楼(近共和新路)"},{"poiid":"B2094757D068A6F84898","title":"骏利财富大厦","lon":"121.445201","lat":"31.324983","category":"46","category_name":"楼宇","address":"宝山区共和新路5199号"},{"poiid":"B2094654D56DA2FC409D","title":"通河八村","lon":"121.44704","lat":"31.329357","category":"47","category_name":"住宅区","address":"通河路337号"},{"poiid":"B2094750D26FABFF429A","title":"巨麦时尚KTV 共江店","lon":"121.445274","lat":"31.325677","category":"248","category_name":"生活娱乐","address":"共和新路5199号骏利财富大厦1楼近共江路家乐福"},{"poiid":"B2094757D06FAAF9439B","title":"争鲜回转寿司(宝山店)","lon":"121.44359","lat":"31.32628","category":"95","category_name":"日本料理","address":"宝山区共和新路5219号家乐福1楼(近共江路)"},{"poiid":"B2094757D06FAAFE499B","title":"味千拉面 共江店","lon":"121.443366054","lat":"31.326937793","category":"95","category_name":"日本料理","address":"宝山区共江路1168号家乐福内(共和新路口)"},{"poiid":"B2094757D06FA5FB4792","title":"通河六村","lon":"121.44988","lat":"31.329971","category":"47","category_name":"住宅区","address":"通河路221号"},{"poiid":"B2094757D469A7F8489A","title":"盱眙小二龙虾","lon":"121.449650054","lat":"31.329316793","category":"68","category_name":"快餐厅","address":"宝山区共江路906号(近通河路)"},{"poiid":"B2094757D068A4FC439D","title":"通河四村","lon":"121.44411","lat":"31.331343","category":"47","category_name":"住宅区","address":"通河四村1~139号"},{"poiid":"B2094654D56DA2F8499A","title":"永和大王 宝山店","lon":"121.443502054","lat":"31.326883793","category":"68","category_name":"快餐厅","address":"闸北区共和新路5219号家乐福内1楼(近共江路)"},{"poiid":"B2094655D264A0F4499C","title":"新概念东北菜 共和新路店","lon":"121.443708054","lat":"31.326559793","category":"82","category_name":"东北菜","address":"宝山区共和新路5199号骏利财富大厦1楼(近家乐福)"},{"poiid":"B2094654D56DA3F5469A","title":"银和家园","lon":"121.44524","lat":"31.328463","category":"47","category_name":"住宅区","address":"共江路1169号"},{"poiid":"B2094654D469ABFF4599","title":"上海市泗塘中学","lon":"121.44522","lat":"31.33233","category":"55","category_name":"中学","address":"长江西路1888"},{"poiid":"B2094757D16EA1FF409E","title":"易买得","lon":"121.44544095","lat":"31.330825222","category":"500","category_name":"未知分类","address":"上海市宝山区共和新路"},{"poiid":"B2094757D464A5F9439E","title":"大唐人家面馆 共江路店","lon":"121.4475935043","lat":"31.328802793351","category":"247","category_name":"餐饮美食","address":"宝山区共江路1165号(近共和新路家乐福共江店)"},{"poiid":"B2094757D164A2FD489A","title":"家乐福","lon":"121.44454257","lat":"31.326868723","category":"500","category_name":"未知分类","address":"宝山区共江路1208号(近共和新路)"},{"poiid":"B2094757DA65A6F54499","title":"绿地风尚天地","lon":"121.44921834053","lat":"31.330638509695","category":"500","category_name":"未知分类","address":"共和新路5000弄1号(近共康路)"},{"poiid":"B2094757D769A4FB489F","title":"盱眙小龙虾","lon":"121.449024","lat":"31.329151","category":"68","category_name":"快餐厅","address":"闸北区共江路971号(近通河路)"},{"poiid":"B2094757D46EA4F5409C","title":"和牛铁板烧","lon":"121.44457","lat":"31.32616","category":"269","category_name":"烧烤","address":"宝山区共和新路5219号家乐福内(共和新路共江路)"},{"poiid":"B2094654D56DA2F8489C","title":"共江小区","lon":"121.4467","lat":"31.32723","category":"47","category_name":"住宅区","address":"上海市宝山区共和新路"},{"poiid":"B2094757D469A0FB4793","title":"鼎记西安名小吃","lon":"121.444996","lat":"31.327985","category":"84","category_name":"西北菜","address":"宝山区共江路1185号(家乐福对面)"},{"poiid":"B2094757D76FA5FF4892","title":"大食代 共江路店","lon":"121.44439","lat":"31.32673","category":"68","category_name":"快餐厅","address":"宝山区共江路1208号家乐福内(近共和新路)"},{"poiid":"B2094757D16EA2FD4198","title":"客尔拉石锅拌饭","lon":"121.447037863","lat":"31.3292923309","category":"247","category_name":"餐饮美食","address":"上海長江西路共和新路易買得內"},{"poiid":"B2094654D56DA3F5459C","title":"伊兰牛肉拉面共江店","lon":"121.44535","lat":"31.3279","category":"68","category_name":"快餐厅","address":"闸北区共江路1183号"},{"poiid":"B2094753D164A7FF4799","title":"尚品签","lon":"121.44329478047","lat":"31.326397747462","category":"247","category_name":"餐饮美食","address":"上海市 宝山区一二八纪念路1000弄宝山万达广场金街3楼349号"},{"poiid":"B2094654D56DA2F84698","title":"艺流美容美发(共江花苑西)","lon":"121.44678","lat":"31.32785","category":"148","category_name":"美容美发店","address":""},{"poiid":"B2094655D26EA2FB469C","title":"面包新语 宝山店 Bread Talk","lon":"121.4439108719","lat":"31.326960284035","category":"112","category_name":"糕饼店","address":"宝山区共江路1208号宝山家乐福N-17店铺(共和新路口)"},{"poiid":"B2094757D664AAF54498","title":"振鼎鸡 通河路店","lon":"121.447301054","lat":"31.332234793","category":"247","category_name":"餐饮美食","address":"宝山区通河路496号(近长江西路)"},{"poiid":"B2094757D568A6FB4498","title":"品镇鸡","lon":"121.4451244","lat":"31.32759","category":"257","category_name":"中餐厅","address":"宝山区共江路1208号家乐福大食代内(近共和新路)"},{"poiid":"B2094655D264A5F54692","title":"七蜀酸辣粉 共江路店","lon":"121.443474054","lat":"31.326888793","category":"247","category_name":"餐饮美食","address":"宝山区共江路1208号家乐福大食代内(近共和新路)"},{"poiid":"B2094654D46AA2FF429A","title":"通河三村","lon":"121.44467","lat":"31.332876","category":"47","category_name":"住宅区","address":"通河三村96号-107号"},{"poiid":"B2094757DB69A4FD409A","title":"宝山万达广场汉拿山韩式烤肉","lon":"121.44325494","lat":"31.32571506","category":"247","category_name":"餐饮美食","address":null},{"poiid":"B2094757D66BA6FE449F","title":"楼约楼酒楼","lon":"121.44955955973","lat":"31.329432822855","category":"76","category_name":"上海菜","address":"宝山区通河路173号(近共江路)"},{"poiid":"B2094757D06AA7F5419D","title":"拿渡麻辣香锅(宝山易买得店)","lon":"121.44182005","lat":"31.329797203","category":"71","category_name":"四川菜","address":"宝山区长江西路2211号易买得1楼(近一号线通河新村站)"},{"poiid":"B2094757D068A0FB4592","title":"好美家(共江店)","lon":"121.44304","lat":"31.32739","category":"500","category_name":"未知分类","address":"上海闸北区共和新路5288号(家乐福对面)  "},{"poiid":"B2094654DB6BA3FC409B","title":"共江花苑(北门)","lon":"121.44781","lat":"31.32828","category":"47","category_name":"住宅区","address":"共江路1048弄"},{"poiid":"B2094655D26EAAF5479F","title":"明仁火锅","lon":"121.44290660807","lat":"31.330714890041","category":"247","category_name":"餐饮美食","address":"共江路1167号"},{"poiid":"B2094757D465A1FB429A","title":"大娘水饺 共江路店","lon":"121.443502054","lat":"31.326883793","category":"68","category_name":"快餐厅","address":"宝山区共江路1208号家乐福2楼(近共和新路)"},{"poiid":"B2094655D36CA6FC479D","title":"共江路通河路","lon":"121.44926","lat":"31.32906","category":"38","category_name":"公交车站","address":""},{"poiid":"B2094757D568A0FC469C","title":"艺流造型SPA中心(共江店)","lon":"121.44746392","lat":"31.32819634","category":"148","category_name":"美容美发店","address":"共江路1068"},{"poiid":"B2094654DB6AA5FD499D","title":"重庆鸡公煲 共江路店","lon":"121.45092","lat":"31.32955","category":"68","category_name":"快餐厅","address":"宝山区共江路873号"},{"poiid":"B2094750D66CA6F5419F","title":"泗塘中学羽毛球馆","lon":"121.446159","lat":"31.331365","category":"500","category_name":"未知分类","address":null}]