[{"poiid":"B2094757D06FA0FE429E","title":"云南路美食街","lon":"121.481732","lat":"31.226457","category":"68","category_name":"快餐厅","address":"黄浦区云南南路(近延安东路)"},{"poiid":"B2094757D16EA1FC489E","title":"淮海东路","lon":"121.48358873","lat":"31.227366239","category":"500","category_name":"未知分类","address":"上海淮海东路"},{"poiid":"B2094757D46DABF54399","title":"甜心皇后 淮海东路店 Sweet Queen","lon":"121.482449","lat":"31.226318","category":"67","category_name":"甜品店","address":"黄浦区淮海东路49号东淮海国际大厦内(近云南南路)"},{"poiid":"B2094753D76FAAFA449C","title":"上海滩国泰旗舰店","lon":"121.466011","lat":"31.216125","category":"249","category_name":"购物服务","address":"淮海中路868号"},{"poiid":"B209475CD564A7F84292","title":"上海滩新天地店","lon":"121.47463","lat":"31.22164","category":"119","category_name":"商场","address":"\"太仓路181弄新天地北里15号\r\n\""},{"poiid":"B209475CD564A7F8439E","title":"上海滩中信泰富店","lon":"121.45602","lat":"31.22851","category":"119","category_name":"商场","address":"\"南京西路1168号中信泰富广场，店铺号221.\r\n\""},{"poiid":"B209475CD564A7F84392","title":"上海滩浦东香格里拉店","lon":"121.50058","lat":"31.23634","category":"119","category_name":"商场","address":"浦东富成路33号香格里拉酒店内大堂层"},{"poiid":"B2094757D06FA1F54598","title":"德兴馆(金陵路店)","lon":"121.48173","lat":"31.2273","category":"76","category_name":"上海菜","address":"黄浦区金陵东路416号1楼(广西南路金陵东路)"},{"poiid":"B2094757D068A4FD469A","title":"金陵东路浙江南路","lon":"121.482636","lat":"31.22811","category":"38","category_name":"公交车站","address":"上海金陵东路浙江南路"},{"poiid":"B2094750D76FA4FD4598","title":"朵巴创意西域料理","lon":"121.482","lat":"31.2264","category":"90","category_name":"清真餐馆","address":"卢湾区淮海东路49号东淮海国际大厦104室(近地铁8号线大世界站)"},{"poiid":"B2094654DA6EA6FA409B","title":"金陵东路营业厅","lon":"121.48404","lat":"31.2287","category":"151","category_name":"电讯营业厅","address":"黄浦区金陵东路391号"},{"poiid":"B2094757D16CABFD469A","title":"自由港淮海店","lon":"121.482952738","lat":"31.2253571962","category":"500","category_name":"未知分类","address":"上海淮海路"},{"poiid":"B2094757D069A3F9429D","title":"人民路","lon":"121.483271","lat":"31.225704","category":"500","category_name":"未知分类","address":"上海人民路"},{"poiid":"B2094757DB6EA7FA439F","title":"上海中星君亭酒店（原上海中星大酒店）","lon":"121.4833999","lat":"31.22669372","category":"75","category_name":"浙江菜","address":"黄浦区人民路839号(近浙江南路)"},{"poiid":"B2094757D06FAAF9439A","title":"GUCCI(时代广场店)","lon":"121.484517","lat":"31.225729","category":"141","category_name":"服装鞋帽皮具店","address":"卢湾区淮海中路99号大上海时代广场大上海时代广场"},{"poiid":"B2094750D76DA7FD429C","title":"宝寿司(广西南路店)","lon":"121.482","lat":"31.2267","category":"95","category_name":"日本料理","address":"黄浦区广西南路98号(近淮海东路)"},{"poiid":"B2094757D06FA6FB409C","title":"自力教育(淮海东路总校)","lon":"121.48167","lat":"31.22623","category":"260","category_name":"其他","address":"黄浦区云南南路180号淮云大厦14楼(淮海东路口)"},{"poiid":"B2094757DA65A5FB4692","title":"汉庭全季酒店（上海淮海路店）","lon":"121.48227","lat":"31.225427","category":"216","category_name":"经济型连锁酒店","address":"上海市黄浦区云南南路297号(近淮海路)"},{"poiid":"B2094757D064A7FA449D","title":"群力中医门诊部","lon":"121.48233","lat":"31.22767","category":"162","category_name":"医院","address":"上海黄浦区金陵东路396号  "},{"poiid":"B2094757D06FA7FF4199","title":"85度C(淮海店)","lon":"121.481985209","lat":"31.2262435593","category":"112","category_name":"糕饼店","address":"上海黄浦区淮海东路60号(近云南南路)"},{"poiid":"B2094655D268A5FF499A","title":"东淮海国际大厦","lon":"121.4824","lat":"31.22617","category":"46","category_name":"楼宇","address":"淮海东路45-49"},{"poiid":"B2094757D068A3FE489A","title":"东淮海公寓","lon":"121.48508","lat":"31.227438","category":"47","category_name":"住宅区","address":"上海市黄浦区人民路777弄"},{"poiid":"B2094654DA6EA6FA4998","title":"重庆鸡公煲(云南南路)","lon":"121.48172","lat":"31.22646","category":"71","category_name":"四川菜","address":"黄浦区云南南路3号(近延安东路)"},{"poiid":"B2094757D169A5FF489C","title":"重庆小天鹅火锅","lon":"121.48479673","lat":"31.22649922","category":"500","category_name":"未知分类","address":"上海市黄浦区云南南路"},{"poiid":"B2094654DB6AA6FF479D","title":"上海中星大酒店","lon":"121.48469","lat":"31.22758","category":"214","category_name":"四星级宾馆","address":"人民路839号"},{"poiid":"B2094757DB68A5FB4593","title":"东北人家","lon":"121.482361","lat":"31.225854","category":"82","category_name":"东北菜","address":"黄浦区云南南路295号(近淮海路)"},{"poiid":"B2094750DA6DA7F4489D","title":"寿宁路23号长寿面馆","lon":"121.483512","lat":"31.227197","category":"247","category_name":"餐饮美食","address":null},{"poiid":"B209475CD565A5FA429A","title":"80后烤吧","lon":"121.484397","lat":"31.224946","category":"247","category_name":"餐饮美食","address":"上海市 金陵中路500号亚龙国际广场3楼"},{"poiid":"B2094757D068A1F44693","title":"中国人寿保险股份有限公司上海市分公司 中国人寿大厦","lon":"121.482635","lat":"31.225897","category":"46","category_name":"楼宇","address":"上海黄浦区人民路858号"},{"poiid":"B2094654DB64ABFC4592","title":"新世界假日豪都酒店","lon":"121.48165","lat":"31.22786","category":"250","category_name":"公园户外","address":"黄浦区广西南路41号(近金陵东路)"},{"poiid":"B2094757D568A5F4449F","title":"锦江之星旅馆(淮海东路店)","lon":"121.4821","lat":"31.2257805500002","category":"216","category_name":"经济型连锁酒店","address":"上海市黄浦区云南南路293号(淮海东路口)"},{"poiid":"B2094752DA65A5F8439A","title":"三宝粥铺","lon":"121.482953","lat":"31.225409","category":"247","category_name":"餐饮美食","address":"上海市 金陵中路"},{"poiid":"B2094654DA6EA5FC479D","title":"中国人寿大厦","lon":"121.48263","lat":"31.22589","category":"46","category_name":"楼宇","address":"人民路858"},{"poiid":"B2094655D26AAAFA4492","title":"上游社会桌游俱乐部","lon":"121.48243","lat":"31.22873","category":"248","category_name":"生活娱乐","address":"黄浦区浙江南路88号东新大厦216商铺(近宁海东路)"},{"poiid":"B2094750D26FA5FC449E","title":"寿宁路龙虾街","lon":"121.483604","lat":"31.225391","category":"247","category_name":"餐饮美食","address":"黄浦区寿宁路9号"},{"poiid":"B2094757D16EA0F4429C","title":"彭浦第一炸(寿宁路店)","lon":"121.483581738","lat":"31.2253271956","category":"68","category_name":"快餐厅","address":"黄浦区寿宁路13号(近西藏南路)"},{"poiid":"B2094654DA6EA6F54093","title":"新亚大包 云南南路","lon":"121.48190516493","lat":"31.22635464802","category":"68","category_name":"快餐厅","address":"黄浦区云南南路261号(近淮海东路)"},{"poiid":"B2094757D468A0FE4598","title":"晓贤生煎 云南南路店","lon":"121.48174","lat":"31.22643","category":"68","category_name":"快餐厅","address":"黄浦区云南南路147号(近淮海东路)"},{"poiid":"B2094753D668A4FE499E","title":"CLUB S2","lon":"121.483741","lat":"31.225388","category":"500","category_name":"未知分类","address":"上海市 淮海路1号柳林大厦6楼"},{"poiid":"B2094654DB6AA3F5409D","title":"图门郎特色烧烤(云南南路店)","lon":"121.4816","lat":"31.22662","category":"247","category_name":"餐饮美食","address":"黄浦区云南南路127号(近金陵东路)"},{"poiid":"B2094654DA6EA6FA449F","title":"福星大厦","lon":"121.48196","lat":"31.22746","category":"46","category_name":"楼宇","address":"黄浦区外滩23号,中山东一路,南京东路"},{"poiid":"B2094655D36CA0F5429D","title":"淮海东路云南南路","lon":"121.48279","lat":"31.22667","category":"38","category_name":"公交车站","address":""},{"poiid":"B2094757D465A4FC469D","title":"吉昌桂林米粉 广西南路店","lon":"121.482224054","lat":"31.226701793","category":"68","category_name":"快餐厅","address":"黄浦区广西南路48号(宁海路口)"},{"poiid":"B2094757D16FA3FA4693","title":"旺比面馆","lon":"121.48369723","lat":"31.227581243","category":"68","category_name":"快餐厅","address":"黄浦区浙江南路(金陵东路口)"},{"poiid":"B2094753DB6CA5F9489B","title":"稻香","lon":"121.484268","lat":"31.227146","category":"247","category_name":"餐饮美食","address":"上海市 环贸广场iapm3楼301"},{"poiid":"B2094757D069A7FD4998","title":"Kevin造型(云南南路店)","lon":"121.4818","lat":"31.22611","category":"148","category_name":"美容美发店","address":"黄浦区云南南路188号(近淮海东路)"},{"poiid":"B2094654DA6EA6FF4499","title":"台园圆圆香云吞(浙江南路)","lon":"121.48259","lat":"31.22893","category":"68","category_name":"快餐厅","address":"黄浦区浙江南路75号(近延安东路)"},{"poiid":"B2094655D26AA0FC439B","title":"天意婚礼购物广场","lon":"121.48555","lat":"31.22773","category":"247","category_name":"餐饮美食","address":"上海黄浦区人民路757号(近福建南路)  "},{"poiid":"B2094654DA6EA6F84793","title":"中国移动金陵东路营业厅","lon":"121.48207","lat":"31.22794","category":"151","category_name":"电讯营业厅","address":"黄浦区金陵东路396号"},{"poiid":"B2094757D664A7F8449C","title":"台湾原汁原味牛肉面","lon":"121.48246","lat":"31.22653","category":"68","category_name":"快餐厅","address":"黄浦区淮海东路30号(近广西南路)"},{"poiid":"B2094757D06FA0FE429E","title":"云南路美食街","lon":"121.481732","lat":"31.226457","category":"68","category_name":"快餐厅","address":"黄浦区云南南路(近延安东路)"},{"poiid":"B2094757D16EA1FC489E","title":"淮海东路","lon":"121.48358873","lat":"31.227366239","category":"500","category_name":"未知分类","address":"上海淮海东路"},{"poiid":"B2094757D46DABF54399","title":"甜心皇后 淮海东路店 Sweet Queen","lon":"121.482449","lat":"31.226318","category":"67","category_name":"甜品店","address":"黄浦区淮海东路49号东淮海国际大厦内(近云南南路)"},{"poiid":"B2094753D76FAAFA449C","title":"上海滩国泰旗舰店","lon":"121.466011","lat":"31.216125","category":"249","category_name":"购物服务","address":"淮海中路868号"},{"poiid":"B209475CD564A7F84292","title":"上海滩新天地店","lon":"121.47463","lat":"31.22164","category":"119","category_name":"商场","address":"\"太仓路181弄新天地北里15号\r\n\""},{"poiid":"B209475CD564A7F8439E","title":"上海滩中信泰富店","lon":"121.45602","lat":"31.22851","category":"119","category_name":"商场","address":"\"南京西路1168号中信泰富广场，店铺号221.\r\n\""},{"poiid":"B209475CD564A7F84392","title":"上海滩浦东香格里拉店","lon":"121.50058","lat":"31.23634","category":"119","category_name":"商场","address":"浦东富成路33号香格里拉酒店内大堂层"},{"poiid":"B2094757D06FA1F54598","title":"德兴馆(金陵路店)","lon":"121.48173","lat":"31.2273","category":"76","category_name":"上海菜","address":"黄浦区金陵东路416号1楼(广西南路金陵东路)"},{"poiid":"B2094757D068A4FD469A","title":"金陵东路浙江南路","lon":"121.482636","lat":"31.22811","category":"38","category_name":"公交车站","address":"上海金陵东路浙江南路"},{"poiid":"B2094750D76FA4FD4598","title":"朵巴创意西域料理","lon":"121.482","lat":"31.2264","category":"90","category_name":"清真餐馆","address":"卢湾区淮海东路49号东淮海国际大厦104室(近地铁8号线大世界站)"},{"poiid":"B2094654DA6EA6FA409B","title":"金陵东路营业厅","lon":"121.48404","lat":"31.2287","category":"151","category_name":"电讯营业厅","address":"黄浦区金陵东路391号"},{"poiid":"B2094757D16CABFD469A","title":"自由港淮海店","lon":"121.482952738","lat":"31.2253571962","category":"500","category_name":"未知分类","address":"上海淮海路"},{"poiid":"B2094757D069A3F9429D","title":"人民路","lon":"121.483271","lat":"31.225704","category":"500","category_name":"未知分类","address":"上海人民路"},{"poiid":"B2094757DB6EA7FA439F","title":"上海中星君亭酒店（原上海中星大酒店）","lon":"121.4833999","lat":"31.22669372","category":"75","category_name":"浙江菜","address":"黄浦区人民路839号(近浙江南路)"},{"poiid":"B2094757D06FAAF9439A","title":"GUCCI(时代广场店)","lon":"121.484517","lat":"31.225729","category":"141","category_name":"服装鞋帽皮具店","address":"卢湾区淮海中路99号大上海时代广场大上海时代广场"},{"poiid":"B2094750D76DA7FD429C","title":"宝寿司(广西南路店)","lon":"121.482","lat":"31.2267","category":"95","category_name":"日本料理","address":"黄浦区广西南路98号(近淮海东路)"},{"poiid":"B2094757D06FA6FB409C","title":"自力教育(淮海东路总校)","lon":"121.48167","lat":"31.22623","category":"260","category_name":"其他","address":"黄浦区云南南路180号淮云大厦14楼(淮海东路口)"},{"poiid":"B2094757DA65A5FB4692","title":"汉庭全季酒店（上海淮海路店）","lon":"121.48227","lat":"31.225427","category":"216","category_name":"经济型连锁酒店","address":"上海市黄浦区云南南路297号(近淮海路)"},{"poiid":"B2094757D064A7FA449D","title":"群力中医门诊部","lon":"121.48233","lat":"31.22767","category":"162","category_name":"医院","address":"上海黄浦区金陵东路396号  "},{"poiid":"B2094757D06FA7FF4199","title":"85度C(淮海店)","lon":"121.481985209","lat":"31.2262435593","category":"112","category_name":"糕饼店","address":"上海黄浦区淮海东路60号(近云南南路)"},{"poiid":"B2094655D268A5FF499A","title":"东淮海国际大厦","lon":"121.4824","lat":"31.22617","category":"46","category_name":"楼宇","address":"淮海东路45-49"},{"poiid":"B2094757D068A3FE489A","title":"东淮海公寓","lon":"121.48508","lat":"31.227438","category":"47","category_name":"住宅区","address":"上海市黄浦区人民路777弄"},{"poiid":"B2094654DA6EA6FA4998","title":"重庆鸡公煲(云南南路)","lon":"121.48172","lat":"31.22646","category":"71","category_name":"四川菜","address":"黄浦区云南南路3号(近延安东路)"},{"poiid":"B2094757D169A5FF489C","title":"重庆小天鹅火锅","lon":"121.48479673","lat":"31.22649922","category":"500","category_name":"未知分类","address":"上海市黄浦区云南南路"},{"poiid":"B2094654DB6AA6FF479D","title":"上海中星大酒店","lon":"121.48469","lat":"31.22758","category":"214","category_name":"四星级宾馆","address":"人民路839号"},{"poiid":"B2094757DB68A5FB4593","title":"东北人家","lon":"121.482361","lat":"31.225854","category":"82","category_name":"东北菜","address":"黄浦区云南南路295号(近淮海路)"},{"poiid":"B2094750DA6DA7F4489D","title":"寿宁路23号长寿面馆","lon":"121.483512","lat":"31.227197","category":"247","category_name":"餐饮美食","address":null},{"poiid":"B209475CD565A5FA429A","title":"80后烤吧","lon":"121.484397","lat":"31.224946","category":"247","category_name":"餐饮美食","address":"上海市 金陵中路500号亚龙国际广场3楼"},{"poiid":"B2094757D068A1F44693","title":"中国人寿保险股份有限公司上海市分公司 中国人寿大厦","lon":"121.482635","lat":"31.225897","category":"46","category_name":"楼宇","address":"上海黄浦区人民路858号"},{"poiid":"B2094654DB64ABFC4592","title":"新世界假日豪都酒店","lon":"121.48165","lat":"31.22786","category":"250","category_name":"公园户外","address":"黄浦区广西南路41号(近金陵东路)"},{"poiid":"B2094757D568A5F4449F","title":"锦江之星旅馆(淮海东路店)","lon":"121.4821","lat":"31.2257805500002","category":"216","category_name":"经济型连锁酒店","address":"上海市黄浦区云南南路293号(淮海东路口)"},{"poiid":"B2094752DA65A5F8439A","title":"三宝粥铺","lon":"121.482953","lat":"31.225409","category":"247","category_name":"餐饮美食","address":"上海市 金陵中路"},{"poiid":"B2094654DA6EA5FC479D","title":"中国人寿大厦","lon":"121.48263","lat":"31.22589","category":"46","category_name":"楼宇","address":"人民路858"},{"poiid":"B2094655D26AAAFA4492","title":"上游社会桌游俱乐部","lon":"121.48243","lat":"31.22873","category":"248","category_name":"生活娱乐","address":"黄浦区浙江南路88号东新大厦216商铺(近宁海东路)"},{"poiid":"B2094750D26FA5FC449E","title":"寿宁路龙虾街","lon":"121.483604","lat":"31.225391","category":"247","category_name":"餐饮美食","address":"黄浦区寿宁路9号"},{"poiid":"B2094757D16EA0F4429C","title":"彭浦第一炸(寿宁路店)","lon":"121.483581738","lat":"31.2253271956","category":"68","category_name":"快餐厅","address":"黄浦区寿宁路13号(近西藏南路)"},{"poiid":"B2094654DA6EA6F54093","title":"新亚大包 云南南路","lon":"121.48190516493","lat":"31.22635464802","category":"68","category_name":"快餐厅","address":"黄浦区云南南路261号(近淮海东路)"},{"poiid":"B2094757D468A0FE4598","title":"晓贤生煎 云南南路店","lon":"121.48174","lat":"31.22643","category":"68","category_name":"快餐厅","address":"黄浦区云南南路147号(近淮海东路)"},{"poiid":"B2094753D668A4FE499E","title":"CLUB S2","lon":"121.483741","lat":"31.225388","category":"500","category_name":"未知分类","address":"上海市 淮海路1号柳林大厦6楼"},{"poiid":"B2094654DB6AA3F5409D","title":"图门郎特色烧烤(云南南路店)","lon":"121.4816","lat":"31.22662","category":"247","category_name":"餐饮美食","address":"黄浦区云南南路127号(近金陵东路)"},{"poiid":"B2094654DA6EA6FA449F","title":"福星大厦","lon":"121.48196","lat":"31.22746","category":"46","category_name":"楼宇","address":"黄浦区外滩23号,中山东一路,南京东路"},{"poiid":"B2094655D36CA0F5429D","title":"淮海东路云南南路","lon":"121.48279","lat":"31.22667","category":"38","category_name":"公交车站","address":""},{"poiid":"B2094757D465A4FC469D","title":"吉昌桂林米粉 广西南路店","lon":"121.482224054","lat":"31.226701793","category":"68","category_name":"快餐厅","address":"黄浦区广西南路48号(宁海路口)"},{"poiid":"B2094757D16FA3FA4693","title":"旺比面馆","lon":"121.48369723","lat":"31.227581243","category":"68","category_name":"快餐厅","address":"黄浦区浙江南路(金陵东路口)"},{"poiid":"B2094753DB6CA5F9489B","title":"稻香","lon":"121.484268","lat":"31.227146","category":"247","category_name":"餐饮美食","address":"上海市 环贸广场iapm3楼301"},{"poiid":"B2094757D069A7FD4998","title":"Kevin造型(云南南路店)","lon":"121.4818","lat":"31.22611","category":"148","category_name":"美容美发店","address":"黄浦区云南南路188号(近淮海东路)"},{"poiid":"B2094654DA6EA6FF4499","title":"台园圆圆香云吞(浙江南路)","lon":"121.48259","lat":"31.22893","category":"68","category_name":"快餐厅","address":"黄浦区浙江南路75号(近延安东路)"},{"poiid":"B2094655D26AA0FC439B","title":"天意婚礼购物广场","lon":"121.48555","lat":"31.22773","category":"247","category_name":"餐饮美食","address":"上海黄浦区人民路757号(近福建南路)  "},{"poiid":"B2094654DA6EA6F84793","title":"中国移动金陵东路营业厅","lon":"121.48207","lat":"31.22794","category":"151","category_name":"电讯营业厅","address":"黄浦区金陵东路396号"},{"poiid":"B2094757D664A7F8449C","title":"台湾原汁原味牛肉面","lon":"121.48246","lat":"31.22653","category":"68","category_name":"快餐厅","address":"黄浦区淮海东路30号(近广西南路)"},{"poiid":"B2094757D06FA0FE429E","title":"云南路美食街","lon":"121.481732","lat":"31.226457","category":"68","category_name":"快餐厅","address":"黄浦区云南南路(近延安东路)"},{"poiid":"B2094757D16EA1FC489E","title":"淮海东路","lon":"121.48358873","lat":"31.227366239","category":"500","category_name":"未知分类","address":"上海淮海东路"},{"poiid":"B2094757D46DABF54399","title":"甜心皇后 淮海东路店 Sweet Queen","lon":"121.482449","lat":"31.226318","category":"67","category_name":"甜品店","address":"黄浦区淮海东路49号东淮海国际大厦内(近云南南路)"},{"poiid":"B2094753D76FAAFA449C","title":"上海滩国泰旗舰店","lon":"121.466011","lat":"31.216125","category":"249","category_name":"购物服务","address":"淮海中路868号"},{"poiid":"B209475CD564A7F84292","title":"上海滩新天地店","lon":"121.47463","lat":"31.22164","category":"119","category_name":"商场","address":"\"太仓路181弄新天地北里15号\r\n\""},{"poiid":"B209475CD564A7F8439E","title":"上海滩中信泰富店","lon":"121.45602","lat":"31.22851","category":"119","category_name":"商场","address":"\"南京西路1168号中信泰富广场，店铺号221.\r\n\""},{"poiid":"B209475CD564A7F84392","title":"上海滩浦东香格里拉店","lon":"121.50058","lat":"31.23634","category":"119","category_name":"商场","address":"浦东富成路33号香格里拉酒店内大堂层"},{"poiid":"B2094757D06FA1F54598","title":"德兴馆(金陵路店)","lon":"121.48173","lat":"31.2273","category":"76","category_name":"上海菜","address":"黄浦区金陵东路416号1楼(广西南路金陵东路)"},{"poiid":"B2094757D068A4FD469A","title":"金陵东路浙江南路","lon":"121.482636","lat":"31.22811","category":"38","category_name":"公交车站","address":"上海金陵东路浙江南路"},{"poiid":"B2094750D76FA4FD4598","title":"朵巴创意西域料理","lon":"121.482","lat":"31.2264","category":"90","category_name":"清真餐馆","address":"卢湾区淮海东路49号东淮海国际大厦104室(近地铁8号线大世界站)"},{"poiid":"B2094654DA6EA6FA409B","title":"金陵东路营业厅","lon":"121.48404","lat":"31.2287","category":"151","category_name":"电讯营业厅","address":"黄浦区金陵东路391号"},{"poiid":"B2094757D16CABFD469A","title":"自由港淮海店","lon":"121.482952738","lat":"31.2253571962","category":"500","category_name":"未知分类","address":"上海淮海路"},{"poiid":"B2094757D069A3F9429D","title":"人民路","lon":"121.483271","lat":"31.225704","category":"500","category_name":"未知分类","address":"上海人民路"},{"poiid":"B2094757DB6EA7FA439F","title":"上海中星君亭酒店（原上海中星大酒店）","lon":"121.4833999","lat":"31.22669372","category":"75","category_name":"浙江菜","address":"黄浦区人民路839号(近浙江南路)"},{"poiid":"B2094757D06FAAF9439A","title":"GUCCI(时代广场店)","lon":"121.484517","lat":"31.225729","category":"141","category_name":"服装鞋帽皮具店","address":"卢湾区淮海中路99号大上海时代广场大上海时代广场"},{"poiid":"B2094750D76DA7FD429C","title":"宝寿司(广西南路店)","lon":"121.482","lat":"31.2267","category":"95","category_name":"日本料理","address":"黄浦区广西南路98号(近淮海东路)"},{"poiid":"B2094757D06FA6FB409C","title":"自力教育(淮海东路总校)","lon":"121.48167","lat":"31.22623","category":"260","category_name":"其他","address":"黄浦区云南南路180号淮云大厦14楼(淮海东路口)"},{"poiid":"B2094757DA65A5FB4692","title":"汉庭全季酒店（上海淮海路店）","lon":"121.48227","lat":"31.225427","category":"216","category_name":"经济型连锁酒店","address":"上海市黄浦区云南南路297号(近淮海路)"},{"poiid":"B2094757D064A7FA449D","title":"群力中医门诊部","lon":"121.48233","lat":"31.22767","category":"162","category_name":"医院","address":"上海黄浦区金陵东路396号  "},{"poiid":"B2094757D06FA7FF4199","title":"85度C(淮海店)","lon":"121.481985209","lat":"31.2262435593","category":"112","category_name":"糕饼店","address":"上海黄浦区淮海东路60号(近云南南路)"},{"poiid":"B2094655D268A5FF499A","title":"东淮海国际大厦","lon":"121.4824","lat":"31.22617","category":"46","category_name":"楼宇","address":"淮海东路45-49"},{"poiid":"B2094757D068A3FE489A","title":"东淮海公寓","lon":"121.48508","lat":"31.227438","category":"47","category_name":"住宅区","address":"上海市黄浦区人民路777弄"},{"poiid":"B2094654DA6EA6FA4998","title":"重庆鸡公煲(云南南路)","lon":"121.48172","lat":"31.22646","category":"71","category_name":"四川菜","address":"黄浦区云南南路3号(近延安东路)"},{"poiid":"B2094757D169A5FF489C","title":"重庆小天鹅火锅","lon":"121.48479673","lat":"31.22649922","category":"500","category_name":"未知分类","address":"上海市黄浦区云南南路"},{"poiid":"B2094654DB6AA6FF479D","title":"上海中星大酒店","lon":"121.48469","lat":"31.22758","category":"214","category_name":"四星级宾馆","address":"人民路839号"},{"poiid":"B2094757DB68A5FB4593","title":"东北人家","lon":"121.482361","lat":"31.225854","category":"82","category_name":"东北菜","address":"黄浦区云南南路295号(近淮海路)"},{"poiid":"B2094750DA6DA7F4489D","title":"寿宁路23号长寿面馆","lon":"121.483512","lat":"31.227197","category":"247","category_name":"餐饮美食","address":null},{"poiid":"B209475CD565A5FA429A","title":"80后烤吧","lon":"121.484397","lat":"31.224946","category":"247","category_name":"餐饮美食","address":"上海市 金陵中路500号亚龙国际广场3楼"},{"poiid":"B2094757D068A1F44693","title":"中国人寿保险股份有限公司上海市分公司 中国人寿大厦","lon":"121.482635","lat":"31.225897","category":"46","category_name":"楼宇","address":"上海黄浦区人民路858号"},{"poiid":"B2094654DB64ABFC4592","title":"新世界假日豪都酒店","lon":"121.48165","lat":"31.22786","category":"250","category_name":"公园户外","address":"黄浦区广西南路41号(近金陵东路)"},{"poiid":"B2094757D568A5F4449F","title":"锦江之星旅馆(淮海东路店)","lon":"121.4821","lat":"31.2257805500002","category":"216","category_name":"经济型连锁酒店","address":"上海市黄浦区云南南路293号(淮海东路口)"},{"poiid":"B2094752DA65A5F8439A","title":"三宝粥铺","lon":"121.482953","lat":"31.225409","category":"247","category_name":"餐饮美食","address":"上海市 金陵中路"},{"poiid":"B2094654DA6EA5FC479D","title":"中国人寿大厦","lon":"121.48263","lat":"31.22589","category":"46","category_name":"楼宇","address":"人民路858"},{"poiid":"B2094655D26AAAFA4492","title":"上游社会桌游俱乐部","lon":"121.48243","lat":"31.22873","category":"248","category_name":"生活娱乐","address":"黄浦区浙江南路88号东新大厦216商铺(近宁海东路)"},{"poiid":"B2094750D26FA5FC449E","title":"寿宁路龙虾街","lon":"121.483604","lat":"31.225391","category":"247","category_name":"餐饮美食","address":"黄浦区寿宁路9号"},{"poiid":"B2094757D16EA0F4429C","title":"彭浦第一炸(寿宁路店)","lon":"121.483581738","lat":"31.2253271956","category":"68","category_name":"快餐厅","address":"黄浦区寿宁路13号(近西藏南路)"},{"poiid":"B2094654DA6EA6F54093","title":"新亚大包 云南南路","lon":"121.48190516493","lat":"31.22635464802","category":"68","category_name":"快餐厅","address":"黄浦区云南南路261号(近淮海东路)"},{"poiid":"B2094757D468A0FE4598","title":"晓贤生煎 云南南路店","lon":"121.48174","lat":"31.22643","category":"68","category_name":"快餐厅","address":"黄浦区云南南路147号(近淮海东路)"},{"poiid":"B2094753D668A4FE499E","title":"CLUB S2","lon":"121.483741","lat":"31.225388","category":"500","category_name":"未知分类","address":"上海市 淮海路1号柳林大厦6楼"},{"poiid":"B2094654DB6AA3F5409D","title":"图门郎特色烧烤(云南南路店)","lon":"121.4816","lat":"31.22662","category":"247","category_name":"餐饮美食","address":"黄浦区云南南路127号(近金陵东路)"},{"poiid":"B2094654DA6EA6FA449F","title":"福星大厦","lon":"121.48196","lat":"31.22746","category":"46","category_name":"楼宇","address":"黄浦区外滩23号,中山东一路,南京东路"},{"poiid":"B2094655D36CA0F5429D","title":"淮海东路云南南路","lon":"121.48279","lat":"31.22667","category":"38","category_name":"公交车站","address":""},{"poiid":"B2094757D465A4FC469D","title":"吉昌桂林米粉 广西南路店","lon":"121.482224054","lat":"31.226701793","category":"68","category_name":"快餐厅","address":"黄浦区广西南路48号(宁海路口)"},{"poiid":"B2094757D16FA3FA4693","title":"旺比面馆","lon":"121.48369723","lat":"31.227581243","category":"68","category_name":"快餐厅","address":"黄浦区浙江南路(金陵东路口)"},{"poiid":"B2094753DB6CA5F9489B","title":"稻香","lon":"121.484268","lat":"31.227146","category":"247","category_name":"餐饮美食","address":"上海市 环贸广场iapm3楼301"},{"poiid":"B2094757D069A7FD4998","title":"Kevin造型(云南南路店)","lon":"121.4818","lat":"31.22611","category":"148","category_name":"美容美发店","address":"黄浦区云南南路188号(近淮海东路)"},{"poiid":"B2094654DA6EA6FF4499","title":"台园圆圆香云吞(浙江南路)","lon":"121.48259","lat":"31.22893","category":"68","category_name":"快餐厅","address":"黄浦区浙江南路75号(近延安东路)"},{"poiid":"B2094655D26AA0FC439B","title":"天意婚礼购物广场","lon":"121.48555","lat":"31.22773","category":"247","category_name":"餐饮美食","address":"上海黄浦区人民路757号(近福建南路)  "},{"poiid":"B2094654DA6EA6F84793","title":"中国移动金陵东路营业厅","lon":"121.48207","lat":"31.22794","category":"151","category_name":"电讯营业厅","address":"黄浦区金陵东路396号"},{"poiid":"B2094757D664A7F8449C","title":"台湾原汁原味牛肉面","lon":"121.48246","lat":"31.22653","category":"68","category_name":"快餐厅","address":"黄浦区淮海东路30号(近广西南路)"},{"poiid":"B2094757D06FA0FE429E","title":"云南路美食街","lon":"121.481732","lat":"31.226457","category":"68","category_name":"快餐厅","address":"黄浦区云南南路(近延安东路)"},{"poiid":"B2094757D16EA1FC489E","title":"淮海东路","lon":"121.48358873","lat":"31.227366239","category":"500","category_name":"未知分类","address":"上海淮海东路"},{"poiid":"B2094757D46DABF54399","title":"甜心皇后 淮海东路店 Sweet Queen","lon":"121.482449","lat":"31.226318","category":"67","category_name":"甜品店","address":"黄浦区淮海东路49号东淮海国际大厦内(近云南南路)"},{"poiid":"B2094753D76FAAFA449C","title":"上海滩国泰旗舰店","lon":"121.466011","lat":"31.216125","category":"249","category_name":"购物服务","address":"淮海中路868号"},{"poiid":"B209475CD564A7F84292","title":"上海滩新天地店","lon":"121.47463","lat":"31.22164","category":"119","category_name":"商场","address":"\"太仓路181弄新天地北里15号\r\n\""},{"poiid":"B209475CD564A7F8439E","title":"上海滩中信泰富店","lon":"121.45602","lat":"31.22851","category":"119","category_name":"商场","address":"\"南京西路1168号中信泰富广场，店铺号221.\r\n\""},{"poiid":"B209475CD564A7F84392","title":"上海滩浦东香格里拉店","lon":"121.50058","lat":"31.23634","category":"119","category_name":"商场","address":"浦东富成路33号香格里拉酒店内大堂层"},{"poiid":"B2094757D06FA1F54598","title":"德兴馆(金陵路店)","lon":"121.48173","lat":"31.2273","category":"76","category_name":"上海菜","address":"黄浦区金陵东路416号1楼(广西南路金陵东路)"},{"poiid":"B2094757D068A4FD469A","title":"金陵东路浙江南路","lon":"121.482636","lat":"31.22811","category":"38","category_name":"公交车站","address":"上海金陵东路浙江南路"},{"poiid":"B2094750D76FA4FD4598","title":"朵巴创意西域料理","lon":"121.482","lat":"31.2264","category":"90","category_name":"清真餐馆","address":"卢湾区淮海东路49号东淮海国际大厦104室(近地铁8号线大世界站)"},{"poiid":"B2094654DA6EA6FA409B","title":"金陵东路营业厅","lon":"121.48404","lat":"31.2287","category":"151","category_name":"电讯营业厅","address":"黄浦区金陵东路391号"},{"poiid":"B2094757D16CABFD469A","title":"自由港淮海店","lon":"121.482952738","lat":"31.2253571962","category":"500","category_name":"未知分类","address":"上海淮海路"},{"poiid":"B2094757D069A3F9429D","title":"人民路","lon":"121.483271","lat":"31.225704","category":"500","category_name":"未知分类","address":"上海人民路"},{"poiid":"B2094757DB6EA7FA439F","title":"上海中星君亭酒店（原上海中星大酒店）","lon":"121.4833999","lat":"31.22669372","category":"75","category_name":"浙江菜","address":"黄浦区人民路839号(近浙江南路)"},{"poiid":"B2094757D06FAAF9439A","title":"GUCCI(时代广场店)","lon":"121.484517","lat":"31.225729","category":"141","category_name":"服装鞋帽皮具店","address":"卢湾区淮海中路99号大上海时代广场大上海时代广场"},{"poiid":"B2094750D76DA7FD429C","title":"宝寿司(广西南路店)","lon":"121.482","lat":"31.2267","category":"95","category_name":"日本料理","address":"黄浦区广西南路98号(近淮海东路)"},{"poiid":"B2094757D06FA6FB409C","title":"自力教育(淮海东路总校)","lon":"121.48167","lat":"31.22623","category":"260","category_name":"其他","address":"黄浦区云南南路180号淮云大厦14楼(淮海东路口)"},{"poiid":"B2094757DA65A5FB4692","title":"汉庭全季酒店（上海淮海路店）","lon":"121.48227","lat":"31.225427","category":"216","category_name":"经济型连锁酒店","address":"上海市黄浦区云南南路297号(近淮海路)"},{"poiid":"B2094757D064A7FA449D","title":"群力中医门诊部","lon":"121.48233","lat":"31.22767","category":"162","category_name":"医院","address":"上海黄浦区金陵东路396号  "},{"poiid":"B2094757D06FA7FF4199","title":"85度C(淮海店)","lon":"121.481985209","lat":"31.2262435593","category":"112","category_name":"糕饼店","address":"上海黄浦区淮海东路60号(近云南南路)"},{"poiid":"B2094655D268A5FF499A","title":"东淮海国际大厦","lon":"121.4824","lat":"31.22617","category":"46","category_name":"楼宇","address":"淮海东路45-49"},{"poiid":"B2094757D068A3FE489A","title":"东淮海公寓","lon":"121.48508","lat":"31.227438","category":"47","category_name":"住宅区","address":"上海市黄浦区人民路777弄"},{"poiid":"B2094654DA6EA6FA4998","title":"重庆鸡公煲(云南南路)","lon":"121.48172","lat":"31.22646","category":"71","category_name":"四川菜","address":"黄浦区云南南路3号(近延安东路)"},{"poiid":"B2094757D169A5FF489C","title":"重庆小天鹅火锅","lon":"121.48479673","lat":"31.22649922","category":"500","category_name":"未知分类","address":"上海市黄浦区云南南路"},{"poiid":"B2094654DB6AA6FF479D","title":"上海中星大酒店","lon":"121.48469","lat":"31.22758","category":"214","category_name":"四星级宾馆","address":"人民路839号"},{"poiid":"B2094757DB68A5FB4593","title":"东北人家","lon":"121.482361","lat":"31.225854","category":"82","category_name":"东北菜","address":"黄浦区云南南路295号(近淮海路)"},{"poiid":"B2094750DA6DA7F4489D","title":"寿宁路23号长寿面馆","lon":"121.483512","lat":"31.227197","category":"247","category_name":"餐饮美食","address":null},{"poiid":"B209475CD565A5FA429A","title":"80后烤吧","lon":"121.484397","lat":"31.224946","category":"247","category_name":"餐饮美食","address":"上海市 金陵中路500号亚龙国际广场3楼"},{"poiid":"B2094757D068A1F44693","title":"中国人寿保险股份有限公司上海市分公司 中国人寿大厦","lon":"121.482635","lat":"31.225897","category":"46","category_name":"楼宇","address":"上海黄浦区人民路858号"},{"poiid":"B2094654DB64ABFC4592","title":"新世界假日豪都酒店","lon":"121.48165","lat":"31.22786","category":"250","category_name":"公园户外","address":"黄浦区广西南路41号(近金陵东路)"},{"poiid":"B2094757D568A5F4449F","title":"锦江之星旅馆(淮海东路店)","lon":"121.4821","lat":"31.2257805500002","category":"216","category_name":"经济型连锁酒店","address":"上海市黄浦区云南南路293号(淮海东路口)"},{"poiid":"B2094752DA65A5F8439A","title":"三宝粥铺","lon":"121.482953","lat":"31.225409","category":"247","category_name":"餐饮美食","address":"上海市 金陵中路"},{"poiid":"B2094654DA6EA5FC479D","title":"中国人寿大厦","lon":"121.48263","lat":"31.22589","category":"46","category_name":"楼宇","address":"人民路858"},{"poiid":"B2094655D26AAAFA4492","title":"上游社会桌游俱乐部","lon":"121.48243","lat":"31.22873","category":"248","category_name":"生活娱乐","address":"黄浦区浙江南路88号东新大厦216商铺(近宁海东路)"},{"poiid":"B2094750D26FA5FC449E","title":"寿宁路龙虾街","lon":"121.483604","lat":"31.225391","category":"247","category_name":"餐饮美食","address":"黄浦区寿宁路9号"},{"poiid":"B2094757D16EA0F4429C","title":"彭浦第一炸(寿宁路店)","lon":"121.483581738","lat":"31.2253271956","category":"68","category_name":"快餐厅","address":"黄浦区寿宁路13号(近西藏南路)"},{"poiid":"B2094654DA6EA6F54093","title":"新亚大包 云南南路","lon":"121.48190516493","lat":"31.22635464802","category":"68","category_name":"快餐厅","address":"黄浦区云南南路261号(近淮海东路)"},{"poiid":"B2094757D468A0FE4598","title":"晓贤生煎 云南南路店","lon":"121.48174","lat":"31.22643","category":"68","category_name":"快餐厅","address":"黄浦区云南南路147号(近淮海东路)"},{"poiid":"B2094753D668A4FE499E","title":"CLUB S2","lon":"121.483741","lat":"31.225388","category":"500","category_name":"未知分类","address":"上海市 淮海路1号柳林大厦6楼"},{"poiid":"B2094654DB6AA3F5409D","title":"图门郎特色烧烤(云南南路店)","lon":"121.4816","lat":"31.22662","category":"247","category_name":"餐饮美食","address":"黄浦区云南南路127号(近金陵东路)"},{"poiid":"B2094654DA6EA6FA449F","title":"福星大厦","lon":"121.48196","lat":"31.22746","category":"46","category_name":"楼宇","address":"黄浦区外滩23号,中山东一路,南京东路"},{"poiid":"B2094655D36CA0F5429D","title":"淮海东路云南南路","lon":"121.48279","lat":"31.22667","category":"38","category_name":"公交车站","address":""},{"poiid":"B2094757D465A4FC469D","title":"吉昌桂林米粉 广西南路店","lon":"121.482224054","lat":"31.226701793","category":"68","category_name":"快餐厅","address":"黄浦区广西南路48号(宁海路口)"},{"poiid":"B2094757D16FA3FA4693","title":"旺比面馆","lon":"121.48369723","lat":"31.227581243","category":"68","category_name":"快餐厅","address":"黄浦区浙江南路(金陵东路口)"},{"poiid":"B2094753DB6CA5F9489B","title":"稻香","lon":"121.484268","lat":"31.227146","category":"247","category_name":"餐饮美食","address":"上海市 环贸广场iapm3楼301"},{"poiid":"B2094757D069A7FD4998","title":"Kevin造型(云南南路店)","lon":"121.4818","lat":"31.22611","category":"148","category_name":"美容美发店","address":"黄浦区云南南路188号(近淮海东路)"},{"poiid":"B2094654DA6EA6FF4499","title":"台园圆圆香云吞(浙江南路)","lon":"121.48259","lat":"31.22893","category":"68","category_name":"快餐厅","address":"黄浦区浙江南路75号(近延安东路)"},{"poiid":"B2094655D26AA0FC439B","title":"天意婚礼购物广场","lon":"121.48555","lat":"31.22773","category":"247","category_name":"餐饮美食","address":"上海黄浦区人民路757号(近福建南路)  "},{"poiid":"B2094654DA6EA6F84793","title":"中国移动金陵东路营业厅","lon":"121.48207","lat":"31.22794","category":"151","category_name":"电讯营业厅","address":"黄浦区金陵东路396号"},{"poiid":"B2094757D664A7F8449C","title":"台湾原汁原味牛肉面","lon":"121.48246","lat":"31.22653","category":"68","category_name":"快餐厅","address":"黄浦区淮海东路30号(近广西南路)"},{"poiid":"B2094757D06FA0FE429E","title":"云南路美食街","lon":"121.481732","lat":"31.226457","category":"68","category_name":"快餐厅","address":"黄浦区云南南路(近延安东路)"},{"poiid":"B2094757D16EA1FC489E","title":"淮海东路","lon":"121.48358873","lat":"31.227366239","category":"500","category_name":"未知分类","address":"上海淮海东路"},{"poiid":"B2094757D46DABF54399","title":"甜心皇后 淮海东路店 Sweet Queen","lon":"121.482449","lat":"31.226318","category":"67","category_name":"甜品店","address":"黄浦区淮海东路49号东淮海国际大厦内(近云南南路)"},{"poiid":"B2094753D76FAAFA449C","title":"上海滩国泰旗舰店","lon":"121.466011","lat":"31.216125","category":"249","category_name":"购物服务","address":"淮海中路868号"},{"poiid":"B209475CD564A7F84292","title":"上海滩新天地店","lon":"121.47463","lat":"31.22164","category":"119","category_name":"商场","address":"\"太仓路181弄新天地北里15号\r\n\""},{"poiid":"B209475CD564A7F8439E","title":"上海滩中信泰富店","lon":"121.45602","lat":"31.22851","category":"119","category_name":"商场","address":"\"南京西路1168号中信泰富广场，店铺号221.\r\n\""},{"poiid":"B209475CD564A7F84392","title":"上海滩浦东香格里拉店","lon":"121.50058","lat":"31.23634","category":"119","category_name":"商场","address":"浦东富成路33号香格里拉酒店内大堂层"},{"poiid":"B2094757D06FA1F54598","title":"德兴馆(金陵路店)","lon":"121.48173","lat":"31.2273","category":"76","category_name":"上海菜","address":"黄浦区金陵东路416号1楼(广西南路金陵东路)"},{"poiid":"B2094757D068A4FD469A","title":"金陵东路浙江南路","lon":"121.482636","lat":"31.22811","category":"38","category_name":"公交车站","address":"上海金陵东路浙江南路"},{"poiid":"B2094750D76FA4FD4598","title":"朵巴创意西域料理","lon":"121.482","lat":"31.2264","category":"90","category_name":"清真餐馆","address":"卢湾区淮海东路49号东淮海国际大厦104室(近地铁8号线大世界站)"},{"poiid":"B2094654DA6EA6FA409B","title":"金陵东路营业厅","lon":"121.48404","lat":"31.2287","category":"151","category_name":"电讯营业厅","address":"黄浦区金陵东路391号"},{"poiid":"B2094757D16CABFD469A","title":"自由港淮海店","lon":"121.482952738","lat":"31.2253571962","category":"500","category_name":"未知分类","address":"上海淮海路"},{"poiid":"B2094757D069A3F9429D","title":"人民路","lon":"121.483271","lat":"31.225704","category":"500","category_name":"未知分类","address":"上海人民路"},{"poiid":"B2094757DB6EA7FA439F","title":"上海中星君亭酒店（原上海中星大酒店）","lon":"121.4833999","lat":"31.22669372","category":"75","category_name":"浙江菜","address":"黄浦区人民路839号(近浙江南路)"},{"poiid":"B2094757D06FAAF9439A","title":"GUCCI(时代广场店)","lon":"121.484517","lat":"31.225729","category":"141","category_name":"服装鞋帽皮具店","address":"卢湾区淮海中路99号大上海时代广场大上海时代广场"},{"poiid":"B2094750D76DA7FD429C","title":"宝寿司(广西南路店)","lon":"121.482","lat":"31.2267","category":"95","category_name":"日本料理","address":"黄浦区广西南路98号(近淮海东路)"},{"poiid":"B2094757D06FA6FB409C","title":"自力教育(淮海东路总校)","lon":"121.48167","lat":"31.22623","category":"260","category_name":"其他","address":"黄浦区云南南路180号淮云大厦14楼(淮海东路口)"},{"poiid":"B2094757DA65A5FB4692","title":"汉庭全季酒店（上海淮海路店）","lon":"121.48227","lat":"31.225427","category":"216","category_name":"经济型连锁酒店","address":"上海市黄浦区云南南路297号(近淮海路)"},{"poiid":"B2094757D064A7FA449D","title":"群力中医门诊部","lon":"121.48233","lat":"31.22767","category":"162","category_name":"医院","address":"上海黄浦区金陵东路396号  "},{"poiid":"B2094757D06FA7FF4199","title":"85度C(淮海店)","lon":"121.481985209","lat":"31.2262435593","category":"112","category_name":"糕饼店","address":"上海黄浦区淮海东路60号(近云南南路)"},{"poiid":"B2094655D268A5FF499A","title":"东淮海国际大厦","lon":"121.4824","lat":"31.22617","category":"46","category_name":"楼宇","address":"淮海东路45-49"},{"poiid":"B2094757D068A3FE489A","title":"东淮海公寓","lon":"121.48508","lat":"31.227438","category":"47","category_name":"住宅区","address":"上海市黄浦区人民路777弄"},{"poiid":"B2094654DA6EA6FA4998","title":"重庆鸡公煲(云南南路)","lon":"121.48172","lat":"31.22646","category":"71","category_name":"四川菜","address":"黄浦区云南南路3号(近延安东路)"},{"poiid":"B2094757D169A5FF489C","title":"重庆小天鹅火锅","lon":"121.48479673","lat":"31.22649922","category":"500","category_name":"未知分类","address":"上海市黄浦区云南南路"},{"poiid":"B2094654DB6AA6FF479D","title":"上海中星大酒店","lon":"121.48469","lat":"31.22758","category":"214","category_name":"四星级宾馆","address":"人民路839号"},{"poiid":"B2094757DB68A5FB4593","title":"东北人家","lon":"121.482361","lat":"31.225854","category":"82","category_name":"东北菜","address":"黄浦区云南南路295号(近淮海路)"},{"poiid":"B2094750DA6DA7F4489D","title":"寿宁路23号长寿面馆","lon":"121.483512","lat":"31.227197","category":"247","category_name":"餐饮美食","address":null},{"poiid":"B209475CD565A5FA429A","title":"80后烤吧","lon":"121.484397","lat":"31.224946","category":"247","category_name":"餐饮美食","address":"上海市 金陵中路500号亚龙国际广场3楼"},{"poiid":"B2094757D068A1F44693","title":"中国人寿保险股份有限公司上海市分公司 中国人寿大厦","lon":"121.482635","lat":"31.225897","category":"46","category_name":"楼宇","address":"上海黄浦区人民路858号"},{"poiid":"B2094654DB64ABFC4592","title":"新世界假日豪都酒店","lon":"121.48165","lat":"31.22786","category":"250","category_name":"公园户外","address":"黄浦区广西南路41号(近金陵东路)"},{"poiid":"B2094757D568A5F4449F","title":"锦江之星旅馆(淮海东路店)","lon":"121.4821","lat":"31.2257805500002","category":"216","category_name":"经济型连锁酒店","address":"上海市黄浦区云南南路293号(淮海东路口)"},{"poiid":"B2094752DA65A5F8439A","title":"三宝粥铺","lon":"121.482953","lat":"31.225409","category":"247","category_name":"餐饮美食","address":"上海市 金陵中路"},{"poiid":"B2094654DA6EA5FC479D","title":"中国人寿大厦","lon":"121.48263","lat":"31.22589","category":"46","category_name":"楼宇","address":"人民路858"},{"poiid":"B2094655D26AAAFA4492","title":"上游社会桌游俱乐部","lon":"121.48243","lat":"31.22873","category":"248","category_name":"生活娱乐","address":"黄浦区浙江南路88号东新大厦216商铺(近宁海东路)"},{"poiid":"B2094750D26FA5FC449E","title":"寿宁路龙虾街","lon":"121.483604","lat":"31.225391","category":"247","category_name":"餐饮美食","address":"黄浦区寿宁路9号"},{"poiid":"B2094757D16EA0F4429C","title":"彭浦第一炸(寿宁路店)","lon":"121.483581738","lat":"31.2253271956","category":"68","category_name":"快餐厅","address":"黄浦区寿宁路13号(近西藏南路)"},{"poiid":"B2094654DA6EA6F54093","title":"新亚大包 云南南路","lon":"121.48190516493","lat":"31.22635464802","category":"68","category_name":"快餐厅","address":"黄浦区云南南路261号(近淮海东路)"},{"poiid":"B2094757D468A0FE4598","title":"晓贤生煎 云南南路店","lon":"121.48174","lat":"31.22643","category":"68","category_name":"快餐厅","address":"黄浦区云南南路147号(近淮海东路)"},{"poiid":"B2094753D668A4FE499E","title":"CLUB S2","lon":"121.483741","lat":"31.225388","category":"500","category_name":"未知分类","address":"上海市 淮海路1号柳林大厦6楼"},{"poiid":"B2094654DB6AA3F5409D","title":"图门郎特色烧烤(云南南路店)","lon":"121.4816","lat":"31.22662","category":"247","category_name":"餐饮美食","address":"黄浦区云南南路127号(近金陵东路)"},{"poiid":"B2094654DA6EA6FA449F","title":"福星大厦","lon":"121.48196","lat":"31.22746","category":"46","category_name":"楼宇","address":"黄浦区外滩23号,中山东一路,南京东路"},{"poiid":"B2094655D36CA0F5429D","title":"淮海东路云南南路","lon":"121.48279","lat":"31.22667","category":"38","category_name":"公交车站","address":""},{"poiid":"B2094757D465A4FC469D","title":"吉昌桂林米粉 广西南路店","lon":"121.482224054","lat":"31.226701793","category":"68","category_name":"快餐厅","address":"黄浦区广西南路48号(宁海路口)"},{"poiid":"B2094757D16FA3FA4693","title":"旺比面馆","lon":"121.48369723","lat":"31.227581243","category":"68","category_name":"快餐厅","address":"黄浦区浙江南路(金陵东路口)"},{"poiid":"B2094753DB6CA5F9489B","title":"稻香","lon":"121.484268","lat":"31.227146","category":"247","category_name":"餐饮美食","address":"上海市 环贸广场iapm3楼301"},{"poiid":"B2094757D069A7FD4998","title":"Kevin造型(云南南路店)","lon":"121.4818","lat":"31.22611","category":"148","category_name":"美容美发店","address":"黄浦区云南南路188号(近淮海东路)"},{"poiid":"B2094654DA6EA6FF4499","title":"台园圆圆香云吞(浙江南路)","lon":"121.48259","lat":"31.22893","category":"68","category_name":"快餐厅","address":"黄浦区浙江南路75号(近延安东路)"},{"poiid":"B2094655D26AA0FC439B","title":"天意婚礼购物广场","lon":"121.48555","lat":"31.22773","category":"247","category_name":"餐饮美食","address":"上海黄浦区人民路757号(近福建南路)  "},{"poiid":"B2094654DA6EA6F84793","title":"中国移动金陵东路营业厅","lon":"121.48207","lat":"31.22794","category":"151","category_name":"电讯营业厅","address":"黄浦区金陵东路396号"},{"poiid":"B2094757D664A7F8449C","title":"台湾原汁原味牛肉面","lon":"121.48246","lat":"31.22653","category":"68","category_name":"快餐厅","address":"黄浦区淮海东路30号(近广西南路)"}]