[{"poiid":"B2094750DA65A3FD4399","title":"辰山植物园","lon":"121.185836","lat":"31.075887","category":"196","category_name":"公园","address":"上海市松江区辰花路"},{"poiid":"B2094757D06BA2FF499F","title":"辰山植物园大草坪","lon":"121.180050196","lat":"31.0788457038","category":"197","category_name":"动物园","address":"上海市松江区辰塔路"},{"poiid":"B2094757D06FA7FD4392","title":"上海工程技术大学(松江校区)","lon":"121.20435571","lat":"31.05668136","category":"52","category_name":"高等院校","address":"松江区松江龙腾路333号"},{"poiid":"B2094757D16CABF54193","title":"辰山植物园月季园","lon":"121.181565196","lat":"31.072828575","category":"500","category_name":"未知分类","address":"上海辰山植物园"},{"poiid":"B2094757D065A5F5439D","title":"华东政法大学明法楼","lon":"121.19792175","lat":"31.05569025","category":"500","category_name":"未知分类","address":"上海松江大学城"},{"poiid":"B2094655D26FABFC4699","title":"上海工程技术大学图书馆","lon":"121.20449","lat":"31.05704","category":"181","category_name":"图书馆","address":"松江区龙腾路333号上海工程技术大学内"},{"poiid":"B2094654DB6DA4FF489C","title":"大众国际会议中心","lon":"121.189","lat":"31.08096","category":"214","category_name":"四星级宾馆","address":"松江区赵昆路1515号(近沈砖公路)"},{"poiid":"B2094654DB6DA4FF499B","title":"华东政法学院(广富林路)","lon":"121.1954","lat":"31.05699","category":"671","category_name":"高校中心点","address":""},{"poiid":"B2094757D16EA3F4409B","title":"大学城四期宿舍","lon":"121.198118996","lat":"31.0515447195","category":"252","category_name":"楼宇机构","address":"上海松江大学城四期"},{"poiid":"B2094757D16BA1FE469D","title":"松江大學城六期三新路生活園區","lon":"121.18943994","lat":"31.053384463","category":"500","category_name":"未知分类","address":"上海松江三新北路1800號"},{"poiid":"B2094750D56FA4FD4692","title":"华东政法大学图书馆（松江校区）","lon":"121.197219","lat":"31.055059","category":"252","category_name":"楼宇机构","address":"龙源路555号"},{"poiid":"B2094757D06FA6FF4593","title":"华东政法大学明法楼东楼","lon":"121.200904846","lat":"31.0555477142","category":"253","category_name":"校园生活","address":"上海近龙源路555号"},{"poiid":"B2094757D068A4FA489F","title":"华东政法大学食堂(松江校区)","lon":"121.19753","lat":"31.05492","category":"68","category_name":"快餐厅","address":"松江区华东政法学院松江校区"},{"poiid":"B2094750D56EA3FF4498","title":"辰山植物园秋季活动－辰山秋韵（签到惊喜）","lon":"121.181173","lat":"31.072418","category":"250","category_name":"公园户外","address":"松江区辰花公路3888号"},{"poiid":"B2094757D66CA5F9439A","title":"广富林遗址文化公园","lon":"121.19717419","lat":"31.057697176","category":"196","category_name":"公园","address":"上海近郊松江  "},{"poiid":"B2094654DB6EA0FE449D","title":"广富林遗址","lon":"121.19608","lat":"31.06449","category":"250","category_name":"公园户外","address":""},{"poiid":"B2094757D069A2FA439C","title":"华东政法大学集英楼","lon":"121.20215606","lat":"31.055418014","category":"253","category_name":"校园生活","address":"上海近松江区龙源路555号"},{"poiid":"B2094757D06BA5FE4193","title":"上海工程技术大学实训楼1号楼","lon":"121.20179956","lat":"31.060506296","category":"500","category_name":"未知分类","address":"上海工程技术大学实训楼1号楼"},{"poiid":"B2094757D065A6FA439C","title":"新陈家食堂","lon":"121.18435","lat":"31.06734","category":"76","category_name":"上海菜","address":"松江区新陈家村张家公路187号(近辰花路)"},{"poiid":"B2094757D068A5FD459F","title":"华东政法大学汇贤楼","lon":"121.20063781","lat":"31.055269241","category":"253","category_name":"校园生活","address":"上海市松江区龙源路555号附近"},{"poiid":"B2094750DA6AA5F8439A","title":"圣约翰大学","lon":"121.189834","lat":"31.053815","category":"500","category_name":"未知分类","address":null},{"poiid":"B2094757D06BA4FF489F","title":"上海工程技术大学体育馆","lon":"121.202497","lat":"31.054414","category":"220","category_name":"运动场所","address":"上海松江区龙腾路333号工程技术大学内"},{"poiid":"B2094655D36CA5F84198","title":"辰山植物园(招呼站)","lon":"121.18943","lat":"31.05438","category":"38","category_name":"公交车站","address":""},{"poiid":"B2094757D164A4FD489F","title":"佘山珑原别墅","lon":"121.19510019","lat":"31.076042643","category":"47","category_name":"住宅区","address":"上海市松江区辰花公路龙源路"},{"poiid":"B2094757D66EA7FD4098","title":"Enovos Coffee","lon":"121.198757296","lat":"31.068253277","category":"500","category_name":"未知分类","address":"上海松江大学城三期工商银行楼上"},{"poiid":"B2094655D26FAAFA469D","title":"上海工程技术大学行政楼","lon":"121.20844","lat":"31.05723","category":"52","category_name":"高等院校","address":"腾飞东路"},{"poiid":"B2094757D065A7F8409B","title":"华东政法大学明镜楼","lon":"121.19636219","lat":"31.053568162","category":"500","category_name":"未知分类","address":"上海龙源路555号"},{"poiid":"B2094757D165A5FD4898","title":"辰山植物园水生植物园","lon":"121.189439","lat":"31.054384","category":"500","category_name":"未知分类","address":"上海辰山植物园"},{"poiid":"B2094655D36CA5F8429B","title":"辰花公路龙源路","lon":"121.20241","lat":"31.06944","category":"38","category_name":"公交车站","address":""},{"poiid":"B2094757D569A2FB469A","title":"易捷便利店","lon":"121.20095676","lat":"31.06822266","category":"117","category_name":"便民商店/便利店","address":"中国上海市松江区"},{"poiid":"B2094757D069A6F44899","title":"上海工程技术大学 教学F楼","lon":"121.206471074","lat":"31.0557901524","category":"253","category_name":"校园生活","address":"上海龙腾路333号"},{"poiid":"B2094655D264A7FA4292","title":"复地香堤苑","lon":"121.193935","lat":"31.057255","category":"47","category_name":"住宅区","address":"上海市松江区三新路1755号"},{"poiid":"B2094757D065A5FE409D","title":"上海工程技术大学志宏堂","lon":"121.2001337","lat":"31.051795228","category":"253","category_name":"校园生活","address":"上海工程技术大学图书馆"},{"poiid":"B2094654DB6EA0FE459B","title":"山水景苑","lon":"121.2034","lat":"31.061382","category":"47","category_name":"住宅区","address":"龙源路1208弄"},{"poiid":"B2094757D16CA5FD479D","title":"华政操场","lon":"121.19042719","lat":"31.052721144","category":"253","category_name":"校园生活","address":"上海市松江区广富林路"},{"poiid":"B2094655D26FA5FB499B","title":"佘山国家旅游渡假区","lon":"121.20378","lat":"31.08669","category":"250","category_name":"公园户外","address":"松江区佘山"},{"poiid":"B2094757D06AABFE449E","title":"上海工程技术大学 教学A楼","lon":"121.201325","lat":"31.060008","category":"253","category_name":"校园生活","address":"上海龙腾路333号"},{"poiid":"B2094757D568A7FE469C","title":"大业领地","lon":"121.19519421706","lat":"31.058753803848","category":"47","category_name":"住宅区","address":"松江区工业区鼎源路广富林路路口"},{"poiid":"B2094655D36CA5F84298","title":"辰花公路辰塔路","lon":"121.1759","lat":"31.06879","category":"38","category_name":"公交车站","address":""},{"poiid":"B2094757D169A5F94692","title":"辰花路草莓基地","lon":"121.205332196","lat":"31.0615893344","category":"500","category_name":"未知分类","address":"上海市松江区龙源路"},{"poiid":"B2094655D36CA7F5419E","title":"广富林路","lon":"121.19085","lat":"31.05508","category":"38","category_name":"公交车站","address":""},{"poiid":"B2094757D16AA2FB459F","title":"华东政法大学明志楼","lon":"121.192037196","lat":"31.0539731714","category":"500","category_name":"未知分类","address":"上海松江区龙源路555号"},{"poiid":"B2094655D36CA1FF4893","title":"龙源路广富林路","lon":"121.20092","lat":"31.05811","category":"38","category_name":"公交车站","address":""},{"poiid":"B2094757D16FA0FD4693","title":"华政一食堂","lon":"121.197728","lat":"31.055719","category":"247","category_name":"餐饮美食","address":"上海华东政法大学松江校区"},{"poiid":"B2094654DB64A0FC439A","title":"上海工程技术大学(腾飞北路)","lon":"121.20436","lat":"31.05667","category":"52","category_name":"高等院校","address":"松江区龙腾路333"},{"poiid":"B2094753D66CA5FB429E","title":"布丁酒店(上海松江大学城欢乐谷店)","lon":"121.203786","lat":"31.06043","category":"216","category_name":"经济型连锁酒店","address":"龙源路1208弄148号"},{"poiid":"B2094757D568A2F5439E","title":"学苑宾馆","lon":"121.18842475","lat":"31.05353543","category":"251","category_name":"出行住宿","address":"松江区广富林路3499号(三新北路口)"},{"poiid":"B2094757D065A4FA449C","title":"悸动台湾正宗烧仙草(松江大学城店)","lon":"121.197186155","lat":"31.0512074087","category":"113","category_name":"冷饮店","address":"松江区松江大学城四期文汇路1000弄12号大学食代对面"},{"poiid":"B2094655D36CA7F5409D","title":"广富林路三新路","lon":"121.18934","lat":"31.05437","category":"38","category_name":"公交车站","address":""},{"poiid":"B2094654DA6BABF94292","title":"中建三局中凯佘山别墅","lon":"121.19762","lat":"31.08419","category":"47","category_name":"住宅区","address":"沈砖公路4777"},{"poiid":"B2094750DA65A3FD4399","title":"辰山植物园","lon":"121.185836","lat":"31.075887","category":"196","category_name":"公园","address":"上海市松江区辰花路"},{"poiid":"B2094757D06BA2FF499F","title":"辰山植物园大草坪","lon":"121.180050196","lat":"31.0788457038","category":"197","category_name":"动物园","address":"上海市松江区辰塔路"},{"poiid":"B2094757D06FA7FD4392","title":"上海工程技术大学(松江校区)","lon":"121.20435571","lat":"31.05668136","category":"52","category_name":"高等院校","address":"松江区松江龙腾路333号"},{"poiid":"B2094757D16CABF54193","title":"辰山植物园月季园","lon":"121.181565196","lat":"31.072828575","category":"500","category_name":"未知分类","address":"上海辰山植物园"},{"poiid":"B2094757D065A5F5439D","title":"华东政法大学明法楼","lon":"121.19792175","lat":"31.05569025","category":"500","category_name":"未知分类","address":"上海松江大学城"},{"poiid":"B2094655D26FABFC4699","title":"上海工程技术大学图书馆","lon":"121.20449","lat":"31.05704","category":"181","category_name":"图书馆","address":"松江区龙腾路333号上海工程技术大学内"},{"poiid":"B2094654DB6DA4FF489C","title":"大众国际会议中心","lon":"121.189","lat":"31.08096","category":"214","category_name":"四星级宾馆","address":"松江区赵昆路1515号(近沈砖公路)"},{"poiid":"B2094654DB6DA4FF499B","title":"华东政法学院(广富林路)","lon":"121.1954","lat":"31.05699","category":"671","category_name":"高校中心点","address":""},{"poiid":"B2094757D16EA3F4409B","title":"大学城四期宿舍","lon":"121.198118996","lat":"31.0515447195","category":"252","category_name":"楼宇机构","address":"上海松江大学城四期"},{"poiid":"B2094757D16BA1FE469D","title":"松江大學城六期三新路生活園區","lon":"121.18943994","lat":"31.053384463","category":"500","category_name":"未知分类","address":"上海松江三新北路1800號"},{"poiid":"B2094750D56FA4FD4692","title":"华东政法大学图书馆（松江校区）","lon":"121.197219","lat":"31.055059","category":"252","category_name":"楼宇机构","address":"龙源路555号"},{"poiid":"B2094757D06FA6FF4593","title":"华东政法大学明法楼东楼","lon":"121.200904846","lat":"31.0555477142","category":"253","category_name":"校园生活","address":"上海近龙源路555号"},{"poiid":"B2094757D068A4FA489F","title":"华东政法大学食堂(松江校区)","lon":"121.19753","lat":"31.05492","category":"68","category_name":"快餐厅","address":"松江区华东政法学院松江校区"},{"poiid":"B2094750D56EA3FF4498","title":"辰山植物园秋季活动－辰山秋韵（签到惊喜）","lon":"121.181173","lat":"31.072418","category":"250","category_name":"公园户外","address":"松江区辰花公路3888号"},{"poiid":"B2094757D66CA5F9439A","title":"广富林遗址文化公园","lon":"121.19717419","lat":"31.057697176","category":"196","category_name":"公园","address":"上海近郊松江  "},{"poiid":"B2094654DB6EA0FE449D","title":"广富林遗址","lon":"121.19608","lat":"31.06449","category":"250","category_name":"公园户外","address":""},{"poiid":"B2094757D069A2FA439C","title":"华东政法大学集英楼","lon":"121.20215606","lat":"31.055418014","category":"253","category_name":"校园生活","address":"上海近松江区龙源路555号"},{"poiid":"B2094757D06BA5FE4193","title":"上海工程技术大学实训楼1号楼","lon":"121.20179956","lat":"31.060506296","category":"500","category_name":"未知分类","address":"上海工程技术大学实训楼1号楼"},{"poiid":"B2094757D065A6FA439C","title":"新陈家食堂","lon":"121.18435","lat":"31.06734","category":"76","category_name":"上海菜","address":"松江区新陈家村张家公路187号(近辰花路)"},{"poiid":"B2094757D068A5FD459F","title":"华东政法大学汇贤楼","lon":"121.20063781","lat":"31.055269241","category":"253","category_name":"校园生活","address":"上海市松江区龙源路555号附近"},{"poiid":"B2094750DA6AA5F8439A","title":"圣约翰大学","lon":"121.189834","lat":"31.053815","category":"500","category_name":"未知分类","address":null},{"poiid":"B2094757D06BA4FF489F","title":"上海工程技术大学体育馆","lon":"121.202497","lat":"31.054414","category":"220","category_name":"运动场所","address":"上海松江区龙腾路333号工程技术大学内"},{"poiid":"B2094655D36CA5F84198","title":"辰山植物园(招呼站)","lon":"121.18943","lat":"31.05438","category":"38","category_name":"公交车站","address":""},{"poiid":"B2094757D164A4FD489F","title":"佘山珑原别墅","lon":"121.19510019","lat":"31.076042643","category":"47","category_name":"住宅区","address":"上海市松江区辰花公路龙源路"},{"poiid":"B2094757D66EA7FD4098","title":"Enovos Coffee","lon":"121.198757296","lat":"31.068253277","category":"500","category_name":"未知分类","address":"上海松江大学城三期工商银行楼上"},{"poiid":"B2094655D26FAAFA469D","title":"上海工程技术大学行政楼","lon":"121.20844","lat":"31.05723","category":"52","category_name":"高等院校","address":"腾飞东路"},{"poiid":"B2094757D065A7F8409B","title":"华东政法大学明镜楼","lon":"121.19636219","lat":"31.053568162","category":"500","category_name":"未知分类","address":"上海龙源路555号"},{"poiid":"B2094757D165A5FD4898","title":"辰山植物园水生植物园","lon":"121.189439","lat":"31.054384","category":"500","category_name":"未知分类","address":"上海辰山植物园"},{"poiid":"B2094655D36CA5F8429B","title":"辰花公路龙源路","lon":"121.20241","lat":"31.06944","category":"38","category_name":"公交车站","address":""},{"poiid":"B2094757D569A2FB469A","title":"易捷便利店","lon":"121.20095676","lat":"31.06822266","category":"117","category_name":"便民商店/便利店","address":"中国上海市松江区"},{"poiid":"B2094757D069A6F44899","title":"上海工程技术大学 教学F楼","lon":"121.206471074","lat":"31.0557901524","category":"253","category_name":"校园生活","address":"上海龙腾路333号"},{"poiid":"B2094655D264A7FA4292","title":"复地香堤苑","lon":"121.193935","lat":"31.057255","category":"47","category_name":"住宅区","address":"上海市松江区三新路1755号"},{"poiid":"B2094757D065A5FE409D","title":"上海工程技术大学志宏堂","lon":"121.2001337","lat":"31.051795228","category":"253","category_name":"校园生活","address":"上海工程技术大学图书馆"},{"poiid":"B2094654DB6EA0FE459B","title":"山水景苑","lon":"121.2034","lat":"31.061382","category":"47","category_name":"住宅区","address":"龙源路1208弄"},{"poiid":"B2094757D16CA5FD479D","title":"华政操场","lon":"121.19042719","lat":"31.052721144","category":"253","category_name":"校园生活","address":"上海市松江区广富林路"},{"poiid":"B2094655D26FA5FB499B","title":"佘山国家旅游渡假区","lon":"121.20378","lat":"31.08669","category":"250","category_name":"公园户外","address":"松江区佘山"},{"poiid":"B2094757D06AABFE449E","title":"上海工程技术大学 教学A楼","lon":"121.201325","lat":"31.060008","category":"253","category_name":"校园生活","address":"上海龙腾路333号"},{"poiid":"B2094757D568A7FE469C","title":"大业领地","lon":"121.19519421706","lat":"31.058753803848","category":"47","category_name":"住宅区","address":"松江区工业区鼎源路广富林路路口"},{"poiid":"B2094655D36CA5F84298","title":"辰花公路辰塔路","lon":"121.1759","lat":"31.06879","category":"38","category_name":"公交车站","address":""},{"poiid":"B2094757D169A5F94692","title":"辰花路草莓基地","lon":"121.205332196","lat":"31.0615893344","category":"500","category_name":"未知分类","address":"上海市松江区龙源路"},{"poiid":"B2094655D36CA7F5419E","title":"广富林路","lon":"121.19085","lat":"31.05508","category":"38","category_name":"公交车站","address":""},{"poiid":"B2094757D16AA2FB459F","title":"华东政法大学明志楼","lon":"121.192037196","lat":"31.0539731714","category":"500","category_name":"未知分类","address":"上海松江区龙源路555号"},{"poiid":"B2094655D36CA1FF4893","title":"龙源路广富林路","lon":"121.20092","lat":"31.05811","category":"38","category_name":"公交车站","address":""},{"poiid":"B2094757D16FA0FD4693","title":"华政一食堂","lon":"121.197728","lat":"31.055719","category":"247","category_name":"餐饮美食","address":"上海华东政法大学松江校区"},{"poiid":"B2094654DB64A0FC439A","title":"上海工程技术大学(腾飞北路)","lon":"121.20436","lat":"31.05667","category":"52","category_name":"高等院校","address":"松江区龙腾路333"},{"poiid":"B2094753D66CA5FB429E","title":"布丁酒店(上海松江大学城欢乐谷店)","lon":"121.203786","lat":"31.06043","category":"216","category_name":"经济型连锁酒店","address":"龙源路1208弄148号"},{"poiid":"B2094757D568A2F5439E","title":"学苑宾馆","lon":"121.18842475","lat":"31.05353543","category":"251","category_name":"出行住宿","address":"松江区广富林路3499号(三新北路口)"},{"poiid":"B2094757D065A4FA449C","title":"悸动台湾正宗烧仙草(松江大学城店)","lon":"121.197186155","lat":"31.0512074087","category":"113","category_name":"冷饮店","address":"松江区松江大学城四期文汇路1000弄12号大学食代对面"},{"poiid":"B2094655D36CA7F5409D","title":"广富林路三新路","lon":"121.18934","lat":"31.05437","category":"38","category_name":"公交车站","address":""},{"poiid":"B2094654DA6BABF94292","title":"中建三局中凯佘山别墅","lon":"121.19762","lat":"31.08419","category":"47","category_name":"住宅区","address":"沈砖公路4777"},{"poiid":"B2094750DA65A3FD4399","title":"辰山植物园","lon":"121.185836","lat":"31.075887","category":"196","category_name":"公园","address":"上海市松江区辰花路"},{"poiid":"B2094757D06BA2FF499F","title":"辰山植物园大草坪","lon":"121.180050196","lat":"31.0788457038","category":"197","category_name":"动物园","address":"上海市松江区辰塔路"},{"poiid":"B2094757D06FA7FD4392","title":"上海工程技术大学(松江校区)","lon":"121.20435571","lat":"31.05668136","category":"52","category_name":"高等院校","address":"松江区松江龙腾路333号"},{"poiid":"B2094757D16CABF54193","title":"辰山植物园月季园","lon":"121.181565196","lat":"31.072828575","category":"500","category_name":"未知分类","address":"上海辰山植物园"},{"poiid":"B2094757D065A5F5439D","title":"华东政法大学明法楼","lon":"121.19792175","lat":"31.05569025","category":"500","category_name":"未知分类","address":"上海松江大学城"},{"poiid":"B2094655D26FABFC4699","title":"上海工程技术大学图书馆","lon":"121.20449","lat":"31.05704","category":"181","category_name":"图书馆","address":"松江区龙腾路333号上海工程技术大学内"},{"poiid":"B2094654DB6DA4FF489C","title":"大众国际会议中心","lon":"121.189","lat":"31.08096","category":"214","category_name":"四星级宾馆","address":"松江区赵昆路1515号(近沈砖公路)"},{"poiid":"B2094654DB6DA4FF499B","title":"华东政法学院(广富林路)","lon":"121.1954","lat":"31.05699","category":"671","category_name":"高校中心点","address":""},{"poiid":"B2094757D16EA3F4409B","title":"大学城四期宿舍","lon":"121.198118996","lat":"31.0515447195","category":"252","category_name":"楼宇机构","address":"上海松江大学城四期"},{"poiid":"B2094757D16BA1FE469D","title":"松江大學城六期三新路生活園區","lon":"121.18943994","lat":"31.053384463","category":"500","category_name":"未知分类","address":"上海松江三新北路1800號"},{"poiid":"B2094750D56FA4FD4692","title":"华东政法大学图书馆（松江校区）","lon":"121.197219","lat":"31.055059","category":"252","category_name":"楼宇机构","address":"龙源路555号"},{"poiid":"B2094757D06FA6FF4593","title":"华东政法大学明法楼东楼","lon":"121.200904846","lat":"31.0555477142","category":"253","category_name":"校园生活","address":"上海近龙源路555号"},{"poiid":"B2094757D068A4FA489F","title":"华东政法大学食堂(松江校区)","lon":"121.19753","lat":"31.05492","category":"68","category_name":"快餐厅","address":"松江区华东政法学院松江校区"},{"poiid":"B2094750D56EA3FF4498","title":"辰山植物园秋季活动－辰山秋韵（签到惊喜）","lon":"121.181173","lat":"31.072418","category":"250","category_name":"公园户外","address":"松江区辰花公路3888号"},{"poiid":"B2094757D66CA5F9439A","title":"广富林遗址文化公园","lon":"121.19717419","lat":"31.057697176","category":"196","category_name":"公园","address":"上海近郊松江  "},{"poiid":"B2094654DB6EA0FE449D","title":"广富林遗址","lon":"121.19608","lat":"31.06449","category":"250","category_name":"公园户外","address":""},{"poiid":"B2094757D069A2FA439C","title":"华东政法大学集英楼","lon":"121.20215606","lat":"31.055418014","category":"253","category_name":"校园生活","address":"上海近松江区龙源路555号"},{"poiid":"B2094757D06BA5FE4193","title":"上海工程技术大学实训楼1号楼","lon":"121.20179956","lat":"31.060506296","category":"500","category_name":"未知分类","address":"上海工程技术大学实训楼1号楼"},{"poiid":"B2094757D065A6FA439C","title":"新陈家食堂","lon":"121.18435","lat":"31.06734","category":"76","category_name":"上海菜","address":"松江区新陈家村张家公路187号(近辰花路)"},{"poiid":"B2094757D068A5FD459F","title":"华东政法大学汇贤楼","lon":"121.20063781","lat":"31.055269241","category":"253","category_name":"校园生活","address":"上海市松江区龙源路555号附近"},{"poiid":"B2094750DA6AA5F8439A","title":"圣约翰大学","lon":"121.189834","lat":"31.053815","category":"500","category_name":"未知分类","address":null},{"poiid":"B2094757D06BA4FF489F","title":"上海工程技术大学体育馆","lon":"121.202497","lat":"31.054414","category":"220","category_name":"运动场所","address":"上海松江区龙腾路333号工程技术大学内"},{"poiid":"B2094655D36CA5F84198","title":"辰山植物园(招呼站)","lon":"121.18943","lat":"31.05438","category":"38","category_name":"公交车站","address":""},{"poiid":"B2094757D164A4FD489F","title":"佘山珑原别墅","lon":"121.19510019","lat":"31.076042643","category":"47","category_name":"住宅区","address":"上海市松江区辰花公路龙源路"},{"poiid":"B2094757D66EA7FD4098","title":"Enovos Coffee","lon":"121.198757296","lat":"31.068253277","category":"500","category_name":"未知分类","address":"上海松江大学城三期工商银行楼上"},{"poiid":"B2094655D26FAAFA469D","title":"上海工程技术大学行政楼","lon":"121.20844","lat":"31.05723","category":"52","category_name":"高等院校","address":"腾飞东路"},{"poiid":"B2094757D065A7F8409B","title":"华东政法大学明镜楼","lon":"121.19636219","lat":"31.053568162","category":"500","category_name":"未知分类","address":"上海龙源路555号"},{"poiid":"B2094757D165A5FD4898","title":"辰山植物园水生植物园","lon":"121.189439","lat":"31.054384","category":"500","category_name":"未知分类","address":"上海辰山植物园"},{"poiid":"B2094655D36CA5F8429B","title":"辰花公路龙源路","lon":"121.20241","lat":"31.06944","category":"38","category_name":"公交车站","address":""},{"poiid":"B2094757D569A2FB469A","title":"易捷便利店","lon":"121.20095676","lat":"31.06822266","category":"117","category_name":"便民商店/便利店","address":"中国上海市松江区"},{"poiid":"B2094757D069A6F44899","title":"上海工程技术大学 教学F楼","lon":"121.206471074","lat":"31.0557901524","category":"253","category_name":"校园生活","address":"上海龙腾路333号"},{"poiid":"B2094655D264A7FA4292","title":"复地香堤苑","lon":"121.193935","lat":"31.057255","category":"47","category_name":"住宅区","address":"上海市松江区三新路1755号"},{"poiid":"B2094757D065A5FE409D","title":"上海工程技术大学志宏堂","lon":"121.2001337","lat":"31.051795228","category":"253","category_name":"校园生活","address":"上海工程技术大学图书馆"},{"poiid":"B2094654DB6EA0FE459B","title":"山水景苑","lon":"121.2034","lat":"31.061382","category":"47","category_name":"住宅区","address":"龙源路1208弄"},{"poiid":"B2094757D16CA5FD479D","title":"华政操场","lon":"121.19042719","lat":"31.052721144","category":"253","category_name":"校园生活","address":"上海市松江区广富林路"},{"poiid":"B2094655D26FA5FB499B","title":"佘山国家旅游渡假区","lon":"121.20378","lat":"31.08669","category":"250","category_name":"公园户外","address":"松江区佘山"},{"poiid":"B2094757D06AABFE449E","title":"上海工程技术大学 教学A楼","lon":"121.201325","lat":"31.060008","category":"253","category_name":"校园生活","address":"上海龙腾路333号"},{"poiid":"B2094757D568A7FE469C","title":"大业领地","lon":"121.19519421706","lat":"31.058753803848","category":"47","category_name":"住宅区","address":"松江区工业区鼎源路广富林路路口"},{"poiid":"B2094655D36CA5F84298","title":"辰花公路辰塔路","lon":"121.1759","lat":"31.06879","category":"38","category_name":"公交车站","address":""},{"poiid":"B2094757D169A5F94692","title":"辰花路草莓基地","lon":"121.205332196","lat":"31.0615893344","category":"500","category_name":"未知分类","address":"上海市松江区龙源路"},{"poiid":"B2094655D36CA7F5419E","title":"广富林路","lon":"121.19085","lat":"31.05508","category":"38","category_name":"公交车站","address":""},{"poiid":"B2094757D16AA2FB459F","title":"华东政法大学明志楼","lon":"121.192037196","lat":"31.0539731714","category":"500","category_name":"未知分类","address":"上海松江区龙源路555号"},{"poiid":"B2094655D36CA1FF4893","title":"龙源路广富林路","lon":"121.20092","lat":"31.05811","category":"38","category_name":"公交车站","address":""},{"poiid":"B2094757D16FA0FD4693","title":"华政一食堂","lon":"121.197728","lat":"31.055719","category":"247","category_name":"餐饮美食","address":"上海华东政法大学松江校区"},{"poiid":"B2094654DB64A0FC439A","title":"上海工程技术大学(腾飞北路)","lon":"121.20436","lat":"31.05667","category":"52","category_name":"高等院校","address":"松江区龙腾路333"},{"poiid":"B2094753D66CA5FB429E","title":"布丁酒店(上海松江大学城欢乐谷店)","lon":"121.203786","lat":"31.06043","category":"216","category_name":"经济型连锁酒店","address":"龙源路1208弄148号"},{"poiid":"B2094757D568A2F5439E","title":"学苑宾馆","lon":"121.18842475","lat":"31.05353543","category":"251","category_name":"出行住宿","address":"松江区广富林路3499号(三新北路口)"},{"poiid":"B2094757D065A4FA449C","title":"悸动台湾正宗烧仙草(松江大学城店)","lon":"121.197186155","lat":"31.0512074087","category":"113","category_name":"冷饮店","address":"松江区松江大学城四期文汇路1000弄12号大学食代对面"},{"poiid":"B2094655D36CA7F5409D","title":"广富林路三新路","lon":"121.18934","lat":"31.05437","category":"38","category_name":"公交车站","address":""},{"poiid":"B2094654DA6BABF94292","title":"中建三局中凯佘山别墅","lon":"121.19762","lat":"31.08419","category":"47","category_name":"住宅区","address":"沈砖公路4777"}]