[{"poiid":"B2094751D26BAAFB479A","title":"纯K（五角场店）","lon":"121.518832","lat":"31.301491","category":"248","category_name":"生活娱乐","address":"上海市杨浦区翔殷路1088号B1层(凯迪金融大厦)"},{"poiid":"B2094655D269ABFD449E","title":"好乐迪量贩式KTV(五角场财富店)","lon":"121.51812","lat":"31.30216","category":"170","category_name":"KTV","address":"杨浦区国庠路28号财富广场4楼(大西洋百货对面)"},{"poiid":"B2094751D36BA5F5419D","title":"台北纯K（五角场）","lon":"121.519156","lat":"31.299606","category":"500","category_name":"未知分类","address":"杨浦区翔殷路1088号凯迪金融大厦B1楼"},{"poiid":"B2094654DB65A4F84793","title":"骏莱海鲜鱼港(五角场旗舰店)","lon":"121.5204","lat":"31.29853","category":"75","category_name":"浙江菜","address":"杨浦区国定东路259号(近翔殷路)"},{"poiid":"B2094757D06FA1FE469E","title":"冰火麻辣工场(国济路店)","lon":"121.51715","lat":"31.30122","category":"71","category_name":"四川菜","address":"杨浦区国济路12号-3(近政通路)"},{"poiid":"B2094757D06FA7FA409F","title":"梅园村酒家(五角场店)","lon":"121.51771","lat":"31.30069","category":"76","category_name":"上海菜","address":"杨浦区翔殷路1128号大西洋百货6-7楼(近国济路)"},{"poiid":"B2094757D06FA5FF4298","title":"川香演义","lon":"121.51946","lat":"31.30228","category":"71","category_name":"四川菜","address":"杨浦区国和路22号(政旦东路口)"},{"poiid":"B2094757D465A3FF4898","title":"尚座金宴大酒店","lon":"121.52056","lat":"31.297903","category":"76","category_name":"上海菜","address":"杨浦区国定东路269号(近翔殷路)"},{"poiid":"B2094752D165A3FA439D","title":"外婆家五角场店","lon":"121.517334","lat":"31.299484","category":"247","category_name":"餐饮美食","address":"上海市杨浦区淞沪路8号6层"},{"poiid":"B2094757D06FA4F5429D","title":"肯德基KFC(万达店)","lon":"121.5187371","lat":"31.299099021","category":"500","category_name":"未知分类","address":"杨浦区邯郸路608弄50号万达商业广场内(近淞沪路)"},{"poiid":"B2094757D06FA5FB499E","title":"健康家园素食馆","lon":"121.51918","lat":"31.30259","category":"89","category_name":"中式素餐馆","address":"杨浦区国和路28号(近翔殷路)"},{"poiid":"B209475DD064A6FD4792","title":"水货SEAHOOD","lon":"121.517166","lat":"31.299591","category":"500","category_name":"未知分类","address":"上海市 政通路189号特力时尚汇1楼"},{"poiid":"B2094757D16CABFE4192","title":"上海创业者公共实训基地主楼(园区进门最高的楼) 二楼休闲区","lon":"121.5193681","lat":"31.300989061","category":"500","category_name":"未知分类","address":"杨浦区国定东路200号 上海创业者公共实训基地主楼(园区进门最高的楼) 二楼休闲区(此处靠近五角场，离地 铁10号线五角场站5 号门1千米)另"},{"poiid":"B2094757D06FA2FA4492","title":"一兆韦德(创智坊店)","lon":"121.51782226","lat":"31.298830032","category":"221","category_name":"健身中心","address":"杨浦区锦创路11号(近地铁10号线江湾体育场站)"},{"poiid":"B2094753D46CA2F94692","title":"麻辣诱惑（百联又一城7楼）","lon":"121.520019","lat":"31.299579","category":"247","category_name":"餐饮美食","address":"上海市 上海五角场百联又一城7楼"},{"poiid":"B2094757DB68AAFE439B","title":"老北京羊蝎子火锅 国定东路总店","lon":"121.51990683338","lat":"31.301442620043","category":"247","category_name":"餐饮美食","address":"杨浦区国定东路1号(翔殷路口)"},{"poiid":"B2094750D76CA2F9469D","title":"真牛铁板烧","lon":"121.519","lat":"31.3016","category":"269","category_name":"烧烤","address":"杨浦区邯郸路660号万达商业广场B1楼B-17铺(近釜山料理)"},{"poiid":"B2094757D068A0F5419F","title":"五角场翔殷路站(公交59,90,133,139,405,406,453,812,842,桥五)","lon":"121.517502051","lat":"31.300377435","category":"38","category_name":"公交车站","address":"上海杨浦区翔殷路1153号"},{"poiid":"B2094753D568A7FC479E","title":"台塑王品牛排","lon":"121.51831","lat":"31.298398","category":"247","category_name":"餐饮美食","address":"上海市 杨浦区淞沪路8号百联又一城7楼"},{"poiid":"B2094655D269ABF4449F","title":"大西洋百货","lon":"121.51696","lat":"31.30101","category":"247","category_name":"餐饮美食","address":"杨浦区翔殷路1128号(近国济路)"},{"poiid":"B2094654D56EA4FE479C","title":"富庆国定大厦","lon":"121.52026592357","lat":"31.300444634558","category":"46","category_name":"楼宇","address":"杨浦区四平路2158号"},{"poiid":"B2094757D068A7FD429F","title":"万达萨利亚","lon":"121.51882171","lat":"31.298456192","category":"68","category_name":"快餐厅","address":"上海万达第一食品百货3楼"},{"poiid":"B2094655D26CA6FD4992","title":"如家酒店(五角场店)","lon":"121.52037","lat":"31.29874","category":"216","category_name":"经济型连锁酒店","address":"杨浦区国定东路255号金储休闲广场四号楼(五角场东侧)"},{"poiid":"B2094752D66CA1FC459B","title":"江边城外又一城店","lon":"121.516968","lat":"31.298233","category":"247","category_name":"餐饮美食","address":null},{"poiid":"B2094753D765A6F9439C","title":"湘轩（百联又一城店）","lon":"121.518493","lat":"31.299167","category":"247","category_name":"餐饮美食","address":"上海市 淞沪路8号百联又一城7F"},{"poiid":"B2094753D46BA2F94698","title":"麻辣诱惑（五角场店）","lon":"121.520011","lat":"31.299951","category":"247","category_name":"餐饮美食","address":"上海市 淞沪路8号百联又一城7楼"},{"poiid":"B2094757D46BA5FD449E","title":"村夫烤鱼 国定东路店","lon":"121.520095","lat":"31.300504","category":"68","category_name":"快餐厅","address":"杨浦区国定东路65号(近翔殷路)"},{"poiid":"B2094753D76CA4FF4492","title":"龙和风旬菜铁板烧","lon":"121.518882","lat":"31.300121","category":"247","category_name":"餐饮美食","address":"上海市 杨浦区国定东路41号"},{"poiid":"B2094757D06BA6F4489E","title":"御徽源","lon":"121.52053","lat":"31.29559","category":"76","category_name":"上海菜","address":"杨浦区国定东路297号2-3楼(近黄兴路)"},{"poiid":"B2094750DA6EABF8489A","title":"玖合女仆居酒屋","lon":"121.520172","lat":"31.298805","category":"95","category_name":"日本料理","address":"杨浦区国定东路249号"},{"poiid":"B2094757D068A0F44298","title":"周记港式烧味","lon":"121.519622054","lat":"31.302197793","category":"72","category_name":"广东菜","address":"杨浦区政旦东路2号(近国和路)"},{"poiid":"B2094655D36DA1F4499E","title":"翔殷路五角场","lon":"121.51738","lat":"31.30053","category":"38","category_name":"公交车站","address":""},{"poiid":"B2094757D168A5FC4899","title":"特立屋","lon":"121.517814103","lat":"31.2999460395","category":"500","category_name":"未知分类","address":"上海市杨浦区淞沪路"},{"poiid":"B2094757D16BA0FF489E","title":"国定东路200号","lon":"121.5194536","lat":"31.30093056","category":"500","category_name":"未知分类","address":"上海创业基地..."},{"poiid":"B2094757DA64A2F9479D","title":"凯迪金融大厦","lon":"121.517715","lat":"31.301288","category":"252","category_name":"楼宇机构","address":"嘉定区沪宜公路3103号(叶城路)"},{"poiid":"B2094757D16DA1FE459E","title":"贝尔多爸爸泡芙店","lon":"121.519287103","lat":"31.299059021","category":"247","category_name":"餐饮美食","address":"上海五角场万达第一食品一楼"},{"poiid":"B2094753DB6BA0F54593","title":"风物寿司","lon":"121.520477","lat":"31.298841","category":"247","category_name":"餐饮美食","address":"上海市 杨浦区淞沪路8号百联又一城4楼"},{"poiid":"B2094757D06BA2FF4999","title":"南京政治学院上海分院","lon":"121.518352","lat":"31.300116","category":"500","category_name":"未知分类","address":"上海四平路2575号"},{"poiid":"B2094752D46EA6F44993","title":"百联又一城17.5影院","lon":"121.518067","lat":"31.299072","category":"248","category_name":"生活娱乐","address":"松沪路"},{"poiid":"B2094752D26BA1FB499C","title":"港丽餐厅","lon":"121.521633","lat":"31.30055","category":"247","category_name":"餐饮美食","address":"五角场百联又一城"},{"poiid":"B2094654D56EA4FF4999","title":"四平路2100弄住宅小区","lon":"121.52","lat":"31.2998","category":"47","category_name":"住宅区","address":"四平路2100弄"},{"poiid":"B2094654D568A3F54398","title":"豪享来上海国定店","lon":"121.52","lat":"31.3016","category":"247","category_name":"餐饮美食","address":"上海市杨浦区国定东路9号"},{"poiid":"B2094654D568A3F5439C","title":"澳门豆捞旗舰店","lon":"121.52027","lat":"31.29977","category":"86","category_name":"火锅店","address":"国定东路61号近翔殷路"},{"poiid":"B2094655D26EA4F84598","title":"上海华仁宾馆","lon":"121.52067","lat":"31.29937","category":"250","category_name":"公园户外","address":"杨浦区国定东路209号(近翔殷路)"},{"poiid":"B2094750DA6BA5F9439E","title":"一只鱼时尚主题火锅","lon":"121.519058","lat":"31.300725","category":"247","category_name":"餐饮美食","address":null},{"poiid":"B2094751D36FABF94199","title":"皇品大酒楼(国定路店)","lon":"121.5205","lat":"31.2973","category":"76","category_name":"上海菜","address":"杨浦区国定东路287号(近黄兴路)"},{"poiid":"B2094757D068AAF5449F","title":"欢畅量贩式KTV","lon":"121.520616","lat":"31.297189","category":"170","category_name":"KTV","address":"杨浦区国定东路287号金储广场5楼(近翔殷路)"},{"poiid":"B2094757D064AAF8429F","title":"蕉叶 五角场万达店","lon":"121.5178311","lat":"31.29996704","category":"500","category_name":"未知分类","address":"上海市杨浦区淞沪路"},{"poiid":"B2094753D464A7F4489D","title":"汉拿山","lon":"121.518402","lat":"31.299427","category":"500","category_name":"未知分类","address":"上海市 邯郸路600号万达广场内"},{"poiid":"B2094655D26FA4FE489C","title":"梅园邨","lon":"121.51696","lat":"31.30101","category":"47","category_name":"住宅区","address":"翔殷路1128号上海沪东金融大厦"},{"poiid":"B2094751D26BAAFB479A","title":"纯K（五角场店）","lon":"121.518832","lat":"31.301491","category":"248","category_name":"生活娱乐","address":"上海市杨浦区翔殷路1088号B1层(凯迪金融大厦)"},{"poiid":"B2094655D269ABFD449E","title":"好乐迪量贩式KTV(五角场财富店)","lon":"121.51812","lat":"31.30216","category":"170","category_name":"KTV","address":"杨浦区国庠路28号财富广场4楼(大西洋百货对面)"},{"poiid":"B2094751D36BA5F5419D","title":"台北纯K（五角场）","lon":"121.519156","lat":"31.299606","category":"500","category_name":"未知分类","address":"杨浦区翔殷路1088号凯迪金融大厦B1楼"},{"poiid":"B2094654DB65A4F84793","title":"骏莱海鲜鱼港(五角场旗舰店)","lon":"121.5204","lat":"31.29853","category":"75","category_name":"浙江菜","address":"杨浦区国定东路259号(近翔殷路)"},{"poiid":"B2094757D06FA1FE469E","title":"冰火麻辣工场(国济路店)","lon":"121.51715","lat":"31.30122","category":"71","category_name":"四川菜","address":"杨浦区国济路12号-3(近政通路)"},{"poiid":"B2094757D06FA7FA409F","title":"梅园村酒家(五角场店)","lon":"121.51771","lat":"31.30069","category":"76","category_name":"上海菜","address":"杨浦区翔殷路1128号大西洋百货6-7楼(近国济路)"},{"poiid":"B2094757D06FA5FF4298","title":"川香演义","lon":"121.51946","lat":"31.30228","category":"71","category_name":"四川菜","address":"杨浦区国和路22号(政旦东路口)"},{"poiid":"B2094757D465A3FF4898","title":"尚座金宴大酒店","lon":"121.52056","lat":"31.297903","category":"76","category_name":"上海菜","address":"杨浦区国定东路269号(近翔殷路)"},{"poiid":"B2094752D165A3FA439D","title":"外婆家五角场店","lon":"121.517334","lat":"31.299484","category":"247","category_name":"餐饮美食","address":"上海市杨浦区淞沪路8号6层"},{"poiid":"B2094757D06FA4F5429D","title":"肯德基KFC(万达店)","lon":"121.5187371","lat":"31.299099021","category":"500","category_name":"未知分类","address":"杨浦区邯郸路608弄50号万达商业广场内(近淞沪路)"},{"poiid":"B2094757D06FA5FB499E","title":"健康家园素食馆","lon":"121.51918","lat":"31.30259","category":"89","category_name":"中式素餐馆","address":"杨浦区国和路28号(近翔殷路)"},{"poiid":"B209475DD064A6FD4792","title":"水货SEAHOOD","lon":"121.517166","lat":"31.299591","category":"500","category_name":"未知分类","address":"上海市 政通路189号特力时尚汇1楼"},{"poiid":"B2094757D16CABFE4192","title":"上海创业者公共实训基地主楼(园区进门最高的楼) 二楼休闲区","lon":"121.5193681","lat":"31.300989061","category":"500","category_name":"未知分类","address":"杨浦区国定东路200号 上海创业者公共实训基地主楼(园区进门最高的楼) 二楼休闲区(此处靠近五角场，离地 铁10号线五角场站5 号门1千米)另"},{"poiid":"B2094757D06FA2FA4492","title":"一兆韦德(创智坊店)","lon":"121.51782226","lat":"31.298830032","category":"221","category_name":"健身中心","address":"杨浦区锦创路11号(近地铁10号线江湾体育场站)"},{"poiid":"B2094753D46CA2F94692","title":"麻辣诱惑（百联又一城7楼）","lon":"121.520019","lat":"31.299579","category":"247","category_name":"餐饮美食","address":"上海市 上海五角场百联又一城7楼"},{"poiid":"B2094757DB68AAFE439B","title":"老北京羊蝎子火锅 国定东路总店","lon":"121.51990683338","lat":"31.301442620043","category":"247","category_name":"餐饮美食","address":"杨浦区国定东路1号(翔殷路口)"},{"poiid":"B2094750D76CA2F9469D","title":"真牛铁板烧","lon":"121.519","lat":"31.3016","category":"269","category_name":"烧烤","address":"杨浦区邯郸路660号万达商业广场B1楼B-17铺(近釜山料理)"},{"poiid":"B2094757D068A0F5419F","title":"五角场翔殷路站(公交59,90,133,139,405,406,453,812,842,桥五)","lon":"121.517502051","lat":"31.300377435","category":"38","category_name":"公交车站","address":"上海杨浦区翔殷路1153号"},{"poiid":"B2094753D568A7FC479E","title":"台塑王品牛排","lon":"121.51831","lat":"31.298398","category":"247","category_name":"餐饮美食","address":"上海市 杨浦区淞沪路8号百联又一城7楼"},{"poiid":"B2094655D269ABF4449F","title":"大西洋百货","lon":"121.51696","lat":"31.30101","category":"247","category_name":"餐饮美食","address":"杨浦区翔殷路1128号(近国济路)"},{"poiid":"B2094654D56EA4FE479C","title":"富庆国定大厦","lon":"121.52026592357","lat":"31.300444634558","category":"46","category_name":"楼宇","address":"杨浦区四平路2158号"},{"poiid":"B2094757D068A7FD429F","title":"万达萨利亚","lon":"121.51882171","lat":"31.298456192","category":"68","category_name":"快餐厅","address":"上海万达第一食品百货3楼"},{"poiid":"B2094655D26CA6FD4992","title":"如家酒店(五角场店)","lon":"121.52037","lat":"31.29874","category":"216","category_name":"经济型连锁酒店","address":"杨浦区国定东路255号金储休闲广场四号楼(五角场东侧)"},{"poiid":"B2094752D66CA1FC459B","title":"江边城外又一城店","lon":"121.516968","lat":"31.298233","category":"247","category_name":"餐饮美食","address":null},{"poiid":"B2094753D765A6F9439C","title":"湘轩（百联又一城店）","lon":"121.518493","lat":"31.299167","category":"247","category_name":"餐饮美食","address":"上海市 淞沪路8号百联又一城7F"},{"poiid":"B2094753D46BA2F94698","title":"麻辣诱惑（五角场店）","lon":"121.520011","lat":"31.299951","category":"247","category_name":"餐饮美食","address":"上海市 淞沪路8号百联又一城7楼"},{"poiid":"B2094757D46BA5FD449E","title":"村夫烤鱼 国定东路店","lon":"121.520095","lat":"31.300504","category":"68","category_name":"快餐厅","address":"杨浦区国定东路65号(近翔殷路)"},{"poiid":"B2094753D76CA4FF4492","title":"龙和风旬菜铁板烧","lon":"121.518882","lat":"31.300121","category":"247","category_name":"餐饮美食","address":"上海市 杨浦区国定东路41号"},{"poiid":"B2094757D06BA6F4489E","title":"御徽源","lon":"121.52053","lat":"31.29559","category":"76","category_name":"上海菜","address":"杨浦区国定东路297号2-3楼(近黄兴路)"},{"poiid":"B2094750DA6EABF8489A","title":"玖合女仆居酒屋","lon":"121.520172","lat":"31.298805","category":"95","category_name":"日本料理","address":"杨浦区国定东路249号"},{"poiid":"B2094757D068A0F44298","title":"周记港式烧味","lon":"121.519622054","lat":"31.302197793","category":"72","category_name":"广东菜","address":"杨浦区政旦东路2号(近国和路)"},{"poiid":"B2094655D36DA1F4499E","title":"翔殷路五角场","lon":"121.51738","lat":"31.30053","category":"38","category_name":"公交车站","address":""},{"poiid":"B2094757D168A5FC4899","title":"特立屋","lon":"121.517814103","lat":"31.2999460395","category":"500","category_name":"未知分类","address":"上海市杨浦区淞沪路"},{"poiid":"B2094757D16BA0FF489E","title":"国定东路200号","lon":"121.5194536","lat":"31.30093056","category":"500","category_name":"未知分类","address":"上海创业基地..."},{"poiid":"B2094757DA64A2F9479D","title":"凯迪金融大厦","lon":"121.517715","lat":"31.301288","category":"252","category_name":"楼宇机构","address":"嘉定区沪宜公路3103号(叶城路)"},{"poiid":"B2094757D16DA1FE459E","title":"贝尔多爸爸泡芙店","lon":"121.519287103","lat":"31.299059021","category":"247","category_name":"餐饮美食","address":"上海五角场万达第一食品一楼"},{"poiid":"B2094753DB6BA0F54593","title":"风物寿司","lon":"121.520477","lat":"31.298841","category":"247","category_name":"餐饮美食","address":"上海市 杨浦区淞沪路8号百联又一城4楼"},{"poiid":"B2094757D06BA2FF4999","title":"南京政治学院上海分院","lon":"121.518352","lat":"31.300116","category":"500","category_name":"未知分类","address":"上海四平路2575号"},{"poiid":"B2094752D46EA6F44993","title":"百联又一城17.5影院","lon":"121.518067","lat":"31.299072","category":"248","category_name":"生活娱乐","address":"松沪路"},{"poiid":"B2094752D26BA1FB499C","title":"港丽餐厅","lon":"121.521633","lat":"31.30055","category":"247","category_name":"餐饮美食","address":"五角场百联又一城"},{"poiid":"B2094654D56EA4FF4999","title":"四平路2100弄住宅小区","lon":"121.52","lat":"31.2998","category":"47","category_name":"住宅区","address":"四平路2100弄"},{"poiid":"B2094654D568A3F54398","title":"豪享来上海国定店","lon":"121.52","lat":"31.3016","category":"247","category_name":"餐饮美食","address":"上海市杨浦区国定东路9号"},{"poiid":"B2094654D568A3F5439C","title":"澳门豆捞旗舰店","lon":"121.52027","lat":"31.29977","category":"86","category_name":"火锅店","address":"国定东路61号近翔殷路"},{"poiid":"B2094655D26EA4F84598","title":"上海华仁宾馆","lon":"121.52067","lat":"31.29937","category":"250","category_name":"公园户外","address":"杨浦区国定东路209号(近翔殷路)"},{"poiid":"B2094750DA6BA5F9439E","title":"一只鱼时尚主题火锅","lon":"121.519058","lat":"31.300725","category":"247","category_name":"餐饮美食","address":null},{"poiid":"B2094751D36FABF94199","title":"皇品大酒楼(国定路店)","lon":"121.5205","lat":"31.2973","category":"76","category_name":"上海菜","address":"杨浦区国定东路287号(近黄兴路)"},{"poiid":"B2094757D068AAF5449F","title":"欢畅量贩式KTV","lon":"121.520616","lat":"31.297189","category":"170","category_name":"KTV","address":"杨浦区国定东路287号金储广场5楼(近翔殷路)"},{"poiid":"B2094757D064AAF8429F","title":"蕉叶 五角场万达店","lon":"121.5178311","lat":"31.29996704","category":"500","category_name":"未知分类","address":"上海市杨浦区淞沪路"},{"poiid":"B2094753D464A7F4489D","title":"汉拿山","lon":"121.518402","lat":"31.299427","category":"500","category_name":"未知分类","address":"上海市 邯郸路600号万达广场内"},{"poiid":"B2094655D26FA4FE489C","title":"梅园邨","lon":"121.51696","lat":"31.30101","category":"47","category_name":"住宅区","address":"翔殷路1128号上海沪东金融大厦"},{"poiid":"B2094751D26BAAFB479A","title":"纯K（五角场店）","lon":"121.518832","lat":"31.301491","category":"248","category_name":"生活娱乐","address":"上海市杨浦区翔殷路1088号B1层(凯迪金融大厦)"},{"poiid":"B2094655D269ABFD449E","title":"好乐迪量贩式KTV(五角场财富店)","lon":"121.51812","lat":"31.30216","category":"170","category_name":"KTV","address":"杨浦区国庠路28号财富广场4楼(大西洋百货对面)"},{"poiid":"B2094751D36BA5F5419D","title":"台北纯K（五角场）","lon":"121.519156","lat":"31.299606","category":"500","category_name":"未知分类","address":"杨浦区翔殷路1088号凯迪金融大厦B1楼"},{"poiid":"B2094654DB65A4F84793","title":"骏莱海鲜鱼港(五角场旗舰店)","lon":"121.5204","lat":"31.29853","category":"75","category_name":"浙江菜","address":"杨浦区国定东路259号(近翔殷路)"},{"poiid":"B2094757D06FA1FE469E","title":"冰火麻辣工场(国济路店)","lon":"121.51715","lat":"31.30122","category":"71","category_name":"四川菜","address":"杨浦区国济路12号-3(近政通路)"},{"poiid":"B2094757D06FA7FA409F","title":"梅园村酒家(五角场店)","lon":"121.51771","lat":"31.30069","category":"76","category_name":"上海菜","address":"杨浦区翔殷路1128号大西洋百货6-7楼(近国济路)"},{"poiid":"B2094757D06FA5FF4298","title":"川香演义","lon":"121.51946","lat":"31.30228","category":"71","category_name":"四川菜","address":"杨浦区国和路22号(政旦东路口)"},{"poiid":"B2094757D465A3FF4898","title":"尚座金宴大酒店","lon":"121.52056","lat":"31.297903","category":"76","category_name":"上海菜","address":"杨浦区国定东路269号(近翔殷路)"},{"poiid":"B2094752D165A3FA439D","title":"外婆家五角场店","lon":"121.517334","lat":"31.299484","category":"247","category_name":"餐饮美食","address":"上海市杨浦区淞沪路8号6层"},{"poiid":"B2094757D06FA4F5429D","title":"肯德基KFC(万达店)","lon":"121.5187371","lat":"31.299099021","category":"500","category_name":"未知分类","address":"杨浦区邯郸路608弄50号万达商业广场内(近淞沪路)"},{"poiid":"B2094757D06FA5FB499E","title":"健康家园素食馆","lon":"121.51918","lat":"31.30259","category":"89","category_name":"中式素餐馆","address":"杨浦区国和路28号(近翔殷路)"},{"poiid":"B209475DD064A6FD4792","title":"水货SEAHOOD","lon":"121.517166","lat":"31.299591","category":"500","category_name":"未知分类","address":"上海市 政通路189号特力时尚汇1楼"},{"poiid":"B2094757D16CABFE4192","title":"上海创业者公共实训基地主楼(园区进门最高的楼) 二楼休闲区","lon":"121.5193681","lat":"31.300989061","category":"500","category_name":"未知分类","address":"杨浦区国定东路200号 上海创业者公共实训基地主楼(园区进门最高的楼) 二楼休闲区(此处靠近五角场，离地 铁10号线五角场站5 号门1千米)另"},{"poiid":"B2094757D06FA2FA4492","title":"一兆韦德(创智坊店)","lon":"121.51782226","lat":"31.298830032","category":"221","category_name":"健身中心","address":"杨浦区锦创路11号(近地铁10号线江湾体育场站)"},{"poiid":"B2094753D46CA2F94692","title":"麻辣诱惑（百联又一城7楼）","lon":"121.520019","lat":"31.299579","category":"247","category_name":"餐饮美食","address":"上海市 上海五角场百联又一城7楼"},{"poiid":"B2094757DB68AAFE439B","title":"老北京羊蝎子火锅 国定东路总店","lon":"121.51990683338","lat":"31.301442620043","category":"247","category_name":"餐饮美食","address":"杨浦区国定东路1号(翔殷路口)"},{"poiid":"B2094750D76CA2F9469D","title":"真牛铁板烧","lon":"121.519","lat":"31.3016","category":"269","category_name":"烧烤","address":"杨浦区邯郸路660号万达商业广场B1楼B-17铺(近釜山料理)"},{"poiid":"B2094757D068A0F5419F","title":"五角场翔殷路站(公交59,90,133,139,405,406,453,812,842,桥五)","lon":"121.517502051","lat":"31.300377435","category":"38","category_name":"公交车站","address":"上海杨浦区翔殷路1153号"},{"poiid":"B2094753D568A7FC479E","title":"台塑王品牛排","lon":"121.51831","lat":"31.298398","category":"247","category_name":"餐饮美食","address":"上海市 杨浦区淞沪路8号百联又一城7楼"},{"poiid":"B2094655D269ABF4449F","title":"大西洋百货","lon":"121.51696","lat":"31.30101","category":"247","category_name":"餐饮美食","address":"杨浦区翔殷路1128号(近国济路)"},{"poiid":"B2094654D56EA4FE479C","title":"富庆国定大厦","lon":"121.52026592357","lat":"31.300444634558","category":"46","category_name":"楼宇","address":"杨浦区四平路2158号"},{"poiid":"B2094757D068A7FD429F","title":"万达萨利亚","lon":"121.51882171","lat":"31.298456192","category":"68","category_name":"快餐厅","address":"上海万达第一食品百货3楼"},{"poiid":"B2094655D26CA6FD4992","title":"如家酒店(五角场店)","lon":"121.52037","lat":"31.29874","category":"216","category_name":"经济型连锁酒店","address":"杨浦区国定东路255号金储休闲广场四号楼(五角场东侧)"},{"poiid":"B2094752D66CA1FC459B","title":"江边城外又一城店","lon":"121.516968","lat":"31.298233","category":"247","category_name":"餐饮美食","address":null},{"poiid":"B2094753D765A6F9439C","title":"湘轩（百联又一城店）","lon":"121.518493","lat":"31.299167","category":"247","category_name":"餐饮美食","address":"上海市 淞沪路8号百联又一城7F"},{"poiid":"B2094753D46BA2F94698","title":"麻辣诱惑（五角场店）","lon":"121.520011","lat":"31.299951","category":"247","category_name":"餐饮美食","address":"上海市 淞沪路8号百联又一城7楼"},{"poiid":"B2094757D46BA5FD449E","title":"村夫烤鱼 国定东路店","lon":"121.520095","lat":"31.300504","category":"68","category_name":"快餐厅","address":"杨浦区国定东路65号(近翔殷路)"},{"poiid":"B2094753D76CA4FF4492","title":"龙和风旬菜铁板烧","lon":"121.518882","lat":"31.300121","category":"247","category_name":"餐饮美食","address":"上海市 杨浦区国定东路41号"},{"poiid":"B2094757D06BA6F4489E","title":"御徽源","lon":"121.52053","lat":"31.29559","category":"76","category_name":"上海菜","address":"杨浦区国定东路297号2-3楼(近黄兴路)"},{"poiid":"B2094750DA6EABF8489A","title":"玖合女仆居酒屋","lon":"121.520172","lat":"31.298805","category":"95","category_name":"日本料理","address":"杨浦区国定东路249号"},{"poiid":"B2094757D068A0F44298","title":"周记港式烧味","lon":"121.519622054","lat":"31.302197793","category":"72","category_name":"广东菜","address":"杨浦区政旦东路2号(近国和路)"},{"poiid":"B2094655D36DA1F4499E","title":"翔殷路五角场","lon":"121.51738","lat":"31.30053","category":"38","category_name":"公交车站","address":""},{"poiid":"B2094757D168A5FC4899","title":"特立屋","lon":"121.517814103","lat":"31.2999460395","category":"500","category_name":"未知分类","address":"上海市杨浦区淞沪路"},{"poiid":"B2094757D16BA0FF489E","title":"国定东路200号","lon":"121.5194536","lat":"31.30093056","category":"500","category_name":"未知分类","address":"上海创业基地..."},{"poiid":"B2094757DA64A2F9479D","title":"凯迪金融大厦","lon":"121.517715","lat":"31.301288","category":"252","category_name":"楼宇机构","address":"嘉定区沪宜公路3103号(叶城路)"},{"poiid":"B2094757D16DA1FE459E","title":"贝尔多爸爸泡芙店","lon":"121.519287103","lat":"31.299059021","category":"247","category_name":"餐饮美食","address":"上海五角场万达第一食品一楼"},{"poiid":"B2094753DB6BA0F54593","title":"风物寿司","lon":"121.520477","lat":"31.298841","category":"247","category_name":"餐饮美食","address":"上海市 杨浦区淞沪路8号百联又一城4楼"},{"poiid":"B2094757D06BA2FF4999","title":"南京政治学院上海分院","lon":"121.518352","lat":"31.300116","category":"500","category_name":"未知分类","address":"上海四平路2575号"},{"poiid":"B2094752D46EA6F44993","title":"百联又一城17.5影院","lon":"121.518067","lat":"31.299072","category":"248","category_name":"生活娱乐","address":"松沪路"},{"poiid":"B2094752D26BA1FB499C","title":"港丽餐厅","lon":"121.521633","lat":"31.30055","category":"247","category_name":"餐饮美食","address":"五角场百联又一城"},{"poiid":"B2094654D56EA4FF4999","title":"四平路2100弄住宅小区","lon":"121.52","lat":"31.2998","category":"47","category_name":"住宅区","address":"四平路2100弄"},{"poiid":"B2094654D568A3F54398","title":"豪享来上海国定店","lon":"121.52","lat":"31.3016","category":"247","category_name":"餐饮美食","address":"上海市杨浦区国定东路9号"},{"poiid":"B2094654D568A3F5439C","title":"澳门豆捞旗舰店","lon":"121.52027","lat":"31.29977","category":"86","category_name":"火锅店","address":"国定东路61号近翔殷路"},{"poiid":"B2094655D26EA4F84598","title":"上海华仁宾馆","lon":"121.52067","lat":"31.29937","category":"250","category_name":"公园户外","address":"杨浦区国定东路209号(近翔殷路)"},{"poiid":"B2094750DA6BA5F9439E","title":"一只鱼时尚主题火锅","lon":"121.519058","lat":"31.300725","category":"247","category_name":"餐饮美食","address":null},{"poiid":"B2094751D36FABF94199","title":"皇品大酒楼(国定路店)","lon":"121.5205","lat":"31.2973","category":"76","category_name":"上海菜","address":"杨浦区国定东路287号(近黄兴路)"},{"poiid":"B2094757D068AAF5449F","title":"欢畅量贩式KTV","lon":"121.520616","lat":"31.297189","category":"170","category_name":"KTV","address":"杨浦区国定东路287号金储广场5楼(近翔殷路)"},{"poiid":"B2094757D064AAF8429F","title":"蕉叶 五角场万达店","lon":"121.5178311","lat":"31.29996704","category":"500","category_name":"未知分类","address":"上海市杨浦区淞沪路"},{"poiid":"B2094753D464A7F4489D","title":"汉拿山","lon":"121.518402","lat":"31.299427","category":"500","category_name":"未知分类","address":"上海市 邯郸路600号万达广场内"},{"poiid":"B2094655D26FA4FE489C","title":"梅园邨","lon":"121.51696","lat":"31.30101","category":"47","category_name":"住宅区","address":"翔殷路1128号上海沪东金融大厦"},{"poiid":"B2094751D26BAAFB479A","title":"纯K（五角场店）","lon":"121.518832","lat":"31.301491","category":"248","category_name":"生活娱乐","address":"上海市杨浦区翔殷路1088号B1层(凯迪金融大厦)"},{"poiid":"B2094655D269ABFD449E","title":"好乐迪量贩式KTV(五角场财富店)","lon":"121.51812","lat":"31.30216","category":"170","category_name":"KTV","address":"杨浦区国庠路28号财富广场4楼(大西洋百货对面)"},{"poiid":"B2094751D36BA5F5419D","title":"台北纯K（五角场）","lon":"121.519156","lat":"31.299606","category":"500","category_name":"未知分类","address":"杨浦区翔殷路1088号凯迪金融大厦B1楼"},{"poiid":"B2094654DB65A4F84793","title":"骏莱海鲜鱼港(五角场旗舰店)","lon":"121.5204","lat":"31.29853","category":"75","category_name":"浙江菜","address":"杨浦区国定东路259号(近翔殷路)"},{"poiid":"B2094757D06FA1FE469E","title":"冰火麻辣工场(国济路店)","lon":"121.51715","lat":"31.30122","category":"71","category_name":"四川菜","address":"杨浦区国济路12号-3(近政通路)"},{"poiid":"B2094757D06FA7FA409F","title":"梅园村酒家(五角场店)","lon":"121.51771","lat":"31.30069","category":"76","category_name":"上海菜","address":"杨浦区翔殷路1128号大西洋百货6-7楼(近国济路)"},{"poiid":"B2094757D06FA5FF4298","title":"川香演义","lon":"121.51946","lat":"31.30228","category":"71","category_name":"四川菜","address":"杨浦区国和路22号(政旦东路口)"},{"poiid":"B2094757D465A3FF4898","title":"尚座金宴大酒店","lon":"121.52056","lat":"31.297903","category":"76","category_name":"上海菜","address":"杨浦区国定东路269号(近翔殷路)"},{"poiid":"B2094752D165A3FA439D","title":"外婆家五角场店","lon":"121.517334","lat":"31.299484","category":"247","category_name":"餐饮美食","address":"上海市杨浦区淞沪路8号6层"},{"poiid":"B2094757D06FA4F5429D","title":"肯德基KFC(万达店)","lon":"121.5187371","lat":"31.299099021","category":"500","category_name":"未知分类","address":"杨浦区邯郸路608弄50号万达商业广场内(近淞沪路)"},{"poiid":"B2094757D06FA5FB499E","title":"健康家园素食馆","lon":"121.51918","lat":"31.30259","category":"89","category_name":"中式素餐馆","address":"杨浦区国和路28号(近翔殷路)"},{"poiid":"B209475DD064A6FD4792","title":"水货SEAHOOD","lon":"121.517166","lat":"31.299591","category":"500","category_name":"未知分类","address":"上海市 政通路189号特力时尚汇1楼"},{"poiid":"B2094757D16CABFE4192","title":"上海创业者公共实训基地主楼(园区进门最高的楼) 二楼休闲区","lon":"121.5193681","lat":"31.300989061","category":"500","category_name":"未知分类","address":"杨浦区国定东路200号 上海创业者公共实训基地主楼(园区进门最高的楼) 二楼休闲区(此处靠近五角场，离地 铁10号线五角场站5 号门1千米)另"},{"poiid":"B2094757D06FA2FA4492","title":"一兆韦德(创智坊店)","lon":"121.51782226","lat":"31.298830032","category":"221","category_name":"健身中心","address":"杨浦区锦创路11号(近地铁10号线江湾体育场站)"},{"poiid":"B2094753D46CA2F94692","title":"麻辣诱惑（百联又一城7楼）","lon":"121.520019","lat":"31.299579","category":"247","category_name":"餐饮美食","address":"上海市 上海五角场百联又一城7楼"},{"poiid":"B2094757DB68AAFE439B","title":"老北京羊蝎子火锅 国定东路总店","lon":"121.51990683338","lat":"31.301442620043","category":"247","category_name":"餐饮美食","address":"杨浦区国定东路1号(翔殷路口)"},{"poiid":"B2094750D76CA2F9469D","title":"真牛铁板烧","lon":"121.519","lat":"31.3016","category":"269","category_name":"烧烤","address":"杨浦区邯郸路660号万达商业广场B1楼B-17铺(近釜山料理)"},{"poiid":"B2094757D068A0F5419F","title":"五角场翔殷路站(公交59,90,133,139,405,406,453,812,842,桥五)","lon":"121.517502051","lat":"31.300377435","category":"38","category_name":"公交车站","address":"上海杨浦区翔殷路1153号"},{"poiid":"B2094753D568A7FC479E","title":"台塑王品牛排","lon":"121.51831","lat":"31.298398","category":"247","category_name":"餐饮美食","address":"上海市 杨浦区淞沪路8号百联又一城7楼"},{"poiid":"B2094655D269ABF4449F","title":"大西洋百货","lon":"121.51696","lat":"31.30101","category":"247","category_name":"餐饮美食","address":"杨浦区翔殷路1128号(近国济路)"},{"poiid":"B2094654D56EA4FE479C","title":"富庆国定大厦","lon":"121.52026592357","lat":"31.300444634558","category":"46","category_name":"楼宇","address":"杨浦区四平路2158号"},{"poiid":"B2094757D068A7FD429F","title":"万达萨利亚","lon":"121.51882171","lat":"31.298456192","category":"68","category_name":"快餐厅","address":"上海万达第一食品百货3楼"},{"poiid":"B2094655D26CA6FD4992","title":"如家酒店(五角场店)","lon":"121.52037","lat":"31.29874","category":"216","category_name":"经济型连锁酒店","address":"杨浦区国定东路255号金储休闲广场四号楼(五角场东侧)"},{"poiid":"B2094752D66CA1FC459B","title":"江边城外又一城店","lon":"121.516968","lat":"31.298233","category":"247","category_name":"餐饮美食","address":null},{"poiid":"B2094753D765A6F9439C","title":"湘轩（百联又一城店）","lon":"121.518493","lat":"31.299167","category":"247","category_name":"餐饮美食","address":"上海市 淞沪路8号百联又一城7F"},{"poiid":"B2094753D46BA2F94698","title":"麻辣诱惑（五角场店）","lon":"121.520011","lat":"31.299951","category":"247","category_name":"餐饮美食","address":"上海市 淞沪路8号百联又一城7楼"},{"poiid":"B2094757D46BA5FD449E","title":"村夫烤鱼 国定东路店","lon":"121.520095","lat":"31.300504","category":"68","category_name":"快餐厅","address":"杨浦区国定东路65号(近翔殷路)"},{"poiid":"B2094753D76CA4FF4492","title":"龙和风旬菜铁板烧","lon":"121.518882","lat":"31.300121","category":"247","category_name":"餐饮美食","address":"上海市 杨浦区国定东路41号"},{"poiid":"B2094757D06BA6F4489E","title":"御徽源","lon":"121.52053","lat":"31.29559","category":"76","category_name":"上海菜","address":"杨浦区国定东路297号2-3楼(近黄兴路)"},{"poiid":"B2094750DA6EABF8489A","title":"玖合女仆居酒屋","lon":"121.520172","lat":"31.298805","category":"95","category_name":"日本料理","address":"杨浦区国定东路249号"},{"poiid":"B2094757D068A0F44298","title":"周记港式烧味","lon":"121.519622054","lat":"31.302197793","category":"72","category_name":"广东菜","address":"杨浦区政旦东路2号(近国和路)"},{"poiid":"B2094655D36DA1F4499E","title":"翔殷路五角场","lon":"121.51738","lat":"31.30053","category":"38","category_name":"公交车站","address":""},{"poiid":"B2094757D168A5FC4899","title":"特立屋","lon":"121.517814103","lat":"31.2999460395","category":"500","category_name":"未知分类","address":"上海市杨浦区淞沪路"},{"poiid":"B2094757D16BA0FF489E","title":"国定东路200号","lon":"121.5194536","lat":"31.30093056","category":"500","category_name":"未知分类","address":"上海创业基地..."},{"poiid":"B2094757DA64A2F9479D","title":"凯迪金融大厦","lon":"121.517715","lat":"31.301288","category":"252","category_name":"楼宇机构","address":"嘉定区沪宜公路3103号(叶城路)"},{"poiid":"B2094757D16DA1FE459E","title":"贝尔多爸爸泡芙店","lon":"121.519287103","lat":"31.299059021","category":"247","category_name":"餐饮美食","address":"上海五角场万达第一食品一楼"},{"poiid":"B2094753DB6BA0F54593","title":"风物寿司","lon":"121.520477","lat":"31.298841","category":"247","category_name":"餐饮美食","address":"上海市 杨浦区淞沪路8号百联又一城4楼"},{"poiid":"B2094757D06BA2FF4999","title":"南京政治学院上海分院","lon":"121.518352","lat":"31.300116","category":"500","category_name":"未知分类","address":"上海四平路2575号"},{"poiid":"B2094752D46EA6F44993","title":"百联又一城17.5影院","lon":"121.518067","lat":"31.299072","category":"248","category_name":"生活娱乐","address":"松沪路"},{"poiid":"B2094752D26BA1FB499C","title":"港丽餐厅","lon":"121.521633","lat":"31.30055","category":"247","category_name":"餐饮美食","address":"五角场百联又一城"},{"poiid":"B2094654D56EA4FF4999","title":"四平路2100弄住宅小区","lon":"121.52","lat":"31.2998","category":"47","category_name":"住宅区","address":"四平路2100弄"},{"poiid":"B2094654D568A3F54398","title":"豪享来上海国定店","lon":"121.52","lat":"31.3016","category":"247","category_name":"餐饮美食","address":"上海市杨浦区国定东路9号"},{"poiid":"B2094654D568A3F5439C","title":"澳门豆捞旗舰店","lon":"121.52027","lat":"31.29977","category":"86","category_name":"火锅店","address":"国定东路61号近翔殷路"},{"poiid":"B2094655D26EA4F84598","title":"上海华仁宾馆","lon":"121.52067","lat":"31.29937","category":"250","category_name":"公园户外","address":"杨浦区国定东路209号(近翔殷路)"},{"poiid":"B2094750DA6BA5F9439E","title":"一只鱼时尚主题火锅","lon":"121.519058","lat":"31.300725","category":"247","category_name":"餐饮美食","address":null},{"poiid":"B2094751D36FABF94199","title":"皇品大酒楼(国定路店)","lon":"121.5205","lat":"31.2973","category":"76","category_name":"上海菜","address":"杨浦区国定东路287号(近黄兴路)"},{"poiid":"B2094757D068AAF5449F","title":"欢畅量贩式KTV","lon":"121.520616","lat":"31.297189","category":"170","category_name":"KTV","address":"杨浦区国定东路287号金储广场5楼(近翔殷路)"},{"poiid":"B2094757D064AAF8429F","title":"蕉叶 五角场万达店","lon":"121.5178311","lat":"31.29996704","category":"500","category_name":"未知分类","address":"上海市杨浦区淞沪路"},{"poiid":"B2094753D464A7F4489D","title":"汉拿山","lon":"121.518402","lat":"31.299427","category":"500","category_name":"未知分类","address":"上海市 邯郸路600号万达广场内"},{"poiid":"B2094655D26FA4FE489C","title":"梅园邨","lon":"121.51696","lat":"31.30101","category":"47","category_name":"住宅区","address":"翔殷路1128号上海沪东金融大厦"}]