[{"poiid":"B2094757D06FA3F5419A","title":"大众驾校培训中心","lon":"121.238637","lat":"31.200585","category":"190","category_name":"培训机构","address":"青浦区北青公路4149号(近虹桥机场)"},{"poiid":"B2094757D069AAF5499F","title":"凤溪镇","lon":"121.237469684","lat":"31.195387645","category":"500","category_name":"未知分类","address":"上海青浦区凤溪镇"},{"poiid":"B2094757D069A4FD4599","title":"西郊国际农产品交易中心","lon":"121.24538","lat":"31.22478","category":"249","category_name":"购物服务","address":"青浦区华新镇华徐公路3833号"},{"poiid":"B2094654D569A7F44698","title":"盛家宅小区二期","lon":"121.235","lat":"31.2071","category":"47","category_name":"住宅区","address":"凤育路288号"},{"poiid":"B2094654DB6BA1FB479F","title":"凤溪公园","lon":"121.22738","lat":"31.20675","category":"196","category_name":"公园","address":""},{"poiid":"B2094757D065A2F8489C","title":"好时大酒店","lon":"121.22935","lat":"31.20524","category":"76","category_name":"上海菜","address":"青浦区华新镇新凤路1768号(近凤友路)"},{"poiid":"B2094757D464A7FD449C","title":"英伦大酒店","lon":"121.23194","lat":"31.196868","category":"76","category_name":"上海菜","address":"青浦区北青公路4604号朋联国际广场内(近凤中路)"},{"poiid":"B2094757D568A0F44799","title":"大众交通培训中心","lon":"121.23878825","lat":"31.20047689","category":"192","category_name":"驾校","address":"中国上海市青浦区"},{"poiid":"B2094654D569A7FA4892","title":"实惠小吃(民兴大道)","lon":"121.24624","lat":"31.20947","category":"68","category_name":"快餐厅","address":""},{"poiid":"B2094757D165A6FC469B","title":"G15高速","lon":"121.25748356","lat":"31.214491315","category":"500","category_name":"未知分类","address":"上海高速"},{"poiid":"B2094654D569A7F9499E","title":"上海市凤溪机动车驾驶员培训学校","lon":"121.23876","lat":"31.20046","category":"192","category_name":"驾校","address":"青浦区凤溪北青公路"},{"poiid":"B2094654D569A0F8419F","title":"凤新大楼","lon":"121.23179","lat":"31.20388","category":"46","category_name":"楼宇","address":""},{"poiid":"B2094655D265A4FF449C","title":"好又多","lon":"121.22982","lat":"31.20531","category":"118","category_name":"超级市场","address":"新凤中路1807号"},{"poiid":"B2094757D165A0F5429C","title":"吴越人家面馆(青浦赵巷店)","lon":"121.23582556","lat":"31.218417161","category":"247","category_name":"餐饮美食","address":"上海近郊青浦区沪青平公路2888号奥特莱斯广场C214(近嘉松中路)  "},{"poiid":"B2094654D569A7F44598","title":"凤溪中心小学","lon":"121.22707","lat":"31.20715","category":"56","category_name":"小学","address":"新凤中路1718弄"},{"poiid":"B2094654D569A0F8419B","title":"巍云楼","lon":"121.23245","lat":"31.20342","category":"257","category_name":"中餐厅","address":""},{"poiid":"B2094654D569A7FA4599","title":"百货家电商场","lon":"121.2323","lat":"31.20296","category":"119","category_name":"商场","address":""},{"poiid":"B2094654D569A0FA479F","title":"上海华瑞口腔门诊部","lon":"121.23047","lat":"31.20477","category":"162","category_name":"医院","address":"新凤中路1831-1833"},{"poiid":"B2094654D569A7FA449F","title":"凤溪小商品市场","lon":"121.23062","lat":"31.20413","category":"120","category_name":"小商品市场","address":""},{"poiid":"B2094654D569A0FA479B","title":"海宁煲凤溪店","lon":"121.23059","lat":"31.20469","category":"257","category_name":"中餐厅","address":""},{"poiid":"B2094655D36DA0FC449D","title":"新凤路北青公路","lon":"121.2356","lat":"31.20103","category":"38","category_name":"公交车站","address":""},{"poiid":"B2094654D569A7FA4492","title":"星辰酒家","lon":"121.23184","lat":"31.2033","category":"257","category_name":"中餐厅","address":"新凤南路28号"},{"poiid":"B2094654D569A1FB469B","title":"青浦东乡革命烈士陵园","lon":"121.24633","lat":"31.21267","category":"620","category_name":"丧葬","address":"火星村"},{"poiid":"B2094654D569A0F84399","title":"车杰快修迪吉店","lon":"121.23247","lat":"31.20503","category":"133","category_name":"自行车专卖店","address":""},{"poiid":"B2094654D569A7FC459E","title":"青浦区风溪中学","lon":"121.23064","lat":"31.2022","category":"55","category_name":"中学","address":"凤星路1293"},{"poiid":"B2094757D66EA2FA459D","title":"华新镇凤溪菜市场","lon":"121.23050356","lat":"31.2066152138","category":"249","category_name":"购物服务","address":"上海凤溪镇"},{"poiid":"B2094654D569A7FA469E","title":"圆通速递(民兴大道)","lon":"121.25302","lat":"31.2135","category":"263","category_name":"公司","address":"华徐公路3029弄"},{"poiid":"B2094654D569A7FC459D","title":"休闲小站(凤星路)","lon":"121.23124","lat":"31.20307","category":"111","category_name":"休闲餐饮场所","address":""},{"poiid":"B2094654D569A7FC4892","title":"快客(凤星路)","lon":"121.23022","lat":"31.20232","category":"117","category_name":"便民商店/便利店","address":""},{"poiid":"B2094655D26BA1F94898","title":"苗圃(招呼站)","lon":"121.24701","lat":"31.20192","category":"38","category_name":"公交车站","address":""},{"poiid":"B2094654D569A7F44599","title":"古思浜农民中心村","lon":"121.22565","lat":"31.20673","category":"47","category_name":"住宅区","address":""},{"poiid":"B2094757D169A2F94099","title":"和家大院","lon":"121.24902156","lat":"31.196724906","category":"76","category_name":"上海菜","address":"青浦区重固镇北青公路嵩山村601号"},{"poiid":"B2094655D26BA0F4419B","title":"将相足浴保健会所","lon":"121.22993","lat":"31.20481","category":"149","category_name":"洗浴推拿场所","address":"新凤中路1808-1810号"},{"poiid":"B2094654D569A0FB479B","title":"华新镇火星村社区卫生服务站","lon":"121.25057","lat":"31.21677","category":"162","category_name":"医院","address":""},{"poiid":"B2094655D36CA0F5489C","title":"华新镇","lon":"121.22725","lat":"31.2246","category":"38","category_name":"公交车站","address":"上海华新街"},{"poiid":"B2094654D569A7FD4093","title":"兰州正宗牛肉拉面(凤星路)","lon":"121.22929","lat":"31.20097","category":"90","category_name":"清真餐馆","address":""},{"poiid":"B2094654D569A7FA459D","title":"上海荣盛涂装有限公司","lon":"121.23494","lat":"31.20105","category":"263","category_name":"公司","address":"新凤南路258"},{"poiid":"B2094757DA69A2FC4598","title":"上海虹桥大众","lon":"121.23795","lat":"31.200156","category":"639","category_name":"汽车交通类公司","address":"上海市青浦区北青公路4149号"},{"poiid":"B2094654DB65A4FD439E","title":"来来大排档","lon":"121.2285","lat":"31.19845","category":"87","category_name":"特色／地方风味餐厅","address":"青浦区凤溪镇凤中路246号(近北青公路)"},{"poiid":"B2094655D36CA0F5479E","title":"华徐公路秀龙村","lon":"121.24826","lat":"31.22273","category":"38","category_name":"公交车站","address":""},{"poiid":"B2094654D569A7FB419F","title":"上海康尔家具材料有限公司","lon":"121.25036","lat":"31.21142","category":"263","category_name":"公司","address":"民兴大道77号"},{"poiid":"B2094654DB69ABFE4899","title":"农工商超市(凤溪店)","lon":"121.23015","lat":"31.19787","category":"118","category_name":"超级市场","address":"青浦凤溪镇凤中路128号"},{"poiid":"B2094654D569A7F9479B","title":"龙溪花园住宅","lon":"121.23398","lat":"31.197189","category":"47","category_name":"住宅区","address":"北青公路4499弄"},{"poiid":"B2094757D468A3FE419D","title":"Eclair éclair","lon":"121.2442098","lat":"31.1966801","category":"67","category_name":"甜品店","address":"嵩山路88号上海安达仕酒店1楼近兴安路"},{"poiid":"B2094654D569A7FC429E","title":"凤溪家园","lon":"121.22865","lat":"31.19945","category":"47","category_name":"住宅区","address":"凤星路1469弄"},{"poiid":"B2094654D569A7F94799","title":"上海申通机动车驾驶员培训学校凤溪分部","lon":"121.23514","lat":"31.19801","category":"192","category_name":"驾校","address":"北青公路新木桥村13号"},{"poiid":"B2094654D569A7FD429B","title":"青浦区凤溪社区卫生服务中心","lon":"121.22811","lat":"31.19943","category":"162","category_name":"医院","address":""},{"poiid":"B2094654D569A7FC4298","title":"阿军大排档","lon":"121.22853","lat":"31.1993","category":"257","category_name":"中餐厅","address":""},{"poiid":"B2094654D569A7FC4393","title":"凤溪派出所","lon":"121.22933","lat":"31.2003","category":"609","category_name":"警察局","address":"凤溪镇凤溪路1415号"},{"poiid":"B2094654D569A1FA459F","title":"凤溪影剧院","lon":"121.227388","lat":"31.198425","category":"178","category_name":"电影院","address":"凤溪镇"},{"poiid":"B2094757D06FA3F5419A","title":"大众驾校培训中心","lon":"121.238637","lat":"31.200585","category":"190","category_name":"培训机构","address":"青浦区北青公路4149号(近虹桥机场)"},{"poiid":"B2094757D069AAF5499F","title":"凤溪镇","lon":"121.237469684","lat":"31.195387645","category":"500","category_name":"未知分类","address":"上海青浦区凤溪镇"},{"poiid":"B2094757D069A4FD4599","title":"西郊国际农产品交易中心","lon":"121.24538","lat":"31.22478","category":"249","category_name":"购物服务","address":"青浦区华新镇华徐公路3833号"},{"poiid":"B2094654D569A7F44698","title":"盛家宅小区二期","lon":"121.235","lat":"31.2071","category":"47","category_name":"住宅区","address":"凤育路288号"},{"poiid":"B2094654DB6BA1FB479F","title":"凤溪公园","lon":"121.22738","lat":"31.20675","category":"196","category_name":"公园","address":""},{"poiid":"B2094757D065A2F8489C","title":"好时大酒店","lon":"121.22935","lat":"31.20524","category":"76","category_name":"上海菜","address":"青浦区华新镇新凤路1768号(近凤友路)"},{"poiid":"B2094757D464A7FD449C","title":"英伦大酒店","lon":"121.23194","lat":"31.196868","category":"76","category_name":"上海菜","address":"青浦区北青公路4604号朋联国际广场内(近凤中路)"},{"poiid":"B2094757D568A0F44799","title":"大众交通培训中心","lon":"121.23878825","lat":"31.20047689","category":"192","category_name":"驾校","address":"中国上海市青浦区"},{"poiid":"B2094654D569A7FA4892","title":"实惠小吃(民兴大道)","lon":"121.24624","lat":"31.20947","category":"68","category_name":"快餐厅","address":""},{"poiid":"B2094757D165A6FC469B","title":"G15高速","lon":"121.25748356","lat":"31.214491315","category":"500","category_name":"未知分类","address":"上海高速"},{"poiid":"B2094654D569A7F9499E","title":"上海市凤溪机动车驾驶员培训学校","lon":"121.23876","lat":"31.20046","category":"192","category_name":"驾校","address":"青浦区凤溪北青公路"},{"poiid":"B2094654D569A0F8419F","title":"凤新大楼","lon":"121.23179","lat":"31.20388","category":"46","category_name":"楼宇","address":""},{"poiid":"B2094655D265A4FF449C","title":"好又多","lon":"121.22982","lat":"31.20531","category":"118","category_name":"超级市场","address":"新凤中路1807号"},{"poiid":"B2094757D165A0F5429C","title":"吴越人家面馆(青浦赵巷店)","lon":"121.23582556","lat":"31.218417161","category":"247","category_name":"餐饮美食","address":"上海近郊青浦区沪青平公路2888号奥特莱斯广场C214(近嘉松中路)  "},{"poiid":"B2094654D569A7F44598","title":"凤溪中心小学","lon":"121.22707","lat":"31.20715","category":"56","category_name":"小学","address":"新凤中路1718弄"},{"poiid":"B2094654D569A0F8419B","title":"巍云楼","lon":"121.23245","lat":"31.20342","category":"257","category_name":"中餐厅","address":""},{"poiid":"B2094654D569A7FA4599","title":"百货家电商场","lon":"121.2323","lat":"31.20296","category":"119","category_name":"商场","address":""},{"poiid":"B2094654D569A0FA479F","title":"上海华瑞口腔门诊部","lon":"121.23047","lat":"31.20477","category":"162","category_name":"医院","address":"新凤中路1831-1833"},{"poiid":"B2094654D569A7FA449F","title":"凤溪小商品市场","lon":"121.23062","lat":"31.20413","category":"120","category_name":"小商品市场","address":""},{"poiid":"B2094654D569A0FA479B","title":"海宁煲凤溪店","lon":"121.23059","lat":"31.20469","category":"257","category_name":"中餐厅","address":""},{"poiid":"B2094655D36DA0FC449D","title":"新凤路北青公路","lon":"121.2356","lat":"31.20103","category":"38","category_name":"公交车站","address":""},{"poiid":"B2094654D569A7FA4492","title":"星辰酒家","lon":"121.23184","lat":"31.2033","category":"257","category_name":"中餐厅","address":"新凤南路28号"},{"poiid":"B2094654D569A1FB469B","title":"青浦东乡革命烈士陵园","lon":"121.24633","lat":"31.21267","category":"620","category_name":"丧葬","address":"火星村"},{"poiid":"B2094654D569A0F84399","title":"车杰快修迪吉店","lon":"121.23247","lat":"31.20503","category":"133","category_name":"自行车专卖店","address":""},{"poiid":"B2094654D569A7FC459E","title":"青浦区风溪中学","lon":"121.23064","lat":"31.2022","category":"55","category_name":"中学","address":"凤星路1293"},{"poiid":"B2094757D66EA2FA459D","title":"华新镇凤溪菜市场","lon":"121.23050356","lat":"31.2066152138","category":"249","category_name":"购物服务","address":"上海凤溪镇"},{"poiid":"B2094654D569A7FA469E","title":"圆通速递(民兴大道)","lon":"121.25302","lat":"31.2135","category":"263","category_name":"公司","address":"华徐公路3029弄"},{"poiid":"B2094654D569A7FC459D","title":"休闲小站(凤星路)","lon":"121.23124","lat":"31.20307","category":"111","category_name":"休闲餐饮场所","address":""},{"poiid":"B2094654D569A7FC4892","title":"快客(凤星路)","lon":"121.23022","lat":"31.20232","category":"117","category_name":"便民商店/便利店","address":""},{"poiid":"B2094655D26BA1F94898","title":"苗圃(招呼站)","lon":"121.24701","lat":"31.20192","category":"38","category_name":"公交车站","address":""},{"poiid":"B2094654D569A7F44599","title":"古思浜农民中心村","lon":"121.22565","lat":"31.20673","category":"47","category_name":"住宅区","address":""},{"poiid":"B2094757D169A2F94099","title":"和家大院","lon":"121.24902156","lat":"31.196724906","category":"76","category_name":"上海菜","address":"青浦区重固镇北青公路嵩山村601号"},{"poiid":"B2094655D26BA0F4419B","title":"将相足浴保健会所","lon":"121.22993","lat":"31.20481","category":"149","category_name":"洗浴推拿场所","address":"新凤中路1808-1810号"},{"poiid":"B2094654D569A0FB479B","title":"华新镇火星村社区卫生服务站","lon":"121.25057","lat":"31.21677","category":"162","category_name":"医院","address":""},{"poiid":"B2094655D36CA0F5489C","title":"华新镇","lon":"121.22725","lat":"31.2246","category":"38","category_name":"公交车站","address":"上海华新街"},{"poiid":"B2094654D569A7FD4093","title":"兰州正宗牛肉拉面(凤星路)","lon":"121.22929","lat":"31.20097","category":"90","category_name":"清真餐馆","address":""},{"poiid":"B2094654D569A7FA459D","title":"上海荣盛涂装有限公司","lon":"121.23494","lat":"31.20105","category":"263","category_name":"公司","address":"新凤南路258"},{"poiid":"B2094757DA69A2FC4598","title":"上海虹桥大众","lon":"121.23795","lat":"31.200156","category":"639","category_name":"汽车交通类公司","address":"上海市青浦区北青公路4149号"},{"poiid":"B2094654DB65A4FD439E","title":"来来大排档","lon":"121.2285","lat":"31.19845","category":"87","category_name":"特色／地方风味餐厅","address":"青浦区凤溪镇凤中路246号(近北青公路)"},{"poiid":"B2094655D36CA0F5479E","title":"华徐公路秀龙村","lon":"121.24826","lat":"31.22273","category":"38","category_name":"公交车站","address":""},{"poiid":"B2094654D569A7FB419F","title":"上海康尔家具材料有限公司","lon":"121.25036","lat":"31.21142","category":"263","category_name":"公司","address":"民兴大道77号"},{"poiid":"B2094654DB69ABFE4899","title":"农工商超市(凤溪店)","lon":"121.23015","lat":"31.19787","category":"118","category_name":"超级市场","address":"青浦凤溪镇凤中路128号"},{"poiid":"B2094654D569A7F9479B","title":"龙溪花园住宅","lon":"121.23398","lat":"31.197189","category":"47","category_name":"住宅区","address":"北青公路4499弄"},{"poiid":"B2094757D468A3FE419D","title":"Eclair éclair","lon":"121.2442098","lat":"31.1966801","category":"67","category_name":"甜品店","address":"嵩山路88号上海安达仕酒店1楼近兴安路"},{"poiid":"B2094654D569A7FC429E","title":"凤溪家园","lon":"121.22865","lat":"31.19945","category":"47","category_name":"住宅区","address":"凤星路1469弄"},{"poiid":"B2094654D569A7F94799","title":"上海申通机动车驾驶员培训学校凤溪分部","lon":"121.23514","lat":"31.19801","category":"192","category_name":"驾校","address":"北青公路新木桥村13号"},{"poiid":"B2094654D569A7FD429B","title":"青浦区凤溪社区卫生服务中心","lon":"121.22811","lat":"31.19943","category":"162","category_name":"医院","address":""},{"poiid":"B2094654D569A7FC4298","title":"阿军大排档","lon":"121.22853","lat":"31.1993","category":"257","category_name":"中餐厅","address":""},{"poiid":"B2094654D569A7FC4393","title":"凤溪派出所","lon":"121.22933","lat":"31.2003","category":"609","category_name":"警察局","address":"凤溪镇凤溪路1415号"},{"poiid":"B2094654D569A1FA459F","title":"凤溪影剧院","lon":"121.227388","lat":"31.198425","category":"178","category_name":"电影院","address":"凤溪镇"}]