[{"poiid":"B2094757D66FA6FA479F","title":"穹六人间","lon":"121.45227","lat":"31.205613","category":"260","category_name":"其他","address":"徐汇区岳阳路150号(近永嘉路)"},{"poiid":"B2094757D06FA6FE4998","title":"南伶酒家","lon":"121.45245","lat":"31.20485","category":"74","category_name":"江苏菜","address":"徐汇区岳阳路168号(近永嘉路)"},{"poiid":"B2094654DB6AA7FB479E","title":"罗斯福顶级牛排馆","lon":"121.45432","lat":"31.20603","category":"94","category_name":"西餐厅","address":"徐汇区太原路160号太原别墅瑞金宾馆内(近永嘉路)"},{"poiid":"B2094753D76FAAFA449C","title":"上海滩国泰旗舰店","lon":"121.466011","lat":"31.216125","category":"249","category_name":"购物服务","address":"淮海中路868号"},{"poiid":"B209475CD564A7F84292","title":"上海滩新天地店","lon":"121.47463","lat":"31.22164","category":"119","category_name":"商场","address":"\"太仓路181弄新天地北里15号\r\n\""},{"poiid":"B209475CD564A7F8439E","title":"上海滩中信泰富店","lon":"121.45602","lat":"31.22851","category":"119","category_name":"商场","address":"\"南京西路1168号中信泰富广场，店铺号221.\r\n\""},{"poiid":"B2094655D265A2FA4098","title":"永嘉庭","lon":"121.45142","lat":"31.20608","category":"46","category_name":"楼宇","address":"永嘉路570"},{"poiid":"B2094654DA6DA6F94298","title":"大可堂普洱会所","lon":"121.45772","lat":"31.20758","category":"260","category_name":"其他","address":"徐汇区襄阳南路388弄25号(近永嘉路)"},{"poiid":"B2094757D068A7FE499C","title":"上海五洲国际大厦","lon":"121.454","lat":"31.2043","category":"46","category_name":"楼宇","address":"徐汇区肇嘉浜路807号"},{"poiid":"B2094750D16BA4FD449E","title":"板烧王","lon":"121.454582","lat":"31.20439","category":"247","category_name":"餐饮美食","address":"卢湾区徐家汇路618号日月光中心广场B2楼台湾美食馆BT20-23室(近瑞金二路)"},{"poiid":"B2094757D068A0F8499F","title":"印度小厨(永嘉店)","lon":"121.45119","lat":"31.20528","category":"102","category_name":"印度风味","address":"徐汇区永嘉路570号永嘉庭1号楼4楼(近岳阳路)"},{"poiid":"B2094655D36CA0F94999","title":"建国西路","lon":"121.45565","lat":"31.20408","category":"38","category_name":"公交车站","address":"建国西路354弄"},{"poiid":"B2094750D665A0FA409D","title":"水稻咖啡","lon":"121.456","lat":"31.208","category":"260","category_name":"其他","address":"徐汇区永嘉路394号(近太原路)"},{"poiid":"B2094757D069A7F5479F","title":"襄阳会馆","lon":"121.45852","lat":"31.20484","category":"76","category_name":"上海菜","address":"徐汇区建国西路296号(近襄阳南路)"},{"poiid":"B2094654DA6DA6FC459A","title":"坤阳国际商务广场","lon":"121.452","lat":"31.2047","category":"46","category_name":"楼宇","address":"卫清西路139_149号等"},{"poiid":"B2094654DB6BA5FA4799","title":"欧江大厦","lon":"121.453","lat":"31.2052","category":"46","category_name":"楼宇","address":"徐汇区肇嘉浜路768号"},{"poiid":"B2094654DA6DABFD4199","title":"伊泰利大厦","lon":"121.4552612","lat":"31.20184326","category":"46","category_name":"楼宇","address":"伊泰利大厦位于徐汇肇嘉浜路446弄"},{"poiid":"B2094757D069A6FB4192","title":"The Chalet","lon":"121.45457","lat":"31.20623","category":"500","category_name":"未知分类","address":"上海徐汇区永嘉路385弄(近太原路)  "},{"poiid":"B2094757D069A5F44799","title":"Lola Club","lon":"121.455173279","lat":"31.2044100305","category":"500","category_name":"未知分类","address":"上海永嘉路570号"},{"poiid":"B2094751DA6FA3FC469F","title":"捞王猪肚鸡","lon":"121.45716","lat":"31.20452","category":"86","category_name":"火锅店","address":"徐汇区肇嘉浜路268号2楼(近嘉善路地铁站2号出口)"},{"poiid":"B2094757D068A0F8469E","title":"龙头大厦","lon":"121.454","lat":"31.205","category":"46","category_name":"楼宇","address":"徐汇区肇嘉浜路736号(近高安路)"},{"poiid":"B2094750D165A2F54499","title":"韩国首尔SUM STUDIO","lon":"121.454948","lat":"31.203849","category":"248","category_name":"生活娱乐","address":"徐汇区建国西路379号(近岳阳路)"},{"poiid":"B2094654DA6DA7F4429A","title":"金钟大厦","lon":"121.455","lat":"31.2058","category":"46","category_name":"楼宇","address":"沈河北中街123号"},{"poiid":"B2094757D068A6FA4299","title":"巴黎时韵","lon":"121.45768","lat":"31.205799","category":"46","category_name":"楼宇","address":"巴黎时韵位于卢湾襄阳南路500号建国西路口"},{"poiid":"B2094750DA6AAAFC479F","title":"奈良本寿司","lon":"121.45543","lat":"31.20401","category":"95","category_name":"日本料理","address":"徐汇区永嘉路557号"},{"poiid":"B2094654DA6DA7F54099","title":"怡甸大厦","lon":"121.453118","lat":"31.204807","category":"46","category_name":"楼宇","address":"上海市静安区南京西路555号"},{"poiid":"B2094757D065A3FF4092","title":"Brownstone","lon":"121.451477","lat":"31.205856","category":"260","category_name":"其他","address":"徐汇区永嘉路570号永嘉庭311单元(近岳阳路)"},{"poiid":"B2094757D16AA2F54399","title":"瑞金宾馆太原别墅中餐厅","lon":"121.45543","lat":"31.20554","category":"76","category_name":"上海菜","address":"杨浦区靖宇南路16号(靖宇南路永吉路)"},{"poiid":"B2094757D465A4F8439B","title":"Salley Garden","lon":"121.452781","lat":"31.206169","category":"260","category_name":"其他","address":"徐汇区永嘉路480号(近岳阳路)"},{"poiid":"B2094655D36DA1F44792","title":"襄阳南路建国西路","lon":"121.45804","lat":"31.20557","category":"38","category_name":"公交车站","address":"上海襄阳南路建国西路"},{"poiid":"B2094654DB69A7FD439F","title":"秋萍茶宴馆","lon":"121.4576585804","lat":"31.205616427492","category":"75","category_name":"浙江菜","address":"徐汇区襄阳南路500号(近建国西路)"},{"poiid":"B2094757D06AA5F9419C","title":"公安部第三研究所","lon":"121.45197862","lat":"31.206925644","category":"500","category_name":"未知分类","address":"上海市徐汇区岳阳路76号"},{"poiid":"B2094757D068A5FC4399","title":"倾城宝贝儿童摄影","lon":"121.452685","lat":"31.206144","category":"500","category_name":"未知分类","address":"卢湾区瑞金二路24号甲(淮海中路口)"},{"poiid":"B2094757D16CAAF8489F","title":"中国科学院上海分院","lon":"121.45382308","lat":"31.203554409","category":"671","category_name":"高校中心点","address":"上海岳阳路319号"},{"poiid":"B2094757D06AA3FA489E","title":"小荧星艺校(尚街校区)","lon":"121.457245738","lat":"31.2069285447","category":"500","category_name":"未知分类","address":"上海卢湾区建国西路283号(近嘉善路)"},{"poiid":"B2094757D06BA6F8449B","title":"EF英孚教育青少儿英语(太原路中心)","lon":"121.45518","lat":"31.20556","category":"190","category_name":"培训机构","address":"上海徐汇区太原路167号(近永嘉路)"},{"poiid":"B2094750D664A3F54598","title":"鸿公馆","lon":"121.458","lat":"31.2034","category":"72","category_name":"广东菜","address":"徐汇区襄阳南路578号乙(近肇嘉浜路)"},{"poiid":"B2094654DA6DA4FB469C","title":"天平街道社区卫生服务中心","lon":"121.45476","lat":"31.20681","category":"162","category_name":"医院","address":"徐汇区太原路110号(近永嘉路)"},{"poiid":"B2094654DA6DA7F5479B","title":"锦都大厦","lon":"121.452","lat":"31.2059","category":"46","category_name":"楼宇","address":"闸北区江场西路38号(近共和新路)"},{"poiid":"B2094757D065A3F9489F","title":"地铁1号线 常熟路站","lon":"121.451627586","lat":"31.2051945414","category":"500","category_name":"未知分类","address":"上海常熟路"},{"poiid":"B2094654DA6DA4F5489C","title":"联业大厦","lon":"121.457","lat":"31.2063","category":"46","category_name":"楼宇","address":"联业大厦位于徐汇乌鲁木齐南路299号"},{"poiid":"B2094753DB6EA2F8429E","title":"上海瑞金宾馆太原别墅","lon":"121.455098","lat":"31.206012","category":"214","category_name":"四星级宾馆","address":"上海徐汇区太原路160号"},{"poiid":"B2094757D16CA6FE4499","title":"Venus Spring Massage","lon":"121.460971","lat":"31.207268","category":"500","category_name":"未知分类","address":"上海市,陕西南路550弄37号嘉善坊E栋(近绍兴路)"},{"poiid":"B2094655D36DA0F4409D","title":"永嘉路岳阳路","lon":"121.45166","lat":"31.20582","category":"38","category_name":"公交车站","address":""},{"poiid":"B2094750DB64A6F84193","title":"复旦大学眼耳喉鼻科医院","lon":"121.456497","lat":"31.207393","category":"162","category_name":"医院","address":null},{"poiid":"B2094750D76EA1F44392","title":"无名生煎","lon":"121.456","lat":"31.204","category":"68","category_name":"快餐厅","address":"徐汇区太原路236号(近建国西路)"},{"poiid":"B2094757D66FA7FE4499","title":"阿蒂米斯生活馆","lon":"121.45477573","lat":"31.205016763","category":"500","category_name":"未知分类","address":"上海市徐汇区永嘉路"},{"poiid":"B2094654DA6DA6F84892","title":"嘉善菜场","lon":"121.45581","lat":"31.20457","category":"117","category_name":"便民商店/便利店","address":"上海建国西路太原路"},{"poiid":"B2094757D16CA3FA499A","title":"INFERNO","lon":"121.453552","lat":"31.206577","category":"260","category_name":"其他","address":"徐汇区永嘉路480号弄内(近太原路)"},{"poiid":"B2094757D66DA0F44399","title":"太原路","lon":"121.45356958","lat":"31.206214961","category":"500","category_name":"未知分类","address":"上海市徐汇区衡山路"},{"poiid":"B2094757D66FA6FA479F","title":"穹六人间","lon":"121.45227","lat":"31.205613","category":"260","category_name":"其他","address":"徐汇区岳阳路150号(近永嘉路)"},{"poiid":"B2094757D06FA6FE4998","title":"南伶酒家","lon":"121.45245","lat":"31.20485","category":"74","category_name":"江苏菜","address":"徐汇区岳阳路168号(近永嘉路)"},{"poiid":"B2094654DB6AA7FB479E","title":"罗斯福顶级牛排馆","lon":"121.45432","lat":"31.20603","category":"94","category_name":"西餐厅","address":"徐汇区太原路160号太原别墅瑞金宾馆内(近永嘉路)"},{"poiid":"B2094753D76FAAFA449C","title":"上海滩国泰旗舰店","lon":"121.466011","lat":"31.216125","category":"249","category_name":"购物服务","address":"淮海中路868号"},{"poiid":"B209475CD564A7F84292","title":"上海滩新天地店","lon":"121.47463","lat":"31.22164","category":"119","category_name":"商场","address":"\"太仓路181弄新天地北里15号\r\n\""},{"poiid":"B209475CD564A7F8439E","title":"上海滩中信泰富店","lon":"121.45602","lat":"31.22851","category":"119","category_name":"商场","address":"\"南京西路1168号中信泰富广场，店铺号221.\r\n\""},{"poiid":"B2094655D265A2FA4098","title":"永嘉庭","lon":"121.45142","lat":"31.20608","category":"46","category_name":"楼宇","address":"永嘉路570"},{"poiid":"B2094654DA6DA6F94298","title":"大可堂普洱会所","lon":"121.45772","lat":"31.20758","category":"260","category_name":"其他","address":"徐汇区襄阳南路388弄25号(近永嘉路)"},{"poiid":"B2094757D068A7FE499C","title":"上海五洲国际大厦","lon":"121.454","lat":"31.2043","category":"46","category_name":"楼宇","address":"徐汇区肇嘉浜路807号"},{"poiid":"B2094750D16BA4FD449E","title":"板烧王","lon":"121.454582","lat":"31.20439","category":"247","category_name":"餐饮美食","address":"卢湾区徐家汇路618号日月光中心广场B2楼台湾美食馆BT20-23室(近瑞金二路)"},{"poiid":"B2094757D068A0F8499F","title":"印度小厨(永嘉店)","lon":"121.45119","lat":"31.20528","category":"102","category_name":"印度风味","address":"徐汇区永嘉路570号永嘉庭1号楼4楼(近岳阳路)"},{"poiid":"B2094655D36CA0F94999","title":"建国西路","lon":"121.45565","lat":"31.20408","category":"38","category_name":"公交车站","address":"建国西路354弄"},{"poiid":"B2094750D665A0FA409D","title":"水稻咖啡","lon":"121.456","lat":"31.208","category":"260","category_name":"其他","address":"徐汇区永嘉路394号(近太原路)"},{"poiid":"B2094757D069A7F5479F","title":"襄阳会馆","lon":"121.45852","lat":"31.20484","category":"76","category_name":"上海菜","address":"徐汇区建国西路296号(近襄阳南路)"},{"poiid":"B2094654DA6DA6FC459A","title":"坤阳国际商务广场","lon":"121.452","lat":"31.2047","category":"46","category_name":"楼宇","address":"卫清西路139_149号等"},{"poiid":"B2094654DB6BA5FA4799","title":"欧江大厦","lon":"121.453","lat":"31.2052","category":"46","category_name":"楼宇","address":"徐汇区肇嘉浜路768号"},{"poiid":"B2094654DA6DABFD4199","title":"伊泰利大厦","lon":"121.4552612","lat":"31.20184326","category":"46","category_name":"楼宇","address":"伊泰利大厦位于徐汇肇嘉浜路446弄"},{"poiid":"B2094757D069A6FB4192","title":"The Chalet","lon":"121.45457","lat":"31.20623","category":"500","category_name":"未知分类","address":"上海徐汇区永嘉路385弄(近太原路)  "},{"poiid":"B2094757D069A5F44799","title":"Lola Club","lon":"121.455173279","lat":"31.2044100305","category":"500","category_name":"未知分类","address":"上海永嘉路570号"},{"poiid":"B2094751DA6FA3FC469F","title":"捞王猪肚鸡","lon":"121.45716","lat":"31.20452","category":"86","category_name":"火锅店","address":"徐汇区肇嘉浜路268号2楼(近嘉善路地铁站2号出口)"},{"poiid":"B2094757D068A0F8469E","title":"龙头大厦","lon":"121.454","lat":"31.205","category":"46","category_name":"楼宇","address":"徐汇区肇嘉浜路736号(近高安路)"},{"poiid":"B2094750D165A2F54499","title":"韩国首尔SUM STUDIO","lon":"121.454948","lat":"31.203849","category":"248","category_name":"生活娱乐","address":"徐汇区建国西路379号(近岳阳路)"},{"poiid":"B2094654DA6DA7F4429A","title":"金钟大厦","lon":"121.455","lat":"31.2058","category":"46","category_name":"楼宇","address":"沈河北中街123号"},{"poiid":"B2094757D068A6FA4299","title":"巴黎时韵","lon":"121.45768","lat":"31.205799","category":"46","category_name":"楼宇","address":"巴黎时韵位于卢湾襄阳南路500号建国西路口"},{"poiid":"B2094750DA6AAAFC479F","title":"奈良本寿司","lon":"121.45543","lat":"31.20401","category":"95","category_name":"日本料理","address":"徐汇区永嘉路557号"},{"poiid":"B2094654DA6DA7F54099","title":"怡甸大厦","lon":"121.453118","lat":"31.204807","category":"46","category_name":"楼宇","address":"上海市静安区南京西路555号"},{"poiid":"B2094757D065A3FF4092","title":"Brownstone","lon":"121.451477","lat":"31.205856","category":"260","category_name":"其他","address":"徐汇区永嘉路570号永嘉庭311单元(近岳阳路)"},{"poiid":"B2094757D16AA2F54399","title":"瑞金宾馆太原别墅中餐厅","lon":"121.45543","lat":"31.20554","category":"76","category_name":"上海菜","address":"杨浦区靖宇南路16号(靖宇南路永吉路)"},{"poiid":"B2094757D465A4F8439B","title":"Salley Garden","lon":"121.452781","lat":"31.206169","category":"260","category_name":"其他","address":"徐汇区永嘉路480号(近岳阳路)"},{"poiid":"B2094655D36DA1F44792","title":"襄阳南路建国西路","lon":"121.45804","lat":"31.20557","category":"38","category_name":"公交车站","address":"上海襄阳南路建国西路"},{"poiid":"B2094654DB69A7FD439F","title":"秋萍茶宴馆","lon":"121.4576585804","lat":"31.205616427492","category":"75","category_name":"浙江菜","address":"徐汇区襄阳南路500号(近建国西路)"},{"poiid":"B2094757D06AA5F9419C","title":"公安部第三研究所","lon":"121.45197862","lat":"31.206925644","category":"500","category_name":"未知分类","address":"上海市徐汇区岳阳路76号"},{"poiid":"B2094757D068A5FC4399","title":"倾城宝贝儿童摄影","lon":"121.452685","lat":"31.206144","category":"500","category_name":"未知分类","address":"卢湾区瑞金二路24号甲(淮海中路口)"},{"poiid":"B2094757D16CAAF8489F","title":"中国科学院上海分院","lon":"121.45382308","lat":"31.203554409","category":"671","category_name":"高校中心点","address":"上海岳阳路319号"},{"poiid":"B2094757D06AA3FA489E","title":"小荧星艺校(尚街校区)","lon":"121.457245738","lat":"31.2069285447","category":"500","category_name":"未知分类","address":"上海卢湾区建国西路283号(近嘉善路)"},{"poiid":"B2094757D06BA6F8449B","title":"EF英孚教育青少儿英语(太原路中心)","lon":"121.45518","lat":"31.20556","category":"190","category_name":"培训机构","address":"上海徐汇区太原路167号(近永嘉路)"},{"poiid":"B2094750D664A3F54598","title":"鸿公馆","lon":"121.458","lat":"31.2034","category":"72","category_name":"广东菜","address":"徐汇区襄阳南路578号乙(近肇嘉浜路)"},{"poiid":"B2094654DA6DA4FB469C","title":"天平街道社区卫生服务中心","lon":"121.45476","lat":"31.20681","category":"162","category_name":"医院","address":"徐汇区太原路110号(近永嘉路)"},{"poiid":"B2094654DA6DA7F5479B","title":"锦都大厦","lon":"121.452","lat":"31.2059","category":"46","category_name":"楼宇","address":"闸北区江场西路38号(近共和新路)"},{"poiid":"B2094757D065A3F9489F","title":"地铁1号线 常熟路站","lon":"121.451627586","lat":"31.2051945414","category":"500","category_name":"未知分类","address":"上海常熟路"},{"poiid":"B2094654DA6DA4F5489C","title":"联业大厦","lon":"121.457","lat":"31.2063","category":"46","category_name":"楼宇","address":"联业大厦位于徐汇乌鲁木齐南路299号"},{"poiid":"B2094753DB6EA2F8429E","title":"上海瑞金宾馆太原别墅","lon":"121.455098","lat":"31.206012","category":"214","category_name":"四星级宾馆","address":"上海徐汇区太原路160号"},{"poiid":"B2094757D16CA6FE4499","title":"Venus Spring Massage","lon":"121.460971","lat":"31.207268","category":"500","category_name":"未知分类","address":"上海市,陕西南路550弄37号嘉善坊E栋(近绍兴路)"},{"poiid":"B2094655D36DA0F4409D","title":"永嘉路岳阳路","lon":"121.45166","lat":"31.20582","category":"38","category_name":"公交车站","address":""},{"poiid":"B2094750DB64A6F84193","title":"复旦大学眼耳喉鼻科医院","lon":"121.456497","lat":"31.207393","category":"162","category_name":"医院","address":null},{"poiid":"B2094750D76EA1F44392","title":"无名生煎","lon":"121.456","lat":"31.204","category":"68","category_name":"快餐厅","address":"徐汇区太原路236号(近建国西路)"},{"poiid":"B2094757D66FA7FE4499","title":"阿蒂米斯生活馆","lon":"121.45477573","lat":"31.205016763","category":"500","category_name":"未知分类","address":"上海市徐汇区永嘉路"},{"poiid":"B2094654DA6DA6F84892","title":"嘉善菜场","lon":"121.45581","lat":"31.20457","category":"117","category_name":"便民商店/便利店","address":"上海建国西路太原路"},{"poiid":"B2094757D16CA3FA499A","title":"INFERNO","lon":"121.453552","lat":"31.206577","category":"260","category_name":"其他","address":"徐汇区永嘉路480号弄内(近太原路)"},{"poiid":"B2094757D66DA0F44399","title":"太原路","lon":"121.45356958","lat":"31.206214961","category":"500","category_name":"未知分类","address":"上海市徐汇区衡山路"},{"poiid":"B2094757D66FA6FA479F","title":"穹六人间","lon":"121.45227","lat":"31.205613","category":"260","category_name":"其他","address":"徐汇区岳阳路150号(近永嘉路)"},{"poiid":"B2094757D06FA6FE4998","title":"南伶酒家","lon":"121.45245","lat":"31.20485","category":"74","category_name":"江苏菜","address":"徐汇区岳阳路168号(近永嘉路)"},{"poiid":"B2094654DB6AA7FB479E","title":"罗斯福顶级牛排馆","lon":"121.45432","lat":"31.20603","category":"94","category_name":"西餐厅","address":"徐汇区太原路160号太原别墅瑞金宾馆内(近永嘉路)"},{"poiid":"B2094753D76FAAFA449C","title":"上海滩国泰旗舰店","lon":"121.466011","lat":"31.216125","category":"249","category_name":"购物服务","address":"淮海中路868号"},{"poiid":"B209475CD564A7F84292","title":"上海滩新天地店","lon":"121.47463","lat":"31.22164","category":"119","category_name":"商场","address":"\"太仓路181弄新天地北里15号\r\n\""},{"poiid":"B209475CD564A7F8439E","title":"上海滩中信泰富店","lon":"121.45602","lat":"31.22851","category":"119","category_name":"商场","address":"\"南京西路1168号中信泰富广场，店铺号221.\r\n\""},{"poiid":"B2094655D265A2FA4098","title":"永嘉庭","lon":"121.45142","lat":"31.20608","category":"46","category_name":"楼宇","address":"永嘉路570"},{"poiid":"B2094654DA6DA6F94298","title":"大可堂普洱会所","lon":"121.45772","lat":"31.20758","category":"260","category_name":"其他","address":"徐汇区襄阳南路388弄25号(近永嘉路)"},{"poiid":"B2094757D068A7FE499C","title":"上海五洲国际大厦","lon":"121.454","lat":"31.2043","category":"46","category_name":"楼宇","address":"徐汇区肇嘉浜路807号"},{"poiid":"B2094750D16BA4FD449E","title":"板烧王","lon":"121.454582","lat":"31.20439","category":"247","category_name":"餐饮美食","address":"卢湾区徐家汇路618号日月光中心广场B2楼台湾美食馆BT20-23室(近瑞金二路)"},{"poiid":"B2094757D068A0F8499F","title":"印度小厨(永嘉店)","lon":"121.45119","lat":"31.20528","category":"102","category_name":"印度风味","address":"徐汇区永嘉路570号永嘉庭1号楼4楼(近岳阳路)"},{"poiid":"B2094655D36CA0F94999","title":"建国西路","lon":"121.45565","lat":"31.20408","category":"38","category_name":"公交车站","address":"建国西路354弄"},{"poiid":"B2094750D665A0FA409D","title":"水稻咖啡","lon":"121.456","lat":"31.208","category":"260","category_name":"其他","address":"徐汇区永嘉路394号(近太原路)"},{"poiid":"B2094757D069A7F5479F","title":"襄阳会馆","lon":"121.45852","lat":"31.20484","category":"76","category_name":"上海菜","address":"徐汇区建国西路296号(近襄阳南路)"},{"poiid":"B2094654DA6DA6FC459A","title":"坤阳国际商务广场","lon":"121.452","lat":"31.2047","category":"46","category_name":"楼宇","address":"卫清西路139_149号等"},{"poiid":"B2094654DB6BA5FA4799","title":"欧江大厦","lon":"121.453","lat":"31.2052","category":"46","category_name":"楼宇","address":"徐汇区肇嘉浜路768号"},{"poiid":"B2094654DA6DABFD4199","title":"伊泰利大厦","lon":"121.4552612","lat":"31.20184326","category":"46","category_name":"楼宇","address":"伊泰利大厦位于徐汇肇嘉浜路446弄"},{"poiid":"B2094757D069A6FB4192","title":"The Chalet","lon":"121.45457","lat":"31.20623","category":"500","category_name":"未知分类","address":"上海徐汇区永嘉路385弄(近太原路)  "},{"poiid":"B2094757D069A5F44799","title":"Lola Club","lon":"121.455173279","lat":"31.2044100305","category":"500","category_name":"未知分类","address":"上海永嘉路570号"},{"poiid":"B2094751DA6FA3FC469F","title":"捞王猪肚鸡","lon":"121.45716","lat":"31.20452","category":"86","category_name":"火锅店","address":"徐汇区肇嘉浜路268号2楼(近嘉善路地铁站2号出口)"},{"poiid":"B2094757D068A0F8469E","title":"龙头大厦","lon":"121.454","lat":"31.205","category":"46","category_name":"楼宇","address":"徐汇区肇嘉浜路736号(近高安路)"},{"poiid":"B2094750D165A2F54499","title":"韩国首尔SUM STUDIO","lon":"121.454948","lat":"31.203849","category":"248","category_name":"生活娱乐","address":"徐汇区建国西路379号(近岳阳路)"},{"poiid":"B2094654DA6DA7F4429A","title":"金钟大厦","lon":"121.455","lat":"31.2058","category":"46","category_name":"楼宇","address":"沈河北中街123号"},{"poiid":"B2094757D068A6FA4299","title":"巴黎时韵","lon":"121.45768","lat":"31.205799","category":"46","category_name":"楼宇","address":"巴黎时韵位于卢湾襄阳南路500号建国西路口"},{"poiid":"B2094750DA6AAAFC479F","title":"奈良本寿司","lon":"121.45543","lat":"31.20401","category":"95","category_name":"日本料理","address":"徐汇区永嘉路557号"},{"poiid":"B2094654DA6DA7F54099","title":"怡甸大厦","lon":"121.453118","lat":"31.204807","category":"46","category_name":"楼宇","address":"上海市静安区南京西路555号"},{"poiid":"B2094757D065A3FF4092","title":"Brownstone","lon":"121.451477","lat":"31.205856","category":"260","category_name":"其他","address":"徐汇区永嘉路570号永嘉庭311单元(近岳阳路)"},{"poiid":"B2094757D16AA2F54399","title":"瑞金宾馆太原别墅中餐厅","lon":"121.45543","lat":"31.20554","category":"76","category_name":"上海菜","address":"杨浦区靖宇南路16号(靖宇南路永吉路)"},{"poiid":"B2094757D465A4F8439B","title":"Salley Garden","lon":"121.452781","lat":"31.206169","category":"260","category_name":"其他","address":"徐汇区永嘉路480号(近岳阳路)"},{"poiid":"B2094655D36DA1F44792","title":"襄阳南路建国西路","lon":"121.45804","lat":"31.20557","category":"38","category_name":"公交车站","address":"上海襄阳南路建国西路"},{"poiid":"B2094654DB69A7FD439F","title":"秋萍茶宴馆","lon":"121.4576585804","lat":"31.205616427492","category":"75","category_name":"浙江菜","address":"徐汇区襄阳南路500号(近建国西路)"},{"poiid":"B2094757D06AA5F9419C","title":"公安部第三研究所","lon":"121.45197862","lat":"31.206925644","category":"500","category_name":"未知分类","address":"上海市徐汇区岳阳路76号"},{"poiid":"B2094757D068A5FC4399","title":"倾城宝贝儿童摄影","lon":"121.452685","lat":"31.206144","category":"500","category_name":"未知分类","address":"卢湾区瑞金二路24号甲(淮海中路口)"},{"poiid":"B2094757D16CAAF8489F","title":"中国科学院上海分院","lon":"121.45382308","lat":"31.203554409","category":"671","category_name":"高校中心点","address":"上海岳阳路319号"},{"poiid":"B2094757D06AA3FA489E","title":"小荧星艺校(尚街校区)","lon":"121.457245738","lat":"31.2069285447","category":"500","category_name":"未知分类","address":"上海卢湾区建国西路283号(近嘉善路)"},{"poiid":"B2094757D06BA6F8449B","title":"EF英孚教育青少儿英语(太原路中心)","lon":"121.45518","lat":"31.20556","category":"190","category_name":"培训机构","address":"上海徐汇区太原路167号(近永嘉路)"},{"poiid":"B2094750D664A3F54598","title":"鸿公馆","lon":"121.458","lat":"31.2034","category":"72","category_name":"广东菜","address":"徐汇区襄阳南路578号乙(近肇嘉浜路)"},{"poiid":"B2094654DA6DA4FB469C","title":"天平街道社区卫生服务中心","lon":"121.45476","lat":"31.20681","category":"162","category_name":"医院","address":"徐汇区太原路110号(近永嘉路)"},{"poiid":"B2094654DA6DA7F5479B","title":"锦都大厦","lon":"121.452","lat":"31.2059","category":"46","category_name":"楼宇","address":"闸北区江场西路38号(近共和新路)"},{"poiid":"B2094757D065A3F9489F","title":"地铁1号线 常熟路站","lon":"121.451627586","lat":"31.2051945414","category":"500","category_name":"未知分类","address":"上海常熟路"},{"poiid":"B2094654DA6DA4F5489C","title":"联业大厦","lon":"121.457","lat":"31.2063","category":"46","category_name":"楼宇","address":"联业大厦位于徐汇乌鲁木齐南路299号"},{"poiid":"B2094753DB6EA2F8429E","title":"上海瑞金宾馆太原别墅","lon":"121.455098","lat":"31.206012","category":"214","category_name":"四星级宾馆","address":"上海徐汇区太原路160号"},{"poiid":"B2094757D16CA6FE4499","title":"Venus Spring Massage","lon":"121.460971","lat":"31.207268","category":"500","category_name":"未知分类","address":"上海市,陕西南路550弄37号嘉善坊E栋(近绍兴路)"},{"poiid":"B2094655D36DA0F4409D","title":"永嘉路岳阳路","lon":"121.45166","lat":"31.20582","category":"38","category_name":"公交车站","address":""},{"poiid":"B2094750DB64A6F84193","title":"复旦大学眼耳喉鼻科医院","lon":"121.456497","lat":"31.207393","category":"162","category_name":"医院","address":null},{"poiid":"B2094750D76EA1F44392","title":"无名生煎","lon":"121.456","lat":"31.204","category":"68","category_name":"快餐厅","address":"徐汇区太原路236号(近建国西路)"},{"poiid":"B2094757D66FA7FE4499","title":"阿蒂米斯生活馆","lon":"121.45477573","lat":"31.205016763","category":"500","category_name":"未知分类","address":"上海市徐汇区永嘉路"},{"poiid":"B2094654DA6DA6F84892","title":"嘉善菜场","lon":"121.45581","lat":"31.20457","category":"117","category_name":"便民商店/便利店","address":"上海建国西路太原路"},{"poiid":"B2094757D16CA3FA499A","title":"INFERNO","lon":"121.453552","lat":"31.206577","category":"260","category_name":"其他","address":"徐汇区永嘉路480号弄内(近太原路)"},{"poiid":"B2094757D66DA0F44399","title":"太原路","lon":"121.45356958","lat":"31.206214961","category":"500","category_name":"未知分类","address":"上海市徐汇区衡山路"},{"poiid":"B2094757D66FA6FA479F","title":"穹六人间","lon":"121.45227","lat":"31.205613","category":"260","category_name":"其他","address":"徐汇区岳阳路150号(近永嘉路)"},{"poiid":"B2094757D06FA6FE4998","title":"南伶酒家","lon":"121.45245","lat":"31.20485","category":"74","category_name":"江苏菜","address":"徐汇区岳阳路168号(近永嘉路)"},{"poiid":"B2094654DB6AA7FB479E","title":"罗斯福顶级牛排馆","lon":"121.45432","lat":"31.20603","category":"94","category_name":"西餐厅","address":"徐汇区太原路160号太原别墅瑞金宾馆内(近永嘉路)"},{"poiid":"B2094753D76FAAFA449C","title":"上海滩国泰旗舰店","lon":"121.466011","lat":"31.216125","category":"249","category_name":"购物服务","address":"淮海中路868号"},{"poiid":"B209475CD564A7F84292","title":"上海滩新天地店","lon":"121.47463","lat":"31.22164","category":"119","category_name":"商场","address":"\"太仓路181弄新天地北里15号\r\n\""},{"poiid":"B209475CD564A7F8439E","title":"上海滩中信泰富店","lon":"121.45602","lat":"31.22851","category":"119","category_name":"商场","address":"\"南京西路1168号中信泰富广场，店铺号221.\r\n\""},{"poiid":"B2094655D265A2FA4098","title":"永嘉庭","lon":"121.45142","lat":"31.20608","category":"46","category_name":"楼宇","address":"永嘉路570"},{"poiid":"B2094654DA6DA6F94298","title":"大可堂普洱会所","lon":"121.45772","lat":"31.20758","category":"260","category_name":"其他","address":"徐汇区襄阳南路388弄25号(近永嘉路)"},{"poiid":"B2094757D068A7FE499C","title":"上海五洲国际大厦","lon":"121.454","lat":"31.2043","category":"46","category_name":"楼宇","address":"徐汇区肇嘉浜路807号"},{"poiid":"B2094750D16BA4FD449E","title":"板烧王","lon":"121.454582","lat":"31.20439","category":"247","category_name":"餐饮美食","address":"卢湾区徐家汇路618号日月光中心广场B2楼台湾美食馆BT20-23室(近瑞金二路)"},{"poiid":"B2094757D068A0F8499F","title":"印度小厨(永嘉店)","lon":"121.45119","lat":"31.20528","category":"102","category_name":"印度风味","address":"徐汇区永嘉路570号永嘉庭1号楼4楼(近岳阳路)"},{"poiid":"B2094655D36CA0F94999","title":"建国西路","lon":"121.45565","lat":"31.20408","category":"38","category_name":"公交车站","address":"建国西路354弄"},{"poiid":"B2094750D665A0FA409D","title":"水稻咖啡","lon":"121.456","lat":"31.208","category":"260","category_name":"其他","address":"徐汇区永嘉路394号(近太原路)"},{"poiid":"B2094757D069A7F5479F","title":"襄阳会馆","lon":"121.45852","lat":"31.20484","category":"76","category_name":"上海菜","address":"徐汇区建国西路296号(近襄阳南路)"},{"poiid":"B2094654DA6DA6FC459A","title":"坤阳国际商务广场","lon":"121.452","lat":"31.2047","category":"46","category_name":"楼宇","address":"卫清西路139_149号等"},{"poiid":"B2094654DB6BA5FA4799","title":"欧江大厦","lon":"121.453","lat":"31.2052","category":"46","category_name":"楼宇","address":"徐汇区肇嘉浜路768号"},{"poiid":"B2094654DA6DABFD4199","title":"伊泰利大厦","lon":"121.4552612","lat":"31.20184326","category":"46","category_name":"楼宇","address":"伊泰利大厦位于徐汇肇嘉浜路446弄"},{"poiid":"B2094757D069A6FB4192","title":"The Chalet","lon":"121.45457","lat":"31.20623","category":"500","category_name":"未知分类","address":"上海徐汇区永嘉路385弄(近太原路)  "},{"poiid":"B2094757D069A5F44799","title":"Lola Club","lon":"121.455173279","lat":"31.2044100305","category":"500","category_name":"未知分类","address":"上海永嘉路570号"},{"poiid":"B2094751DA6FA3FC469F","title":"捞王猪肚鸡","lon":"121.45716","lat":"31.20452","category":"86","category_name":"火锅店","address":"徐汇区肇嘉浜路268号2楼(近嘉善路地铁站2号出口)"},{"poiid":"B2094757D068A0F8469E","title":"龙头大厦","lon":"121.454","lat":"31.205","category":"46","category_name":"楼宇","address":"徐汇区肇嘉浜路736号(近高安路)"},{"poiid":"B2094750D165A2F54499","title":"韩国首尔SUM STUDIO","lon":"121.454948","lat":"31.203849","category":"248","category_name":"生活娱乐","address":"徐汇区建国西路379号(近岳阳路)"},{"poiid":"B2094654DA6DA7F4429A","title":"金钟大厦","lon":"121.455","lat":"31.2058","category":"46","category_name":"楼宇","address":"沈河北中街123号"},{"poiid":"B2094757D068A6FA4299","title":"巴黎时韵","lon":"121.45768","lat":"31.205799","category":"46","category_name":"楼宇","address":"巴黎时韵位于卢湾襄阳南路500号建国西路口"},{"poiid":"B2094750DA6AAAFC479F","title":"奈良本寿司","lon":"121.45543","lat":"31.20401","category":"95","category_name":"日本料理","address":"徐汇区永嘉路557号"},{"poiid":"B2094654DA6DA7F54099","title":"怡甸大厦","lon":"121.453118","lat":"31.204807","category":"46","category_name":"楼宇","address":"上海市静安区南京西路555号"},{"poiid":"B2094757D065A3FF4092","title":"Brownstone","lon":"121.451477","lat":"31.205856","category":"260","category_name":"其他","address":"徐汇区永嘉路570号永嘉庭311单元(近岳阳路)"},{"poiid":"B2094757D16AA2F54399","title":"瑞金宾馆太原别墅中餐厅","lon":"121.45543","lat":"31.20554","category":"76","category_name":"上海菜","address":"杨浦区靖宇南路16号(靖宇南路永吉路)"},{"poiid":"B2094757D465A4F8439B","title":"Salley Garden","lon":"121.452781","lat":"31.206169","category":"260","category_name":"其他","address":"徐汇区永嘉路480号(近岳阳路)"},{"poiid":"B2094655D36DA1F44792","title":"襄阳南路建国西路","lon":"121.45804","lat":"31.20557","category":"38","category_name":"公交车站","address":"上海襄阳南路建国西路"},{"poiid":"B2094654DB69A7FD439F","title":"秋萍茶宴馆","lon":"121.4576585804","lat":"31.205616427492","category":"75","category_name":"浙江菜","address":"徐汇区襄阳南路500号(近建国西路)"},{"poiid":"B2094757D06AA5F9419C","title":"公安部第三研究所","lon":"121.45197862","lat":"31.206925644","category":"500","category_name":"未知分类","address":"上海市徐汇区岳阳路76号"},{"poiid":"B2094757D068A5FC4399","title":"倾城宝贝儿童摄影","lon":"121.452685","lat":"31.206144","category":"500","category_name":"未知分类","address":"卢湾区瑞金二路24号甲(淮海中路口)"},{"poiid":"B2094757D16CAAF8489F","title":"中国科学院上海分院","lon":"121.45382308","lat":"31.203554409","category":"671","category_name":"高校中心点","address":"上海岳阳路319号"},{"poiid":"B2094757D06AA3FA489E","title":"小荧星艺校(尚街校区)","lon":"121.457245738","lat":"31.2069285447","category":"500","category_name":"未知分类","address":"上海卢湾区建国西路283号(近嘉善路)"},{"poiid":"B2094757D06BA6F8449B","title":"EF英孚教育青少儿英语(太原路中心)","lon":"121.45518","lat":"31.20556","category":"190","category_name":"培训机构","address":"上海徐汇区太原路167号(近永嘉路)"},{"poiid":"B2094750D664A3F54598","title":"鸿公馆","lon":"121.458","lat":"31.2034","category":"72","category_name":"广东菜","address":"徐汇区襄阳南路578号乙(近肇嘉浜路)"},{"poiid":"B2094654DA6DA4FB469C","title":"天平街道社区卫生服务中心","lon":"121.45476","lat":"31.20681","category":"162","category_name":"医院","address":"徐汇区太原路110号(近永嘉路)"},{"poiid":"B2094654DA6DA7F5479B","title":"锦都大厦","lon":"121.452","lat":"31.2059","category":"46","category_name":"楼宇","address":"闸北区江场西路38号(近共和新路)"},{"poiid":"B2094757D065A3F9489F","title":"地铁1号线 常熟路站","lon":"121.451627586","lat":"31.2051945414","category":"500","category_name":"未知分类","address":"上海常熟路"},{"poiid":"B2094654DA6DA4F5489C","title":"联业大厦","lon":"121.457","lat":"31.2063","category":"46","category_name":"楼宇","address":"联业大厦位于徐汇乌鲁木齐南路299号"},{"poiid":"B2094753DB6EA2F8429E","title":"上海瑞金宾馆太原别墅","lon":"121.455098","lat":"31.206012","category":"214","category_name":"四星级宾馆","address":"上海徐汇区太原路160号"},{"poiid":"B2094757D16CA6FE4499","title":"Venus Spring Massage","lon":"121.460971","lat":"31.207268","category":"500","category_name":"未知分类","address":"上海市,陕西南路550弄37号嘉善坊E栋(近绍兴路)"},{"poiid":"B2094655D36DA0F4409D","title":"永嘉路岳阳路","lon":"121.45166","lat":"31.20582","category":"38","category_name":"公交车站","address":""},{"poiid":"B2094750DB64A6F84193","title":"复旦大学眼耳喉鼻科医院","lon":"121.456497","lat":"31.207393","category":"162","category_name":"医院","address":null},{"poiid":"B2094750D76EA1F44392","title":"无名生煎","lon":"121.456","lat":"31.204","category":"68","category_name":"快餐厅","address":"徐汇区太原路236号(近建国西路)"},{"poiid":"B2094757D66FA7FE4499","title":"阿蒂米斯生活馆","lon":"121.45477573","lat":"31.205016763","category":"500","category_name":"未知分类","address":"上海市徐汇区永嘉路"},{"poiid":"B2094654DA6DA6F84892","title":"嘉善菜场","lon":"121.45581","lat":"31.20457","category":"117","category_name":"便民商店/便利店","address":"上海建国西路太原路"},{"poiid":"B2094757D16CA3FA499A","title":"INFERNO","lon":"121.453552","lat":"31.206577","category":"260","category_name":"其他","address":"徐汇区永嘉路480号弄内(近太原路)"},{"poiid":"B2094757D66DA0F44399","title":"太原路","lon":"121.45356958","lat":"31.206214961","category":"500","category_name":"未知分类","address":"上海市徐汇区衡山路"}]