[{"poiid":"B2094757D06BA5FD469C","title":"大宁剧院","lon":"121.4566021","lat":"31.283634698","category":"179","category_name":"音乐厅","address":"上海市平型关路1222号"},{"poiid":"B2094655D26AAAF4479C","title":"新南华(广中店)","lon":"121.45265","lat":"31.28075","category":"76","category_name":"上海菜","address":"闸北区共和新路2435-2437号(近广中路)"},{"poiid":"B2094655D26CA0FB4792","title":"大宁新天地","lon":"121.45312804662706","lat":"31.280039999999993","category":"116","category_name":"特色商业街","address":"共和新路2395-2445号"},{"poiid":"B2094757D16AA6FB4293","title":"和记小菜精菜坊(大宁店)","lon":"121.456698103","lat":"31.2831746888","category":"76","category_name":"上海菜","address":"闸北区灵石路217号海上文化中心6楼"},{"poiid":"B2094757D06FA3F5439E","title":"慧芝湖花园","lon":"121.459801","lat":"31.281513","category":"47","category_name":"住宅区","address":"上海市闸北区平型关路"},{"poiid":"B2094757D06FA1F84198","title":"宝华现代城","lon":"121.45346069","lat":"31.280292511","category":"47","category_name":"住宅区","address":"上海市闸北区广中路1001号"},{"poiid":"B2094654D56CA3FF439A","title":"上海大学(北门)","lon":"121.45778","lat":"31.27851","category":"656","category_name":"大门","address":"广中路788"},{"poiid":"B2094757D06FABFA419B","title":"海上文化中心","lon":"121.4574569","lat":"31.2833081","category":"260","category_name":"其他","address":"闸北区平型关路1222号(近灵石路)"},{"poiid":"B2094757D06FABFF4193","title":"中环南北高架","lon":"121.452547","lat":"31.285502","category":"260","category_name":"其他","address":"上海共和新路永和东路"},{"poiid":"B2094757D068A6F94192","title":"闸北网球馆足球中心","lon":"121.455741","lat":"31.278968","category":"220","category_name":"运动场所","address":"上海闸北区广延路417号"},{"poiid":"B2094757D068A0FA4893","title":"上海大学学生公寓","lon":"121.456564069","lat":"31.2800450283","category":"253","category_name":"校园生活","address":"上海闸北区广中路805号"},{"poiid":"B2094757D06FABF44199","title":"一兆韦德(平型关路店)","lon":"121.45887","lat":"31.27952","category":"221","category_name":"健身中心","address":"闸北区平型关路1087号(近广中路)"},{"poiid":"B2094757D06AA1FB4698","title":"慧芝湖花园三期嘉悦天地","lon":"121.45646442327882","lat":"31.283087486077513","category":"47","category_name":"住宅区","address":"上海市闸北区灵石路208号"},{"poiid":"B2094757D66BA1FE499D","title":"赤柱港式餐厅","lon":"121.45464","lat":"31.27986","category":"72","category_name":"广东菜","address":"闸北区广中路911号(近广延路)"},{"poiid":"B2094757D068A5FC469C","title":"来因何桌游咖啡馆","lon":"121.453126574","lat":"31.280346553","category":"260","category_name":"其他","address":"闸北区共和新路2395弄大宁新天地61号(近一号线马戏城站)"},{"poiid":"B2094654D56CA3FE469D","title":"泛欧现代大厦","lon":"121.459","lat":"31.2872","category":"46","category_name":"楼宇","address":"越秀区环市东路362-366号"},{"poiid":"B2094654D56CA3FD4299","title":"上海市大宁国际小学","lon":"121.46085","lat":"31.28373","category":"56","category_name":"小学","address":"闸北区北宝兴路900号(北宝兴路彭江路)"},{"poiid":"B2094757D065A1FF439F","title":"上海东方票务有限公司","lon":"121.45801984","lat":"31.282768626","category":"46","category_name":"楼宇","address":"上海平型关路1220号海上文化中心1号楼1层"},{"poiid":"B2094757D068A3FF4092","title":"国家电网上海市电力公司市北供电公司","lon":"121.4524465","lat":"31.2821028","category":"46","category_name":"楼宇","address":"上海共和新路2511号"},{"poiid":"B2094757D069A0FF419C","title":"文武大楼","lon":"121.455669","lat":"31.278095","category":"46","category_name":"楼宇","address":"上海市闸北区广延路383号(广中路)"},{"poiid":"B2094655D26BA1FC459E","title":"平型关路彭江路","lon":"121.45746","lat":"31.28336","category":"38","category_name":"公交车站","address":""},{"poiid":"B2094757D66FA7FE4098","title":"大宁派出所","lon":"121.4566881","lat":"31.284390714","category":"609","category_name":"警察局","address":"上海市闸北区彭江路200号1楼"},{"poiid":"B2094655D26BA1FC469E","title":"平型关路广中路","lon":"121.45822","lat":"31.28089","category":"38","category_name":"公交车站","address":""},{"poiid":"B2094757D164A4FB419C","title":"如家快捷酒店 上海马戏城店","lon":"121.4572359","lat":"31.2795308","category":"217","category_name":"旅馆招待所","address":"上海市闸北区广中路809号(近平型关路)"},{"poiid":"B2094654DB6AAAFE439B","title":"真锅咖啡馆","lon":"121.45269","lat":"31.28064","category":"65","category_name":"咖啡厅","address":"闸北区共和新路2431号(近一号线马戏城站)"},{"poiid":"B2094757D568A5FA4499","title":"大宁社区文化活动中心","lon":"121.457015","lat":"31.283647","category":"248","category_name":"生活娱乐","address":"中国上海市闸北区"},{"poiid":"B2094757D169A2FE419D","title":"大宁路街道","lon":"121.457069","lat":"31.284772","category":"500","category_name":"未知分类","address":"上海彭江路188号"},{"poiid":"B2094654D464A7F44399","title":"大宁公寓","lon":"121.454857","lat":"31.280257","category":"47","category_name":"住宅区","address":"上海市闸北区大宁路503-505弄"},{"poiid":"B2094757D16BA3F84199","title":"大宁路街道社区事务受理中心","lon":"121.4561237","lat":"31.284092708","category":"500","category_name":"未知分类","address":"上海彭江路188号"},{"poiid":"B2094757D065A5FA469D","title":"大宁路派出所","lon":"121.456844","lat":"31.284933","category":"609","category_name":"警察局","address":"上海闸北区彭江路200号"},{"poiid":"B2094757D168A7FA4393","title":"上海大学延长校区G3学生公寓1010寝","lon":"121.4569217","lat":"31.284462515","category":"500","category_name":"未知分类","address":"上海市闸北区广中路805号"},{"poiid":"B2094752D56AA7F44993","title":"caffe bane","lon":"121.456423","lat":"31.280424","category":"247","category_name":"餐饮美食","address":"广中路宝华现代城"},{"poiid":"B2094654D56CA3FD4298","title":"罗森(平型关路)","lon":"121.45816","lat":"31.28207","category":"117","category_name":"便民商店/便利店","address":"闸北区平型关路1105号"},{"poiid":"B2094655D265A4FA4292","title":"新梅共和城一期","lon":"121.45636","lat":"31.28651","category":"47","category_name":"住宅区","address":"上海市长宁区延安西路1235弄"},{"poiid":"B2094757D16EA6FF4698","title":"罗森便利(平型关路店)","lon":"121.45812","lat":"31.28246","category":"117","category_name":"便民商店/便利店","address":"上海闸北区平型关路1105号  "},{"poiid":"B2094655D26EA2F94292","title":"慧芝湖花园(北门)","lon":"121.45817","lat":"31.28172","category":"656","category_name":"大门","address":"平型关路1083弄"},{"poiid":"B2094757D169A7FB409E","title":"龙之梦影城","lon":"121.455240103","lat":"31.2802326273","category":"178","category_name":"电影院","address":"上海长宁路1018号龙之梦购物中心九楼"},{"poiid":"B2094750D664A4FF419F","title":"彭浦第一炸","lon":"121.452","lat":"31.2807","category":"68","category_name":"快餐厅","address":"闸北区共和新路3804号"},{"poiid":"B2094655D26CA0FB4799","title":"大宁路派出所(彭江路)","lon":"121.45689","lat":"31.28485","category":"248","category_name":"生活娱乐","address":"彭江路200"},{"poiid":"B2094655D265A6FB4898","title":"尚典阁","lon":"121.45489","lat":"31.27964","category":"75","category_name":"浙江菜","address":"闸北区广中路905号(近广延路)"},{"poiid":"B2094757D16EA3F94592","title":"国家电网上海市电力公司检修公司","lon":"121.4563731","lat":"31.281912662","category":"500","category_name":"未知分类","address":"上海共和新路2501号"},{"poiid":"B2094750D06CA2FB439E","title":"招商银行上海大宁支行","lon":"121.453895","lat":"31.28012","category":"500","category_name":"未知分类","address":"广中路957号"},{"poiid":"B2094753D26DA1FC4592","title":"Caffebene","lon":"121.456284","lat":"31.279649","category":"500","category_name":"未知分类","address":"上海市 广中路805号1幢103室(近上海大学)"},{"poiid":"B2094757D06AA4FA4798","title":"迪士尼英语(大宁中心)","lon":"121.45394383","lat":"31.280852678","category":"253","category_name":"校园生活","address":"闸北区广中路863-867号2楼"},{"poiid":"B2094757D16EA0FE4592","title":"彭江医院","lon":"121.461797103","lat":"31.284377714","category":"162","category_name":"医院","address":"上海市闸北区彭江路51号"},{"poiid":"B2094655D265A3FF4199","title":"全家","lon":"121.45307","lat":"31.27984","category":"117","category_name":"便民商店/便利店","address":"广中路999"},{"poiid":"B2094753D76CA6FA4192","title":"caffe bene","lon":"121.456352","lat":"31.279689","category":"500","category_name":"未知分类","address":"上海市 广中路店"},{"poiid":"B2094757D16FAAF94298","title":"共和新路广中路","lon":"121.45150995","lat":"31.2829993083","category":"500","category_name":"未知分类","address":"上海共和新路广中路"},{"poiid":"B2094654D56CA3FE469E","title":"雅冠小厨","lon":"121.45234","lat":"31.28157","category":"76","category_name":"上海菜","address":"闸北区共和新路2499号(近灵石路)"},{"poiid":"B2094655D36CA6FC499F","title":"共和新路灵石路","lon":"121.4517","lat":"31.28262","category":"38","category_name":"公交车站","address":""},{"poiid":"B2094757D06BA5FD469C","title":"大宁剧院","lon":"121.4566021","lat":"31.283634698","category":"179","category_name":"音乐厅","address":"上海市平型关路1222号"},{"poiid":"B2094655D26AAAF4479C","title":"新南华(广中店)","lon":"121.45265","lat":"31.28075","category":"76","category_name":"上海菜","address":"闸北区共和新路2435-2437号(近广中路)"},{"poiid":"B2094655D26CA0FB4792","title":"大宁新天地","lon":"121.45312804662706","lat":"31.280039999999993","category":"116","category_name":"特色商业街","address":"共和新路2395-2445号"},{"poiid":"B2094757D16AA6FB4293","title":"和记小菜精菜坊(大宁店)","lon":"121.456698103","lat":"31.2831746888","category":"76","category_name":"上海菜","address":"闸北区灵石路217号海上文化中心6楼"},{"poiid":"B2094757D06FA3F5439E","title":"慧芝湖花园","lon":"121.459801","lat":"31.281513","category":"47","category_name":"住宅区","address":"上海市闸北区平型关路"},{"poiid":"B2094757D06FA1F84198","title":"宝华现代城","lon":"121.45346069","lat":"31.280292511","category":"47","category_name":"住宅区","address":"上海市闸北区广中路1001号"},{"poiid":"B2094654D56CA3FF439A","title":"上海大学(北门)","lon":"121.45778","lat":"31.27851","category":"656","category_name":"大门","address":"广中路788"},{"poiid":"B2094757D06FABFA419B","title":"海上文化中心","lon":"121.4574569","lat":"31.2833081","category":"260","category_name":"其他","address":"闸北区平型关路1222号(近灵石路)"},{"poiid":"B2094757D06FABFF4193","title":"中环南北高架","lon":"121.452547","lat":"31.285502","category":"260","category_name":"其他","address":"上海共和新路永和东路"},{"poiid":"B2094757D068A6F94192","title":"闸北网球馆足球中心","lon":"121.455741","lat":"31.278968","category":"220","category_name":"运动场所","address":"上海闸北区广延路417号"},{"poiid":"B2094757D068A0FA4893","title":"上海大学学生公寓","lon":"121.456564069","lat":"31.2800450283","category":"253","category_name":"校园生活","address":"上海闸北区广中路805号"},{"poiid":"B2094757D06FABF44199","title":"一兆韦德(平型关路店)","lon":"121.45887","lat":"31.27952","category":"221","category_name":"健身中心","address":"闸北区平型关路1087号(近广中路)"},{"poiid":"B2094757D06AA1FB4698","title":"慧芝湖花园三期嘉悦天地","lon":"121.45646442327882","lat":"31.283087486077513","category":"47","category_name":"住宅区","address":"上海市闸北区灵石路208号"},{"poiid":"B2094757D66BA1FE499D","title":"赤柱港式餐厅","lon":"121.45464","lat":"31.27986","category":"72","category_name":"广东菜","address":"闸北区广中路911号(近广延路)"},{"poiid":"B2094757D068A5FC469C","title":"来因何桌游咖啡馆","lon":"121.453126574","lat":"31.280346553","category":"260","category_name":"其他","address":"闸北区共和新路2395弄大宁新天地61号(近一号线马戏城站)"},{"poiid":"B2094654D56CA3FE469D","title":"泛欧现代大厦","lon":"121.459","lat":"31.2872","category":"46","category_name":"楼宇","address":"越秀区环市东路362-366号"},{"poiid":"B2094654D56CA3FD4299","title":"上海市大宁国际小学","lon":"121.46085","lat":"31.28373","category":"56","category_name":"小学","address":"闸北区北宝兴路900号(北宝兴路彭江路)"},{"poiid":"B2094757D065A1FF439F","title":"上海东方票务有限公司","lon":"121.45801984","lat":"31.282768626","category":"46","category_name":"楼宇","address":"上海平型关路1220号海上文化中心1号楼1层"},{"poiid":"B2094757D068A3FF4092","title":"国家电网上海市电力公司市北供电公司","lon":"121.4524465","lat":"31.2821028","category":"46","category_name":"楼宇","address":"上海共和新路2511号"},{"poiid":"B2094757D069A0FF419C","title":"文武大楼","lon":"121.455669","lat":"31.278095","category":"46","category_name":"楼宇","address":"上海市闸北区广延路383号(广中路)"},{"poiid":"B2094655D26BA1FC459E","title":"平型关路彭江路","lon":"121.45746","lat":"31.28336","category":"38","category_name":"公交车站","address":""},{"poiid":"B2094757D66FA7FE4098","title":"大宁派出所","lon":"121.4566881","lat":"31.284390714","category":"609","category_name":"警察局","address":"上海市闸北区彭江路200号1楼"},{"poiid":"B2094655D26BA1FC469E","title":"平型关路广中路","lon":"121.45822","lat":"31.28089","category":"38","category_name":"公交车站","address":""},{"poiid":"B2094757D164A4FB419C","title":"如家快捷酒店 上海马戏城店","lon":"121.4572359","lat":"31.2795308","category":"217","category_name":"旅馆招待所","address":"上海市闸北区广中路809号(近平型关路)"},{"poiid":"B2094654DB6AAAFE439B","title":"真锅咖啡馆","lon":"121.45269","lat":"31.28064","category":"65","category_name":"咖啡厅","address":"闸北区共和新路2431号(近一号线马戏城站)"},{"poiid":"B2094757D568A5FA4499","title":"大宁社区文化活动中心","lon":"121.457015","lat":"31.283647","category":"248","category_name":"生活娱乐","address":"中国上海市闸北区"},{"poiid":"B2094757D169A2FE419D","title":"大宁路街道","lon":"121.457069","lat":"31.284772","category":"500","category_name":"未知分类","address":"上海彭江路188号"},{"poiid":"B2094654D464A7F44399","title":"大宁公寓","lon":"121.454857","lat":"31.280257","category":"47","category_name":"住宅区","address":"上海市闸北区大宁路503-505弄"},{"poiid":"B2094757D16BA3F84199","title":"大宁路街道社区事务受理中心","lon":"121.4561237","lat":"31.284092708","category":"500","category_name":"未知分类","address":"上海彭江路188号"},{"poiid":"B2094757D065A5FA469D","title":"大宁路派出所","lon":"121.456844","lat":"31.284933","category":"609","category_name":"警察局","address":"上海闸北区彭江路200号"},{"poiid":"B2094757D168A7FA4393","title":"上海大学延长校区G3学生公寓1010寝","lon":"121.4569217","lat":"31.284462515","category":"500","category_name":"未知分类","address":"上海市闸北区广中路805号"},{"poiid":"B2094752D56AA7F44993","title":"caffe bane","lon":"121.456423","lat":"31.280424","category":"247","category_name":"餐饮美食","address":"广中路宝华现代城"},{"poiid":"B2094654D56CA3FD4298","title":"罗森(平型关路)","lon":"121.45816","lat":"31.28207","category":"117","category_name":"便民商店/便利店","address":"闸北区平型关路1105号"},{"poiid":"B2094655D265A4FA4292","title":"新梅共和城一期","lon":"121.45636","lat":"31.28651","category":"47","category_name":"住宅区","address":"上海市长宁区延安西路1235弄"},{"poiid":"B2094757D16EA6FF4698","title":"罗森便利(平型关路店)","lon":"121.45812","lat":"31.28246","category":"117","category_name":"便民商店/便利店","address":"上海闸北区平型关路1105号  "},{"poiid":"B2094655D26EA2F94292","title":"慧芝湖花园(北门)","lon":"121.45817","lat":"31.28172","category":"656","category_name":"大门","address":"平型关路1083弄"},{"poiid":"B2094757D169A7FB409E","title":"龙之梦影城","lon":"121.455240103","lat":"31.2802326273","category":"178","category_name":"电影院","address":"上海长宁路1018号龙之梦购物中心九楼"},{"poiid":"B2094750D664A4FF419F","title":"彭浦第一炸","lon":"121.452","lat":"31.2807","category":"68","category_name":"快餐厅","address":"闸北区共和新路3804号"},{"poiid":"B2094655D26CA0FB4799","title":"大宁路派出所(彭江路)","lon":"121.45689","lat":"31.28485","category":"248","category_name":"生活娱乐","address":"彭江路200"},{"poiid":"B2094655D265A6FB4898","title":"尚典阁","lon":"121.45489","lat":"31.27964","category":"75","category_name":"浙江菜","address":"闸北区广中路905号(近广延路)"},{"poiid":"B2094757D16EA3F94592","title":"国家电网上海市电力公司检修公司","lon":"121.4563731","lat":"31.281912662","category":"500","category_name":"未知分类","address":"上海共和新路2501号"},{"poiid":"B2094750D06CA2FB439E","title":"招商银行上海大宁支行","lon":"121.453895","lat":"31.28012","category":"500","category_name":"未知分类","address":"广中路957号"},{"poiid":"B2094753D26DA1FC4592","title":"Caffebene","lon":"121.456284","lat":"31.279649","category":"500","category_name":"未知分类","address":"上海市 广中路805号1幢103室(近上海大学)"},{"poiid":"B2094757D06AA4FA4798","title":"迪士尼英语(大宁中心)","lon":"121.45394383","lat":"31.280852678","category":"253","category_name":"校园生活","address":"闸北区广中路863-867号2楼"},{"poiid":"B2094757D16EA0FE4592","title":"彭江医院","lon":"121.461797103","lat":"31.284377714","category":"162","category_name":"医院","address":"上海市闸北区彭江路51号"},{"poiid":"B2094655D265A3FF4199","title":"全家","lon":"121.45307","lat":"31.27984","category":"117","category_name":"便民商店/便利店","address":"广中路999"},{"poiid":"B2094753D76CA6FA4192","title":"caffe bene","lon":"121.456352","lat":"31.279689","category":"500","category_name":"未知分类","address":"上海市 广中路店"},{"poiid":"B2094757D16FAAF94298","title":"共和新路广中路","lon":"121.45150995","lat":"31.2829993083","category":"500","category_name":"未知分类","address":"上海共和新路广中路"},{"poiid":"B2094654D56CA3FE469E","title":"雅冠小厨","lon":"121.45234","lat":"31.28157","category":"76","category_name":"上海菜","address":"闸北区共和新路2499号(近灵石路)"},{"poiid":"B2094655D36CA6FC499F","title":"共和新路灵石路","lon":"121.4517","lat":"31.28262","category":"38","category_name":"公交车站","address":""},{"poiid":"B2094757D06BA5FD469C","title":"大宁剧院","lon":"121.4566021","lat":"31.283634698","category":"179","category_name":"音乐厅","address":"上海市平型关路1222号"},{"poiid":"B2094655D26AAAF4479C","title":"新南华(广中店)","lon":"121.45265","lat":"31.28075","category":"76","category_name":"上海菜","address":"闸北区共和新路2435-2437号(近广中路)"},{"poiid":"B2094655D26CA0FB4792","title":"大宁新天地","lon":"121.45312804662706","lat":"31.280039999999993","category":"116","category_name":"特色商业街","address":"共和新路2395-2445号"},{"poiid":"B2094757D16AA6FB4293","title":"和记小菜精菜坊(大宁店)","lon":"121.456698103","lat":"31.2831746888","category":"76","category_name":"上海菜","address":"闸北区灵石路217号海上文化中心6楼"},{"poiid":"B2094757D06FA3F5439E","title":"慧芝湖花园","lon":"121.459801","lat":"31.281513","category":"47","category_name":"住宅区","address":"上海市闸北区平型关路"},{"poiid":"B2094757D06FA1F84198","title":"宝华现代城","lon":"121.45346069","lat":"31.280292511","category":"47","category_name":"住宅区","address":"上海市闸北区广中路1001号"},{"poiid":"B2094654D56CA3FF439A","title":"上海大学(北门)","lon":"121.45778","lat":"31.27851","category":"656","category_name":"大门","address":"广中路788"},{"poiid":"B2094757D06FABFA419B","title":"海上文化中心","lon":"121.4574569","lat":"31.2833081","category":"260","category_name":"其他","address":"闸北区平型关路1222号(近灵石路)"},{"poiid":"B2094757D06FABFF4193","title":"中环南北高架","lon":"121.452547","lat":"31.285502","category":"260","category_name":"其他","address":"上海共和新路永和东路"},{"poiid":"B2094757D068A6F94192","title":"闸北网球馆足球中心","lon":"121.455741","lat":"31.278968","category":"220","category_name":"运动场所","address":"上海闸北区广延路417号"},{"poiid":"B2094757D068A0FA4893","title":"上海大学学生公寓","lon":"121.456564069","lat":"31.2800450283","category":"253","category_name":"校园生活","address":"上海闸北区广中路805号"},{"poiid":"B2094757D06FABF44199","title":"一兆韦德(平型关路店)","lon":"121.45887","lat":"31.27952","category":"221","category_name":"健身中心","address":"闸北区平型关路1087号(近广中路)"},{"poiid":"B2094757D06AA1FB4698","title":"慧芝湖花园三期嘉悦天地","lon":"121.45646442327882","lat":"31.283087486077513","category":"47","category_name":"住宅区","address":"上海市闸北区灵石路208号"},{"poiid":"B2094757D66BA1FE499D","title":"赤柱港式餐厅","lon":"121.45464","lat":"31.27986","category":"72","category_name":"广东菜","address":"闸北区广中路911号(近广延路)"},{"poiid":"B2094757D068A5FC469C","title":"来因何桌游咖啡馆","lon":"121.453126574","lat":"31.280346553","category":"260","category_name":"其他","address":"闸北区共和新路2395弄大宁新天地61号(近一号线马戏城站)"},{"poiid":"B2094654D56CA3FE469D","title":"泛欧现代大厦","lon":"121.459","lat":"31.2872","category":"46","category_name":"楼宇","address":"越秀区环市东路362-366号"},{"poiid":"B2094654D56CA3FD4299","title":"上海市大宁国际小学","lon":"121.46085","lat":"31.28373","category":"56","category_name":"小学","address":"闸北区北宝兴路900号(北宝兴路彭江路)"},{"poiid":"B2094757D065A1FF439F","title":"上海东方票务有限公司","lon":"121.45801984","lat":"31.282768626","category":"46","category_name":"楼宇","address":"上海平型关路1220号海上文化中心1号楼1层"},{"poiid":"B2094757D068A3FF4092","title":"国家电网上海市电力公司市北供电公司","lon":"121.4524465","lat":"31.2821028","category":"46","category_name":"楼宇","address":"上海共和新路2511号"},{"poiid":"B2094757D069A0FF419C","title":"文武大楼","lon":"121.455669","lat":"31.278095","category":"46","category_name":"楼宇","address":"上海市闸北区广延路383号(广中路)"},{"poiid":"B2094655D26BA1FC459E","title":"平型关路彭江路","lon":"121.45746","lat":"31.28336","category":"38","category_name":"公交车站","address":""},{"poiid":"B2094757D66FA7FE4098","title":"大宁派出所","lon":"121.4566881","lat":"31.284390714","category":"609","category_name":"警察局","address":"上海市闸北区彭江路200号1楼"},{"poiid":"B2094655D26BA1FC469E","title":"平型关路广中路","lon":"121.45822","lat":"31.28089","category":"38","category_name":"公交车站","address":""},{"poiid":"B2094757D164A4FB419C","title":"如家快捷酒店 上海马戏城店","lon":"121.4572359","lat":"31.2795308","category":"217","category_name":"旅馆招待所","address":"上海市闸北区广中路809号(近平型关路)"},{"poiid":"B2094654DB6AAAFE439B","title":"真锅咖啡馆","lon":"121.45269","lat":"31.28064","category":"65","category_name":"咖啡厅","address":"闸北区共和新路2431号(近一号线马戏城站)"},{"poiid":"B2094757D568A5FA4499","title":"大宁社区文化活动中心","lon":"121.457015","lat":"31.283647","category":"248","category_name":"生活娱乐","address":"中国上海市闸北区"},{"poiid":"B2094757D169A2FE419D","title":"大宁路街道","lon":"121.457069","lat":"31.284772","category":"500","category_name":"未知分类","address":"上海彭江路188号"},{"poiid":"B2094654D464A7F44399","title":"大宁公寓","lon":"121.454857","lat":"31.280257","category":"47","category_name":"住宅区","address":"上海市闸北区大宁路503-505弄"},{"poiid":"B2094757D16BA3F84199","title":"大宁路街道社区事务受理中心","lon":"121.4561237","lat":"31.284092708","category":"500","category_name":"未知分类","address":"上海彭江路188号"},{"poiid":"B2094757D065A5FA469D","title":"大宁路派出所","lon":"121.456844","lat":"31.284933","category":"609","category_name":"警察局","address":"上海闸北区彭江路200号"},{"poiid":"B2094757D168A7FA4393","title":"上海大学延长校区G3学生公寓1010寝","lon":"121.4569217","lat":"31.284462515","category":"500","category_name":"未知分类","address":"上海市闸北区广中路805号"},{"poiid":"B2094752D56AA7F44993","title":"caffe bane","lon":"121.456423","lat":"31.280424","category":"247","category_name":"餐饮美食","address":"广中路宝华现代城"},{"poiid":"B2094654D56CA3FD4298","title":"罗森(平型关路)","lon":"121.45816","lat":"31.28207","category":"117","category_name":"便民商店/便利店","address":"闸北区平型关路1105号"},{"poiid":"B2094655D265A4FA4292","title":"新梅共和城一期","lon":"121.45636","lat":"31.28651","category":"47","category_name":"住宅区","address":"上海市长宁区延安西路1235弄"},{"poiid":"B2094757D16EA6FF4698","title":"罗森便利(平型关路店)","lon":"121.45812","lat":"31.28246","category":"117","category_name":"便民商店/便利店","address":"上海闸北区平型关路1105号  "},{"poiid":"B2094655D26EA2F94292","title":"慧芝湖花园(北门)","lon":"121.45817","lat":"31.28172","category":"656","category_name":"大门","address":"平型关路1083弄"},{"poiid":"B2094757D169A7FB409E","title":"龙之梦影城","lon":"121.455240103","lat":"31.2802326273","category":"178","category_name":"电影院","address":"上海长宁路1018号龙之梦购物中心九楼"},{"poiid":"B2094750D664A4FF419F","title":"彭浦第一炸","lon":"121.452","lat":"31.2807","category":"68","category_name":"快餐厅","address":"闸北区共和新路3804号"},{"poiid":"B2094655D26CA0FB4799","title":"大宁路派出所(彭江路)","lon":"121.45689","lat":"31.28485","category":"248","category_name":"生活娱乐","address":"彭江路200"},{"poiid":"B2094655D265A6FB4898","title":"尚典阁","lon":"121.45489","lat":"31.27964","category":"75","category_name":"浙江菜","address":"闸北区广中路905号(近广延路)"},{"poiid":"B2094757D16EA3F94592","title":"国家电网上海市电力公司检修公司","lon":"121.4563731","lat":"31.281912662","category":"500","category_name":"未知分类","address":"上海共和新路2501号"},{"poiid":"B2094750D06CA2FB439E","title":"招商银行上海大宁支行","lon":"121.453895","lat":"31.28012","category":"500","category_name":"未知分类","address":"广中路957号"},{"poiid":"B2094753D26DA1FC4592","title":"Caffebene","lon":"121.456284","lat":"31.279649","category":"500","category_name":"未知分类","address":"上海市 广中路805号1幢103室(近上海大学)"},{"poiid":"B2094757D06AA4FA4798","title":"迪士尼英语(大宁中心)","lon":"121.45394383","lat":"31.280852678","category":"253","category_name":"校园生活","address":"闸北区广中路863-867号2楼"},{"poiid":"B2094757D16EA0FE4592","title":"彭江医院","lon":"121.461797103","lat":"31.284377714","category":"162","category_name":"医院","address":"上海市闸北区彭江路51号"},{"poiid":"B2094655D265A3FF4199","title":"全家","lon":"121.45307","lat":"31.27984","category":"117","category_name":"便民商店/便利店","address":"广中路999"},{"poiid":"B2094753D76CA6FA4192","title":"caffe bene","lon":"121.456352","lat":"31.279689","category":"500","category_name":"未知分类","address":"上海市 广中路店"},{"poiid":"B2094757D16FAAF94298","title":"共和新路广中路","lon":"121.45150995","lat":"31.2829993083","category":"500","category_name":"未知分类","address":"上海共和新路广中路"},{"poiid":"B2094654D56CA3FE469E","title":"雅冠小厨","lon":"121.45234","lat":"31.28157","category":"76","category_name":"上海菜","address":"闸北区共和新路2499号(近灵石路)"},{"poiid":"B2094655D36CA6FC499F","title":"共和新路灵石路","lon":"121.4517","lat":"31.28262","category":"38","category_name":"公交车站","address":""},{"poiid":"B2094757D06BA5FD469C","title":"大宁剧院","lon":"121.4566021","lat":"31.283634698","category":"179","category_name":"音乐厅","address":"上海市平型关路1222号"},{"poiid":"B2094655D26AAAF4479C","title":"新南华(广中店)","lon":"121.45265","lat":"31.28075","category":"76","category_name":"上海菜","address":"闸北区共和新路2435-2437号(近广中路)"},{"poiid":"B2094655D26CA0FB4792","title":"大宁新天地","lon":"121.45312804662706","lat":"31.280039999999993","category":"116","category_name":"特色商业街","address":"共和新路2395-2445号"},{"poiid":"B2094757D16AA6FB4293","title":"和记小菜精菜坊(大宁店)","lon":"121.456698103","lat":"31.2831746888","category":"76","category_name":"上海菜","address":"闸北区灵石路217号海上文化中心6楼"},{"poiid":"B2094757D06FA3F5439E","title":"慧芝湖花园","lon":"121.459801","lat":"31.281513","category":"47","category_name":"住宅区","address":"上海市闸北区平型关路"},{"poiid":"B2094757D06FA1F84198","title":"宝华现代城","lon":"121.45346069","lat":"31.280292511","category":"47","category_name":"住宅区","address":"上海市闸北区广中路1001号"},{"poiid":"B2094654D56CA3FF439A","title":"上海大学(北门)","lon":"121.45778","lat":"31.27851","category":"656","category_name":"大门","address":"广中路788"},{"poiid":"B2094757D06FABFA419B","title":"海上文化中心","lon":"121.4574569","lat":"31.2833081","category":"260","category_name":"其他","address":"闸北区平型关路1222号(近灵石路)"},{"poiid":"B2094757D06FABFF4193","title":"中环南北高架","lon":"121.452547","lat":"31.285502","category":"260","category_name":"其他","address":"上海共和新路永和东路"},{"poiid":"B2094757D068A6F94192","title":"闸北网球馆足球中心","lon":"121.455741","lat":"31.278968","category":"220","category_name":"运动场所","address":"上海闸北区广延路417号"},{"poiid":"B2094757D068A0FA4893","title":"上海大学学生公寓","lon":"121.456564069","lat":"31.2800450283","category":"253","category_name":"校园生活","address":"上海闸北区广中路805号"},{"poiid":"B2094757D06FABF44199","title":"一兆韦德(平型关路店)","lon":"121.45887","lat":"31.27952","category":"221","category_name":"健身中心","address":"闸北区平型关路1087号(近广中路)"},{"poiid":"B2094757D06AA1FB4698","title":"慧芝湖花园三期嘉悦天地","lon":"121.45646442327882","lat":"31.283087486077513","category":"47","category_name":"住宅区","address":"上海市闸北区灵石路208号"},{"poiid":"B2094757D66BA1FE499D","title":"赤柱港式餐厅","lon":"121.45464","lat":"31.27986","category":"72","category_name":"广东菜","address":"闸北区广中路911号(近广延路)"},{"poiid":"B2094757D068A5FC469C","title":"来因何桌游咖啡馆","lon":"121.453126574","lat":"31.280346553","category":"260","category_name":"其他","address":"闸北区共和新路2395弄大宁新天地61号(近一号线马戏城站)"},{"poiid":"B2094654D56CA3FE469D","title":"泛欧现代大厦","lon":"121.459","lat":"31.2872","category":"46","category_name":"楼宇","address":"越秀区环市东路362-366号"},{"poiid":"B2094654D56CA3FD4299","title":"上海市大宁国际小学","lon":"121.46085","lat":"31.28373","category":"56","category_name":"小学","address":"闸北区北宝兴路900号(北宝兴路彭江路)"},{"poiid":"B2094757D065A1FF439F","title":"上海东方票务有限公司","lon":"121.45801984","lat":"31.282768626","category":"46","category_name":"楼宇","address":"上海平型关路1220号海上文化中心1号楼1层"},{"poiid":"B2094757D068A3FF4092","title":"国家电网上海市电力公司市北供电公司","lon":"121.4524465","lat":"31.2821028","category":"46","category_name":"楼宇","address":"上海共和新路2511号"},{"poiid":"B2094757D069A0FF419C","title":"文武大楼","lon":"121.455669","lat":"31.278095","category":"46","category_name":"楼宇","address":"上海市闸北区广延路383号(广中路)"},{"poiid":"B2094655D26BA1FC459E","title":"平型关路彭江路","lon":"121.45746","lat":"31.28336","category":"38","category_name":"公交车站","address":""},{"poiid":"B2094757D66FA7FE4098","title":"大宁派出所","lon":"121.4566881","lat":"31.284390714","category":"609","category_name":"警察局","address":"上海市闸北区彭江路200号1楼"},{"poiid":"B2094655D26BA1FC469E","title":"平型关路广中路","lon":"121.45822","lat":"31.28089","category":"38","category_name":"公交车站","address":""},{"poiid":"B2094757D164A4FB419C","title":"如家快捷酒店 上海马戏城店","lon":"121.4572359","lat":"31.2795308","category":"217","category_name":"旅馆招待所","address":"上海市闸北区广中路809号(近平型关路)"},{"poiid":"B2094654DB6AAAFE439B","title":"真锅咖啡馆","lon":"121.45269","lat":"31.28064","category":"65","category_name":"咖啡厅","address":"闸北区共和新路2431号(近一号线马戏城站)"},{"poiid":"B2094757D568A5FA4499","title":"大宁社区文化活动中心","lon":"121.457015","lat":"31.283647","category":"248","category_name":"生活娱乐","address":"中国上海市闸北区"},{"poiid":"B2094757D169A2FE419D","title":"大宁路街道","lon":"121.457069","lat":"31.284772","category":"500","category_name":"未知分类","address":"上海彭江路188号"},{"poiid":"B2094654D464A7F44399","title":"大宁公寓","lon":"121.454857","lat":"31.280257","category":"47","category_name":"住宅区","address":"上海市闸北区大宁路503-505弄"},{"poiid":"B2094757D16BA3F84199","title":"大宁路街道社区事务受理中心","lon":"121.4561237","lat":"31.284092708","category":"500","category_name":"未知分类","address":"上海彭江路188号"},{"poiid":"B2094757D065A5FA469D","title":"大宁路派出所","lon":"121.456844","lat":"31.284933","category":"609","category_name":"警察局","address":"上海闸北区彭江路200号"},{"poiid":"B2094757D168A7FA4393","title":"上海大学延长校区G3学生公寓1010寝","lon":"121.4569217","lat":"31.284462515","category":"500","category_name":"未知分类","address":"上海市闸北区广中路805号"},{"poiid":"B2094752D56AA7F44993","title":"caffe bane","lon":"121.456423","lat":"31.280424","category":"247","category_name":"餐饮美食","address":"广中路宝华现代城"},{"poiid":"B2094654D56CA3FD4298","title":"罗森(平型关路)","lon":"121.45816","lat":"31.28207","category":"117","category_name":"便民商店/便利店","address":"闸北区平型关路1105号"},{"poiid":"B2094655D265A4FA4292","title":"新梅共和城一期","lon":"121.45636","lat":"31.28651","category":"47","category_name":"住宅区","address":"上海市长宁区延安西路1235弄"},{"poiid":"B2094757D16EA6FF4698","title":"罗森便利(平型关路店)","lon":"121.45812","lat":"31.28246","category":"117","category_name":"便民商店/便利店","address":"上海闸北区平型关路1105号  "},{"poiid":"B2094655D26EA2F94292","title":"慧芝湖花园(北门)","lon":"121.45817","lat":"31.28172","category":"656","category_name":"大门","address":"平型关路1083弄"},{"poiid":"B2094757D169A7FB409E","title":"龙之梦影城","lon":"121.455240103","lat":"31.2802326273","category":"178","category_name":"电影院","address":"上海长宁路1018号龙之梦购物中心九楼"},{"poiid":"B2094750D664A4FF419F","title":"彭浦第一炸","lon":"121.452","lat":"31.2807","category":"68","category_name":"快餐厅","address":"闸北区共和新路3804号"},{"poiid":"B2094655D26CA0FB4799","title":"大宁路派出所(彭江路)","lon":"121.45689","lat":"31.28485","category":"248","category_name":"生活娱乐","address":"彭江路200"},{"poiid":"B2094655D265A6FB4898","title":"尚典阁","lon":"121.45489","lat":"31.27964","category":"75","category_name":"浙江菜","address":"闸北区广中路905号(近广延路)"},{"poiid":"B2094757D16EA3F94592","title":"国家电网上海市电力公司检修公司","lon":"121.4563731","lat":"31.281912662","category":"500","category_name":"未知分类","address":"上海共和新路2501号"},{"poiid":"B2094750D06CA2FB439E","title":"招商银行上海大宁支行","lon":"121.453895","lat":"31.28012","category":"500","category_name":"未知分类","address":"广中路957号"},{"poiid":"B2094753D26DA1FC4592","title":"Caffebene","lon":"121.456284","lat":"31.279649","category":"500","category_name":"未知分类","address":"上海市 广中路805号1幢103室(近上海大学)"},{"poiid":"B2094757D06AA4FA4798","title":"迪士尼英语(大宁中心)","lon":"121.45394383","lat":"31.280852678","category":"253","category_name":"校园生活","address":"闸北区广中路863-867号2楼"},{"poiid":"B2094757D16EA0FE4592","title":"彭江医院","lon":"121.461797103","lat":"31.284377714","category":"162","category_name":"医院","address":"上海市闸北区彭江路51号"},{"poiid":"B2094655D265A3FF4199","title":"全家","lon":"121.45307","lat":"31.27984","category":"117","category_name":"便民商店/便利店","address":"广中路999"},{"poiid":"B2094753D76CA6FA4192","title":"caffe bene","lon":"121.456352","lat":"31.279689","category":"500","category_name":"未知分类","address":"上海市 广中路店"},{"poiid":"B2094757D16FAAF94298","title":"共和新路广中路","lon":"121.45150995","lat":"31.2829993083","category":"500","category_name":"未知分类","address":"上海共和新路广中路"},{"poiid":"B2094654D56CA3FE469E","title":"雅冠小厨","lon":"121.45234","lat":"31.28157","category":"76","category_name":"上海菜","address":"闸北区共和新路2499号(近灵石路)"},{"poiid":"B2094655D36CA6FC499F","title":"共和新路灵石路","lon":"121.4517","lat":"31.28262","category":"38","category_name":"公交车站","address":""}]