[{"poiid":"B2094757D068A1FD439D","title":"夏阳湖畔","lon":"121.13520813","lat":"31.150871276","category":"47","category_name":"住宅区","address":"上海青浦区"},{"poiid":"B2094757D068A3F9439E","title":"自由港量贩式KTV(青浦店)","lon":"121.12195","lat":"31.14887","category":"170","category_name":"KTV","address":"青浦区公园路258号(浦仓路口)"},{"poiid":"B2094757D168A7FF4192","title":"青浦党校","lon":"121.12828703","lat":"31.156762895","category":"253","category_name":"校园生活","address":"上海华科路"},{"poiid":"B2094757D664A1F84893","title":"海港一号","lon":"121.132756054","lat":"31.146040793","category":"76","category_name":"上海菜","address":"青浦区华青南路177弄58号(近青湖路)"},{"poiid":"B2094751D465A2FE479D","title":"末可甜品小屋","lon":"121.131406","lat":"31.156118","category":"247","category_name":"餐饮美食","address":"青浦区公园东路1688弄23号(近中山医院)"},{"poiid":"B2094757D06BABFF4693","title":"青浦区政府","lon":"121.12415141","lat":"31.15036197","category":"500","category_name":"未知分类","address":"上海公园路100号"},{"poiid":"B2094654DA6BA4FF4993","title":"上海工商信息学校","lon":"121.13098","lat":"31.15174","category":"55","category_name":"中学","address":"青浦区公园东路2025号(近青浦区电视台)"},{"poiid":"B2094655D36CA5FF4392","title":"城中东路保安路","lon":"121.12422","lat":"31.14644","category":"38","category_name":"公交车站","address":""},{"poiid":"B2094757D664A3F54799","title":"七欣天迷宗蟹 青浦店","lon":"121.119998","lat":"31.153206","category":"86","category_name":"火锅店","address":"青浦区沙埭浜路35-39号(近体育场路)"},{"poiid":"B2094757D06AA1F5419F","title":"榕港海鲜大酒楼(青浦店)","lon":"121.12135","lat":"31.15832","category":"88","category_name":"海鲜酒楼","address":"青浦区浦仓路888号(近盈港路)"},{"poiid":"B2094654DA6BA4FB449E","title":"公园大观吉富绅花园","lon":"121.13375","lat":"31.15561","category":"47","category_name":"住宅区","address":"上海市青浦区公园东路1688号"},{"poiid":"B2094757D06BA4FA499D","title":"青浦区行政服务中心","lon":"121.12342184","lat":"31.152591323","category":"500","category_name":"未知分类","address":"上海近郊青浦区外青松公路6189号"},{"poiid":"B2094750D568A0F94392","title":"香港纯Kparyt","lon":"121.126731","lat":"31.146087","category":"170","category_name":"KTV","address":"青浦区青湖路晨兴国际"},{"poiid":"B2094655D36DA7F8499B","title":"中山医院青浦分院","lon":"121.13481","lat":"31.15335","category":"38","category_name":"公交车站","address":""},{"poiid":"B2094757D068A3F8439C","title":"85度C 青浦店","lon":"121.12089","lat":"31.14898","category":"112","category_name":"糕饼店","address":"青浦区公园路300号农工商超市旁(浦仓路公园路)"},{"poiid":"B2094757D16CA0FC479C","title":"龙满楼","lon":"121.125225","lat":"31.1558858","category":"76","category_name":"上海菜","address":"青浦区外青松公路6048弄16号(近界泾港路)"},{"poiid":"B2094757D06BA4FA489B","title":"迪欧咖啡(青浦店)","lon":"121.12578","lat":"31.14938","category":"65","category_name":"咖啡厅","address":"青浦区公园路99号(公园路外青松公路)"},{"poiid":"B2094655D36CA7F4469E","title":"桂花园青浦","lon":"121.13511898718","lat":"31.151869426536","category":"38","category_name":"公交车站","address":"沪青平公路4555弄"},{"poiid":"B2094757D16EA3FF4299","title":"青浦区博物馆","lon":"121.133225135","lat":"31.1536129838","category":"179","category_name":"音乐厅","address":"青浦区青浦镇华青南路1000号"},{"poiid":"B2094757D06AA6FD489E","title":"新青浦花苑","lon":"121.13","lat":"31.1618","category":"500","category_name":"未知分类","address":"上海外青松公路6048弄"},{"poiid":"B2094654DA6BA6FC469C","title":"农工商超市NO.50","lon":"121.12065","lat":"31.14896","category":"118","category_name":"超级市场","address":"青浦镇"},{"poiid":"B2094654DA6BA1F44493","title":"上海市电力公司青浦供电分公司","lon":"121.12709","lat":"31.15271","category":"263","category_name":"公司","address":"外青松公路6155号"},{"poiid":"B2094757D66EA5F94999","title":"咔浓咖啡","lon":"121.119855035","lat":"31.1505348737","category":"65","category_name":"咖啡厅","address":"青浦区欧洲街74弄3号"},{"poiid":"B2094654DA6BABFA409D","title":"梦丹苑","lon":"121.13171","lat":"31.146254","category":"47","category_name":"住宅区","address":"青湖路4625弄"},{"poiid":"B2094757D169A3FB4693","title":"宋记香辣蟹 浦仓路店","lon":"121.12133","lat":"31.1518","category":"71","category_name":"四川菜","address":"青浦区浦仓路528号(近青浦体育场)"},{"poiid":"B2094757D16EAAF94992","title":"鼎萃食坊(桥梓湾店)","lon":"121.12837","lat":"31.1509","category":"247","category_name":"餐饮美食","address":"青浦区公园路666弄11号桥梓湾购物中心广场外圈(聚星街公园路)"},{"poiid":"B2094757D16CA0FB499B","title":"世田造型","lon":"121.120825","lat":"31.150514","category":"148","category_name":"美容美发店","address":"上海浦仓路"},{"poiid":"B2094757D16FA2F94693","title":"欧洲街","lon":"121.125363","lat":"31.150549","category":"500","category_name":"未知分类","address":"上海青浦区公园路"},{"poiid":"B2094654DA6BABFB409A","title":"新城逸境园","lon":"121.13385","lat":"31.157528","category":"47","category_name":"住宅区","address":"上海市青浦区华科路路255弄"},{"poiid":"B2094757D169AAF8489C","title":"青浦区社保中心","lon":"121.122893","lat":"31.149602","category":"500","category_name":"未知分类","address":"上海公园路200号"},{"poiid":"B2094654DA6BA0F84698","title":"佳佳宾馆","lon":"121.12803","lat":"31.15657","category":"250","category_name":"公园户外","address":"上海市青浦区华科路109号"},{"poiid":"B2094654DA6BA6FD419B","title":"上海市青浦区科技文化活动中心","lon":"121.12564","lat":"31.15055","category":"248","category_name":"生活娱乐","address":"公园路78-80"},{"poiid":"B2094654DA6BA0F8459D","title":"上海华源复合新材料有限公司行政办公楼","lon":"121.12593","lat":"31.15479","category":"46","category_name":"楼宇","address":"外青松公路6085"},{"poiid":"B2094654DA6BA1F4459B","title":"上海市青浦区行政学院(华科路)","lon":"121.12869","lat":"31.1562","category":"52","category_name":"高等院校","address":"青浦区华科路158号"},{"poiid":"B2094654DA6BA5FE409C","title":"舜浦大厦","lon":"121.12488","lat":"31.14919","category":"46","category_name":"楼宇","address":"上海青浦区公园路99号"},{"poiid":"B2094654DA6BA5FF489A","title":"青浦大厦","lon":"121.124","lat":"31.1538","category":"46","category_name":"楼宇","address":"公园东路1818号"},{"poiid":"B2094654DA6BA5FE449C","title":"友谊酒家","lon":"121.12075433399","lat":"31.149022380998","category":"76","category_name":"上海菜","address":"青浦区公园路197号(近外青松公路)"},{"poiid":"B2094655D36DA0FE449D","title":"信息学院","lon":"121.13054","lat":"31.15208","category":"38","category_name":"公交车站","address":""},{"poiid":"B2094654DB69A5F9489D","title":"真锅咖啡(青浦夏阳湖店)","lon":"121.1351","lat":"31.15087","category":"65","category_name":"咖啡厅","address":"青浦区华青路767号二楼(青浦博物馆对面)"},{"poiid":"B2094750DA65A6F4409B","title":"朱家角镇","lon":"121.121879","lat":"31.151987","category":"500","category_name":"未知分类","address":null},{"poiid":"B2094655D268A4FD469D","title":"大豪公寓(南门)","lon":"121.12429","lat":"31.15223","category":"47","category_name":"住宅区","address":""},{"poiid":"B2094753D268A0FA4999","title":"上井精致创作料理","lon":"121.130565","lat":"31.146973","category":"247","category_name":"餐饮美食","address":"上海市 运杰城市花园"},{"poiid":"B2094655D36CA7FC499A","title":"华科路华青路","lon":"121.13188","lat":"31.15698","category":"38","category_name":"公交车站","address":""},{"poiid":"B2094757D464A7FF4792","title":"华青乡下菜","lon":"121.13297","lat":"31.15616","category":"76","category_name":"上海菜","address":"青浦区华青北路3号(近青浦电视台)"},{"poiid":"B2094654DA6BA6FD4092","title":"中国农业银行上海市青浦支行","lon":"121.12611","lat":"31.15078","category":"150","category_name":"银行","address":"青浦镇"},{"poiid":"B2094654DA6BA7FB4798","title":"蔡师傅面馆","lon":"121.12157","lat":"31.15144","category":"87","category_name":"特色／地方风味餐厅","address":"青浦区体育场路(近浦仓路)"},{"poiid":"B2094654DA6BA4FF489F","title":"供电局调节调度大楼","lon":"121.13227","lat":"31.15302","category":"46","category_name":"楼宇","address":""},{"poiid":"B2094654DA6BA6F8469A","title":"好德N0.132","lon":"121.12413","lat":"31.15223","category":"117","category_name":"便民商店/便利店","address":"体育场路90"},{"poiid":"B2094654DA6BA0FF4893","title":"蓬莱山庄","lon":"121.136","lat":"31.1504","category":"47","category_name":"住宅区","address":"青湖路666弄"},{"poiid":"B2094757D16EA5FA479D","title":"界泾港三期","lon":"121.121164035","lat":"31.1540609425","category":"47","category_name":"住宅区","address":"上海青浦区浦仓路"},{"poiid":"B2094757D068A1FD439D","title":"夏阳湖畔","lon":"121.13520813","lat":"31.150871276","category":"47","category_name":"住宅区","address":"上海青浦区"},{"poiid":"B2094757D068A3F9439E","title":"自由港量贩式KTV(青浦店)","lon":"121.12195","lat":"31.14887","category":"170","category_name":"KTV","address":"青浦区公园路258号(浦仓路口)"},{"poiid":"B2094757D168A7FF4192","title":"青浦党校","lon":"121.12828703","lat":"31.156762895","category":"253","category_name":"校园生活","address":"上海华科路"},{"poiid":"B2094757D664A1F84893","title":"海港一号","lon":"121.132756054","lat":"31.146040793","category":"76","category_name":"上海菜","address":"青浦区华青南路177弄58号(近青湖路)"},{"poiid":"B2094751D465A2FE479D","title":"末可甜品小屋","lon":"121.131406","lat":"31.156118","category":"247","category_name":"餐饮美食","address":"青浦区公园东路1688弄23号(近中山医院)"},{"poiid":"B2094757D06BABFF4693","title":"青浦区政府","lon":"121.12415141","lat":"31.15036197","category":"500","category_name":"未知分类","address":"上海公园路100号"},{"poiid":"B2094654DA6BA4FF4993","title":"上海工商信息学校","lon":"121.13098","lat":"31.15174","category":"55","category_name":"中学","address":"青浦区公园东路2025号(近青浦区电视台)"},{"poiid":"B2094655D36CA5FF4392","title":"城中东路保安路","lon":"121.12422","lat":"31.14644","category":"38","category_name":"公交车站","address":""},{"poiid":"B2094757D664A3F54799","title":"七欣天迷宗蟹 青浦店","lon":"121.119998","lat":"31.153206","category":"86","category_name":"火锅店","address":"青浦区沙埭浜路35-39号(近体育场路)"},{"poiid":"B2094757D06AA1F5419F","title":"榕港海鲜大酒楼(青浦店)","lon":"121.12135","lat":"31.15832","category":"88","category_name":"海鲜酒楼","address":"青浦区浦仓路888号(近盈港路)"},{"poiid":"B2094654DA6BA4FB449E","title":"公园大观吉富绅花园","lon":"121.13375","lat":"31.15561","category":"47","category_name":"住宅区","address":"上海市青浦区公园东路1688号"},{"poiid":"B2094757D06BA4FA499D","title":"青浦区行政服务中心","lon":"121.12342184","lat":"31.152591323","category":"500","category_name":"未知分类","address":"上海近郊青浦区外青松公路6189号"},{"poiid":"B2094750D568A0F94392","title":"香港纯Kparyt","lon":"121.126731","lat":"31.146087","category":"170","category_name":"KTV","address":"青浦区青湖路晨兴国际"},{"poiid":"B2094655D36DA7F8499B","title":"中山医院青浦分院","lon":"121.13481","lat":"31.15335","category":"38","category_name":"公交车站","address":""},{"poiid":"B2094757D068A3F8439C","title":"85度C 青浦店","lon":"121.12089","lat":"31.14898","category":"112","category_name":"糕饼店","address":"青浦区公园路300号农工商超市旁(浦仓路公园路)"},{"poiid":"B2094757D16CA0FC479C","title":"龙满楼","lon":"121.125225","lat":"31.1558858","category":"76","category_name":"上海菜","address":"青浦区外青松公路6048弄16号(近界泾港路)"},{"poiid":"B2094757D06BA4FA489B","title":"迪欧咖啡(青浦店)","lon":"121.12578","lat":"31.14938","category":"65","category_name":"咖啡厅","address":"青浦区公园路99号(公园路外青松公路)"},{"poiid":"B2094655D36CA7F4469E","title":"桂花园青浦","lon":"121.13511898718","lat":"31.151869426536","category":"38","category_name":"公交车站","address":"沪青平公路4555弄"},{"poiid":"B2094757D16EA3FF4299","title":"青浦区博物馆","lon":"121.133225135","lat":"31.1536129838","category":"179","category_name":"音乐厅","address":"青浦区青浦镇华青南路1000号"},{"poiid":"B2094757D06AA6FD489E","title":"新青浦花苑","lon":"121.13","lat":"31.1618","category":"500","category_name":"未知分类","address":"上海外青松公路6048弄"},{"poiid":"B2094654DA6BA6FC469C","title":"农工商超市NO.50","lon":"121.12065","lat":"31.14896","category":"118","category_name":"超级市场","address":"青浦镇"},{"poiid":"B2094654DA6BA1F44493","title":"上海市电力公司青浦供电分公司","lon":"121.12709","lat":"31.15271","category":"263","category_name":"公司","address":"外青松公路6155号"},{"poiid":"B2094757D66EA5F94999","title":"咔浓咖啡","lon":"121.119855035","lat":"31.1505348737","category":"65","category_name":"咖啡厅","address":"青浦区欧洲街74弄3号"},{"poiid":"B2094654DA6BABFA409D","title":"梦丹苑","lon":"121.13171","lat":"31.146254","category":"47","category_name":"住宅区","address":"青湖路4625弄"},{"poiid":"B2094757D169A3FB4693","title":"宋记香辣蟹 浦仓路店","lon":"121.12133","lat":"31.1518","category":"71","category_name":"四川菜","address":"青浦区浦仓路528号(近青浦体育场)"},{"poiid":"B2094757D16EAAF94992","title":"鼎萃食坊(桥梓湾店)","lon":"121.12837","lat":"31.1509","category":"247","category_name":"餐饮美食","address":"青浦区公园路666弄11号桥梓湾购物中心广场外圈(聚星街公园路)"},{"poiid":"B2094757D16CA0FB499B","title":"世田造型","lon":"121.120825","lat":"31.150514","category":"148","category_name":"美容美发店","address":"上海浦仓路"},{"poiid":"B2094757D16FA2F94693","title":"欧洲街","lon":"121.125363","lat":"31.150549","category":"500","category_name":"未知分类","address":"上海青浦区公园路"},{"poiid":"B2094654DA6BABFB409A","title":"新城逸境园","lon":"121.13385","lat":"31.157528","category":"47","category_name":"住宅区","address":"上海市青浦区华科路路255弄"},{"poiid":"B2094757D169AAF8489C","title":"青浦区社保中心","lon":"121.122893","lat":"31.149602","category":"500","category_name":"未知分类","address":"上海公园路200号"},{"poiid":"B2094654DA6BA0F84698","title":"佳佳宾馆","lon":"121.12803","lat":"31.15657","category":"250","category_name":"公园户外","address":"上海市青浦区华科路109号"},{"poiid":"B2094654DA6BA6FD419B","title":"上海市青浦区科技文化活动中心","lon":"121.12564","lat":"31.15055","category":"248","category_name":"生活娱乐","address":"公园路78-80"},{"poiid":"B2094654DA6BA0F8459D","title":"上海华源复合新材料有限公司行政办公楼","lon":"121.12593","lat":"31.15479","category":"46","category_name":"楼宇","address":"外青松公路6085"},{"poiid":"B2094654DA6BA1F4459B","title":"上海市青浦区行政学院(华科路)","lon":"121.12869","lat":"31.1562","category":"52","category_name":"高等院校","address":"青浦区华科路158号"},{"poiid":"B2094654DA6BA5FE409C","title":"舜浦大厦","lon":"121.12488","lat":"31.14919","category":"46","category_name":"楼宇","address":"上海青浦区公园路99号"},{"poiid":"B2094654DA6BA5FF489A","title":"青浦大厦","lon":"121.124","lat":"31.1538","category":"46","category_name":"楼宇","address":"公园东路1818号"},{"poiid":"B2094654DA6BA5FE449C","title":"友谊酒家","lon":"121.12075433399","lat":"31.149022380998","category":"76","category_name":"上海菜","address":"青浦区公园路197号(近外青松公路)"},{"poiid":"B2094655D36DA0FE449D","title":"信息学院","lon":"121.13054","lat":"31.15208","category":"38","category_name":"公交车站","address":""},{"poiid":"B2094654DB69A5F9489D","title":"真锅咖啡(青浦夏阳湖店)","lon":"121.1351","lat":"31.15087","category":"65","category_name":"咖啡厅","address":"青浦区华青路767号二楼(青浦博物馆对面)"},{"poiid":"B2094750DA65A6F4409B","title":"朱家角镇","lon":"121.121879","lat":"31.151987","category":"500","category_name":"未知分类","address":null},{"poiid":"B2094655D268A4FD469D","title":"大豪公寓(南门)","lon":"121.12429","lat":"31.15223","category":"47","category_name":"住宅区","address":""},{"poiid":"B2094753D268A0FA4999","title":"上井精致创作料理","lon":"121.130565","lat":"31.146973","category":"247","category_name":"餐饮美食","address":"上海市 运杰城市花园"},{"poiid":"B2094655D36CA7FC499A","title":"华科路华青路","lon":"121.13188","lat":"31.15698","category":"38","category_name":"公交车站","address":""},{"poiid":"B2094757D464A7FF4792","title":"华青乡下菜","lon":"121.13297","lat":"31.15616","category":"76","category_name":"上海菜","address":"青浦区华青北路3号(近青浦电视台)"},{"poiid":"B2094654DA6BA6FD4092","title":"中国农业银行上海市青浦支行","lon":"121.12611","lat":"31.15078","category":"150","category_name":"银行","address":"青浦镇"},{"poiid":"B2094654DA6BA7FB4798","title":"蔡师傅面馆","lon":"121.12157","lat":"31.15144","category":"87","category_name":"特色／地方风味餐厅","address":"青浦区体育场路(近浦仓路)"},{"poiid":"B2094654DA6BA4FF489F","title":"供电局调节调度大楼","lon":"121.13227","lat":"31.15302","category":"46","category_name":"楼宇","address":""},{"poiid":"B2094654DA6BA6F8469A","title":"好德N0.132","lon":"121.12413","lat":"31.15223","category":"117","category_name":"便民商店/便利店","address":"体育场路90"},{"poiid":"B2094654DA6BA0FF4893","title":"蓬莱山庄","lon":"121.136","lat":"31.1504","category":"47","category_name":"住宅区","address":"青湖路666弄"},{"poiid":"B2094757D16EA5FA479D","title":"界泾港三期","lon":"121.121164035","lat":"31.1540609425","category":"47","category_name":"住宅区","address":"上海青浦区浦仓路"},{"poiid":"B2094757D068A1FD439D","title":"夏阳湖畔","lon":"121.13520813","lat":"31.150871276","category":"47","category_name":"住宅区","address":"上海青浦区"},{"poiid":"B2094757D068A3F9439E","title":"自由港量贩式KTV(青浦店)","lon":"121.12195","lat":"31.14887","category":"170","category_name":"KTV","address":"青浦区公园路258号(浦仓路口)"},{"poiid":"B2094757D168A7FF4192","title":"青浦党校","lon":"121.12828703","lat":"31.156762895","category":"253","category_name":"校园生活","address":"上海华科路"},{"poiid":"B2094757D664A1F84893","title":"海港一号","lon":"121.132756054","lat":"31.146040793","category":"76","category_name":"上海菜","address":"青浦区华青南路177弄58号(近青湖路)"},{"poiid":"B2094751D465A2FE479D","title":"末可甜品小屋","lon":"121.131406","lat":"31.156118","category":"247","category_name":"餐饮美食","address":"青浦区公园东路1688弄23号(近中山医院)"},{"poiid":"B2094757D06BABFF4693","title":"青浦区政府","lon":"121.12415141","lat":"31.15036197","category":"500","category_name":"未知分类","address":"上海公园路100号"},{"poiid":"B2094654DA6BA4FF4993","title":"上海工商信息学校","lon":"121.13098","lat":"31.15174","category":"55","category_name":"中学","address":"青浦区公园东路2025号(近青浦区电视台)"},{"poiid":"B2094655D36CA5FF4392","title":"城中东路保安路","lon":"121.12422","lat":"31.14644","category":"38","category_name":"公交车站","address":""},{"poiid":"B2094757D664A3F54799","title":"七欣天迷宗蟹 青浦店","lon":"121.119998","lat":"31.153206","category":"86","category_name":"火锅店","address":"青浦区沙埭浜路35-39号(近体育场路)"},{"poiid":"B2094757D06AA1F5419F","title":"榕港海鲜大酒楼(青浦店)","lon":"121.12135","lat":"31.15832","category":"88","category_name":"海鲜酒楼","address":"青浦区浦仓路888号(近盈港路)"},{"poiid":"B2094654DA6BA4FB449E","title":"公园大观吉富绅花园","lon":"121.13375","lat":"31.15561","category":"47","category_name":"住宅区","address":"上海市青浦区公园东路1688号"},{"poiid":"B2094757D06BA4FA499D","title":"青浦区行政服务中心","lon":"121.12342184","lat":"31.152591323","category":"500","category_name":"未知分类","address":"上海近郊青浦区外青松公路6189号"},{"poiid":"B2094750D568A0F94392","title":"香港纯Kparyt","lon":"121.126731","lat":"31.146087","category":"170","category_name":"KTV","address":"青浦区青湖路晨兴国际"},{"poiid":"B2094655D36DA7F8499B","title":"中山医院青浦分院","lon":"121.13481","lat":"31.15335","category":"38","category_name":"公交车站","address":""},{"poiid":"B2094757D068A3F8439C","title":"85度C 青浦店","lon":"121.12089","lat":"31.14898","category":"112","category_name":"糕饼店","address":"青浦区公园路300号农工商超市旁(浦仓路公园路)"},{"poiid":"B2094757D16CA0FC479C","title":"龙满楼","lon":"121.125225","lat":"31.1558858","category":"76","category_name":"上海菜","address":"青浦区外青松公路6048弄16号(近界泾港路)"},{"poiid":"B2094757D06BA4FA489B","title":"迪欧咖啡(青浦店)","lon":"121.12578","lat":"31.14938","category":"65","category_name":"咖啡厅","address":"青浦区公园路99号(公园路外青松公路)"},{"poiid":"B2094655D36CA7F4469E","title":"桂花园青浦","lon":"121.13511898718","lat":"31.151869426536","category":"38","category_name":"公交车站","address":"沪青平公路4555弄"},{"poiid":"B2094757D16EA3FF4299","title":"青浦区博物馆","lon":"121.133225135","lat":"31.1536129838","category":"179","category_name":"音乐厅","address":"青浦区青浦镇华青南路1000号"},{"poiid":"B2094757D06AA6FD489E","title":"新青浦花苑","lon":"121.13","lat":"31.1618","category":"500","category_name":"未知分类","address":"上海外青松公路6048弄"},{"poiid":"B2094654DA6BA6FC469C","title":"农工商超市NO.50","lon":"121.12065","lat":"31.14896","category":"118","category_name":"超级市场","address":"青浦镇"},{"poiid":"B2094654DA6BA1F44493","title":"上海市电力公司青浦供电分公司","lon":"121.12709","lat":"31.15271","category":"263","category_name":"公司","address":"外青松公路6155号"},{"poiid":"B2094757D66EA5F94999","title":"咔浓咖啡","lon":"121.119855035","lat":"31.1505348737","category":"65","category_name":"咖啡厅","address":"青浦区欧洲街74弄3号"},{"poiid":"B2094654DA6BABFA409D","title":"梦丹苑","lon":"121.13171","lat":"31.146254","category":"47","category_name":"住宅区","address":"青湖路4625弄"},{"poiid":"B2094757D169A3FB4693","title":"宋记香辣蟹 浦仓路店","lon":"121.12133","lat":"31.1518","category":"71","category_name":"四川菜","address":"青浦区浦仓路528号(近青浦体育场)"},{"poiid":"B2094757D16EAAF94992","title":"鼎萃食坊(桥梓湾店)","lon":"121.12837","lat":"31.1509","category":"247","category_name":"餐饮美食","address":"青浦区公园路666弄11号桥梓湾购物中心广场外圈(聚星街公园路)"},{"poiid":"B2094757D16CA0FB499B","title":"世田造型","lon":"121.120825","lat":"31.150514","category":"148","category_name":"美容美发店","address":"上海浦仓路"},{"poiid":"B2094757D16FA2F94693","title":"欧洲街","lon":"121.125363","lat":"31.150549","category":"500","category_name":"未知分类","address":"上海青浦区公园路"},{"poiid":"B2094654DA6BABFB409A","title":"新城逸境园","lon":"121.13385","lat":"31.157528","category":"47","category_name":"住宅区","address":"上海市青浦区华科路路255弄"},{"poiid":"B2094757D169AAF8489C","title":"青浦区社保中心","lon":"121.122893","lat":"31.149602","category":"500","category_name":"未知分类","address":"上海公园路200号"},{"poiid":"B2094654DA6BA0F84698","title":"佳佳宾馆","lon":"121.12803","lat":"31.15657","category":"250","category_name":"公园户外","address":"上海市青浦区华科路109号"},{"poiid":"B2094654DA6BA6FD419B","title":"上海市青浦区科技文化活动中心","lon":"121.12564","lat":"31.15055","category":"248","category_name":"生活娱乐","address":"公园路78-80"},{"poiid":"B2094654DA6BA0F8459D","title":"上海华源复合新材料有限公司行政办公楼","lon":"121.12593","lat":"31.15479","category":"46","category_name":"楼宇","address":"外青松公路6085"},{"poiid":"B2094654DA6BA1F4459B","title":"上海市青浦区行政学院(华科路)","lon":"121.12869","lat":"31.1562","category":"52","category_name":"高等院校","address":"青浦区华科路158号"},{"poiid":"B2094654DA6BA5FE409C","title":"舜浦大厦","lon":"121.12488","lat":"31.14919","category":"46","category_name":"楼宇","address":"上海青浦区公园路99号"},{"poiid":"B2094654DA6BA5FF489A","title":"青浦大厦","lon":"121.124","lat":"31.1538","category":"46","category_name":"楼宇","address":"公园东路1818号"},{"poiid":"B2094654DA6BA5FE449C","title":"友谊酒家","lon":"121.12075433399","lat":"31.149022380998","category":"76","category_name":"上海菜","address":"青浦区公园路197号(近外青松公路)"},{"poiid":"B2094655D36DA0FE449D","title":"信息学院","lon":"121.13054","lat":"31.15208","category":"38","category_name":"公交车站","address":""},{"poiid":"B2094654DB69A5F9489D","title":"真锅咖啡(青浦夏阳湖店)","lon":"121.1351","lat":"31.15087","category":"65","category_name":"咖啡厅","address":"青浦区华青路767号二楼(青浦博物馆对面)"},{"poiid":"B2094750DA65A6F4409B","title":"朱家角镇","lon":"121.121879","lat":"31.151987","category":"500","category_name":"未知分类","address":null},{"poiid":"B2094655D268A4FD469D","title":"大豪公寓(南门)","lon":"121.12429","lat":"31.15223","category":"47","category_name":"住宅区","address":""},{"poiid":"B2094753D268A0FA4999","title":"上井精致创作料理","lon":"121.130565","lat":"31.146973","category":"247","category_name":"餐饮美食","address":"上海市 运杰城市花园"},{"poiid":"B2094655D36CA7FC499A","title":"华科路华青路","lon":"121.13188","lat":"31.15698","category":"38","category_name":"公交车站","address":""},{"poiid":"B2094757D464A7FF4792","title":"华青乡下菜","lon":"121.13297","lat":"31.15616","category":"76","category_name":"上海菜","address":"青浦区华青北路3号(近青浦电视台)"},{"poiid":"B2094654DA6BA6FD4092","title":"中国农业银行上海市青浦支行","lon":"121.12611","lat":"31.15078","category":"150","category_name":"银行","address":"青浦镇"},{"poiid":"B2094654DA6BA7FB4798","title":"蔡师傅面馆","lon":"121.12157","lat":"31.15144","category":"87","category_name":"特色／地方风味餐厅","address":"青浦区体育场路(近浦仓路)"},{"poiid":"B2094654DA6BA4FF489F","title":"供电局调节调度大楼","lon":"121.13227","lat":"31.15302","category":"46","category_name":"楼宇","address":""},{"poiid":"B2094654DA6BA6F8469A","title":"好德N0.132","lon":"121.12413","lat":"31.15223","category":"117","category_name":"便民商店/便利店","address":"体育场路90"},{"poiid":"B2094654DA6BA0FF4893","title":"蓬莱山庄","lon":"121.136","lat":"31.1504","category":"47","category_name":"住宅区","address":"青湖路666弄"},{"poiid":"B2094757D16EA5FA479D","title":"界泾港三期","lon":"121.121164035","lat":"31.1540609425","category":"47","category_name":"住宅区","address":"上海青浦区浦仓路"},{"poiid":"B2094757D068A1FD439D","title":"夏阳湖畔","lon":"121.13520813","lat":"31.150871276","category":"47","category_name":"住宅区","address":"上海青浦区"},{"poiid":"B2094757D068A3F9439E","title":"自由港量贩式KTV(青浦店)","lon":"121.12195","lat":"31.14887","category":"170","category_name":"KTV","address":"青浦区公园路258号(浦仓路口)"},{"poiid":"B2094757D168A7FF4192","title":"青浦党校","lon":"121.12828703","lat":"31.156762895","category":"253","category_name":"校园生活","address":"上海华科路"},{"poiid":"B2094757D664A1F84893","title":"海港一号","lon":"121.132756054","lat":"31.146040793","category":"76","category_name":"上海菜","address":"青浦区华青南路177弄58号(近青湖路)"},{"poiid":"B2094751D465A2FE479D","title":"末可甜品小屋","lon":"121.131406","lat":"31.156118","category":"247","category_name":"餐饮美食","address":"青浦区公园东路1688弄23号(近中山医院)"},{"poiid":"B2094757D06BABFF4693","title":"青浦区政府","lon":"121.12415141","lat":"31.15036197","category":"500","category_name":"未知分类","address":"上海公园路100号"},{"poiid":"B2094654DA6BA4FF4993","title":"上海工商信息学校","lon":"121.13098","lat":"31.15174","category":"55","category_name":"中学","address":"青浦区公园东路2025号(近青浦区电视台)"},{"poiid":"B2094655D36CA5FF4392","title":"城中东路保安路","lon":"121.12422","lat":"31.14644","category":"38","category_name":"公交车站","address":""},{"poiid":"B2094757D664A3F54799","title":"七欣天迷宗蟹 青浦店","lon":"121.119998","lat":"31.153206","category":"86","category_name":"火锅店","address":"青浦区沙埭浜路35-39号(近体育场路)"},{"poiid":"B2094757D06AA1F5419F","title":"榕港海鲜大酒楼(青浦店)","lon":"121.12135","lat":"31.15832","category":"88","category_name":"海鲜酒楼","address":"青浦区浦仓路888号(近盈港路)"},{"poiid":"B2094654DA6BA4FB449E","title":"公园大观吉富绅花园","lon":"121.13375","lat":"31.15561","category":"47","category_name":"住宅区","address":"上海市青浦区公园东路1688号"},{"poiid":"B2094757D06BA4FA499D","title":"青浦区行政服务中心","lon":"121.12342184","lat":"31.152591323","category":"500","category_name":"未知分类","address":"上海近郊青浦区外青松公路6189号"},{"poiid":"B2094750D568A0F94392","title":"香港纯Kparyt","lon":"121.126731","lat":"31.146087","category":"170","category_name":"KTV","address":"青浦区青湖路晨兴国际"},{"poiid":"B2094655D36DA7F8499B","title":"中山医院青浦分院","lon":"121.13481","lat":"31.15335","category":"38","category_name":"公交车站","address":""},{"poiid":"B2094757D068A3F8439C","title":"85度C 青浦店","lon":"121.12089","lat":"31.14898","category":"112","category_name":"糕饼店","address":"青浦区公园路300号农工商超市旁(浦仓路公园路)"},{"poiid":"B2094757D16CA0FC479C","title":"龙满楼","lon":"121.125225","lat":"31.1558858","category":"76","category_name":"上海菜","address":"青浦区外青松公路6048弄16号(近界泾港路)"},{"poiid":"B2094757D06BA4FA489B","title":"迪欧咖啡(青浦店)","lon":"121.12578","lat":"31.14938","category":"65","category_name":"咖啡厅","address":"青浦区公园路99号(公园路外青松公路)"},{"poiid":"B2094655D36CA7F4469E","title":"桂花园青浦","lon":"121.13511898718","lat":"31.151869426536","category":"38","category_name":"公交车站","address":"沪青平公路4555弄"},{"poiid":"B2094757D16EA3FF4299","title":"青浦区博物馆","lon":"121.133225135","lat":"31.1536129838","category":"179","category_name":"音乐厅","address":"青浦区青浦镇华青南路1000号"},{"poiid":"B2094757D06AA6FD489E","title":"新青浦花苑","lon":"121.13","lat":"31.1618","category":"500","category_name":"未知分类","address":"上海外青松公路6048弄"},{"poiid":"B2094654DA6BA6FC469C","title":"农工商超市NO.50","lon":"121.12065","lat":"31.14896","category":"118","category_name":"超级市场","address":"青浦镇"},{"poiid":"B2094654DA6BA1F44493","title":"上海市电力公司青浦供电分公司","lon":"121.12709","lat":"31.15271","category":"263","category_name":"公司","address":"外青松公路6155号"},{"poiid":"B2094757D66EA5F94999","title":"咔浓咖啡","lon":"121.119855035","lat":"31.1505348737","category":"65","category_name":"咖啡厅","address":"青浦区欧洲街74弄3号"},{"poiid":"B2094654DA6BABFA409D","title":"梦丹苑","lon":"121.13171","lat":"31.146254","category":"47","category_name":"住宅区","address":"青湖路4625弄"},{"poiid":"B2094757D169A3FB4693","title":"宋记香辣蟹 浦仓路店","lon":"121.12133","lat":"31.1518","category":"71","category_name":"四川菜","address":"青浦区浦仓路528号(近青浦体育场)"},{"poiid":"B2094757D16EAAF94992","title":"鼎萃食坊(桥梓湾店)","lon":"121.12837","lat":"31.1509","category":"247","category_name":"餐饮美食","address":"青浦区公园路666弄11号桥梓湾购物中心广场外圈(聚星街公园路)"},{"poiid":"B2094757D16CA0FB499B","title":"世田造型","lon":"121.120825","lat":"31.150514","category":"148","category_name":"美容美发店","address":"上海浦仓路"},{"poiid":"B2094757D16FA2F94693","title":"欧洲街","lon":"121.125363","lat":"31.150549","category":"500","category_name":"未知分类","address":"上海青浦区公园路"},{"poiid":"B2094654DA6BABFB409A","title":"新城逸境园","lon":"121.13385","lat":"31.157528","category":"47","category_name":"住宅区","address":"上海市青浦区华科路路255弄"},{"poiid":"B2094757D169AAF8489C","title":"青浦区社保中心","lon":"121.122893","lat":"31.149602","category":"500","category_name":"未知分类","address":"上海公园路200号"},{"poiid":"B2094654DA6BA0F84698","title":"佳佳宾馆","lon":"121.12803","lat":"31.15657","category":"250","category_name":"公园户外","address":"上海市青浦区华科路109号"},{"poiid":"B2094654DA6BA6FD419B","title":"上海市青浦区科技文化活动中心","lon":"121.12564","lat":"31.15055","category":"248","category_name":"生活娱乐","address":"公园路78-80"},{"poiid":"B2094654DA6BA0F8459D","title":"上海华源复合新材料有限公司行政办公楼","lon":"121.12593","lat":"31.15479","category":"46","category_name":"楼宇","address":"外青松公路6085"},{"poiid":"B2094654DA6BA1F4459B","title":"上海市青浦区行政学院(华科路)","lon":"121.12869","lat":"31.1562","category":"52","category_name":"高等院校","address":"青浦区华科路158号"},{"poiid":"B2094654DA6BA5FE409C","title":"舜浦大厦","lon":"121.12488","lat":"31.14919","category":"46","category_name":"楼宇","address":"上海青浦区公园路99号"},{"poiid":"B2094654DA6BA5FF489A","title":"青浦大厦","lon":"121.124","lat":"31.1538","category":"46","category_name":"楼宇","address":"公园东路1818号"},{"poiid":"B2094654DA6BA5FE449C","title":"友谊酒家","lon":"121.12075433399","lat":"31.149022380998","category":"76","category_name":"上海菜","address":"青浦区公园路197号(近外青松公路)"},{"poiid":"B2094655D36DA0FE449D","title":"信息学院","lon":"121.13054","lat":"31.15208","category":"38","category_name":"公交车站","address":""},{"poiid":"B2094654DB69A5F9489D","title":"真锅咖啡(青浦夏阳湖店)","lon":"121.1351","lat":"31.15087","category":"65","category_name":"咖啡厅","address":"青浦区华青路767号二楼(青浦博物馆对面)"},{"poiid":"B2094750DA65A6F4409B","title":"朱家角镇","lon":"121.121879","lat":"31.151987","category":"500","category_name":"未知分类","address":null},{"poiid":"B2094655D268A4FD469D","title":"大豪公寓(南门)","lon":"121.12429","lat":"31.15223","category":"47","category_name":"住宅区","address":""},{"poiid":"B2094753D268A0FA4999","title":"上井精致创作料理","lon":"121.130565","lat":"31.146973","category":"247","category_name":"餐饮美食","address":"上海市 运杰城市花园"},{"poiid":"B2094655D36CA7FC499A","title":"华科路华青路","lon":"121.13188","lat":"31.15698","category":"38","category_name":"公交车站","address":""},{"poiid":"B2094757D464A7FF4792","title":"华青乡下菜","lon":"121.13297","lat":"31.15616","category":"76","category_name":"上海菜","address":"青浦区华青北路3号(近青浦电视台)"},{"poiid":"B2094654DA6BA6FD4092","title":"中国农业银行上海市青浦支行","lon":"121.12611","lat":"31.15078","category":"150","category_name":"银行","address":"青浦镇"},{"poiid":"B2094654DA6BA7FB4798","title":"蔡师傅面馆","lon":"121.12157","lat":"31.15144","category":"87","category_name":"特色／地方风味餐厅","address":"青浦区体育场路(近浦仓路)"},{"poiid":"B2094654DA6BA4FF489F","title":"供电局调节调度大楼","lon":"121.13227","lat":"31.15302","category":"46","category_name":"楼宇","address":""},{"poiid":"B2094654DA6BA6F8469A","title":"好德N0.132","lon":"121.12413","lat":"31.15223","category":"117","category_name":"便民商店/便利店","address":"体育场路90"},{"poiid":"B2094654DA6BA0FF4893","title":"蓬莱山庄","lon":"121.136","lat":"31.1504","category":"47","category_name":"住宅区","address":"青湖路666弄"},{"poiid":"B2094757D16EA5FA479D","title":"界泾港三期","lon":"121.121164035","lat":"31.1540609425","category":"47","category_name":"住宅区","address":"上海青浦区浦仓路"}]