[{"poiid":"B2094655D268A0F94693","title":"荣日本料理(兴义店)","lon":"121.40379","lat":"31.20455","category":"95","category_name":"日本料理","address":"长宁区兴义路48号新世纪广场A2座3楼(近娄山关路)"},{"poiid":"B2094757D06FA1FD419C","title":"上海扬子江万丽大酒店","lon":"121.40616858","lat":"31.203131901","category":"213","category_name":"五星级宾馆","address":"上海市长宁区延安西路2099号(近遵义路)"},{"poiid":"B2094757D06EAAFD429F","title":"虹桥喜来登上海太平洋大饭店 (Sheraton Shanghai Hongqiao Hotel)","lon":"121.405649611","lat":"31.2031937833","category":"217","category_name":"旅馆招待所","address":"长宁区遵义南路5号(近兴义路)"},{"poiid":"B2094654D56BA5F9469A","title":"万都中心","lon":"121.40519","lat":"31.20484","category":"46","category_name":"楼宇","address":"长宁区兴义路8号"},{"poiid":"B2094757D06FA6FD419F","title":"王品台塑牛排(仙霞店)","lon":"121.406229855","lat":"31.2048639751","category":"94","category_name":"西餐厅","address":"长宁区仙霞路80号(遵义路口)"},{"poiid":"B2094757D06FAAF54893","title":"上海新国际展览中心","lon":"121.40366038","lat":"31.203774813","category":"500","category_name":"未知分类","address":"上海娄山关路88号"},{"poiid":"B2094757D06FA6FA429E","title":"来天华(万都店)","lon":"121.40542","lat":"31.204","category":"76","category_name":"上海菜","address":"上海长宁区兴义路8号万都中心大厦4楼(近遵义路)  "},{"poiid":"B2094654DB69A7FD499C","title":"白木屋","lon":"121.40345","lat":"31.2045","category":"95","category_name":"日本料理","address":"长宁区兴义路48号新世纪广场(近娄山关路)"},{"poiid":"B2094757D06FA7F94493","title":"Wagas沃歌斯(虹桥店)","lon":"121.40526058","lat":"31.204698931","category":"94","category_name":"西餐厅","address":"长宁区兴义路8号万都中心大厦108-109号(近遵义路)"},{"poiid":"B2094757D06FA3F94799","title":"星巴克(万都店)","lon":"121.405183","lat":"31.204434","category":"260","category_name":"其他","address":"长宁区兴义路8号万都中心大厦1楼S102、S106商铺(近遵义路)"},{"poiid":"B2094757D068A3FF459C","title":"荣烧肉","lon":"121.40406","lat":"31.20428","category":"269","category_name":"烧烤","address":"长宁区兴义路48号新世纪广场A座3楼(近娄山关路)"},{"poiid":"B2094757D06FA5F44692","title":"丸山","lon":"121.40541","lat":"31.20434","category":"95","category_name":"日本料理","address":"长宁区兴义路8号万都中心大厦2楼(近遵义路)"},{"poiid":"B2094654DB64A7FA469B","title":"协泰中心阿一鲍鱼富临海鲜酒家","lon":"121.40624","lat":"31.20427","category":"88","category_name":"海鲜酒楼","address":"长宁区遵义南路88号协泰中心2楼(近仙霞路)"},{"poiid":"B2094757D06FA2F8419E","title":"虹桥友谊商城","lon":"121.40708061","lat":"31.202889779","category":"119","category_name":"商场","address":"长宁区遵义南路6号(近仙霞路)"},{"poiid":"B2094757D16CA7FD479F","title":"COSTA","lon":"121.402974586","lat":"31.2036019103","category":"500","category_name":"未知分类","address":"长宁区娄山关路75号吉盛伟邦1楼110商铺(近兴义路)"},{"poiid":"B2094757D06FAAF94592","title":"伊藤家(万都店)","lon":"121.40491","lat":"31.20354","category":"95","category_name":"日本料理","address":"长宁区兴义路8号万都中心大厦3楼(近遵义路)"},{"poiid":"B2094655D269A4FA4192","title":"哈根达斯 仙霞店 Haagen-Dazs","lon":"121.406970054","lat":"31.202718793","category":"67","category_name":"甜品店","address":"长宁区遵义南路6号虹桥友谊商城1楼(近仙霞路)"},{"poiid":"B2094654D56BA5F94798","title":"韩国馆","lon":"121.40543","lat":"31.20491","category":"96","category_name":"韩国料理","address":"长宁区兴义路8号万都中心大厦2楼(近遵义路)"},{"poiid":"B2094757D06BABFC4898","title":"世贸展馆","lon":"121.40266","lat":"31.20296","category":"179","category_name":"音乐厅","address":"长宁区兴义路99号(娄山关路兴义路)"},{"poiid":"B2094750DB65AAF44393","title":"初花日本料理","lon":"121.406784","lat":"31.202966","category":"500","category_name":"未知分类","address":"虹桥路1446号古北湾大酒店三楼"},{"poiid":"B2094655D26AA1F5449D","title":"扬子江万丽酒店宴会厅","lon":"121.40583","lat":"31.20294","category":"247","category_name":"餐饮美食","address":"长宁区延安西路2099号扬子江万丽大酒店内(娄山关路延安西路)查看地图"},{"poiid":"B2094757D16DAAF84598","title":"荣料理","lon":"121.403425686","lat":"31.2053528945","category":"247","category_name":"餐饮美食","address":"上海遵义路"},{"poiid":"B2094757D068ABFF479E","title":"致真酒家 虹桥店 Sincere Restaurant","lon":"121.405162054","lat":"31.204260793","category":"76","category_name":"上海菜","address":"长宁区兴义路8号万都中心大厦2楼(近遵义路)"},{"poiid":"B2094757D06BA3F9439D","title":"会津まる家","lon":"121.406061054","lat":"31.204395793","category":"95","category_name":"日本料理","address":"长宁区遵义南路88号协泰中心1楼(近仙霞路)"},{"poiid":"B2094757D068AAFA489C","title":"新锦亭酒家","lon":"121.40666796","lat":"31.20411292","category":"76","category_name":"上海菜","address":"长宁区遵义南路8号锦明大厦1楼(喜来登太平洋大饭店对面)"},{"poiid":"B2094454D26EA4F44393","title":"kyochon1991校村","lon":"121.406936","lat":"31.202878","category":"247","category_name":"餐饮美食","address":"上海市 延安西路2088号嘉顿商业广场1幢2层A223(伊犁路)"},{"poiid":"B209475CD06FA7FA4298","title":"简单生活 尚嘉中心店","lon":"121.4057392","lat":"31.2053249","category":"94","category_name":"西餐厅","address":"仙霞路99号尚嘉中心3楼316-317单元(近遵义路)"},{"poiid":"B2094757D068A7FA479A","title":"鱼藏(娄山关路店)","lon":"121.40335","lat":"31.20174","category":"95","category_name":"日本料理","address":"长宁区兴义路8号万都中心大厦S-127室"},{"poiid":"B2094750DB6EAAF8469B","title":"东银中心","lon":"121.405","lat":"31.2038","category":"46","category_name":"楼宇","address":"上海市长宁区红宝石路500号"},{"poiid":"B2094753D469A3F94092","title":"屯京拉面","lon":"121.40316","lat":"31.202682","category":"247","category_name":"餐饮美食","address":"上海市 尚嘉中心LG2"},{"poiid":"B2094655D26EA5FC469B","title":"花野日式餐厅","lon":"121.40554","lat":"31.20364","category":"95","category_name":"日本料理","address":"长宁区遵义南路5号虹桥喜来登上海太平洋大饭店2楼(兴义路口)"},{"poiid":"B2094655D26FA6FA4598","title":"东方伦敦广场","lon":"121.404083","lat":"31.202847","category":"47","category_name":"住宅区","address":"长宁古北路996,998,1000号"},{"poiid":"B2094757D068A5FC4393","title":"COCO都可茶饮(娄山关路店)","lon":"121.40526049","lat":"31.205494397","category":"113","category_name":"冷饮店","address":"长宁区娄山关路436号(近仙霞路)"},{"poiid":"B2094757D068A3FD4099","title":"中国工商银行(虹桥开发区支行)","lon":"121.40316","lat":"31.20419","category":"150","category_name":"银行","address":"长宁区娄山关路83号近仙霞路(娄山关路万山路)"},{"poiid":"B2094757D069A2F44398","title":"上海市商务委员会","lon":"121.402679","lat":"31.202929","category":"260","category_name":"其他","address":"上海娄山关路55号11楼"},{"poiid":"B2094757D068A4F5449E","title":"月港苑","lon":"121.404135","lat":"31.201994","category":"47","category_name":"住宅区","address":"长宁区延安西路2201号国贸中心1楼东侧(近娄山关路)"},{"poiid":"B2094757D469A0FD4893","title":"吉范尼斯意大利餐厅 Giovanni's","lon":"121.405629054","lat":"31.204849793","category":"98","category_name":"意式菜品餐厅","address":"长宁区遵义南路5号虹桥喜来登上海太平洋大饭店27楼(兴义路口)"},{"poiid":"B2094757D465A3F84092","title":"中国餐馆","lon":"121.402915054","lat":"31.202273793","category":"76","category_name":"上海菜","address":"长宁区娄山关路35号新虹桥俱乐部1楼(近延安西路)"},{"poiid":"B2094757D069AAFC459C","title":"万都商城","lon":"121.40556491","lat":"31.204932236","category":"119","category_name":"商场","address":"长宁区兴义路8号万都中心大厦内(近遵义路)"},{"poiid":"B2094751DA6BA0F5429E","title":"有喜屋","lon":"121.403342","lat":"31.205238","category":"247","category_name":"餐饮美食","address":"长宁区延安西路2073号M101室(近仙霞路)"},{"poiid":"B2094757D069A7FC4699","title":"吉盛伟邦(长宁店)","lon":"121.40265096","lat":"31.203771911","category":"123","category_name":"家具建材市场","address":"长宁区娄山关路75号(近延安西路)"},{"poiid":"B2094757D764A5FA429C","title":"韩一拌饭馆","lon":"121.402782","lat":"31.204258","category":"96","category_name":"韩国料理","address":"长宁区娄山关路(近古北路口)"},{"poiid":"B2094757D56CABFD4993","title":"太阳咖啡面包 仙霞路店 SUN Cafe&Bakery","lon":"121.403133054","lat":"31.205155793","category":"112","category_name":"糕饼店","address":"长宁区仙霞路88号太阳广场2楼(近娄山关路)"},{"poiid":"B209475CD764A5F8479C","title":"鼎泰丰 尚嘉中心店","lon":"121.4057392","lat":"31.2053249","category":"91","category_name":"台湾菜","address":"仙霞路99号尚嘉中心3楼311单元遵义路"},{"poiid":"B2094757D66BA1FC4899","title":"东亚酒家","lon":"121.403749","lat":"31.203815","category":"79","category_name":"福建菜","address":"长宁区兴义路38号新世纪广场(近遵义南路万都中心)"},{"poiid":"B2094757D16EAAF54799","title":"翠竹小馆","lon":"121.4061","lat":"31.20267","category":"72","category_name":"广东菜","address":"长宁区延安西路2099号扬子江万丽酒店2楼(延安西路遵义南路)"},{"poiid":"B2094654DB69A0F54298","title":"农夫之家","lon":"121.405629054","lat":"31.204849793","category":"112","category_name":"糕饼店","address":"长宁区遵义南路5号虹桥喜来登上海太平洋大饭店2楼(兴义路口)"},{"poiid":"B2094654DB6BA7FE4399","title":"思妍丽","lon":"121.4038","lat":"31.20494","category":"148","category_name":"美容美发店","address":"长宁区仙霞路88号太阳广场1楼(近娄山关路)"},{"poiid":"B2094655D36DA1F44592","title":"仙霞路遵义路","lon":"121.40456","lat":"31.20568","category":"38","category_name":"公交车站","address":""},{"poiid":"B2094655D26AA5F54199","title":"康骏保健中心新世纪广场店","lon":"121.40379","lat":"31.20455","category":"247","category_name":"餐饮美食","address":"长宁区兴义路48号新世纪广场1楼(近娄山关路)"},{"poiid":"B2094655D268A0F94693","title":"荣日本料理(兴义店)","lon":"121.40379","lat":"31.20455","category":"95","category_name":"日本料理","address":"长宁区兴义路48号新世纪广场A2座3楼(近娄山关路)"},{"poiid":"B2094757D06FA1FD419C","title":"上海扬子江万丽大酒店","lon":"121.40616858","lat":"31.203131901","category":"213","category_name":"五星级宾馆","address":"上海市长宁区延安西路2099号(近遵义路)"},{"poiid":"B2094757D06EAAFD429F","title":"虹桥喜来登上海太平洋大饭店 (Sheraton Shanghai Hongqiao Hotel)","lon":"121.405649611","lat":"31.2031937833","category":"217","category_name":"旅馆招待所","address":"长宁区遵义南路5号(近兴义路)"},{"poiid":"B2094654D56BA5F9469A","title":"万都中心","lon":"121.40519","lat":"31.20484","category":"46","category_name":"楼宇","address":"长宁区兴义路8号"},{"poiid":"B2094757D06FA6FD419F","title":"王品台塑牛排(仙霞店)","lon":"121.406229855","lat":"31.2048639751","category":"94","category_name":"西餐厅","address":"长宁区仙霞路80号(遵义路口)"},{"poiid":"B2094757D06FAAF54893","title":"上海新国际展览中心","lon":"121.40366038","lat":"31.203774813","category":"500","category_name":"未知分类","address":"上海娄山关路88号"},{"poiid":"B2094757D06FA6FA429E","title":"来天华(万都店)","lon":"121.40542","lat":"31.204","category":"76","category_name":"上海菜","address":"上海长宁区兴义路8号万都中心大厦4楼(近遵义路)  "},{"poiid":"B2094654DB69A7FD499C","title":"白木屋","lon":"121.40345","lat":"31.2045","category":"95","category_name":"日本料理","address":"长宁区兴义路48号新世纪广场(近娄山关路)"},{"poiid":"B2094757D06FA7F94493","title":"Wagas沃歌斯(虹桥店)","lon":"121.40526058","lat":"31.204698931","category":"94","category_name":"西餐厅","address":"长宁区兴义路8号万都中心大厦108-109号(近遵义路)"},{"poiid":"B2094757D06FA3F94799","title":"星巴克(万都店)","lon":"121.405183","lat":"31.204434","category":"260","category_name":"其他","address":"长宁区兴义路8号万都中心大厦1楼S102、S106商铺(近遵义路)"},{"poiid":"B2094757D068A3FF459C","title":"荣烧肉","lon":"121.40406","lat":"31.20428","category":"269","category_name":"烧烤","address":"长宁区兴义路48号新世纪广场A座3楼(近娄山关路)"},{"poiid":"B2094757D06FA5F44692","title":"丸山","lon":"121.40541","lat":"31.20434","category":"95","category_name":"日本料理","address":"长宁区兴义路8号万都中心大厦2楼(近遵义路)"},{"poiid":"B2094654DB64A7FA469B","title":"协泰中心阿一鲍鱼富临海鲜酒家","lon":"121.40624","lat":"31.20427","category":"88","category_name":"海鲜酒楼","address":"长宁区遵义南路88号协泰中心2楼(近仙霞路)"},{"poiid":"B2094757D06FA2F8419E","title":"虹桥友谊商城","lon":"121.40708061","lat":"31.202889779","category":"119","category_name":"商场","address":"长宁区遵义南路6号(近仙霞路)"},{"poiid":"B2094757D16CA7FD479F","title":"COSTA","lon":"121.402974586","lat":"31.2036019103","category":"500","category_name":"未知分类","address":"长宁区娄山关路75号吉盛伟邦1楼110商铺(近兴义路)"},{"poiid":"B2094757D06FAAF94592","title":"伊藤家(万都店)","lon":"121.40491","lat":"31.20354","category":"95","category_name":"日本料理","address":"长宁区兴义路8号万都中心大厦3楼(近遵义路)"},{"poiid":"B2094655D269A4FA4192","title":"哈根达斯 仙霞店 Haagen-Dazs","lon":"121.406970054","lat":"31.202718793","category":"67","category_name":"甜品店","address":"长宁区遵义南路6号虹桥友谊商城1楼(近仙霞路)"},{"poiid":"B2094654D56BA5F94798","title":"韩国馆","lon":"121.40543","lat":"31.20491","category":"96","category_name":"韩国料理","address":"长宁区兴义路8号万都中心大厦2楼(近遵义路)"},{"poiid":"B2094757D06BABFC4898","title":"世贸展馆","lon":"121.40266","lat":"31.20296","category":"179","category_name":"音乐厅","address":"长宁区兴义路99号(娄山关路兴义路)"},{"poiid":"B2094750DB65AAF44393","title":"初花日本料理","lon":"121.406784","lat":"31.202966","category":"500","category_name":"未知分类","address":"虹桥路1446号古北湾大酒店三楼"},{"poiid":"B2094655D26AA1F5449D","title":"扬子江万丽酒店宴会厅","lon":"121.40583","lat":"31.20294","category":"247","category_name":"餐饮美食","address":"长宁区延安西路2099号扬子江万丽大酒店内(娄山关路延安西路)查看地图"},{"poiid":"B2094757D16DAAF84598","title":"荣料理","lon":"121.403425686","lat":"31.2053528945","category":"247","category_name":"餐饮美食","address":"上海遵义路"},{"poiid":"B2094757D068ABFF479E","title":"致真酒家 虹桥店 Sincere Restaurant","lon":"121.405162054","lat":"31.204260793","category":"76","category_name":"上海菜","address":"长宁区兴义路8号万都中心大厦2楼(近遵义路)"},{"poiid":"B2094757D06BA3F9439D","title":"会津まる家","lon":"121.406061054","lat":"31.204395793","category":"95","category_name":"日本料理","address":"长宁区遵义南路88号协泰中心1楼(近仙霞路)"},{"poiid":"B2094757D068AAFA489C","title":"新锦亭酒家","lon":"121.40666796","lat":"31.20411292","category":"76","category_name":"上海菜","address":"长宁区遵义南路8号锦明大厦1楼(喜来登太平洋大饭店对面)"},{"poiid":"B2094454D26EA4F44393","title":"kyochon1991校村","lon":"121.406936","lat":"31.202878","category":"247","category_name":"餐饮美食","address":"上海市 延安西路2088号嘉顿商业广场1幢2层A223(伊犁路)"},{"poiid":"B209475CD06FA7FA4298","title":"简单生活 尚嘉中心店","lon":"121.4057392","lat":"31.2053249","category":"94","category_name":"西餐厅","address":"仙霞路99号尚嘉中心3楼316-317单元(近遵义路)"},{"poiid":"B2094757D068A7FA479A","title":"鱼藏(娄山关路店)","lon":"121.40335","lat":"31.20174","category":"95","category_name":"日本料理","address":"长宁区兴义路8号万都中心大厦S-127室"},{"poiid":"B2094750DB6EAAF8469B","title":"东银中心","lon":"121.405","lat":"31.2038","category":"46","category_name":"楼宇","address":"上海市长宁区红宝石路500号"},{"poiid":"B2094753D469A3F94092","title":"屯京拉面","lon":"121.40316","lat":"31.202682","category":"247","category_name":"餐饮美食","address":"上海市 尚嘉中心LG2"},{"poiid":"B2094655D26EA5FC469B","title":"花野日式餐厅","lon":"121.40554","lat":"31.20364","category":"95","category_name":"日本料理","address":"长宁区遵义南路5号虹桥喜来登上海太平洋大饭店2楼(兴义路口)"},{"poiid":"B2094655D26FA6FA4598","title":"东方伦敦广场","lon":"121.404083","lat":"31.202847","category":"47","category_name":"住宅区","address":"长宁古北路996,998,1000号"},{"poiid":"B2094757D068A5FC4393","title":"COCO都可茶饮(娄山关路店)","lon":"121.40526049","lat":"31.205494397","category":"113","category_name":"冷饮店","address":"长宁区娄山关路436号(近仙霞路)"},{"poiid":"B2094757D068A3FD4099","title":"中国工商银行(虹桥开发区支行)","lon":"121.40316","lat":"31.20419","category":"150","category_name":"银行","address":"长宁区娄山关路83号近仙霞路(娄山关路万山路)"},{"poiid":"B2094757D069A2F44398","title":"上海市商务委员会","lon":"121.402679","lat":"31.202929","category":"260","category_name":"其他","address":"上海娄山关路55号11楼"},{"poiid":"B2094757D068A4F5449E","title":"月港苑","lon":"121.404135","lat":"31.201994","category":"47","category_name":"住宅区","address":"长宁区延安西路2201号国贸中心1楼东侧(近娄山关路)"},{"poiid":"B2094757D469A0FD4893","title":"吉范尼斯意大利餐厅 Giovanni's","lon":"121.405629054","lat":"31.204849793","category":"98","category_name":"意式菜品餐厅","address":"长宁区遵义南路5号虹桥喜来登上海太平洋大饭店27楼(兴义路口)"},{"poiid":"B2094757D465A3F84092","title":"中国餐馆","lon":"121.402915054","lat":"31.202273793","category":"76","category_name":"上海菜","address":"长宁区娄山关路35号新虹桥俱乐部1楼(近延安西路)"},{"poiid":"B2094757D069AAFC459C","title":"万都商城","lon":"121.40556491","lat":"31.204932236","category":"119","category_name":"商场","address":"长宁区兴义路8号万都中心大厦内(近遵义路)"},{"poiid":"B2094751DA6BA0F5429E","title":"有喜屋","lon":"121.403342","lat":"31.205238","category":"247","category_name":"餐饮美食","address":"长宁区延安西路2073号M101室(近仙霞路)"},{"poiid":"B2094757D069A7FC4699","title":"吉盛伟邦(长宁店)","lon":"121.40265096","lat":"31.203771911","category":"123","category_name":"家具建材市场","address":"长宁区娄山关路75号(近延安西路)"},{"poiid":"B2094757D764A5FA429C","title":"韩一拌饭馆","lon":"121.402782","lat":"31.204258","category":"96","category_name":"韩国料理","address":"长宁区娄山关路(近古北路口)"},{"poiid":"B2094757D56CABFD4993","title":"太阳咖啡面包 仙霞路店 SUN Cafe&Bakery","lon":"121.403133054","lat":"31.205155793","category":"112","category_name":"糕饼店","address":"长宁区仙霞路88号太阳广场2楼(近娄山关路)"},{"poiid":"B209475CD764A5F8479C","title":"鼎泰丰 尚嘉中心店","lon":"121.4057392","lat":"31.2053249","category":"91","category_name":"台湾菜","address":"仙霞路99号尚嘉中心3楼311单元遵义路"},{"poiid":"B2094757D66BA1FC4899","title":"东亚酒家","lon":"121.403749","lat":"31.203815","category":"79","category_name":"福建菜","address":"长宁区兴义路38号新世纪广场(近遵义南路万都中心)"},{"poiid":"B2094757D16EAAF54799","title":"翠竹小馆","lon":"121.4061","lat":"31.20267","category":"72","category_name":"广东菜","address":"长宁区延安西路2099号扬子江万丽酒店2楼(延安西路遵义南路)"},{"poiid":"B2094654DB69A0F54298","title":"农夫之家","lon":"121.405629054","lat":"31.204849793","category":"112","category_name":"糕饼店","address":"长宁区遵义南路5号虹桥喜来登上海太平洋大饭店2楼(兴义路口)"},{"poiid":"B2094654DB6BA7FE4399","title":"思妍丽","lon":"121.4038","lat":"31.20494","category":"148","category_name":"美容美发店","address":"长宁区仙霞路88号太阳广场1楼(近娄山关路)"},{"poiid":"B2094655D36DA1F44592","title":"仙霞路遵义路","lon":"121.40456","lat":"31.20568","category":"38","category_name":"公交车站","address":""},{"poiid":"B2094655D26AA5F54199","title":"康骏保健中心新世纪广场店","lon":"121.40379","lat":"31.20455","category":"247","category_name":"餐饮美食","address":"长宁区兴义路48号新世纪广场1楼(近娄山关路)"},{"poiid":"B2094655D268A0F94693","title":"荣日本料理(兴义店)","lon":"121.40379","lat":"31.20455","category":"95","category_name":"日本料理","address":"长宁区兴义路48号新世纪广场A2座3楼(近娄山关路)"},{"poiid":"B2094757D06FA1FD419C","title":"上海扬子江万丽大酒店","lon":"121.40616858","lat":"31.203131901","category":"213","category_name":"五星级宾馆","address":"上海市长宁区延安西路2099号(近遵义路)"},{"poiid":"B2094757D06EAAFD429F","title":"虹桥喜来登上海太平洋大饭店 (Sheraton Shanghai Hongqiao Hotel)","lon":"121.405649611","lat":"31.2031937833","category":"217","category_name":"旅馆招待所","address":"长宁区遵义南路5号(近兴义路)"},{"poiid":"B2094654D56BA5F9469A","title":"万都中心","lon":"121.40519","lat":"31.20484","category":"46","category_name":"楼宇","address":"长宁区兴义路8号"},{"poiid":"B2094757D06FA6FD419F","title":"王品台塑牛排(仙霞店)","lon":"121.406229855","lat":"31.2048639751","category":"94","category_name":"西餐厅","address":"长宁区仙霞路80号(遵义路口)"},{"poiid":"B2094757D06FAAF54893","title":"上海新国际展览中心","lon":"121.40366038","lat":"31.203774813","category":"500","category_name":"未知分类","address":"上海娄山关路88号"},{"poiid":"B2094757D06FA6FA429E","title":"来天华(万都店)","lon":"121.40542","lat":"31.204","category":"76","category_name":"上海菜","address":"上海长宁区兴义路8号万都中心大厦4楼(近遵义路)  "},{"poiid":"B2094654DB69A7FD499C","title":"白木屋","lon":"121.40345","lat":"31.2045","category":"95","category_name":"日本料理","address":"长宁区兴义路48号新世纪广场(近娄山关路)"},{"poiid":"B2094757D06FA7F94493","title":"Wagas沃歌斯(虹桥店)","lon":"121.40526058","lat":"31.204698931","category":"94","category_name":"西餐厅","address":"长宁区兴义路8号万都中心大厦108-109号(近遵义路)"},{"poiid":"B2094757D06FA3F94799","title":"星巴克(万都店)","lon":"121.405183","lat":"31.204434","category":"260","category_name":"其他","address":"长宁区兴义路8号万都中心大厦1楼S102、S106商铺(近遵义路)"},{"poiid":"B2094757D068A3FF459C","title":"荣烧肉","lon":"121.40406","lat":"31.20428","category":"269","category_name":"烧烤","address":"长宁区兴义路48号新世纪广场A座3楼(近娄山关路)"},{"poiid":"B2094757D06FA5F44692","title":"丸山","lon":"121.40541","lat":"31.20434","category":"95","category_name":"日本料理","address":"长宁区兴义路8号万都中心大厦2楼(近遵义路)"},{"poiid":"B2094654DB64A7FA469B","title":"协泰中心阿一鲍鱼富临海鲜酒家","lon":"121.40624","lat":"31.20427","category":"88","category_name":"海鲜酒楼","address":"长宁区遵义南路88号协泰中心2楼(近仙霞路)"},{"poiid":"B2094757D06FA2F8419E","title":"虹桥友谊商城","lon":"121.40708061","lat":"31.202889779","category":"119","category_name":"商场","address":"长宁区遵义南路6号(近仙霞路)"},{"poiid":"B2094757D16CA7FD479F","title":"COSTA","lon":"121.402974586","lat":"31.2036019103","category":"500","category_name":"未知分类","address":"长宁区娄山关路75号吉盛伟邦1楼110商铺(近兴义路)"},{"poiid":"B2094757D06FAAF94592","title":"伊藤家(万都店)","lon":"121.40491","lat":"31.20354","category":"95","category_name":"日本料理","address":"长宁区兴义路8号万都中心大厦3楼(近遵义路)"},{"poiid":"B2094655D269A4FA4192","title":"哈根达斯 仙霞店 Haagen-Dazs","lon":"121.406970054","lat":"31.202718793","category":"67","category_name":"甜品店","address":"长宁区遵义南路6号虹桥友谊商城1楼(近仙霞路)"},{"poiid":"B2094654D56BA5F94798","title":"韩国馆","lon":"121.40543","lat":"31.20491","category":"96","category_name":"韩国料理","address":"长宁区兴义路8号万都中心大厦2楼(近遵义路)"},{"poiid":"B2094757D06BABFC4898","title":"世贸展馆","lon":"121.40266","lat":"31.20296","category":"179","category_name":"音乐厅","address":"长宁区兴义路99号(娄山关路兴义路)"},{"poiid":"B2094750DB65AAF44393","title":"初花日本料理","lon":"121.406784","lat":"31.202966","category":"500","category_name":"未知分类","address":"虹桥路1446号古北湾大酒店三楼"},{"poiid":"B2094655D26AA1F5449D","title":"扬子江万丽酒店宴会厅","lon":"121.40583","lat":"31.20294","category":"247","category_name":"餐饮美食","address":"长宁区延安西路2099号扬子江万丽大酒店内(娄山关路延安西路)查看地图"},{"poiid":"B2094757D16DAAF84598","title":"荣料理","lon":"121.403425686","lat":"31.2053528945","category":"247","category_name":"餐饮美食","address":"上海遵义路"},{"poiid":"B2094757D068ABFF479E","title":"致真酒家 虹桥店 Sincere Restaurant","lon":"121.405162054","lat":"31.204260793","category":"76","category_name":"上海菜","address":"长宁区兴义路8号万都中心大厦2楼(近遵义路)"},{"poiid":"B2094757D06BA3F9439D","title":"会津まる家","lon":"121.406061054","lat":"31.204395793","category":"95","category_name":"日本料理","address":"长宁区遵义南路88号协泰中心1楼(近仙霞路)"},{"poiid":"B2094757D068AAFA489C","title":"新锦亭酒家","lon":"121.40666796","lat":"31.20411292","category":"76","category_name":"上海菜","address":"长宁区遵义南路8号锦明大厦1楼(喜来登太平洋大饭店对面)"},{"poiid":"B2094454D26EA4F44393","title":"kyochon1991校村","lon":"121.406936","lat":"31.202878","category":"247","category_name":"餐饮美食","address":"上海市 延安西路2088号嘉顿商业广场1幢2层A223(伊犁路)"},{"poiid":"B209475CD06FA7FA4298","title":"简单生活 尚嘉中心店","lon":"121.4057392","lat":"31.2053249","category":"94","category_name":"西餐厅","address":"仙霞路99号尚嘉中心3楼316-317单元(近遵义路)"},{"poiid":"B2094757D068A7FA479A","title":"鱼藏(娄山关路店)","lon":"121.40335","lat":"31.20174","category":"95","category_name":"日本料理","address":"长宁区兴义路8号万都中心大厦S-127室"},{"poiid":"B2094750DB6EAAF8469B","title":"东银中心","lon":"121.405","lat":"31.2038","category":"46","category_name":"楼宇","address":"上海市长宁区红宝石路500号"},{"poiid":"B2094753D469A3F94092","title":"屯京拉面","lon":"121.40316","lat":"31.202682","category":"247","category_name":"餐饮美食","address":"上海市 尚嘉中心LG2"},{"poiid":"B2094655D26EA5FC469B","title":"花野日式餐厅","lon":"121.40554","lat":"31.20364","category":"95","category_name":"日本料理","address":"长宁区遵义南路5号虹桥喜来登上海太平洋大饭店2楼(兴义路口)"},{"poiid":"B2094655D26FA6FA4598","title":"东方伦敦广场","lon":"121.404083","lat":"31.202847","category":"47","category_name":"住宅区","address":"长宁古北路996,998,1000号"},{"poiid":"B2094757D068A5FC4393","title":"COCO都可茶饮(娄山关路店)","lon":"121.40526049","lat":"31.205494397","category":"113","category_name":"冷饮店","address":"长宁区娄山关路436号(近仙霞路)"},{"poiid":"B2094757D068A3FD4099","title":"中国工商银行(虹桥开发区支行)","lon":"121.40316","lat":"31.20419","category":"150","category_name":"银行","address":"长宁区娄山关路83号近仙霞路(娄山关路万山路)"},{"poiid":"B2094757D069A2F44398","title":"上海市商务委员会","lon":"121.402679","lat":"31.202929","category":"260","category_name":"其他","address":"上海娄山关路55号11楼"},{"poiid":"B2094757D068A4F5449E","title":"月港苑","lon":"121.404135","lat":"31.201994","category":"47","category_name":"住宅区","address":"长宁区延安西路2201号国贸中心1楼东侧(近娄山关路)"},{"poiid":"B2094757D469A0FD4893","title":"吉范尼斯意大利餐厅 Giovanni's","lon":"121.405629054","lat":"31.204849793","category":"98","category_name":"意式菜品餐厅","address":"长宁区遵义南路5号虹桥喜来登上海太平洋大饭店27楼(兴义路口)"},{"poiid":"B2094757D465A3F84092","title":"中国餐馆","lon":"121.402915054","lat":"31.202273793","category":"76","category_name":"上海菜","address":"长宁区娄山关路35号新虹桥俱乐部1楼(近延安西路)"},{"poiid":"B2094757D069AAFC459C","title":"万都商城","lon":"121.40556491","lat":"31.204932236","category":"119","category_name":"商场","address":"长宁区兴义路8号万都中心大厦内(近遵义路)"},{"poiid":"B2094751DA6BA0F5429E","title":"有喜屋","lon":"121.403342","lat":"31.205238","category":"247","category_name":"餐饮美食","address":"长宁区延安西路2073号M101室(近仙霞路)"},{"poiid":"B2094757D069A7FC4699","title":"吉盛伟邦(长宁店)","lon":"121.40265096","lat":"31.203771911","category":"123","category_name":"家具建材市场","address":"长宁区娄山关路75号(近延安西路)"},{"poiid":"B2094757D764A5FA429C","title":"韩一拌饭馆","lon":"121.402782","lat":"31.204258","category":"96","category_name":"韩国料理","address":"长宁区娄山关路(近古北路口)"},{"poiid":"B2094757D56CABFD4993","title":"太阳咖啡面包 仙霞路店 SUN Cafe&Bakery","lon":"121.403133054","lat":"31.205155793","category":"112","category_name":"糕饼店","address":"长宁区仙霞路88号太阳广场2楼(近娄山关路)"},{"poiid":"B209475CD764A5F8479C","title":"鼎泰丰 尚嘉中心店","lon":"121.4057392","lat":"31.2053249","category":"91","category_name":"台湾菜","address":"仙霞路99号尚嘉中心3楼311单元遵义路"},{"poiid":"B2094757D66BA1FC4899","title":"东亚酒家","lon":"121.403749","lat":"31.203815","category":"79","category_name":"福建菜","address":"长宁区兴义路38号新世纪广场(近遵义南路万都中心)"},{"poiid":"B2094757D16EAAF54799","title":"翠竹小馆","lon":"121.4061","lat":"31.20267","category":"72","category_name":"广东菜","address":"长宁区延安西路2099号扬子江万丽酒店2楼(延安西路遵义南路)"},{"poiid":"B2094654DB69A0F54298","title":"农夫之家","lon":"121.405629054","lat":"31.204849793","category":"112","category_name":"糕饼店","address":"长宁区遵义南路5号虹桥喜来登上海太平洋大饭店2楼(兴义路口)"},{"poiid":"B2094654DB6BA7FE4399","title":"思妍丽","lon":"121.4038","lat":"31.20494","category":"148","category_name":"美容美发店","address":"长宁区仙霞路88号太阳广场1楼(近娄山关路)"},{"poiid":"B2094655D36DA1F44592","title":"仙霞路遵义路","lon":"121.40456","lat":"31.20568","category":"38","category_name":"公交车站","address":""},{"poiid":"B2094655D26AA5F54199","title":"康骏保健中心新世纪广场店","lon":"121.40379","lat":"31.20455","category":"247","category_name":"餐饮美食","address":"长宁区兴义路48号新世纪广场1楼(近娄山关路)"},{"poiid":"B2094655D268A0F94693","title":"荣日本料理(兴义店)","lon":"121.40379","lat":"31.20455","category":"95","category_name":"日本料理","address":"长宁区兴义路48号新世纪广场A2座3楼(近娄山关路)"},{"poiid":"B2094757D06FA1FD419C","title":"上海扬子江万丽大酒店","lon":"121.40616858","lat":"31.203131901","category":"213","category_name":"五星级宾馆","address":"上海市长宁区延安西路2099号(近遵义路)"},{"poiid":"B2094757D06EAAFD429F","title":"虹桥喜来登上海太平洋大饭店 (Sheraton Shanghai Hongqiao Hotel)","lon":"121.405649611","lat":"31.2031937833","category":"217","category_name":"旅馆招待所","address":"长宁区遵义南路5号(近兴义路)"},{"poiid":"B2094654D56BA5F9469A","title":"万都中心","lon":"121.40519","lat":"31.20484","category":"46","category_name":"楼宇","address":"长宁区兴义路8号"},{"poiid":"B2094757D06FA6FD419F","title":"王品台塑牛排(仙霞店)","lon":"121.406229855","lat":"31.2048639751","category":"94","category_name":"西餐厅","address":"长宁区仙霞路80号(遵义路口)"},{"poiid":"B2094757D06FAAF54893","title":"上海新国际展览中心","lon":"121.40366038","lat":"31.203774813","category":"500","category_name":"未知分类","address":"上海娄山关路88号"},{"poiid":"B2094757D06FA6FA429E","title":"来天华(万都店)","lon":"121.40542","lat":"31.204","category":"76","category_name":"上海菜","address":"上海长宁区兴义路8号万都中心大厦4楼(近遵义路)  "},{"poiid":"B2094654DB69A7FD499C","title":"白木屋","lon":"121.40345","lat":"31.2045","category":"95","category_name":"日本料理","address":"长宁区兴义路48号新世纪广场(近娄山关路)"},{"poiid":"B2094757D06FA7F94493","title":"Wagas沃歌斯(虹桥店)","lon":"121.40526058","lat":"31.204698931","category":"94","category_name":"西餐厅","address":"长宁区兴义路8号万都中心大厦108-109号(近遵义路)"},{"poiid":"B2094757D06FA3F94799","title":"星巴克(万都店)","lon":"121.405183","lat":"31.204434","category":"260","category_name":"其他","address":"长宁区兴义路8号万都中心大厦1楼S102、S106商铺(近遵义路)"},{"poiid":"B2094757D068A3FF459C","title":"荣烧肉","lon":"121.40406","lat":"31.20428","category":"269","category_name":"烧烤","address":"长宁区兴义路48号新世纪广场A座3楼(近娄山关路)"},{"poiid":"B2094757D06FA5F44692","title":"丸山","lon":"121.40541","lat":"31.20434","category":"95","category_name":"日本料理","address":"长宁区兴义路8号万都中心大厦2楼(近遵义路)"},{"poiid":"B2094654DB64A7FA469B","title":"协泰中心阿一鲍鱼富临海鲜酒家","lon":"121.40624","lat":"31.20427","category":"88","category_name":"海鲜酒楼","address":"长宁区遵义南路88号协泰中心2楼(近仙霞路)"},{"poiid":"B2094757D06FA2F8419E","title":"虹桥友谊商城","lon":"121.40708061","lat":"31.202889779","category":"119","category_name":"商场","address":"长宁区遵义南路6号(近仙霞路)"},{"poiid":"B2094757D16CA7FD479F","title":"COSTA","lon":"121.402974586","lat":"31.2036019103","category":"500","category_name":"未知分类","address":"长宁区娄山关路75号吉盛伟邦1楼110商铺(近兴义路)"},{"poiid":"B2094757D06FAAF94592","title":"伊藤家(万都店)","lon":"121.40491","lat":"31.20354","category":"95","category_name":"日本料理","address":"长宁区兴义路8号万都中心大厦3楼(近遵义路)"},{"poiid":"B2094655D269A4FA4192","title":"哈根达斯 仙霞店 Haagen-Dazs","lon":"121.406970054","lat":"31.202718793","category":"67","category_name":"甜品店","address":"长宁区遵义南路6号虹桥友谊商城1楼(近仙霞路)"},{"poiid":"B2094654D56BA5F94798","title":"韩国馆","lon":"121.40543","lat":"31.20491","category":"96","category_name":"韩国料理","address":"长宁区兴义路8号万都中心大厦2楼(近遵义路)"},{"poiid":"B2094757D06BABFC4898","title":"世贸展馆","lon":"121.40266","lat":"31.20296","category":"179","category_name":"音乐厅","address":"长宁区兴义路99号(娄山关路兴义路)"},{"poiid":"B2094750DB65AAF44393","title":"初花日本料理","lon":"121.406784","lat":"31.202966","category":"500","category_name":"未知分类","address":"虹桥路1446号古北湾大酒店三楼"},{"poiid":"B2094655D26AA1F5449D","title":"扬子江万丽酒店宴会厅","lon":"121.40583","lat":"31.20294","category":"247","category_name":"餐饮美食","address":"长宁区延安西路2099号扬子江万丽大酒店内(娄山关路延安西路)查看地图"},{"poiid":"B2094757D16DAAF84598","title":"荣料理","lon":"121.403425686","lat":"31.2053528945","category":"247","category_name":"餐饮美食","address":"上海遵义路"},{"poiid":"B2094757D068ABFF479E","title":"致真酒家 虹桥店 Sincere Restaurant","lon":"121.405162054","lat":"31.204260793","category":"76","category_name":"上海菜","address":"长宁区兴义路8号万都中心大厦2楼(近遵义路)"},{"poiid":"B2094757D06BA3F9439D","title":"会津まる家","lon":"121.406061054","lat":"31.204395793","category":"95","category_name":"日本料理","address":"长宁区遵义南路88号协泰中心1楼(近仙霞路)"},{"poiid":"B2094757D068AAFA489C","title":"新锦亭酒家","lon":"121.40666796","lat":"31.20411292","category":"76","category_name":"上海菜","address":"长宁区遵义南路8号锦明大厦1楼(喜来登太平洋大饭店对面)"},{"poiid":"B2094454D26EA4F44393","title":"kyochon1991校村","lon":"121.406936","lat":"31.202878","category":"247","category_name":"餐饮美食","address":"上海市 延安西路2088号嘉顿商业广场1幢2层A223(伊犁路)"},{"poiid":"B209475CD06FA7FA4298","title":"简单生活 尚嘉中心店","lon":"121.4057392","lat":"31.2053249","category":"94","category_name":"西餐厅","address":"仙霞路99号尚嘉中心3楼316-317单元(近遵义路)"},{"poiid":"B2094757D068A7FA479A","title":"鱼藏(娄山关路店)","lon":"121.40335","lat":"31.20174","category":"95","category_name":"日本料理","address":"长宁区兴义路8号万都中心大厦S-127室"},{"poiid":"B2094750DB6EAAF8469B","title":"东银中心","lon":"121.405","lat":"31.2038","category":"46","category_name":"楼宇","address":"上海市长宁区红宝石路500号"},{"poiid":"B2094753D469A3F94092","title":"屯京拉面","lon":"121.40316","lat":"31.202682","category":"247","category_name":"餐饮美食","address":"上海市 尚嘉中心LG2"},{"poiid":"B2094655D26EA5FC469B","title":"花野日式餐厅","lon":"121.40554","lat":"31.20364","category":"95","category_name":"日本料理","address":"长宁区遵义南路5号虹桥喜来登上海太平洋大饭店2楼(兴义路口)"},{"poiid":"B2094655D26FA6FA4598","title":"东方伦敦广场","lon":"121.404083","lat":"31.202847","category":"47","category_name":"住宅区","address":"长宁古北路996,998,1000号"},{"poiid":"B2094757D068A5FC4393","title":"COCO都可茶饮(娄山关路店)","lon":"121.40526049","lat":"31.205494397","category":"113","category_name":"冷饮店","address":"长宁区娄山关路436号(近仙霞路)"},{"poiid":"B2094757D068A3FD4099","title":"中国工商银行(虹桥开发区支行)","lon":"121.40316","lat":"31.20419","category":"150","category_name":"银行","address":"长宁区娄山关路83号近仙霞路(娄山关路万山路)"},{"poiid":"B2094757D069A2F44398","title":"上海市商务委员会","lon":"121.402679","lat":"31.202929","category":"260","category_name":"其他","address":"上海娄山关路55号11楼"},{"poiid":"B2094757D068A4F5449E","title":"月港苑","lon":"121.404135","lat":"31.201994","category":"47","category_name":"住宅区","address":"长宁区延安西路2201号国贸中心1楼东侧(近娄山关路)"},{"poiid":"B2094757D469A0FD4893","title":"吉范尼斯意大利餐厅 Giovanni's","lon":"121.405629054","lat":"31.204849793","category":"98","category_name":"意式菜品餐厅","address":"长宁区遵义南路5号虹桥喜来登上海太平洋大饭店27楼(兴义路口)"},{"poiid":"B2094757D465A3F84092","title":"中国餐馆","lon":"121.402915054","lat":"31.202273793","category":"76","category_name":"上海菜","address":"长宁区娄山关路35号新虹桥俱乐部1楼(近延安西路)"},{"poiid":"B2094757D069AAFC459C","title":"万都商城","lon":"121.40556491","lat":"31.204932236","category":"119","category_name":"商场","address":"长宁区兴义路8号万都中心大厦内(近遵义路)"},{"poiid":"B2094751DA6BA0F5429E","title":"有喜屋","lon":"121.403342","lat":"31.205238","category":"247","category_name":"餐饮美食","address":"长宁区延安西路2073号M101室(近仙霞路)"},{"poiid":"B2094757D069A7FC4699","title":"吉盛伟邦(长宁店)","lon":"121.40265096","lat":"31.203771911","category":"123","category_name":"家具建材市场","address":"长宁区娄山关路75号(近延安西路)"},{"poiid":"B2094757D764A5FA429C","title":"韩一拌饭馆","lon":"121.402782","lat":"31.204258","category":"96","category_name":"韩国料理","address":"长宁区娄山关路(近古北路口)"},{"poiid":"B2094757D56CABFD4993","title":"太阳咖啡面包 仙霞路店 SUN Cafe&Bakery","lon":"121.403133054","lat":"31.205155793","category":"112","category_name":"糕饼店","address":"长宁区仙霞路88号太阳广场2楼(近娄山关路)"},{"poiid":"B209475CD764A5F8479C","title":"鼎泰丰 尚嘉中心店","lon":"121.4057392","lat":"31.2053249","category":"91","category_name":"台湾菜","address":"仙霞路99号尚嘉中心3楼311单元遵义路"},{"poiid":"B2094757D66BA1FC4899","title":"东亚酒家","lon":"121.403749","lat":"31.203815","category":"79","category_name":"福建菜","address":"长宁区兴义路38号新世纪广场(近遵义南路万都中心)"},{"poiid":"B2094757D16EAAF54799","title":"翠竹小馆","lon":"121.4061","lat":"31.20267","category":"72","category_name":"广东菜","address":"长宁区延安西路2099号扬子江万丽酒店2楼(延安西路遵义南路)"},{"poiid":"B2094654DB69A0F54298","title":"农夫之家","lon":"121.405629054","lat":"31.204849793","category":"112","category_name":"糕饼店","address":"长宁区遵义南路5号虹桥喜来登上海太平洋大饭店2楼(兴义路口)"},{"poiid":"B2094654DB6BA7FE4399","title":"思妍丽","lon":"121.4038","lat":"31.20494","category":"148","category_name":"美容美发店","address":"长宁区仙霞路88号太阳广场1楼(近娄山关路)"},{"poiid":"B2094655D36DA1F44592","title":"仙霞路遵义路","lon":"121.40456","lat":"31.20568","category":"38","category_name":"公交车站","address":""},{"poiid":"B2094655D26AA5F54199","title":"康骏保健中心新世纪广场店","lon":"121.40379","lat":"31.20455","category":"247","category_name":"餐饮美食","address":"长宁区兴义路48号新世纪广场1楼(近娄山关路)"}]