[{"poiid":"B2094757D06FA6FA459E","title":"保利叶上海","lon":"121.371","lat":"31.3563","category":"47","category_name":"住宅区","address":"上海宝山区菊太路1198弄"},{"poiid":"B2094757D064A4F8409B","title":"上海衡山北郊宾馆","lon":"121.38487905","lat":"31.3455428044","category":"76","category_name":"上海菜","address":"宝山区顾村镇沪太路4788号顾村公园内"},{"poiid":"B2094757D06FA6FB409B","title":"顾村公园烧烤区","lon":"121.37870995","lat":"31.342285442","category":"196","category_name":"公园","address":"上海市宝山区陆翔路"},{"poiid":"B2094757D069A4F9489B","title":"上海馨佳园","lon":"121.372548679","lat":"31.358028028","category":"47","category_name":"住宅区","address":"上海菊泉街"},{"poiid":"B2094757D06FA5FD439D","title":"馨佳园","lon":"121.36769925","lat":"31.364690317","category":"47","category_name":"住宅区","address":"上海市韶山路418弄"},{"poiid":"B2094751D56AA4F54699","title":"复旦大学附属华山医院北院","lon":"121.374451","lat":"31.347397","category":"627","category_name":"一般地点标志","address":"陆翔路108号"},{"poiid":"B2094757D069A7FC459B","title":"东方帕堤欧","lon":"121.38584","lat":"31.351549","category":"47","category_name":"住宅区","address":"宝山区顾北路691号(近沪太路)"},{"poiid":"B2094654D469A0F54199","title":"好日子大家园A区","lon":"121.35601","lat":"31.34792","category":"47","category_name":"住宅区","address":"菊太路777弄"},{"poiid":"B2094757D465A3F9469C","title":"顾村公园鹰冠庄园","lon":"121.38529968262","lat":"31.347066879273","category":"247","category_name":"餐饮美食","address":"宝山区沪太路4788号顾村公园英伦风情园悦林大道11号查看地图"},{"poiid":"B2094757D069A2FB4092","title":"沪太公路宝安公路","lon":"121.37589603","lat":"31.359785355","category":"260","category_name":"其他","address":"上海宝山区沪太公路宝安公路"},{"poiid":"B2094757D16EA6FB4299","title":"好日子大家园B区","lon":"121.36821619839","lat":"31.355072537655","category":"500","category_name":"未知分类","address":"上海菊太路999弄"},{"poiid":"B2094750D365AAFD429C","title":"重庆刘一手火锅((陆翔路店)","lon":"121.373187","lat":"31.344685","category":"86","category_name":"火锅店","address":"宝山区陆翔路26号(近顾村公园2号口)"},{"poiid":"B2094655D36CA1F94099","title":"刘行","lon":"121.37167","lat":"31.35772","category":"38","category_name":"公交车站","address":""},{"poiid":"B2094757D068ABF9449D","title":"圣卡洛 铂庭","lon":"121.388371","lat":"31.35749","category":"47","category_name":"住宅区","address":"上海沙浦路518弄"},{"poiid":"B2094757D06AA1FE479F","title":"顾北路电台路","lon":"121.393651","lat":"31.351812","category":"500","category_name":"未知分类","address":"上海宝山区顾北路电台路"},{"poiid":"B2094654D469A0F54198","title":"古北陆翔苑","lon":"121.37132","lat":"31.348743","category":"47","category_name":"住宅区","address":"上海陆翔路358弄"},{"poiid":"B2094655D264A0F84299","title":"文宝苑","lon":"121.36794","lat":"31.348257","category":"47","category_name":"住宅区","address":"菊联路89弄"},{"poiid":"B2094757D66CABFA459F","title":"菊泉新城","lon":"121.375124979","lat":"31.3551868744","category":"47","category_name":"住宅区","address":"上海市宝山区菊盛路50弄"},{"poiid":"B2094752D26CA0FF4998","title":"高老庄.绿色传奇","lon":"121.36793","lat":"31.34873","category":"76","category_name":"上海菜","address":"宝山区菊联路118号"},{"poiid":"B2094654D46AA7FC409B","title":"菊泉新城-爱建顾园","lon":"121.38014","lat":"31.3519","category":"47","category_name":"住宅区","address":""},{"poiid":"B2094655D36CA7FE4498","title":"沪太路宝安公路","lon":"121.37603","lat":"31.35993","category":"38","category_name":"公交车站","address":""},{"poiid":"B2094751D569A1FD469C","title":"长宁龙之梦","lon":"121.383063","lat":"31.346911","category":"249","category_name":"购物服务","address":null},{"poiid":"B2094654D469A0F5409A","title":"上海市刘行中学","lon":"121.37387","lat":"31.35592","category":"55","category_name":"中学","address":"上海市宝山区刘行镇菊泉街"},{"poiid":"B2094757D06AABF44493","title":"宝山国际民间艺术博览馆","lon":"121.3877161","lat":"31.346555898","category":"182","category_name":"博物馆","address":"宝山区沪太路4788号(近顾村公园1号门)"},{"poiid":"B2094757D064AAFD4399","title":"丰水宝坻 西苑","lon":"121.393518","lat":"31.355909","category":"500","category_name":"未知分类","address":"上海电台路教育路"},{"poiid":"B2094655D36CA0FC439D","title":"菊太路菊盛路","lon":"121.37021","lat":"31.35242","category":"38","category_name":"公交车站","address":""},{"poiid":"B2094655D36CA2FF459B","title":"羌家村","lon":"121.38179","lat":"31.35921","category":"38","category_name":"公交车站","address":""},{"poiid":"B2094757D569A0F9439C","title":"菊泉街300弄","lon":"121.38124522819","lat":"31.360062012828","category":"47","category_name":"住宅区","address":"上海市宝山区菊泉街398,404号"},{"poiid":"B2094757D568A7F44399","title":"绿地公园壹品","lon":"121.3848917","lat":"31.35653167","category":"47","category_name":"住宅区","address":"宝山区沙浦路附近"},{"poiid":"B2094757D16CA0FF4999","title":"醒狮大酒店","lon":"121.3645","lat":"31.34986","category":"76","category_name":"上海菜","address":"宝山区菊太路855号(菊盛路)"},{"poiid":"B2094654D469A0F54098","title":"菊泉公寓","lon":"121.37437","lat":"31.355921","category":"47","category_name":"住宅区","address":"菊泉街515弄"},{"poiid":"B2094757D068A4FF439B","title":"采菊苑","lon":"121.36539","lat":"31.349243","category":"47","category_name":"住宅区","address":"上海菊联路68弄"},{"poiid":"B2094757DA6FA3FF4993","title":"好日子大家园D区","lon":"121.37950444423","lat":"31.360246626725","category":"252","category_name":"楼宇机构","address":"上海市宝山区菊太路1399弄"},{"poiid":"B2094757D16CA1F8419A","title":"菊泉新城39弄","lon":"121.378214679","lat":"31.3516941085","category":"47","category_name":"住宅区","address":"上海市宝山区菊太路"},{"poiid":"B2094757D16CA1F94198","title":"美景良城","lon":"121.37167291664","lat":"31.352694313464","category":"47","category_name":"住宅区","address":"上海市宝山区菊联路233弄"},{"poiid":"B2094751D569A7F8409D","title":"美兰湖·领域","lon":"121.379669","lat":"31.358475","category":"251","category_name":"出行住宿","address":"宝山区罗芬路98号"},{"poiid":"B2094654DB69A0F44798","title":"刘行派出所","lon":"121.37438","lat":"31.35563","category":"609","category_name":"警察局","address":"宝山区宝安公路1435号"},{"poiid":"B2094757D16FABFB429C","title":"烨王府","lon":"121.375481279","lat":"31.3612173881","category":"247","category_name":"餐饮美食","address":"上海电台路599弄"},{"poiid":"B2094757D06AA0FA4499","title":"丰水宝坻","lon":"121.39216691","lat":"31.357603336","category":"253","category_name":"校园生活","address":"上海电台路教育路"},{"poiid":"B2094654DB69A7FA459D","title":"宝山区刘行税务所办税服务窗口","lon":"121.37432","lat":"31.35521","category":"250","category_name":"公园户外","address":"宝山区菊泉路456号"},{"poiid":"B2094654D469A0F5409C","title":"上海市地方税务局宝山区分局第十二税务所","lon":"121.37464","lat":"31.35452","category":"250","category_name":"公园户外","address":"菊泉街456"},{"poiid":"B2094654D469A0F5409F","title":"宝山区国家税务局第十二税务所","lon":"121.37463","lat":"31.35451","category":"250","category_name":"公园户外","address":"菊泉街456"},{"poiid":"B2094757D569A3F8479F","title":"绿洲花园A块商业","lon":"121.3857858","lat":"31.35598278","category":"47","category_name":"住宅区","address":"沙浦路128弄"},{"poiid":"B2094757D169A2F9499A","title":"菊翔苑","lon":"121.37411499","lat":"31.356494903","category":"252","category_name":"楼宇机构","address":"上海市菊联路"},{"poiid":"B2094757D164ABF54292","title":"移动刘行营业厅","lon":"121.375296679","lat":"31.3553429273","category":"150","category_name":"银行","address":"上海菊太路325弄3号楼1027室"},{"poiid":"B2094751DA68AAFA4699","title":"美蘭湖","lon":"121.379592","lat":"31.352821","category":"500","category_name":"未知分类","address":null},{"poiid":"B2094655D36CA7FE439E","title":"沪太路顾北路","lon":"121.38204","lat":"31.35068","category":"38","category_name":"公交车站","address":""},{"poiid":"B2094654D469A0F84398","title":"菊泉学校","lon":"121.37205","lat":"31.35425","category":"55","category_name":"中学","address":"菊太路321号"},{"poiid":"B2094757D065A0FF459A","title":"好日子大家园C区","lon":"121.36391658736","lat":"31.35359507632","category":"500","category_name":"未知分类","address":"上海菊太路1221弄"},{"poiid":"B2094757D06AAAF54899","title":"宝安公路菊泉街","lon":"121.37276807","lat":"31.357912508","category":"260","category_name":"其他","address":"上海宝安公路菊泉街"},{"poiid":"B2094757D06FA6FA459E","title":"保利叶上海","lon":"121.371","lat":"31.3563","category":"47","category_name":"住宅区","address":"上海宝山区菊太路1198弄"},{"poiid":"B2094757D064A4F8409B","title":"上海衡山北郊宾馆","lon":"121.38487905","lat":"31.3455428044","category":"76","category_name":"上海菜","address":"宝山区顾村镇沪太路4788号顾村公园内"},{"poiid":"B2094757D06FA6FB409B","title":"顾村公园烧烤区","lon":"121.37870995","lat":"31.342285442","category":"196","category_name":"公园","address":"上海市宝山区陆翔路"},{"poiid":"B2094757D069A4F9489B","title":"上海馨佳园","lon":"121.372548679","lat":"31.358028028","category":"47","category_name":"住宅区","address":"上海菊泉街"},{"poiid":"B2094757D06FA5FD439D","title":"馨佳园","lon":"121.36769925","lat":"31.364690317","category":"47","category_name":"住宅区","address":"上海市韶山路418弄"},{"poiid":"B2094751D56AA4F54699","title":"复旦大学附属华山医院北院","lon":"121.374451","lat":"31.347397","category":"627","category_name":"一般地点标志","address":"陆翔路108号"},{"poiid":"B2094757D069A7FC459B","title":"东方帕堤欧","lon":"121.38584","lat":"31.351549","category":"47","category_name":"住宅区","address":"宝山区顾北路691号(近沪太路)"},{"poiid":"B2094654D469A0F54199","title":"好日子大家园A区","lon":"121.35601","lat":"31.34792","category":"47","category_name":"住宅区","address":"菊太路777弄"},{"poiid":"B2094757D465A3F9469C","title":"顾村公园鹰冠庄园","lon":"121.38529968262","lat":"31.347066879273","category":"247","category_name":"餐饮美食","address":"宝山区沪太路4788号顾村公园英伦风情园悦林大道11号查看地图"},{"poiid":"B2094757D069A2FB4092","title":"沪太公路宝安公路","lon":"121.37589603","lat":"31.359785355","category":"260","category_name":"其他","address":"上海宝山区沪太公路宝安公路"},{"poiid":"B2094757D16EA6FB4299","title":"好日子大家园B区","lon":"121.36821619839","lat":"31.355072537655","category":"500","category_name":"未知分类","address":"上海菊太路999弄"},{"poiid":"B2094750D365AAFD429C","title":"重庆刘一手火锅((陆翔路店)","lon":"121.373187","lat":"31.344685","category":"86","category_name":"火锅店","address":"宝山区陆翔路26号(近顾村公园2号口)"},{"poiid":"B2094655D36CA1F94099","title":"刘行","lon":"121.37167","lat":"31.35772","category":"38","category_name":"公交车站","address":""},{"poiid":"B2094757D068ABF9449D","title":"圣卡洛 铂庭","lon":"121.388371","lat":"31.35749","category":"47","category_name":"住宅区","address":"上海沙浦路518弄"},{"poiid":"B2094757D06AA1FE479F","title":"顾北路电台路","lon":"121.393651","lat":"31.351812","category":"500","category_name":"未知分类","address":"上海宝山区顾北路电台路"},{"poiid":"B2094654D469A0F54198","title":"古北陆翔苑","lon":"121.37132","lat":"31.348743","category":"47","category_name":"住宅区","address":"上海陆翔路358弄"},{"poiid":"B2094655D264A0F84299","title":"文宝苑","lon":"121.36794","lat":"31.348257","category":"47","category_name":"住宅区","address":"菊联路89弄"},{"poiid":"B2094757D66CABFA459F","title":"菊泉新城","lon":"121.375124979","lat":"31.3551868744","category":"47","category_name":"住宅区","address":"上海市宝山区菊盛路50弄"},{"poiid":"B2094752D26CA0FF4998","title":"高老庄.绿色传奇","lon":"121.36793","lat":"31.34873","category":"76","category_name":"上海菜","address":"宝山区菊联路118号"},{"poiid":"B2094654D46AA7FC409B","title":"菊泉新城-爱建顾园","lon":"121.38014","lat":"31.3519","category":"47","category_name":"住宅区","address":""},{"poiid":"B2094655D36CA7FE4498","title":"沪太路宝安公路","lon":"121.37603","lat":"31.35993","category":"38","category_name":"公交车站","address":""},{"poiid":"B2094751D569A1FD469C","title":"长宁龙之梦","lon":"121.383063","lat":"31.346911","category":"249","category_name":"购物服务","address":null},{"poiid":"B2094654D469A0F5409A","title":"上海市刘行中学","lon":"121.37387","lat":"31.35592","category":"55","category_name":"中学","address":"上海市宝山区刘行镇菊泉街"},{"poiid":"B2094757D06AABF44493","title":"宝山国际民间艺术博览馆","lon":"121.3877161","lat":"31.346555898","category":"182","category_name":"博物馆","address":"宝山区沪太路4788号(近顾村公园1号门)"},{"poiid":"B2094757D064AAFD4399","title":"丰水宝坻 西苑","lon":"121.393518","lat":"31.355909","category":"500","category_name":"未知分类","address":"上海电台路教育路"},{"poiid":"B2094655D36CA0FC439D","title":"菊太路菊盛路","lon":"121.37021","lat":"31.35242","category":"38","category_name":"公交车站","address":""},{"poiid":"B2094655D36CA2FF459B","title":"羌家村","lon":"121.38179","lat":"31.35921","category":"38","category_name":"公交车站","address":""},{"poiid":"B2094757D569A0F9439C","title":"菊泉街300弄","lon":"121.38124522819","lat":"31.360062012828","category":"47","category_name":"住宅区","address":"上海市宝山区菊泉街398,404号"},{"poiid":"B2094757D568A7F44399","title":"绿地公园壹品","lon":"121.3848917","lat":"31.35653167","category":"47","category_name":"住宅区","address":"宝山区沙浦路附近"},{"poiid":"B2094757D16CA0FF4999","title":"醒狮大酒店","lon":"121.3645","lat":"31.34986","category":"76","category_name":"上海菜","address":"宝山区菊太路855号(菊盛路)"},{"poiid":"B2094654D469A0F54098","title":"菊泉公寓","lon":"121.37437","lat":"31.355921","category":"47","category_name":"住宅区","address":"菊泉街515弄"},{"poiid":"B2094757D068A4FF439B","title":"采菊苑","lon":"121.36539","lat":"31.349243","category":"47","category_name":"住宅区","address":"上海菊联路68弄"},{"poiid":"B2094757DA6FA3FF4993","title":"好日子大家园D区","lon":"121.37950444423","lat":"31.360246626725","category":"252","category_name":"楼宇机构","address":"上海市宝山区菊太路1399弄"},{"poiid":"B2094757D16CA1F8419A","title":"菊泉新城39弄","lon":"121.378214679","lat":"31.3516941085","category":"47","category_name":"住宅区","address":"上海市宝山区菊太路"},{"poiid":"B2094757D16CA1F94198","title":"美景良城","lon":"121.37167291664","lat":"31.352694313464","category":"47","category_name":"住宅区","address":"上海市宝山区菊联路233弄"},{"poiid":"B2094751D569A7F8409D","title":"美兰湖·领域","lon":"121.379669","lat":"31.358475","category":"251","category_name":"出行住宿","address":"宝山区罗芬路98号"},{"poiid":"B2094654DB69A0F44798","title":"刘行派出所","lon":"121.37438","lat":"31.35563","category":"609","category_name":"警察局","address":"宝山区宝安公路1435号"},{"poiid":"B2094757D16FABFB429C","title":"烨王府","lon":"121.375481279","lat":"31.3612173881","category":"247","category_name":"餐饮美食","address":"上海电台路599弄"},{"poiid":"B2094757D06AA0FA4499","title":"丰水宝坻","lon":"121.39216691","lat":"31.357603336","category":"253","category_name":"校园生活","address":"上海电台路教育路"},{"poiid":"B2094654DB69A7FA459D","title":"宝山区刘行税务所办税服务窗口","lon":"121.37432","lat":"31.35521","category":"250","category_name":"公园户外","address":"宝山区菊泉路456号"},{"poiid":"B2094654D469A0F5409C","title":"上海市地方税务局宝山区分局第十二税务所","lon":"121.37464","lat":"31.35452","category":"250","category_name":"公园户外","address":"菊泉街456"},{"poiid":"B2094654D469A0F5409F","title":"宝山区国家税务局第十二税务所","lon":"121.37463","lat":"31.35451","category":"250","category_name":"公园户外","address":"菊泉街456"},{"poiid":"B2094757D569A3F8479F","title":"绿洲花园A块商业","lon":"121.3857858","lat":"31.35598278","category":"47","category_name":"住宅区","address":"沙浦路128弄"},{"poiid":"B2094757D169A2F9499A","title":"菊翔苑","lon":"121.37411499","lat":"31.356494903","category":"252","category_name":"楼宇机构","address":"上海市菊联路"},{"poiid":"B2094757D164ABF54292","title":"移动刘行营业厅","lon":"121.375296679","lat":"31.3553429273","category":"150","category_name":"银行","address":"上海菊太路325弄3号楼1027室"},{"poiid":"B2094751DA68AAFA4699","title":"美蘭湖","lon":"121.379592","lat":"31.352821","category":"500","category_name":"未知分类","address":null},{"poiid":"B2094655D36CA7FE439E","title":"沪太路顾北路","lon":"121.38204","lat":"31.35068","category":"38","category_name":"公交车站","address":""},{"poiid":"B2094654D469A0F84398","title":"菊泉学校","lon":"121.37205","lat":"31.35425","category":"55","category_name":"中学","address":"菊太路321号"},{"poiid":"B2094757D065A0FF459A","title":"好日子大家园C区","lon":"121.36391658736","lat":"31.35359507632","category":"500","category_name":"未知分类","address":"上海菊太路1221弄"},{"poiid":"B2094757D06AAAF54899","title":"宝安公路菊泉街","lon":"121.37276807","lat":"31.357912508","category":"260","category_name":"其他","address":"上海宝安公路菊泉街"},{"poiid":"B2094757D06FA6FA459E","title":"保利叶上海","lon":"121.371","lat":"31.3563","category":"47","category_name":"住宅区","address":"上海宝山区菊太路1198弄"},{"poiid":"B2094757D064A4F8409B","title":"上海衡山北郊宾馆","lon":"121.38487905","lat":"31.3455428044","category":"76","category_name":"上海菜","address":"宝山区顾村镇沪太路4788号顾村公园内"},{"poiid":"B2094757D06FA6FB409B","title":"顾村公园烧烤区","lon":"121.37870995","lat":"31.342285442","category":"196","category_name":"公园","address":"上海市宝山区陆翔路"},{"poiid":"B2094757D069A4F9489B","title":"上海馨佳园","lon":"121.372548679","lat":"31.358028028","category":"47","category_name":"住宅区","address":"上海菊泉街"},{"poiid":"B2094757D06FA5FD439D","title":"馨佳园","lon":"121.36769925","lat":"31.364690317","category":"47","category_name":"住宅区","address":"上海市韶山路418弄"},{"poiid":"B2094751D56AA4F54699","title":"复旦大学附属华山医院北院","lon":"121.374451","lat":"31.347397","category":"627","category_name":"一般地点标志","address":"陆翔路108号"},{"poiid":"B2094757D069A7FC459B","title":"东方帕堤欧","lon":"121.38584","lat":"31.351549","category":"47","category_name":"住宅区","address":"宝山区顾北路691号(近沪太路)"},{"poiid":"B2094654D469A0F54199","title":"好日子大家园A区","lon":"121.35601","lat":"31.34792","category":"47","category_name":"住宅区","address":"菊太路777弄"},{"poiid":"B2094757D465A3F9469C","title":"顾村公园鹰冠庄园","lon":"121.38529968262","lat":"31.347066879273","category":"247","category_name":"餐饮美食","address":"宝山区沪太路4788号顾村公园英伦风情园悦林大道11号查看地图"},{"poiid":"B2094757D069A2FB4092","title":"沪太公路宝安公路","lon":"121.37589603","lat":"31.359785355","category":"260","category_name":"其他","address":"上海宝山区沪太公路宝安公路"},{"poiid":"B2094757D16EA6FB4299","title":"好日子大家园B区","lon":"121.36821619839","lat":"31.355072537655","category":"500","category_name":"未知分类","address":"上海菊太路999弄"},{"poiid":"B2094750D365AAFD429C","title":"重庆刘一手火锅((陆翔路店)","lon":"121.373187","lat":"31.344685","category":"86","category_name":"火锅店","address":"宝山区陆翔路26号(近顾村公园2号口)"},{"poiid":"B2094655D36CA1F94099","title":"刘行","lon":"121.37167","lat":"31.35772","category":"38","category_name":"公交车站","address":""},{"poiid":"B2094757D068ABF9449D","title":"圣卡洛 铂庭","lon":"121.388371","lat":"31.35749","category":"47","category_name":"住宅区","address":"上海沙浦路518弄"},{"poiid":"B2094757D06AA1FE479F","title":"顾北路电台路","lon":"121.393651","lat":"31.351812","category":"500","category_name":"未知分类","address":"上海宝山区顾北路电台路"},{"poiid":"B2094654D469A0F54198","title":"古北陆翔苑","lon":"121.37132","lat":"31.348743","category":"47","category_name":"住宅区","address":"上海陆翔路358弄"},{"poiid":"B2094655D264A0F84299","title":"文宝苑","lon":"121.36794","lat":"31.348257","category":"47","category_name":"住宅区","address":"菊联路89弄"},{"poiid":"B2094757D66CABFA459F","title":"菊泉新城","lon":"121.375124979","lat":"31.3551868744","category":"47","category_name":"住宅区","address":"上海市宝山区菊盛路50弄"},{"poiid":"B2094752D26CA0FF4998","title":"高老庄.绿色传奇","lon":"121.36793","lat":"31.34873","category":"76","category_name":"上海菜","address":"宝山区菊联路118号"},{"poiid":"B2094654D46AA7FC409B","title":"菊泉新城-爱建顾园","lon":"121.38014","lat":"31.3519","category":"47","category_name":"住宅区","address":""},{"poiid":"B2094655D36CA7FE4498","title":"沪太路宝安公路","lon":"121.37603","lat":"31.35993","category":"38","category_name":"公交车站","address":""},{"poiid":"B2094751D569A1FD469C","title":"长宁龙之梦","lon":"121.383063","lat":"31.346911","category":"249","category_name":"购物服务","address":null},{"poiid":"B2094654D469A0F5409A","title":"上海市刘行中学","lon":"121.37387","lat":"31.35592","category":"55","category_name":"中学","address":"上海市宝山区刘行镇菊泉街"},{"poiid":"B2094757D06AABF44493","title":"宝山国际民间艺术博览馆","lon":"121.3877161","lat":"31.346555898","category":"182","category_name":"博物馆","address":"宝山区沪太路4788号(近顾村公园1号门)"},{"poiid":"B2094757D064AAFD4399","title":"丰水宝坻 西苑","lon":"121.393518","lat":"31.355909","category":"500","category_name":"未知分类","address":"上海电台路教育路"},{"poiid":"B2094655D36CA0FC439D","title":"菊太路菊盛路","lon":"121.37021","lat":"31.35242","category":"38","category_name":"公交车站","address":""},{"poiid":"B2094655D36CA2FF459B","title":"羌家村","lon":"121.38179","lat":"31.35921","category":"38","category_name":"公交车站","address":""},{"poiid":"B2094757D569A0F9439C","title":"菊泉街300弄","lon":"121.38124522819","lat":"31.360062012828","category":"47","category_name":"住宅区","address":"上海市宝山区菊泉街398,404号"},{"poiid":"B2094757D568A7F44399","title":"绿地公园壹品","lon":"121.3848917","lat":"31.35653167","category":"47","category_name":"住宅区","address":"宝山区沙浦路附近"},{"poiid":"B2094757D16CA0FF4999","title":"醒狮大酒店","lon":"121.3645","lat":"31.34986","category":"76","category_name":"上海菜","address":"宝山区菊太路855号(菊盛路)"},{"poiid":"B2094654D469A0F54098","title":"菊泉公寓","lon":"121.37437","lat":"31.355921","category":"47","category_name":"住宅区","address":"菊泉街515弄"},{"poiid":"B2094757D068A4FF439B","title":"采菊苑","lon":"121.36539","lat":"31.349243","category":"47","category_name":"住宅区","address":"上海菊联路68弄"},{"poiid":"B2094757DA6FA3FF4993","title":"好日子大家园D区","lon":"121.37950444423","lat":"31.360246626725","category":"252","category_name":"楼宇机构","address":"上海市宝山区菊太路1399弄"},{"poiid":"B2094757D16CA1F8419A","title":"菊泉新城39弄","lon":"121.378214679","lat":"31.3516941085","category":"47","category_name":"住宅区","address":"上海市宝山区菊太路"},{"poiid":"B2094757D16CA1F94198","title":"美景良城","lon":"121.37167291664","lat":"31.352694313464","category":"47","category_name":"住宅区","address":"上海市宝山区菊联路233弄"},{"poiid":"B2094751D569A7F8409D","title":"美兰湖·领域","lon":"121.379669","lat":"31.358475","category":"251","category_name":"出行住宿","address":"宝山区罗芬路98号"},{"poiid":"B2094654DB69A0F44798","title":"刘行派出所","lon":"121.37438","lat":"31.35563","category":"609","category_name":"警察局","address":"宝山区宝安公路1435号"},{"poiid":"B2094757D16FABFB429C","title":"烨王府","lon":"121.375481279","lat":"31.3612173881","category":"247","category_name":"餐饮美食","address":"上海电台路599弄"},{"poiid":"B2094757D06AA0FA4499","title":"丰水宝坻","lon":"121.39216691","lat":"31.357603336","category":"253","category_name":"校园生活","address":"上海电台路教育路"},{"poiid":"B2094654DB69A7FA459D","title":"宝山区刘行税务所办税服务窗口","lon":"121.37432","lat":"31.35521","category":"250","category_name":"公园户外","address":"宝山区菊泉路456号"},{"poiid":"B2094654D469A0F5409C","title":"上海市地方税务局宝山区分局第十二税务所","lon":"121.37464","lat":"31.35452","category":"250","category_name":"公园户外","address":"菊泉街456"},{"poiid":"B2094654D469A0F5409F","title":"宝山区国家税务局第十二税务所","lon":"121.37463","lat":"31.35451","category":"250","category_name":"公园户外","address":"菊泉街456"},{"poiid":"B2094757D569A3F8479F","title":"绿洲花园A块商业","lon":"121.3857858","lat":"31.35598278","category":"47","category_name":"住宅区","address":"沙浦路128弄"},{"poiid":"B2094757D169A2F9499A","title":"菊翔苑","lon":"121.37411499","lat":"31.356494903","category":"252","category_name":"楼宇机构","address":"上海市菊联路"},{"poiid":"B2094757D164ABF54292","title":"移动刘行营业厅","lon":"121.375296679","lat":"31.3553429273","category":"150","category_name":"银行","address":"上海菊太路325弄3号楼1027室"},{"poiid":"B2094751DA68AAFA4699","title":"美蘭湖","lon":"121.379592","lat":"31.352821","category":"500","category_name":"未知分类","address":null},{"poiid":"B2094655D36CA7FE439E","title":"沪太路顾北路","lon":"121.38204","lat":"31.35068","category":"38","category_name":"公交车站","address":""},{"poiid":"B2094654D469A0F84398","title":"菊泉学校","lon":"121.37205","lat":"31.35425","category":"55","category_name":"中学","address":"菊太路321号"},{"poiid":"B2094757D065A0FF459A","title":"好日子大家园C区","lon":"121.36391658736","lat":"31.35359507632","category":"500","category_name":"未知分类","address":"上海菊太路1221弄"},{"poiid":"B2094757D06AAAF54899","title":"宝安公路菊泉街","lon":"121.37276807","lat":"31.357912508","category":"260","category_name":"其他","address":"上海宝安公路菊泉街"},{"poiid":"B2094757D06FA6FA459E","title":"保利叶上海","lon":"121.371","lat":"31.3563","category":"47","category_name":"住宅区","address":"上海宝山区菊太路1198弄"},{"poiid":"B2094757D064A4F8409B","title":"上海衡山北郊宾馆","lon":"121.38487905","lat":"31.3455428044","category":"76","category_name":"上海菜","address":"宝山区顾村镇沪太路4788号顾村公园内"},{"poiid":"B2094757D06FA6FB409B","title":"顾村公园烧烤区","lon":"121.37870995","lat":"31.342285442","category":"196","category_name":"公园","address":"上海市宝山区陆翔路"},{"poiid":"B2094757D069A4F9489B","title":"上海馨佳园","lon":"121.372548679","lat":"31.358028028","category":"47","category_name":"住宅区","address":"上海菊泉街"},{"poiid":"B2094757D06FA5FD439D","title":"馨佳园","lon":"121.36769925","lat":"31.364690317","category":"47","category_name":"住宅区","address":"上海市韶山路418弄"},{"poiid":"B2094751D56AA4F54699","title":"复旦大学附属华山医院北院","lon":"121.374451","lat":"31.347397","category":"627","category_name":"一般地点标志","address":"陆翔路108号"},{"poiid":"B2094757D069A7FC459B","title":"东方帕堤欧","lon":"121.38584","lat":"31.351549","category":"47","category_name":"住宅区","address":"宝山区顾北路691号(近沪太路)"},{"poiid":"B2094654D469A0F54199","title":"好日子大家园A区","lon":"121.35601","lat":"31.34792","category":"47","category_name":"住宅区","address":"菊太路777弄"},{"poiid":"B2094757D465A3F9469C","title":"顾村公园鹰冠庄园","lon":"121.38529968262","lat":"31.347066879273","category":"247","category_name":"餐饮美食","address":"宝山区沪太路4788号顾村公园英伦风情园悦林大道11号查看地图"},{"poiid":"B2094757D069A2FB4092","title":"沪太公路宝安公路","lon":"121.37589603","lat":"31.359785355","category":"260","category_name":"其他","address":"上海宝山区沪太公路宝安公路"},{"poiid":"B2094757D16EA6FB4299","title":"好日子大家园B区","lon":"121.36821619839","lat":"31.355072537655","category":"500","category_name":"未知分类","address":"上海菊太路999弄"},{"poiid":"B2094750D365AAFD429C","title":"重庆刘一手火锅((陆翔路店)","lon":"121.373187","lat":"31.344685","category":"86","category_name":"火锅店","address":"宝山区陆翔路26号(近顾村公园2号口)"},{"poiid":"B2094655D36CA1F94099","title":"刘行","lon":"121.37167","lat":"31.35772","category":"38","category_name":"公交车站","address":""},{"poiid":"B2094757D068ABF9449D","title":"圣卡洛 铂庭","lon":"121.388371","lat":"31.35749","category":"47","category_name":"住宅区","address":"上海沙浦路518弄"},{"poiid":"B2094757D06AA1FE479F","title":"顾北路电台路","lon":"121.393651","lat":"31.351812","category":"500","category_name":"未知分类","address":"上海宝山区顾北路电台路"},{"poiid":"B2094654D469A0F54198","title":"古北陆翔苑","lon":"121.37132","lat":"31.348743","category":"47","category_name":"住宅区","address":"上海陆翔路358弄"},{"poiid":"B2094655D264A0F84299","title":"文宝苑","lon":"121.36794","lat":"31.348257","category":"47","category_name":"住宅区","address":"菊联路89弄"},{"poiid":"B2094757D66CABFA459F","title":"菊泉新城","lon":"121.375124979","lat":"31.3551868744","category":"47","category_name":"住宅区","address":"上海市宝山区菊盛路50弄"},{"poiid":"B2094752D26CA0FF4998","title":"高老庄.绿色传奇","lon":"121.36793","lat":"31.34873","category":"76","category_name":"上海菜","address":"宝山区菊联路118号"},{"poiid":"B2094654D46AA7FC409B","title":"菊泉新城-爱建顾园","lon":"121.38014","lat":"31.3519","category":"47","category_name":"住宅区","address":""},{"poiid":"B2094655D36CA7FE4498","title":"沪太路宝安公路","lon":"121.37603","lat":"31.35993","category":"38","category_name":"公交车站","address":""},{"poiid":"B2094751D569A1FD469C","title":"长宁龙之梦","lon":"121.383063","lat":"31.346911","category":"249","category_name":"购物服务","address":null},{"poiid":"B2094654D469A0F5409A","title":"上海市刘行中学","lon":"121.37387","lat":"31.35592","category":"55","category_name":"中学","address":"上海市宝山区刘行镇菊泉街"},{"poiid":"B2094757D06AABF44493","title":"宝山国际民间艺术博览馆","lon":"121.3877161","lat":"31.346555898","category":"182","category_name":"博物馆","address":"宝山区沪太路4788号(近顾村公园1号门)"},{"poiid":"B2094757D064AAFD4399","title":"丰水宝坻 西苑","lon":"121.393518","lat":"31.355909","category":"500","category_name":"未知分类","address":"上海电台路教育路"},{"poiid":"B2094655D36CA0FC439D","title":"菊太路菊盛路","lon":"121.37021","lat":"31.35242","category":"38","category_name":"公交车站","address":""},{"poiid":"B2094655D36CA2FF459B","title":"羌家村","lon":"121.38179","lat":"31.35921","category":"38","category_name":"公交车站","address":""},{"poiid":"B2094757D569A0F9439C","title":"菊泉街300弄","lon":"121.38124522819","lat":"31.360062012828","category":"47","category_name":"住宅区","address":"上海市宝山区菊泉街398,404号"},{"poiid":"B2094757D568A7F44399","title":"绿地公园壹品","lon":"121.3848917","lat":"31.35653167","category":"47","category_name":"住宅区","address":"宝山区沙浦路附近"},{"poiid":"B2094757D16CA0FF4999","title":"醒狮大酒店","lon":"121.3645","lat":"31.34986","category":"76","category_name":"上海菜","address":"宝山区菊太路855号(菊盛路)"},{"poiid":"B2094654D469A0F54098","title":"菊泉公寓","lon":"121.37437","lat":"31.355921","category":"47","category_name":"住宅区","address":"菊泉街515弄"},{"poiid":"B2094757D068A4FF439B","title":"采菊苑","lon":"121.36539","lat":"31.349243","category":"47","category_name":"住宅区","address":"上海菊联路68弄"},{"poiid":"B2094757DA6FA3FF4993","title":"好日子大家园D区","lon":"121.37950444423","lat":"31.360246626725","category":"252","category_name":"楼宇机构","address":"上海市宝山区菊太路1399弄"},{"poiid":"B2094757D16CA1F8419A","title":"菊泉新城39弄","lon":"121.378214679","lat":"31.3516941085","category":"47","category_name":"住宅区","address":"上海市宝山区菊太路"},{"poiid":"B2094757D16CA1F94198","title":"美景良城","lon":"121.37167291664","lat":"31.352694313464","category":"47","category_name":"住宅区","address":"上海市宝山区菊联路233弄"},{"poiid":"B2094751D569A7F8409D","title":"美兰湖·领域","lon":"121.379669","lat":"31.358475","category":"251","category_name":"出行住宿","address":"宝山区罗芬路98号"},{"poiid":"B2094654DB69A0F44798","title":"刘行派出所","lon":"121.37438","lat":"31.35563","category":"609","category_name":"警察局","address":"宝山区宝安公路1435号"},{"poiid":"B2094757D16FABFB429C","title":"烨王府","lon":"121.375481279","lat":"31.3612173881","category":"247","category_name":"餐饮美食","address":"上海电台路599弄"},{"poiid":"B2094757D06AA0FA4499","title":"丰水宝坻","lon":"121.39216691","lat":"31.357603336","category":"253","category_name":"校园生活","address":"上海电台路教育路"},{"poiid":"B2094654DB69A7FA459D","title":"宝山区刘行税务所办税服务窗口","lon":"121.37432","lat":"31.35521","category":"250","category_name":"公园户外","address":"宝山区菊泉路456号"},{"poiid":"B2094654D469A0F5409C","title":"上海市地方税务局宝山区分局第十二税务所","lon":"121.37464","lat":"31.35452","category":"250","category_name":"公园户外","address":"菊泉街456"},{"poiid":"B2094654D469A0F5409F","title":"宝山区国家税务局第十二税务所","lon":"121.37463","lat":"31.35451","category":"250","category_name":"公园户外","address":"菊泉街456"},{"poiid":"B2094757D569A3F8479F","title":"绿洲花园A块商业","lon":"121.3857858","lat":"31.35598278","category":"47","category_name":"住宅区","address":"沙浦路128弄"},{"poiid":"B2094757D169A2F9499A","title":"菊翔苑","lon":"121.37411499","lat":"31.356494903","category":"252","category_name":"楼宇机构","address":"上海市菊联路"},{"poiid":"B2094757D164ABF54292","title":"移动刘行营业厅","lon":"121.375296679","lat":"31.3553429273","category":"150","category_name":"银行","address":"上海菊太路325弄3号楼1027室"},{"poiid":"B2094751DA68AAFA4699","title":"美蘭湖","lon":"121.379592","lat":"31.352821","category":"500","category_name":"未知分类","address":null},{"poiid":"B2094655D36CA7FE439E","title":"沪太路顾北路","lon":"121.38204","lat":"31.35068","category":"38","category_name":"公交车站","address":""},{"poiid":"B2094654D469A0F84398","title":"菊泉学校","lon":"121.37205","lat":"31.35425","category":"55","category_name":"中学","address":"菊太路321号"},{"poiid":"B2094757D065A0FF459A","title":"好日子大家园C区","lon":"121.36391658736","lat":"31.35359507632","category":"500","category_name":"未知分类","address":"上海菊太路1221弄"},{"poiid":"B2094757D06AAAF54899","title":"宝安公路菊泉街","lon":"121.37276807","lat":"31.357912508","category":"260","category_name":"其他","address":"上海宝安公路菊泉街"}]