[{"poiid":"B2094757D66FA6FA479D","title":"七浦路","lon":"121.48266","lat":"31.244241","category":"141","category_name":"服装鞋帽皮具店","address":"上海七浦路,兴旺服饰城"},{"poiid":"B2094654DA6FA6F4429D","title":"七浦路服装批发市场(七浦路)","lon":"121.47849","lat":"31.24509","category":"141","category_name":"服装鞋帽皮具店","address":"闸北区七浦路303号(近河南北路)"},{"poiid":"B2094757D06FA2FC439B","title":"天潼路地铁站","lon":"121.482454","lat":"31.244087","category":"36","category_name":"地铁站","address":"虹口区河南北路天潼路"},{"poiid":"B209475CD564A7F84292","title":"上海滩新天地店","lon":"121.47463","lat":"31.22164","category":"119","category_name":"商场","address":"\"太仓路181弄新天地北里15号\r\n\""},{"poiid":"B209475CD564A7F8439E","title":"上海滩中信泰富店","lon":"121.45602","lat":"31.22851","category":"119","category_name":"商场","address":"\"南京西路1168号中信泰富广场，店铺号221.\r\n\""},{"poiid":"B209475CD564A7F84392","title":"上海滩浦东香格里拉店","lon":"121.50058","lat":"31.23634","category":"119","category_name":"商场","address":"浦东富成路33号香格里拉酒店内大堂层"},{"poiid":"B2094757D06FA0F44093","title":"七浦兴旺服饰市场(老兴旺)","lon":"121.482180096","lat":"31.245859573","category":"249","category_name":"购物服务","address":"上海七浦路168号"},{"poiid":"B2094757D06FA1FB4392","title":"港陆黄浦中心","lon":"121.482","lat":"31.2421","category":"46","category_name":"楼宇","address":"上海市杨浦区邯郸路近淞沪路口"},{"poiid":"B2094757D66FA6FA459C","title":"七浦路市场","lon":"121.48208","lat":"31.24561","category":"249","category_name":"购物服务","address":"虹口区七浦路(近河南北路)"},{"poiid":"B2094757D068A4F44098","title":"新金桥广场","lon":"121.479","lat":"31.243","category":"46","category_name":"楼宇","address":"上海市黄浦区北京西路1号"},{"poiid":"B2094757D06FA7FE409D","title":"新七浦服装批发商场","lon":"121.48184542","lat":"31.245351726","category":"141","category_name":"服装鞋帽皮具店","address":"虹口区七浦路179号(近河南北路)"},{"poiid":"B2094757D068A0FF4398","title":"麦当劳(天潼路店)","lon":"121.48337","lat":"31.24366","category":"68","category_name":"快餐厅","address":"虹口区河南北路79-81号联富商场2楼(近天潼路)"},{"poiid":"B2094757D068A0FA4698","title":"肯德基(七浦路店)","lon":"121.480537","lat":"31.24559","category":"68","category_name":"快餐厅","address":"虹口区七浦路133号兴旺国际服饰城1楼(近河南北路)"},{"poiid":"B2094655D264A0FE4099","title":"圣和圣韩国馆","lon":"121.48016","lat":"31.24638","category":"141","category_name":"服装鞋帽皮具店","address":""},{"poiid":"B2094757D069A3FA479D","title":"六合大厦","lon":"121.481","lat":"31.2432","category":"46","category_name":"楼宇","address":"上海市四川北路1851号"},{"poiid":"B2094757D06FA4FD479C","title":"河南北路海宁路","lon":"121.48192792","lat":"31.247266453","category":"500","category_name":"未知分类","address":"上海河南北路海宁路"},{"poiid":"B2094655D26CABF4409A","title":"七浦商业街","lon":"121.48107","lat":"31.24392","category":"116","category_name":"特色商业街","address":""},{"poiid":"B2094757D068ABF44393","title":"美欣大厦","lon":"121.48","lat":"31.2461","category":"46","category_name":"楼宇","address":"浦东临港新城主城区申港大道200号"},{"poiid":"B2094757D069A6FB4398","title":"七浦路韩国馆","lon":"121.4782303","lat":"31.245244","category":"500","category_name":"未知分类","address":"上海七浦路批发市场"},{"poiid":"B2094757D06FA0F8419B","title":"芋贵人(七浦路店)","lon":"121.482102","lat":"31.245791","category":"67","category_name":"甜品店","address":"虹口区七浦路133号兴旺美食城5楼29号(近天潼路)"},{"poiid":"B2094655D26EABFA4693","title":"上海城市管理职业技术学院(河南北路)","lon":"121.48128","lat":"31.2474","category":"52","category_name":"高等院校","address":"河南北路301"},{"poiid":"B2094654DA6FA7F44693","title":"肯德基(天潼路)","lon":"121.48289","lat":"31.24421","category":"68","category_name":"快餐厅","address":"天潼路538"},{"poiid":"B2094654DA6FA6F54592","title":"联富假日公寓","lon":"121.48061","lat":"31.24444","category":"47","category_name":"住宅区","address":"山西北路222弄"},{"poiid":"B2094654DA6FA6F4479F","title":"天星大厦","lon":"121.47881","lat":"31.24381","category":"46","category_name":"楼宇","address":"天潼路768号"},{"poiid":"B2094757D16AA0F84699","title":"真功夫 金浦店","lon":"121.480173054","lat":"31.245301793","category":"68","category_name":"快餐厅","address":"虹口区七浦路258号(山西北路口)"},{"poiid":"B2094655D26DABFB4493","title":"上海豪浦服饰城","lon":"121.48032","lat":"31.24527","category":"141","category_name":"服装鞋帽皮具店","address":"闸北七浦路225号"},{"poiid":"B2094654DB6BABFC499C","title":"味千拉面七浦店","lon":"121.48136","lat":"31.24656","category":"68","category_name":"快餐厅","address":"塘沽路730号圣和圣时尚汇5层"},{"poiid":"B2094654DA6FA7F5489E","title":"河滨大楼","lon":"121.48352","lat":"31.243284","category":"47","category_name":"住宅区","address":"浦东区崂山东路410号"},{"poiid":"B2094655D265A7FF419C","title":"重庆鸡公堡","lon":"121.47906","lat":"31.24336","category":"257","category_name":"中餐厅","address":"黄浦区山西路(近南京东路)"},{"poiid":"B2094750D76FABFE4299","title":"OASE釜山料理","lon":"121.481","lat":"31.2466","category":"96","category_name":"韩国料理","address":"虹口区河南北路233号圣和圣时尚汇5楼(新七浦对面)"},{"poiid":"B2094655D26DA7FD469A","title":"联富假日公寓(西门)","lon":"121.48024","lat":"31.24418","category":"47","category_name":"住宅区","address":"山西北路230"},{"poiid":"B2094757D06AA0F9459C","title":"河南路桥","lon":"121.483150858","lat":"31.2429705716","category":"234","category_name":"海滨浴场","address":"上海河南中路苏州河"},{"poiid":"B2094655D26CABF44399","title":"光明便利七浦店","lon":"121.48001","lat":"31.24474","category":"117","category_name":"便民商店/便利店","address":"山西北路255"},{"poiid":"B2094750D56FA6FD4299","title":"鲁迅公园","lon":"121.482696","lat":"31.242994","category":"500","category_name":"未知分类","address":null},{"poiid":"B2094654DA68A3FA4499","title":"长新大楼","lon":"121.476","lat":"31.2446","category":"46","category_name":"楼宇","address":"静安区长寿路(万航渡路口)"},{"poiid":"B2094752DA65A3F44498","title":"上海外灘","lon":"121.479695","lat":"31.244756","category":"500","category_name":"未知分类","address":"上海市 上海"},{"poiid":"B2094654DA68A3FA469A","title":"家化中房苑","lon":"121.479","lat":"31.2454","category":"46","category_name":"楼宇","address":"西藏中路725弄10-12号"},{"poiid":"B2094757D06AA5FF4892","title":"PRADA (国金中心店)","lon":"121.48038812","lat":"31.241500298","category":"500","category_name":"未知分类","address":"浦东新区世纪大道8号国金中心商场1楼(近东泰路)"},{"poiid":"B2094757D468AAF94193","title":"CHAI Living Lounge","lon":"121.482989","lat":"31.242648","category":"260","category_name":"其他","address":"虹口区北苏州路410号C座1楼(近河南路)"},{"poiid":"B2094655D265A5FF4892","title":"买买提的故事","lon":"121.47857","lat":"31.24374","category":"90","category_name":"清真餐馆","address":""},{"poiid":"B2094757D16EA5FA4498","title":"上海市邮政公司","lon":"121.481540738","lat":"31.2437235877","category":"500","category_name":"未知分类","address":"上海市虹口区北苏州路276号"},{"poiid":"B2094654DA6FA2FB4493","title":"安基商厦","lon":"121.483","lat":"31.244","category":"46","category_name":"楼宇","address":"上海市黄浦区浙江中路535号"},{"poiid":"B2094655D26DA6F4429F","title":"好德No.288","lon":"121.48096","lat":"31.24374","category":"117","category_name":"便民商店/便利店","address":"天潼路656"},{"poiid":"B2094654DA6FA7F44692","title":"七浦街","lon":"121.48304","lat":"31.24425","category":"120","category_name":"小商品市场","address":""},{"poiid":"B2094654DA6FA6FB4293","title":"白马大厦(东楼)","lon":"121.47773","lat":"31.24554","category":"46","category_name":"楼宇","address":"塘沽路985号"},{"poiid":"B2094750DB6CA4FE449D","title":"正大","lon":"121.475636","lat":"31.24442","category":"500","category_name":"未知分类","address":null},{"poiid":"B2094757D169A5F54592","title":"天福牛肉面馆","lon":"121.47751","lat":"31.24311","category":"87","category_name":"特色／地方风味餐厅","address":"闸北区天潼路855号(近浙江路)"},{"poiid":"B2094757DA6BA4FA429C","title":"长泰企业天地广场","lon":"121.476942","lat":"31.245884","category":"252","category_name":"楼宇机构","address":"城阳308国道西侧，华仙路北侧"},{"poiid":"B2094752DA68A6FC4598","title":"新白鹿酒店","lon":"121.478016","lat":"31.24367","category":"247","category_name":"餐饮美食","address":"上海市 东方商厦9楼"},{"poiid":"B2094655D26CAAFC419B","title":"泰安里","lon":"121.47946","lat":"31.24289","category":"47","category_name":"住宅区","address":""},{"poiid":"B2094757D66FA6FA479D","title":"七浦路","lon":"121.48266","lat":"31.244241","category":"141","category_name":"服装鞋帽皮具店","address":"上海七浦路,兴旺服饰城"},{"poiid":"B2094654DA6FA6F4429D","title":"七浦路服装批发市场(七浦路)","lon":"121.47849","lat":"31.24509","category":"141","category_name":"服装鞋帽皮具店","address":"闸北区七浦路303号(近河南北路)"},{"poiid":"B2094757D06FA2FC439B","title":"天潼路地铁站","lon":"121.482454","lat":"31.244087","category":"36","category_name":"地铁站","address":"虹口区河南北路天潼路"},{"poiid":"B209475CD564A7F84292","title":"上海滩新天地店","lon":"121.47463","lat":"31.22164","category":"119","category_name":"商场","address":"\"太仓路181弄新天地北里15号\r\n\""},{"poiid":"B209475CD564A7F8439E","title":"上海滩中信泰富店","lon":"121.45602","lat":"31.22851","category":"119","category_name":"商场","address":"\"南京西路1168号中信泰富广场，店铺号221.\r\n\""},{"poiid":"B209475CD564A7F84392","title":"上海滩浦东香格里拉店","lon":"121.50058","lat":"31.23634","category":"119","category_name":"商场","address":"浦东富成路33号香格里拉酒店内大堂层"},{"poiid":"B2094757D06FA0F44093","title":"七浦兴旺服饰市场(老兴旺)","lon":"121.482180096","lat":"31.245859573","category":"249","category_name":"购物服务","address":"上海七浦路168号"},{"poiid":"B2094757D06FA1FB4392","title":"港陆黄浦中心","lon":"121.482","lat":"31.2421","category":"46","category_name":"楼宇","address":"上海市杨浦区邯郸路近淞沪路口"},{"poiid":"B2094757D66FA6FA459C","title":"七浦路市场","lon":"121.48208","lat":"31.24561","category":"249","category_name":"购物服务","address":"虹口区七浦路(近河南北路)"},{"poiid":"B2094757D068A4F44098","title":"新金桥广场","lon":"121.479","lat":"31.243","category":"46","category_name":"楼宇","address":"上海市黄浦区北京西路1号"},{"poiid":"B2094757D06FA7FE409D","title":"新七浦服装批发商场","lon":"121.48184542","lat":"31.245351726","category":"141","category_name":"服装鞋帽皮具店","address":"虹口区七浦路179号(近河南北路)"},{"poiid":"B2094757D068A0FF4398","title":"麦当劳(天潼路店)","lon":"121.48337","lat":"31.24366","category":"68","category_name":"快餐厅","address":"虹口区河南北路79-81号联富商场2楼(近天潼路)"},{"poiid":"B2094757D068A0FA4698","title":"肯德基(七浦路店)","lon":"121.480537","lat":"31.24559","category":"68","category_name":"快餐厅","address":"虹口区七浦路133号兴旺国际服饰城1楼(近河南北路)"},{"poiid":"B2094655D264A0FE4099","title":"圣和圣韩国馆","lon":"121.48016","lat":"31.24638","category":"141","category_name":"服装鞋帽皮具店","address":""},{"poiid":"B2094757D069A3FA479D","title":"六合大厦","lon":"121.481","lat":"31.2432","category":"46","category_name":"楼宇","address":"上海市四川北路1851号"},{"poiid":"B2094757D06FA4FD479C","title":"河南北路海宁路","lon":"121.48192792","lat":"31.247266453","category":"500","category_name":"未知分类","address":"上海河南北路海宁路"},{"poiid":"B2094655D26CABF4409A","title":"七浦商业街","lon":"121.48107","lat":"31.24392","category":"116","category_name":"特色商业街","address":""},{"poiid":"B2094757D068ABF44393","title":"美欣大厦","lon":"121.48","lat":"31.2461","category":"46","category_name":"楼宇","address":"浦东临港新城主城区申港大道200号"},{"poiid":"B2094757D069A6FB4398","title":"七浦路韩国馆","lon":"121.4782303","lat":"31.245244","category":"500","category_name":"未知分类","address":"上海七浦路批发市场"},{"poiid":"B2094757D06FA0F8419B","title":"芋贵人(七浦路店)","lon":"121.482102","lat":"31.245791","category":"67","category_name":"甜品店","address":"虹口区七浦路133号兴旺美食城5楼29号(近天潼路)"},{"poiid":"B2094655D26EABFA4693","title":"上海城市管理职业技术学院(河南北路)","lon":"121.48128","lat":"31.2474","category":"52","category_name":"高等院校","address":"河南北路301"},{"poiid":"B2094654DA6FA7F44693","title":"肯德基(天潼路)","lon":"121.48289","lat":"31.24421","category":"68","category_name":"快餐厅","address":"天潼路538"},{"poiid":"B2094654DA6FA6F54592","title":"联富假日公寓","lon":"121.48061","lat":"31.24444","category":"47","category_name":"住宅区","address":"山西北路222弄"},{"poiid":"B2094654DA6FA6F4479F","title":"天星大厦","lon":"121.47881","lat":"31.24381","category":"46","category_name":"楼宇","address":"天潼路768号"},{"poiid":"B2094757D16AA0F84699","title":"真功夫 金浦店","lon":"121.480173054","lat":"31.245301793","category":"68","category_name":"快餐厅","address":"虹口区七浦路258号(山西北路口)"},{"poiid":"B2094655D26DABFB4493","title":"上海豪浦服饰城","lon":"121.48032","lat":"31.24527","category":"141","category_name":"服装鞋帽皮具店","address":"闸北七浦路225号"},{"poiid":"B2094654DB6BABFC499C","title":"味千拉面七浦店","lon":"121.48136","lat":"31.24656","category":"68","category_name":"快餐厅","address":"塘沽路730号圣和圣时尚汇5层"},{"poiid":"B2094654DA6FA7F5489E","title":"河滨大楼","lon":"121.48352","lat":"31.243284","category":"47","category_name":"住宅区","address":"浦东区崂山东路410号"},{"poiid":"B2094655D265A7FF419C","title":"重庆鸡公堡","lon":"121.47906","lat":"31.24336","category":"257","category_name":"中餐厅","address":"黄浦区山西路(近南京东路)"},{"poiid":"B2094750D76FABFE4299","title":"OASE釜山料理","lon":"121.481","lat":"31.2466","category":"96","category_name":"韩国料理","address":"虹口区河南北路233号圣和圣时尚汇5楼(新七浦对面)"},{"poiid":"B2094655D26DA7FD469A","title":"联富假日公寓(西门)","lon":"121.48024","lat":"31.24418","category":"47","category_name":"住宅区","address":"山西北路230"},{"poiid":"B2094757D06AA0F9459C","title":"河南路桥","lon":"121.483150858","lat":"31.2429705716","category":"234","category_name":"海滨浴场","address":"上海河南中路苏州河"},{"poiid":"B2094655D26CABF44399","title":"光明便利七浦店","lon":"121.48001","lat":"31.24474","category":"117","category_name":"便民商店/便利店","address":"山西北路255"},{"poiid":"B2094750D56FA6FD4299","title":"鲁迅公园","lon":"121.482696","lat":"31.242994","category":"500","category_name":"未知分类","address":null},{"poiid":"B2094654DA68A3FA4499","title":"长新大楼","lon":"121.476","lat":"31.2446","category":"46","category_name":"楼宇","address":"静安区长寿路(万航渡路口)"},{"poiid":"B2094752DA65A3F44498","title":"上海外灘","lon":"121.479695","lat":"31.244756","category":"500","category_name":"未知分类","address":"上海市 上海"},{"poiid":"B2094654DA68A3FA469A","title":"家化中房苑","lon":"121.479","lat":"31.2454","category":"46","category_name":"楼宇","address":"西藏中路725弄10-12号"},{"poiid":"B2094757D06AA5FF4892","title":"PRADA (国金中心店)","lon":"121.48038812","lat":"31.241500298","category":"500","category_name":"未知分类","address":"浦东新区世纪大道8号国金中心商场1楼(近东泰路)"},{"poiid":"B2094757D468AAF94193","title":"CHAI Living Lounge","lon":"121.482989","lat":"31.242648","category":"260","category_name":"其他","address":"虹口区北苏州路410号C座1楼(近河南路)"},{"poiid":"B2094655D265A5FF4892","title":"买买提的故事","lon":"121.47857","lat":"31.24374","category":"90","category_name":"清真餐馆","address":""},{"poiid":"B2094757D16EA5FA4498","title":"上海市邮政公司","lon":"121.481540738","lat":"31.2437235877","category":"500","category_name":"未知分类","address":"上海市虹口区北苏州路276号"},{"poiid":"B2094654DA6FA2FB4493","title":"安基商厦","lon":"121.483","lat":"31.244","category":"46","category_name":"楼宇","address":"上海市黄浦区浙江中路535号"},{"poiid":"B2094655D26DA6F4429F","title":"好德No.288","lon":"121.48096","lat":"31.24374","category":"117","category_name":"便民商店/便利店","address":"天潼路656"},{"poiid":"B2094654DA6FA7F44692","title":"七浦街","lon":"121.48304","lat":"31.24425","category":"120","category_name":"小商品市场","address":""},{"poiid":"B2094654DA6FA6FB4293","title":"白马大厦(东楼)","lon":"121.47773","lat":"31.24554","category":"46","category_name":"楼宇","address":"塘沽路985号"},{"poiid":"B2094750DB6CA4FE449D","title":"正大","lon":"121.475636","lat":"31.24442","category":"500","category_name":"未知分类","address":null},{"poiid":"B2094757D169A5F54592","title":"天福牛肉面馆","lon":"121.47751","lat":"31.24311","category":"87","category_name":"特色／地方风味餐厅","address":"闸北区天潼路855号(近浙江路)"},{"poiid":"B2094757DA6BA4FA429C","title":"长泰企业天地广场","lon":"121.476942","lat":"31.245884","category":"252","category_name":"楼宇机构","address":"城阳308国道西侧，华仙路北侧"},{"poiid":"B2094752DA68A6FC4598","title":"新白鹿酒店","lon":"121.478016","lat":"31.24367","category":"247","category_name":"餐饮美食","address":"上海市 东方商厦9楼"},{"poiid":"B2094655D26CAAFC419B","title":"泰安里","lon":"121.47946","lat":"31.24289","category":"47","category_name":"住宅区","address":""},{"poiid":"B2094757D66FA6FA479D","title":"七浦路","lon":"121.48266","lat":"31.244241","category":"141","category_name":"服装鞋帽皮具店","address":"上海七浦路,兴旺服饰城"},{"poiid":"B2094654DA6FA6F4429D","title":"七浦路服装批发市场(七浦路)","lon":"121.47849","lat":"31.24509","category":"141","category_name":"服装鞋帽皮具店","address":"闸北区七浦路303号(近河南北路)"},{"poiid":"B2094757D06FA2FC439B","title":"天潼路地铁站","lon":"121.482454","lat":"31.244087","category":"36","category_name":"地铁站","address":"虹口区河南北路天潼路"},{"poiid":"B209475CD564A7F84292","title":"上海滩新天地店","lon":"121.47463","lat":"31.22164","category":"119","category_name":"商场","address":"\"太仓路181弄新天地北里15号\r\n\""},{"poiid":"B209475CD564A7F8439E","title":"上海滩中信泰富店","lon":"121.45602","lat":"31.22851","category":"119","category_name":"商场","address":"\"南京西路1168号中信泰富广场，店铺号221.\r\n\""},{"poiid":"B209475CD564A7F84392","title":"上海滩浦东香格里拉店","lon":"121.50058","lat":"31.23634","category":"119","category_name":"商场","address":"浦东富成路33号香格里拉酒店内大堂层"},{"poiid":"B2094757D06FA0F44093","title":"七浦兴旺服饰市场(老兴旺)","lon":"121.482180096","lat":"31.245859573","category":"249","category_name":"购物服务","address":"上海七浦路168号"},{"poiid":"B2094757D06FA1FB4392","title":"港陆黄浦中心","lon":"121.482","lat":"31.2421","category":"46","category_name":"楼宇","address":"上海市杨浦区邯郸路近淞沪路口"},{"poiid":"B2094757D66FA6FA459C","title":"七浦路市场","lon":"121.48208","lat":"31.24561","category":"249","category_name":"购物服务","address":"虹口区七浦路(近河南北路)"},{"poiid":"B2094757D068A4F44098","title":"新金桥广场","lon":"121.479","lat":"31.243","category":"46","category_name":"楼宇","address":"上海市黄浦区北京西路1号"},{"poiid":"B2094757D06FA7FE409D","title":"新七浦服装批发商场","lon":"121.48184542","lat":"31.245351726","category":"141","category_name":"服装鞋帽皮具店","address":"虹口区七浦路179号(近河南北路)"},{"poiid":"B2094757D068A0FF4398","title":"麦当劳(天潼路店)","lon":"121.48337","lat":"31.24366","category":"68","category_name":"快餐厅","address":"虹口区河南北路79-81号联富商场2楼(近天潼路)"},{"poiid":"B2094757D068A0FA4698","title":"肯德基(七浦路店)","lon":"121.480537","lat":"31.24559","category":"68","category_name":"快餐厅","address":"虹口区七浦路133号兴旺国际服饰城1楼(近河南北路)"},{"poiid":"B2094655D264A0FE4099","title":"圣和圣韩国馆","lon":"121.48016","lat":"31.24638","category":"141","category_name":"服装鞋帽皮具店","address":""},{"poiid":"B2094757D069A3FA479D","title":"六合大厦","lon":"121.481","lat":"31.2432","category":"46","category_name":"楼宇","address":"上海市四川北路1851号"},{"poiid":"B2094757D06FA4FD479C","title":"河南北路海宁路","lon":"121.48192792","lat":"31.247266453","category":"500","category_name":"未知分类","address":"上海河南北路海宁路"},{"poiid":"B2094655D26CABF4409A","title":"七浦商业街","lon":"121.48107","lat":"31.24392","category":"116","category_name":"特色商业街","address":""},{"poiid":"B2094757D068ABF44393","title":"美欣大厦","lon":"121.48","lat":"31.2461","category":"46","category_name":"楼宇","address":"浦东临港新城主城区申港大道200号"},{"poiid":"B2094757D069A6FB4398","title":"七浦路韩国馆","lon":"121.4782303","lat":"31.245244","category":"500","category_name":"未知分类","address":"上海七浦路批发市场"},{"poiid":"B2094757D06FA0F8419B","title":"芋贵人(七浦路店)","lon":"121.482102","lat":"31.245791","category":"67","category_name":"甜品店","address":"虹口区七浦路133号兴旺美食城5楼29号(近天潼路)"},{"poiid":"B2094655D26EABFA4693","title":"上海城市管理职业技术学院(河南北路)","lon":"121.48128","lat":"31.2474","category":"52","category_name":"高等院校","address":"河南北路301"},{"poiid":"B2094654DA6FA7F44693","title":"肯德基(天潼路)","lon":"121.48289","lat":"31.24421","category":"68","category_name":"快餐厅","address":"天潼路538"},{"poiid":"B2094654DA6FA6F54592","title":"联富假日公寓","lon":"121.48061","lat":"31.24444","category":"47","category_name":"住宅区","address":"山西北路222弄"},{"poiid":"B2094654DA6FA6F4479F","title":"天星大厦","lon":"121.47881","lat":"31.24381","category":"46","category_name":"楼宇","address":"天潼路768号"},{"poiid":"B2094757D16AA0F84699","title":"真功夫 金浦店","lon":"121.480173054","lat":"31.245301793","category":"68","category_name":"快餐厅","address":"虹口区七浦路258号(山西北路口)"},{"poiid":"B2094655D26DABFB4493","title":"上海豪浦服饰城","lon":"121.48032","lat":"31.24527","category":"141","category_name":"服装鞋帽皮具店","address":"闸北七浦路225号"},{"poiid":"B2094654DB6BABFC499C","title":"味千拉面七浦店","lon":"121.48136","lat":"31.24656","category":"68","category_name":"快餐厅","address":"塘沽路730号圣和圣时尚汇5层"},{"poiid":"B2094654DA6FA7F5489E","title":"河滨大楼","lon":"121.48352","lat":"31.243284","category":"47","category_name":"住宅区","address":"浦东区崂山东路410号"},{"poiid":"B2094655D265A7FF419C","title":"重庆鸡公堡","lon":"121.47906","lat":"31.24336","category":"257","category_name":"中餐厅","address":"黄浦区山西路(近南京东路)"},{"poiid":"B2094750D76FABFE4299","title":"OASE釜山料理","lon":"121.481","lat":"31.2466","category":"96","category_name":"韩国料理","address":"虹口区河南北路233号圣和圣时尚汇5楼(新七浦对面)"},{"poiid":"B2094655D26DA7FD469A","title":"联富假日公寓(西门)","lon":"121.48024","lat":"31.24418","category":"47","category_name":"住宅区","address":"山西北路230"},{"poiid":"B2094757D06AA0F9459C","title":"河南路桥","lon":"121.483150858","lat":"31.2429705716","category":"234","category_name":"海滨浴场","address":"上海河南中路苏州河"},{"poiid":"B2094655D26CABF44399","title":"光明便利七浦店","lon":"121.48001","lat":"31.24474","category":"117","category_name":"便民商店/便利店","address":"山西北路255"},{"poiid":"B2094750D56FA6FD4299","title":"鲁迅公园","lon":"121.482696","lat":"31.242994","category":"500","category_name":"未知分类","address":null},{"poiid":"B2094654DA68A3FA4499","title":"长新大楼","lon":"121.476","lat":"31.2446","category":"46","category_name":"楼宇","address":"静安区长寿路(万航渡路口)"},{"poiid":"B2094752DA65A3F44498","title":"上海外灘","lon":"121.479695","lat":"31.244756","category":"500","category_name":"未知分类","address":"上海市 上海"},{"poiid":"B2094654DA68A3FA469A","title":"家化中房苑","lon":"121.479","lat":"31.2454","category":"46","category_name":"楼宇","address":"西藏中路725弄10-12号"},{"poiid":"B2094757D06AA5FF4892","title":"PRADA (国金中心店)","lon":"121.48038812","lat":"31.241500298","category":"500","category_name":"未知分类","address":"浦东新区世纪大道8号国金中心商场1楼(近东泰路)"},{"poiid":"B2094757D468AAF94193","title":"CHAI Living Lounge","lon":"121.482989","lat":"31.242648","category":"260","category_name":"其他","address":"虹口区北苏州路410号C座1楼(近河南路)"},{"poiid":"B2094655D265A5FF4892","title":"买买提的故事","lon":"121.47857","lat":"31.24374","category":"90","category_name":"清真餐馆","address":""},{"poiid":"B2094757D16EA5FA4498","title":"上海市邮政公司","lon":"121.481540738","lat":"31.2437235877","category":"500","category_name":"未知分类","address":"上海市虹口区北苏州路276号"},{"poiid":"B2094654DA6FA2FB4493","title":"安基商厦","lon":"121.483","lat":"31.244","category":"46","category_name":"楼宇","address":"上海市黄浦区浙江中路535号"},{"poiid":"B2094655D26DA6F4429F","title":"好德No.288","lon":"121.48096","lat":"31.24374","category":"117","category_name":"便民商店/便利店","address":"天潼路656"},{"poiid":"B2094654DA6FA7F44692","title":"七浦街","lon":"121.48304","lat":"31.24425","category":"120","category_name":"小商品市场","address":""},{"poiid":"B2094654DA6FA6FB4293","title":"白马大厦(东楼)","lon":"121.47773","lat":"31.24554","category":"46","category_name":"楼宇","address":"塘沽路985号"},{"poiid":"B2094750DB6CA4FE449D","title":"正大","lon":"121.475636","lat":"31.24442","category":"500","category_name":"未知分类","address":null},{"poiid":"B2094757D169A5F54592","title":"天福牛肉面馆","lon":"121.47751","lat":"31.24311","category":"87","category_name":"特色／地方风味餐厅","address":"闸北区天潼路855号(近浙江路)"},{"poiid":"B2094757DA6BA4FA429C","title":"长泰企业天地广场","lon":"121.476942","lat":"31.245884","category":"252","category_name":"楼宇机构","address":"城阳308国道西侧，华仙路北侧"},{"poiid":"B2094752DA68A6FC4598","title":"新白鹿酒店","lon":"121.478016","lat":"31.24367","category":"247","category_name":"餐饮美食","address":"上海市 东方商厦9楼"},{"poiid":"B2094655D26CAAFC419B","title":"泰安里","lon":"121.47946","lat":"31.24289","category":"47","category_name":"住宅区","address":""},{"poiid":"B2094757D66FA6FA479D","title":"七浦路","lon":"121.48266","lat":"31.244241","category":"141","category_name":"服装鞋帽皮具店","address":"上海七浦路,兴旺服饰城"},{"poiid":"B2094654DA6FA6F4429D","title":"七浦路服装批发市场(七浦路)","lon":"121.47849","lat":"31.24509","category":"141","category_name":"服装鞋帽皮具店","address":"闸北区七浦路303号(近河南北路)"},{"poiid":"B2094757D06FA2FC439B","title":"天潼路地铁站","lon":"121.482454","lat":"31.244087","category":"36","category_name":"地铁站","address":"虹口区河南北路天潼路"},{"poiid":"B209475CD564A7F84292","title":"上海滩新天地店","lon":"121.47463","lat":"31.22164","category":"119","category_name":"商场","address":"\"太仓路181弄新天地北里15号\r\n\""},{"poiid":"B209475CD564A7F8439E","title":"上海滩中信泰富店","lon":"121.45602","lat":"31.22851","category":"119","category_name":"商场","address":"\"南京西路1168号中信泰富广场，店铺号221.\r\n\""},{"poiid":"B209475CD564A7F84392","title":"上海滩浦东香格里拉店","lon":"121.50058","lat":"31.23634","category":"119","category_name":"商场","address":"浦东富成路33号香格里拉酒店内大堂层"},{"poiid":"B2094757D06FA0F44093","title":"七浦兴旺服饰市场(老兴旺)","lon":"121.482180096","lat":"31.245859573","category":"249","category_name":"购物服务","address":"上海七浦路168号"},{"poiid":"B2094757D06FA1FB4392","title":"港陆黄浦中心","lon":"121.482","lat":"31.2421","category":"46","category_name":"楼宇","address":"上海市杨浦区邯郸路近淞沪路口"},{"poiid":"B2094757D66FA6FA459C","title":"七浦路市场","lon":"121.48208","lat":"31.24561","category":"249","category_name":"购物服务","address":"虹口区七浦路(近河南北路)"},{"poiid":"B2094757D068A4F44098","title":"新金桥广场","lon":"121.479","lat":"31.243","category":"46","category_name":"楼宇","address":"上海市黄浦区北京西路1号"},{"poiid":"B2094757D06FA7FE409D","title":"新七浦服装批发商场","lon":"121.48184542","lat":"31.245351726","category":"141","category_name":"服装鞋帽皮具店","address":"虹口区七浦路179号(近河南北路)"},{"poiid":"B2094757D068A0FF4398","title":"麦当劳(天潼路店)","lon":"121.48337","lat":"31.24366","category":"68","category_name":"快餐厅","address":"虹口区河南北路79-81号联富商场2楼(近天潼路)"},{"poiid":"B2094757D068A0FA4698","title":"肯德基(七浦路店)","lon":"121.480537","lat":"31.24559","category":"68","category_name":"快餐厅","address":"虹口区七浦路133号兴旺国际服饰城1楼(近河南北路)"},{"poiid":"B2094655D264A0FE4099","title":"圣和圣韩国馆","lon":"121.48016","lat":"31.24638","category":"141","category_name":"服装鞋帽皮具店","address":""},{"poiid":"B2094757D069A3FA479D","title":"六合大厦","lon":"121.481","lat":"31.2432","category":"46","category_name":"楼宇","address":"上海市四川北路1851号"},{"poiid":"B2094757D06FA4FD479C","title":"河南北路海宁路","lon":"121.48192792","lat":"31.247266453","category":"500","category_name":"未知分类","address":"上海河南北路海宁路"},{"poiid":"B2094655D26CABF4409A","title":"七浦商业街","lon":"121.48107","lat":"31.24392","category":"116","category_name":"特色商业街","address":""},{"poiid":"B2094757D068ABF44393","title":"美欣大厦","lon":"121.48","lat":"31.2461","category":"46","category_name":"楼宇","address":"浦东临港新城主城区申港大道200号"},{"poiid":"B2094757D069A6FB4398","title":"七浦路韩国馆","lon":"121.4782303","lat":"31.245244","category":"500","category_name":"未知分类","address":"上海七浦路批发市场"},{"poiid":"B2094757D06FA0F8419B","title":"芋贵人(七浦路店)","lon":"121.482102","lat":"31.245791","category":"67","category_name":"甜品店","address":"虹口区七浦路133号兴旺美食城5楼29号(近天潼路)"},{"poiid":"B2094655D26EABFA4693","title":"上海城市管理职业技术学院(河南北路)","lon":"121.48128","lat":"31.2474","category":"52","category_name":"高等院校","address":"河南北路301"},{"poiid":"B2094654DA6FA7F44693","title":"肯德基(天潼路)","lon":"121.48289","lat":"31.24421","category":"68","category_name":"快餐厅","address":"天潼路538"},{"poiid":"B2094654DA6FA6F54592","title":"联富假日公寓","lon":"121.48061","lat":"31.24444","category":"47","category_name":"住宅区","address":"山西北路222弄"},{"poiid":"B2094654DA6FA6F4479F","title":"天星大厦","lon":"121.47881","lat":"31.24381","category":"46","category_name":"楼宇","address":"天潼路768号"},{"poiid":"B2094757D16AA0F84699","title":"真功夫 金浦店","lon":"121.480173054","lat":"31.245301793","category":"68","category_name":"快餐厅","address":"虹口区七浦路258号(山西北路口)"},{"poiid":"B2094655D26DABFB4493","title":"上海豪浦服饰城","lon":"121.48032","lat":"31.24527","category":"141","category_name":"服装鞋帽皮具店","address":"闸北七浦路225号"},{"poiid":"B2094654DB6BABFC499C","title":"味千拉面七浦店","lon":"121.48136","lat":"31.24656","category":"68","category_name":"快餐厅","address":"塘沽路730号圣和圣时尚汇5层"},{"poiid":"B2094654DA6FA7F5489E","title":"河滨大楼","lon":"121.48352","lat":"31.243284","category":"47","category_name":"住宅区","address":"浦东区崂山东路410号"},{"poiid":"B2094655D265A7FF419C","title":"重庆鸡公堡","lon":"121.47906","lat":"31.24336","category":"257","category_name":"中餐厅","address":"黄浦区山西路(近南京东路)"},{"poiid":"B2094750D76FABFE4299","title":"OASE釜山料理","lon":"121.481","lat":"31.2466","category":"96","category_name":"韩国料理","address":"虹口区河南北路233号圣和圣时尚汇5楼(新七浦对面)"},{"poiid":"B2094655D26DA7FD469A","title":"联富假日公寓(西门)","lon":"121.48024","lat":"31.24418","category":"47","category_name":"住宅区","address":"山西北路230"},{"poiid":"B2094757D06AA0F9459C","title":"河南路桥","lon":"121.483150858","lat":"31.2429705716","category":"234","category_name":"海滨浴场","address":"上海河南中路苏州河"},{"poiid":"B2094655D26CABF44399","title":"光明便利七浦店","lon":"121.48001","lat":"31.24474","category":"117","category_name":"便民商店/便利店","address":"山西北路255"},{"poiid":"B2094750D56FA6FD4299","title":"鲁迅公园","lon":"121.482696","lat":"31.242994","category":"500","category_name":"未知分类","address":null},{"poiid":"B2094654DA68A3FA4499","title":"长新大楼","lon":"121.476","lat":"31.2446","category":"46","category_name":"楼宇","address":"静安区长寿路(万航渡路口)"},{"poiid":"B2094752DA65A3F44498","title":"上海外灘","lon":"121.479695","lat":"31.244756","category":"500","category_name":"未知分类","address":"上海市 上海"},{"poiid":"B2094654DA68A3FA469A","title":"家化中房苑","lon":"121.479","lat":"31.2454","category":"46","category_name":"楼宇","address":"西藏中路725弄10-12号"},{"poiid":"B2094757D06AA5FF4892","title":"PRADA (国金中心店)","lon":"121.48038812","lat":"31.241500298","category":"500","category_name":"未知分类","address":"浦东新区世纪大道8号国金中心商场1楼(近东泰路)"},{"poiid":"B2094757D468AAF94193","title":"CHAI Living Lounge","lon":"121.482989","lat":"31.242648","category":"260","category_name":"其他","address":"虹口区北苏州路410号C座1楼(近河南路)"},{"poiid":"B2094655D265A5FF4892","title":"买买提的故事","lon":"121.47857","lat":"31.24374","category":"90","category_name":"清真餐馆","address":""},{"poiid":"B2094757D16EA5FA4498","title":"上海市邮政公司","lon":"121.481540738","lat":"31.2437235877","category":"500","category_name":"未知分类","address":"上海市虹口区北苏州路276号"},{"poiid":"B2094654DA6FA2FB4493","title":"安基商厦","lon":"121.483","lat":"31.244","category":"46","category_name":"楼宇","address":"上海市黄浦区浙江中路535号"},{"poiid":"B2094655D26DA6F4429F","title":"好德No.288","lon":"121.48096","lat":"31.24374","category":"117","category_name":"便民商店/便利店","address":"天潼路656"},{"poiid":"B2094654DA6FA7F44692","title":"七浦街","lon":"121.48304","lat":"31.24425","category":"120","category_name":"小商品市场","address":""},{"poiid":"B2094654DA6FA6FB4293","title":"白马大厦(东楼)","lon":"121.47773","lat":"31.24554","category":"46","category_name":"楼宇","address":"塘沽路985号"},{"poiid":"B2094750DB6CA4FE449D","title":"正大","lon":"121.475636","lat":"31.24442","category":"500","category_name":"未知分类","address":null},{"poiid":"B2094757D169A5F54592","title":"天福牛肉面馆","lon":"121.47751","lat":"31.24311","category":"87","category_name":"特色／地方风味餐厅","address":"闸北区天潼路855号(近浙江路)"},{"poiid":"B2094757DA6BA4FA429C","title":"长泰企业天地广场","lon":"121.476942","lat":"31.245884","category":"252","category_name":"楼宇机构","address":"城阳308国道西侧，华仙路北侧"},{"poiid":"B2094752DA68A6FC4598","title":"新白鹿酒店","lon":"121.478016","lat":"31.24367","category":"247","category_name":"餐饮美食","address":"上海市 东方商厦9楼"},{"poiid":"B2094655D26CAAFC419B","title":"泰安里","lon":"121.47946","lat":"31.24289","category":"47","category_name":"住宅区","address":""}]