[{"poiid":"B2094757D069A5F44198","title":"创智天地园区","lon":"121.513423103","lat":"31.30618417","category":"46","category_name":"楼宇","address":"上海淞沪路创智天地"},{"poiid":"B2094654D56FABF44098","title":"江湾体育场","lon":"121.51518","lat":"31.30645","category":"224","category_name":"综合体育馆","address":"上海杨浦区国和路346号(近政衷路)"},{"poiid":"B2094757DA6FA2FD4499","title":"冰火名家巫山烤全鱼","lon":"121.515376","lat":"31.3036550000003","category":"71","category_name":"四川菜","address":"杨浦区政通路132号(近淞沪路)"},{"poiid":"B2094757DA6EA6F5439A","title":"鲜芋仙(五角场政通店)","lon":"121.515376","lat":"31.3036550000003","category":"67","category_name":"甜品店","address":"杨浦区政通路132号(国济路口)"},{"poiid":"B2094751D469A1FE489B","title":"西九巷咖啡（五角场店）","lon":"121.517806","lat":"31.304554","category":"65","category_name":"咖啡厅","address":"杨浦区政通路132-1号(近国济路)"},{"poiid":"B2094750DA6EA2F4479B","title":"烧肉达人（五角场店）","lon":"121.513885","lat":"31.303628","category":"269","category_name":"烧烤","address":"杨浦区淞沪路151号中环国际大厦4楼(近政通路)"},{"poiid":"B2094757D06FA3F54692","title":"江湾游泳池","lon":"121.51884","lat":"31.30675","category":"220","category_name":"运动场所","address":"杨浦区国和路346号(近政立路)"},{"poiid":"B2094757D068A3F8419B","title":"香啡缤(创智天地店)","lon":"121.51332","lat":"31.30562","category":"260","category_name":"其他","address":"杨浦区淞沪路270号创智天地B1楼03单元(近政民路)"},{"poiid":"B2094757D664A7FC459C","title":"星巴克 创智天地店 Starbucks Cafe","lon":"121.513526054","lat":"31.303552793","category":"260","category_name":"其他","address":"杨浦区淞沪路252-256号A1-24号创智天地下沉广场内(近政民路)"},{"poiid":"B2094757D06FA7FC4698","title":"小南国(杨浦店)","lon":"121.5136","lat":"31.30356","category":"500","category_name":"未知分类","address":"上海杨浦区淞沪路161号中环国际大厦5楼(近政通路)  "},{"poiid":"B2094757D56DA5FF449D","title":"冰火名家巫山烤鱼","lon":"121.51397","lat":"31.308994","category":"247","category_name":"餐饮美食","address":"杨浦区政通路132号(近淞沪路)"},{"poiid":"B2094750DB64A6FF489D","title":"杨浦区出入境管理中心","lon":"121.514968","lat":"31.307382","category":"252","category_name":"楼宇机构","address":"淞沪路605号"},{"poiid":"B2094654D56FA1F9419B","title":"上海基督教沪东堂","lon":"121.51884","lat":"31.30827","category":"245","category_name":"教堂","address":"杨浦区国和路350号(国和路政立路)"},{"poiid":"B2094757D165A1F54792","title":"巴麦隆自助烤肉","lon":"121.515118103","lat":"31.3031431064","category":"247","category_name":"餐饮美食","address":"上海市杨浦区政通路132号2楼"},{"poiid":"B2094757D56DA5FF429E","title":"创智天地广场","lon":"121.513735","lat":"31.30492778","category":"263","category_name":"公司","address":"铁西区铁西兴华街与南十中路交处(兴华南街48号)"},{"poiid":"B2094757D569A3FC499E","title":"创智天地广场7号","lon":"121.51248345","lat":"31.30780002","category":"46","category_name":"楼宇","address":"中国上海市杨浦区政立路"},{"poiid":"B2094757D069A2FD479C","title":"蔡家食谱(创智天地店)","lon":"121.51303","lat":"31.30506","category":"76","category_name":"上海菜","address":"杨浦区淞沪路234号创智天地B1楼(近政民路)"},{"poiid":"B2094655D26AA7FB449F","title":"江湾体育场足球场","lon":"121.51909","lat":"31.30708","category":"247","category_name":"餐饮美食","address":"杨浦区国和路346号江湾体育馆(近政立路)"},{"poiid":"B2094757D06FA7FB4399","title":"85度C(政通店)","lon":"121.51534","lat":"31.30327","category":"112","category_name":"糕饼店","address":"杨浦区政通路132号(近国济路)"},{"poiid":"B2094757D06FA4FB4892","title":"天行健瑜伽健身会所","lon":"121.51888","lat":"31.30732","category":"221","category_name":"健身中心","address":"杨浦区国和路346号江湾体育场内10号看台152号(近邯郸路)"},{"poiid":"B2094655D26DA4FD459C","title":"江湾体育中心综合体育馆","lon":"121.51842","lat":"31.30756","category":"224","category_name":"综合体育馆","address":""},{"poiid":"B2094750D464AAFA469B","title":"巫山烤鱼","lon":"121.517814","lat":"31.306459","category":"247","category_name":"餐饮美食","address":"五角场"},{"poiid":"B2094757D66DA7F44093","title":"火锅传奇(五角场店)","lon":"121.518724103","lat":"31.3064921764","category":"247","category_name":"餐饮美食","address":"上海五角场百联又一城"},{"poiid":"B2094654DB6BA2FA4892","title":"江湾体育场(六号门)","lon":"121.51628","lat":"31.30522","category":"224","category_name":"综合体育馆","address":"政通路108号"},{"poiid":"B2094757D66DA5FE409F","title":"桐庐原生态农庄","lon":"121.513909003","lat":"31.3082353129","category":"87","category_name":"特色／地方风味餐厅","address":"杨浦区政立路245号"},{"poiid":"B2094750D76DAAFD429B","title":"蜀膳传火锅传奇(政通路店)","lon":"121.515","lat":"31.3038","category":"86","category_name":"火锅店","address":"杨浦区政通路132号2楼(近国济路)"},{"poiid":"B2094757D66CA7FA4198","title":"创智天地科技中心","lon":"121.5124111","lat":"31.307423195","category":"500","category_name":"未知分类","address":"上海杨浦政立路淞沪路"},{"poiid":"B2094757D66DA4F5499A","title":"巴麦隆烧烤","lon":"121.517052503","lat":"31.3036758175","category":"247","category_name":"餐饮美食","address":"上海五角场店"},{"poiid":"B2094655D26CA7F4469F","title":"创智天地广场十号","lon":"121.51317","lat":"31.30614","category":"46","category_name":"楼宇","address":"淞沪路234"},{"poiid":"B2094655D26DABF4419B","title":"创智天地广场一号","lon":"121.51375","lat":"31.30494","category":"46","category_name":"楼宇","address":"淞沪路234-290"},{"poiid":"B2094757D069A6F8429E","title":"淞沪路政立路路口","lon":"121.511682","lat":"31.306713","category":"500","category_name":"未知分类","address":"上海淞沪路政立路"},{"poiid":"B2094751D368A2FF459A","title":"Jamaica Blue(创智天地店)","lon":"121.51246","lat":"31.30587","category":"247","category_name":"餐饮美食","address":"杨浦区淞沪路333号创智天地三期7号楼大厅(近智星路)"},{"poiid":"B2094654DB6AA6FF449B","title":"如家快捷酒店上海江湾体育场店","lon":"121.51284","lat":"31.30811","category":"216","category_name":"经济型连锁酒店","address":"上海杨浦区政立路351号"},{"poiid":"B2094757DA69A3FB439E","title":"美吉姆上海杨浦中心","lon":"121.5141351534","lat":"31.307050115237","category":"632","category_name":"教育出国类公司","address":"杨浦区淞沪路308号创智天地地下广场5号楼B1楼(近政立路)"},{"poiid":"B2094757D069AAFD4592","title":"创智天地广场8号楼","lon":"121.5136502","lat":"31.304372732","category":"500","category_name":"未知分类","address":"上海杨浦区淞沪路398号"},{"poiid":"B2094654DB6BA2FA4998","title":"创智天地广场二号","lon":"121.51438","lat":"31.30528","category":"46","category_name":"楼宇","address":"淞沪路234"},{"poiid":"B2094757D06FA3F4469D","title":"天真蓝影像创意沙龙 Naive Blue","lon":"121.51397","lat":"31.308994","category":"249","category_name":"购物服务","address":"杨浦区大学路310号(近复旦大学)"},{"poiid":"B2094757D569A2FA489C","title":"创智天地广场九号","lon":"121.5126256","lat":"31.30653836","category":"46","category_name":"楼宇","address":"中国上海市杨浦区淞沪路"},{"poiid":"B2094654D56FA1F94392","title":"凯城景庭园","lon":"121.5161437","lat":"31.30862808","category":"47","category_name":"住宅区","address":"凯城景庭园位于杨浦政立路179弄"},{"poiid":"B2094750DA65A6F9469D","title":"共青森林公园","lon":"121.517395","lat":"31.303913","category":"250","category_name":"公园户外","address":null},{"poiid":"B2094757D16AA1FF4698","title":"明高高尔夫","lon":"121.515342103","lat":"31.3063121727","category":"500","category_name":"未知分类","address":"上海ShanghaiYangpuZhengli Rd"},{"poiid":"B2094757D569A1FE4199","title":"江湾体育乐园","lon":"121.5151788","lat":"31.30645166","category":"607","category_name":"一般景点","address":"淞沪路245号"},{"poiid":"B2094757D469A5F9449D","title":"海皇庭酒店","lon":"121.512146","lat":"31.30811","category":"76","category_name":"上海菜","address":"杨浦区政立路285号(近淞沪路)"},{"poiid":"B2094655D36DA7FF449B","title":"政立路市光路","lon":"121.51589","lat":"31.30803","category":"38","category_name":"公交车站","address":""},{"poiid":"B2094757D568AAFB4493","title":"创智天地广场6号","lon":"121.51362359","lat":"31.3078323","category":"46","category_name":"楼宇","address":"中国上海市杨浦区政立路"},{"poiid":"B2094757D66CA3FE4593","title":"广州蕉叶","lon":"121.5127091","lat":"31.30430813","category":"247","category_name":"餐饮美食","address":"上海市杨浦区政立路"},{"poiid":"B2094655D36DA7FF4492","title":"政通路淞沪路","lon":"121.51688","lat":"31.30801","category":"38","category_name":"公交车站","address":""},{"poiid":"B2094752D265A2F44699","title":"正豪大大鸡排(政通路店)","lon":"121.5127692","lat":"31.305628","category":"247","category_name":"餐饮美食","address":"五角场政通路132-6号"},{"poiid":"B2094655D26CA7F4469E","title":"创智天地广场三号","lon":"121.51378","lat":"31.30626","category":"46","category_name":"楼宇","address":"淞沪路234"},{"poiid":"B2094757D16EAAFD419A","title":"上海体育学院绿瓦大楼","lon":"121.516998","lat":"31.30820693","category":"500","category_name":"未知分类","address":"上海长海路399号"},{"poiid":"B2094757D069A5F44198","title":"创智天地园区","lon":"121.513423103","lat":"31.30618417","category":"46","category_name":"楼宇","address":"上海淞沪路创智天地"},{"poiid":"B2094654D56FABF44098","title":"江湾体育场","lon":"121.51518","lat":"31.30645","category":"224","category_name":"综合体育馆","address":"上海杨浦区国和路346号(近政衷路)"},{"poiid":"B2094757DA6FA2FD4499","title":"冰火名家巫山烤全鱼","lon":"121.515376","lat":"31.3036550000003","category":"71","category_name":"四川菜","address":"杨浦区政通路132号(近淞沪路)"},{"poiid":"B2094757DA6EA6F5439A","title":"鲜芋仙(五角场政通店)","lon":"121.515376","lat":"31.3036550000003","category":"67","category_name":"甜品店","address":"杨浦区政通路132号(国济路口)"},{"poiid":"B2094751D469A1FE489B","title":"西九巷咖啡（五角场店）","lon":"121.517806","lat":"31.304554","category":"65","category_name":"咖啡厅","address":"杨浦区政通路132-1号(近国济路)"},{"poiid":"B2094750DA6EA2F4479B","title":"烧肉达人（五角场店）","lon":"121.513885","lat":"31.303628","category":"269","category_name":"烧烤","address":"杨浦区淞沪路151号中环国际大厦4楼(近政通路)"},{"poiid":"B2094757D06FA3F54692","title":"江湾游泳池","lon":"121.51884","lat":"31.30675","category":"220","category_name":"运动场所","address":"杨浦区国和路346号(近政立路)"},{"poiid":"B2094757D068A3F8419B","title":"香啡缤(创智天地店)","lon":"121.51332","lat":"31.30562","category":"260","category_name":"其他","address":"杨浦区淞沪路270号创智天地B1楼03单元(近政民路)"},{"poiid":"B2094757D664A7FC459C","title":"星巴克 创智天地店 Starbucks Cafe","lon":"121.513526054","lat":"31.303552793","category":"260","category_name":"其他","address":"杨浦区淞沪路252-256号A1-24号创智天地下沉广场内(近政民路)"},{"poiid":"B2094757D06FA7FC4698","title":"小南国(杨浦店)","lon":"121.5136","lat":"31.30356","category":"500","category_name":"未知分类","address":"上海杨浦区淞沪路161号中环国际大厦5楼(近政通路)  "},{"poiid":"B2094757D56DA5FF449D","title":"冰火名家巫山烤鱼","lon":"121.51397","lat":"31.308994","category":"247","category_name":"餐饮美食","address":"杨浦区政通路132号(近淞沪路)"},{"poiid":"B2094750DB64A6FF489D","title":"杨浦区出入境管理中心","lon":"121.514968","lat":"31.307382","category":"252","category_name":"楼宇机构","address":"淞沪路605号"},{"poiid":"B2094654D56FA1F9419B","title":"上海基督教沪东堂","lon":"121.51884","lat":"31.30827","category":"245","category_name":"教堂","address":"杨浦区国和路350号(国和路政立路)"},{"poiid":"B2094757D165A1F54792","title":"巴麦隆自助烤肉","lon":"121.515118103","lat":"31.3031431064","category":"247","category_name":"餐饮美食","address":"上海市杨浦区政通路132号2楼"},{"poiid":"B2094757D56DA5FF429E","title":"创智天地广场","lon":"121.513735","lat":"31.30492778","category":"263","category_name":"公司","address":"铁西区铁西兴华街与南十中路交处(兴华南街48号)"},{"poiid":"B2094757D569A3FC499E","title":"创智天地广场7号","lon":"121.51248345","lat":"31.30780002","category":"46","category_name":"楼宇","address":"中国上海市杨浦区政立路"},{"poiid":"B2094757D069A2FD479C","title":"蔡家食谱(创智天地店)","lon":"121.51303","lat":"31.30506","category":"76","category_name":"上海菜","address":"杨浦区淞沪路234号创智天地B1楼(近政民路)"},{"poiid":"B2094655D26AA7FB449F","title":"江湾体育场足球场","lon":"121.51909","lat":"31.30708","category":"247","category_name":"餐饮美食","address":"杨浦区国和路346号江湾体育馆(近政立路)"},{"poiid":"B2094757D06FA7FB4399","title":"85度C(政通店)","lon":"121.51534","lat":"31.30327","category":"112","category_name":"糕饼店","address":"杨浦区政通路132号(近国济路)"},{"poiid":"B2094757D06FA4FB4892","title":"天行健瑜伽健身会所","lon":"121.51888","lat":"31.30732","category":"221","category_name":"健身中心","address":"杨浦区国和路346号江湾体育场内10号看台152号(近邯郸路)"},{"poiid":"B2094655D26DA4FD459C","title":"江湾体育中心综合体育馆","lon":"121.51842","lat":"31.30756","category":"224","category_name":"综合体育馆","address":""},{"poiid":"B2094750D464AAFA469B","title":"巫山烤鱼","lon":"121.517814","lat":"31.306459","category":"247","category_name":"餐饮美食","address":"五角场"},{"poiid":"B2094757D66DA7F44093","title":"火锅传奇(五角场店)","lon":"121.518724103","lat":"31.3064921764","category":"247","category_name":"餐饮美食","address":"上海五角场百联又一城"},{"poiid":"B2094654DB6BA2FA4892","title":"江湾体育场(六号门)","lon":"121.51628","lat":"31.30522","category":"224","category_name":"综合体育馆","address":"政通路108号"},{"poiid":"B2094757D66DA5FE409F","title":"桐庐原生态农庄","lon":"121.513909003","lat":"31.3082353129","category":"87","category_name":"特色／地方风味餐厅","address":"杨浦区政立路245号"},{"poiid":"B2094750D76DAAFD429B","title":"蜀膳传火锅传奇(政通路店)","lon":"121.515","lat":"31.3038","category":"86","category_name":"火锅店","address":"杨浦区政通路132号2楼(近国济路)"},{"poiid":"B2094757D66CA7FA4198","title":"创智天地科技中心","lon":"121.5124111","lat":"31.307423195","category":"500","category_name":"未知分类","address":"上海杨浦政立路淞沪路"},{"poiid":"B2094757D66DA4F5499A","title":"巴麦隆烧烤","lon":"121.517052503","lat":"31.3036758175","category":"247","category_name":"餐饮美食","address":"上海五角场店"},{"poiid":"B2094655D26CA7F4469F","title":"创智天地广场十号","lon":"121.51317","lat":"31.30614","category":"46","category_name":"楼宇","address":"淞沪路234"},{"poiid":"B2094655D26DABF4419B","title":"创智天地广场一号","lon":"121.51375","lat":"31.30494","category":"46","category_name":"楼宇","address":"淞沪路234-290"},{"poiid":"B2094757D069A6F8429E","title":"淞沪路政立路路口","lon":"121.511682","lat":"31.306713","category":"500","category_name":"未知分类","address":"上海淞沪路政立路"},{"poiid":"B2094751D368A2FF459A","title":"Jamaica Blue(创智天地店)","lon":"121.51246","lat":"31.30587","category":"247","category_name":"餐饮美食","address":"杨浦区淞沪路333号创智天地三期7号楼大厅(近智星路)"},{"poiid":"B2094654DB6AA6FF449B","title":"如家快捷酒店上海江湾体育场店","lon":"121.51284","lat":"31.30811","category":"216","category_name":"经济型连锁酒店","address":"上海杨浦区政立路351号"},{"poiid":"B2094757DA69A3FB439E","title":"美吉姆上海杨浦中心","lon":"121.5141351534","lat":"31.307050115237","category":"632","category_name":"教育出国类公司","address":"杨浦区淞沪路308号创智天地地下广场5号楼B1楼(近政立路)"},{"poiid":"B2094757D069AAFD4592","title":"创智天地广场8号楼","lon":"121.5136502","lat":"31.304372732","category":"500","category_name":"未知分类","address":"上海杨浦区淞沪路398号"},{"poiid":"B2094654DB6BA2FA4998","title":"创智天地广场二号","lon":"121.51438","lat":"31.30528","category":"46","category_name":"楼宇","address":"淞沪路234"},{"poiid":"B2094757D06FA3F4469D","title":"天真蓝影像创意沙龙 Naive Blue","lon":"121.51397","lat":"31.308994","category":"249","category_name":"购物服务","address":"杨浦区大学路310号(近复旦大学)"},{"poiid":"B2094757D569A2FA489C","title":"创智天地广场九号","lon":"121.5126256","lat":"31.30653836","category":"46","category_name":"楼宇","address":"中国上海市杨浦区淞沪路"},{"poiid":"B2094654D56FA1F94392","title":"凯城景庭园","lon":"121.5161437","lat":"31.30862808","category":"47","category_name":"住宅区","address":"凯城景庭园位于杨浦政立路179弄"},{"poiid":"B2094750DA65A6F9469D","title":"共青森林公园","lon":"121.517395","lat":"31.303913","category":"250","category_name":"公园户外","address":null},{"poiid":"B2094757D16AA1FF4698","title":"明高高尔夫","lon":"121.515342103","lat":"31.3063121727","category":"500","category_name":"未知分类","address":"上海ShanghaiYangpuZhengli Rd"},{"poiid":"B2094757D569A1FE4199","title":"江湾体育乐园","lon":"121.5151788","lat":"31.30645166","category":"607","category_name":"一般景点","address":"淞沪路245号"},{"poiid":"B2094757D469A5F9449D","title":"海皇庭酒店","lon":"121.512146","lat":"31.30811","category":"76","category_name":"上海菜","address":"杨浦区政立路285号(近淞沪路)"},{"poiid":"B2094655D36DA7FF449B","title":"政立路市光路","lon":"121.51589","lat":"31.30803","category":"38","category_name":"公交车站","address":""},{"poiid":"B2094757D568AAFB4493","title":"创智天地广场6号","lon":"121.51362359","lat":"31.3078323","category":"46","category_name":"楼宇","address":"中国上海市杨浦区政立路"},{"poiid":"B2094757D66CA3FE4593","title":"广州蕉叶","lon":"121.5127091","lat":"31.30430813","category":"247","category_name":"餐饮美食","address":"上海市杨浦区政立路"},{"poiid":"B2094655D36DA7FF4492","title":"政通路淞沪路","lon":"121.51688","lat":"31.30801","category":"38","category_name":"公交车站","address":""},{"poiid":"B2094752D265A2F44699","title":"正豪大大鸡排(政通路店)","lon":"121.5127692","lat":"31.305628","category":"247","category_name":"餐饮美食","address":"五角场政通路132-6号"},{"poiid":"B2094655D26CA7F4469E","title":"创智天地广场三号","lon":"121.51378","lat":"31.30626","category":"46","category_name":"楼宇","address":"淞沪路234"},{"poiid":"B2094757D16EAAFD419A","title":"上海体育学院绿瓦大楼","lon":"121.516998","lat":"31.30820693","category":"500","category_name":"未知分类","address":"上海长海路399号"},{"poiid":"B2094757D069A5F44198","title":"创智天地园区","lon":"121.513423103","lat":"31.30618417","category":"46","category_name":"楼宇","address":"上海淞沪路创智天地"},{"poiid":"B2094654D56FABF44098","title":"江湾体育场","lon":"121.51518","lat":"31.30645","category":"224","category_name":"综合体育馆","address":"上海杨浦区国和路346号(近政衷路)"},{"poiid":"B2094757DA6FA2FD4499","title":"冰火名家巫山烤全鱼","lon":"121.515376","lat":"31.3036550000003","category":"71","category_name":"四川菜","address":"杨浦区政通路132号(近淞沪路)"},{"poiid":"B2094757DA6EA6F5439A","title":"鲜芋仙(五角场政通店)","lon":"121.515376","lat":"31.3036550000003","category":"67","category_name":"甜品店","address":"杨浦区政通路132号(国济路口)"},{"poiid":"B2094751D469A1FE489B","title":"西九巷咖啡（五角场店）","lon":"121.517806","lat":"31.304554","category":"65","category_name":"咖啡厅","address":"杨浦区政通路132-1号(近国济路)"},{"poiid":"B2094750DA6EA2F4479B","title":"烧肉达人（五角场店）","lon":"121.513885","lat":"31.303628","category":"269","category_name":"烧烤","address":"杨浦区淞沪路151号中环国际大厦4楼(近政通路)"},{"poiid":"B2094757D06FA3F54692","title":"江湾游泳池","lon":"121.51884","lat":"31.30675","category":"220","category_name":"运动场所","address":"杨浦区国和路346号(近政立路)"},{"poiid":"B2094757D068A3F8419B","title":"香啡缤(创智天地店)","lon":"121.51332","lat":"31.30562","category":"260","category_name":"其他","address":"杨浦区淞沪路270号创智天地B1楼03单元(近政民路)"},{"poiid":"B2094757D664A7FC459C","title":"星巴克 创智天地店 Starbucks Cafe","lon":"121.513526054","lat":"31.303552793","category":"260","category_name":"其他","address":"杨浦区淞沪路252-256号A1-24号创智天地下沉广场内(近政民路)"},{"poiid":"B2094757D06FA7FC4698","title":"小南国(杨浦店)","lon":"121.5136","lat":"31.30356","category":"500","category_name":"未知分类","address":"上海杨浦区淞沪路161号中环国际大厦5楼(近政通路)  "},{"poiid":"B2094757D56DA5FF449D","title":"冰火名家巫山烤鱼","lon":"121.51397","lat":"31.308994","category":"247","category_name":"餐饮美食","address":"杨浦区政通路132号(近淞沪路)"},{"poiid":"B2094750DB64A6FF489D","title":"杨浦区出入境管理中心","lon":"121.514968","lat":"31.307382","category":"252","category_name":"楼宇机构","address":"淞沪路605号"},{"poiid":"B2094654D56FA1F9419B","title":"上海基督教沪东堂","lon":"121.51884","lat":"31.30827","category":"245","category_name":"教堂","address":"杨浦区国和路350号(国和路政立路)"},{"poiid":"B2094757D165A1F54792","title":"巴麦隆自助烤肉","lon":"121.515118103","lat":"31.3031431064","category":"247","category_name":"餐饮美食","address":"上海市杨浦区政通路132号2楼"},{"poiid":"B2094757D56DA5FF429E","title":"创智天地广场","lon":"121.513735","lat":"31.30492778","category":"263","category_name":"公司","address":"铁西区铁西兴华街与南十中路交处(兴华南街48号)"},{"poiid":"B2094757D569A3FC499E","title":"创智天地广场7号","lon":"121.51248345","lat":"31.30780002","category":"46","category_name":"楼宇","address":"中国上海市杨浦区政立路"},{"poiid":"B2094757D069A2FD479C","title":"蔡家食谱(创智天地店)","lon":"121.51303","lat":"31.30506","category":"76","category_name":"上海菜","address":"杨浦区淞沪路234号创智天地B1楼(近政民路)"},{"poiid":"B2094655D26AA7FB449F","title":"江湾体育场足球场","lon":"121.51909","lat":"31.30708","category":"247","category_name":"餐饮美食","address":"杨浦区国和路346号江湾体育馆(近政立路)"},{"poiid":"B2094757D06FA7FB4399","title":"85度C(政通店)","lon":"121.51534","lat":"31.30327","category":"112","category_name":"糕饼店","address":"杨浦区政通路132号(近国济路)"},{"poiid":"B2094757D06FA4FB4892","title":"天行健瑜伽健身会所","lon":"121.51888","lat":"31.30732","category":"221","category_name":"健身中心","address":"杨浦区国和路346号江湾体育场内10号看台152号(近邯郸路)"},{"poiid":"B2094655D26DA4FD459C","title":"江湾体育中心综合体育馆","lon":"121.51842","lat":"31.30756","category":"224","category_name":"综合体育馆","address":""},{"poiid":"B2094750D464AAFA469B","title":"巫山烤鱼","lon":"121.517814","lat":"31.306459","category":"247","category_name":"餐饮美食","address":"五角场"},{"poiid":"B2094757D66DA7F44093","title":"火锅传奇(五角场店)","lon":"121.518724103","lat":"31.3064921764","category":"247","category_name":"餐饮美食","address":"上海五角场百联又一城"},{"poiid":"B2094654DB6BA2FA4892","title":"江湾体育场(六号门)","lon":"121.51628","lat":"31.30522","category":"224","category_name":"综合体育馆","address":"政通路108号"},{"poiid":"B2094757D66DA5FE409F","title":"桐庐原生态农庄","lon":"121.513909003","lat":"31.3082353129","category":"87","category_name":"特色／地方风味餐厅","address":"杨浦区政立路245号"},{"poiid":"B2094750D76DAAFD429B","title":"蜀膳传火锅传奇(政通路店)","lon":"121.515","lat":"31.3038","category":"86","category_name":"火锅店","address":"杨浦区政通路132号2楼(近国济路)"},{"poiid":"B2094757D66CA7FA4198","title":"创智天地科技中心","lon":"121.5124111","lat":"31.307423195","category":"500","category_name":"未知分类","address":"上海杨浦政立路淞沪路"},{"poiid":"B2094757D66DA4F5499A","title":"巴麦隆烧烤","lon":"121.517052503","lat":"31.3036758175","category":"247","category_name":"餐饮美食","address":"上海五角场店"},{"poiid":"B2094655D26CA7F4469F","title":"创智天地广场十号","lon":"121.51317","lat":"31.30614","category":"46","category_name":"楼宇","address":"淞沪路234"},{"poiid":"B2094655D26DABF4419B","title":"创智天地广场一号","lon":"121.51375","lat":"31.30494","category":"46","category_name":"楼宇","address":"淞沪路234-290"},{"poiid":"B2094757D069A6F8429E","title":"淞沪路政立路路口","lon":"121.511682","lat":"31.306713","category":"500","category_name":"未知分类","address":"上海淞沪路政立路"},{"poiid":"B2094751D368A2FF459A","title":"Jamaica Blue(创智天地店)","lon":"121.51246","lat":"31.30587","category":"247","category_name":"餐饮美食","address":"杨浦区淞沪路333号创智天地三期7号楼大厅(近智星路)"},{"poiid":"B2094654DB6AA6FF449B","title":"如家快捷酒店上海江湾体育场店","lon":"121.51284","lat":"31.30811","category":"216","category_name":"经济型连锁酒店","address":"上海杨浦区政立路351号"},{"poiid":"B2094757DA69A3FB439E","title":"美吉姆上海杨浦中心","lon":"121.5141351534","lat":"31.307050115237","category":"632","category_name":"教育出国类公司","address":"杨浦区淞沪路308号创智天地地下广场5号楼B1楼(近政立路)"},{"poiid":"B2094757D069AAFD4592","title":"创智天地广场8号楼","lon":"121.5136502","lat":"31.304372732","category":"500","category_name":"未知分类","address":"上海杨浦区淞沪路398号"},{"poiid":"B2094654DB6BA2FA4998","title":"创智天地广场二号","lon":"121.51438","lat":"31.30528","category":"46","category_name":"楼宇","address":"淞沪路234"},{"poiid":"B2094757D06FA3F4469D","title":"天真蓝影像创意沙龙 Naive Blue","lon":"121.51397","lat":"31.308994","category":"249","category_name":"购物服务","address":"杨浦区大学路310号(近复旦大学)"},{"poiid":"B2094757D569A2FA489C","title":"创智天地广场九号","lon":"121.5126256","lat":"31.30653836","category":"46","category_name":"楼宇","address":"中国上海市杨浦区淞沪路"},{"poiid":"B2094654D56FA1F94392","title":"凯城景庭园","lon":"121.5161437","lat":"31.30862808","category":"47","category_name":"住宅区","address":"凯城景庭园位于杨浦政立路179弄"},{"poiid":"B2094750DA65A6F9469D","title":"共青森林公园","lon":"121.517395","lat":"31.303913","category":"250","category_name":"公园户外","address":null},{"poiid":"B2094757D16AA1FF4698","title":"明高高尔夫","lon":"121.515342103","lat":"31.3063121727","category":"500","category_name":"未知分类","address":"上海ShanghaiYangpuZhengli Rd"},{"poiid":"B2094757D569A1FE4199","title":"江湾体育乐园","lon":"121.5151788","lat":"31.30645166","category":"607","category_name":"一般景点","address":"淞沪路245号"},{"poiid":"B2094757D469A5F9449D","title":"海皇庭酒店","lon":"121.512146","lat":"31.30811","category":"76","category_name":"上海菜","address":"杨浦区政立路285号(近淞沪路)"},{"poiid":"B2094655D36DA7FF449B","title":"政立路市光路","lon":"121.51589","lat":"31.30803","category":"38","category_name":"公交车站","address":""},{"poiid":"B2094757D568AAFB4493","title":"创智天地广场6号","lon":"121.51362359","lat":"31.3078323","category":"46","category_name":"楼宇","address":"中国上海市杨浦区政立路"},{"poiid":"B2094757D66CA3FE4593","title":"广州蕉叶","lon":"121.5127091","lat":"31.30430813","category":"247","category_name":"餐饮美食","address":"上海市杨浦区政立路"},{"poiid":"B2094655D36DA7FF4492","title":"政通路淞沪路","lon":"121.51688","lat":"31.30801","category":"38","category_name":"公交车站","address":""},{"poiid":"B2094752D265A2F44699","title":"正豪大大鸡排(政通路店)","lon":"121.5127692","lat":"31.305628","category":"247","category_name":"餐饮美食","address":"五角场政通路132-6号"},{"poiid":"B2094655D26CA7F4469E","title":"创智天地广场三号","lon":"121.51378","lat":"31.30626","category":"46","category_name":"楼宇","address":"淞沪路234"},{"poiid":"B2094757D16EAAFD419A","title":"上海体育学院绿瓦大楼","lon":"121.516998","lat":"31.30820693","category":"500","category_name":"未知分类","address":"上海长海路399号"},{"poiid":"B2094757D069A5F44198","title":"创智天地园区","lon":"121.513423103","lat":"31.30618417","category":"46","category_name":"楼宇","address":"上海淞沪路创智天地"},{"poiid":"B2094654D56FABF44098","title":"江湾体育场","lon":"121.51518","lat":"31.30645","category":"224","category_name":"综合体育馆","address":"上海杨浦区国和路346号(近政衷路)"},{"poiid":"B2094757DA6FA2FD4499","title":"冰火名家巫山烤全鱼","lon":"121.515376","lat":"31.3036550000003","category":"71","category_name":"四川菜","address":"杨浦区政通路132号(近淞沪路)"},{"poiid":"B2094757DA6EA6F5439A","title":"鲜芋仙(五角场政通店)","lon":"121.515376","lat":"31.3036550000003","category":"67","category_name":"甜品店","address":"杨浦区政通路132号(国济路口)"},{"poiid":"B2094751D469A1FE489B","title":"西九巷咖啡（五角场店）","lon":"121.517806","lat":"31.304554","category":"65","category_name":"咖啡厅","address":"杨浦区政通路132-1号(近国济路)"},{"poiid":"B2094750DA6EA2F4479B","title":"烧肉达人（五角场店）","lon":"121.513885","lat":"31.303628","category":"269","category_name":"烧烤","address":"杨浦区淞沪路151号中环国际大厦4楼(近政通路)"},{"poiid":"B2094757D06FA3F54692","title":"江湾游泳池","lon":"121.51884","lat":"31.30675","category":"220","category_name":"运动场所","address":"杨浦区国和路346号(近政立路)"},{"poiid":"B2094757D068A3F8419B","title":"香啡缤(创智天地店)","lon":"121.51332","lat":"31.30562","category":"260","category_name":"其他","address":"杨浦区淞沪路270号创智天地B1楼03单元(近政民路)"},{"poiid":"B2094757D664A7FC459C","title":"星巴克 创智天地店 Starbucks Cafe","lon":"121.513526054","lat":"31.303552793","category":"260","category_name":"其他","address":"杨浦区淞沪路252-256号A1-24号创智天地下沉广场内(近政民路)"},{"poiid":"B2094757D06FA7FC4698","title":"小南国(杨浦店)","lon":"121.5136","lat":"31.30356","category":"500","category_name":"未知分类","address":"上海杨浦区淞沪路161号中环国际大厦5楼(近政通路)  "},{"poiid":"B2094757D56DA5FF449D","title":"冰火名家巫山烤鱼","lon":"121.51397","lat":"31.308994","category":"247","category_name":"餐饮美食","address":"杨浦区政通路132号(近淞沪路)"},{"poiid":"B2094750DB64A6FF489D","title":"杨浦区出入境管理中心","lon":"121.514968","lat":"31.307382","category":"252","category_name":"楼宇机构","address":"淞沪路605号"},{"poiid":"B2094654D56FA1F9419B","title":"上海基督教沪东堂","lon":"121.51884","lat":"31.30827","category":"245","category_name":"教堂","address":"杨浦区国和路350号(国和路政立路)"},{"poiid":"B2094757D165A1F54792","title":"巴麦隆自助烤肉","lon":"121.515118103","lat":"31.3031431064","category":"247","category_name":"餐饮美食","address":"上海市杨浦区政通路132号2楼"},{"poiid":"B2094757D56DA5FF429E","title":"创智天地广场","lon":"121.513735","lat":"31.30492778","category":"263","category_name":"公司","address":"铁西区铁西兴华街与南十中路交处(兴华南街48号)"},{"poiid":"B2094757D569A3FC499E","title":"创智天地广场7号","lon":"121.51248345","lat":"31.30780002","category":"46","category_name":"楼宇","address":"中国上海市杨浦区政立路"},{"poiid":"B2094757D069A2FD479C","title":"蔡家食谱(创智天地店)","lon":"121.51303","lat":"31.30506","category":"76","category_name":"上海菜","address":"杨浦区淞沪路234号创智天地B1楼(近政民路)"},{"poiid":"B2094655D26AA7FB449F","title":"江湾体育场足球场","lon":"121.51909","lat":"31.30708","category":"247","category_name":"餐饮美食","address":"杨浦区国和路346号江湾体育馆(近政立路)"},{"poiid":"B2094757D06FA7FB4399","title":"85度C(政通店)","lon":"121.51534","lat":"31.30327","category":"112","category_name":"糕饼店","address":"杨浦区政通路132号(近国济路)"},{"poiid":"B2094757D06FA4FB4892","title":"天行健瑜伽健身会所","lon":"121.51888","lat":"31.30732","category":"221","category_name":"健身中心","address":"杨浦区国和路346号江湾体育场内10号看台152号(近邯郸路)"},{"poiid":"B2094655D26DA4FD459C","title":"江湾体育中心综合体育馆","lon":"121.51842","lat":"31.30756","category":"224","category_name":"综合体育馆","address":""},{"poiid":"B2094750D464AAFA469B","title":"巫山烤鱼","lon":"121.517814","lat":"31.306459","category":"247","category_name":"餐饮美食","address":"五角场"},{"poiid":"B2094757D66DA7F44093","title":"火锅传奇(五角场店)","lon":"121.518724103","lat":"31.3064921764","category":"247","category_name":"餐饮美食","address":"上海五角场百联又一城"},{"poiid":"B2094654DB6BA2FA4892","title":"江湾体育场(六号门)","lon":"121.51628","lat":"31.30522","category":"224","category_name":"综合体育馆","address":"政通路108号"},{"poiid":"B2094757D66DA5FE409F","title":"桐庐原生态农庄","lon":"121.513909003","lat":"31.3082353129","category":"87","category_name":"特色／地方风味餐厅","address":"杨浦区政立路245号"},{"poiid":"B2094750D76DAAFD429B","title":"蜀膳传火锅传奇(政通路店)","lon":"121.515","lat":"31.3038","category":"86","category_name":"火锅店","address":"杨浦区政通路132号2楼(近国济路)"},{"poiid":"B2094757D66CA7FA4198","title":"创智天地科技中心","lon":"121.5124111","lat":"31.307423195","category":"500","category_name":"未知分类","address":"上海杨浦政立路淞沪路"},{"poiid":"B2094757D66DA4F5499A","title":"巴麦隆烧烤","lon":"121.517052503","lat":"31.3036758175","category":"247","category_name":"餐饮美食","address":"上海五角场店"},{"poiid":"B2094655D26CA7F4469F","title":"创智天地广场十号","lon":"121.51317","lat":"31.30614","category":"46","category_name":"楼宇","address":"淞沪路234"},{"poiid":"B2094655D26DABF4419B","title":"创智天地广场一号","lon":"121.51375","lat":"31.30494","category":"46","category_name":"楼宇","address":"淞沪路234-290"},{"poiid":"B2094757D069A6F8429E","title":"淞沪路政立路路口","lon":"121.511682","lat":"31.306713","category":"500","category_name":"未知分类","address":"上海淞沪路政立路"},{"poiid":"B2094751D368A2FF459A","title":"Jamaica Blue(创智天地店)","lon":"121.51246","lat":"31.30587","category":"247","category_name":"餐饮美食","address":"杨浦区淞沪路333号创智天地三期7号楼大厅(近智星路)"},{"poiid":"B2094654DB6AA6FF449B","title":"如家快捷酒店上海江湾体育场店","lon":"121.51284","lat":"31.30811","category":"216","category_name":"经济型连锁酒店","address":"上海杨浦区政立路351号"},{"poiid":"B2094757DA69A3FB439E","title":"美吉姆上海杨浦中心","lon":"121.5141351534","lat":"31.307050115237","category":"632","category_name":"教育出国类公司","address":"杨浦区淞沪路308号创智天地地下广场5号楼B1楼(近政立路)"},{"poiid":"B2094757D069AAFD4592","title":"创智天地广场8号楼","lon":"121.5136502","lat":"31.304372732","category":"500","category_name":"未知分类","address":"上海杨浦区淞沪路398号"},{"poiid":"B2094654DB6BA2FA4998","title":"创智天地广场二号","lon":"121.51438","lat":"31.30528","category":"46","category_name":"楼宇","address":"淞沪路234"},{"poiid":"B2094757D06FA3F4469D","title":"天真蓝影像创意沙龙 Naive Blue","lon":"121.51397","lat":"31.308994","category":"249","category_name":"购物服务","address":"杨浦区大学路310号(近复旦大学)"},{"poiid":"B2094757D569A2FA489C","title":"创智天地广场九号","lon":"121.5126256","lat":"31.30653836","category":"46","category_name":"楼宇","address":"中国上海市杨浦区淞沪路"},{"poiid":"B2094654D56FA1F94392","title":"凯城景庭园","lon":"121.5161437","lat":"31.30862808","category":"47","category_name":"住宅区","address":"凯城景庭园位于杨浦政立路179弄"},{"poiid":"B2094750DA65A6F9469D","title":"共青森林公园","lon":"121.517395","lat":"31.303913","category":"250","category_name":"公园户外","address":null},{"poiid":"B2094757D16AA1FF4698","title":"明高高尔夫","lon":"121.515342103","lat":"31.3063121727","category":"500","category_name":"未知分类","address":"上海ShanghaiYangpuZhengli Rd"},{"poiid":"B2094757D569A1FE4199","title":"江湾体育乐园","lon":"121.5151788","lat":"31.30645166","category":"607","category_name":"一般景点","address":"淞沪路245号"},{"poiid":"B2094757D469A5F9449D","title":"海皇庭酒店","lon":"121.512146","lat":"31.30811","category":"76","category_name":"上海菜","address":"杨浦区政立路285号(近淞沪路)"},{"poiid":"B2094655D36DA7FF449B","title":"政立路市光路","lon":"121.51589","lat":"31.30803","category":"38","category_name":"公交车站","address":""},{"poiid":"B2094757D568AAFB4493","title":"创智天地广场6号","lon":"121.51362359","lat":"31.3078323","category":"46","category_name":"楼宇","address":"中国上海市杨浦区政立路"},{"poiid":"B2094757D66CA3FE4593","title":"广州蕉叶","lon":"121.5127091","lat":"31.30430813","category":"247","category_name":"餐饮美食","address":"上海市杨浦区政立路"},{"poiid":"B2094655D36DA7FF4492","title":"政通路淞沪路","lon":"121.51688","lat":"31.30801","category":"38","category_name":"公交车站","address":""},{"poiid":"B2094752D265A2F44699","title":"正豪大大鸡排(政通路店)","lon":"121.5127692","lat":"31.305628","category":"247","category_name":"餐饮美食","address":"五角场政通路132-6号"},{"poiid":"B2094655D26CA7F4469E","title":"创智天地广场三号","lon":"121.51378","lat":"31.30626","category":"46","category_name":"楼宇","address":"淞沪路234"},{"poiid":"B2094757D16EAAFD419A","title":"上海体育学院绿瓦大楼","lon":"121.516998","lat":"31.30820693","category":"500","category_name":"未知分类","address":"上海长海路399号"}]