[{"poiid":"B2094654D56FABF54198","title":"上海长海医院","lon":"121.5256","lat":"31.30936","category":"162","category_name":"医院","address":"上海杨浦区长海路168-174号(长海路)"},{"poiid":"B2094757D06FA3FD419E","title":"上海体育学院","lon":"121.52434","lat":"31.31238","category":"671","category_name":"高校中心点","address":"杨浦区长海路345号上海体育学院内(近嫩江路)"},{"poiid":"B2094654D56FAAFC4499","title":"上海体育学院学生宿舍区","lon":"121.52332","lat":"31.31174","category":"47","category_name":"住宅区","address":"恒仁路200"},{"poiid":"B2094757D068A7F4469B","title":"长海医院住院部","lon":"121.527867794","lat":"31.3088527016","category":"162","category_name":"医院","address":"上海杨浦区长海路174号(中原路)"},{"poiid":"B2094751D26DA3FB499F","title":"夏朵西餐厅(中原城市广场店）","lon":"121.520195","lat":"31.313718","category":"500","category_name":"未知分类","address":"杨浦区国和路709号中原城市广场内(近民约路)"},{"poiid":"B2094757D06FA7FF469A","title":"榕港海鲜大酒楼(杨浦店)","lon":"121.5190717330238","lat":"31.310897096007913","category":"88","category_name":"海鲜酒楼","address":"杨浦区国和路488号(近长海路)"},{"poiid":"B2094757D06FA4FD4393","title":"上海体育学院综合馆","lon":"121.52752","lat":"31.30951","category":"221","category_name":"健身中心","address":"杨浦区长海路345号上海体育学院内(近嫩江路)"},{"poiid":"B2094757D16CA5FD4699","title":"五角场镇","lon":"121.519556103","lat":"31.3113422779","category":"500","category_name":"未知分类","address":"上海市杨浦区政立路55号"},{"poiid":"B2094757D169A7F8489B","title":"长海医院六号楼","lon":"121.523173103","lat":"31.3084360171","category":"162","category_name":"医院","address":"上海长海路168号"},{"poiid":"B2094751D26BA3F5429D","title":"新石器烤肉","lon":"121.521443","lat":"31.315722","category":"68","category_name":"快餐厅","address":"杨浦区国和路709号中原城市广场1号楼2楼1203商铺(近民约路)"},{"poiid":"B2094757D068A4F94099","title":"肯德基 KFC (长海店)","lon":"121.52692775","lat":"31.309974424","category":"68","category_name":"快餐厅","address":"杨浦区长海路361号(近嫩江路)"},{"poiid":"B2094655D26CA6FE469F","title":"上海体育学院宿舍区(北一门)","lon":"121.52105","lat":"31.31241","category":"47","category_name":"住宅区","address":"清源环路501"},{"poiid":"B2094757D069A3FD469E","title":"85度C(长海店)","lon":"121.5244098","lat":"31.3096843","category":"112","category_name":"糕饼店","address":"杨浦区长海路469号(近恒仁路)"},{"poiid":"B2094750DB64A5FA4292","title":"巨麦时尚KTV(中原店)","lon":"121.52188942593386","lat":"31.316110880928736","category":"170","category_name":"KTV","address":"杨浦区国和路709号中原城市广场2座3楼2307号铺"},{"poiid":"B2094654D56FAAFC449D","title":"永和大王(长海路)","lon":"121.52509","lat":"31.30982","category":"68","category_name":"快餐厅","address":"杨浦区长海路399号(近长海医院)"},{"poiid":"B2094757D068A0FB459E","title":"红宝石(长海路店)","lon":"121.52468","lat":"31.309458","category":"67","category_name":"甜品店","address":"杨浦区长海路268号(近长海医院)"},{"poiid":"B2094757D16CA2FD4499","title":"长海路","lon":"121.523313103","lat":"31.3106352631","category":"500","category_name":"未知分类","address":"上海市杨浦区长海路"},{"poiid":"B2094757D06FABFE4399","title":"五角场花鸟市场","lon":"121.52073","lat":"31.31018","category":"249","category_name":"购物服务","address":"上海杨浦区国和路493号(近长海医院)  "},{"poiid":"B2094654D56EA4FC4198","title":"中环国际大厦","lon":"121.52","lat":"31.3093","category":"46","category_name":"楼宇","address":"上海市四川北路1851号"},{"poiid":"B2094654D56FABF84092","title":"沪东金融大厦","lon":"121.523","lat":"31.307","category":"46","category_name":"楼宇","address":"越秀区环市东路362-366号"},{"poiid":"B2094654DB6BA2FB409D","title":"上海体育学院宿舍区(二号门)","lon":"121.52229","lat":"31.31236","category":"52","category_name":"高等院校","address":"杨浦区清源环路531"},{"poiid":"B2094750D768A0F54793","title":"喜达石锅饭","lon":"121.525","lat":"31.3098","category":"96","category_name":"韩国料理","address":"杨浦区长海路437号(近长海医院)"},{"poiid":"B2094654D56FABF4489E","title":"同济中学(政立路)","lon":"121.52196","lat":"31.3076","category":"55","category_name":"中学","address":"政立路20号"},{"poiid":"B2094654D56FABF8499B","title":"平盛大厦","lon":"121.522","lat":"31.3087","category":"46","category_name":"楼宇","address":"丰台学城海鹰路1号,3号"},{"poiid":"B2094654DB69A4FB4199","title":"重庆鸡公煲(长海店)","lon":"121.52284","lat":"31.30943","category":"71","category_name":"四川菜","address":"杨浦区长海路436号(黑山路)"},{"poiid":"B2094654DB64A6F94492","title":"上岛咖啡 长海路店 UBC Coffee","lon":"121.520090054","lat":"31.309342793","category":"260","category_name":"其他","address":"杨浦区长海路560号(国和路)"},{"poiid":"B2094752D26DA3FF419C","title":"番茄妹米线","lon":"121.52127","lat":"31.31576","category":"68","category_name":"快餐厅","address":"杨浦区杨浦区国和路709号中原城市广场2座1楼2109-2110号铺(近民约路)"},{"poiid":"B2094757D16AA6FD409B","title":"上体伤骨科医院","lon":"121.52386","lat":"31.31119","category":"162","category_name":"医院","address":"杨浦区长海路345号上海体育学院内(近嫩江路)"},{"poiid":"B2094750D26DA4FF449A","title":"宁波小厨","lon":"121.523316","lat":"31.312532","category":"75","category_name":"浙江菜","address":"杨浦区清源环路588号(上海市体育学院西门近恒仁路)"},{"poiid":"B2094654D56FABFB4598","title":"政通路100弄小区","lon":"121.524","lat":"31.3102","category":"47","category_name":"住宅区","address":"政通路100弄"},{"poiid":"B2094757D06AA0F8429F","title":"上海体育学院足球场","lon":"121.52598","lat":"31.31292","category":"220","category_name":"运动场所","address":"杨浦区长海路399号(近长海医院)"},{"poiid":"B2094654D56FAAFD479E","title":"国和路611弄1-60号小区","lon":"121.52036","lat":"31.31395","category":"47","category_name":"住宅区","address":"国和路611弄1-61号"},{"poiid":"B2094654D56FAAFC449B","title":"上海体育学院运动康复中心","lon":"121.52333","lat":"31.31075","category":"162","category_name":"医院","address":""},{"poiid":"B2094654D56FAAFC4393","title":"长海医院康复病区","lon":"121.52332","lat":"31.31076","category":"162","category_name":"医院","address":""},{"poiid":"B2094654D56FAAFC4493","title":"上海体育学院(南门)","lon":"121.52511","lat":"31.30989","category":"656","category_name":"大门","address":"杨浦区长海路399"},{"poiid":"B2094751DA6CA0FE469B","title":"长海医院急诊输液室","lon":"121.52372","lat":"31.308737","category":"162","category_name":"医院","address":"长海路168号"},{"poiid":"B2094757D069ABFA439C","title":"上海市第六人民医院骨科","lon":"121.52332","lat":"31.310757","category":"162","category_name":"医院","address":"上海徐汇区宜山路600号2楼骨科门诊部"},{"poiid":"B2094757D66FA1FC419B","title":"第二军医大学附属长海医院中医科","lon":"121.527223997","lat":"31.3081795348","category":"162","category_name":"医院","address":"上海长海医院4楼"},{"poiid":"B2094757D06BA7FB419A","title":"上海体育学院 篮球馆","lon":"121.525613","lat":"31.311424","category":"500","category_name":"未知分类","address":"上海长海路399号"},{"poiid":"B2094655D36CA5F9459D","title":"长海路黑山路","lon":"121.52231","lat":"31.30968","category":"38","category_name":"公交车站","address":""},{"poiid":"B2094750DB69AAFE429D","title":"上海体育学院学生活动中心","lon":"121.52362026060484","lat":"31.310951328051882","category":"253","category_name":"校园生活","address":"杨浦区恒仁路200号"},{"poiid":"B2094750DA6AA2F54898","title":"上海体育学院图书馆","lon":"121.523536","lat":"31.312713","category":"253","category_name":"校园生活","address":"杨浦区长海路345号上海体育学院内(近嫩江路)"},{"poiid":"B2094750D26CA5F44593","title":"避风塘","lon":"121.5204989651532","lat":"31.30947483559236","category":"68","category_name":"快餐厅","address":"杨浦区政立路56号(近国和路)"},{"poiid":"B2094757D06AAAF84692","title":"长海三村","lon":"121.52231","lat":"31.309682","category":"252","category_name":"楼宇机构","address":"上海长海路黑山路"},{"poiid":"B2094654D56FAAFD459D","title":"体院小区","lon":"121.52154","lat":"31.31308","category":"47","category_name":"住宅区","address":"上海市清源环路542弄"},{"poiid":"B2094757D66DA3FE429E","title":"上海体育学院附属竞技体育学校","lon":"121.523432","lat":"31.313966","category":"253","category_name":"校园生活","address":"上海恒仁路300号"},{"poiid":"B2094757D164A7FD4092","title":"长海医院口腔科","lon":"121.52552157","lat":"31.309668842","category":"162","category_name":"医院","address":"上海长海医院"},{"poiid":"B2094757D568AAF5409C","title":"百联购物又一城","lon":"121.522566","lat":"31.306448","category":"249","category_name":"购物服务","address":"杨浦区淞沪路8号(近邯郸路)"},{"poiid":"B2094757D66CA2FF469D","title":"东风标致国和店4s","lon":"121.520562103","lat":"31.3154163632","category":"500","category_name":"未知分类","address":"上海国和路"},{"poiid":"B2094757D66BA6FF4292","title":"真功夫 长海路店","lon":"121.528162","lat":"31.309826","category":"68","category_name":"快餐厅","address":"杨浦区长海路长海医院门口"},{"poiid":"B2094654D56FABF54198","title":"上海长海医院","lon":"121.5256","lat":"31.30936","category":"162","category_name":"医院","address":"上海杨浦区长海路168-174号(长海路)"},{"poiid":"B2094757D06FA3FD419E","title":"上海体育学院","lon":"121.52434","lat":"31.31238","category":"671","category_name":"高校中心点","address":"杨浦区长海路345号上海体育学院内(近嫩江路)"},{"poiid":"B2094654D56FAAFC4499","title":"上海体育学院学生宿舍区","lon":"121.52332","lat":"31.31174","category":"47","category_name":"住宅区","address":"恒仁路200"},{"poiid":"B2094757D068A7F4469B","title":"长海医院住院部","lon":"121.527867794","lat":"31.3088527016","category":"162","category_name":"医院","address":"上海杨浦区长海路174号(中原路)"},{"poiid":"B2094751D26DA3FB499F","title":"夏朵西餐厅(中原城市广场店）","lon":"121.520195","lat":"31.313718","category":"500","category_name":"未知分类","address":"杨浦区国和路709号中原城市广场内(近民约路)"},{"poiid":"B2094757D06FA7FF469A","title":"榕港海鲜大酒楼(杨浦店)","lon":"121.5190717330238","lat":"31.310897096007913","category":"88","category_name":"海鲜酒楼","address":"杨浦区国和路488号(近长海路)"},{"poiid":"B2094757D06FA4FD4393","title":"上海体育学院综合馆","lon":"121.52752","lat":"31.30951","category":"221","category_name":"健身中心","address":"杨浦区长海路345号上海体育学院内(近嫩江路)"},{"poiid":"B2094757D16CA5FD4699","title":"五角场镇","lon":"121.519556103","lat":"31.3113422779","category":"500","category_name":"未知分类","address":"上海市杨浦区政立路55号"},{"poiid":"B2094757D169A7F8489B","title":"长海医院六号楼","lon":"121.523173103","lat":"31.3084360171","category":"162","category_name":"医院","address":"上海长海路168号"},{"poiid":"B2094751D26BA3F5429D","title":"新石器烤肉","lon":"121.521443","lat":"31.315722","category":"68","category_name":"快餐厅","address":"杨浦区国和路709号中原城市广场1号楼2楼1203商铺(近民约路)"},{"poiid":"B2094757D068A4F94099","title":"肯德基 KFC (长海店)","lon":"121.52692775","lat":"31.309974424","category":"68","category_name":"快餐厅","address":"杨浦区长海路361号(近嫩江路)"},{"poiid":"B2094655D26CA6FE469F","title":"上海体育学院宿舍区(北一门)","lon":"121.52105","lat":"31.31241","category":"47","category_name":"住宅区","address":"清源环路501"},{"poiid":"B2094757D069A3FD469E","title":"85度C(长海店)","lon":"121.5244098","lat":"31.3096843","category":"112","category_name":"糕饼店","address":"杨浦区长海路469号(近恒仁路)"},{"poiid":"B2094750DB64A5FA4292","title":"巨麦时尚KTV(中原店)","lon":"121.52188942593386","lat":"31.316110880928736","category":"170","category_name":"KTV","address":"杨浦区国和路709号中原城市广场2座3楼2307号铺"},{"poiid":"B2094654D56FAAFC449D","title":"永和大王(长海路)","lon":"121.52509","lat":"31.30982","category":"68","category_name":"快餐厅","address":"杨浦区长海路399号(近长海医院)"},{"poiid":"B2094757D068A0FB459E","title":"红宝石(长海路店)","lon":"121.52468","lat":"31.309458","category":"67","category_name":"甜品店","address":"杨浦区长海路268号(近长海医院)"},{"poiid":"B2094757D16CA2FD4499","title":"长海路","lon":"121.523313103","lat":"31.3106352631","category":"500","category_name":"未知分类","address":"上海市杨浦区长海路"},{"poiid":"B2094757D06FABFE4399","title":"五角场花鸟市场","lon":"121.52073","lat":"31.31018","category":"249","category_name":"购物服务","address":"上海杨浦区国和路493号(近长海医院)  "},{"poiid":"B2094654D56EA4FC4198","title":"中环国际大厦","lon":"121.52","lat":"31.3093","category":"46","category_name":"楼宇","address":"上海市四川北路1851号"},{"poiid":"B2094654D56FABF84092","title":"沪东金融大厦","lon":"121.523","lat":"31.307","category":"46","category_name":"楼宇","address":"越秀区环市东路362-366号"},{"poiid":"B2094654DB6BA2FB409D","title":"上海体育学院宿舍区(二号门)","lon":"121.52229","lat":"31.31236","category":"52","category_name":"高等院校","address":"杨浦区清源环路531"},{"poiid":"B2094750D768A0F54793","title":"喜达石锅饭","lon":"121.525","lat":"31.3098","category":"96","category_name":"韩国料理","address":"杨浦区长海路437号(近长海医院)"},{"poiid":"B2094654D56FABF4489E","title":"同济中学(政立路)","lon":"121.52196","lat":"31.3076","category":"55","category_name":"中学","address":"政立路20号"},{"poiid":"B2094654D56FABF8499B","title":"平盛大厦","lon":"121.522","lat":"31.3087","category":"46","category_name":"楼宇","address":"丰台学城海鹰路1号,3号"},{"poiid":"B2094654DB69A4FB4199","title":"重庆鸡公煲(长海店)","lon":"121.52284","lat":"31.30943","category":"71","category_name":"四川菜","address":"杨浦区长海路436号(黑山路)"},{"poiid":"B2094654DB64A6F94492","title":"上岛咖啡 长海路店 UBC Coffee","lon":"121.520090054","lat":"31.309342793","category":"260","category_name":"其他","address":"杨浦区长海路560号(国和路)"},{"poiid":"B2094752D26DA3FF419C","title":"番茄妹米线","lon":"121.52127","lat":"31.31576","category":"68","category_name":"快餐厅","address":"杨浦区杨浦区国和路709号中原城市广场2座1楼2109-2110号铺(近民约路)"},{"poiid":"B2094757D16AA6FD409B","title":"上体伤骨科医院","lon":"121.52386","lat":"31.31119","category":"162","category_name":"医院","address":"杨浦区长海路345号上海体育学院内(近嫩江路)"},{"poiid":"B2094750D26DA4FF449A","title":"宁波小厨","lon":"121.523316","lat":"31.312532","category":"75","category_name":"浙江菜","address":"杨浦区清源环路588号(上海市体育学院西门近恒仁路)"},{"poiid":"B2094654D56FABFB4598","title":"政通路100弄小区","lon":"121.524","lat":"31.3102","category":"47","category_name":"住宅区","address":"政通路100弄"},{"poiid":"B2094757D06AA0F8429F","title":"上海体育学院足球场","lon":"121.52598","lat":"31.31292","category":"220","category_name":"运动场所","address":"杨浦区长海路399号(近长海医院)"},{"poiid":"B2094654D56FAAFD479E","title":"国和路611弄1-60号小区","lon":"121.52036","lat":"31.31395","category":"47","category_name":"住宅区","address":"国和路611弄1-61号"},{"poiid":"B2094654D56FAAFC449B","title":"上海体育学院运动康复中心","lon":"121.52333","lat":"31.31075","category":"162","category_name":"医院","address":""},{"poiid":"B2094654D56FAAFC4393","title":"长海医院康复病区","lon":"121.52332","lat":"31.31076","category":"162","category_name":"医院","address":""},{"poiid":"B2094654D56FAAFC4493","title":"上海体育学院(南门)","lon":"121.52511","lat":"31.30989","category":"656","category_name":"大门","address":"杨浦区长海路399"},{"poiid":"B2094751DA6CA0FE469B","title":"长海医院急诊输液室","lon":"121.52372","lat":"31.308737","category":"162","category_name":"医院","address":"长海路168号"},{"poiid":"B2094757D069ABFA439C","title":"上海市第六人民医院骨科","lon":"121.52332","lat":"31.310757","category":"162","category_name":"医院","address":"上海徐汇区宜山路600号2楼骨科门诊部"},{"poiid":"B2094757D66FA1FC419B","title":"第二军医大学附属长海医院中医科","lon":"121.527223997","lat":"31.3081795348","category":"162","category_name":"医院","address":"上海长海医院4楼"},{"poiid":"B2094757D06BA7FB419A","title":"上海体育学院 篮球馆","lon":"121.525613","lat":"31.311424","category":"500","category_name":"未知分类","address":"上海长海路399号"},{"poiid":"B2094655D36CA5F9459D","title":"长海路黑山路","lon":"121.52231","lat":"31.30968","category":"38","category_name":"公交车站","address":""},{"poiid":"B2094750DB69AAFE429D","title":"上海体育学院学生活动中心","lon":"121.52362026060484","lat":"31.310951328051882","category":"253","category_name":"校园生活","address":"杨浦区恒仁路200号"},{"poiid":"B2094750DA6AA2F54898","title":"上海体育学院图书馆","lon":"121.523536","lat":"31.312713","category":"253","category_name":"校园生活","address":"杨浦区长海路345号上海体育学院内(近嫩江路)"},{"poiid":"B2094750D26CA5F44593","title":"避风塘","lon":"121.5204989651532","lat":"31.30947483559236","category":"68","category_name":"快餐厅","address":"杨浦区政立路56号(近国和路)"},{"poiid":"B2094757D06AAAF84692","title":"长海三村","lon":"121.52231","lat":"31.309682","category":"252","category_name":"楼宇机构","address":"上海长海路黑山路"},{"poiid":"B2094654D56FAAFD459D","title":"体院小区","lon":"121.52154","lat":"31.31308","category":"47","category_name":"住宅区","address":"上海市清源环路542弄"},{"poiid":"B2094757D66DA3FE429E","title":"上海体育学院附属竞技体育学校","lon":"121.523432","lat":"31.313966","category":"253","category_name":"校园生活","address":"上海恒仁路300号"},{"poiid":"B2094757D164A7FD4092","title":"长海医院口腔科","lon":"121.52552157","lat":"31.309668842","category":"162","category_name":"医院","address":"上海长海医院"},{"poiid":"B2094757D568AAF5409C","title":"百联购物又一城","lon":"121.522566","lat":"31.306448","category":"249","category_name":"购物服务","address":"杨浦区淞沪路8号(近邯郸路)"},{"poiid":"B2094757D66CA2FF469D","title":"东风标致国和店4s","lon":"121.520562103","lat":"31.3154163632","category":"500","category_name":"未知分类","address":"上海国和路"},{"poiid":"B2094757D66BA6FF4292","title":"真功夫 长海路店","lon":"121.528162","lat":"31.309826","category":"68","category_name":"快餐厅","address":"杨浦区长海路长海医院门口"},{"poiid":"B2094654D56FABF54198","title":"上海长海医院","lon":"121.5256","lat":"31.30936","category":"162","category_name":"医院","address":"上海杨浦区长海路168-174号(长海路)"},{"poiid":"B2094757D06FA3FD419E","title":"上海体育学院","lon":"121.52434","lat":"31.31238","category":"671","category_name":"高校中心点","address":"杨浦区长海路345号上海体育学院内(近嫩江路)"},{"poiid":"B2094654D56FAAFC4499","title":"上海体育学院学生宿舍区","lon":"121.52332","lat":"31.31174","category":"47","category_name":"住宅区","address":"恒仁路200"},{"poiid":"B2094757D068A7F4469B","title":"长海医院住院部","lon":"121.527867794","lat":"31.3088527016","category":"162","category_name":"医院","address":"上海杨浦区长海路174号(中原路)"},{"poiid":"B2094751D26DA3FB499F","title":"夏朵西餐厅(中原城市广场店）","lon":"121.520195","lat":"31.313718","category":"500","category_name":"未知分类","address":"杨浦区国和路709号中原城市广场内(近民约路)"},{"poiid":"B2094757D06FA7FF469A","title":"榕港海鲜大酒楼(杨浦店)","lon":"121.5190717330238","lat":"31.310897096007913","category":"88","category_name":"海鲜酒楼","address":"杨浦区国和路488号(近长海路)"},{"poiid":"B2094757D06FA4FD4393","title":"上海体育学院综合馆","lon":"121.52752","lat":"31.30951","category":"221","category_name":"健身中心","address":"杨浦区长海路345号上海体育学院内(近嫩江路)"},{"poiid":"B2094757D16CA5FD4699","title":"五角场镇","lon":"121.519556103","lat":"31.3113422779","category":"500","category_name":"未知分类","address":"上海市杨浦区政立路55号"},{"poiid":"B2094757D169A7F8489B","title":"长海医院六号楼","lon":"121.523173103","lat":"31.3084360171","category":"162","category_name":"医院","address":"上海长海路168号"},{"poiid":"B2094751D26BA3F5429D","title":"新石器烤肉","lon":"121.521443","lat":"31.315722","category":"68","category_name":"快餐厅","address":"杨浦区国和路709号中原城市广场1号楼2楼1203商铺(近民约路)"},{"poiid":"B2094757D068A4F94099","title":"肯德基 KFC (长海店)","lon":"121.52692775","lat":"31.309974424","category":"68","category_name":"快餐厅","address":"杨浦区长海路361号(近嫩江路)"},{"poiid":"B2094655D26CA6FE469F","title":"上海体育学院宿舍区(北一门)","lon":"121.52105","lat":"31.31241","category":"47","category_name":"住宅区","address":"清源环路501"},{"poiid":"B2094757D069A3FD469E","title":"85度C(长海店)","lon":"121.5244098","lat":"31.3096843","category":"112","category_name":"糕饼店","address":"杨浦区长海路469号(近恒仁路)"},{"poiid":"B2094750DB64A5FA4292","title":"巨麦时尚KTV(中原店)","lon":"121.52188942593386","lat":"31.316110880928736","category":"170","category_name":"KTV","address":"杨浦区国和路709号中原城市广场2座3楼2307号铺"},{"poiid":"B2094654D56FAAFC449D","title":"永和大王(长海路)","lon":"121.52509","lat":"31.30982","category":"68","category_name":"快餐厅","address":"杨浦区长海路399号(近长海医院)"},{"poiid":"B2094757D068A0FB459E","title":"红宝石(长海路店)","lon":"121.52468","lat":"31.309458","category":"67","category_name":"甜品店","address":"杨浦区长海路268号(近长海医院)"},{"poiid":"B2094757D16CA2FD4499","title":"长海路","lon":"121.523313103","lat":"31.3106352631","category":"500","category_name":"未知分类","address":"上海市杨浦区长海路"},{"poiid":"B2094757D06FABFE4399","title":"五角场花鸟市场","lon":"121.52073","lat":"31.31018","category":"249","category_name":"购物服务","address":"上海杨浦区国和路493号(近长海医院)  "},{"poiid":"B2094654D56EA4FC4198","title":"中环国际大厦","lon":"121.52","lat":"31.3093","category":"46","category_name":"楼宇","address":"上海市四川北路1851号"},{"poiid":"B2094654D56FABF84092","title":"沪东金融大厦","lon":"121.523","lat":"31.307","category":"46","category_name":"楼宇","address":"越秀区环市东路362-366号"},{"poiid":"B2094654DB6BA2FB409D","title":"上海体育学院宿舍区(二号门)","lon":"121.52229","lat":"31.31236","category":"52","category_name":"高等院校","address":"杨浦区清源环路531"},{"poiid":"B2094750D768A0F54793","title":"喜达石锅饭","lon":"121.525","lat":"31.3098","category":"96","category_name":"韩国料理","address":"杨浦区长海路437号(近长海医院)"},{"poiid":"B2094654D56FABF4489E","title":"同济中学(政立路)","lon":"121.52196","lat":"31.3076","category":"55","category_name":"中学","address":"政立路20号"},{"poiid":"B2094654D56FABF8499B","title":"平盛大厦","lon":"121.522","lat":"31.3087","category":"46","category_name":"楼宇","address":"丰台学城海鹰路1号,3号"},{"poiid":"B2094654DB69A4FB4199","title":"重庆鸡公煲(长海店)","lon":"121.52284","lat":"31.30943","category":"71","category_name":"四川菜","address":"杨浦区长海路436号(黑山路)"},{"poiid":"B2094654DB64A6F94492","title":"上岛咖啡 长海路店 UBC Coffee","lon":"121.520090054","lat":"31.309342793","category":"260","category_name":"其他","address":"杨浦区长海路560号(国和路)"},{"poiid":"B2094752D26DA3FF419C","title":"番茄妹米线","lon":"121.52127","lat":"31.31576","category":"68","category_name":"快餐厅","address":"杨浦区杨浦区国和路709号中原城市广场2座1楼2109-2110号铺(近民约路)"},{"poiid":"B2094757D16AA6FD409B","title":"上体伤骨科医院","lon":"121.52386","lat":"31.31119","category":"162","category_name":"医院","address":"杨浦区长海路345号上海体育学院内(近嫩江路)"},{"poiid":"B2094750D26DA4FF449A","title":"宁波小厨","lon":"121.523316","lat":"31.312532","category":"75","category_name":"浙江菜","address":"杨浦区清源环路588号(上海市体育学院西门近恒仁路)"},{"poiid":"B2094654D56FABFB4598","title":"政通路100弄小区","lon":"121.524","lat":"31.3102","category":"47","category_name":"住宅区","address":"政通路100弄"},{"poiid":"B2094757D06AA0F8429F","title":"上海体育学院足球场","lon":"121.52598","lat":"31.31292","category":"220","category_name":"运动场所","address":"杨浦区长海路399号(近长海医院)"},{"poiid":"B2094654D56FAAFD479E","title":"国和路611弄1-60号小区","lon":"121.52036","lat":"31.31395","category":"47","category_name":"住宅区","address":"国和路611弄1-61号"},{"poiid":"B2094654D56FAAFC449B","title":"上海体育学院运动康复中心","lon":"121.52333","lat":"31.31075","category":"162","category_name":"医院","address":""},{"poiid":"B2094654D56FAAFC4393","title":"长海医院康复病区","lon":"121.52332","lat":"31.31076","category":"162","category_name":"医院","address":""},{"poiid":"B2094654D56FAAFC4493","title":"上海体育学院(南门)","lon":"121.52511","lat":"31.30989","category":"656","category_name":"大门","address":"杨浦区长海路399"},{"poiid":"B2094751DA6CA0FE469B","title":"长海医院急诊输液室","lon":"121.52372","lat":"31.308737","category":"162","category_name":"医院","address":"长海路168号"},{"poiid":"B2094757D069ABFA439C","title":"上海市第六人民医院骨科","lon":"121.52332","lat":"31.310757","category":"162","category_name":"医院","address":"上海徐汇区宜山路600号2楼骨科门诊部"},{"poiid":"B2094757D66FA1FC419B","title":"第二军医大学附属长海医院中医科","lon":"121.527223997","lat":"31.3081795348","category":"162","category_name":"医院","address":"上海长海医院4楼"},{"poiid":"B2094757D06BA7FB419A","title":"上海体育学院 篮球馆","lon":"121.525613","lat":"31.311424","category":"500","category_name":"未知分类","address":"上海长海路399号"},{"poiid":"B2094655D36CA5F9459D","title":"长海路黑山路","lon":"121.52231","lat":"31.30968","category":"38","category_name":"公交车站","address":""},{"poiid":"B2094750DB69AAFE429D","title":"上海体育学院学生活动中心","lon":"121.52362026060484","lat":"31.310951328051882","category":"253","category_name":"校园生活","address":"杨浦区恒仁路200号"},{"poiid":"B2094750DA6AA2F54898","title":"上海体育学院图书馆","lon":"121.523536","lat":"31.312713","category":"253","category_name":"校园生活","address":"杨浦区长海路345号上海体育学院内(近嫩江路)"},{"poiid":"B2094750D26CA5F44593","title":"避风塘","lon":"121.5204989651532","lat":"31.30947483559236","category":"68","category_name":"快餐厅","address":"杨浦区政立路56号(近国和路)"},{"poiid":"B2094757D06AAAF84692","title":"长海三村","lon":"121.52231","lat":"31.309682","category":"252","category_name":"楼宇机构","address":"上海长海路黑山路"},{"poiid":"B2094654D56FAAFD459D","title":"体院小区","lon":"121.52154","lat":"31.31308","category":"47","category_name":"住宅区","address":"上海市清源环路542弄"},{"poiid":"B2094757D66DA3FE429E","title":"上海体育学院附属竞技体育学校","lon":"121.523432","lat":"31.313966","category":"253","category_name":"校园生活","address":"上海恒仁路300号"},{"poiid":"B2094757D164A7FD4092","title":"长海医院口腔科","lon":"121.52552157","lat":"31.309668842","category":"162","category_name":"医院","address":"上海长海医院"},{"poiid":"B2094757D568AAF5409C","title":"百联购物又一城","lon":"121.522566","lat":"31.306448","category":"249","category_name":"购物服务","address":"杨浦区淞沪路8号(近邯郸路)"},{"poiid":"B2094757D66CA2FF469D","title":"东风标致国和店4s","lon":"121.520562103","lat":"31.3154163632","category":"500","category_name":"未知分类","address":"上海国和路"},{"poiid":"B2094757D66BA6FF4292","title":"真功夫 长海路店","lon":"121.528162","lat":"31.309826","category":"68","category_name":"快餐厅","address":"杨浦区长海路长海医院门口"},{"poiid":"B2094654D56FABF54198","title":"上海长海医院","lon":"121.5256","lat":"31.30936","category":"162","category_name":"医院","address":"上海杨浦区长海路168-174号(长海路)"},{"poiid":"B2094757D06FA3FD419E","title":"上海体育学院","lon":"121.52434","lat":"31.31238","category":"671","category_name":"高校中心点","address":"杨浦区长海路345号上海体育学院内(近嫩江路)"},{"poiid":"B2094654D56FAAFC4499","title":"上海体育学院学生宿舍区","lon":"121.52332","lat":"31.31174","category":"47","category_name":"住宅区","address":"恒仁路200"},{"poiid":"B2094757D068A7F4469B","title":"长海医院住院部","lon":"121.527867794","lat":"31.3088527016","category":"162","category_name":"医院","address":"上海杨浦区长海路174号(中原路)"},{"poiid":"B2094751D26DA3FB499F","title":"夏朵西餐厅(中原城市广场店）","lon":"121.520195","lat":"31.313718","category":"500","category_name":"未知分类","address":"杨浦区国和路709号中原城市广场内(近民约路)"},{"poiid":"B2094757D06FA7FF469A","title":"榕港海鲜大酒楼(杨浦店)","lon":"121.5190717330238","lat":"31.310897096007913","category":"88","category_name":"海鲜酒楼","address":"杨浦区国和路488号(近长海路)"},{"poiid":"B2094757D06FA4FD4393","title":"上海体育学院综合馆","lon":"121.52752","lat":"31.30951","category":"221","category_name":"健身中心","address":"杨浦区长海路345号上海体育学院内(近嫩江路)"},{"poiid":"B2094757D16CA5FD4699","title":"五角场镇","lon":"121.519556103","lat":"31.3113422779","category":"500","category_name":"未知分类","address":"上海市杨浦区政立路55号"},{"poiid":"B2094757D169A7F8489B","title":"长海医院六号楼","lon":"121.523173103","lat":"31.3084360171","category":"162","category_name":"医院","address":"上海长海路168号"},{"poiid":"B2094751D26BA3F5429D","title":"新石器烤肉","lon":"121.521443","lat":"31.315722","category":"68","category_name":"快餐厅","address":"杨浦区国和路709号中原城市广场1号楼2楼1203商铺(近民约路)"},{"poiid":"B2094757D068A4F94099","title":"肯德基 KFC (长海店)","lon":"121.52692775","lat":"31.309974424","category":"68","category_name":"快餐厅","address":"杨浦区长海路361号(近嫩江路)"},{"poiid":"B2094655D26CA6FE469F","title":"上海体育学院宿舍区(北一门)","lon":"121.52105","lat":"31.31241","category":"47","category_name":"住宅区","address":"清源环路501"},{"poiid":"B2094757D069A3FD469E","title":"85度C(长海店)","lon":"121.5244098","lat":"31.3096843","category":"112","category_name":"糕饼店","address":"杨浦区长海路469号(近恒仁路)"},{"poiid":"B2094750DB64A5FA4292","title":"巨麦时尚KTV(中原店)","lon":"121.52188942593386","lat":"31.316110880928736","category":"170","category_name":"KTV","address":"杨浦区国和路709号中原城市广场2座3楼2307号铺"},{"poiid":"B2094654D56FAAFC449D","title":"永和大王(长海路)","lon":"121.52509","lat":"31.30982","category":"68","category_name":"快餐厅","address":"杨浦区长海路399号(近长海医院)"},{"poiid":"B2094757D068A0FB459E","title":"红宝石(长海路店)","lon":"121.52468","lat":"31.309458","category":"67","category_name":"甜品店","address":"杨浦区长海路268号(近长海医院)"},{"poiid":"B2094757D16CA2FD4499","title":"长海路","lon":"121.523313103","lat":"31.3106352631","category":"500","category_name":"未知分类","address":"上海市杨浦区长海路"},{"poiid":"B2094757D06FABFE4399","title":"五角场花鸟市场","lon":"121.52073","lat":"31.31018","category":"249","category_name":"购物服务","address":"上海杨浦区国和路493号(近长海医院)  "},{"poiid":"B2094654D56EA4FC4198","title":"中环国际大厦","lon":"121.52","lat":"31.3093","category":"46","category_name":"楼宇","address":"上海市四川北路1851号"},{"poiid":"B2094654D56FABF84092","title":"沪东金融大厦","lon":"121.523","lat":"31.307","category":"46","category_name":"楼宇","address":"越秀区环市东路362-366号"},{"poiid":"B2094654DB6BA2FB409D","title":"上海体育学院宿舍区(二号门)","lon":"121.52229","lat":"31.31236","category":"52","category_name":"高等院校","address":"杨浦区清源环路531"},{"poiid":"B2094750D768A0F54793","title":"喜达石锅饭","lon":"121.525","lat":"31.3098","category":"96","category_name":"韩国料理","address":"杨浦区长海路437号(近长海医院)"},{"poiid":"B2094654D56FABF4489E","title":"同济中学(政立路)","lon":"121.52196","lat":"31.3076","category":"55","category_name":"中学","address":"政立路20号"},{"poiid":"B2094654D56FABF8499B","title":"平盛大厦","lon":"121.522","lat":"31.3087","category":"46","category_name":"楼宇","address":"丰台学城海鹰路1号,3号"},{"poiid":"B2094654DB69A4FB4199","title":"重庆鸡公煲(长海店)","lon":"121.52284","lat":"31.30943","category":"71","category_name":"四川菜","address":"杨浦区长海路436号(黑山路)"},{"poiid":"B2094654DB64A6F94492","title":"上岛咖啡 长海路店 UBC Coffee","lon":"121.520090054","lat":"31.309342793","category":"260","category_name":"其他","address":"杨浦区长海路560号(国和路)"},{"poiid":"B2094752D26DA3FF419C","title":"番茄妹米线","lon":"121.52127","lat":"31.31576","category":"68","category_name":"快餐厅","address":"杨浦区杨浦区国和路709号中原城市广场2座1楼2109-2110号铺(近民约路)"},{"poiid":"B2094757D16AA6FD409B","title":"上体伤骨科医院","lon":"121.52386","lat":"31.31119","category":"162","category_name":"医院","address":"杨浦区长海路345号上海体育学院内(近嫩江路)"},{"poiid":"B2094750D26DA4FF449A","title":"宁波小厨","lon":"121.523316","lat":"31.312532","category":"75","category_name":"浙江菜","address":"杨浦区清源环路588号(上海市体育学院西门近恒仁路)"},{"poiid":"B2094654D56FABFB4598","title":"政通路100弄小区","lon":"121.524","lat":"31.3102","category":"47","category_name":"住宅区","address":"政通路100弄"},{"poiid":"B2094757D06AA0F8429F","title":"上海体育学院足球场","lon":"121.52598","lat":"31.31292","category":"220","category_name":"运动场所","address":"杨浦区长海路399号(近长海医院)"},{"poiid":"B2094654D56FAAFD479E","title":"国和路611弄1-60号小区","lon":"121.52036","lat":"31.31395","category":"47","category_name":"住宅区","address":"国和路611弄1-61号"},{"poiid":"B2094654D56FAAFC449B","title":"上海体育学院运动康复中心","lon":"121.52333","lat":"31.31075","category":"162","category_name":"医院","address":""},{"poiid":"B2094654D56FAAFC4393","title":"长海医院康复病区","lon":"121.52332","lat":"31.31076","category":"162","category_name":"医院","address":""},{"poiid":"B2094654D56FAAFC4493","title":"上海体育学院(南门)","lon":"121.52511","lat":"31.30989","category":"656","category_name":"大门","address":"杨浦区长海路399"},{"poiid":"B2094751DA6CA0FE469B","title":"长海医院急诊输液室","lon":"121.52372","lat":"31.308737","category":"162","category_name":"医院","address":"长海路168号"},{"poiid":"B2094757D069ABFA439C","title":"上海市第六人民医院骨科","lon":"121.52332","lat":"31.310757","category":"162","category_name":"医院","address":"上海徐汇区宜山路600号2楼骨科门诊部"},{"poiid":"B2094757D66FA1FC419B","title":"第二军医大学附属长海医院中医科","lon":"121.527223997","lat":"31.3081795348","category":"162","category_name":"医院","address":"上海长海医院4楼"},{"poiid":"B2094757D06BA7FB419A","title":"上海体育学院 篮球馆","lon":"121.525613","lat":"31.311424","category":"500","category_name":"未知分类","address":"上海长海路399号"},{"poiid":"B2094655D36CA5F9459D","title":"长海路黑山路","lon":"121.52231","lat":"31.30968","category":"38","category_name":"公交车站","address":""},{"poiid":"B2094750DB69AAFE429D","title":"上海体育学院学生活动中心","lon":"121.52362026060484","lat":"31.310951328051882","category":"253","category_name":"校园生活","address":"杨浦区恒仁路200号"},{"poiid":"B2094750DA6AA2F54898","title":"上海体育学院图书馆","lon":"121.523536","lat":"31.312713","category":"253","category_name":"校园生活","address":"杨浦区长海路345号上海体育学院内(近嫩江路)"},{"poiid":"B2094750D26CA5F44593","title":"避风塘","lon":"121.5204989651532","lat":"31.30947483559236","category":"68","category_name":"快餐厅","address":"杨浦区政立路56号(近国和路)"},{"poiid":"B2094757D06AAAF84692","title":"长海三村","lon":"121.52231","lat":"31.309682","category":"252","category_name":"楼宇机构","address":"上海长海路黑山路"},{"poiid":"B2094654D56FAAFD459D","title":"体院小区","lon":"121.52154","lat":"31.31308","category":"47","category_name":"住宅区","address":"上海市清源环路542弄"},{"poiid":"B2094757D66DA3FE429E","title":"上海体育学院附属竞技体育学校","lon":"121.523432","lat":"31.313966","category":"253","category_name":"校园生活","address":"上海恒仁路300号"},{"poiid":"B2094757D164A7FD4092","title":"长海医院口腔科","lon":"121.52552157","lat":"31.309668842","category":"162","category_name":"医院","address":"上海长海医院"},{"poiid":"B2094757D568AAF5409C","title":"百联购物又一城","lon":"121.522566","lat":"31.306448","category":"249","category_name":"购物服务","address":"杨浦区淞沪路8号(近邯郸路)"},{"poiid":"B2094757D66CA2FF469D","title":"东风标致国和店4s","lon":"121.520562103","lat":"31.3154163632","category":"500","category_name":"未知分类","address":"上海国和路"},{"poiid":"B2094757D66BA6FF4292","title":"真功夫 长海路店","lon":"121.528162","lat":"31.309826","category":"68","category_name":"快餐厅","address":"杨浦区长海路长海医院门口"}]