[{"poiid":"B2094757D068A4FF419C","title":"梅陇镇广场","lon":"121.456631071","lat":"31.2264992206","category":"119","category_name":"商场","address":"松江区荣乐东路1133弄"},{"poiid":"B2094654DB69A6F44893","title":"金钱豹餐饮(中信店)","lon":"121.45568","lat":"31.22796","category":"247","category_name":"餐饮美食","address":"静安区南京西路1168号中信泰富广场4-5楼(近陕西北路)"},{"poiid":"B2094654DB6AA6FC4893","title":"星巴克(中信店)","lon":"121.4549","lat":"31.2286","category":"65","category_name":"咖啡厅","address":"静安区南京西路1168号中信泰富广场B1楼LG12单元(近陕西北路)"},{"poiid":"B2094753D76FAAFA449C","title":"上海滩国泰旗舰店","lon":"121.466011","lat":"31.216125","category":"249","category_name":"购物服务","address":"淮海中路868号"},{"poiid":"B209475CD564A7F84292","title":"上海滩新天地店","lon":"121.47463","lat":"31.22164","category":"119","category_name":"商场","address":"\"太仓路181弄新天地北里15号\r\n\""},{"poiid":"B2094654DB64A7F94793","title":"玛满矿(中信泰富店)","lon":"121.45568","lat":"31.22796","category":"99","category_name":"泰国／越南菜品餐厅","address":"静安区南京西路1168号中信泰富广场4楼417号铺(近陕西北路)"},{"poiid":"B209475CD564A7F8439E","title":"上海滩中信泰富店","lon":"121.45602","lat":"31.22851","category":"119","category_name":"商场","address":"\"南京西路1168号中信泰富广场，店铺号221.\r\n\""},{"poiid":"B2094757D06FA7FA409B","title":"恒隆广场一期","lon":"121.454415685","lat":"31.228063637","category":"47","category_name":"住宅区","address":"上海南京西路1266号"},{"poiid":"B2094654DB6BA6F54092","title":"俏江南(南京西路)","lon":"121.45569","lat":"31.22796","category":"71","category_name":"四川菜","address":"静安区南京西路1168号中信泰富广场3楼(近陕西北路)"},{"poiid":"B2094757D06EAAFB4192","title":"恒隆广场二期","lon":"121.45439147","lat":"31.227611541","category":"47","category_name":"住宅区","address":"杨浦区大学路33号"},{"poiid":"B2094757D06FA0FD489E","title":"南京西路","lon":"121.45435","lat":"31.22661","category":"260","category_name":"其他","address":"静安区南京西路(南京西路西康路)"},{"poiid":"B2094654DA6CA1FF469C","title":"新镇江酒家","lon":"121.45673","lat":"31.22814","category":"74","category_name":"江苏菜","address":"静安区南京西路1111号(近江宁路)"},{"poiid":"B2094654DA6CA1FF4499","title":"麦当劳(南京西路)","lon":"121.45569","lat":"31.22796","category":"68","category_name":"快餐厅","address":"静安区南京西路1168号中信泰富广场B1楼(近陕西北路)"},{"poiid":"B2094757D068A3FB469E","title":"梅龙镇酒家(总店)","lon":"121.4561979","lat":"31.228197746","category":"75","category_name":"浙江菜","address":"静安区南京西路1081弄22号(近江宁路)"},{"poiid":"B2094757D068A1FE479F","title":"桃花源小厨(恒隆店)","lon":"121.4545385754036","lat":"31.227524079570962","category":"72","category_name":"广东菜","address":"上海市静安区南京西路1266号恒隆广场5楼"},{"poiid":"B2094757D06FA6FD4598","title":"小南国(金鹰广场店)","lon":"121.45523","lat":"31.22788","category":"76","category_name":"上海菜","address":"静安区陕西北路278号金鹰国际购物中心7楼(近南京西路)"},{"poiid":"B2094757D06FA3FD409F","title":"屋企港式茶餐厅","lon":"121.45508","lat":"31.22628","category":"72","category_name":"广东菜","address":"静安区南京西路1213弄内(恒隆广场对面)"},{"poiid":"B2094655D26DAAFB4999","title":"中信泰富广场(南门)","lon":"121.45568","lat":"31.22795","category":"656","category_name":"大门","address":""},{"poiid":"B2094757D06FA3FF4192","title":"Wagas沃歌斯(中信泰富店)","lon":"121.45568753","lat":"31.228491679","category":"94","category_name":"西餐厅","address":"静安区南京西路1168号中信泰富B1楼(近陕西北路)"},{"poiid":"B2094752D06CA5FD469D","title":"小辉哥火锅","lon":"121.455719","lat":"31.228485","category":"247","category_name":"餐饮美食","address":"梅龙镇广场南京西路1038号701室-709室"},{"poiid":"B2094757D06FA7FC439D","title":"美新点心店","lon":"121.45626446","lat":"31.22563169","category":"68","category_name":"快餐厅","address":"静安区陕西北路105号(近威海路)"},{"poiid":"B2094655D265A0FD469F","title":"镜子咖啡馆 Caffe Specchi","lon":"121.453597","lat":"31.227215","category":"67","category_name":"甜品店","address":"静安区南京西路1266号恒隆广场103铺(近西康路)"},{"poiid":"B2094750D76EABF44393","title":"味皇港式茶餐厅","lon":"121.456","lat":"31.2287","category":"72","category_name":"广东菜","address":"静安区南京西路1168号中信泰富广场B1楼(近陕西北路)"},{"poiid":"B2094654DA6CA1FA489C","title":"上海民主党派大厦","lon":"121.45629","lat":"31.22603","category":"46","category_name":"楼宇","address":"上海市静安区陕西北路128号"},{"poiid":"B2094757D069A3FC409E","title":"锦沧文华大酒店宴会厅","lon":"121.45396","lat":"31.22653","category":"217","category_name":"旅馆招待所","address":"静安区南京西路1225号锦沧文华大酒店内(近西康路)查看地图"},{"poiid":"B2094757D06FA7F54692","title":"御锅坊","lon":"121.455117938","lat":"31.2284299317","category":"86","category_name":"火锅店","address":"静安区江宁路77号恒顺大厦7楼(奉贤路口)"},{"poiid":"B2094757D06FA0FA459F","title":"1001原汁牛肉面(金鹰店)","lon":"121.45492","lat":"31.2283","category":"68","category_name":"快餐厅","address":"静安区陕西北路278号金鹰国际购物广场6B6号(近南京西路)"},{"poiid":"B2094757D06FA7FB4598","title":"健康煮(金鹰店)","lon":"121.45405583","lat":"31.227760917","category":"68","category_name":"快餐厅","address":"静安区陕西北路278号金鹰国际购物中心6楼(近南京西路)"},{"poiid":"B2094757D06FA3F44792","title":"ZARA(南京西路店)","lon":"121.45491766","lat":"31.227113854","category":"141","category_name":"服装鞋帽皮具店","address":"静安区南京西路1201号(近陕西北路)"},{"poiid":"B2094757D06FA7FF4898","title":"吉惠日式料理(江宁路店)","lon":"121.45468873","lat":"31.227172234","category":"95","category_name":"日本料理","address":"上海市静安区江宁路77号三楼"},{"poiid":"B2094757D469A1F5489D","title":"紫云庭 TATLER'S RESTAURANT","lon":"121.454799781","lat":"31.226518517509","category":"47","category_name":"住宅区","address":"静安区南京西路1225号锦沧文华大酒店1楼(近西康路)"},{"poiid":"B2094757D068A0FF4698","title":"wagas","lon":"121.45502473","lat":"31.227744247","category":"500","category_name":"未知分类","address":"常州中信泰富地下一樓"},{"poiid":"B2094757D06FA5FE459E","title":"Gucci(金鹰店)","lon":"121.45552","lat":"31.22787","category":"141","category_name":"服装鞋帽皮具店","address":"上海静安区陕西北路278号金鹰国际购物中心(近南京西路)  "},{"poiid":"B2094757D66CABFC439A","title":"麻辣誘惑","lon":"121.456319738","lat":"31.2284212615","category":"247","category_name":"餐饮美食","address":"上海梅龍鎮"},{"poiid":"B2094655D26EA4FD4798","title":"卡地亚(恒隆店)","lon":"121.45439","lat":"31.22758","category":"248","category_name":"生活娱乐","address":"静安区南京西路1266号恒隆广场1楼(近陕西北路)查看地图"},{"poiid":"B2094757D064A5F8419D","title":"森下创作料理","lon":"121.456423738","lat":"31.2258492067","category":"76","category_name":"上海菜","address":"静安区南京西路1025弄静安别墅123号(近吴江路)"},{"poiid":"B2094757D064A4FD449A","title":"和良日式造型(威海)","lon":"121.456196738","lat":"31.2254711987","category":"148","category_name":"美容美发店","address":"上海威海路840号"},{"poiid":"B2094757D16CA4F4469F","title":"中兴泰富","lon":"121.455156738","lat":"31.2279352512","category":"500","category_name":"未知分类","address":"上海南京西路1168号"},{"poiid":"B2094757D46FA0F4439C","title":"鹤舞 恒隆广场店","lon":"121.454537","lat":"31.227248","category":"95","category_name":"日本料理","address":"静安区南京西路1266号上海恒隆广场5楼(近陕西北路)"},{"poiid":"B2094757D06FA0F9479C","title":"McDonald Citic","lon":"121.45477327","lat":"31.227719613","category":"68","category_name":"快餐厅","address":"上海中信泰富1635"},{"poiid":"B2094654DA6CA1FF449D","title":"鱼翅捞饭 静安店","lon":"121.455857054","lat":"31.227937793","category":"72","category_name":"广东菜","address":"静安区南京西路1168号中信泰富广场5楼(近陕西北路)"},{"poiid":"B2094655D26DAAFD459D","title":"彩蝶轩","lon":"121.45441","lat":"31.22758","category":"257","category_name":"中餐厅","address":"静安区南京西路1266号恒隆广场5楼(近陕西北路)"},{"poiid":"B2094757D06BA4F8499C","title":"榄香","lon":"121.45519373","lat":"31.226518221","category":"247","category_name":"餐饮美食","address":"上海金鹰"},{"poiid":"B2094751D465ABFE499F","title":"COSTA COFFEE(中信泰富店)","lon":"121.45587","lat":"31.22872","category":"65","category_name":"咖啡厅","address":"静安区南京西路1168号中信泰富广场501A单元(近江宁路)"},{"poiid":"B2094757D465A0F44692","title":"锦沧文华锦华宫","lon":"121.454799781","lat":"31.226518517509","category":"72","category_name":"广东菜","address":"静安区南京西路1225号锦沧文华大酒店3楼(近西康路)"},{"poiid":"B2094757D06AA0F84392","title":"威尔士健身会所(金鹰广场店)","lon":"121.4549","lat":"31.22828","category":"148","category_name":"美容美发店","address":"静安区陕西北路278号金鹰国际购物中心8楼(近南京西路)"},{"poiid":"B2094757DB64A3FD449E","title":"瑞尔齿科（恒隆广场店）","lon":"121.454","lat":"31.2274","category":"162","category_name":"医院","address":"静安区南京西路1266号恒隆广场512室"},{"poiid":"B2094757D068A3FC419E","title":"PRADA(南京西路店)","lon":"121.454247321","lat":"31.2274819474","category":"141","category_name":"服装鞋帽皮具店","address":"静安区南京西路1266号恒隆广场1-2楼(近陕西北路)"},{"poiid":"B2094750D665A4FD459B","title":"汉宫精菜坊","lon":"121.455","lat":"31.2277","category":"76","category_name":"上海菜","address":"静安区南京西路1168号中信泰富广场商场5楼"},{"poiid":"B2094655D26AA4FA4393","title":"中信泰富员工食堂","lon":"121.45569","lat":"31.22796","category":"247","category_name":"餐饮美食","address":"静安区南京西路1168号中信泰富大厦5楼(近陕西北路)"},{"poiid":"B2094757D068A4FF419C","title":"梅陇镇广场","lon":"121.456631071","lat":"31.2264992206","category":"119","category_name":"商场","address":"松江区荣乐东路1133弄"},{"poiid":"B2094654DB69A6F44893","title":"金钱豹餐饮(中信店)","lon":"121.45568","lat":"31.22796","category":"247","category_name":"餐饮美食","address":"静安区南京西路1168号中信泰富广场4-5楼(近陕西北路)"},{"poiid":"B2094654DB6AA6FC4893","title":"星巴克(中信店)","lon":"121.4549","lat":"31.2286","category":"65","category_name":"咖啡厅","address":"静安区南京西路1168号中信泰富广场B1楼LG12单元(近陕西北路)"},{"poiid":"B2094753D76FAAFA449C","title":"上海滩国泰旗舰店","lon":"121.466011","lat":"31.216125","category":"249","category_name":"购物服务","address":"淮海中路868号"},{"poiid":"B209475CD564A7F84292","title":"上海滩新天地店","lon":"121.47463","lat":"31.22164","category":"119","category_name":"商场","address":"\"太仓路181弄新天地北里15号\r\n\""},{"poiid":"B2094654DB64A7F94793","title":"玛满矿(中信泰富店)","lon":"121.45568","lat":"31.22796","category":"99","category_name":"泰国／越南菜品餐厅","address":"静安区南京西路1168号中信泰富广场4楼417号铺(近陕西北路)"},{"poiid":"B209475CD564A7F8439E","title":"上海滩中信泰富店","lon":"121.45602","lat":"31.22851","category":"119","category_name":"商场","address":"\"南京西路1168号中信泰富广场，店铺号221.\r\n\""},{"poiid":"B2094757D06FA7FA409B","title":"恒隆广场一期","lon":"121.454415685","lat":"31.228063637","category":"47","category_name":"住宅区","address":"上海南京西路1266号"},{"poiid":"B2094654DB6BA6F54092","title":"俏江南(南京西路)","lon":"121.45569","lat":"31.22796","category":"71","category_name":"四川菜","address":"静安区南京西路1168号中信泰富广场3楼(近陕西北路)"},{"poiid":"B2094757D06EAAFB4192","title":"恒隆广场二期","lon":"121.45439147","lat":"31.227611541","category":"47","category_name":"住宅区","address":"杨浦区大学路33号"},{"poiid":"B2094757D06FA0FD489E","title":"南京西路","lon":"121.45435","lat":"31.22661","category":"260","category_name":"其他","address":"静安区南京西路(南京西路西康路)"},{"poiid":"B2094654DA6CA1FF469C","title":"新镇江酒家","lon":"121.45673","lat":"31.22814","category":"74","category_name":"江苏菜","address":"静安区南京西路1111号(近江宁路)"},{"poiid":"B2094654DA6CA1FF4499","title":"麦当劳(南京西路)","lon":"121.45569","lat":"31.22796","category":"68","category_name":"快餐厅","address":"静安区南京西路1168号中信泰富广场B1楼(近陕西北路)"},{"poiid":"B2094757D068A3FB469E","title":"梅龙镇酒家(总店)","lon":"121.4561979","lat":"31.228197746","category":"75","category_name":"浙江菜","address":"静安区南京西路1081弄22号(近江宁路)"},{"poiid":"B2094757D068A1FE479F","title":"桃花源小厨(恒隆店)","lon":"121.4545385754036","lat":"31.227524079570962","category":"72","category_name":"广东菜","address":"上海市静安区南京西路1266号恒隆广场5楼"},{"poiid":"B2094757D06FA6FD4598","title":"小南国(金鹰广场店)","lon":"121.45523","lat":"31.22788","category":"76","category_name":"上海菜","address":"静安区陕西北路278号金鹰国际购物中心7楼(近南京西路)"},{"poiid":"B2094757D06FA3FD409F","title":"屋企港式茶餐厅","lon":"121.45508","lat":"31.22628","category":"72","category_name":"广东菜","address":"静安区南京西路1213弄内(恒隆广场对面)"},{"poiid":"B2094655D26DAAFB4999","title":"中信泰富广场(南门)","lon":"121.45568","lat":"31.22795","category":"656","category_name":"大门","address":""},{"poiid":"B2094757D06FA3FF4192","title":"Wagas沃歌斯(中信泰富店)","lon":"121.45568753","lat":"31.228491679","category":"94","category_name":"西餐厅","address":"静安区南京西路1168号中信泰富B1楼(近陕西北路)"},{"poiid":"B2094752D06CA5FD469D","title":"小辉哥火锅","lon":"121.455719","lat":"31.228485","category":"247","category_name":"餐饮美食","address":"梅龙镇广场南京西路1038号701室-709室"},{"poiid":"B2094757D06FA7FC439D","title":"美新点心店","lon":"121.45626446","lat":"31.22563169","category":"68","category_name":"快餐厅","address":"静安区陕西北路105号(近威海路)"},{"poiid":"B2094655D265A0FD469F","title":"镜子咖啡馆 Caffe Specchi","lon":"121.453597","lat":"31.227215","category":"67","category_name":"甜品店","address":"静安区南京西路1266号恒隆广场103铺(近西康路)"},{"poiid":"B2094750D76EABF44393","title":"味皇港式茶餐厅","lon":"121.456","lat":"31.2287","category":"72","category_name":"广东菜","address":"静安区南京西路1168号中信泰富广场B1楼(近陕西北路)"},{"poiid":"B2094654DA6CA1FA489C","title":"上海民主党派大厦","lon":"121.45629","lat":"31.22603","category":"46","category_name":"楼宇","address":"上海市静安区陕西北路128号"},{"poiid":"B2094757D069A3FC409E","title":"锦沧文华大酒店宴会厅","lon":"121.45396","lat":"31.22653","category":"217","category_name":"旅馆招待所","address":"静安区南京西路1225号锦沧文华大酒店内(近西康路)查看地图"},{"poiid":"B2094757D06FA7F54692","title":"御锅坊","lon":"121.455117938","lat":"31.2284299317","category":"86","category_name":"火锅店","address":"静安区江宁路77号恒顺大厦7楼(奉贤路口)"},{"poiid":"B2094757D06FA0FA459F","title":"1001原汁牛肉面(金鹰店)","lon":"121.45492","lat":"31.2283","category":"68","category_name":"快餐厅","address":"静安区陕西北路278号金鹰国际购物广场6B6号(近南京西路)"},{"poiid":"B2094757D06FA7FB4598","title":"健康煮(金鹰店)","lon":"121.45405583","lat":"31.227760917","category":"68","category_name":"快餐厅","address":"静安区陕西北路278号金鹰国际购物中心6楼(近南京西路)"},{"poiid":"B2094757D06FA3F44792","title":"ZARA(南京西路店)","lon":"121.45491766","lat":"31.227113854","category":"141","category_name":"服装鞋帽皮具店","address":"静安区南京西路1201号(近陕西北路)"},{"poiid":"B2094757D06FA7FF4898","title":"吉惠日式料理(江宁路店)","lon":"121.45468873","lat":"31.227172234","category":"95","category_name":"日本料理","address":"上海市静安区江宁路77号三楼"},{"poiid":"B2094757D469A1F5489D","title":"紫云庭 TATLER'S RESTAURANT","lon":"121.454799781","lat":"31.226518517509","category":"47","category_name":"住宅区","address":"静安区南京西路1225号锦沧文华大酒店1楼(近西康路)"},{"poiid":"B2094757D068A0FF4698","title":"wagas","lon":"121.45502473","lat":"31.227744247","category":"500","category_name":"未知分类","address":"常州中信泰富地下一樓"},{"poiid":"B2094757D06FA5FE459E","title":"Gucci(金鹰店)","lon":"121.45552","lat":"31.22787","category":"141","category_name":"服装鞋帽皮具店","address":"上海静安区陕西北路278号金鹰国际购物中心(近南京西路)  "},{"poiid":"B2094757D66CABFC439A","title":"麻辣誘惑","lon":"121.456319738","lat":"31.2284212615","category":"247","category_name":"餐饮美食","address":"上海梅龍鎮"},{"poiid":"B2094655D26EA4FD4798","title":"卡地亚(恒隆店)","lon":"121.45439","lat":"31.22758","category":"248","category_name":"生活娱乐","address":"静安区南京西路1266号恒隆广场1楼(近陕西北路)查看地图"},{"poiid":"B2094757D064A5F8419D","title":"森下创作料理","lon":"121.456423738","lat":"31.2258492067","category":"76","category_name":"上海菜","address":"静安区南京西路1025弄静安别墅123号(近吴江路)"},{"poiid":"B2094757D064A4FD449A","title":"和良日式造型(威海)","lon":"121.456196738","lat":"31.2254711987","category":"148","category_name":"美容美发店","address":"上海威海路840号"},{"poiid":"B2094757D16CA4F4469F","title":"中兴泰富","lon":"121.455156738","lat":"31.2279352512","category":"500","category_name":"未知分类","address":"上海南京西路1168号"},{"poiid":"B2094757D46FA0F4439C","title":"鹤舞 恒隆广场店","lon":"121.454537","lat":"31.227248","category":"95","category_name":"日本料理","address":"静安区南京西路1266号上海恒隆广场5楼(近陕西北路)"},{"poiid":"B2094757D06FA0F9479C","title":"McDonald Citic","lon":"121.45477327","lat":"31.227719613","category":"68","category_name":"快餐厅","address":"上海中信泰富1635"},{"poiid":"B2094654DA6CA1FF449D","title":"鱼翅捞饭 静安店","lon":"121.455857054","lat":"31.227937793","category":"72","category_name":"广东菜","address":"静安区南京西路1168号中信泰富广场5楼(近陕西北路)"},{"poiid":"B2094655D26DAAFD459D","title":"彩蝶轩","lon":"121.45441","lat":"31.22758","category":"257","category_name":"中餐厅","address":"静安区南京西路1266号恒隆广场5楼(近陕西北路)"},{"poiid":"B2094757D06BA4F8499C","title":"榄香","lon":"121.45519373","lat":"31.226518221","category":"247","category_name":"餐饮美食","address":"上海金鹰"},{"poiid":"B2094751D465ABFE499F","title":"COSTA COFFEE(中信泰富店)","lon":"121.45587","lat":"31.22872","category":"65","category_name":"咖啡厅","address":"静安区南京西路1168号中信泰富广场501A单元(近江宁路)"},{"poiid":"B2094757D465A0F44692","title":"锦沧文华锦华宫","lon":"121.454799781","lat":"31.226518517509","category":"72","category_name":"广东菜","address":"静安区南京西路1225号锦沧文华大酒店3楼(近西康路)"},{"poiid":"B2094757D06AA0F84392","title":"威尔士健身会所(金鹰广场店)","lon":"121.4549","lat":"31.22828","category":"148","category_name":"美容美发店","address":"静安区陕西北路278号金鹰国际购物中心8楼(近南京西路)"},{"poiid":"B2094757DB64A3FD449E","title":"瑞尔齿科（恒隆广场店）","lon":"121.454","lat":"31.2274","category":"162","category_name":"医院","address":"静安区南京西路1266号恒隆广场512室"},{"poiid":"B2094757D068A3FC419E","title":"PRADA(南京西路店)","lon":"121.454247321","lat":"31.2274819474","category":"141","category_name":"服装鞋帽皮具店","address":"静安区南京西路1266号恒隆广场1-2楼(近陕西北路)"},{"poiid":"B2094750D665A4FD459B","title":"汉宫精菜坊","lon":"121.455","lat":"31.2277","category":"76","category_name":"上海菜","address":"静安区南京西路1168号中信泰富广场商场5楼"},{"poiid":"B2094655D26AA4FA4393","title":"中信泰富员工食堂","lon":"121.45569","lat":"31.22796","category":"247","category_name":"餐饮美食","address":"静安区南京西路1168号中信泰富大厦5楼(近陕西北路)"},{"poiid":"B2094757D068A4FF419C","title":"梅陇镇广场","lon":"121.456631071","lat":"31.2264992206","category":"119","category_name":"商场","address":"松江区荣乐东路1133弄"},{"poiid":"B2094654DB69A6F44893","title":"金钱豹餐饮(中信店)","lon":"121.45568","lat":"31.22796","category":"247","category_name":"餐饮美食","address":"静安区南京西路1168号中信泰富广场4-5楼(近陕西北路)"},{"poiid":"B2094654DB6AA6FC4893","title":"星巴克(中信店)","lon":"121.4549","lat":"31.2286","category":"65","category_name":"咖啡厅","address":"静安区南京西路1168号中信泰富广场B1楼LG12单元(近陕西北路)"},{"poiid":"B2094753D76FAAFA449C","title":"上海滩国泰旗舰店","lon":"121.466011","lat":"31.216125","category":"249","category_name":"购物服务","address":"淮海中路868号"},{"poiid":"B209475CD564A7F84292","title":"上海滩新天地店","lon":"121.47463","lat":"31.22164","category":"119","category_name":"商场","address":"\"太仓路181弄新天地北里15号\r\n\""},{"poiid":"B2094654DB64A7F94793","title":"玛满矿(中信泰富店)","lon":"121.45568","lat":"31.22796","category":"99","category_name":"泰国／越南菜品餐厅","address":"静安区南京西路1168号中信泰富广场4楼417号铺(近陕西北路)"},{"poiid":"B209475CD564A7F8439E","title":"上海滩中信泰富店","lon":"121.45602","lat":"31.22851","category":"119","category_name":"商场","address":"\"南京西路1168号中信泰富广场，店铺号221.\r\n\""},{"poiid":"B2094757D06FA7FA409B","title":"恒隆广场一期","lon":"121.454415685","lat":"31.228063637","category":"47","category_name":"住宅区","address":"上海南京西路1266号"},{"poiid":"B2094654DB6BA6F54092","title":"俏江南(南京西路)","lon":"121.45569","lat":"31.22796","category":"71","category_name":"四川菜","address":"静安区南京西路1168号中信泰富广场3楼(近陕西北路)"},{"poiid":"B2094757D06EAAFB4192","title":"恒隆广场二期","lon":"121.45439147","lat":"31.227611541","category":"47","category_name":"住宅区","address":"杨浦区大学路33号"},{"poiid":"B2094757D06FA0FD489E","title":"南京西路","lon":"121.45435","lat":"31.22661","category":"260","category_name":"其他","address":"静安区南京西路(南京西路西康路)"},{"poiid":"B2094654DA6CA1FF469C","title":"新镇江酒家","lon":"121.45673","lat":"31.22814","category":"74","category_name":"江苏菜","address":"静安区南京西路1111号(近江宁路)"},{"poiid":"B2094654DA6CA1FF4499","title":"麦当劳(南京西路)","lon":"121.45569","lat":"31.22796","category":"68","category_name":"快餐厅","address":"静安区南京西路1168号中信泰富广场B1楼(近陕西北路)"},{"poiid":"B2094757D068A3FB469E","title":"梅龙镇酒家(总店)","lon":"121.4561979","lat":"31.228197746","category":"75","category_name":"浙江菜","address":"静安区南京西路1081弄22号(近江宁路)"},{"poiid":"B2094757D068A1FE479F","title":"桃花源小厨(恒隆店)","lon":"121.4545385754036","lat":"31.227524079570962","category":"72","category_name":"广东菜","address":"上海市静安区南京西路1266号恒隆广场5楼"},{"poiid":"B2094757D06FA6FD4598","title":"小南国(金鹰广场店)","lon":"121.45523","lat":"31.22788","category":"76","category_name":"上海菜","address":"静安区陕西北路278号金鹰国际购物中心7楼(近南京西路)"},{"poiid":"B2094757D06FA3FD409F","title":"屋企港式茶餐厅","lon":"121.45508","lat":"31.22628","category":"72","category_name":"广东菜","address":"静安区南京西路1213弄内(恒隆广场对面)"},{"poiid":"B2094655D26DAAFB4999","title":"中信泰富广场(南门)","lon":"121.45568","lat":"31.22795","category":"656","category_name":"大门","address":""},{"poiid":"B2094757D06FA3FF4192","title":"Wagas沃歌斯(中信泰富店)","lon":"121.45568753","lat":"31.228491679","category":"94","category_name":"西餐厅","address":"静安区南京西路1168号中信泰富B1楼(近陕西北路)"},{"poiid":"B2094752D06CA5FD469D","title":"小辉哥火锅","lon":"121.455719","lat":"31.228485","category":"247","category_name":"餐饮美食","address":"梅龙镇广场南京西路1038号701室-709室"},{"poiid":"B2094757D06FA7FC439D","title":"美新点心店","lon":"121.45626446","lat":"31.22563169","category":"68","category_name":"快餐厅","address":"静安区陕西北路105号(近威海路)"},{"poiid":"B2094655D265A0FD469F","title":"镜子咖啡馆 Caffe Specchi","lon":"121.453597","lat":"31.227215","category":"67","category_name":"甜品店","address":"静安区南京西路1266号恒隆广场103铺(近西康路)"},{"poiid":"B2094750D76EABF44393","title":"味皇港式茶餐厅","lon":"121.456","lat":"31.2287","category":"72","category_name":"广东菜","address":"静安区南京西路1168号中信泰富广场B1楼(近陕西北路)"},{"poiid":"B2094654DA6CA1FA489C","title":"上海民主党派大厦","lon":"121.45629","lat":"31.22603","category":"46","category_name":"楼宇","address":"上海市静安区陕西北路128号"},{"poiid":"B2094757D069A3FC409E","title":"锦沧文华大酒店宴会厅","lon":"121.45396","lat":"31.22653","category":"217","category_name":"旅馆招待所","address":"静安区南京西路1225号锦沧文华大酒店内(近西康路)查看地图"},{"poiid":"B2094757D06FA7F54692","title":"御锅坊","lon":"121.455117938","lat":"31.2284299317","category":"86","category_name":"火锅店","address":"静安区江宁路77号恒顺大厦7楼(奉贤路口)"},{"poiid":"B2094757D06FA0FA459F","title":"1001原汁牛肉面(金鹰店)","lon":"121.45492","lat":"31.2283","category":"68","category_name":"快餐厅","address":"静安区陕西北路278号金鹰国际购物广场6B6号(近南京西路)"},{"poiid":"B2094757D06FA7FB4598","title":"健康煮(金鹰店)","lon":"121.45405583","lat":"31.227760917","category":"68","category_name":"快餐厅","address":"静安区陕西北路278号金鹰国际购物中心6楼(近南京西路)"},{"poiid":"B2094757D06FA3F44792","title":"ZARA(南京西路店)","lon":"121.45491766","lat":"31.227113854","category":"141","category_name":"服装鞋帽皮具店","address":"静安区南京西路1201号(近陕西北路)"},{"poiid":"B2094757D06FA7FF4898","title":"吉惠日式料理(江宁路店)","lon":"121.45468873","lat":"31.227172234","category":"95","category_name":"日本料理","address":"上海市静安区江宁路77号三楼"},{"poiid":"B2094757D469A1F5489D","title":"紫云庭 TATLER'S RESTAURANT","lon":"121.454799781","lat":"31.226518517509","category":"47","category_name":"住宅区","address":"静安区南京西路1225号锦沧文华大酒店1楼(近西康路)"},{"poiid":"B2094757D068A0FF4698","title":"wagas","lon":"121.45502473","lat":"31.227744247","category":"500","category_name":"未知分类","address":"常州中信泰富地下一樓"},{"poiid":"B2094757D06FA5FE459E","title":"Gucci(金鹰店)","lon":"121.45552","lat":"31.22787","category":"141","category_name":"服装鞋帽皮具店","address":"上海静安区陕西北路278号金鹰国际购物中心(近南京西路)  "},{"poiid":"B2094757D66CABFC439A","title":"麻辣誘惑","lon":"121.456319738","lat":"31.2284212615","category":"247","category_name":"餐饮美食","address":"上海梅龍鎮"},{"poiid":"B2094655D26EA4FD4798","title":"卡地亚(恒隆店)","lon":"121.45439","lat":"31.22758","category":"248","category_name":"生活娱乐","address":"静安区南京西路1266号恒隆广场1楼(近陕西北路)查看地图"},{"poiid":"B2094757D064A5F8419D","title":"森下创作料理","lon":"121.456423738","lat":"31.2258492067","category":"76","category_name":"上海菜","address":"静安区南京西路1025弄静安别墅123号(近吴江路)"},{"poiid":"B2094757D064A4FD449A","title":"和良日式造型(威海)","lon":"121.456196738","lat":"31.2254711987","category":"148","category_name":"美容美发店","address":"上海威海路840号"},{"poiid":"B2094757D16CA4F4469F","title":"中兴泰富","lon":"121.455156738","lat":"31.2279352512","category":"500","category_name":"未知分类","address":"上海南京西路1168号"},{"poiid":"B2094757D46FA0F4439C","title":"鹤舞 恒隆广场店","lon":"121.454537","lat":"31.227248","category":"95","category_name":"日本料理","address":"静安区南京西路1266号上海恒隆广场5楼(近陕西北路)"},{"poiid":"B2094757D06FA0F9479C","title":"McDonald Citic","lon":"121.45477327","lat":"31.227719613","category":"68","category_name":"快餐厅","address":"上海中信泰富1635"},{"poiid":"B2094654DA6CA1FF449D","title":"鱼翅捞饭 静安店","lon":"121.455857054","lat":"31.227937793","category":"72","category_name":"广东菜","address":"静安区南京西路1168号中信泰富广场5楼(近陕西北路)"},{"poiid":"B2094655D26DAAFD459D","title":"彩蝶轩","lon":"121.45441","lat":"31.22758","category":"257","category_name":"中餐厅","address":"静安区南京西路1266号恒隆广场5楼(近陕西北路)"},{"poiid":"B2094757D06BA4F8499C","title":"榄香","lon":"121.45519373","lat":"31.226518221","category":"247","category_name":"餐饮美食","address":"上海金鹰"},{"poiid":"B2094751D465ABFE499F","title":"COSTA COFFEE(中信泰富店)","lon":"121.45587","lat":"31.22872","category":"65","category_name":"咖啡厅","address":"静安区南京西路1168号中信泰富广场501A单元(近江宁路)"},{"poiid":"B2094757D465A0F44692","title":"锦沧文华锦华宫","lon":"121.454799781","lat":"31.226518517509","category":"72","category_name":"广东菜","address":"静安区南京西路1225号锦沧文华大酒店3楼(近西康路)"},{"poiid":"B2094757D06AA0F84392","title":"威尔士健身会所(金鹰广场店)","lon":"121.4549","lat":"31.22828","category":"148","category_name":"美容美发店","address":"静安区陕西北路278号金鹰国际购物中心8楼(近南京西路)"},{"poiid":"B2094757DB64A3FD449E","title":"瑞尔齿科（恒隆广场店）","lon":"121.454","lat":"31.2274","category":"162","category_name":"医院","address":"静安区南京西路1266号恒隆广场512室"},{"poiid":"B2094757D068A3FC419E","title":"PRADA(南京西路店)","lon":"121.454247321","lat":"31.2274819474","category":"141","category_name":"服装鞋帽皮具店","address":"静安区南京西路1266号恒隆广场1-2楼(近陕西北路)"},{"poiid":"B2094750D665A4FD459B","title":"汉宫精菜坊","lon":"121.455","lat":"31.2277","category":"76","category_name":"上海菜","address":"静安区南京西路1168号中信泰富广场商场5楼"},{"poiid":"B2094655D26AA4FA4393","title":"中信泰富员工食堂","lon":"121.45569","lat":"31.22796","category":"247","category_name":"餐饮美食","address":"静安区南京西路1168号中信泰富大厦5楼(近陕西北路)"},{"poiid":"B2094757D068A4FF419C","title":"梅陇镇广场","lon":"121.456631071","lat":"31.2264992206","category":"119","category_name":"商场","address":"松江区荣乐东路1133弄"},{"poiid":"B2094654DB69A6F44893","title":"金钱豹餐饮(中信店)","lon":"121.45568","lat":"31.22796","category":"247","category_name":"餐饮美食","address":"静安区南京西路1168号中信泰富广场4-5楼(近陕西北路)"},{"poiid":"B2094654DB6AA6FC4893","title":"星巴克(中信店)","lon":"121.4549","lat":"31.2286","category":"65","category_name":"咖啡厅","address":"静安区南京西路1168号中信泰富广场B1楼LG12单元(近陕西北路)"},{"poiid":"B2094753D76FAAFA449C","title":"上海滩国泰旗舰店","lon":"121.466011","lat":"31.216125","category":"249","category_name":"购物服务","address":"淮海中路868号"},{"poiid":"B209475CD564A7F84292","title":"上海滩新天地店","lon":"121.47463","lat":"31.22164","category":"119","category_name":"商场","address":"\"太仓路181弄新天地北里15号\r\n\""},{"poiid":"B2094654DB64A7F94793","title":"玛满矿(中信泰富店)","lon":"121.45568","lat":"31.22796","category":"99","category_name":"泰国／越南菜品餐厅","address":"静安区南京西路1168号中信泰富广场4楼417号铺(近陕西北路)"},{"poiid":"B209475CD564A7F8439E","title":"上海滩中信泰富店","lon":"121.45602","lat":"31.22851","category":"119","category_name":"商场","address":"\"南京西路1168号中信泰富广场，店铺号221.\r\n\""},{"poiid":"B2094757D06FA7FA409B","title":"恒隆广场一期","lon":"121.454415685","lat":"31.228063637","category":"47","category_name":"住宅区","address":"上海南京西路1266号"},{"poiid":"B2094654DB6BA6F54092","title":"俏江南(南京西路)","lon":"121.45569","lat":"31.22796","category":"71","category_name":"四川菜","address":"静安区南京西路1168号中信泰富广场3楼(近陕西北路)"},{"poiid":"B2094757D06EAAFB4192","title":"恒隆广场二期","lon":"121.45439147","lat":"31.227611541","category":"47","category_name":"住宅区","address":"杨浦区大学路33号"},{"poiid":"B2094757D06FA0FD489E","title":"南京西路","lon":"121.45435","lat":"31.22661","category":"260","category_name":"其他","address":"静安区南京西路(南京西路西康路)"},{"poiid":"B2094654DA6CA1FF469C","title":"新镇江酒家","lon":"121.45673","lat":"31.22814","category":"74","category_name":"江苏菜","address":"静安区南京西路1111号(近江宁路)"},{"poiid":"B2094654DA6CA1FF4499","title":"麦当劳(南京西路)","lon":"121.45569","lat":"31.22796","category":"68","category_name":"快餐厅","address":"静安区南京西路1168号中信泰富广场B1楼(近陕西北路)"},{"poiid":"B2094757D068A3FB469E","title":"梅龙镇酒家(总店)","lon":"121.4561979","lat":"31.228197746","category":"75","category_name":"浙江菜","address":"静安区南京西路1081弄22号(近江宁路)"},{"poiid":"B2094757D068A1FE479F","title":"桃花源小厨(恒隆店)","lon":"121.4545385754036","lat":"31.227524079570962","category":"72","category_name":"广东菜","address":"上海市静安区南京西路1266号恒隆广场5楼"},{"poiid":"B2094757D06FA6FD4598","title":"小南国(金鹰广场店)","lon":"121.45523","lat":"31.22788","category":"76","category_name":"上海菜","address":"静安区陕西北路278号金鹰国际购物中心7楼(近南京西路)"},{"poiid":"B2094757D06FA3FD409F","title":"屋企港式茶餐厅","lon":"121.45508","lat":"31.22628","category":"72","category_name":"广东菜","address":"静安区南京西路1213弄内(恒隆广场对面)"},{"poiid":"B2094655D26DAAFB4999","title":"中信泰富广场(南门)","lon":"121.45568","lat":"31.22795","category":"656","category_name":"大门","address":""},{"poiid":"B2094757D06FA3FF4192","title":"Wagas沃歌斯(中信泰富店)","lon":"121.45568753","lat":"31.228491679","category":"94","category_name":"西餐厅","address":"静安区南京西路1168号中信泰富B1楼(近陕西北路)"},{"poiid":"B2094752D06CA5FD469D","title":"小辉哥火锅","lon":"121.455719","lat":"31.228485","category":"247","category_name":"餐饮美食","address":"梅龙镇广场南京西路1038号701室-709室"},{"poiid":"B2094757D06FA7FC439D","title":"美新点心店","lon":"121.45626446","lat":"31.22563169","category":"68","category_name":"快餐厅","address":"静安区陕西北路105号(近威海路)"},{"poiid":"B2094655D265A0FD469F","title":"镜子咖啡馆 Caffe Specchi","lon":"121.453597","lat":"31.227215","category":"67","category_name":"甜品店","address":"静安区南京西路1266号恒隆广场103铺(近西康路)"},{"poiid":"B2094750D76EABF44393","title":"味皇港式茶餐厅","lon":"121.456","lat":"31.2287","category":"72","category_name":"广东菜","address":"静安区南京西路1168号中信泰富广场B1楼(近陕西北路)"},{"poiid":"B2094654DA6CA1FA489C","title":"上海民主党派大厦","lon":"121.45629","lat":"31.22603","category":"46","category_name":"楼宇","address":"上海市静安区陕西北路128号"},{"poiid":"B2094757D069A3FC409E","title":"锦沧文华大酒店宴会厅","lon":"121.45396","lat":"31.22653","category":"217","category_name":"旅馆招待所","address":"静安区南京西路1225号锦沧文华大酒店内(近西康路)查看地图"},{"poiid":"B2094757D06FA7F54692","title":"御锅坊","lon":"121.455117938","lat":"31.2284299317","category":"86","category_name":"火锅店","address":"静安区江宁路77号恒顺大厦7楼(奉贤路口)"},{"poiid":"B2094757D06FA0FA459F","title":"1001原汁牛肉面(金鹰店)","lon":"121.45492","lat":"31.2283","category":"68","category_name":"快餐厅","address":"静安区陕西北路278号金鹰国际购物广场6B6号(近南京西路)"},{"poiid":"B2094757D06FA7FB4598","title":"健康煮(金鹰店)","lon":"121.45405583","lat":"31.227760917","category":"68","category_name":"快餐厅","address":"静安区陕西北路278号金鹰国际购物中心6楼(近南京西路)"},{"poiid":"B2094757D06FA3F44792","title":"ZARA(南京西路店)","lon":"121.45491766","lat":"31.227113854","category":"141","category_name":"服装鞋帽皮具店","address":"静安区南京西路1201号(近陕西北路)"},{"poiid":"B2094757D06FA7FF4898","title":"吉惠日式料理(江宁路店)","lon":"121.45468873","lat":"31.227172234","category":"95","category_name":"日本料理","address":"上海市静安区江宁路77号三楼"},{"poiid":"B2094757D469A1F5489D","title":"紫云庭 TATLER'S RESTAURANT","lon":"121.454799781","lat":"31.226518517509","category":"47","category_name":"住宅区","address":"静安区南京西路1225号锦沧文华大酒店1楼(近西康路)"},{"poiid":"B2094757D068A0FF4698","title":"wagas","lon":"121.45502473","lat":"31.227744247","category":"500","category_name":"未知分类","address":"常州中信泰富地下一樓"},{"poiid":"B2094757D06FA5FE459E","title":"Gucci(金鹰店)","lon":"121.45552","lat":"31.22787","category":"141","category_name":"服装鞋帽皮具店","address":"上海静安区陕西北路278号金鹰国际购物中心(近南京西路)  "},{"poiid":"B2094757D66CABFC439A","title":"麻辣誘惑","lon":"121.456319738","lat":"31.2284212615","category":"247","category_name":"餐饮美食","address":"上海梅龍鎮"},{"poiid":"B2094655D26EA4FD4798","title":"卡地亚(恒隆店)","lon":"121.45439","lat":"31.22758","category":"248","category_name":"生活娱乐","address":"静安区南京西路1266号恒隆广场1楼(近陕西北路)查看地图"},{"poiid":"B2094757D064A5F8419D","title":"森下创作料理","lon":"121.456423738","lat":"31.2258492067","category":"76","category_name":"上海菜","address":"静安区南京西路1025弄静安别墅123号(近吴江路)"},{"poiid":"B2094757D064A4FD449A","title":"和良日式造型(威海)","lon":"121.456196738","lat":"31.2254711987","category":"148","category_name":"美容美发店","address":"上海威海路840号"},{"poiid":"B2094757D16CA4F4469F","title":"中兴泰富","lon":"121.455156738","lat":"31.2279352512","category":"500","category_name":"未知分类","address":"上海南京西路1168号"},{"poiid":"B2094757D46FA0F4439C","title":"鹤舞 恒隆广场店","lon":"121.454537","lat":"31.227248","category":"95","category_name":"日本料理","address":"静安区南京西路1266号上海恒隆广场5楼(近陕西北路)"},{"poiid":"B2094757D06FA0F9479C","title":"McDonald Citic","lon":"121.45477327","lat":"31.227719613","category":"68","category_name":"快餐厅","address":"上海中信泰富1635"},{"poiid":"B2094654DA6CA1FF449D","title":"鱼翅捞饭 静安店","lon":"121.455857054","lat":"31.227937793","category":"72","category_name":"广东菜","address":"静安区南京西路1168号中信泰富广场5楼(近陕西北路)"},{"poiid":"B2094655D26DAAFD459D","title":"彩蝶轩","lon":"121.45441","lat":"31.22758","category":"257","category_name":"中餐厅","address":"静安区南京西路1266号恒隆广场5楼(近陕西北路)"},{"poiid":"B2094757D06BA4F8499C","title":"榄香","lon":"121.45519373","lat":"31.226518221","category":"247","category_name":"餐饮美食","address":"上海金鹰"},{"poiid":"B2094751D465ABFE499F","title":"COSTA COFFEE(中信泰富店)","lon":"121.45587","lat":"31.22872","category":"65","category_name":"咖啡厅","address":"静安区南京西路1168号中信泰富广场501A单元(近江宁路)"},{"poiid":"B2094757D465A0F44692","title":"锦沧文华锦华宫","lon":"121.454799781","lat":"31.226518517509","category":"72","category_name":"广东菜","address":"静安区南京西路1225号锦沧文华大酒店3楼(近西康路)"},{"poiid":"B2094757D06AA0F84392","title":"威尔士健身会所(金鹰广场店)","lon":"121.4549","lat":"31.22828","category":"148","category_name":"美容美发店","address":"静安区陕西北路278号金鹰国际购物中心8楼(近南京西路)"},{"poiid":"B2094757DB64A3FD449E","title":"瑞尔齿科（恒隆广场店）","lon":"121.454","lat":"31.2274","category":"162","category_name":"医院","address":"静安区南京西路1266号恒隆广场512室"},{"poiid":"B2094757D068A3FC419E","title":"PRADA(南京西路店)","lon":"121.454247321","lat":"31.2274819474","category":"141","category_name":"服装鞋帽皮具店","address":"静安区南京西路1266号恒隆广场1-2楼(近陕西北路)"},{"poiid":"B2094750D665A4FD459B","title":"汉宫精菜坊","lon":"121.455","lat":"31.2277","category":"76","category_name":"上海菜","address":"静安区南京西路1168号中信泰富广场商场5楼"},{"poiid":"B2094655D26AA4FA4393","title":"中信泰富员工食堂","lon":"121.45569","lat":"31.22796","category":"247","category_name":"餐饮美食","address":"静安区南京西路1168号中信泰富大厦5楼(近陕西北路)"},{"poiid":"B2094757D068A4FF419C","title":"梅陇镇广场","lon":"121.456631071","lat":"31.2264992206","category":"119","category_name":"商场","address":"松江区荣乐东路1133弄"},{"poiid":"B2094654DB69A6F44893","title":"金钱豹餐饮(中信店)","lon":"121.45568","lat":"31.22796","category":"247","category_name":"餐饮美食","address":"静安区南京西路1168号中信泰富广场4-5楼(近陕西北路)"},{"poiid":"B2094654DB6AA6FC4893","title":"星巴克(中信店)","lon":"121.4549","lat":"31.2286","category":"65","category_name":"咖啡厅","address":"静安区南京西路1168号中信泰富广场B1楼LG12单元(近陕西北路)"},{"poiid":"B2094753D76FAAFA449C","title":"上海滩国泰旗舰店","lon":"121.466011","lat":"31.216125","category":"249","category_name":"购物服务","address":"淮海中路868号"},{"poiid":"B209475CD564A7F84292","title":"上海滩新天地店","lon":"121.47463","lat":"31.22164","category":"119","category_name":"商场","address":"\"太仓路181弄新天地北里15号\r\n\""},{"poiid":"B2094654DB64A7F94793","title":"玛满矿(中信泰富店)","lon":"121.45568","lat":"31.22796","category":"99","category_name":"泰国／越南菜品餐厅","address":"静安区南京西路1168号中信泰富广场4楼417号铺(近陕西北路)"},{"poiid":"B209475CD564A7F8439E","title":"上海滩中信泰富店","lon":"121.45602","lat":"31.22851","category":"119","category_name":"商场","address":"\"南京西路1168号中信泰富广场，店铺号221.\r\n\""},{"poiid":"B2094757D06FA7FA409B","title":"恒隆广场一期","lon":"121.454415685","lat":"31.228063637","category":"47","category_name":"住宅区","address":"上海南京西路1266号"},{"poiid":"B2094654DB6BA6F54092","title":"俏江南(南京西路)","lon":"121.45569","lat":"31.22796","category":"71","category_name":"四川菜","address":"静安区南京西路1168号中信泰富广场3楼(近陕西北路)"},{"poiid":"B2094757D06EAAFB4192","title":"恒隆广场二期","lon":"121.45439147","lat":"31.227611541","category":"47","category_name":"住宅区","address":"杨浦区大学路33号"},{"poiid":"B2094757D06FA0FD489E","title":"南京西路","lon":"121.45435","lat":"31.22661","category":"260","category_name":"其他","address":"静安区南京西路(南京西路西康路)"},{"poiid":"B2094654DA6CA1FF469C","title":"新镇江酒家","lon":"121.45673","lat":"31.22814","category":"74","category_name":"江苏菜","address":"静安区南京西路1111号(近江宁路)"},{"poiid":"B2094654DA6CA1FF4499","title":"麦当劳(南京西路)","lon":"121.45569","lat":"31.22796","category":"68","category_name":"快餐厅","address":"静安区南京西路1168号中信泰富广场B1楼(近陕西北路)"},{"poiid":"B2094757D068A3FB469E","title":"梅龙镇酒家(总店)","lon":"121.4561979","lat":"31.228197746","category":"75","category_name":"浙江菜","address":"静安区南京西路1081弄22号(近江宁路)"},{"poiid":"B2094757D068A1FE479F","title":"桃花源小厨(恒隆店)","lon":"121.4545385754036","lat":"31.227524079570962","category":"72","category_name":"广东菜","address":"上海市静安区南京西路1266号恒隆广场5楼"},{"poiid":"B2094757D06FA6FD4598","title":"小南国(金鹰广场店)","lon":"121.45523","lat":"31.22788","category":"76","category_name":"上海菜","address":"静安区陕西北路278号金鹰国际购物中心7楼(近南京西路)"},{"poiid":"B2094757D06FA3FD409F","title":"屋企港式茶餐厅","lon":"121.45508","lat":"31.22628","category":"72","category_name":"广东菜","address":"静安区南京西路1213弄内(恒隆广场对面)"},{"poiid":"B2094655D26DAAFB4999","title":"中信泰富广场(南门)","lon":"121.45568","lat":"31.22795","category":"656","category_name":"大门","address":""},{"poiid":"B2094757D06FA3FF4192","title":"Wagas沃歌斯(中信泰富店)","lon":"121.45568753","lat":"31.228491679","category":"94","category_name":"西餐厅","address":"静安区南京西路1168号中信泰富B1楼(近陕西北路)"},{"poiid":"B2094752D06CA5FD469D","title":"小辉哥火锅","lon":"121.455719","lat":"31.228485","category":"247","category_name":"餐饮美食","address":"梅龙镇广场南京西路1038号701室-709室"},{"poiid":"B2094757D06FA7FC439D","title":"美新点心店","lon":"121.45626446","lat":"31.22563169","category":"68","category_name":"快餐厅","address":"静安区陕西北路105号(近威海路)"},{"poiid":"B2094655D265A0FD469F","title":"镜子咖啡馆 Caffe Specchi","lon":"121.453597","lat":"31.227215","category":"67","category_name":"甜品店","address":"静安区南京西路1266号恒隆广场103铺(近西康路)"},{"poiid":"B2094750D76EABF44393","title":"味皇港式茶餐厅","lon":"121.456","lat":"31.2287","category":"72","category_name":"广东菜","address":"静安区南京西路1168号中信泰富广场B1楼(近陕西北路)"},{"poiid":"B2094654DA6CA1FA489C","title":"上海民主党派大厦","lon":"121.45629","lat":"31.22603","category":"46","category_name":"楼宇","address":"上海市静安区陕西北路128号"},{"poiid":"B2094757D069A3FC409E","title":"锦沧文华大酒店宴会厅","lon":"121.45396","lat":"31.22653","category":"217","category_name":"旅馆招待所","address":"静安区南京西路1225号锦沧文华大酒店内(近西康路)查看地图"},{"poiid":"B2094757D06FA7F54692","title":"御锅坊","lon":"121.455117938","lat":"31.2284299317","category":"86","category_name":"火锅店","address":"静安区江宁路77号恒顺大厦7楼(奉贤路口)"},{"poiid":"B2094757D06FA0FA459F","title":"1001原汁牛肉面(金鹰店)","lon":"121.45492","lat":"31.2283","category":"68","category_name":"快餐厅","address":"静安区陕西北路278号金鹰国际购物广场6B6号(近南京西路)"},{"poiid":"B2094757D06FA7FB4598","title":"健康煮(金鹰店)","lon":"121.45405583","lat":"31.227760917","category":"68","category_name":"快餐厅","address":"静安区陕西北路278号金鹰国际购物中心6楼(近南京西路)"},{"poiid":"B2094757D06FA3F44792","title":"ZARA(南京西路店)","lon":"121.45491766","lat":"31.227113854","category":"141","category_name":"服装鞋帽皮具店","address":"静安区南京西路1201号(近陕西北路)"},{"poiid":"B2094757D06FA7FF4898","title":"吉惠日式料理(江宁路店)","lon":"121.45468873","lat":"31.227172234","category":"95","category_name":"日本料理","address":"上海市静安区江宁路77号三楼"},{"poiid":"B2094757D469A1F5489D","title":"紫云庭 TATLER'S RESTAURANT","lon":"121.454799781","lat":"31.226518517509","category":"47","category_name":"住宅区","address":"静安区南京西路1225号锦沧文华大酒店1楼(近西康路)"},{"poiid":"B2094757D068A0FF4698","title":"wagas","lon":"121.45502473","lat":"31.227744247","category":"500","category_name":"未知分类","address":"常州中信泰富地下一樓"},{"poiid":"B2094757D06FA5FE459E","title":"Gucci(金鹰店)","lon":"121.45552","lat":"31.22787","category":"141","category_name":"服装鞋帽皮具店","address":"上海静安区陕西北路278号金鹰国际购物中心(近南京西路)  "},{"poiid":"B2094757D66CABFC439A","title":"麻辣誘惑","lon":"121.456319738","lat":"31.2284212615","category":"247","category_name":"餐饮美食","address":"上海梅龍鎮"},{"poiid":"B2094655D26EA4FD4798","title":"卡地亚(恒隆店)","lon":"121.45439","lat":"31.22758","category":"248","category_name":"生活娱乐","address":"静安区南京西路1266号恒隆广场1楼(近陕西北路)查看地图"},{"poiid":"B2094757D064A5F8419D","title":"森下创作料理","lon":"121.456423738","lat":"31.2258492067","category":"76","category_name":"上海菜","address":"静安区南京西路1025弄静安别墅123号(近吴江路)"},{"poiid":"B2094757D064A4FD449A","title":"和良日式造型(威海)","lon":"121.456196738","lat":"31.2254711987","category":"148","category_name":"美容美发店","address":"上海威海路840号"},{"poiid":"B2094757D16CA4F4469F","title":"中兴泰富","lon":"121.455156738","lat":"31.2279352512","category":"500","category_name":"未知分类","address":"上海南京西路1168号"},{"poiid":"B2094757D46FA0F4439C","title":"鹤舞 恒隆广场店","lon":"121.454537","lat":"31.227248","category":"95","category_name":"日本料理","address":"静安区南京西路1266号上海恒隆广场5楼(近陕西北路)"},{"poiid":"B2094757D06FA0F9479C","title":"McDonald Citic","lon":"121.45477327","lat":"31.227719613","category":"68","category_name":"快餐厅","address":"上海中信泰富1635"},{"poiid":"B2094654DA6CA1FF449D","title":"鱼翅捞饭 静安店","lon":"121.455857054","lat":"31.227937793","category":"72","category_name":"广东菜","address":"静安区南京西路1168号中信泰富广场5楼(近陕西北路)"},{"poiid":"B2094655D26DAAFD459D","title":"彩蝶轩","lon":"121.45441","lat":"31.22758","category":"257","category_name":"中餐厅","address":"静安区南京西路1266号恒隆广场5楼(近陕西北路)"},{"poiid":"B2094757D06BA4F8499C","title":"榄香","lon":"121.45519373","lat":"31.226518221","category":"247","category_name":"餐饮美食","address":"上海金鹰"},{"poiid":"B2094751D465ABFE499F","title":"COSTA COFFEE(中信泰富店)","lon":"121.45587","lat":"31.22872","category":"65","category_name":"咖啡厅","address":"静安区南京西路1168号中信泰富广场501A单元(近江宁路)"},{"poiid":"B2094757D465A0F44692","title":"锦沧文华锦华宫","lon":"121.454799781","lat":"31.226518517509","category":"72","category_name":"广东菜","address":"静安区南京西路1225号锦沧文华大酒店3楼(近西康路)"},{"poiid":"B2094757D06AA0F84392","title":"威尔士健身会所(金鹰广场店)","lon":"121.4549","lat":"31.22828","category":"148","category_name":"美容美发店","address":"静安区陕西北路278号金鹰国际购物中心8楼(近南京西路)"},{"poiid":"B2094757DB64A3FD449E","title":"瑞尔齿科（恒隆广场店）","lon":"121.454","lat":"31.2274","category":"162","category_name":"医院","address":"静安区南京西路1266号恒隆广场512室"},{"poiid":"B2094757D068A3FC419E","title":"PRADA(南京西路店)","lon":"121.454247321","lat":"31.2274819474","category":"141","category_name":"服装鞋帽皮具店","address":"静安区南京西路1266号恒隆广场1-2楼(近陕西北路)"},{"poiid":"B2094750D665A4FD459B","title":"汉宫精菜坊","lon":"121.455","lat":"31.2277","category":"76","category_name":"上海菜","address":"静安区南京西路1168号中信泰富广场商场5楼"},{"poiid":"B2094655D26AA4FA4393","title":"中信泰富员工食堂","lon":"121.45569","lat":"31.22796","category":"247","category_name":"餐饮美食","address":"静安区南京西路1168号中信泰富大厦5楼(近陕西北路)"}]