[{"poiid":"B2094750D26DA0F44692","title":"上海虹桥机场T2航站","lon":"121.40392","lat":"31.165797","category":"500","category_name":"未知分类","address":null},{"poiid":"B2094757D06FA2F84399","title":"上海腾讯大厦","lon":"121.40175628","lat":"31.165849685","category":"46","category_name":"楼宇","address":"上海市徐汇区虹梅路1801号"},{"poiid":"B2094757D06FA6FD4199","title":"漕河泾国际商务中心","lon":"121.40445258","lat":"31.164370143","category":"46","category_name":"楼宇","address":"上海市徐汇区桂平路391号"},{"poiid":"B2094757D06FA2FF419D","title":"创新大厦","lon":"121.400981077","lat":"31.1706389813","category":"46","category_name":"楼宇","address":"上海宜山路1009号"},{"poiid":"B2094757D06FA7FF4999","title":"漕河泾科技大楼A区","lon":"121.40035247","lat":"31.171821594","category":"46","category_name":"楼宇","address":"上海宜山路900号"},{"poiid":"B2094757D06FABF94498","title":"华美达新园酒店","lon":"121.406080905","lat":"31.1640171109","category":"217","category_name":"旅馆招待所","address":"上海徐汇区漕宝路509号(近桂平路)"},{"poiid":"B2094757D06FABFF4093","title":"一番屋(华美达店)","lon":"121.40698438","lat":"31.164436905","category":"268","category_name":"自助","address":"徐汇区漕宝路509号华美达老楼2楼"},{"poiid":"B2094654D564A2FC4892","title":"齐来工业城","lon":"121.40454","lat":"31.17084","category":"45","category_name":"产业园区","address":"丰台学城海鹰路1号，3号"},{"poiid":"B2094757D068ABFB469B","title":"齐来大厦","lon":"121.404473","lat":"31.170888","category":"46","category_name":"楼宇","address":"上海宜山路889号"},{"poiid":"B2094750D66AA0FC459A","title":"上海虹桥火车站出发","lon":"121.400276","lat":"31.171752","category":"21","category_name":"飞机场","address":""},{"poiid":"B2094654DA65A5FB409E","title":"新漕河泾大厦","lon":"121.40551","lat":"31.16386","category":"46","category_name":"楼宇","address":"行宫位于沈河北站一路41号"},{"poiid":"B2094654D564A2FD469F","title":"中国银行国际金融研修院(上海)","lon":"121.40663","lat":"31.16538","category":"150","category_name":"银行","address":"桂箐路5"},{"poiid":"B2094757D068A1FA4298","title":"漕河泾科技大楼C座","lon":"121.40041674","lat":"31.17200494","category":"46","category_name":"楼宇","address":"上海宜山路900号"},{"poiid":"B2094757D069A7FD4092","title":"3M中国研发中心","lon":"121.404991","lat":"31.1685","category":"500","category_name":"未知分类","address":"上海徐汇区田林路222号(近桂平路)"},{"poiid":"B2094757D069A3FF409B","title":"齐来工业城4号楼","lon":"121.40359752","lat":"31.171171526","category":"46","category_name":"楼宇","address":"上海市徐汇区宜山路889号"},{"poiid":"B2094757D06FA0F54198","title":"漕河泾桂果园","lon":"121.403384","lat":"31.166817","category":"249","category_name":"购物服务","address":"上海桂平路471号"},{"poiid":"B2094757D06AA0F84493","title":"莲花大厦","lon":"121.40152632888","lat":"31.16812260307","category":"46","category_name":"楼宇","address":"上海,上海市,田州路159号"},{"poiid":"B2094654D564A2FD469E","title":"上海市漕河泾新兴技术开发区","lon":"121.4063","lat":"31.16595","category":"45","category_name":"产业园区","address":"桂箐路7"},{"poiid":"B2094757D06AA4FB4892","title":"上海统一星巴克咖啡有限公司(上海总部)","lon":"121.400966517","lat":"31.1707895172","category":"46","category_name":"楼宇","address":"上海宜山路1009号3楼"},{"poiid":"B2094757D068A6FD4892","title":"科技绿洲","lon":"121.406","lat":"31.1726","category":"47","category_name":"住宅区","address":"上海徐汇区田林路888号"},{"poiid":"B2094752D06EABFB429D","title":"上海虹桥火车站","lon":"121.40551","lat":"31.16386","category":"627","category_name":"一般地点标志","address":"上海虹桥火车站"},{"poiid":"B2094750DB65A6FF4899","title":"印象台北","lon":"121.4048","lat":"31.165285","category":"91","category_name":"台湾菜","address":"徐汇区桂平路(近全州路)"},{"poiid":"B2094654D564A2FE469C","title":"田林大楼","lon":"121.40265","lat":"31.1677","category":"46","category_name":"楼宇","address":"浦东区达尔文路88号"},{"poiid":"B2094655D265A6FB459D","title":"华东理工大学国家大学科技园G7软件基地","lon":"121.40484","lat":"31.16531","category":"45","category_name":"产业园区","address":""},{"poiid":"B2094655D36CA7F4449A","title":"桂平路宜山路","lon":"121.40284","lat":"31.17095","category":"38","category_name":"公交车站","address":""},{"poiid":"B2094757D06BA6F8489E","title":"瑞金医院体检中心","lon":"121.40434408","lat":"31.168242219","category":"162","category_name":"医院","address":"上海卢湾区瑞金二路197号瑞金医院内"},{"poiid":"B2094750D464A2FD4793","title":"Tony`s Kitchen","lon":"121.40467","lat":"31.165403","category":"247","category_name":"餐饮美食","address":"徐汇区桂菁路7号(近桂平路)"},{"poiid":"B2094757D16EA4F94292","title":"齐来工业城3号楼","lon":"121.40375758","lat":"31.171151276","category":"500","category_name":"未知分类","address":"上海市徐汇区宜山路889号"},{"poiid":"B2094655D36CA7F44393","title":"桂平路田林路","lon":"121.40349","lat":"31.1687","category":"38","category_name":"公交车站","address":""},{"poiid":"B2094757D065AAF8459E","title":"太保田林数据中心","lon":"121.4074","lat":"31.168261","category":"500","category_name":"未知分类","address":"上海田林路201号"},{"poiid":"B2094757D06FABFF4692","title":"桂中园","lon":"121.402888","lat":"31.168507","category":"500","category_name":"未知分类","address":"上海桂平路481号"},{"poiid":"B2094751D36AABF84299","title":"点水楼","lon":"121.40283","lat":"31.17147","category":"76","category_name":"上海菜","address":"徐汇区宜山路889号6栋齐来会所内(近桂菁路)"},{"poiid":"B2094655D26BA5F4459E","title":"田林园","lon":"121.40466","lat":"31.16715","category":"45","category_name":"产业园区","address":"桂平路470号"},{"poiid":"B2094757D568A6FC4798","title":"桂平园","lon":"121.40268446","lat":"31.17049425","category":"45","category_name":"产业园区","address":"桂平路555"},{"poiid":"B2094757D06AA1F54193","title":"中国农业银行漕河泾开发区支行","lon":"121.40289","lat":"31.17225","category":"150","category_name":"银行","address":"上海市徐汇区宜山路888号"},{"poiid":"B2094757D065A6F54693","title":"永达斯柯达4S漕宝店","lon":"121.401243","lat":"31.165403","category":"500","category_name":"未知分类","address":"上海虹梅路1682号"},{"poiid":"B2094757D568A0F4469E","title":"新漕河客运大楼","lon":"121.4022728","lat":"31.16779278","category":"46","category_name":"楼宇","address":"徐汇区田林路300号"},{"poiid":"B2094757D16EA1FD4192","title":"香草工坊","lon":"121.40084458","lat":"31.169376241","category":"67","category_name":"甜品店","address":"徐汇区桂果路601号(近宜山路)"},{"poiid":"B2094655D26AA0FB419B","title":"篱笆网","lon":"121.40454","lat":"31.17084","category":"247","category_name":"餐饮美食","address":"徐汇区宜山路889号齐来工业城1号楼1-2、4-5楼(近桂平路)查看地图"},{"poiid":"B2094654D564A2FD4493","title":"3M中国有限公司漕河泾工厂","lon":"121.40499","lat":"31.16849","category":"263","category_name":"公司","address":"田林路222"},{"poiid":"B2094757D568A4F44392","title":"新业大厦","lon":"121.405","lat":"31.1727","category":"46","category_name":"楼宇","address":"徐汇区田林路388号"},{"poiid":"B2094757D16DA6F4479F","title":"桂平路","lon":"121.40503958","lat":"31.167412203","category":"500","category_name":"未知分类","address":"上海市徐汇区桂平路470號"},{"poiid":"B2094655D264AAF44692","title":"桂果园","lon":"121.40331","lat":"31.1668","category":"45","category_name":"产业园区","address":"桂平路470号"},{"poiid":"B2094655D264A0F94192","title":"聚乐亭","lon":"121.401318054","lat":"31.167550793","category":"76","category_name":"上海菜","address":"徐汇区桂果路601号(近宜山路)"},{"poiid":"B2094757D065A5F44098","title":"齐来工业城2号楼","lon":"121.403525661","lat":"31.1705366142","category":"500","category_name":"未知分类","address":"上海宜山路889号"},{"poiid":"B2094654D56BAAFF4099","title":"中国工商银行漕河泾开发区支行","lon":"121.40131","lat":"31.17211","category":"150","category_name":"银行","address":"宜山路900号漕河泾开发区科技楼1层、9层"},{"poiid":"B2094757D66DA1F94598","title":"万达信息股份有限公司","lon":"121.402291586","lat":"31.1685592256","category":"263","category_name":"公司","address":"上海市桂平路481号5楼"},{"poiid":"B2094750DB6AA4F4489A","title":"漕河泾","lon":"121.402648","lat":"31.168376","category":"263","category_name":"公司","address":"桂平路481号"},{"poiid":"B2094655D265A6FB4592","title":"MTS","lon":"121.40295","lat":"31.16849","category":"263","category_name":"公司","address":"桂平路481号桂中园"},{"poiid":"B2094655D26AA6FD4799","title":"麦考林宜山店","lon":"121.40454","lat":"31.17084","category":"247","category_name":"餐饮美食","address":"徐汇区宜山路889号3号楼2楼(近桂平路)"},{"poiid":"B2094655D26BA2F84393","title":"田林路桂箐路","lon":"121.40705","lat":"31.16845","category":"38","category_name":"公交车站","address":""},{"poiid":"B2094757D16FA2FC489E","title":"浦世健身","lon":"121.40149","lat":"31.16746","category":"148","category_name":"美容美发店","address":"闵行区田林路358号漕河泾公园(近桂平路)"},{"poiid":"B2094757D065A7FE4499","title":"中石油","lon":"121.40078001","lat":"31.16697589","category":"500","category_name":"未知分类","address":"上海田林路虹許路"},{"poiid":"B2094751DA6AA2FC489E","title":"虹桥机场","lon":"121.4038","lat":"31.17078","category":"500","category_name":"未知分类","address":null},{"poiid":"B2094655D26DA3FC4293","title":"上海仪电工业园区(田林路)","lon":"121.40706","lat":"31.16876","category":"45","category_name":"产业园区","address":"田林路192"},{"poiid":"B2094757D06AA5FE4598","title":"全家便利店(齐来工业城)","lon":"121.40454","lat":"31.170844","category":"500","category_name":"未知分类","address":"宜山路889号齐来会所第一层01单元"},{"poiid":"B2094757D06BA0F54493","title":"Cafe Freshin","lon":"121.40518","lat":"31.17214","category":"67","category_name":"甜品店","address":"徐汇区宜山路822号(近桂箐路)"},{"poiid":"B2094654D56BABF4439B","title":"新联技贸中心","lon":"121.40526","lat":"31.17249","category":"46","category_name":"楼宇","address":"虹口区海宁路、吴淞路口"},{"poiid":"B2094655D36DA0FA449D","title":"宜山路桂箐路","lon":"121.40445","lat":"31.17192","category":"38","category_name":"公交车站","address":""},{"poiid":"B2094654D564A2FE439D","title":"上海开通数控公司","lon":"121.40459","lat":"31.16713","category":"263","category_name":"公司","address":"桂平路470号"},{"poiid":"B2094757D069A6FA489A","title":"谱尼测试中心","lon":"121.40218733","lat":"31.171975692","category":"46","category_name":"楼宇","address":"桂平路680号创业中心大厦35号楼4层"},{"poiid":"B2094753D469ABFF4092","title":"环球港","lon":"121.40187","lat":"31.172307","category":"500","category_name":"未知分类","address":"上海市 中山北路3300号"},{"poiid":"B2094654D56BAAFE439F","title":"漕河泾开发区科技楼","lon":"121.40156","lat":"31.17223","category":"46","category_name":"楼宇","address":"宜山路900"},{"poiid":"B2094655D36DA0FA449F","title":"宜山路桂平路","lon":"121.40207","lat":"31.17149","category":"38","category_name":"公交车站","address":""},{"poiid":"B2094750D66CA6F4499C","title":"世纪大道","lon":"121.402275","lat":"31.1674","category":"500","category_name":"未知分类","address":null},{"poiid":"B2094654D564A2FE469A","title":"上海市社会保障和市民服务信息中心","lon":"121.40338","lat":"31.16681","category":"248","category_name":"生活娱乐","address":"桂平路471号漕河泾物业6号楼5层"},{"poiid":"B2094655D26BA0F4499E","title":"兴园便利店","lon":"121.4026","lat":"31.1708","category":"117","category_name":"便民商店/便利店","address":""},{"poiid":"B2094757D164A5F9429A","title":"上海全球儿童用品股份有限公司","lon":"121.402927586","lat":"31.1719362916","category":"46","category_name":"楼宇","address":"上海桂平路555号46号楼3楼"},{"poiid":"B2094757D168ABFD4693","title":"篱笆网 4F 小黑屋","lon":"121.40454101","lat":"31.170843124","category":"500","category_name":"未知分类","address":"上海市宜山路889号1号楼4楼"},{"poiid":"B2094654D564A2FF4099","title":"星巴克企业管理(中国)有限公司","lon":"121.401","lat":"31.17066","category":"263","category_name":"公司","address":"宜山路1009号上海漕河泾开发区创新大楼4层"},{"poiid":"B2094654DB69A5F4459A","title":"SPRCOFFEE(宜山路店)","lon":"121.40223","lat":"31.17183","category":"65","category_name":"咖啡厅","address":"徐汇区漕河泾开发区900号C楼102室(漕宝路莲花路)"},{"poiid":"B2094654D564A2FD4298","title":"通标标准技术服务有限公司","lon":"121.40454","lat":"31.17084","category":"263","category_name":"公司","address":"宜山路889号齐来工业城3号楼地下1层、1、7、9-10层D-E、6层CD、5层D、4层CD"},{"poiid":"B2094757D16EA0FF439E","title":"boc","lon":"121.40199198","lat":"31.169567845","category":"500","category_name":"未知分类","address":"上海桂平路＆宜山路"},{"poiid":"B2094757DA69A2FA4798","title":"淘课TAOKE.COM","lon":"121.40454","lat":"31.17084","category":"630","category_name":"电子商务公司","address":"宜山路889号齐来大厦6楼"},{"poiid":"B2094654D564A2FE449D","title":"上海广安电热锅炉厂","lon":"121.40338","lat":"31.16682","category":"263","category_name":"公司","address":"桂平路471号漕河泾物业"},{"poiid":"B2094654D564A2FE459E","title":"理光图像技术(上海)有限公司","lon":"121.40338","lat":"31.16682","category":"263","category_name":"公司","address":"桂平路471号漕河泾物业8号楼6层"},{"poiid":"B2094757D66FA3F84498","title":"中国农业银行上海分行电子银行部","lon":"121.40667358","lat":"31.169796249","category":"500","category_name":"未知分类","address":"上海市徐汇区宜山路888号"},{"poiid":"B2094654D56BABF54399","title":"中国移动宜山路营业厅","lon":"121.403","lat":"31.1721","category":"151","category_name":"电讯营业厅","address":"徐汇区宜山路888号1层"},{"poiid":"B2094654D564A2FE459F","title":"上海中科光纤通讯器件有限公司","lon":"121.40338","lat":"31.16681","category":"263","category_name":"公司","address":"桂平路471号漕河泾物业8号楼4-5层"},{"poiid":"B2094757D56CA2FE4693","title":"新漕河泾国际商务中心食堂","lon":"121.4049709","lat":"31.1636597","category":"68","category_name":"快餐厅","address":"徐汇区桂平路391号副楼3楼"},{"poiid":"B2094757D16FABFB489E","title":"悦车坊(漕宝店)","lon":"121.403514586","lat":"31.1661331782","category":"500","category_name":"未知分类","address":"徐汇区漕宝路1012号(近中环)"},{"poiid":"B2094757D568A4F84693","title":"上海市社会保障卡服务中心","lon":"121.4033778","lat":"31.16680773","category":"248","category_name":"生活娱乐","address":"桂平路470号桂果园6号楼5层"},{"poiid":"B2094757D06BA2FC4292","title":"海博综合楼","lon":"121.406758","lat":"31.171637","category":"252","category_name":"楼宇机构","address":"上海宜山路829号"},{"poiid":"B2094654D564A2FF419D","title":"PFU上海计算机有限公司(桂平路)","lon":"121.40269","lat":"31.17048","category":"263","category_name":"公司","address":"桂平路555号46栋5层"},{"poiid":"B2094655D268A0FC469A","title":"中国航空无线电电子研究所(桂平路)","lon":"121.40478","lat":"31.16646","category":"191","category_name":"科研机构","address":"桂平路555"},{"poiid":"B2094654D564A2FD449C","title":"上海天祥质量技术服务有限公司","lon":"121.40454","lat":"31.17084","category":"263","category_name":"公司","address":"宜山路889号齐来工业城2号楼1、3-5层、地下1层"},{"poiid":"B2094654D564A2FF4199","title":"上海埃威航空电子有限公司","lon":"121.40268","lat":"31.17049","category":"263","category_name":"公司","address":"桂平路555"},{"poiid":"B2094654D564A2FD429D","title":"上海麦考林国际邮购有限公司(上海齐来工业城东)","lon":"121.40454","lat":"31.17084","category":"263","category_name":"公司","address":"宜山路889号齐来工业城3号楼2层C-E、5层E"},{"poiid":"B209475CD764A1F8419C","title":"星巴克 桂平路店","lon":"121.40496","lat":"31.16366","category":"65","category_name":"咖啡厅","address":"桂平路391号新漕河泾国际商务中心内(近漕宝路)"},{"poiid":"B2094757D66DA5FE499C","title":"兴园科技广场","lon":"121.405095","lat":"31.164673","category":"500","category_name":"未知分类","address":"上海桂平路418号"},{"poiid":"B2094654D564A2FD4292","title":"日英电子(上海)有限公司","lon":"121.40454","lat":"31.17084","category":"263","category_name":"公司","address":"宜山路889号齐来工业城3号楼8层C"},{"poiid":"B2094757D164A2FA4293","title":"上海贝岭股份有限公司","lon":"121.404420586","lat":"31.1714102813","category":"263","category_name":"公司","address":"徐汇区易山路810号(漕河泾开发区企业园林)"},{"poiid":"B2094757D06AA5FF429A","title":"星巴克GC办公室","lon":"121.40057445","lat":"31.171348305","category":"500","category_name":"未知分类","address":"上海宜山路1009号创新大厦4楼"},{"poiid":"B2094654D564A2FD4392","title":"上海雪儿服饰有限公司","lon":"121.40454","lat":"31.17084","category":"263","category_name":"公司","address":"宜山路889号齐来工业城1号楼6层、地下1层"},{"poiid":"B2094757D66CA2F9409E","title":"华腾软件","lon":"121.40712558","lat":"31.168627226","category":"249","category_name":"购物服务","address":"上海市徐汇区桂平路481号16号楼"},{"poiid":"B2094654D564A2FD469B","title":"上海光通信发展股份有限公司","lon":"121.40603","lat":"31.16648","category":"263","category_name":"公司","address":"桂箐路15号"},{"poiid":"B2094757DA69A2F54798","title":"SGS通标官方微博","lon":"121.40454","lat":"31.17084","category":"633","category_name":"商务服务类公司","address":"宜山路889号3号楼、4号楼"},{"poiid":"B2094757D169A0F9409D","title":"公积金管理中心 水清路","lon":"121.40159733","lat":"31.170298409","category":"500","category_name":"未知分类","address":"上海水清路303号"},{"poiid":"B2094750D56EA5F44292","title":"老纪面馆","lon":"121.4002","lat":"31.16678","category":"68","category_name":"快餐厅","address":"徐汇区田林路(近桂林路)"},{"poiid":"B2094655D268A1FE429A","title":"罗森(漕河泾新兴技术开发区工商所消费者权益申诉站北)","lon":"121.4052","lat":"31.16479","category":"117","category_name":"便民商店/便利店","address":"桂平路418"},{"poiid":"B2094757D164A7F8409E","title":"中国银行漕河泾开发区支行","lon":"121.402830711","lat":"31.1719912298","category":"500","category_name":"未知分类","address":"徐汇区宜山路900号科技产业大楼内(近桂平路)"},{"poiid":"B2094757D16EA3FF4293","title":"全家便利(齐来大厦对面)","lon":"121.40362786","lat":"31.171418635","category":"249","category_name":"购物服务","address":"上海宜山路889号"},{"poiid":"B2094654D56BAAFE4092","title":"科技产业大楼C楼","lon":"121.40035","lat":"31.17182","category":"46","category_name":"楼宇","address":"宜山路900"},{"poiid":"B2094757D068A1FF459B","title":"海博大厦","lon":"121.40675949","lat":"31.171217564","category":"252","category_name":"楼宇机构","address":"上海徐汇区宜山路829号"},{"poiid":"B2094757DA69A1FF4099","title":"SGS纺织及鞋类服务","lon":"121.40454","lat":"31.17084","category":"640","category_name":"服装服饰类公司","address":"宜山路889号"},{"poiid":"B2094654D564A2FD4699","title":"上海光通","lon":"121.40603","lat":"31.16648","category":"263","category_name":"公司","address":"桂箐路15号"},{"poiid":"B2094655D26AA6FA4199","title":"易酒网进口葡萄酒专卖","lon":"121.40668","lat":"31.17187","category":"247","category_name":"餐饮美食","address":"徐汇区宜山路829号413室(近虹漕路)"},{"poiid":"B2094757D06AA5F94698","title":"市中教育","lon":"121.40054248","lat":"31.168496924","category":"500","category_name":"未知分类","address":"上海雁荡路100号"},{"poiid":"B2094751D56FA2FD4293","title":"大连民族学院","lon":"121.4081403","lat":"31.1668321","category":"253","category_name":"校园生活","address":"大连金石滩"},{"poiid":"B2094655D268A7F5469C","title":"上海华联罗森有限公司","lon":"121.40157","lat":"31.17223","category":"117","category_name":"便民商店/便利店","address":"宜山路900号1层"},{"poiid":"B2094654D564A2FE479F","title":"上海漕河泾开发区物业管理有限公司","lon":"121.40092","lat":"31.16709","category":"263","category_name":"公司","address":"田林路301"},{"poiid":"B2094757DA69A1FB489F","title":"育碧上海工作室","lon":"121.40571304374","lat":"31.166027876318","category":"634","category_name":"IT类公司","address":"上海市桂箐路7号，G7华东理工科技园区3号楼3楼"},{"poiid":"B2094757D16FA3FC4292","title":"809路","lon":"121.40506818","lat":"31.171744487","category":"500","category_name":"未知分类","address":"上海宜山路桂菁路"},{"poiid":"B2094654D56BAAFE4393","title":"电信恒联营业部","lon":"121.40156","lat":"31.17224","category":"151","category_name":"电讯营业厅","address":"宜山路900号漕河泾开发区科技楼1层"},{"poiid":"B2094654DA65A5F44292","title":"田林工商所","lon":"121.40509","lat":"31.16478","category":"250","category_name":"公园户外","address":"桂平路418号上海漕河泾新园科技广场"},{"poiid":"B2094655D268A1FE4193","title":"上海市地方税务局徐汇分局第九税务所","lon":"121.40536","lat":"31.16435","category":"250","category_name":"公园户外","address":"桂平路410号兴园大楼2层"},{"poiid":"B2094757D065A2FE469F","title":"上海市安全生产科学研究所","lon":"121.408687","lat":"31.16858","category":"500","category_name":"未知分类","address":"上海田林路191号"},{"poiid":"B2094757D069A5FB489C","title":"上海专利商标事务所有限公司","lon":"121.403995","lat":"31.165183","category":"500","category_name":"未知分类","address":"上海桂平路435号"},{"poiid":"B2094757D16EA0F44898","title":"米其林中国","lon":"121.402572","lat":"31.171722","category":"500","category_name":"未知分类","address":"上海红宝石路500号，东银大厦16楼"},{"poiid":"B2094654DB64A4F4409A","title":"新漕河泾大厦物业管理处","lon":"121.40556","lat":"31.16374","category":"46","category_name":"楼宇","address":"漕宝路509号0204"},{"poiid":"B2094654DB6AA7F5439C","title":"国际金融研修院","lon":"121.40663","lat":"31.16538","category":"253","category_name":"校园生活","address":"徐汇区桂箐路5号"},{"poiid":"B2094654D56BAAFE4299","title":"思科系统(中国)研发有限公司","lon":"121.40036","lat":"31.17182","category":"263","category_name":"公司","address":"宜山路900号科技产业大楼C楼11层、12-16层"},{"poiid":"B2094654D564A2FE499A","title":"泰科流体控制亚洲总部","lon":"121.401","lat":"31.17066","category":"263","category_name":"公司","address":"宜山路1009号上海漕河泾开发区创新大楼23层"},{"poiid":"B2094757D164ABFC459C","title":"Route 1壹号线","lon":"121.40058348","lat":"31.166932543","category":"500","category_name":"未知分类","address":"上海虹梅路1688号(田林路中环路加油站内)"},{"poiid":"B2094757D068A3F94698","title":"罗森便利店（宜山路店）","lon":"121.40174102","lat":"31.171430587","category":"500","category_name":"未知分类","address":"上海宜山路938号"},{"poiid":"B2094751D268A5FE4893","title":"上海市国际孵化中心","lon":"121.405299","lat":"31.164781","category":"252","category_name":"楼宇机构","address":"徐汇区桂平路410路"},{"poiid":"B2094757D064ABF44893","title":"宜山路移动营业厅","lon":"121.401186","lat":"31.171087782","category":"150","category_name":"银行","address":"上海宜山路桂平路"},{"poiid":"B2094654D564A2FE499D","title":"施耐德电气(中国)投资有限公司上海分公司","lon":"121.401","lat":"31.17067","category":"263","category_name":"公司","address":"宜山路1009号上海漕河泾开发区创新大楼10-16层"},{"poiid":"B2094750D26BABF8479D","title":"漕河泾开发区总公司","lon":"121.403617","lat":"31.172296","category":"263","category_name":"公司","address":"宜山路868号"},{"poiid":"B2094654D564A2FC469D","title":"海博股份","lon":"121.40675","lat":"31.17116","category":"263","category_name":"公司","address":""},{"poiid":"B2094654D564A2FF4093","title":"三星SMT上海技术中心","lon":"121.401","lat":"31.17067","category":"263","category_name":"公司","address":"宜山路1009号上海漕河泾开发区创新大楼"},{"poiid":"B2094757D16BA2F9439C","title":"上海大光明电影院","lon":"121.399259586","lat":"31.1669581944","category":"500","category_name":"未知分类","address":"上海南京西路216号"},{"poiid":"B2094757D16CAAF5459C","title":"上班中……","lon":"121.40198558","lat":"31.172337299","category":"500","category_name":"未知分类","address":null},{"poiid":"B2094655D265A5FD499C","title":"上海国际问题研究院","lon":"121.40846","lat":"31.16806","category":"191","category_name":"科研机构","address":"田林路195弄15"},{"poiid":"B2094654D564A2FE479E","title":"漕河泾开发区公园(南门)","lon":"121.40114","lat":"31.16751","category":"656","category_name":"大门","address":"田林路358"},{"poiid":"B2094757D66DA7FA439F","title":"中国石化","lon":"121.40528106","lat":"31.164833068","category":"154","category_name":"加油加气站","address":"上海中环线田林出口"},{"poiid":"B2094757D06AA5FE449C","title":"罗森便利店(新园科技广场店)","lon":"121.404616","lat":"31.164782","category":"500","category_name":"未知分类","address":"上海桂平路418号新园科技广场一楼"},{"poiid":"B2094654D56BAAFE439E","title":"交通银行上海漕河泾支行","lon":"121.40048","lat":"31.17176","category":"150","category_name":"银行","address":"徐汇区宜山路900号科技产业大楼C座(近桂平路)"},{"poiid":"B2094655D26EA2FD419A","title":"中国银行国际金融研修院外语测试中心","lon":"121.40663","lat":"31.16538","category":"150","category_name":"银行","address":"桂箐路5"},{"poiid":"B2094757D66FA1FB469F","title":"桂平路","lon":"121.40044558","lat":"31.171470282","category":"500","category_name":"未知分类","address":"上海市徐汇区虹梅路"},{"poiid":"B2094654DB6BA7F8409D","title":"上海漕河泾开发区新经济园发展有限公司","lon":"121.40289","lat":"31.17224","category":"263","category_name":"公司","address":"宜山路888号新银大厦17层1707"},{"poiid":"B2094757D66CA1F8499F","title":"淞滨路同济路公车站","lon":"121.40289558","lat":"31.164890154","category":"500","category_name":"未知分类","address":"上海宝山区淞滨路同济路"},{"poiid":"B2094654D56BAAFF4093","title":"梅特勒-托利多仪器(上海)有限公司(桂平路)","lon":"121.4017","lat":"31.17299","category":"263","category_name":"公司","address":"桂平路589"},{"poiid":"B2094757D069A6FA479E","title":"中国建设银行(漕河泾支行)","lon":"121.4058","lat":"31.16397","category":"150","category_name":"银行","address":"徐汇区桂平路418号(漕宝路桂平路)"},{"poiid":"B2094654D56BABF54193","title":"上海可尔电子贸易有限公司","lon":"121.40289","lat":"31.17225","category":"263","category_name":"公司","address":"宜山路888号新银大厦17层1702-3"},{"poiid":"B2094654D56BAAFE4993","title":"通标标准技术服务有限公司上海分公司","lon":"121.40157","lat":"31.17223","category":"263","category_name":"公司","address":"宜山路900号漕河泾开发区科技楼15层"},{"poiid":"B2094757DA69A2F8489E","title":"永达巴士斯柯达4S店","lon":"121.40121899699","lat":"31.165610886171","category":"639","category_name":"汽车交通类公司","address":"徐汇区虹梅路1682号(近中环漕宝路)"},{"poiid":"B2094654D564A2FE489B","title":"中国平安人寿保险股份有限公司上海分公司培训基地","lon":"121.39952","lat":"31.16934","category":"219","category_name":"其他","address":"虹梅路2008"},{"poiid":"B2094757D66CA7FA479F","title":"桂平路680号34栋","lon":"121.40283551","lat":"31.172770791","category":"500","category_name":"未知分类","address":"上海桂平路680号34栋"},{"poiid":"B2094654D564A2FC479D","title":"上海思捷科技有限公司","lon":"121.40669","lat":"31.17187","category":"263","category_name":"公司","address":"宜山路829号海博综合楼南楼1层"},{"poiid":"B2094750DB6BA7FD449C","title":"漕河泾万丽大酒店","lon":"121.40187","lat":"31.164295","category":"251","category_name":"出行住宿","address":"田林路397号"},{"poiid":"B2094757D065A2FB4193","title":"江桥三村七街坊","lon":"121.39966213","lat":"31.170109655","category":"252","category_name":"楼宇机构","address":"上海靖远路621弄"},{"poiid":"B2094654D56BAAFE479C","title":"上海市漕河泾新兴技术开发区发展总公司(宜山路)","lon":"121.40156","lat":"31.17223","category":"263","category_name":"公司","address":"宜山路900号漕河泾开发区科技楼17层"},{"poiid":"B2094654D56BAAFE499B","title":"爱普生(中国)有限公司上海分公司","lon":"121.40156","lat":"31.17223","category":"263","category_name":"公司","address":"宜山路900号漕河泾开发区科技楼7层"},{"poiid":"B2094654D56BAAFE4298","title":"英迈(中国)投资有限公司","lon":"121.40035","lat":"31.17182","category":"263","category_name":"公司","address":"宜山路900号科技产业大楼C楼8-10层、25层"},{"poiid":"B2094654D56BAAFE449A","title":"上海漕河泾新兴技术开发区发展总公司综合管理办公室","lon":"121.40156","lat":"31.17223","category":"263","category_name":"公司","address":"宜山路900号漕河泾开发区科技楼1层"},{"poiid":"B2094654D56BAAFE4698","title":"上海麦考林国际邮购有限公司(新银大厦西)","lon":"121.40157","lat":"31.17224","category":"263","category_name":"公司","address":"宜山路900号漕河泾开发区科技楼10层"},{"poiid":"B2094757D169A6F4499D","title":"闵行汽轮新村","lon":"121.40077862","lat":"31.165218517","category":"500","category_name":"未知分类","address":"上海闵行区江川路"},{"poiid":"B2094757D06AA0FE4693","title":"创业大厦","lon":"121.403038025","lat":"31.1733951569","category":"252","category_name":"楼宇机构","address":"上海桂平路"},{"poiid":"B2094757D16CA1FA4692","title":"康普中国","lon":"121.405563","lat":"31.163739","category":"500","category_name":"未知分类","address":"上海漕宝路509号新漕河泾大厦10楼"},{"poiid":"B2094757D66CA5FA4093","title":"上海华腾软件系统有限公司","lon":"121.406643586","lat":"31.1723723001","category":"263","category_name":"公司","address":"上海市徐汇区虹漕路448号11楼"},{"poiid":"B2094655D268A4FD4593","title":"新银大厦(西大门)","lon":"121.40258","lat":"31.17259","category":"48","category_name":"楼宇大门","address":""},{"poiid":"B2094654D56BAAFE429F","title":"上海德昂实业发展有限公司","lon":"121.40035","lat":"31.17181","category":"263","category_name":"公司","address":"宜山路900号科技产业大楼C楼1702"},{"poiid":"B2094654D56BAAFE4293","title":"丹佛斯(上海)自动控制有限公司","lon":"121.40036","lat":"31.17182","category":"263","category_name":"公司","address":"宜山路900号科技产业大楼C楼20层"},{"poiid":"B2094757D464A6FA4493","title":"5days","lon":"121.40508","lat":"31.16465","category":"260","category_name":"其他","address":"徐汇区桂平路418号兴园科技广场1楼(近漕宝路)"},{"poiid":"B2094654DB6AA2F8469D","title":"梅特勒托利多(常州)称重设备系统有限公司上海办事处","lon":"121.40169","lat":"31.17299","category":"263","category_name":"公司","address":"上海市徐汇区桂平路589号3楼"},{"poiid":"B2094757DA69A2FA499D","title":"复兴航空","lon":"121.40115606826","lat":"31.171981170296","category":"639","category_name":"汽车交通类公司","address":"宜山路 900 号科技大楼 A1003 室"}]