[{"poiid":"B2094757D06EAAFF459B","title":"北新泾地铁站","lon":"121.37366132","lat":"31.216525192","category":"36","category_name":"地铁站","address":"上海轨道交通 二号线 轨交北新泾站 2"},{"poiid":"B2094757D06FABF8449F","title":"美年健康(天山路店)","lon":"121.3779","lat":"31.21599","category":"162","category_name":"医院","address":"长宁区天山路8号(近哈密路)"},{"poiid":"B2094757D06FA1FA4199","title":"富春小笼(天山店)","lon":"121.37409","lat":"31.21617","category":"68","category_name":"快餐厅","address":"长宁区天山西路157号(近北渔路)"},{"poiid":"B2094757D068ABFC4193","title":"元化门诊体检中心","lon":"121.37857","lat":"31.21568","category":"162","category_name":"医院","address":"长宁区天山路30号3楼(近哈密路)"},{"poiid":"B2094752D36DA3F8419A","title":"17.5北虹广场影城","lon":"121.37678951025009","lat":"31.21515273321473","category":"178","category_name":"电影院","address":"上海长宁区北虹路1068号第四层B区(世纪联华)"},{"poiid":"B2094757DA6EABF8439F","title":"17.5影院(北虹路店)","lon":"121.37688","lat":"31.214945","category":"178","category_name":"电影院","address":"长宁区北虹路1068号4楼(近2号线北新泾地铁站)"},{"poiid":"B2094655D26EA1F44193","title":"天涯海角","lon":"121.38126","lat":"31.21603","category":"149","category_name":"洗浴推拿场所","address":"长宁区天山路186-192号(近北虹路)"},{"poiid":"B2094757D068A6F94599","title":"长宁区社保中心","lon":"121.379334","lat":"31.216286","category":"500","category_name":"未知分类","address":"长宁区天山路38号(近哈密路)"},{"poiid":"B2094757D068A1FC489A","title":"元丰天山花园河风丽景","lon":"121.378892586","lat":"31.2177991879","category":"500","category_name":"未知分类","address":"上海市长宁区天山路88弄"},{"poiid":"B2094654DB69A5FF4293","title":"莫泰168连锁旅店(天山路店)","lon":"121.37976","lat":"31.21633","category":"216","category_name":"经济型连锁酒店","address":"长宁区天山路78号(近哈密路)"},{"poiid":"B2094757D069AAFF469F","title":"仙霞大郡","lon":"121.38","lat":"31.2159","category":"47","category_name":"住宅区","address":"仙霞大郡位于长宁仙霞路1225弄"},{"poiid":"B2094757D06FA6FE419B","title":"世纪联华(天山店)","lon":"121.37688663","lat":"31.214867087","category":"118","category_name":"超级市场","address":"长宁区北虹路1068号(北虹路哈密路)"},{"poiid":"B2094757D16FA3F8439B","title":"天山路哈密路","lon":"121.375707586","lat":"31.2166701658","category":"500","category_name":"未知分类","address":"上海市长宁区天山西路"},{"poiid":"B2094757D06FA7FA409C","title":"芋贵人甜品店(馥邦广场店)","lon":"121.37495258","lat":"31.217467181","category":"67","category_name":"甜品店","address":"长宁区天山西路138号馥邦购物中心B1楼"},{"poiid":"B2094757D66DA1F44199","title":"中环","lon":"121.375623336","lat":"31.2167473873","category":"500","category_name":"未知分类","address":"上海中环北虹路"},{"poiid":"B2094757D168A5F4439E","title":"上海蓝山国际青年旅舍虹桥店","lon":"121.377748","lat":"31.218365","category":"500","category_name":"未知分类","address":"上海市长宁区哈密路108号(近长宁路)"},{"poiid":"B2094654DB6BA0FC449C","title":"如家快捷酒店(上海虹桥北虹路店)","lon":"121.37634","lat":"31.21165","category":"216","category_name":"经济型连锁酒店","address":"上海市长宁区北虹路1129号(近天山路)"},{"poiid":"B2094751D26BA5F44892","title":"上海虹橋機場T2航站樓出發","lon":"121.374567","lat":"31.215723","category":"500","category_name":"未知分类","address":null},{"poiid":"B2094757D06FA3F94192","title":"JEANSTOPSALON(京世天山店)","lon":"121.37752","lat":"31.21582","category":"148","category_name":"美容美发店","address":"上海长宁区北渔路70-72号(近天山西路)"},{"poiid":"B2094757D16FA0F8409B","title":"溢口香麻辣烫","lon":"121.3756","lat":"31.21615","category":"68","category_name":"快餐厅","address":"长宁区天山西路115号(北虹路天山西路)"},{"poiid":"B2094750D66AA6FB439C","title":"17.5影院","lon":"121.376693","lat":"31.215593","category":"178","category_name":"电影院","address":null},{"poiid":"B2094654D56BA6FD419D","title":"南洋新都","lon":"121.38235","lat":"31.214426","category":"47","category_name":"住宅区","address":"上海市长宁区天山路177弄"},{"poiid":"B2094757D46BA4F94798","title":"图门烧烤 天山路店","lon":"121.37876","lat":"31.21589","category":"68","category_name":"快餐厅","address":"长宁区天山路55号(哈密路天山路)"},{"poiid":"B2094757D064A0F9489B","title":"汉庭快捷酒店(哈密路店)","lon":"121.37522758","lat":"31.213401919","category":"217","category_name":"旅馆招待所","address":"上海长宁区哈密路388号(近新渔东路)"},{"poiid":"B2094750DA6DABF44599","title":"17.5北虹影院","lon":"121.376701","lat":"31.215032","category":"178","category_name":"电影院","address":null},{"poiid":"B2094750D76DA7F54299","title":"号角大酒店餐厅","lon":"121.377","lat":"31.2132","category":"76","category_name":"上海菜","address":"长宁区北虹路1068号世纪联华4楼"},{"poiid":"B209475CD16CAAFA499C","title":"丰收日大酒店 天山路店","lon":"121.37991","lat":"31.21615","category":"76","category_name":"上海菜","address":"天山路78号1-2楼近哈密路"},{"poiid":"B2094654DB6BA0FC4392","title":"兆益科技园东楼","lon":"121.37812","lat":"31.21649","category":"46","category_name":"楼宇","address":"天山路18"},{"poiid":"B2094752D669AAFD4499","title":"外滩三号","lon":"121.380127","lat":"31.214615","category":"247","category_name":"餐饮美食","address":"黄浦区中山东路一号"},{"poiid":"B2094757D065A2FB4792","title":"天申小区","lon":"121.37731","lat":"31.213455","category":"47","category_name":"住宅区","address":"上海北虹路1000弄"},{"poiid":"B2094757D065A6F5499C","title":"827路北虹路天山路站","lon":"121.37651","lat":"31.215066","category":"38","category_name":"公交车站","address":"上海北虹路天山路"},{"poiid":"B2094654D569A4FB4799","title":"天申小区(北门)","lon":"121.37711","lat":"31.214","category":"47","category_name":"住宅区","address":"北虹路1000弄2幢29-33"},{"poiid":"B2094655D26FA0F44098","title":"兆益科技园西楼","lon":"121.37777","lat":"31.21648","category":"46","category_name":"楼宇","address":"天山路8"},{"poiid":"B2094757D468ABFB4898","title":"雅日式烤肉自助餐","lon":"121.373982","lat":"31.216416","category":"269","category_name":"烧烤","address":"长宁区天山西路155号2楼"},{"poiid":"B2094757D069A5F5469E","title":"缤歌量贩KTV","lon":"121.37712058","lat":"31.215722047","category":"170","category_name":"KTV","address":"上海北虹路世纪联华"},{"poiid":"B2094655D36CA1FE449E","title":"双流路天山路","lon":"121.38058","lat":"31.21396","category":"38","category_name":"公交车站","address":""},{"poiid":"B2094655D26CA5F84892","title":"意城便利店","lon":"121.37796","lat":"31.2158","category":"117","category_name":"便民商店/便利店","address":""},{"poiid":"B2094655D26CA4FC4993","title":"喜士多便利店(天山大厦西)","lon":"121.37821","lat":"31.21636","category":"117","category_name":"便民商店/便利店","address":"长宁区天山西路231号(北渔路天山西路)"},{"poiid":"B2094655D36CA5F54292","title":"北虹路天山路","lon":"121.37626","lat":"31.21551","category":"38","category_name":"公交车站","address":""},{"poiid":"B2094655D26EA1F94698","title":"河风丽景","lon":"121.37893","lat":"31.216497","category":"47","category_name":"住宅区","address":"河风丽景位于长宁天山路88弄(双流路口)"},{"poiid":"B2094654D569ABFD409D","title":"铭晖西郊苑","lon":"121.37551","lat":"31.212334","category":"47","category_name":"住宅区","address":"上海市长宁区哈密路398弄"},{"poiid":"B2094655D36CA7FB4592","title":"哈密路北虹路","lon":"121.37586","lat":"31.21488","category":"38","category_name":"公交车站","address":""},{"poiid":"B2094655D26BA0FA499D","title":"海逸综合大厦","lon":"121.37988","lat":"31.21588","category":"46","category_name":"楼宇","address":"天山路80号"},{"poiid":"B2094757D16FA5FC449A","title":"天山路威宁路公交站","lon":"121.37989168","lat":"31.216061053","category":"38","category_name":"公交车站","address":"上海长宁区天山路(近威宁路)"},{"poiid":"B2094654DB69A6F9429D","title":"丰泽湾","lon":"121.37607","lat":"31.21481","category":"47","category_name":"住宅区","address":"青浦区淀山湖北"},{"poiid":"B2094757D169ABF5479F","title":"悦和堂中医馆","lon":"121.3776","lat":"31.21652","category":"162","category_name":"医院","address":"长宁区哈密路198号兆益科技园悦和堂(近天山路)"},{"poiid":"B2094753D468A6F8469B","title":"融迪汇","lon":"121.376564","lat":"31.214616","category":"500","category_name":"未知分类","address":"上海市 北虹路1068号"},{"poiid":"B2094655D26AA0F5469F","title":"晶鑫桌球","lon":"121.37398","lat":"31.21641","category":"247","category_name":"餐饮美食","address":"长宁区天山西路169号宜嘉坊3楼302室(近北渔路)"},{"poiid":"B2094757D165A1FF469D","title":"855哈密路站","lon":"121.377180786","lat":"31.2139378124","category":"500","category_name":"未知分类","address":"上海天山路哈密路(污水处理场)"},{"poiid":"B2094757D66FA7FD499D","title":"好美家(天山店)","lon":"121.376733586","lat":"31.2153871407","category":"500","category_name":"未知分类","address":"长宁区北虹路1068号(近天山路)"},{"poiid":"B2094751D26FA1F94298","title":"北新泾","lon":"121.377281","lat":"31.213975","category":"627","category_name":"一般地点标志","address":"2号线"},{"poiid":"B2094757D069A1F9459C","title":"兆益科技园","lon":"121.37706","lat":"31.216288","category":"500","category_name":"未知分类","address":"上海天山路18号"},{"poiid":"B2094655D26BAAFE489D","title":"天山一期商务楼","lon":"121.37965","lat":"31.21631","category":"46","category_name":"楼宇","address":"天山路78弄"},{"poiid":"B2094654D569A4F4419F","title":"天申大楼","lon":"121.37576","lat":"31.213854","category":"47","category_name":"住宅区","address":"北虹路1185号"},{"poiid":"B2094757D06AA1FF419A","title":"同济大学经管学院","lon":"121.37761898","lat":"31.216055553","category":"500","category_name":"未知分类","address":"上海赤峰路"},{"poiid":"B2094654D56BA6FD429B","title":"宝地新品居","lon":"121.3811","lat":"31.21493","category":"47","category_name":"住宅区","address":"上海市长宁区双流路188弄"},{"poiid":"B2094757D064A0FB4399","title":"天山路芙蓉江路公交站","lon":"121.38003168","lat":"31.21282019","category":"38","category_name":"公交车站","address":"上海长宁区天山路(近芙蓉江路)"},{"poiid":"B2094654D56BA1FD4393","title":"元丰天山花园","lon":"121.3798","lat":"31.21747","category":"47","category_name":"住宅区","address":"双流路289"},{"poiid":"B2094654D569A4FB469B","title":"上海市天山水质净化厂(天山路)","lon":"121.37809","lat":"31.2158","category":"263","category_name":"公司","address":"天山路31"},{"poiid":"B2094753D46AA0FA4293","title":"融迪时尚量贩KTV","lon":"121.375991","lat":"31.214986","category":"500","category_name":"未知分类","address":"上海市 北虹路"},{"poiid":"B2094654D569A4FB489A","title":"上海赛铭冷冻设备工程有限公司","lon":"121.37677","lat":"31.21406","category":"263","category_name":"公司","address":"新渔东路488号"},{"poiid":"B2094757D169AAFC429E","title":"罗森","lon":"121.37718458","lat":"31.215932151","category":"249","category_name":"购物服务","address":"上海市"},{"poiid":"B2094757DA64A0FF4893","title":"うな吉","lon":"121.381205","lat":"31.211706","category":"247","category_name":"餐饮美食","address":"长宁区安龙路695号(近仙霞路)"},{"poiid":"B2094757D16FAAF4409F","title":"长宁区外地劳动力管理所(长宁区北翟职介分中心)","lon":"121.379240986","lat":"31.2161782562","category":"500","category_name":"未知分类","address":"上海长宁区北翟路581号"},{"poiid":"B209475CD164AAFF4999","title":"同济大学图书馆","lon":"121.37886","lat":"31.212806","category":"500","category_name":"未知分类","address":"上海市 杨浦区四平路1239号"},{"poiid":"B2094757D06AA4FE449C","title":"重庆家富富侨(北新泾店)","lon":"121.37443","lat":"31.21623","category":"149","category_name":"洗浴推拿场所","address":"长宁区天山西路169号宜嘉坊3楼(近北渔路)"},{"poiid":"B2094757D064A3F4409F","title":"中环路天山西路上下匝道","lon":"121.376361456","lat":"31.2162413964","category":"260","category_name":"其他","address":"上海中环路(近天山西路)"},{"poiid":"B2094757D069A0FF4093","title":"日本流行屋","lon":"121.38071","lat":"31.2156","category":"141","category_name":"服装鞋帽皮具店","address":"上海长宁区天山路919号虹桥天都117-1商铺(近遵义路)"},{"poiid":"B2094751D469A3FA489A","title":"南京路步行街","lon":"121.377605","lat":"31.216485","category":"251","category_name":"出行住宿","address":"2号口"},{"poiid":"B2094757D66EABF5489D","title":"上海卓恒口腔门诊部","lon":"121.375115","lat":"31.213347","category":"162","category_name":"医院","address":"长宁区哈密路396-1号(近天山西路)"},{"poiid":"B2094750DA6AA2F9469C","title":"星伟桌球","lon":"121.37606","lat":"31.215333","category":"248","category_name":"生活娱乐","address":"哈密路106号"},{"poiid":"B2094655D26CAAFB4093","title":"天瑞大厦(东四门)","lon":"121.38017","lat":"31.21223","category":"46","category_name":"楼宇","address":""},{"poiid":"B2094752D268AAFD4592","title":"smiley peat斯比特意大利休闲餐厅","lon":"121.381003","lat":"31.218191","category":"247","category_name":"餐饮美食","address":"天山路341号缤谷文化休闲广场210单元"},{"poiid":"B2094750D664A1F5419C","title":"橙果(北新泾店)","lon":"121.374","lat":"31.2164","category":"113","category_name":"冷饮店","address":"长宁区天山西路169号宜嘉坊B103室(近北渔路)"},{"poiid":"B2094757D66CA4F84093","title":"玖博章鱼丸子(北新泾店)","lon":"121.373315586","lat":"31.2146491263","category":"68","category_name":"快餐厅","address":"长宁区北渔路76号地铁2号线北新泾站B1楼"},{"poiid":"B2094654DB6BA0FC4393","title":"好煮意时尚餐厅","lon":"121.37773","lat":"31.21828","category":"68","category_name":"快餐厅","address":"长宁区哈密路106号(天山路口)"},{"poiid":"B2094655D265A6F8479F","title":"仙霞沈家新苑","lon":"121.38146","lat":"31.213996","category":"47","category_name":"住宅区","address":"上海市长宁区仙霞路1225弄"},{"poiid":"B2094655D26CA4FC429C","title":"光明便利No.616","lon":"121.37758","lat":"31.21761","category":"117","category_name":"便民商店/便利店","address":"哈密路176"},{"poiid":"B2094757DA65A5FB489A","title":"浦江之星（上海北新泾店）","lon":"121.3776907","lat":"31.21790078","category":"216","category_name":"经济型连锁酒店","address":"长宁区哈密路166号(近天山路)"},{"poiid":"B2094757D06AA7F54499","title":"71路终点站","lon":"121.380813","lat":"31.214474","category":"500","category_name":"未知分类","address":"上海双流路168号"},{"poiid":"B2094654D569A4F4409C","title":"宜嘉坊广场(天山西路)","lon":"121.37397","lat":"31.21641","category":"119","category_name":"商场","address":"天山西路155"},{"poiid":"B2094757D66EA5FF4292","title":"佳通轮胎(新渔店)","lon":"121.38010406","lat":"31.21380043","category":"500","category_name":"未知分类","address":"上海新渔东路692号"},{"poiid":"B2094752D46AA2F54599","title":"华辉加油站","lon":"121.380865","lat":"31.213354","category":"153","category_name":"加油站","address":"上海市长宁区仙霞路1310号(林泉路口)"},{"poiid":"B2094655D26FA6F4479C","title":"长宁电影院","lon":"121.374852","lat":"31.216739","category":"178","category_name":"电影院","address":"天山西路199弄2号2层201室"},{"poiid":"B2094654D56BA1FD4293","title":"绿康公寓","lon":"121.38139","lat":"31.216751","category":"47","category_name":"住宅区","address":"上海市长宁区天山路198弄"},{"poiid":"B2094757D069A6F94299","title":"全家便利(北新泾店)","lon":"121.37412164","lat":"31.215838877","category":"117","category_name":"便民商店/便利店","address":"上海天山西路177号"},{"poiid":"B2094757D16DA6FA479B","title":"上海巴士四汽公共交通有限公司","lon":"121.37819","lat":"31.212127","category":"500","category_name":"未知分类","address":"上海市长宁区双流路85号"},{"poiid":"B2094655D26FA0F5429F","title":"天祥大厦(南一门)","lon":"121.37754","lat":"31.211","category":"46","category_name":"楼宇","address":"茅台路1068号"},{"poiid":"B2094655D26AA6F4449B","title":"溢百家餐厅","lon":"121.38127","lat":"31.21338","category":"247","category_name":"餐饮美食","address":"长宁区双流路100号(近新渔路)"},{"poiid":"B2094757D66DAAFC479E","title":"圣安东尼宠物康复医院","lon":"121.37465","lat":"31.21211","category":"162","category_name":"医院","address":"长宁区哈密路440号(哈密路泉口路)"},{"poiid":"B2094757D66CA7FC4293","title":"新聚点休闲会所","lon":"121.37755958","lat":"31.21691617","category":"500","category_name":"未知分类","address":"上海市长宁区哈密路192号"},{"poiid":"B2094654D56BA6FC469C","title":"双流小区(西门)","lon":"121.38054","lat":"31.21237","category":"47","category_name":"住宅区","address":"双流路54弄1-12号"},{"poiid":"B2094757D069A6FF4493","title":"北虹路新渔路","lon":"121.375978","lat":"31.214729","category":"260","category_name":"其他","address":"上海北虹路新渔路"},{"poiid":"B2094654D569A4FB4493","title":"佳辰假日酒店","lon":"121.37915","lat":"31.211","category":"250","category_name":"公园户外","address":"长宁区茅台路1006号(近威宁路)"},{"poiid":"B2094654D569A4FB4299","title":"新宁小区","lon":"121.3789","lat":"31.219069","category":"47","category_name":"住宅区","address":"长宁路3299弄"},{"poiid":"B2094757D165A6FB469D","title":"桂一兮地道桂林米粉(天山西路店)","lon":"121.37569","lat":"31.21588","category":"260","category_name":"其他","address":"长宁区天山西路113号(近北新泾地铁站2号出口)"},{"poiid":"B2094757D16AA1FF419B","title":"南新幼儿园","lon":"121.38178","lat":"31.21333","category":"57","category_name":"幼儿园","address":"长宁区新渔东路630号(近双流路)"},{"poiid":"B2094654DB6AA0FF4299","title":"上海巴士四汽公共交通有限公司","lon":"121.38069","lat":"31.21399","category":"263","category_name":"公司","address":"长宁区双流路15号"},{"poiid":"B2094655D26DA7F84192","title":"天瑞大厦(东一门)","lon":"121.38006","lat":"31.21146","category":"46","category_name":"楼宇","address":"双流路31号"},{"poiid":"B2094655D264A6FB4098","title":"牛奶棚天山西路二店","lon":"121.37481","lat":"31.2167","category":"247","category_name":"餐饮美食","address":"长宁区天山西路420号(平塘路天山西路)"},{"poiid":"B2094757D06FA2F94798","title":"上海唯华汽车配件有限公司","lon":"121.379899","lat":"31.216134","category":"263","category_name":"公司","address":"上海长宁区天山路88弄23号103室"},{"poiid":"B2094757D06AA3F4429B","title":"中环线仙霞路下匝道","lon":"121.375711","lat":"31.211895","category":"260","category_name":"其他","address":"上海市长宁区仙霞路北虹路口"},{"poiid":"B2094757D16AA3FB499D","title":"雅日式自助","lon":"121.373818086","lat":"31.2167177667","category":"247","category_name":"餐饮美食","address":"上海市天山西路155号宜嘉坊2楼"},{"poiid":"B2094757D16EA3FB499E","title":"鸡公堡","lon":"121.377881586","lat":"31.2171996762","category":"500","category_name":"未知分类","address":"上海天山"},{"poiid":"B2094655D26AA7FB4692","title":"新伟台球棋牌哈密店","lon":"121.37772","lat":"31.21825","category":"247","category_name":"餐饮美食","address":"长宁区哈密路108号1楼(长宁路与天山路间)"},{"poiid":"B2094655D265A1FC449D","title":"可的超市(小金更店)","lon":"121.3819","lat":"31.2159","category":"117","category_name":"便民商店/便利店","address":"长宁区天山路204号(双流路天山路)"},{"poiid":"B2094757D06BA6F9409B","title":"慧山科技园","lon":"121.37819377","lat":"31.219127116","category":"46","category_name":"楼宇","address":"上海长宁路3333号"},{"poiid":"B2094654DB6BA0FC499A","title":"良友(铭晖西郊苑西南)","lon":"121.3746","lat":"31.21233","category":"117","category_name":"便民商店/便利店","address":""},{"poiid":"B2094654D569ABFC4892","title":"新泾二村","lon":"121.37349","lat":"31.215374","category":"47","category_name":"住宅区","address":"新泾二村46"},{"poiid":"B2094654D56BA6FC469B","title":"一品香菜饭(双流路)","lon":"121.38056","lat":"31.21198","category":"257","category_name":"中餐厅","address":"双流路36"},{"poiid":"B2094757D16DA1F84398","title":"新泾镇人民政府","lon":"121.37630975","lat":"31.211817878","category":"500","category_name":"未知分类","address":"上海哈密路431号"},{"poiid":"B2094757D16AABF4469E","title":"新渔路北渔路","lon":"121.37701148","lat":"31.212168277","category":"500","category_name":"未知分类","address":"上海新渔路北渔路"},{"poiid":"B2094654DB69A5FA4798","title":"中国电信(天山路营业厅)","lon":"121.38207","lat":"31.21546","category":"151","category_name":"电讯营业厅","address":"长宁区天山路169号(双流路口)"},{"poiid":"B2094757D165A0FC4498","title":"姚氏特色面","lon":"121.38063158","lat":"31.217556183","category":"247","category_name":"餐饮美食","address":"上海市长宁区北翟路"},{"poiid":"B2094655D26BABFB4393","title":"海上花园","lon":"121.377107","lat":"31.210892","category":"47","category_name":"住宅区","address":"上海市长宁区淮阴路518号"},{"poiid":"B2094757D16CA6FE4592","title":"聚羊阁","lon":"121.3765099","lat":"31.218137156","category":"247","category_name":"餐饮美食","address":"上海长宁区北渔路59号"},{"poiid":"B2094654D569A4FB419A","title":"阳怡商务","lon":"121.37779","lat":"31.21859","category":"46","category_name":"楼宇","address":"哈密路102"},{"poiid":"B2094752D56CA3FB479D","title":"BONNE STOCK","lon":"121.380855","lat":"31.218087","category":"247","category_name":"餐饮美食","address":"天山路356號長寧圖書館1樓"},{"poiid":"B2094654D56BA6FD4393","title":"好德便利No.561","lon":"121.38247","lat":"31.21541","category":"117","category_name":"便民商店/便利店","address":"天山路181"},{"poiid":"B2094654D569AAFB4293","title":"御墅名邸国际酒店","lon":"121.377","lat":"31.211","category":"250","category_name":"公园户外","address":"长宁区剑河路668号(近哈密路)"},{"poiid":"B2094757D66CA2FB479C","title":"大手掌","lon":"121.38244","lat":"31.21518","category":"149","category_name":"洗浴推拿场所","address":"上海长宁区天山路173号(近双流路)  "},{"poiid":"B2094757D069A7F44799","title":"茅台路天祥大厦","lon":"121.378112793","lat":"31.2110481262","category":"500","category_name":"未知分类","address":"上海茅台路1068号"},{"poiid":"B2094654DB6BA0FC429A","title":"天山西路80弄小区(南门)","lon":"121.37434","lat":"31.21686","category":"47","category_name":"住宅区","address":""},{"poiid":"B2094655D36CA5F5429D","title":"北虹路茅台路","lon":"121.37753","lat":"31.21004","category":"38","category_name":"公交车站","address":""},{"poiid":"B2094654D56BA6FC469D","title":"双流小区","lon":"121.38126","lat":"31.212214","category":"47","category_name":"住宅区","address":"双流路54弄1-12号"},{"poiid":"B2094757D66FA0F94398","title":"上海田野汽车有限公司","lon":"121.37647458","lat":"31.211960073","category":"500","category_name":"未知分类","address":"长宁区北虹路1121号"},{"poiid":"B2094757D16DA2F9429F","title":"丸子家","lon":"121.38152358","lat":"31.216940171","category":"247","category_name":"餐饮美食","address":null},{"poiid":"B2094654D56BA1FD4599","title":"快客No.6790","lon":"121.38107","lat":"31.21765","category":"117","category_name":"便民商店/便利店","address":"双流路330"},{"poiid":"B2094655D26CA4FC429B","title":"上海交通大学国家大学科技园区","lon":"121.37837","lat":"31.21909","category":"45","category_name":"产业园区","address":"长宁路3333"},{"poiid":"B2094757D068A3FC4292","title":"联通天山路营业厅","lon":"121.382093","lat":"31.215517","category":"138","category_name":"家电电子卖场","address":"上海长宁区天山路919号虹桥天都110商铺"},{"poiid":"B2094654D569ABFD4199","title":"铭晖商务楼","lon":"121.37438","lat":"31.21176","category":"46","category_name":"楼宇","address":"哈密路442号"},{"poiid":"B2094655D26AA5F44793","title":"花与石草本护理中心双流路店","lon":"121.3805","lat":"31.21131","category":"247","category_name":"餐饮美食","address":"长宁区双流路8号(近茅台路)"},{"poiid":"B2094654D569A4FB4198","title":"明欣公寓","lon":"121.37833","lat":"31.218754","category":"47","category_name":"住宅区","address":"哈密路100弄1-6号"},{"poiid":"B2094655D26FA1F94599","title":"天申大楼(东二门)","lon":"121.37591","lat":"31.21389","category":"656","category_name":"大门","address":"北虹路1185"},{"poiid":"B2094654D569A4F4439F","title":"好德No.264","lon":"121.37539","lat":"31.21091","category":"117","category_name":"便民商店/便利店","address":"泉口路32号"},{"poiid":"B2094757D069A7FD459D","title":"北新泾街道社区事务受理中心","lon":"121.37696","lat":"31.217899","category":"500","category_name":"未知分类","address":"上海新泾一村144号"},{"poiid":"B2094655D26CA4FD409B","title":"天山大厦(南二门)","lon":"121.37942","lat":"31.21608","category":"656","category_name":"大门","address":""},{"poiid":"B2094757D164A2FA459D","title":"莲台健身俱乐部","lon":"121.3806","lat":"31.21133","category":"148","category_name":"美容美发店","address":"长宁区双流路28号(茅台路双流路)"},{"poiid":"B2094757D66DABF54992","title":"富侨足浴","lon":"121.3816829","lat":"31.2156624","category":"148","category_name":"美容美发店","address":"上海天山路一百五十三号"},{"poiid":"B2094654D56BA6FD4092","title":"朋友形象设计公社","lon":"121.38206","lat":"31.21287","category":"148","category_name":"美容美发店","address":"新渔东路483"},{"poiid":"B2094655D26FA0F5429E","title":"明欣公寓(西门)","lon":"121.37785","lat":"31.21871","category":"47","category_name":"住宅区","address":"哈密路100弄1-6号"},{"poiid":"B2094654D569ABFD4699","title":"竹山缘餐厅","lon":"121.37442","lat":"31.21186","category":"257","category_name":"中餐厅","address":"哈密路432号"},{"poiid":"B2094757D16BA1F8469B","title":"北虹路地道","lon":"121.376339","lat":"31.211652","category":"500","category_name":"未知分类","address":"上海北虹路"},{"poiid":"B2094750D669A7F94698","title":"地钱威宁路站","lon":"121.38041168","lat":"31.21832746","category":"500","category_name":"未知分类","address":null},{"poiid":"B2094655D26CA4FF4399","title":"天申大楼(东门)","lon":"121.37587","lat":"31.21373","category":"656","category_name":"大门","address":""},{"poiid":"B2094655D26FA0F94499","title":"新宁小区(北门)","lon":"121.37893","lat":"31.21926","category":"47","category_name":"住宅区","address":"长宁路3229弄"},{"poiid":"B2094655D26CA4FC4992","title":"哈密小区(东二门)","lon":"121.37715","lat":"31.21664","category":"656","category_name":"大门","address":""},{"poiid":"B2094751DA6CA0FA409D","title":"高岛屋百货","lon":"121.3812520584906","lat":"31.21748431834925","category":"249","category_name":"购物服务","address":"长宁区虹桥路1438号"},{"poiid":"B2094757D16BA5FF469D","title":"香榭园宠物有限公司","lon":"121.38242258","lat":"31.216092154","category":"263","category_name":"公司","address":"上海天山路185号"},{"poiid":"B2094654D569A4FA4992","title":"元丰天山花园(西门)","lon":"121.3777","lat":"31.21726","category":"656","category_name":"大门","address":"哈密路188"},{"poiid":"B2094757D068A3FC4299","title":"上行线(北新泾店)","lon":"121.37381","lat":"31.21651","category":"125","category_name":"书店","address":"上海长宁区地铁二号线北新泾站"},{"poiid":"B2094757D16EA6FA489B","title":"申银万国双流路营业部","lon":"121.37897458","lat":"31.211118057","category":"500","category_name":"未知分类","address":"上海市长宁区双流路15号"},{"poiid":"B2094757D16AAAF84593","title":"长宁路","lon":"121.37497858","lat":"31.217628184","category":"500","category_name":"未知分类","address":"上海市长宁区长宁路3229弄15号"},{"poiid":"B2094757D16EA6F9499B","title":"仙霞路","lon":"121.37479658","lat":"31.211520065","category":"500","category_name":"未知分类","address":"上海市长宁区泉口路"},{"poiid":"B2094655D26CA4FF4398","title":"铭晖西郊苑(东二门)","lon":"121.37596","lat":"31.21304","category":"656","category_name":"大门","address":"北虹路1169"},{"poiid":"B2094757D568A0FD4092","title":"99旅馆(上海北新泾店)","lon":"121.37779351","lat":"31.21859131","category":"217","category_name":"旅馆招待所","address":"哈密路102号"},{"poiid":"B2094757D16BA6FE4293","title":"复兴中路1315号","lon":"121.38114998","lat":"31.217267977","category":"500","category_name":"未知分类","address":"上海体检"},{"poiid":"B2094654D56BA6FD4298","title":"宝地新品居(西门)","lon":"121.38082","lat":"31.21507","category":"656","category_name":"大门","address":"双流路188弄1-6号"},{"poiid":"B2094757D16BA6FD419C","title":"天山路屋里","lon":"121.38197358","lat":"31.21638616","category":"500","category_name":"未知分类","address":"上海市长宁区天山路南洋新都"},{"poiid":"B2094655D26DAAF5409E","title":"绿康公寓(南门)","lon":"121.38167","lat":"31.21582","category":"48","category_name":"楼宇大门","address":"天山路198弄1-2号"},{"poiid":"B2094757D064A2FA4398","title":"如君蛙莊創意乾鍋","lon":"121.38047663","lat":"31.211408046","category":"148","category_name":"美容美发店","address":"上海吳中路1100號"},{"poiid":"B2094757D66DA5F8459C","title":"苏州淮海街日本料理一条街","lon":"121.37642348","lat":"31.2184252","category":"500","category_name":"未知分类","address":"上海苏州淮海街"},{"poiid":"B2094654D569A4F44198","title":"招商银行24小时自助银行(天山西路)","lon":"121.37428","lat":"31.21632","category":"152","category_name":"ATM","address":"天山西路149"},{"poiid":"B2094757D66CABF5469C","title":"KeePer汽车美容茅台店","lon":"121.38050558","lat":"31.211189058","category":"500","category_name":"未知分类","address":"上海市长宁区茅台路近双流路"},{"poiid":"B2094757D164ABFD4393","title":"551路终点站","lon":"121.376807586","lat":"31.2188112077","category":"500","category_name":"未知分类","address":"上海市长宁区天山路哈密路"},{"poiid":"B2094757D16FAAFD469C","title":"景馨咖啡","lon":"121.38098","lat":"31.21794","category":"260","category_name":"其他","address":"长宁区双流路299号(近长宁路)"},{"poiid":"B2094654D56BA1FD4093","title":"天山新苑(南门)","lon":"121.38172","lat":"31.21586","category":"656","category_name":"大门","address":"天山路202弄1-56号"},{"poiid":"B2094654D569A4F44092","title":"大通旅游(天山西路)","lon":"121.37397","lat":"31.21641","category":"248","category_name":"生活娱乐","address":"天山西路165号宜嘉坊广场A座1层"},{"poiid":"B2094757D66CA7FE4692","title":"真北路1035号","lon":"121.379717586","lat":"31.2103560423","category":"500","category_name":"未知分类","address":"上海汽车贸易有限公司"},{"poiid":"B2094654D569ABFD4698","title":"铭晖西郊苑(西门)","lon":"121.37483","lat":"31.21281","category":"656","category_name":"大门","address":"哈密路398弄"},{"poiid":"B2094654D569A4FB4092","title":"新伟桌球棋牌会所","lon":"121.37774","lat":"31.21836","category":"175","category_name":"棋牌室","address":"哈密路108号"},{"poiid":"B2094655D26EA3F84092","title":"宝地新品居(北门)","lon":"121.38169","lat":"31.21543","category":"656","category_name":"大门","address":""},{"poiid":"B2094655D26CA4FF429C","title":"铭晖西郊苑(南门)","lon":"121.37557","lat":"31.21084","category":"656","category_name":"大门","address":"泉口路30"},{"poiid":"B2094655D26CA4FE459C","title":"宜嘉坊(东门)","lon":"121.37429","lat":"31.21597","category":"656","category_name":"大门","address":""},{"poiid":"B2094654D56BA1FD4392","title":"元丰天山花园(东门)","lon":"121.38077","lat":"31.21767","category":"656","category_name":"大门","address":"双流路289"},{"poiid":"B2094654D56BA6FD4192","title":"南洋新都(南门)","lon":"121.38193","lat":"31.21325","category":"656","category_name":"大门","address":"新渔东路"},{"poiid":"B2094655D26DABFF4193","title":"铭晖西郊苑(东门)","lon":"121.37644","lat":"31.21135","category":"656","category_name":"大门","address":"北虹路1117"},{"poiid":"B2094654D56BA6FD4292","title":"南洋新都(北二门)","lon":"121.38222","lat":"31.21544","category":"656","category_name":"大门","address":"天山路177弄1-44号"},{"poiid":"B2094654D56BA1FD4598","title":"天山新苑(西门)","lon":"121.38103","lat":"31.21775","category":"656","category_name":"大门","address":"双流路334"}]