[{"poiid":"B2094757D065ABF44498","title":"ATP1000上海大师赛","lon":"121.36211572","lat":"31.032221347","category":"500","category_name":"未知分类","address":"上海闵行区元江路旗忠森林网球中心"},{"poiid":"B2094757D068ABF44799","title":"闵行马桥镇","lon":"121.36865997","lat":"31.03045845","category":"260","category_name":"其他","address":"上海闵行 马桥镇"},{"poiid":"B2094757D06FAAFF459C","title":"闵行开发区地铁站","lon":"121.366007127","lat":"30.9995008004","category":"36","category_name":"地铁站","address":"上海轨道交通 五号线 轨交闵行开发区站 5"},{"poiid":"B2094757D068A2F8439E","title":"紫藤宾馆","lon":"121.38381","lat":"31.00449","category":"217","category_name":"旅馆招待所","address":"上海市闵行区东川路3050号（近文井路）"},{"poiid":"B2094757D068ABF4429D","title":"文井路地铁站","lon":"121.38061711","lat":"31.00346282","category":"36","category_name":"地铁站","address":"上海轨道交通 五号线 轨交文井路站 5"},{"poiid":"B2094757D16DA7FE429A","title":"旭初酒楼","lon":"121.365805578","lat":"31.0262551249","category":"247","category_name":"餐饮美食","address":"上海近郊松江区北松公路(昆阳北路口)  "},{"poiid":"B2094757D069A1F8459E","title":"昆阳小区","lon":"121.37352","lat":"30.999285","category":"47","category_name":"住宅区","address":"上海市闵行区昆阳路600弄"},{"poiid":"B2094757D06FA4FB429D","title":"强生(中国)有限公司","lon":"121.3810198","lat":"31.002128919","category":"46","category_name":"楼宇","address":"上海闵行区东川路3285号"},{"poiid":"B2094655D36CA0FA419C","title":"剑川路绿春路","lon":"121.37102","lat":"31.01228","category":"38","category_name":"公交车站","address":""},{"poiid":"B2094654DB6EA7FF4798","title":"铁阳小区","lon":"121.36795","lat":"31.01503","category":"47","category_name":"住宅区","address":""},{"poiid":"B2094757D168A4F84592","title":"上海交大闵行校区北一门","lon":"121.371875","lat":"31.012864","category":"500","category_name":"未知分类","address":"上海闵行剑川路"},{"poiid":"B2094654DB6EA0FE4793","title":"闵行站","lon":"121.36663","lat":"31.01272","category":"22","category_name":"火车站","address":""},{"poiid":"B2094654DB6EA0FF409A","title":"上海铁闵钢材市场","lon":"121.36801","lat":"31.01341","category":"123","category_name":"家具建材市场","address":"昆阳路1368号"},{"poiid":"B2094757D168AAF44999","title":"博朗(上海)有限公司","lon":"121.369377328","lat":"31.013175356","category":"249","category_name":"购物服务","address":"中国上海闵行经济技术开发区绿春路475-495号"},{"poiid":"B2094757D66DA4FF449B","title":"YKK","lon":"121.369925428","lat":"31.0129000504","category":"249","category_name":"购物服务","address":null},{"poiid":"B2094757D068AAFC429D","title":"法雷奥汽车电机雨刮系统有限公司","lon":"121.37553212","lat":"31.013276458","category":"263","category_name":"公司","address":"上海市闵行区剑川路2281号"},{"poiid":"B2094654DB6EA0FF4098","title":"上海铁闵钢材现货交易市场","lon":"121.3683","lat":"31.0128","category":"123","category_name":"家具建材市场","address":""},{"poiid":"B2094654DB6EA7F84099","title":"上海液化石油气经营有限公司储配分公司","lon":"121.36609","lat":"31.0182","category":"263","category_name":"公司","address":"昆阳路1738"},{"poiid":"B2094655D26AA6F4479D","title":"星阳酒家","lon":"121.362009054","lat":"31.027554793","category":"76","category_name":"上海菜","address":"闵行区昆阳路2069号(北松路口)"},{"poiid":"B2094654DB6EA0FF4893","title":"上海铁路局闵行站集装箱货运部","lon":"121.37498","lat":"31.0136","category":"248","category_name":"生活娱乐","address":""},{"poiid":"B2094757D16CA4F8409F","title":"第一生化药业有限公司","lon":"121.375505","lat":"31.013755","category":"263","category_name":"公司","address":"上海闵行区剑川路"},{"poiid":"B2094757D069A3FA409C","title":"上海吉田拉链有限公司","lon":"121.37362975","lat":"31.010328547","category":"263","category_name":"公司","address":"上海绿春路468号"},{"poiid":"B2094654DB6EA0FF459A","title":"安思特管道系统工程(上海)有限公司","lon":"121.37174","lat":"31.01188","category":"263","category_name":"公司","address":"绿春路505"},{"poiid":"B2094654DB6EA0F84399","title":"双钱载重轮胎公司","lon":"121.36499","lat":"31.01028","category":"263","category_name":"公司","address":"剑川路2613号"},{"poiid":"B2094654DB6EA7FD4098","title":"马桥西街小区","lon":"121.36829","lat":"31.028149","category":"47","category_name":"住宅区","address":"新西路58弄"},{"poiid":"B2094757D16BA0F5489C","title":"闵行开发区水生园","lon":"121.373819198","lat":"31.0022203109","category":"500","category_name":"未知分类","address":"上海东川路昆阳路。"},{"poiid":"B2094757D16DA7FE469D","title":"西街小区","lon":"121.36636507","lat":"31.025885867","category":"47","category_name":"住宅区","address":"上海西街小区"},{"poiid":"B2094757D66EA4FE459C","title":"丁字路口","lon":"121.37350812","lat":"31.010230395","category":"500","category_name":"未知分类","address":"上海市闵行区昆阳路"},{"poiid":"B2094654DB6EA6FC4399","title":"亨斯迈泊车场","lon":"121.37845","lat":"31.01056","category":"250","category_name":"公园户外","address":""},{"poiid":"B2094757D76DA0F4449B","title":"旭初酒家","lon":"121.36246845031","lat":"31.027613843562","category":"76","category_name":"上海菜","address":"闵行区北松公路2455号(昆阳北路口)"},{"poiid":"B2094654DB6EA0FF4199","title":"上海新亚药业闵行有限公司","lon":"121.36931","lat":"31.01019","category":"263","category_name":"公司","address":"昆阳路1500"},{"poiid":"B2094757D16AA6FB4299","title":"马桥镇体育活动中心","lon":"121.36657912","lat":"31.027696754","category":"500","category_name":"未知分类","address":"上海市闵行区昆阳路"},{"poiid":"B2094654DB64A0FD479C","title":"博朗(上海)有限公司(绿春路)","lon":"121.37279","lat":"31.00941","category":"263","category_name":"公司","address":"绿春路475-495"},{"poiid":"B2094757D065A3FC469B","title":"上海锅炉厂有限公司","lon":"121.391740051","lat":"31.0166698251","category":"263","category_name":"公司","address":"上海闵行区华宁路250号"},{"poiid":"B2094655D36CA0FA4192","title":"剑川路临沧路","lon":"121.38399","lat":"31.01609","category":"38","category_name":"公交车站","address":""},{"poiid":"B2094654DB6EA7FC489C","title":"小沪人家 马桥店","lon":"121.370681054","lat":"31.030586793","category":"76","category_name":"上海菜","address":"闵行区富岩路309号(马桥镇菜场对面)"},{"poiid":"B2094654DB6EA7FC429C","title":"裕隆花园","lon":"121.37847","lat":"31.03173","category":"47","category_name":"住宅区","address":"上海北松公路1600号"},{"poiid":"B2094654DB64A0FD4799","title":"上海西门子开关有限公司","lon":"121.36474","lat":"31.00551","category":"263","category_name":"公司","address":"天宁路298号"},{"poiid":"B2094757D065A4F44699","title":"绿春路268号","lon":"121.374341","lat":"31.006589","category":"500","category_name":"未知分类","address":"上海不凡帝范梅勒糖果有限公司"},{"poiid":"B2094654DB6EA0FF4698","title":"圣戈班磨料磨具(上海)有限公司(北斗路)","lon":"121.37574","lat":"31.0086","category":"263","category_name":"公司","address":"北斗路198"},{"poiid":"B2094654DB6EA7FE4099","title":"新街百货","lon":"121.37048","lat":"31.02878","category":"119","category_name":"商场","address":""},{"poiid":"B2094654DB6EA7FE419F","title":"闵行明星综合商场","lon":"121.36981","lat":"31.02861","category":"119","category_name":"商场","address":""},{"poiid":"B2094654DB6EA7FE409D","title":"伟丽百货","lon":"121.37039","lat":"31.02876","category":"119","category_name":"商场","address":""},{"poiid":"B2094654DB6EA7FD459B","title":"清真兰州拉面(中街)","lon":"121.37059","lat":"31.02841","category":"90","category_name":"清真餐馆","address":""},{"poiid":"B2094654DB6EA7FD469C","title":"老农家常菜","lon":"121.37198","lat":"31.02875","category":"257","category_name":"中餐厅","address":""},{"poiid":"B2094654DB6EA0FF449C","title":"上海新亚药业闵行有限公司西门","lon":"121.36735","lat":"31.00907","category":"263","category_name":"公司","address":"昆阳路1500号"},{"poiid":"B2094654DB6EA7FC4992","title":"上海马桥强恕学校","lon":"121.36643","lat":"31.0296","category":"55","category_name":"中学","address":"北松路2258"},{"poiid":"B2094654DB64A0FD479E","title":"圣戈班高功能塑料(上海)有限公司","lon":"121.37025","lat":"31.00775","category":"263","category_name":"公司","address":"昆阳路1476"},{"poiid":"B2094654DB6EA7FF4792","title":"上海团结普瑞玛激光设备有限公司","lon":"121.3642","lat":"31.02425","category":"263","category_name":"公司","address":""},{"poiid":"B2094654DB6EA7FD429E","title":"好又多马桥店","lon":"121.36882","lat":"31.02943","category":"118","category_name":"超级市场","address":"北松公路2241"},{"poiid":"B2094655D36CA7FC4699","title":"华宁路银春路","lon":"121.38961","lat":"31.02439","category":"38","category_name":"公交车站","address":""},{"poiid":"B2094655D26FA3FB4798","title":"马桥西街小区(东门)","lon":"121.36872","lat":"31.02828","category":"47","category_name":"住宅区","address":"西新路58弄"},{"poiid":"B2094654DB6EA7FE4592","title":"沙港河大酒店","lon":"121.37313","lat":"31.03062","category":"76","category_name":"上海菜","address":"闵行区马桥镇北松公路1875号西面一幢(北松公路元松路)"},{"poiid":"B2094654DB6EA0FF459B","title":"上海蓝波高电设备有限公司","lon":"121.37323","lat":"31.00834","category":"263","category_name":"公司","address":"绿春路425号"},{"poiid":"B2094655D26BA1FA479F","title":"马桥镇","lon":"121.37001","lat":"31.03009","category":"38","category_name":"公交车站","address":""},{"poiid":"B2094654DB6EA0F94098","title":"联华超市(富岩路)","lon":"121.37175","lat":"31.02908","category":"118","category_name":"超级市场","address":""},{"poiid":"B2094655D36DA1FA439E","title":"马桥镇70号地块","lon":"121.3714","lat":"31.0294","category":"47","category_name":"住宅区","address":"马桥镇富岩路230弄"},{"poiid":"B2094757D66DABF5499C","title":"上海世界联合服装有限公司","lon":"121.3751505","lat":"31.0040032","category":"46","category_name":"楼宇","address":"上海市闵行区绿春路"},{"poiid":"B2094757D66EA1F9439E","title":"亨斯迈聚氨酯(中国)有限公司","lon":"121.37742212","lat":"31.006718323","category":"263","category_name":"公司","address":"上海闵行区文井路452号"},{"poiid":"B2094654DB69A7F84793","title":"马桥电影院","lon":"121.36816","lat":"31.03005","category":"178","category_name":"电影院","address":"闵行区马桥镇北松路口(北松公路西新路)"},{"poiid":"B2094757D16CA6FB4199","title":"西门子能源","lon":"121.36475512","lat":"31.005339295","category":"263","category_name":"公司","address":"上海市闵行区天宁路298号"},{"poiid":"B2094654DB6EA7FE4999","title":"星龙饭店","lon":"121.37847","lat":"31.03097","category":"76","category_name":"上海菜","address":"闵行区北松路1699号(近马桥镇)"},{"poiid":"B2094655D36DA6FE4798","title":"文井路","lon":"121.3806","lat":"31.00349","category":"38","category_name":"公交车站","address":""},{"poiid":"B2094655D26EA4FC439E","title":"紫藤苑","lon":"121.3811750648","lat":"31.003812040107","category":"76","category_name":"上海菜","address":"闵行区东川路3050号紫藤宾馆1楼(近文井路)"},{"poiid":"B2094654DB6EA7FC499C","title":"马桥镇卫生院","lon":"121.3676","lat":"31.03099","category":"162","category_name":"医院","address":"马桥镇"},{"poiid":"B2094654DB6EA0FF4798","title":"莲花塘·水生园","lon":"121.37313","lat":"31.00581","category":"248","category_name":"生活娱乐","address":"闵行区东川路3366号(近江川路)"},{"poiid":"B2094757D16DA5FE409D","title":"马桥社区卫生服务中心","lon":"121.366089328","lat":"31.0288041773","category":"500","category_name":"未知分类","address":"上海北松公路"},{"poiid":"B2094757D169A3FB4298","title":"闵行开发区","lon":"121.36847299","lat":"30.998558894","category":"500","category_name":"未知分类","address":"上海东川路天宁路"},{"poiid":"B2094654DB6EA7F5409A","title":"紫丹印务有限公司","lon":"121.35847","lat":"31.01422","category":"263","category_name":"公司","address":""},{"poiid":"B2094654DB6EA7FC4399","title":"中国税务(北松路)","lon":"121.37497","lat":"31.03121","category":"250","category_name":"公园户外","address":"北松路355"},{"poiid":"B2094655D36DA7F8409D","title":"中青路","lon":"121.35754","lat":"31.02518","category":"38","category_name":"公交车站","address":""},{"poiid":"B2094654DB64A0F84398","title":"上海百事可乐饮料有限公司","lon":"121.38045","lat":"31.00667","category":"263","category_name":"公司","address":"闵行区文井路288号"},{"poiid":"B2094654DB6EA0F94198","title":"马桥镇社区卫生服务中心","lon":"121.36761","lat":"31.031","category":"162","category_name":"医院","address":""},{"poiid":"B2094654DB6EA7F5419D","title":"上海伦明工业园区","lon":"121.35426","lat":"31.01658","category":"45","category_name":"产业园区","address":"中辉路60"},{"poiid":"B2094654DB6EA7F4499C","title":"上海虹彩塑料有限公司","lon":"121.35816","lat":"31.01517","category":"263","category_name":"公司","address":""},{"poiid":"B2094654DB6EA0F8439B","title":"ABB高压电机有限公司","lon":"121.36949","lat":"31.00239","category":"263","category_name":"公司","address":"闵行区天星路380号"},{"poiid":"B2094655D36DA0F5469F","title":"裕丰小区","lon":"121.36393","lat":"31.03373","category":"47","category_name":"住宅区","address":""},{"poiid":"B2094757D66DA4F4439E","title":"闵联生态公园","lon":"121.37304","lat":"31.00113","category":"196","category_name":"公园","address":"上海闵行区东川路3366号(近江川路)  "},{"poiid":"B2094655D26AA0F9439F","title":"地铁文井路站","lon":"121.3806","lat":"31.00349","category":"36","category_name":"地铁站","address":""},{"poiid":"B2094654DB6EA0FF489A","title":"上海第一精工模塑有限公司","lon":"121.37832","lat":"31.00429","category":"263","category_name":"公司","address":"闵行开发区北斗路169号"},{"poiid":"B2094654DB6FA2FE449B","title":"闵行联合发展有限公司紫藤宾馆会议中心","lon":"121.38236","lat":"31.00475","category":"185","category_name":"会展中心","address":""},{"poiid":"B2094757D568A4FA4493","title":"闵行生态公园","lon":"121.3742061","lat":"31.00160694","category":"196","category_name":"公园","address":"东川路3333号"},{"poiid":"B2094654DB6EA0F9409B","title":"闵马菜市场","lon":"121.37083","lat":"31.03186","category":"117","category_name":"便民商店/便利店","address":"富岩路298弄"},{"poiid":"B2094655D26EAAFA479F","title":"中国移动马桥营业厅","lon":"121.37001","lat":"31.03229","category":"151","category_name":"电讯营业厅","address":"闵行区马桥镇富岩路321-323号"},{"poiid":"B2094757D06AA4F4409A","title":"Abb上海电机高压有限公司","lon":"121.369496","lat":"31.00239","category":"500","category_name":"未知分类","address":"上海天星路380号"},{"poiid":"B2094654DB6EA7F44899","title":"闵行开发区生态公园西洋园·企业园","lon":"121.3742","lat":"31.0016","category":"45","category_name":"产业园区","address":"东川路3333"},{"poiid":"B2094654DB6EA7F5409C","title":"福建宏发集团公司","lon":"121.35926","lat":"31.02372","category":"248","category_name":"生活娱乐","address":""},{"poiid":"B2094654DB64A0F8439B","title":"上海恒瑞医药有限公司","lon":"121.38013","lat":"31.00628","category":"263","category_name":"公司","address":"文井路279号"},{"poiid":"B2094757D16FABFE4592","title":"强生医疗学术中心","lon":"121.37891","lat":"30.999816","category":"500","category_name":"未知分类","address":"上海闵行区南谷路100号"},{"poiid":"B2094654DB6EA0F9409A","title":"马桥派出所","lon":"121.37346","lat":"31.03154","category":"609","category_name":"警察局","address":"北松公路1986"},{"poiid":"B2094654DB6EA7FD409B","title":"闵行区马桥镇青年联谊图书馆","lon":"121.36437","lat":"31.03104","category":"181","category_name":"图书馆","address":"闵行区青年路168号(敬南路马桥青年路)"},{"poiid":"B2094757D16EA2FA409F","title":"上海阿尔斯通交通设备有限公司","lon":"121.365299","lat":"30.999541","category":"263","category_name":"公司","address":"上海闵行区东川路3999号"},{"poiid":"B2094757D164A1FD4692","title":"上海MWB互感器有限公司","lon":"121.367240361","lat":"31.0041171422","category":"263","category_name":"公司","address":"上海闵行区江城路3658号"},{"poiid":"B2094654DB6EA0FE479C","title":"闵行八中","lon":"121.37229","lat":"31.00082","category":"55","category_name":"中学","address":""},{"poiid":"B2094655D36CA5F4489A","title":"北松公路蜂王路","lon":"121.38103","lat":"31.03166","category":"38","category_name":"公交车站","address":""},{"poiid":"B2094757D16AA5FB479C","title":"交通大学(闵行校区)柳树下","lon":"121.37129","lat":"31.001276","category":"253","category_name":"校园生活","address":"上海闵行区东川路"},{"poiid":"B2094654DB6FA3F94993","title":"紫华仓储","lon":"121.3878","lat":"31.01734","category":"263","category_name":"公司","address":"剑川路1866"},{"poiid":"B2094654DB6EA0FF449F","title":"上海苗苗液压设备有限公司","lon":"121.36949","lat":"31.00358","category":"263","category_name":"公司","address":"天星路545"},{"poiid":"B2094655D36DA0F5489E","title":"元松路北松路","lon":"121.37261","lat":"31.03402","category":"38","category_name":"公交车站","address":""},{"poiid":"B2094655D26AA0F9439E","title":"地铁闵行开发区站","lon":"121.36598","lat":"30.99951","category":"36","category_name":"地铁站","address":""},{"poiid":"B2094654DB6EA7FC499A","title":"上海联盟综合商场","lon":"121.36644","lat":"31.03378","category":"119","category_name":"商场","address":""},{"poiid":"B2094654DB6EA0FF489D","title":"上海ABB电机有限公司","lon":"121.36603","lat":"31.00208","category":"263","category_name":"公司","address":"上海闵行经济技术开发区天宁路88号"},{"poiid":"B2094655D36CA7FC4693","title":"华宁路北松公路","lon":"121.38761","lat":"31.02944","category":"38","category_name":"公交车站","address":""},{"poiid":"B2094757D66DABFE4592","title":"船舶数字博物馆","lon":"121.38593","lat":"31.00458","category":"179","category_name":"音乐厅","address":"闵行区东川路800号上海交通大学内(近永平路)"},{"poiid":"B2094757D16CA4F44198","title":"闵行三中","lon":"121.37447102","lat":"31.000351192","category":"55","category_name":"中学","address":"上海华坪路180号"},{"poiid":"B2094757D16BA3FE4499","title":"灵隐寺","lon":"121.37030979","lat":"31.000376408","category":"500","category_name":"未知分类","address":"杭州市灵隐路"},{"poiid":"B2094757D165A2FB4499","title":"强生视光学院","lon":"121.380601","lat":"31.003491","category":"500","category_name":"未知分类","address":"上海文井路地铁站下来"},{"poiid":"B2094654DB6FAAFF4598","title":"江川地段医院碧江分院","lon":"121.37314","lat":"30.99768","category":"162","category_name":"医院","address":"碧江路"},{"poiid":"B2094654DB6FAAFF4498","title":"闵行四中西校(附小)","lon":"121.37374","lat":"30.99746","category":"55","category_name":"中学","address":""},{"poiid":"B2094654DB6FA1F84198","title":"申能饭店","lon":"121.38275","lat":"31.03248","category":"257","category_name":"中餐厅","address":""},{"poiid":"B2094757D16BA3FA4299","title":"闵行第四中学","lon":"121.374455428","lat":"30.9979039423","category":"55","category_name":"中学","address":"上海市闵行区景谷路9号"},{"poiid":"B2094654DB6EA7FC4292","title":"闵行区马桥镇星星中心卫生室","lon":"121.37547","lat":"31.03684","category":"162","category_name":"医院","address":""},{"poiid":"B2094654DB6FA3F94792","title":"闵行区马桥幼儿园分部","lon":"121.38195","lat":"31.03451","category":"57","category_name":"幼儿园","address":""},{"poiid":"B2094654DB6EA4F9459F","title":"东川路邮政储蓄","lon":"121.37133","lat":"31.00117","category":"150","category_name":"银行","address":""},{"poiid":"B2094757D164AAFD499F","title":"淡水河桥","lon":"121.37129211","lat":"31.001276016","category":"500","category_name":"未知分类","address":"上海闵行区东川路"},{"poiid":"B2094757D06FA4F8479E","title":"可口可乐上海饮料有限公司","lon":"121.36322021","lat":"31.002683639","category":"263","category_name":"公司","address":"上海闵行区紫月路1188号"},{"poiid":"B2094654DB6EA7FC4893","title":"闵行区马桥镇社区学校裕丰小区分校","lon":"121.36623","lat":"31.03338","category":"253","category_name":"校园生活","address":""},{"poiid":"B2094654DB6FA2F5499B","title":"上海英联食品饮料有限公司(兰村路)","lon":"121.38296","lat":"31.00364","category":"263","category_name":"公司","address":"闵行经济技术开发区兰村路8号"},{"poiid":"B2094654DB6FA1FC409A","title":"上海强生","lon":"121.38102","lat":"31.00212","category":"263","category_name":"公司","address":"闵行区南雅路120号"},{"poiid":"B2094757D66DA2FD409A","title":"ABB高压电机有限公司Testing floor","lon":"121.37312212","lat":"30.999948284","category":"500","category_name":"未知分类","address":"上海天星路"},{"poiid":"B2094757D168AAFD449C","title":"工作地点","lon":"121.365987","lat":"30.999518","category":"500","category_name":"未知分类","address":"上海闵行开发区东川路3999号"},{"poiid":"B2094757D168A7FA439D","title":"交通银行鹤庆路支行","lon":"121.37445542","lat":"30.997903942","category":"500","category_name":"未知分类","address":"上海闵行区鹤庆路258号近安宁路兰坪路"},{"poiid":"B2094752D368AAFE409B","title":"上海卫星工程研究所","lon":"121.389606","lat":"31.026272","category":"263","category_name":"公司","address":"华宁路251号"}]