[{"poiid":"B2094757D06FA1FC449C","title":"通用电气中国科技园","lon":"121.58406304","lat":"31.192172644","category":"46","category_name":"楼宇","address":"上海浦东新区张江高科技园区华佗路1号(近达尔文路)"},{"poiid":"B2094757D06FA7FC419B","title":"罗山路中环段","lon":"121.58017194","lat":"31.186608022","category":"500","category_name":"未知分类","address":"上海罗山路高科西路口"},{"poiid":"B2094654DB65A3FF499F","title":"博雅酒店","lon":"121.58403","lat":"31.19929","category":"268","category_name":"自助","address":"浦东新区碧波路699号(近张江地铁站)"},{"poiid":"B2094757D06FA1FD479D","title":"好乐迪量贩式KTV(张江店)","lon":"121.5827847","lat":"31.199233375","category":"170","category_name":"KTV","address":"上海张江碧波路635号传奇广场2楼"},{"poiid":"B2094757D16CA6F8439A","title":"张江传奇广场","lon":"121.58368597","lat":"31.199951352","category":"500","category_name":"未知分类","address":"上海市浦东新区碧波路５７２弄"},{"poiid":"B2094655D26DA7FB4293","title":"张江微电子港(碧波路)","lon":"121.58356","lat":"31.19999","category":"45","category_name":"产业园区","address":"上海碧波路690号"},{"poiid":"B2094757D06FA1FA479D","title":"穀屋 House Of Flour","lon":"121.584195054","lat":"31.201045793","category":"67","category_name":"甜品店","address":"浦东新区碧波路635号上海传奇1楼105号铺(近张江地铁站)"},{"poiid":"B2094757D06FA2F8499D","title":"中国建设银行上海市分行培训中心","lon":"121.56188201","lat":"31.192485809","category":"150","category_name":"银行","address":"上海申波路292号"},{"poiid":"B2094757D06FA5FE4493","title":"中兴通讯","lon":"121.58648397","lat":"31.197780301","category":"46","category_name":"楼宇","address":"上海张江高科"},{"poiid":"B2094757D06FA2FE4292","title":"盛大游戏","lon":"121.5835495","lat":"31.1986236572","category":"46","category_name":"楼宇","address":"上海碧波路690号一号楼"},{"poiid":"B2094757D06FA4FA4893","title":"龙门客栈(张江店)","lon":"121.58423","lat":"31.20022","category":"217","category_name":"旅馆招待所","address":"浦东新区碧波路635号上海传奇1楼03室(近张江地铁站)"},{"poiid":"B2094757D06BA7F8409D","title":"星巴克 STARBUCKS (通用电气店)","lon":"121.583692","lat":"31.192177","category":"65","category_name":"咖啡厅","address":"浦东新区华佗路1号GE中国科技园2栋办公楼1楼A区(达尔文路)"},{"poiid":"B2094757D16FAAFC4898","title":"中界村","lon":"121.573780875","lat":"31.1889184947","category":"47","category_name":"住宅区","address":"上海浦东新区北蔡镇中界村"},{"poiid":"B2094757D06AA5FE469D","title":"鹏海小区","lon":"121.578","lat":"31.1833","category":"47","category_name":"住宅区","address":"上海五星路239弄"},{"poiid":"B2094751DA68ABFB499B","title":"八佰伴","lon":"121.575568","lat":"31.183723","category":"500","category_name":"未知分类","address":"上海浦东张扬路浦东南路"},{"poiid":"B2094654DA6AA0FF4593","title":"聚龙家园","lon":"121.56866","lat":"31.196918","category":"47","category_name":"住宅区","address":"上海浦东新区芳华路916弄"},{"poiid":"B2094757D06BABF4439D","title":"上海外国语大学附属浦东外国语学校","lon":"121.584458575","lat":"31.1944999394","category":"500","category_name":"未知分类","address":"上海浦东新区张江达尔文路91号"},{"poiid":"B2094757D168A6F9409F","title":"罗山路高架","lon":"121.57910747","lat":"31.194238819","category":"500","category_name":"未知分类","address":"上海高架"},{"poiid":"B2094757D06AAAFE4398","title":"坤儒体育馆","lon":"121.56925987","lat":"31.187941651","category":"633","category_name":"商务服务类公司","address":"浦东新区镇中心路185号(近高科西路)"},{"poiid":"B2094757D065A2F9499E","title":"上海第三十二机动车安全检测站","lon":"121.566987325","lat":"31.1808566563","category":"500","category_name":"未知分类","address":"上海新陈路678号(北蔡镇中心路口)"},{"poiid":"B2094757D064AAFC489B","title":"北蔡家具广场","lon":"121.57519","lat":"31.19153","category":"123","category_name":"家具建材市场","address":"浦东新区高科西路4037号"},{"poiid":"B2094757D069A6FE4992","title":"半岛科技园","lon":"121.58539581","lat":"31.192474365","category":"500","category_name":"未知分类","address":"浦东临港新城主城区申港大道200号"},{"poiid":"B2094757D16BA0FE4599","title":"石府","lon":"121.575003775","lat":"31.1852382087","category":"47","category_name":"住宅区","address":"上海浦东北蔡"},{"poiid":"B2094753DA65A0FA449A","title":"南京路步行街","lon":"121.580551","lat":"31.192008","category":"500","category_name":"未知分类","address":"上海市 南京东路"},{"poiid":"B2094757D06AA5FA439B","title":"龙阳路公交枢纽站","lon":"121.583716745","lat":"31.1853449312","category":"500","category_name":"未知分类","address":"上海市浦东新区龙阳路地铁站(永和大王对面)"},{"poiid":"B2094752DB6DA4FB4893","title":"上海市浦东新区图书馆","lon":"121.571365","lat":"31.185898","category":"500","category_name":"未知分类","address":"上海市 浦东新区锦绣路"},{"poiid":"B2094654DA6AA0FF4392","title":"龙沟新苑","lon":"121.56876","lat":"31.197325","category":"47","category_name":"住宅区","address":"芳华路933弄1-86号"},{"poiid":"B2094757D16AA2FF4292","title":"地铁德平路车控室","lon":"121.571118975","lat":"31.1859690257","category":"46","category_name":"楼宇","address":"上海市浦东新区张扬路德平路"},{"poiid":"B2094753D56BA7FE449E","title":"人民广场","lon":"121.572006","lat":"31.187604","category":"500","category_name":"未知分类","address":"上海市 淮海中路路946号"},{"poiid":"B2094753D268A0FD429F","title":"上海歌城","lon":"121.586378","lat":"31.189057","category":"170","category_name":"KTV","address":"上海市 金桥国际商业广场"},{"poiid":"B2094757D66CA0FD4498","title":"莲溪路五星路","lon":"121.57357097","lat":"31.183754974","category":"500","category_name":"未知分类","address":"上海市浦东新区北蔡·镇中心路"},{"poiid":"B2094655D36DA7FF4993","title":"中界","lon":"121.5673","lat":"31.19024","category":"38","category_name":"公交车站","address":""},{"poiid":"B2094757D069ABFA409B","title":"Nc.stop","lon":"121.578343975","lat":"31.1829249546","category":"46","category_name":"楼宇","address":"上海市浦东新区新陈路1063号"},{"poiid":"B2094654DA6AA1F44692","title":"联华(华中路)","lon":"121.57023","lat":"31.18755","category":"118","category_name":"超级市场","address":""},{"poiid":"B2094757D064A5F8429E","title":"百度上海研发中心","lon":"121.58147589","lat":"31.1990874056","category":"46","category_name":"楼宇","address":"上海浦东新区张江高科微电子港4号楼"},{"poiid":"B2094655D36CA6FE429A","title":"高科西路镇中心路","lon":"121.56913","lat":"31.19042","category":"38","category_name":"公交车站","address":""},{"poiid":"B2094757D16AA4F8469C","title":"北艾路","lon":"121.573848975","lat":"31.1843779886","category":"500","category_name":"未知分类","address":"上海市浦东新区北蔡·镇"},{"poiid":"B2094655D265AAFC4798","title":"光大金鹤信息科技园","lon":"121.58207","lat":"31.18571","category":"45","category_name":"产业园区","address":"上海市浦东新区张衡路198弄"},{"poiid":"B2094757D065A0F84692","title":"第九城市","lon":"121.58338597","lat":"31.200523365","category":"46","category_name":"楼宇","address":"第九城市(浦东虹桥花园)位于浦东锦绣路300号(联洋社区内)"},{"poiid":"B2094655D26BA1FE419C","title":"牛角尖","lon":"121.57956","lat":"31.19345","category":"38","category_name":"公交车站","address":""},{"poiid":"B2094757D064A5F5409B","title":"GE CTC","lon":"121.582303","lat":"31.189038","category":"500","category_name":"未知分类","address":"上海蔡伦路1800号"},{"poiid":"B2094654DA6AA0F4499E","title":"聚丰港海鲜酒楼","lon":"121.56662","lat":"31.18271","category":"88","category_name":"海鲜酒楼","address":"浦东新区北蔡北新路8号(近北中路)"},{"poiid":"B2094752D16DA2F54492","title":"和记小菜","lon":"121.575576","lat":"31.183718","category":"247","category_name":"餐饮美食","address":"上海市东方路"},{"poiid":"B2094757D069A1FB4198","title":"百草传奇(张江店)","lon":"121.58425","lat":"31.2002","category":"260","category_name":"其他","address":"浦东新区碧波路635号上海传奇1楼(近张江地铁站)"},{"poiid":"B2094757D169A2F54899","title":"GE通用电气食堂","lon":"121.58320517","lat":"31.192012992","category":"46","category_name":"楼宇","address":"上海浦东新区张江高科技园区华佗路1号"},{"poiid":"B2094757D16DA7FC409A","title":"通用电气中国科技园2号楼","lon":"121.58207952","lat":"31.192330001","category":"46","category_name":"楼宇","address":"上海华佗路1号"},{"poiid":"B2094654DA6AA6FC419E","title":"上海市张江高科技园区(碧波路)","lon":"121.58106","lat":"31.20162","category":"45","category_name":"产业园区","address":"碧波路572弄115号-24幢"},{"poiid":"B2094655D36CA6FE4292","title":"高科西路碧波路","lon":"121.58113","lat":"31.19416","category":"38","category_name":"公交车站","address":""},{"poiid":"B2094757D065A7F9449C","title":"北蔡镇边","lon":"121.56913","lat":"31.190425","category":"500","category_name":"未知分类","address":"上海高科路镇中心路"},{"poiid":"B2094757D069A5F44393","title":"交通银行太平洋信用卡中心","lon":"121.577638325","lat":"31.1993366082","category":"500","category_name":"未知分类","address":"上海市浦东新区松涛路80号"},{"poiid":"B2094757D06BAAFD4399","title":"绿苑垂钓休闲中心","lon":"121.56563","lat":"31.18178","category":"500","category_name":"未知分类","address":"浦东新区北蔡北中路518号(北新路莲安东路)"},{"poiid":"B2094655D26BABF44098","title":"中国科学院上海应用物理研究所","lon":"121.58636","lat":"31.18671","category":"191","category_name":"科研机构","address":"张衡路239"},{"poiid":"B2094655D36CA0F5459F","title":"华佗路达尔文路","lon":"121.58567","lat":"31.19255","category":"38","category_name":"公交车站","address":""},{"poiid":"B2094655D36DA2FB489E","title":"中界桥","lon":"121.56843","lat":"31.18877","category":"250","category_name":"公园户外","address":""},{"poiid":"B2094757D069A6FF4092","title":"51.com","lon":"121.58561866","lat":"31.1852750431","category":"46","category_name":"楼宇","address":"浦东新区张衡路180号第一上海中心3号楼"},{"poiid":"B2094654DA6AA6F84192","title":"GE中国新园区","lon":"121.58404","lat":"31.1922","category":"45","category_name":"产业园区","address":""},{"poiid":"B2094654DA6AA6FA479E","title":"上海知乐不锈钢装饰工程有限公司","lon":"121.56948","lat":"31.1905","category":"123","category_name":"家具建材市场","address":""},{"poiid":"B2094751D569A3FD439A","title":"莲泰苑","lon":"121.57","lat":"31.1873","category":"627","category_name":"一般地点标志","address":"浦东新区新陈路303弄"},{"poiid":"B2094750DA68A6F94193","title":"浦东国际人才城","lon":"121.590286","lat":"31.186252","category":"252","category_name":"楼宇机构","address":"科苑路张衡路"},{"poiid":"B2094757D568A7FB429B","title":"第一上海中心二期2号楼","lon":"121.584373","lat":"31.185575","category":"46","category_name":"楼宇","address":"中国上海市浦东新区张衡路"},{"poiid":"B2094654DA6AA1F4479D","title":"上海菱光电气制造有限公司","lon":"121.57281","lat":"31.18338","category":"263","category_name":"公司","address":"北蔡镇中心路385"},{"poiid":"B2094654DA6AA5F84293","title":"上海大众汽车租赁公司商务车分公司","lon":"121.57622","lat":"31.19366","category":"161","category_name":"汽车租赁","address":"浦东新区高科西路4145号"},{"poiid":"B2094750DB6FAAFB439E","title":"罗山路","lon":"121.579566","lat":"31.193935","category":"500","category_name":"未知分类","address":null},{"poiid":"B2094757D068A6FF479A","title":"通用电气(中国)研发中心","lon":"121.58859595","lat":"31.18784219","category":"46","category_name":"楼宇","address":"上海蔡伦路1800号"},{"poiid":"B2094757D168A5FB4593","title":"CTP全家","lon":"121.58341997","lat":"31.191106145","category":"247","category_name":"餐饮美食","address":"上海市浦东新区高科中路"},{"poiid":"B2094757D169A4F44698","title":"秋林阁(张江店)","lon":"121.587062836","lat":"31.1862540261","category":"75","category_name":"浙江菜","address":"浦东新区张衡路200号"},{"poiid":"B2094757D069AAFD489E","title":"金蝶软件","lon":"121.581937","lat":"31.197646","category":"249","category_name":"购物服务","address":"上海浦东新区晨晖路88号"},{"poiid":"B2094750D268A7F8439A","title":"北蔡休闲绿地","lon":"121.567054","lat":"31.186305","category":"250","category_name":"公园户外","address":null},{"poiid":"B2094757D06BA4F8469F","title":"下南路北艾路公車站","lon":"121.576085975","lat":"31.1818666336","category":"500","category_name":"未知分类","address":"上海下南路北艾路站，換乘730、970、604、86路公車"},{"poiid":"B2094654DB69ABFA469A","title":"申花酒店(新国际博览中心店)","lon":"121.56223","lat":"31.19116","category":"216","category_name":"经济型连锁酒店","address":"浦东新区申波路398号(近芳华路)"},{"poiid":"B2094655D36CA5F44292","title":"毕升路张衡路","lon":"121.58972","lat":"31.1861","category":"38","category_name":"公交车站","address":""},{"poiid":"B2094757D568A7FD439B","title":"中兴通讯股份有限公司上海研发中心","lon":"121.58424262","lat":"31.1965115","category":"191","category_name":"科研机构","address":"碧波路889号(近张江地铁站)"},{"poiid":"B2094654DA6AA7F4469E","title":"为您便利","lon":"121.57071","lat":"31.18199","category":"117","category_name":"便民商店/便利店","address":""},{"poiid":"B2094757D16AA7F4469A","title":"芳华路933弄","lon":"121.579138975","lat":"31.194323621","category":"500","category_name":"未知分类","address":"上海浦东新区 芳华路933弄"},{"poiid":"B2094654DA6AA6F84793","title":"杜兰大学","lon":"121.58499","lat":"31.19163","category":"671","category_name":"高校中心点","address":"浦东新区达尔文路188"},{"poiid":"B2094757D569A6FA429A","title":"上海光源","lon":"121.58726183","lat":"31.18844889","category":"191","category_name":"科研机构","address":"中国上海市浦东新区蔡伦路"},{"poiid":"B2094751DA6EA2F5419D","title":"上海歌城八佰伴店","lon":"121.565774","lat":"31.189696","category":"500","category_name":"未知分类","address":null},{"poiid":"B209475CD769A7FF4598","title":"上海梅赛德斯奔驰文化中心","lon":"121.567909","lat":"31.191699","category":"500","category_name":"未知分类","address":"上海市 上海"},{"poiid":"B2094655D26BA4FD4293","title":"张江企业孵化器管理中心","lon":"121.58775","lat":"31.19009","category":"46","category_name":"楼宇","address":"蔡伦路1690号"},{"poiid":"B2094654DA6AA1F8489D","title":"培花新村","lon":"121.56741","lat":"31.192274","category":"47","category_name":"住宅区","address":"川北公路380弄"},{"poiid":"B2094757D568A0FA4299","title":"张江创星园","lon":"121.5849214","lat":"31.19335496","category":"47","category_name":"住宅区","address":"浦东新区达尔文路88号(近高科中路)"},{"poiid":"B2094655D26BA6F8459C","title":"LuluCafe","lon":"121.58581","lat":"31.18617","category":"65","category_name":"咖啡厅","address":"张江高科园区第一中心张衡路180号"},{"poiid":"B2094654DA6AA6FE479B","title":"上海外国语大学附属浦东外国语学校(高科中路)","lon":"121.58728","lat":"31.19462","category":"55","category_name":"中学","address":"高科中路350"},{"poiid":"B2094654DA6AA0FF449A","title":"情义酒家","lon":"121.57077","lat":"31.19758","category":"257","category_name":"中餐厅","address":"浦东新区芳华路1009号"},{"poiid":"B2094750DB6FA4FC4498","title":"上海浦东出入境管理局","lon":"121.581947","lat":"31.195316","category":"252","category_name":"楼宇机构","address":"张江路39号"},{"poiid":"B2094654DA6AA1F5499C","title":"中国上海博士后公寓","lon":"121.58421","lat":"31.19575","category":"47","category_name":"住宅区","address":"碧波路942弄"},{"poiid":"B2094654DA6AA6FE4799","title":"上海交通大学信息安全工程学院","lon":"121.58945","lat":"31.18808","category":"52","category_name":"高等院校","address":"张衡路429"},{"poiid":"B2094757D069A5FA479D","title":"川四方","lon":"121.58424","lat":"31.19956","category":"71","category_name":"四川菜","address":"浦东新区碧波路635号上海传奇1楼(近张江地铁站)  "},{"poiid":"B2094757D16EA5F5409F","title":"通用电气园区餐厅","lon":"121.58369097","lat":"31.191001143","category":"500","category_name":"未知分类","address":"上海华佗路1800号"},{"poiid":"B2094655D36DA2F94892","title":"华佗路桥","lon":"121.58416","lat":"31.19227","category":"250","category_name":"公园户外","address":""},{"poiid":"B2094753D764A0F9429D","title":"曙光医院","lon":"121.585762","lat":"31.192564","category":"162","category_name":"医院","address":"上海市 上海市浦东新区张江高科"},{"poiid":"B2094654DA6AA6FC479C","title":"潘姚新村","lon":"121.58456","lat":"31.183798","category":"47","category_name":"住宅区","address":"三八河路"},{"poiid":"B2094654DA6AA7FC4092","title":"北中路328弄小区","lon":"121.565","lat":"31.1899","category":"47","category_name":"住宅区","address":"北中路328弄"},{"poiid":"B2094757D165A3FB4892","title":"富海商务苑三期","lon":"121.584920975","lat":"31.1843289874","category":"252","category_name":"楼宇机构","address":"上海市浦东新区毕升路289弄"},{"poiid":"B2094654DA6AA0F54399","title":"华佳花园","lon":"121.56171","lat":"31.18931","category":"47","category_name":"住宅区","address":"华佳花园(现房)位于浦东北蔡川北公路308号"},{"poiid":"B2094757D164AAFD469A","title":"上海处男集散中心","lon":"121.57037727","lat":"31.200664069","category":"500","category_name":"未知分类","address":"上海lallaa"},{"poiid":"B2094654DA6AA6FE4798","title":"罗森(张衡路)","lon":"121.58706","lat":"31.18625","category":"117","category_name":"便民商店/便利店","address":"浦东新区张衡路200号"},{"poiid":"B2094757D064A1FF479A","title":"华依创新园","lon":"121.58509","lat":"31.196003","category":"500","category_name":"未知分类","address":"朝阳华威桥东北角"},{"poiid":"B2094757D164ABFE489C","title":"毕升路299弄","lon":"121.58812697","lat":"31.185195007","category":"47","category_name":"住宅区","address":"上海富海商务院2期"},{"poiid":"B2094757D168A7FF479D","title":"全家便利(通用电气店)","lon":"121.58322277","lat":"31.193236595","category":"249","category_name":"购物服务","address":"上海华佗路1号"},{"poiid":"B2094757D66FA7FF4992","title":"福荣祥烧腊","lon":"121.585377175","lat":"31.19299709","category":"247","category_name":"餐饮美食","address":"上海张江"},{"poiid":"B2094654DA6AA1F5499E","title":"浦东新区花木盆景场","lon":"121.5803","lat":"31.19678","category":"117","category_name":"便民商店/便利店","address":"景明路728临"},{"poiid":"B2094757D66DA1F54792","title":"上海电影艺术学院409","lon":"121.58489397","lat":"31.192518178","category":"500","category_name":"未知分类","address":"上海市浦东新区达尔文路118号"},{"poiid":"B2094655D36CA5F4469D","title":"北新路新陈路","lon":"121.56569","lat":"31.18099","category":"38","category_name":"公交车站","address":""},{"poiid":"B2094751DA6AABFD4299","title":"上海市曙光医院","lon":"121.58785","lat":"31.189043","category":"162","category_name":"医院","address":null},{"poiid":"B2094750DA69A4FA4093","title":"虹桥火车站","lon":"121.5839","lat":"31.19494","category":"500","category_name":"未知分类","address":null},{"poiid":"B2094655D26AA4FF4898","title":"张江微电子港餐厅","lon":"121.583877054","lat":"31.199784793","category":"68","category_name":"快餐厅","address":"浦东新区碧波路690号7号楼1-2楼(近张江地铁站)"},{"poiid":"B2094753D469ABF4449A","title":"蒂拉诺披萨 Pizza Tirano","lon":"121.581024","lat":"31.197616","category":"247","category_name":"餐饮美食","address":"上海市 碧波路632号"},{"poiid":"B2094757D66FA0F44098","title":"北航三号楼313","lon":"121.585364975","lat":"31.1857580208","category":"500","category_name":"未知分类","address":"北京北航三号楼313"},{"poiid":"B2094757D569A0F5439D","title":"创意中心二期","lon":"121.58739","lat":"31.18771","category":"47","category_name":"住宅区","address":"蔡伦路1623号"},{"poiid":"B2094654DA6AA7FC469D","title":"东莲大厦","lon":"121.563","lat":"31.1856","category":"46","category_name":"楼宇","address":"沪南公路1101号"},{"poiid":"B2094654DA6AA0F4499A","title":"上海浦优会务中心","lon":"121.56536","lat":"31.18206","category":"185","category_name":"会展中心","address":"北中路518弄"},{"poiid":"B2094757D568AAF84698","title":"张江微电子港二期","lon":"121.5835547","lat":"31.19871367","category":"46","category_name":"楼宇","address":"碧波路690号"},{"poiid":"B209475CD36AA0F4429A","title":"中兴通讯H座食堂","lon":"121.58425","lat":"31.19652","category":"68","category_name":"快餐厅","address":"碧波路889弄H座2楼(近晨晖路)"},{"poiid":"B2094757D068A7FA479B","title":"悲伤逆流成河","lon":"121.586270975","lat":"31.1849035008","category":"500","category_name":"未知分类","address":"上海浦东张江高科"},{"poiid":"B2094750D66CA6FC419F","title":"张江科技创业园","lon":"121.585762","lat":"31.191806","category":"263","category_name":"公司","address":"华佗路68号"},{"poiid":"B2094654DA6AA0F8409D","title":"上海市华林中学","lon":"121.56217","lat":"31.19369","category":"55","category_name":"中学","address":"浦东新区申波路231号(芳草路申波路)"},{"poiid":"B2094753D26DAAF44993","title":"哈根达斯","lon":"121.586366","lat":"31.189052","category":"263","category_name":"公司","address":"上海市 浦东金桥"},{"poiid":"B2094655D36CA5F4449F","title":"碧波路晨晖路","lon":"121.58422","lat":"31.19769","category":"38","category_name":"公交车站","address":""},{"poiid":"B209475CD36AA5FD439A","title":"中兴和泰酒店碧波苑","lon":"121.58425","lat":"31.19652","category":"76","category_name":"上海菜","address":"碧波路889号"},{"poiid":"B2094757D065A6F44492","title":"通略驾校(浦东本部)","lon":"121.57996397","lat":"31.199699346","category":"253","category_name":"校园生活","address":"浦东新区景明路728号(近晨辉路)"},{"poiid":"B2094757D16BA2FA419C","title":"上海电影艺术学院B203","lon":"121.58633797","lat":"31.191919164","category":"500","category_name":"未知分类","address":"上海张江达尔文路188号"},{"poiid":"B2094757D16EA5F9419A","title":"中科院上海应用物理研究所","lon":"121.58975997","lat":"31.188627087","category":"500","category_name":"未知分类","address":"上海张衡路239号"},{"poiid":"B2094757D068A3FA429C","title":"PPTV上海","lon":"121.583535388","lat":"31.2000009645","category":"500","category_name":"未知分类","address":"浦东新区张江高科技园区碧波路690号5号楼5楼"},{"poiid":"B2094757D064A4F94093","title":"通用电器园区餐厅","lon":"121.58371971","lat":"31.191309925","category":"260","category_name":"其他","address":"上海浦东新区华佗路1号"},{"poiid":"B2094757D16AA3F5479E","title":"上海电影艺术学院304机房","lon":"121.58529281","lat":"31.192851209","category":"500","category_name":"未知分类","address":"上海达尔文路188号"},{"poiid":"B2094751D465A6F44498","title":"浦东国际人才酒店","lon":"121.5861307","lat":"31.1891111","category":"251","category_name":"出行住宿","address":"上海浦东新区科苑路1500号"},{"poiid":"B2094757D06BAAFA4098","title":"张江微电子港7号楼","lon":"121.580285175","lat":"31.1995261426","category":"500","category_name":"未知分类","address":"上海浦东新区碧波路690号7号楼"},{"poiid":"B2094757D16DA4F4459D","title":"蔡伦路1690号","lon":"121.587946","lat":"31.190557","category":"500","category_name":"未知分类","address":"上海蔡伦路1690号"},{"poiid":"B2094654DA6AA5FF4699","title":"浦之天宾馆","lon":"121.56536","lat":"31.18205","category":"250","category_name":"公园户外","address":"浦东新区北中路518弄1号"},{"poiid":"B2094753DA6AA4FA409C","title":"上海","lon":"121.563407","lat":"31.189523","category":"500","category_name":"未知分类","address":"上海市 外滩"},{"poiid":"B2094654DA6AA0F54198","title":"北中路480弄小区","lon":"121.5632","lat":"31.18411","category":"47","category_name":"住宅区","address":"北中路480弄11"},{"poiid":"B2094654DB69AAF5459D","title":"建行上海市分行科教中心","lon":"121.5621","lat":"31.19142","category":"150","category_name":"银行","address":"上海市浦东新区申波路292号"},{"poiid":"B2094654DA6AA0F5459C","title":"浦东新区北蔡镇西山湾安息堂","lon":"121.56693","lat":"31.18236","category":"248","category_name":"生活娱乐","address":"北蔡镇"},{"poiid":"B2094757D568AAFB479C","title":"张江创业源商业中心","lon":"121.5884078","lat":"31.19297222","category":"46","category_name":"楼宇","address":"张江高科技园区华佗路168号"},{"poiid":"B2094654DA6AA0F54193","title":"莲馨苑","lon":"121.56139","lat":"31.185982","category":"47","category_name":"住宅区","address":"莲园路630弄1-88号"},{"poiid":"B2094654DA6AA6FA479D","title":"浦东新区华林小学","lon":"121.56341","lat":"31.19231","category":"56","category_name":"小学","address":"浦东新区芳芯路568号(芳芯路申波路)"},{"poiid":"B2094757D168A2F84299","title":"皮革工房L&amp;C国金店","lon":"121.58700797","lat":"31.186317033","category":"500","category_name":"未知分类","address":"上海陆家嘴国金中心LG2"},{"poiid":"B2094654DA6AA1F5499D","title":"华依创新","lon":"121.58424","lat":"31.196516","category":"47","category_name":"住宅区","address":"碧波路912弄"},{"poiid":"B2094757D16CA7FD449B","title":"张江孵化器管理中心","lon":"121.58679466","lat":"31.190784818","category":"500","category_name":"未知分类","address":"上海张江蔡伦路"},{"poiid":"B2094757D56DABF4419F","title":"上海浦东新区张江高科华佗路68号11号楼","lon":"121.58638000488281","lat":"31.191850739045066","category":"263","category_name":"公司","address":"上海浦东新区张江高科华佗路68号11号楼"},{"poiid":"B2094757D569A1FE499E","title":"新家静品","lon":"121.562232","lat":"31.187394","category":"47","category_name":"住宅区","address":"新家静品位于浦东沪南路1101号808室"},{"poiid":"B2094757D66CA0FD459D","title":"80天环游地球主题乐园","lon":"121.584771975","lat":"31.1851020055","category":"260","category_name":"其他","address":"宁波慈溪三北镇达蓬山  "},{"poiid":"B2094757D664ABFC4093","title":"绝味鸭脖 申波路店","lon":"121.564841054","lat":"31.196708793","category":"68","category_name":"快餐厅","address":"浦东新区申波路61号(芳华路口)"},{"poiid":"B2094757D66FA0FF439C","title":"果壳电子","lon":"121.585022","lat":"31.193551","category":"249","category_name":"购物服务","address":"上海浦东新区达尔文路88号半岛科技园12幢"},{"poiid":"B2094757D06BA2FE449B","title":"芳雅苑","lon":"121.56347","lat":"31.196285","category":"252","category_name":"楼宇机构","address":"芳华路630弄，芳华路660弄"},{"poiid":"B2094757D16BABFD469F","title":"抱腿堂","lon":"121.5865904","lat":"31.192127499","category":"500","category_name":"未知分类","address":"上海排排坐，抱大腿！"},{"poiid":"B2094757D165A7FA489D","title":"碧波路888号","lon":"121.582813975","lat":"31.1969502824","category":"500","category_name":"未知分类","address":"上海碧波路888号"},{"poiid":"B2094654DA6AA0FE4798","title":"上海静安制药有限公司","lon":"121.56442","lat":"31.19017","category":"263","category_name":"公司","address":"高科西路3065"},{"poiid":"B2094757D164A0F5469F","title":"盛美半导体设备","lon":"121.586252275","lat":"31.1929005877","category":"500","category_name":"未知分类","address":"上海蔡仑路1690号4号楼"},{"poiid":"B2094654DA6AA6FA459D","title":"快客(高科西路)","lon":"121.56187","lat":"31.18933","category":"117","category_name":"便民商店/便利店","address":""},{"poiid":"B2094757D164AAFC4198","title":"摩迪","lon":"121.58401381","lat":"31.195947769","category":"500","category_name":"未知分类","address":"上海碧波路912弄"},{"poiid":"B2094757D06BA6F8469D","title":"德妃家","lon":"121.563681975","lat":"31.1890670981","category":"500","category_name":"未知分类","address":"上海高科西路3030弄"},{"poiid":"B2094655D36CA2F54693","title":"申波路","lon":"121.56209","lat":"31.19228","category":"38","category_name":"公交车站","address":""},{"poiid":"B2094757D66CA3F4409D","title":"张江有轨电车1路华佗路达尔文路站","lon":"121.587844503","lat":"31.1933607637","category":"500","category_name":"未知分类","address":"上海华佗路达尔文路"},{"poiid":"B2094654DA6AA5F84793","title":"上海小蜜蜂旅馆有限公司","lon":"121.57049","lat":"31.19716","category":"263","category_name":"公司","address":"浦东新区芳华路1010号"},{"poiid":"B2094654DA6AA0F8419A","title":"中国建设银行培训中心","lon":"121.5621","lat":"31.19143","category":"190","category_name":"培训机构","address":"申波路292临"},{"poiid":"B2094654DA6AA0FC419C","title":"文化产业示范基地","lon":"121.58355","lat":"31.19871","category":"46","category_name":"楼宇","address":"碧波路690"},{"poiid":"B2094654DA6AA6F8449E","title":"国家反计算机入侵和防病毒研究中心","lon":"121.58849","lat":"31.1844","category":"191","category_name":"科研机构","address":""},{"poiid":"B2094757DA64A2F4459B","title":"莲泰苑底商","lon":"121.563721","lat":"31.180736","category":"47","category_name":"住宅区","address":"浦东新区北蔡新陈路303弄"},{"poiid":"B2094751D56BA5F5429E","title":"复旦大学张江校区","lon":"121.586475","lat":"31.1962445","category":"253","category_name":"校园生活","address":"蔡伦路1159号"},{"poiid":"B2094757DA69A2F94592","title":"拍拍贷官方微博","lon":"121.610885","lat":"31.20781","category":"630","category_name":"电子商务公司","address":"上海浦东软件园郭守敬路498号8号楼"},{"poiid":"B2094757D569A3FB459B","title":"花木白杨","lon":"121.5805431","lat":"31.20046806","category":"47","category_name":"住宅区","address":"花木白杨位于普陀川北公路-白杨路口"},{"poiid":"B2094751D565A2F5409B","title":"复旦大学五角场校区","lon":"121.587996","lat":"31.1935696","category":"253","category_name":"校园生活","address":"邯郸路"},{"poiid":"B2094654DA6AA0FC429A","title":"上海盛大网络发展有限公司","lon":"121.58356","lat":"31.19871","category":"263","category_name":"公司","address":"碧波路690"},{"poiid":"B2094753D465A6F44393","title":"上海市浦东检验检疫局","lon":"121.589958","lat":"31.190467","category":"500","category_name":"未知分类","address":"上海市 上海市蔡伦路1600号"},{"poiid":"B2094654DA6AA0FC429F","title":"芬华创新中心","lon":"121.58327","lat":"31.19965","category":"46","category_name":"楼宇","address":"碧波路690"},{"poiid":"B2094757D16EABFC4893","title":"華佗路達爾文路","lon":"121.58836364","lat":"31.191329956","category":"500","category_name":"未知分类","address":"上海華佗路達爾文路"},{"poiid":"B2094752DA68A5FA409D","title":"上海新天地","lon":"121.561798","lat":"31.190328","category":"500","category_name":"未知分类","address":"上海市 卢湾区自忠路338号"},{"poiid":"B2094654DA6AA0FF4499","title":"浦东新区花灵汽车修理厂","lon":"121.57138","lat":"31.19854","category":"159","category_name":"汽车维修","address":""},{"poiid":"B2094757D16CAAFF4893","title":"PPTV上海②号根据地","lon":"121.582235975","lat":"31.198088309","category":"500","category_name":"未知分类","address":null},{"poiid":"B2094757DB69ABFD4493","title":"张江星巴克","lon":"121.578037109208","lat":"31.20030122952029","category":"500","category_name":"未知分类","address":null},{"poiid":"B2094757D66FA3F9459F","title":"第九城市食堂","lon":"121.58304337","lat":"31.19943524","category":"247","category_name":"餐饮美食","address":"上海碧波路699号"},{"poiid":"B2094654DA6AA0FC409B","title":"摩迪(上海)咨询有限公司","lon":"121.58424","lat":"31.19651","category":"263","category_name":"公司","address":"碧波路912弄"},{"poiid":"B2094654DA6AA0FC419F","title":"圆环传奇美食天地","lon":"121.58417","lat":"31.20001","category":"68","category_name":"快餐厅","address":"张江镇"},{"poiid":"B2094757D16DAAFF499B","title":"地铁七号线龙阳路辅助停车场","lon":"121.57004697","lat":"31.199705346","category":"500","category_name":"未知分类","address":"上海浦东龙阳路2520号"},{"poiid":"B2094757D16AA2F5419C","title":"大桥五线终点站","lon":"121.588692975","lat":"31.1835369689","category":"500","category_name":"未知分类","address":"上海市浦东新区张衡路"},{"poiid":"B2094757D16EA0F84792","title":"PPTV申花频道演播厅","lon":"121.58177697","lat":"31.199081332","category":"500","category_name":"未知分类","address":"上海碧波路690号5号楼"},{"poiid":"B2094757D16AA0FE4298","title":"蔡伦路1623号","lon":"121.589712","lat":"31.190431","category":"500","category_name":"未知分类","address":"上海蔡伦路1623号"},{"poiid":"B2094757D16DA4F5499F","title":"嘉臣爱伊幼儿园","lon":"121.56967417","lat":"31.200210658","category":"57","category_name":"幼儿园","address":"上海市闵行区莘松路康城内"},{"poiid":"B2094757D164A2F5469C","title":"台湾豪大大香鸡排(传奇广场店)","lon":"121.58068185","lat":"31.201476588","category":"247","category_name":"餐饮美食","address":"上海碧波路635号传奇广场w127(近张江地铁2号线)"},{"poiid":"B2094757DA6AA5F44493","title":"pptv","lon":"121.5775148","lat":"31.2016526","category":"170","category_name":"KTV","address":"碧波路690号"},{"poiid":"B2094654DA6AA5F8489C","title":"华新杂货店(芳华路)","lon":"121.56398","lat":"31.19662","category":"117","category_name":"便民商店/便利店","address":""},{"poiid":"B2094757D064ABFD449E","title":"宝寿司(张江传奇广场店)","lon":"121.583971","lat":"31.199838","category":"500","category_name":"未知分类","address":"上海碧波路635号传奇广场2楼"},{"poiid":"B2094757D16BA7F54793","title":"北蔡北中路480弄","lon":"121.561840975","lat":"31.1834939679","category":"500","category_name":"未知分类","address":"上海北蔡北中路480弄"},{"poiid":"B2094757D16AA0FA489F","title":"麦当劳飞洲国际店","lon":"121.562981675","lat":"31.18230154","category":"500","category_name":"未知分类","address":"上海零陵路899号地下一层"},{"poiid":"B2094757D568A7FD4299","title":"史泰博(科苑路店)","lon":"121.590284","lat":"31.190397","category":"139","category_name":"文化用品店","address":"科苑路1234号"},{"poiid":"B2094757D168A0F44193","title":"聚力传媒 碧波路","lon":"121.58167227","lat":"31.199694946","category":"263","category_name":"公司","address":"上海碧波路690号5号楼5楼"},{"poiid":"B2094757D065A3FB469A","title":"博雅酒店宴会厅","lon":"121.584151373","lat":"31.199126429","category":"217","category_name":"旅馆招待所","address":"上海碧波路699号"},{"poiid":"B2094757D164A5F8479B","title":"2011.10.16天王天后巨星演唱会——唐山站","lon":"121.58240337","lat":"31.199260103","category":"500","category_name":"未知分类","address":null},{"poiid":"B2094655D36DA2F9479A","title":"景明路黄家浜桥","lon":"121.57928","lat":"31.20146","category":"250","category_name":"公园户外","address":""},{"poiid":"B2094654DA6AA0FC419D","title":"盛大互动娱乐有限公司","lon":"121.58356","lat":"31.19871","category":"263","category_name":"公司","address":"碧波路690"},{"poiid":"B2094757D66EA6F4489E","title":"建设银行上海市六灶支行","lon":"121.58435077","lat":"31.177154019","category":"500","category_name":"未知分类","address":"上海市浦东新区六灶镇周祝公路2399号"},{"poiid":"B2094757D66FA0FF459D","title":"全家便利浦锦店","lon":"121.570336375","lat":"31.2006659693","category":"500","category_name":"未知分类","address":"上海浦锦路309号一楼"},{"poiid":"B2094757D568A5FE4799","title":"上海龙发园艺场","lon":"121.576225","lat":"31.199815","category":"260","category_name":"其他","address":"中国上海市浦东新区罗山路"},{"poiid":"B2094654DA6AA0FC439F","title":"锐迪科微电子(上海)有限公司","lon":"121.58326","lat":"31.19964","category":"263","category_name":"公司","address":"碧波路690"},{"poiid":"B2094757D16BABFA4798","title":"畅星餐厅","lon":"121.583901","lat":"31.197718","category":"260","category_name":"其他","address":"上海碧波路888路"},{"poiid":"B2094757D165A4FD499C","title":"石窟","lon":"121.580671175","lat":"31.1767701108","category":"260","category_name":"其他","address":"上海中界村"},{"poiid":"B2094654DA6AA6FE4998","title":"浦东新区北蔡蟠姚敬老院","lon":"121.58746","lat":"31.17979","category":"615","category_name":"敬老院","address":""},{"poiid":"B2094751D56FA1FC419C","title":"45Coffee(碧波路店)","lon":"121.584092","lat":"31.199574","category":"260","category_name":"其他","address":"浦东新区碧波路635号上海传奇广场西南(近祖冲之路)"}]