[{"poiid":"B2094757D06FABFE4393","title":"复旦大学附属中山医院(青浦分院)","lon":"121.13807","lat":"31.15408","category":"162","category_name":"医院","address":"青浦区青浦公园东路1158号"},{"poiid":"B2094757DB6EA6FF429C","title":"上海夏阳湖皇冠假日酒店","lon":"121.1339","lat":"31.15049","category":"72","category_name":"广东菜","address":"青浦区青舟路303号(近夏阳湖)"},{"poiid":"B2094655D26BA7FC439D","title":"新城盛景","lon":"121.14638","lat":"31.15899","category":"47","category_name":"住宅区","address":"上海青浦华科东路218号"},{"poiid":"B2094757D068A1FD439D","title":"夏阳湖畔","lon":"121.13520813","lat":"31.150871276","category":"47","category_name":"住宅区","address":"上海青浦区"},{"poiid":"B2094654DB6AA0FE419E","title":"上海市青浦区图书馆","lon":"121.13671","lat":"31.14783","category":"181","category_name":"图书馆","address":"青浦区青龙路60号(华浦南路青龙路)"},{"poiid":"B2094654DA6BABFA449A","title":"宜达新居","lon":"121.15015","lat":"31.163771","category":"47","category_name":"住宅区","address":"外青松公路5962号"},{"poiid":"B2094757D069ABFB479B","title":"香涌海鲜大酒楼","lon":"121.13968658","lat":"31.150260925","category":"75","category_name":"浙江菜","address":"青浦区华青路100号(近公园东路)"},{"poiid":"B2094757D16CAAF94199","title":"澳京豆捞","lon":"121.135293671","lat":"31.1478073198","category":"86","category_name":"火锅店","address":"青浦区华青南路800弄1号(近青浦图书馆)"},{"poiid":"B2094757D06AABF44393","title":"新青浦佳园","lon":"121.135","lat":"31.1647","category":"500","category_name":"未知分类","address":"上海市青浦区华科路155弄"},{"poiid":"B2094757D064A2FB429E","title":"佳乐苑","lon":"121.143998","lat":"31.164121","category":"252","category_name":"楼宇机构","address":"青浦华盈路685弄"},{"poiid":"B2094757D664A1F84893","title":"海港一号","lon":"121.132756054","lat":"31.146040793","category":"76","category_name":"上海菜","address":"青浦区华青南路177弄58号(近青湖路)"},{"poiid":"B2094757D168A7FF4192","title":"青浦党校","lon":"121.12828703","lat":"31.156762895","category":"253","category_name":"校园生活","address":"上海华科路"},{"poiid":"B2094751D465A2FE479D","title":"末可甜品小屋","lon":"121.131406","lat":"31.156118","category":"247","category_name":"餐饮美食","address":"青浦区公园东路1688弄23号(近中山医院)"},{"poiid":"B2094757D16DABF9489C","title":"仁恒运杰河滨花园","lon":"121.136","lat":"31.1474","category":"252","category_name":"楼宇机构","address":"上海市浦东新区锦和路99弄"},{"poiid":"B2094654DA6BABFA4398","title":"上海市青浦高级中学","lon":"121.14219","lat":"31.15339","category":"55","category_name":"中学","address":"青浦区公园东路1100号(近青浦中山医院)"},{"poiid":"B2094654DA6BA4FB449E","title":"公园大观吉富绅花园","lon":"121.13375","lat":"31.15561","category":"47","category_name":"住宅区","address":"上海市青浦区公园东路1688号"},{"poiid":"B2094757D064A7F4409D","title":"蓝山咖啡(青浦店)","lon":"121.1367","lat":"31.14814","category":"65","category_name":"咖啡厅","address":"青浦区华青南路800弄1-3号(华浦南路青龙路)"},{"poiid":"B2094757D16FA7FD4792","title":"青浦毓秀学校","lon":"121.147959","lat":"31.156849","category":"253","category_name":"校园生活","address":"上海青浦毓秀学校"},{"poiid":"B2094757D465A0F4459C","title":"联谊大酒店","lon":"121.1399413","lat":"31.1619518","category":"76","category_name":"上海菜","address":"青浦区华盈路685弄(近华乐路)"},{"poiid":"B2094757D569A3F5489C","title":"富绅国际","lon":"121.142633","lat":"31.159857","category":"46","category_name":"楼宇","address":"公园东路1590号"},{"poiid":"B2094757D06BA0F8409D","title":"巴黎no.88 bar","lon":"121.13347347","lat":"31.146377457","category":"500","category_name":"未知分类","address":"上海青浦区华青南路511号(巴黎之夜楼上)"},{"poiid":"B2094654DA6BA4FF4993","title":"上海工商信息学校","lon":"121.13098","lat":"31.15174","category":"55","category_name":"中学","address":"青浦区公园东路2025号(近青浦区电视台)"},{"poiid":"B2094654DA6BABFB419A","title":"顺驰蓝湾锦都","lon":"121.147","lat":"31.1664","category":"47","category_name":"住宅区","address":"华盈路688弄"},{"poiid":"B2094655D36DA7F8499B","title":"中山医院青浦分院","lon":"121.13481","lat":"31.15335","category":"38","category_name":"公交车站","address":""},{"poiid":"B2094655D36DA0FA449A","title":"宜达小区","lon":"121.14917","lat":"31.16128","category":"47","category_name":"住宅区","address":""},{"poiid":"B2094757D16BAAFE489E","title":"新城盛景D区","lon":"121.148878035","lat":"31.1587420339","category":"47","category_name":"住宅区","address":"上海青浦区崧文路338弄"},{"poiid":"B2094752D564A0F44099","title":"英伦大酒店","lon":"121.143049","lat":"31.161067","category":"247","category_name":"餐饮美食","address":"上海市青浦区盈港东路858号"},{"poiid":"B2094654DA6BA4FB4693","title":"上海市青浦区佳佳幼儿园","lon":"121.1404","lat":"31.15806","category":"57","category_name":"幼儿园","address":"青浦区华科路768号"},{"poiid":"B2094750D365A5F5429B","title":"新城盛景B区","lon":"121.148834","lat":"31.159301","category":"47","category_name":"住宅区","address":"青浦区崧文路388弄"},{"poiid":"B2094757D16EAAF9419C","title":"依莎九号会所","lon":"121.13908853","lat":"31.160944826","category":"500","category_name":"未知分类","address":"上海青浦盈港东路8300弄33号"},{"poiid":"B2094654DB64A2FC439C","title":"快客","lon":"121.14846","lat":"31.16212","category":"117","category_name":"便民商店/便利店","address":"宜达新居西南"},{"poiid":"B2094654DA6BABFB459C","title":"夏阳湖国际花园","lon":"121.13573","lat":"31.146868","category":"47","category_name":"住宅区","address":"上海市青浦区青湖路800弄"},{"poiid":"B2094757D06AA6FD489E","title":"新青浦花苑","lon":"121.13","lat":"31.1618","category":"500","category_name":"未知分类","address":"上海外青松公路6048弄"},{"poiid":"B2094655D36CA7FC4998","title":"华乐路华科路","lon":"121.14385","lat":"31.15642","category":"38","category_name":"公交车站","address":""},{"poiid":"B2094654DA6BABF94593","title":"运杰城市花园(华青南路)","lon":"121.13467","lat":"31.14449","category":"47","category_name":"住宅区","address":"上海市宝山区聚丰园路303号"},{"poiid":"B2094757D568A1FF499D","title":"良友","lon":"121.14666395","lat":"31.1589426","category":"255","category_name":"专卖店","address":"中国上海市青浦区"},{"poiid":"B2094654DA6BA4F44293","title":"青水湾公寓","lon":"121.13705","lat":"31.158348","category":"47","category_name":"住宅区","address":"华浦路268号"},{"poiid":"B2094757D16FA4F4499D","title":"丽车坊汽车生活时尚馆","lon":"121.139414545","lat":"31.16110381","category":"500","category_name":"未知分类","address":"上海青浦区盈港东路8368号"},{"poiid":"B2094655D265A6FD4099","title":"上海怡豪假日酒店","lon":"121.1493","lat":"31.16144","category":"250","category_name":"公园户外","address":"青浦区青浦区华盈路1085号"},{"poiid":"B2094655D36CA7F4469E","title":"桂花园青浦","lon":"121.13511898718","lat":"31.151869426536","category":"38","category_name":"公交车站","address":"沪青平公路4555弄"},{"poiid":"B2094655D36CA0F54799","title":"华盈路汇金路","lon":"121.15093","lat":"31.16126","category":"38","category_name":"公交车站","address":""},{"poiid":"B2094654DA6BABFB409A","title":"新城逸境园","lon":"121.13385","lat":"31.157528","category":"47","category_name":"住宅区","address":"上海市青浦区华科路路255弄"},{"poiid":"B209475CDA69A2FF469F","title":"爱摩卡iMocha","lon":"121.151458","lat":"31.157182","category":"247","category_name":"餐饮美食","address":"青浦区华科东路180弄15号"},{"poiid":"B209475DD768ABF84699","title":"龙湖紫都城","lon":"121.15156168","lat":"31.16153242","category":"47","category_name":"住宅区","address":"青浦新城汇金路与盈港东路交汇处"},{"poiid":"B2094654DA6BABFA4392","title":"佳乐苑活动中心","lon":"121.144","lat":"31.16412","category":"248","category_name":"生活娱乐","address":"华盈路685弄"},{"poiid":"B2094752D46AA2F8489D","title":"中国农业银行青浦支行营业部","lon":"121.13973","lat":"31.159605","category":"150","category_name":"银行","address":"青浦区公园路6-36号(公园路外青松公路)"},{"poiid":"B2094655D36CA0FB489E","title":"汇金路华盈路","lon":"121.1518","lat":"31.16338","category":"38","category_name":"公交车站","address":""},{"poiid":"B2094751D26DA2FF479C","title":"新城盛景E区","lon":"121.148956","lat":"31.154642","category":"47","category_name":"住宅区","address":"崧文路299弄"},{"poiid":"B2094757D16EA3FF4299","title":"青浦区博物馆","lon":"121.133225135","lat":"31.1536129838","category":"179","category_name":"音乐厅","address":"青浦区青浦镇华青南路1000号"},{"poiid":"B2094654DA6BA4FB4692","title":"青浦区妇幼保健所","lon":"121.13654","lat":"31.15747","category":"162","category_name":"医院","address":"青浦区沙埭浜路140号(近青安路)"},{"poiid":"B2094654DA6BABFA479C","title":"青浦区血站","lon":"121.13654","lat":"31.15747","category":"162","category_name":"医院","address":"华科路550弄"},{"poiid":"B2094654DA6BA4FB469D","title":"青浦区医疗救护站","lon":"121.13654","lat":"31.15747","category":"162","category_name":"医院","address":"华科路550弄"},{"poiid":"B2094757D568AAF5499E","title":"中华印刷办公楼","lon":"121.14584","lat":"31.16991","category":"46","category_name":"楼宇","address":"汇金路889号"},{"poiid":"B2094757D16CA5FB4698","title":"公园大观","lon":"121.14201355","lat":"31.1516609192","category":"196","category_name":"公园","address":"上海公园东路1688弄"},{"poiid":"B2094654DA6BA0FF4893","title":"蓬莱山庄","lon":"121.136","lat":"31.1504","category":"47","category_name":"住宅区","address":"青湖路666弄"},{"poiid":"B2094654DA6BABFA479F","title":"上海市青浦区卫生学校","lon":"121.13653","lat":"31.15747","category":"54","category_name":"职业技术学校","address":"华科路550弄"},{"poiid":"B2094752D26FABF84593","title":"巴黎纯K量贩式KTV","lon":"121.134186","lat":"31.146301","category":"170","category_name":"KTV","address":"上海市青浦区华青南路511号"},{"poiid":"B2094654DB69A5F9489D","title":"真锅咖啡(青浦夏阳湖店)","lon":"121.1351","lat":"31.15087","category":"65","category_name":"咖啡厅","address":"青浦区华青路767号二楼(青浦博物馆对面)"},{"poiid":"B2094654DA6BA4FF489C","title":"老人公寓","lon":"121.13729","lat":"31.15461","category":"47","category_name":"住宅区","address":"虹漕南路601号"},{"poiid":"B2094654DA6BA4FB4393","title":"新青浦红枫苑","lon":"121.13917","lat":"31.153595","category":"47","category_name":"住宅区","address":"公园东路1128号"},{"poiid":"B2094654DA6BABFB409C","title":"青浦工业园区固体废物处理站","lon":"121.13454","lat":"31.16228","category":"45","category_name":"产业园区","address":"华浦路480"},{"poiid":"B2094654DA6BABFB409B","title":"青浦信息大楼","lon":"121.13443","lat":"31.15371","category":"46","category_name":"楼宇","address":"公园东路1818号"},{"poiid":"B2094655D26BA1F54199","title":"青浦民防大楼","lon":"121.1401","lat":"31.15128","category":"46","category_name":"楼宇","address":"青舟路200号"},{"poiid":"B2094654DA6BABFB409D","title":"中纺科技创业园","lon":"121.13439","lat":"31.16283","category":"45","category_name":"产业园区","address":""},{"poiid":"B2094654DA6BABFA409D","title":"梦丹苑","lon":"121.13171","lat":"31.146254","category":"47","category_name":"住宅区","address":"青湖路4625弄"},{"poiid":"B2094655D36CA7FC499A","title":"华科路华青路","lon":"121.13188","lat":"31.15698","category":"38","category_name":"公交车站","address":""},{"poiid":"B2094654DA6BABFA479E","title":"上海市青浦区卫生人才培训中心","lon":"121.13653","lat":"31.15747","category":"190","category_name":"培训机构","address":"华科路550弄"},{"poiid":"B2094654DA6BA4FF499F","title":"新青浦中心医院","lon":"121.13543","lat":"31.15442","category":"162","category_name":"医院","address":"青浦区公园东路1158号"},{"poiid":"B2094654DA6BABFB4092","title":"汉森工业城","lon":"121.13404","lat":"31.16251","category":"45","category_name":"产业园区","address":"华浦路555"},{"poiid":"B2094757D164A7FF4492","title":"青浦区人民检察院","lon":"121.142814435","lat":"31.1508599801","category":"608","category_name":"法院","address":"上海青浦区华乐路399号"},{"poiid":"B2094654DA6BABFA4992","title":"好德(华科路)","lon":"121.13385","lat":"31.15744","category":"117","category_name":"便民商店/便利店","address":""},{"poiid":"B2094655D36CA7FC4999","title":"华科路","lon":"121.13381","lat":"31.15729","category":"38","category_name":"公交车站","address":""},{"poiid":"B2094655D36CA0F8439C","title":"教育局","lon":"121.13636","lat":"31.15244","category":"38","category_name":"公交车站","address":""},{"poiid":"B2094655D36CA2F8429F","title":"青浦","lon":"121.13483","lat":"31.15345","category":"38","category_name":"公交车站","address":""},{"poiid":"B2094654DA6BA4FB449A","title":"青浦区科技创业中心","lon":"121.13912","lat":"31.15308","category":"248","category_name":"生活娱乐","address":"公园东路1155号"},{"poiid":"B2094654DA6BABFA439B","title":"上海市人才发展服务中心青浦中心","lon":"121.13951","lat":"31.15142","category":"252","category_name":"楼宇机构","address":""},{"poiid":"B2094654DA6BA4FB459C","title":"上海市青浦夏雨幼儿园","lon":"121.14222","lat":"31.14905","category":"57","category_name":"幼儿园","address":"青浦区华乐路301号"},{"poiid":"B2094654DA6BABFB4698","title":"六安超市","lon":"121.15015","lat":"31.15032","category":"118","category_name":"超级市场","address":""},{"poiid":"B2094655D36CA7FC489C","title":"华乐路青湖路","lon":"121.14244","lat":"31.14891","category":"38","category_name":"公交车站","address":""},{"poiid":"B2094757D165A2F5409F","title":"里浜","lon":"121.151000538","lat":"31.1516154799","category":"500","category_name":"未知分类","address":"上海公园东路里浜"},{"poiid":"B2094757D16EA3F8479B","title":"青浦区水务局","lon":"121.14009857","lat":"31.151664733","category":"500","category_name":"未知分类","address":"上海青浦区青舟路220号"},{"poiid":"B2094757D568A4FB4998","title":"巴黎之夜","lon":"121.13402018","lat":"31.14663628","category":"170","category_name":"KTV","address":"青浦区华青南路511号(近青湖路)"},{"poiid":"B2094757D464A7FF4792","title":"华青乡下菜","lon":"121.13297","lat":"31.15616","category":"76","category_name":"上海菜","address":"青浦区华青北路3号(近青浦电视台)"},{"poiid":"B2094752D468A2FD479C","title":"复旦大学附属中山医院","lon":"121.134083","lat":"31.153352","category":"162","category_name":"医院","address":null},{"poiid":"B2094654D569A0F9439D","title":"意帝皮毛科技(上海)有限公司","lon":"121.13926","lat":"31.16972","category":"263","category_name":"公司","address":"新水路9"},{"poiid":"B2094757D169A3FB419A","title":"金宝贝早教青浦中心","lon":"121.135597113","lat":"31.1539860578","category":"190","category_name":"培训机构","address":"青浦区公园东路1590号3楼(近华青路)"},{"poiid":"B2094655D36DA7F44499","title":"崧泽大道汇金路","lon":"121.15216","lat":"31.17498","category":"38","category_name":"公交车站","address":""},{"poiid":"B2094757D064A4FE489B","title":"上岛咖啡(青湖路店)","lon":"121.134193571","lat":"31.1456604768","category":"65","category_name":"咖啡厅","address":"青浦区青湖路879号(近华青南路)"},{"poiid":"B2094751D56CA0F5459D","title":"屋企汤馆(青龙路店)","lon":"121.13623","lat":"31.14746","category":"257","category_name":"中餐厅","address":"青浦区青龙路55号"},{"poiid":"B2094757D46AA4F94699","title":"太麻里台湾私房牛肉面馆 青湖店","lon":"121.133558","lat":"31.145971","category":"91","category_name":"台湾菜","address":"青浦区青湖路914号"},{"poiid":"B2094655D36CA1FB4893","title":"里浜","lon":"121.15489","lat":"31.15071","category":"38","category_name":"公交车站","address":""},{"poiid":"B2094654DA6BA6F84592","title":"新青浦花苑华源别墅","lon":"121.131","lat":"31.1584","category":"47","category_name":"住宅区","address":"体育场路68弄"},{"poiid":"B2094750D565A5F4479B","title":"宝燕海鲜酒楼","lon":"121.13417","lat":"31.146339","category":"247","category_name":"餐饮美食","address":"青浦区华青南路505号(清湖路口)"},{"poiid":"B2094654DA6BA4FF489F","title":"供电局调节调度大楼","lon":"121.13227","lat":"31.15302","category":"46","category_name":"楼宇","address":""},{"poiid":"B2094654DA6BABFA4293","title":"锦泽苑","lon":"121.13998","lat":"31.146652","category":"47","category_name":"住宅区","address":"华浦南路688弄"},{"poiid":"B2094654DA6BA4FB459B","title":"多味坊土菜馆","lon":"121.13249","lat":"31.14557","category":"257","category_name":"中餐厅","address":"青浦区青湖路945号"},{"poiid":"B2094655D36CA7FC449E","title":"华青路新达路","lon":"121.13009","lat":"31.16823","category":"38","category_name":"公交车站","address":""},{"poiid":"B2094757D16EA5FC4493","title":"吉祥馄饨(青湖路店)","lon":"121.1334247","lat":"31.1457509","category":"68","category_name":"快餐厅","address":"青浦区青湖路917号"},{"poiid":"B2094654DA6BA7F4439C","title":"界泾港新村","lon":"121.128","lat":"31.1629","category":"47","category_name":"住宅区","address":"浦仓路648弄"},{"poiid":"B2094654DA6BA0F84698","title":"佳佳宾馆","lon":"121.12803","lat":"31.15657","category":"250","category_name":"公园户外","address":"上海市青浦区华科路109号"},{"poiid":"B2094654DA6BA1F4459B","title":"上海市青浦区行政学院(华科路)","lon":"121.12869","lat":"31.1562","category":"52","category_name":"高等院校","address":"青浦区华科路158号"},{"poiid":"B2094655D36CA7FC4599","title":"华青路青舟路","lon":"121.13385","lat":"31.15021","category":"38","category_name":"公交车站","address":""},{"poiid":"B2094757D168A7FD4493","title":"夏阳湖","lon":"121.134762","lat":"31.146866","category":"500","category_name":"未知分类","address":"上海华浦南路699弄13#802"},{"poiid":"B2094757D66FA7FD4899","title":"青浦","lon":"121.133141","lat":"31.154125","category":"500","category_name":"未知分类","address":"上海华青路青浦电信局"},{"poiid":"B2094654DA6BA4FB4498","title":"上海众杰塑料制品有限公司","lon":"121.15283","lat":"31.15087","category":"263","category_name":"公司","address":"公园东路399号"},{"poiid":"B2094654DA6BABFA4693","title":"青浦区规划展示馆","lon":"121.13361","lat":"31.15009","category":"183","category_name":"展览馆","address":"华青南路767号"},{"poiid":"B2094757D164A3F4489D","title":"青浦区人才交流中心","lon":"121.130759055","lat":"31.1611806415","category":"500","category_name":"未知分类","address":"青浦区青舟路220号"},{"poiid":"B2094654DA6BABFA4793","title":"上海电视台青浦记者站","lon":"121.13175","lat":"31.1529","category":"59","category_name":"电视台","address":"公园东路1828号"},{"poiid":"B2094654DA6BA0F84593","title":"克丽缇娜专业美容护肤中心华科店","lon":"121.12908","lat":"31.1567","category":"148","category_name":"美容美发店","address":""},{"poiid":"B2094654D569A1FB499F","title":"青浦区香花桥街道袁家村","lon":"121.13446","lat":"31.170584","category":"47","category_name":"住宅区","address":"新业路599号"},{"poiid":"B2094654D569A0F94399","title":"袁家村","lon":"121.1343","lat":"31.17038","category":"47","category_name":"住宅区","address":""},{"poiid":"B2094757D164A4FD499E","title":"青浦区规划局","lon":"121.133886335","lat":"31.150242768","category":"500","category_name":"未知分类","address":"上海华青南路777号"},{"poiid":"B2094654DA6BA6FF429E","title":"嘉憬河畔公寓","lon":"121.125773","lat":"31.161","category":"47","category_name":"住宅区","address":"青安路408弄1-26号"},{"poiid":"B2094654DA6BA4FB459F","title":"上海教科院豫英实验学校","lon":"121.14059","lat":"31.14549","category":"55","category_name":"中学","address":"青湖路459号"},{"poiid":"B2094757D16DABFE479F","title":"四海游龙(青湖路店)","lon":"121.1333","lat":"31.14572","category":"87","category_name":"特色／地方风味餐厅","address":"上海近郊青浦区青湖路902号东侧(近外青松公路)  "},{"poiid":"B2094757D064A1FD4798","title":"运杰城市花园","lon":"121.136759041","lat":"31.1439934034","category":"252","category_name":"楼宇机构","address":"上海市宝山区聚丰园路303号"},{"poiid":"B2094757D66CA7F9409F","title":"青浦区实验小学东部(豫英学校)","lon":"121.137971671","lat":"31.1443182499","category":"500","category_name":"未知分类","address":"上海市青浦区青湖路459号"},{"poiid":"B2094757D66CA7F8489D","title":"天鲜酒家","lon":"121.1521","lat":"31.14686","category":"247","category_name":"餐饮美食","address":"上海近郊朱家角沪青平公路6666号  "},{"poiid":"B2094757D56EA0FA489E","title":"重庆鸡公煲(青湖路店)","lon":"121.1343527","lat":"31.14579425","category":"71","category_name":"四川菜","address":"青浦区青湖路"},{"poiid":"B2094757D66CA5F8459D","title":"青浦电视台","lon":"121.131744","lat":"31.152905","category":"500","category_name":"未知分类","address":"上海青浦公园东路1828号"},{"poiid":"B2094757D16AA3FE4792","title":"全家FamilyMart (青湖路店)","lon":"121.136833671","lat":"31.1451132658","category":"500","category_name":"未知分类","address":"上海青浦区青湖路942号"},{"poiid":"B2094655D36DA0FE449D","title":"信息学院","lon":"121.13054","lat":"31.15208","category":"38","category_name":"公交车站","address":""},{"poiid":"B2094654DA6BA0F84699","title":"联华(华科路)","lon":"121.12834","lat":"31.15662","category":"118","category_name":"超级市场","address":"华科路129"},{"poiid":"B2094757D06AA5FC429A","title":"青浦工业园区","lon":"121.133189","lat":"31.15176","category":"252","category_name":"楼宇机构","address":"上海青浦城区"},{"poiid":"B2094757D16EAAF94992","title":"鼎萃食坊(桥梓湾店)","lon":"121.12837","lat":"31.1509","category":"247","category_name":"餐饮美食","address":"青浦区公园路666弄11号桥梓湾购物中心广场外圈(聚星街公园路)"},{"poiid":"B2094757D164ABFF479A","title":"青浦电信局","lon":"121.13128423","lat":"31.154126593","category":"500","category_name":"未知分类","address":"上海青浦区公园东路1818号"},{"poiid":"B2094654DA6BABFA469C","title":"亲水半岛苑","lon":"121.1328","lat":"31.148996","category":"47","category_name":"住宅区","address":"华青南路677弄"},{"poiid":"B2094757D168A2FF4092","title":"静怡花园","lon":"121.13539","lat":"31.14737","category":"47","category_name":"住宅区","address":"青浦区青龙路35号(近青湖路)"},{"poiid":"B2094757D169ABF5489C","title":"新城海鲜酒楼","lon":"121.135701671","lat":"31.1454002716","category":"247","category_name":"餐饮美食","address":"青浦区青湖路802号(近运杰城市花园)"},{"poiid":"B2094654D569A0FF489D","title":"上海肯益恩机电有限公司","lon":"121.13568","lat":"31.17058","category":"263","category_name":"公司","address":"新业路599"},{"poiid":"B2094654DA6BA4FB479A","title":"安利(中国)日用品有限公司青浦店","lon":"121.12984","lat":"31.15684","category":"255","category_name":"专卖店","address":"华科路205"},{"poiid":"B2094654DB65A7FF469F","title":"巴比馒头 青湖路店 Babi Food","lon":"121.13336","lat":"31.14584","category":"87","category_name":"特色／地方风味餐厅","address":"青浦区青湖路910号(近华青南路)"},{"poiid":"B2094655D36DA7F44492","title":"崧泽大道新技路","lon":"121.13445","lat":"31.17485","category":"38","category_name":"公交车站","address":""},{"poiid":"B2094654DA6BA4FB449D","title":"英威达纤维(上海)有限公司","lon":"121.1299","lat":"31.16429","category":"263","category_name":"公司","address":"华青路603"},{"poiid":"B2094654DA6BABFA479A","title":"上海青浦新城区建设发展(集团)有限公司","lon":"121.13318","lat":"31.15175","category":"263","category_name":"公司","address":"华青南路777号"},{"poiid":"B2094654DA6BABFA419C","title":"淞浦花园","lon":"121.13844","lat":"31.144131","category":"47","category_name":"住宅区","address":"华浦南路358弄"},{"poiid":"B209475DD46FA0FD499B","title":"珑料理 怀石","lon":"121.133659","lat":"31.146356","category":"247","category_name":"餐饮美食","address":"上海市 上海市青浦区华青南路505号"},{"poiid":"B2094757D16AA6FC409A","title":"汤士家汤馆","lon":"121.13625857","lat":"31.145980683","category":"247","category_name":"餐饮美食","address":"上海青浦"},{"poiid":"B2094757D169A0F8479A","title":"党校","lon":"121.12848603","lat":"31.156227984","category":"500","category_name":"未知分类","address":"上海市青浦区盈港路"},{"poiid":"B2094757D16AA1FA459C","title":"至尊园陵园","lon":"121.135211","lat":"31.150872","category":"620","category_name":"丧葬","address":"上海青浦区"},{"poiid":"B2094654DB69A5F84793","title":"文峰美容美发(青湖路店)","lon":"121.13498","lat":"31.1456","category":"148","category_name":"美容美发店","address":"青浦区青湖路799号"},{"poiid":"B2094654D569A1FA429B","title":"河村电子(上海)有限公司","lon":"121.14785","lat":"31.17468","category":"263","category_name":"公司","address":"崧泽大道7985"},{"poiid":"B209475CDB6AAAF5419A","title":"Le Papillon","lon":"121.135482","lat":"31.147533","category":"500","category_name":"未知分类","address":"上海市 青龙路"},{"poiid":"B2094654D569A1FA4298","title":"特吕茨施勒纺织机械(上海)有限公司","lon":"121.15146","lat":"31.17381","category":"263","category_name":"公司","address":"汇金路1033号"},{"poiid":"B2094757D06AABF9449D","title":"THE NORTH FACE(奥特莱斯店)","lon":"121.131796071","lat":"31.1473455106","category":"140","category_name":"体育用品店","address":"上海近郊青浦区沪青平公路2888号奥特莱斯B149(近嘉松中路)  "},{"poiid":"B209475DD169A1FA4293","title":"蝴蝶","lon":"121.132865","lat":"31.147716","category":"249","category_name":"购物服务","address":"上海市 青湖路"},{"poiid":"B2094654DB6BA1FB419A","title":"青浦工业园区","lon":"121.1434","lat":"31.17469","category":"263","category_name":"公司","address":"新区路409号"},{"poiid":"B2094757D069AAF5449B","title":"中国馆低碳行动","lon":"121.14277358","lat":"31.175412907","category":"253","category_name":"校园生活","address":"上海中国国家馆第三展区"},{"poiid":"B2094655D36CA2F84199","title":"青湖路华青路","lon":"121.13242","lat":"31.14581","category":"38","category_name":"公交车站","address":""},{"poiid":"B2094654D569A1FA429F","title":"上海当纳利印刷有限公司","lon":"121.15653","lat":"31.17267","category":"263","category_name":"公司","address":""},{"poiid":"B2094757D66CAAFE409A","title":"汤仕儫汤馆","lon":"121.13555866","lat":"31.145636736","category":"247","category_name":"餐饮美食","address":"上海近郊青浦区青湖路789号"},{"poiid":"B2094654DA6BABFA4792","title":"青浦区夏阳街道敬老院","lon":"121.13085","lat":"31.15348","category":"615","category_name":"敬老院","address":"公园路2026弄22号"},{"poiid":"B2094654D569A0F9449F","title":"上海河村电器有限公司","lon":"121.14785","lat":"31.17469","category":"263","category_name":"公司","address":"崧泽大道7985"},{"poiid":"B2094655D36CA2F8419E","title":"青湖路梦丹苑","lon":"121.13243","lat":"31.14578","category":"38","category_name":"公交车站","address":""},{"poiid":"B2094654DA6BABFA459C","title":"好德(青湖路)","lon":"121.13211","lat":"31.14599","category":"117","category_name":"便民商店/便利店","address":"青湖路954"},{"poiid":"B2094757D66DA5F5419E","title":"青浦给水排水管理所","lon":"121.13064633","lat":"31.151643795","category":"500","category_name":"未知分类","address":"上海胜利路23号"},{"poiid":"B2094757D66EA6FD459C","title":"高田(上海)汽配制造有限公司","lon":"121.14734233","lat":"31.178316016","category":"263","category_name":"公司","address":"上海青浦工业园区崧泽大道8000号"},{"poiid":"B2094654DB6AA6FD499E","title":"凇浦花园","lon":"121.13786","lat":"31.14418","category":"47","category_name":"住宅区","address":"青浦区镇华浦南路358弄"},{"poiid":"B2094757D66CA7FB4599","title":"藏书羊肉馆","lon":"121.136902681","lat":"31.1448288401","category":"247","category_name":"餐饮美食","address":"上海近郊青浦区华青路附近"},{"poiid":"B2094654D569A0F9449E","title":"高田(上海)汽车安全装置有限公司","lon":"121.14975","lat":"31.17512","category":"263","category_name":"公司","address":"崧泽大道8000"},{"poiid":"B2094654DA6BABFB459E","title":"中国银行上海市青湖路支行","lon":"121.13542","lat":"31.14601","category":"150","category_name":"银行","address":"青湖路822"},{"poiid":"B2094654D569A1FB4798","title":"上海涂料有限公司开林造漆厂","lon":"121.14074","lat":"31.17509","category":"263","category_name":"公司","address":"崧泽大道8388"},{"poiid":"B2094654DB69A6FF4892","title":"青南(东)","lon":"121.13448","lat":"31.14453","category":"47","category_name":"住宅区","address":"青浦区华青南路99弄"},{"poiid":"B2094654D569A1FB479B","title":"上海日比野压铸有限公司","lon":"121.13894","lat":"31.17509","category":"263","category_name":"公司","address":"新区路516"},{"poiid":"B2094757D66CA0FB499E","title":"吉祥馄饨青浦店","lon":"121.13615907","lat":"31.145978083","category":"500","category_name":"未知分类","address":"上海青湖路"},{"poiid":"B2094750DA65A3FD409F","title":"艾尼国际美容美发","lon":"121.134162","lat":"31.146316","category":"148","category_name":"美容美发店","address":"青湖路"},{"poiid":"B2094757D164A5FD4593","title":"游趣吧桌游","lon":"121.13619527","lat":"31.146001783","category":"248","category_name":"生活娱乐","address":"青浦区青湖路789弄15号(近轩皇球房)"},{"poiid":"B2094654D569A1FB4693","title":"巴克曼实验室化工(上海)有限公司","lon":"121.13745","lat":"31.17506","category":"263","category_name":"公司","address":"新区路550"},{"poiid":"B2094654D569A1FB459B","title":"亚士漆(上海)有限公司","lon":"121.144","lat":"31.17987","category":"263","category_name":"公司","address":"新涛路28"},{"poiid":"B2094654D569A1FB4692","title":"上海罗门哈斯化工有限公司","lon":"121.13545","lat":"31.1746","category":"263","category_name":"公司","address":"新区路601"},{"poiid":"B2094757D168A2FE449C","title":"青浦区疾病预防控制中心","lon":"121.13675904","lat":"31.143993403","category":"902","category_name":"楼宇机构","address":"上海青浦区华科路550弄"},{"poiid":"B2094757D66EA5FE429B","title":"王保长","lon":"121.12839603","lat":"31.151020883","category":"500","category_name":"未知分类","address":"上海青浦区"},{"poiid":"B2094757D66CA2F54699","title":"五角场百联大城","lon":"121.131835271","lat":"31.1473415105","category":"500","category_name":"未知分类","address":"上海淞沪路8号百联又一城7楼"},{"poiid":"B2094752D064ABFB469B","title":"奥特莱斯","lon":"121.160352","lat":"31.149919","category":"500","category_name":"未知分类","address":null},{"poiid":"B2094654D569A1FF419B","title":"上海大宫新材料有限公司","lon":"121.12754","lat":"31.16817","category":"263","category_name":"公司","address":"新达路836"},{"poiid":"B2094757D064A5FE499B","title":"南桥绿地老街","lon":"121.133752","lat":"31.145592","category":"500","category_name":"未知分类","address":"上海环城东路885弄"},{"poiid":"B2094654D569A1FB499A","title":"上海煤科院运输机械制造有限公司","lon":"121.12985","lat":"31.17254","category":"263","category_name":"公司","address":"华青路815号"},{"poiid":"B2094654D569A1FB4893","title":"赛德家庭用品(上海)有限公司","lon":"121.13027","lat":"31.17259","category":"263","category_name":"公司","address":"华青路818号"}]