[{"poiid":"B2094654DB65A5FC449C","title":"上海蓝海博龙国际大酒店","lon":"121.5608","lat":"31.1898","category":"247","category_name":"餐饮美食","address":"浦东新区高科西路2991号(近白杨路)"},{"poiid":"B2094757D06FA2F8499D","title":"中国建设银行上海市分行培训中心","lon":"121.56188201","lat":"31.192485809","category":"150","category_name":"银行","address":"上海申波路292号"},{"poiid":"B2094757D06BA7FC469F","title":"蓝钻海鲜自助餐厅","lon":"121.56098","lat":"31.18962","category":"268","category_name":"自助","address":"浦东新区高科西路2991号蓝海博龙国际大酒店2楼(近白杨路)"},{"poiid":"B2094757D068A4FA459F","title":"龙象海鲜大酒店","lon":"121.56298268","lat":"31.1800419382","category":"260","category_name":"其他","address":"浦东新区莲溪路579号(新陈路口预计9月底营业)"},{"poiid":"B2094655D36CA1FA4698","title":"莲溪路北中路","lon":"121.56153","lat":"31.18184","category":"38","category_name":"公交车站","address":""},{"poiid":"B2094757D06FAAF8489F","title":"中国建设银行信用卡中心","lon":"121.56121797","lat":"31.193057191","category":"150","category_name":"银行","address":"上海申波路292号"},{"poiid":"B2094750D26FA2FA4099","title":"迪街量贩KTV","lon":"121.556549","lat":"31.182407","category":"170","category_name":"KTV","address":"浦东新区沪南路967号51生活广场4-5楼(北中路口)"},{"poiid":"B2094654DA6AA0F5429A","title":"世外桃源花园别墅小区","lon":"121.56042","lat":"31.18675","category":"47","category_name":"住宅区","address":"上海市浦东新区莲溪路1-189号"},{"poiid":"B2094655D26FA1FD419F","title":"紫叶花园","lon":"121.559","lat":"31.1892","category":"47","category_name":"住宅区","address":"沪南路1105号"},{"poiid":"B2094757D065A2F9499E","title":"上海第三十二机动车安全检测站","lon":"121.566987325","lat":"31.1808566563","category":"500","category_name":"未知分类","address":"上海新陈路678号(北蔡镇中心路口)"},{"poiid":"B2094757D16EA3FF449C","title":"段氏龙虾(莲安东路店)","lon":"121.56079","lat":"31.18057","category":"68","category_name":"快餐厅","address":"浦东新区莲安东路234号(近莲溪路)"},{"poiid":"B2094654DA6AA0F54093","title":"莲溪广场","lon":"121.56124","lat":"31.18358","category":"202","category_name":"公园广场","address":"上海莲溪路北中路"},{"poiid":"B2094654DA6AA0F4499E","title":"聚丰港海鲜酒楼","lon":"121.56662","lat":"31.18271","category":"88","category_name":"海鲜酒楼","address":"浦东新区北蔡北新路8号(近北中路)"},{"poiid":"B2094757D06BAAFD4399","title":"绿苑垂钓休闲中心","lon":"121.56563","lat":"31.18178","category":"500","category_name":"未知分类","address":"浦东新区北蔡北中路518号(北新路莲安东路)"},{"poiid":"B2094757D06AAAFE4398","title":"坤儒体育馆","lon":"121.56925987","lat":"31.187941651","category":"633","category_name":"商务服务类公司","address":"浦东新区镇中心路185号(近高科西路)"},{"poiid":"B2094757D068A4F4449C","title":"蓝海博龙国际大酒店宴会厅","lon":"121.56092","lat":"31.18936","category":"217","category_name":"旅馆招待所","address":"上海浦东新区高科西路2991号(近白杨路)  "},{"poiid":"B2094757D06BA6FE4292","title":"客家小厨 莲安东路店","lon":"121.559373","lat":"31.18074","category":"72","category_name":"广东菜","address":"浦东新区莲安东路180号(近沪南路)"},{"poiid":"B2094655D264A7FA419B","title":"和福重庆烧鸡公火锅","lon":"121.561918054","lat":"31.181295793","category":"71","category_name":"四川菜","address":"浦东新区北蔡莲安东路233号(近莲溪路)"},{"poiid":"B2094654DB64A3F94493","title":"莲溪六村","lon":"121.55984","lat":"31.186941","category":"47","category_name":"住宅区","address":"莲溪路126弄1-42号"},{"poiid":"B2094654DA6AA7FD4298","title":"东东骨头王火锅城 莲安东路店","lon":"121.56105283032","lat":"31.181745544619","category":"86","category_name":"火锅店","address":"浦东新区莲安东路279号(莲安东路莲溪路)"},{"poiid":"B2094751DA6CA7F8429F","title":"浦东八佰伴","lon":"121.558891","lat":"31.18582","category":"247","category_name":"餐饮美食","address":null},{"poiid":"B2094655D36CA1FB419D","title":"莲安东路莲中路","lon":"121.55914","lat":"31.18089","category":"38","category_name":"公交车站","address":""},{"poiid":"B2094654DB6AA3FA449E","title":"阿辉家常菜","lon":"121.55949606849","lat":"31.181506471242","category":"257","category_name":"中餐厅","address":"浦东新区莲安东路209号(近莲中路)"},{"poiid":"B2094654DA6AA7FC469D","title":"东莲大厦","lon":"121.563","lat":"31.1856","category":"46","category_name":"楼宇","address":"沪南公路1101号"},{"poiid":"B2094654DB69ABFA469A","title":"申花酒店(新国际博览中心店)","lon":"121.56223","lat":"31.19116","category":"216","category_name":"经济型连锁酒店","address":"浦东新区申波路398号(近芳华路)"},{"poiid":"B2094655D36DA7FF4993","title":"中界","lon":"121.5673","lat":"31.19024","category":"38","category_name":"公交车站","address":""},{"poiid":"B2094750D268A7F8439A","title":"北蔡休闲绿地","lon":"121.567054","lat":"31.186305","category":"250","category_name":"公园户外","address":null},{"poiid":"B2094654DA6AA0F54198","title":"北中路480弄小区","lon":"121.5632","lat":"31.18411","category":"47","category_name":"住宅区","address":"北中路480弄11"},{"poiid":"B2094654DA6AA0F54399","title":"华佳花园","lon":"121.56171","lat":"31.18931","category":"47","category_name":"住宅区","address":"华佳花园(现房)位于浦东北蔡川北公路308号"},{"poiid":"B2094654DA6AA7FC489C","title":"唐记传菜馆","lon":"121.55902","lat":"31.18093","category":"76","category_name":"上海菜","address":"浦东新区莲安东路157号(近沪南路)"},{"poiid":"B2094654DA6AA0F5409E","title":"莲怡苑","lon":"121.560699","lat":"31.188721","category":"47","category_name":"住宅区","address":"莲怡苑位于浦东莲安东路367弄"},{"poiid":"B2094654DA6AA0F54193","title":"莲馨苑","lon":"121.56139","lat":"31.185982","category":"47","category_name":"住宅区","address":"莲园路630弄1-88号"},{"poiid":"B2094751DA6EABFC4093","title":"泰妃阁","lon":"121.558899","lat":"31.185818","category":"247","category_name":"餐饮美食","address":"浦东南路999号新梅联合广场"},{"poiid":"B2094757D064A3FA459E","title":"大胡子老北京热气羊肉","lon":"121.55762","lat":"31.18019","category":"86","category_name":"火锅店","address":"浦东新区莲安东路222号(近莲中路)"},{"poiid":"B2094654DA6AA0F4489F","title":"莲杨苑","lon":"121.56219","lat":"31.17672","category":"47","category_name":"住宅区","address":"莲溪路780弄1-53号"},{"poiid":"B2094751DA69A4FE409F","title":"港丽餐厅","lon":"121.558891","lat":"31.185814","category":"247","category_name":"餐饮美食","address":"浦东新梅广场"},{"poiid":"B2094655D36CA1FB4298","title":"莲安东路","lon":"121.5593","lat":"31.1809","category":"38","category_name":"公交车站","address":""},{"poiid":"B2094757D064AAFA449F","title":"北蔡幼儿园","lon":"121.561503975","lat":"31.1829724557","category":"57","category_name":"幼儿园","address":"上海北中路455号"},{"poiid":"B2094654DA6AA7FC4298","title":"莲溪大楼","lon":"121.56049","lat":"31.18369","category":"46","category_name":"楼宇","address":"北中路354弄1-28号"},{"poiid":"B2094654DA6AA0F4499A","title":"上海浦优会务中心","lon":"121.56536","lat":"31.18206","category":"185","category_name":"会展中心","address":"北中路518弄"},{"poiid":"B2094757D16CA3FB4798","title":"爱情麻辣烫(莲安东路店)","lon":"121.56158","lat":"31.18069","category":"68","category_name":"快餐厅","address":"浦东新区莲安东路(近莲溪路)"},{"poiid":"B2094655D36CA5F4469D","title":"北新路新陈路","lon":"121.56569","lat":"31.18099","category":"38","category_name":"公交车站","address":""},{"poiid":"B2094757D66BA6FD499B","title":"蜀乡缘川菜馆","lon":"121.562047","lat":"31.18165","category":"71","category_name":"四川菜","address":"浦东新区莲安东路216号(近莲中路)"},{"poiid":"B2094757D069ABF4489F","title":"上海浦东国际机场快件监管中心","lon":"121.5616085","lat":"31.192903714","category":"46","category_name":"楼宇","address":"上海浦东机场海天五路600#"},{"poiid":"B2094654DA6AA7FD4293","title":"克莉丝汀 莲安东路店","lon":"121.561341054","lat":"31.181496793","category":"112","category_name":"糕饼店","address":"浦东新区莲安东路271-273号(近莲溪路)"},{"poiid":"B2094655D36CA1FA4592","title":"莲溪路莲园路","lon":"121.56031","lat":"31.18641","category":"38","category_name":"公交车站","address":""},{"poiid":"B2094655D36CA1FA4699","title":"莲溪路莲安东路","lon":"121.56176","lat":"31.18139","category":"38","category_name":"公交车站","address":""},{"poiid":"B2094654DA6AA0F5409F","title":"莲溪路399弄1-36号小区","lon":"121.56145","lat":"31.18297","category":"47","category_name":"住宅区","address":"莲溪路399弄1-36号"},{"poiid":"B2094757D569A1FE499E","title":"新家静品","lon":"121.562232","lat":"31.187394","category":"47","category_name":"住宅区","address":"新家静品位于浦东沪南路1101号808室"},{"poiid":"B2094757D66EA4FF439A","title":"博士蛙365","lon":"121.559420975","lat":"31.182640948","category":"500","category_name":"未知分类","address":"上海浦东沪南路北中路"},{"poiid":"B2094655D36CA1FA459D","title":"莲园路","lon":"121.56009","lat":"31.18692","category":"38","category_name":"公交车站","address":""},{"poiid":"B2094654DA6AA5FF4699","title":"浦之天宾馆","lon":"121.56536","lat":"31.18205","category":"250","category_name":"公园户外","address":"浦东新区北中路518弄1号"},{"poiid":"B2094757D464A0FB489A","title":"湘味川土菜馆 莲安东路店","lon":"121.55911261861","lat":"31.181426887356","category":"71","category_name":"四川菜","address":"浦东新区莲安东路162号(近莲溪路)"},{"poiid":"B2094751DA6EA2F5419D","title":"上海歌城八佰伴店","lon":"121.565774","lat":"31.189696","category":"500","category_name":"未知分类","address":null},{"poiid":"B2094757D069A4F4419B","title":"世外桃源","lon":"121.55750097","lat":"31.186546039","category":"500","category_name":"未知分类","address":"上海莲溪路99弄"},{"poiid":"B2094654DA6AA7FD439B","title":"莲溪路550弄3-46号小区","lon":"121.56175","lat":"31.18073","category":"47","category_name":"住宅区","address":"莲溪路550弄3-46号"},{"poiid":"B2094757D169A6FF479F","title":"工商银行北蔡支行","lon":"121.560420975","lat":"31.1854610139","category":"150","category_name":"银行","address":"上海市浦东新区莲溪路莲园路"},{"poiid":"B2094757D16FA3F8499E","title":"贝啦自助铁板烤肉","lon":"121.56000397","lat":"31.187272056","category":"257","category_name":"中餐厅","address":"上海市浦东新区高科西路莲溪路"},{"poiid":"B2094757DA64A2F4459B","title":"莲泰苑底商","lon":"121.563721","lat":"31.180736","category":"47","category_name":"住宅区","address":"浦东新区北蔡新陈路303弄"},{"poiid":"B2094654DA6AA7FC4299","title":"好德NO.737","lon":"121.56045","lat":"31.1842","category":"117","category_name":"便民商店/便利店","address":""},{"poiid":"B2094757D16DA2F84993","title":"重庆鸡公煲 北蔡店","lon":"121.561425054","lat":"31.181219793","category":"71","category_name":"四川菜","address":"浦东新区莲安东路190号(近莲溪路)"},{"poiid":"B2094757D16AA2FF4292","title":"地铁德平路车控室","lon":"121.571118975","lat":"31.1859690257","category":"46","category_name":"楼宇","address":"上海市浦东新区张扬路德平路"},{"poiid":"B2094654DA6AA5FF4999","title":"罗森(浦东新区莲溪小学东)","lon":"121.56017","lat":"31.18416","category":"117","category_name":"便民商店/便利店","address":""},{"poiid":"B2094655D36CA4FD409C","title":"白杨路高科西路","lon":"121.55937","lat":"31.19019","category":"38","category_name":"公交车站","address":""},{"poiid":"B2094752DB6DA4FB4893","title":"上海市浦东新区图书馆","lon":"121.571365","lat":"31.185898","category":"500","category_name":"未知分类","address":"上海市 浦东新区锦绣路"},{"poiid":"B2094654DA6AA7FD4699","title":"特色小笼馆(洁而挺干洗店东)","lon":"121.55825","lat":"31.1856","category":"68","category_name":"快餐厅","address":"浦东新区莲园路506号(近莲溪路)"},{"poiid":"B2094757D16FAAFC4898","title":"中界村","lon":"121.573780875","lat":"31.1889184947","category":"47","category_name":"住宅区","address":"上海浦东新区北蔡镇中界村"},{"poiid":"B2094750D76DA5FB489F","title":"新招鲜本地鸡窝(莲安东路店)","lon":"121.559","lat":"31.1808","category":"86","category_name":"火锅店","address":"浦东新区莲安东路146号(近莲中路)"},{"poiid":"B2094654DA6AA7FC429E","title":"417弄1-3号小区","lon":"121.56025","lat":"31.18422","category":"47","category_name":"住宅区","address":"北中路417弄1-3号"},{"poiid":"B2094655D36CA6FE429A","title":"高科西路镇中心路","lon":"121.56913","lat":"31.19042","category":"38","category_name":"公交车站","address":""},{"poiid":"B2094654DA6AA0F54698","title":"莲琼苑","lon":"121.56017","lat":"31.178997","category":"47","category_name":"住宅区","address":"新陈路150弄1-46号"},{"poiid":"B2094654DA6AA7FD4492","title":"好德NO.236","lon":"121.56008","lat":"31.18618","category":"117","category_name":"便民商店/便利店","address":"莲园路599"},{"poiid":"B2094654DA6AA0F54098","title":"北蔡卫生院莲安卫生服务点","lon":"121.56242","lat":"31.18151","category":"162","category_name":"医院","address":"莲安东路三六七弄327"},{"poiid":"B2094654DA6AA7FC4092","title":"北中路328弄小区","lon":"121.565","lat":"31.1899","category":"47","category_name":"住宅区","address":"北中路328弄"},{"poiid":"B2094654DA6AA7FD439E","title":"快客No.831(莲溪路)","lon":"121.56149","lat":"31.18154","category":"117","category_name":"便民商店/便利店","address":""},{"poiid":"B2094654DA6AA7FC4398","title":"莲溪二村","lon":"121.55937","lat":"31.185772","category":"47","category_name":"住宅区","address":"北中路383弄1-19号"},{"poiid":"B2094654DA6AA7FC449D","title":"金鼎鸡","lon":"121.558235054","lat":"31.183975793","category":"76","category_name":"上海菜","address":"浦东新区北中路273号(莲中路口)"},{"poiid":"B2094654DA6AA0F5469B","title":"莲鼎苑","lon":"121.56313","lat":"31.17959","category":"47","category_name":"住宅区","address":"新陈路280弄1-25号"},{"poiid":"B2094757D068ABFA4298","title":"莲溪八村","lon":"121.55817","lat":"31.185799","category":"47","category_name":"住宅区","address":"上海莲园路505弄"},{"poiid":"B2094751DA69A5FC4499","title":"tasty西堤牛排（新梅店）","lon":"121.558891","lat":"31.185812","category":"247","category_name":"餐饮美食","address":"浦东新梅联合广场4楼"},{"poiid":"B2094757D16BA7F54793","title":"北蔡北中路480弄","lon":"121.561840975","lat":"31.1834939679","category":"500","category_name":"未知分类","address":"上海北蔡北中路480弄"},{"poiid":"B2094654DA6AA1F44692","title":"联华(华中路)","lon":"121.57023","lat":"31.18755","category":"118","category_name":"超级市场","address":""},{"poiid":"B2094654DA6AA7FD439D","title":"莲溪路430弄1-18号小区","lon":"121.56123","lat":"31.18217","category":"47","category_name":"住宅区","address":"莲溪路430弄1-18号"},{"poiid":"B2094655D36DA2FB489E","title":"中界桥","lon":"121.56843","lat":"31.18877","category":"250","category_name":"公园户外","address":""},{"poiid":"B2094757D66EA4FC439C","title":"福成汽车4S店","lon":"121.56137697","lat":"31.184158983","category":"500","category_name":"未知分类","address":"上海市浦东新区莲溪路1225号"},{"poiid":"B2094757D66CA1FB4698","title":"环龙公寓","lon":"121.55833","lat":"31.189503","category":"47","category_name":"住宅区","address":"上海市闵行区莲花南路1288弄"},{"poiid":"B2094654DA6AA6FA459D","title":"快客(高科西路)","lon":"121.56187","lat":"31.18933","category":"117","category_name":"便民商店/便利店","address":""},{"poiid":"B2094654DB64A3F9479D","title":"克丽缇娜","lon":"121.56251","lat":"31.1808","category":"148","category_name":"美容美发店","address":"浦东新区北蔡莲安东路336号(近莲溪路)"},{"poiid":"B2094654DA6AA7FC429D","title":"新华书店(浦东新区莲溪小学东)","lon":"121.55999","lat":"31.18415","category":"125","category_name":"书店","address":""},{"poiid":"B2094654DA6AA0F5459C","title":"浦东新区北蔡镇西山湾安息堂","lon":"121.56693","lat":"31.18236","category":"248","category_name":"生活娱乐","address":"北蔡镇"},{"poiid":"B2094654DA6AA7FC4198","title":"莲溪一村","lon":"121.55927","lat":"31.183701","category":"47","category_name":"住宅区","address":"上海北中路354弄"},{"poiid":"B2094753DA6AA4FA409C","title":"上海","lon":"121.563407","lat":"31.189523","category":"500","category_name":"未知分类","address":"上海市 外滩"},{"poiid":"B2094757D16EA5FD4192","title":"王中王鸡店(北中路店)","lon":"121.5565","lat":"31.18319","category":"68","category_name":"快餐厅","address":"浦东新区北中路221号(近沪南路)"},{"poiid":"B2094654DA6AA0F54099","title":"北蔡工商所","lon":"121.56172","lat":"31.18211","category":"250","category_name":"公园户外","address":"莲溪路481"},{"poiid":"B2094757D16AA0FA489F","title":"麦当劳飞洲国际店","lon":"121.562981675","lat":"31.18230154","category":"500","category_name":"未知分类","address":"上海零陵路899号地下一层"},{"poiid":"B2094655D36CA6FE429D","title":"高科西路莲溪路","lon":"121.56042","lat":"31.18945","category":"38","category_name":"公交车站","address":""},{"poiid":"B2094654DB69AAF5459D","title":"建行上海市分行科教中心","lon":"121.5621","lat":"31.19142","category":"150","category_name":"银行","address":"上海市浦东新区申波路292号"},{"poiid":"B2094654DA6AA7FC419B","title":"好德NO.304","lon":"121.55901","lat":"31.18376","category":"117","category_name":"便民商店/便利店","address":"北中路352"},{"poiid":"B2094757D16BAAF44198","title":"玉兰小区","lon":"121.55908","lat":"31.180014","category":"47","category_name":"住宅区","address":"上海莲中路337弄"},{"poiid":"B2094757D16BA1FF449D","title":"如意老鸭粉丝汤","lon":"121.55886","lat":"31.18035","category":"68","category_name":"快餐厅","address":"浦东新区莲安东路(莲中路口)"},{"poiid":"B2094654DA6AA0F8409D","title":"上海市华林中学","lon":"121.56217","lat":"31.19369","category":"55","category_name":"中学","address":"浦东新区申波路231号(芳草路申波路)"},{"poiid":"B2094750D164AAFF489E","title":"五星羽毛球馆","lon":"121.563529","lat":"31.179222","category":"248","category_name":"生活娱乐","address":"上海市浦东新区五星支路591号"},{"poiid":"B209475CD66EAAF94992","title":"巫江渔火烤全鱼","lon":"121.559898","lat":"31.181373","category":"247","category_name":"餐饮美食","address":"上海市 北中路北蔡休闲广场"},{"poiid":"B2094654DA6AA5FE499C","title":"特色小笼馆(开泰火锅城西)","lon":"121.55811","lat":"31.18058","category":"68","category_name":"快餐厅","address":"浦东新区莲安东路108号(莲安东路莲中路)"},{"poiid":"B2094655D26AA5F5469C","title":"绝味鸭脖北中路店","lon":"121.55698","lat":"31.18348","category":"68","category_name":"快餐厅","address":"浦东新区北蔡镇北中路210号(近沪南路)"},{"poiid":"B2094654DA6AA7FD489E","title":"莲宏苑","lon":"121.55669","lat":"31.185314","category":"47","category_name":"住宅区","address":"莲园路468弄1-19号"},{"poiid":"B2094654DA6AA0F54293","title":"花木公寓","lon":"121.56076","lat":"31.189203","category":"47","category_name":"住宅区","address":"高科西路2970弄1-4号"},{"poiid":"B2094654DA6AA0F5429D","title":"华安公寓(高科西路)","lon":"121.56024","lat":"31.18915","category":"47","category_name":"住宅区","address":"高科西路2960弄1-4号"},{"poiid":"B2094654DA6AA7F4469E","title":"为您便利","lon":"121.57071","lat":"31.18199","category":"117","category_name":"便民商店/便利店","address":""},{"poiid":"B2094654DA6AA7FC449B","title":"莲溪菜市场(北中路)","lon":"121.55879","lat":"31.18405","category":"117","category_name":"便民商店/便利店","address":"浦东新区北中路383号(北中路莲溪路)"},{"poiid":"B2094757D069A7F94792","title":"上海看守所","lon":"121.55947113","lat":"31.179353714","category":"500","category_name":"未知分类","address":"上海沪南公路1760号"},{"poiid":"B2094654DA6AA7F5449E","title":"中国工商银行(莲溪路)","lon":"121.56024","lat":"31.1858","category":"150","category_name":"银行","address":"北蔡镇"},{"poiid":"B2094757D06BA6F8469D","title":"德妃家","lon":"121.563681975","lat":"31.1890670981","category":"500","category_name":"未知分类","address":"上海高科西路3030弄"},{"poiid":"B2094757D068A3FD499F","title":"798 终点站","lon":"121.560141","lat":"31.184069","category":"500","category_name":"未知分类","address":"上海北中路 莲溪路"},{"poiid":"B2094654DB64A3FA409B","title":"华联超市(高科西路店)","lon":"121.56039","lat":"31.18917","category":"118","category_name":"超级市场","address":"高科西路2960弄"},{"poiid":"B2094654DA68A5FC459C","title":"绿川家园","lon":"121.55921","lat":"31.179408","category":"47","category_name":"住宅区","address":"陈春路221弄1-22号"},{"poiid":"B2094751DB6DABFF439C","title":"子牙烤鱼热气羊肉","lon":"121.5596","lat":"31.18089","category":"269","category_name":"烧烤","address":"浦东新区莲安东路188号(近莲溪路)"},{"poiid":"B209475CD065A3F4439B","title":"阿明小菜 莲安东路店","lon":"121.55904","lat":"31.1807","category":"76","category_name":"上海菜","address":"莲安东路155号(近沪南路)"},{"poiid":"B2094757D065A7F9449C","title":"北蔡镇边","lon":"121.56913","lat":"31.190425","category":"500","category_name":"未知分类","address":"上海高科路镇中心路"},{"poiid":"B2094654DA6AA0F4489E","title":"鹏海东苑","lon":"121.56339","lat":"31.17566","category":"47","category_name":"住宅区","address":"五星路239弄1-85号"},{"poiid":"B2094757D16AA4FE4493","title":"南浦大桥转内环高架","lon":"121.55892097","lat":"31.187647065","category":"260","category_name":"其他","address":"上海市浦东新区高科西路"},{"poiid":"B2094757D66CA0FD4498","title":"莲溪路五星路","lon":"121.57357097","lat":"31.183754974","category":"500","category_name":"未知分类","address":"上海市浦东新区北蔡·镇中心路"},{"poiid":"B2094654DA6AA0F8419A","title":"中国建设银行培训中心","lon":"121.5621","lat":"31.19143","category":"190","category_name":"培训机构","address":"申波路292临"},{"poiid":"B2094752DA68A5FA409D","title":"上海新天地","lon":"121.561798","lat":"31.190328","category":"500","category_name":"未知分类","address":"上海市 卢湾区自忠路338号"},{"poiid":"B2094655D36CA5F4449D","title":"北中路","lon":"121.55609","lat":"31.18346","category":"38","category_name":"公交车站","address":""},{"poiid":"B2094655D36DA2FB489D","title":"莲溪大桥","lon":"121.56275","lat":"31.17782","category":"250","category_name":"公园户外","address":""},{"poiid":"B2094655D265A4F5479E","title":"好德便利(莲东店)","lon":"121.55862","lat":"31.18078","category":"117","category_name":"便民商店/便利店","address":"莲安东路126号"},{"poiid":"B2094757D164A4FF419B","title":"艺流美容美发(莲安店)","lon":"121.56222","lat":"31.18086","category":"148","category_name":"美容美发店","address":"浦东新区莲溪莲安东路280号(莲安东路莲溪路)"},{"poiid":"B2094654DA6AA7FD449A","title":"万国驾校报名处(莲溪路)","lon":"121.56105","lat":"31.18303","category":"248","category_name":"生活娱乐","address":"莲溪路400号"},{"poiid":"B2094654DA6AA6FA479D","title":"浦东新区华林小学","lon":"121.56341","lat":"31.19231","category":"56","category_name":"小学","address":"浦东新区芳芯路568号(芳芯路申波路)"},{"poiid":"B2094655D36CA2F54693","title":"申波路","lon":"121.56209","lat":"31.19228","category":"38","category_name":"公交车站","address":""},{"poiid":"B2094654DA6AA7FD449F","title":"北蔡镇劳动保障服务所","lon":"121.56046","lat":"31.18491","category":"248","category_name":"生活娱乐","address":"莲溪路150号"},{"poiid":"B2094654DA6AA7FE409C","title":"沪南路351弄","lon":"121.561","lat":"31.1906","category":"47","category_name":"住宅区","address":"沪南路351弄5-10号"},{"poiid":"B2094654DA6AA0F5499D","title":"小区(北中路)","lon":"121.55759","lat":"31.18359","category":"47","category_name":"住宅区","address":"北中路280弄"},{"poiid":"B2094654DA6AA0FA4293","title":"齿科诊所(高科西路)","lon":"121.55896","lat":"31.18954","category":"162","category_name":"医院","address":"高科西路2915"},{"poiid":"B2094753D56BA7FE449E","title":"人民广场","lon":"121.572006","lat":"31.187604","category":"500","category_name":"未知分类","address":"上海市 淮海中路路946号"},{"poiid":"B2094751D569A3FD439A","title":"莲泰苑","lon":"121.57","lat":"31.1873","category":"627","category_name":"一般地点标志","address":"浦东新区新陈路303弄"},{"poiid":"B2094654DA6AA7FC479D","title":"良友金伴便利连锁NO.236","lon":"121.5578","lat":"31.1808","category":"117","category_name":"便民商店/便利店","address":"莲安东路99"},{"poiid":"B2094757D16AAAFC4299","title":"莲溪--＞莲安东路莲中路","lon":"121.55799997","lat":"31.182153936","category":"500","category_name":"未知分类","address":"上海市莲安东路(良友便利店门口)"},{"poiid":"B2094654DA6AA7FC499A","title":"如意美发美容厅(莲安东路)","lon":"121.55931","lat":"31.18097","category":"148","category_name":"美容美发店","address":"莲安东路173"},{"poiid":"B2094654DA6AA0FE4798","title":"上海静安制药有限公司","lon":"121.56442","lat":"31.19017","category":"263","category_name":"公司","address":"高科西路3065"},{"poiid":"B2094654DA6AA1F8489D","title":"培花新村","lon":"121.56741","lat":"31.192274","category":"47","category_name":"住宅区","address":"川北公路380弄"},{"poiid":"B2094654DA6AA7FC4899","title":"莲中二村","lon":"121.5586","lat":"31.180008","category":"47","category_name":"住宅区","address":"莲中路318弄"},{"poiid":"B209475CD769A7FF4598","title":"上海梅赛德斯奔驰文化中心","lon":"121.567909","lat":"31.191699","category":"500","category_name":"未知分类","address":"上海市 上海"},{"poiid":"B2094654DA6AA0F44898","title":"天主堂(鹏海东苑东北)","lon":"121.56485","lat":"31.17714","category":"245","category_name":"教堂","address":""},{"poiid":"B2094654DA6AA7FD4793","title":"金都名剪","lon":"121.55718","lat":"31.18562","category":"148","category_name":"美容美发店","address":"莲园路471"},{"poiid":"B2094757D16CA7FD469C","title":"沪南路莲园路","lon":"121.5563","lat":"31.186431","category":"500","category_name":"未知分类","address":"上海虹南弄"},{"poiid":"B2094654DA6AA7FC479F","title":"光明便利NO.208","lon":"121.55746","lat":"31.18077","category":"117","category_name":"便民商店/便利店","address":"北蔡镇"},{"poiid":"B2094757D16BA3F44892","title":"莲溪小学","lon":"121.556443975","lat":"31.1815209218","category":"56","category_name":"小学","address":"上海北中路343号"},{"poiid":"B2094654DA6AA6FA479E","title":"上海知乐不锈钢装饰工程有限公司","lon":"121.56948","lat":"31.1905","category":"123","category_name":"家具建材市场","address":""},{"poiid":"B2094757D16AABFB419A","title":"新招鲜","lon":"121.559054975","lat":"31.1807529039","category":"500","category_name":"未知分类","address":"上海市浦东新区莲安东路148号"},{"poiid":"B2094757D66EA4F44393","title":"沪南路","lon":"121.557594","lat":"31.183591","category":"500","category_name":"未知分类","address":"上海北中路"},{"poiid":"B2094757D165A4FA4498","title":"△傻逼专用地","lon":"121.55860997","lat":"31.18230344","category":"500","category_name":"未知分类","address":null},{"poiid":"B2094654DA6AA7FD4598","title":"陈桂珍(私立)口腔诊所","lon":"121.55951","lat":"31.18602","category":"668","category_name":"诊所","address":"莲园路573"},{"poiid":"B2094757D16AA4F8469C","title":"北艾路","lon":"121.573848975","lat":"31.1843779886","category":"500","category_name":"未知分类","address":"上海市浦东新区北蔡·镇"},{"poiid":"B2094757D16DA5FE459A","title":"莲中路255弄","lon":"121.5584397","lat":"31.181569","category":"252","category_name":"楼宇机构","address":"上海莲中路255弄"},{"poiid":"B2094654DA6AA0F54999","title":"红蜻蜓北蔡专卖店","lon":"121.55729","lat":"31.18354","category":"141","category_name":"服装鞋帽皮具店","address":"浦东新区北中路268号(北中路莲中路)"},{"poiid":"B2094757D06BA5F5469A","title":"中国银行北蔡支行","lon":"121.556851","lat":"31.183718","category":"150","category_name":"银行","address":"浦东新区北蔡镇北中路253号(北中路莲中路)"},{"poiid":"B2094654DA6AA7FC479E","title":"成业公寓","lon":"121.55735","lat":"31.18046","category":"47","category_name":"住宅区","address":"莲安东路80弄1-21号"},{"poiid":"B2094757D169A4F5419D","title":"六一幼儿园芳草部","lon":"121.559902675","lat":"31.1923073739","category":"57","category_name":"幼儿园","address":"浦东新区芳草路561号(芳草路申波路)"},{"poiid":"B2094757D16BA0FE4599","title":"石府","lon":"121.575003775","lat":"31.1852382087","category":"47","category_name":"住宅区","address":"上海浦东北蔡"},{"poiid":"B2094757D06BA5FF439E","title":"莲园路(莲宏苑)","lon":"121.55691197","lat":"31.184809744","category":"500","category_name":"未知分类","address":"上海莲园路468弄"},{"poiid":"B2094757D169A3F94898","title":"poko's 屋企","lon":"121.556836975","lat":"31.1804818975","category":"247","category_name":"餐饮美食","address":null},{"poiid":"B2094757D16DA5FC459A","title":"内环内环","lon":"121.558439","lat":"31.1815689","category":"500","category_name":"未知分类","address":"上海莲中路255弄"},{"poiid":"B2094757D66CABFA4698","title":"好德便利","lon":"121.55858967","lat":"31.18231834","category":"249","category_name":"购物服务","address":"上海莲安东路126号"},{"poiid":"B2094654DA6AA1F4479D","title":"上海菱光电气制造有限公司","lon":"121.57281","lat":"31.18338","category":"263","category_name":"公司","address":"北蔡镇中心路385"},{"poiid":"B2094757D06AA5FF409B","title":"沪南线莲溪站","lon":"121.556295","lat":"31.183543","category":"500","category_name":"未知分类","address":"上海沪南路北中路"},{"poiid":"B2094757D66FA3FE469B","title":"猫咪之家","lon":"121.557292975","lat":"31.1825279453","category":"500","category_name":"未知分类","address":"上海莲中路174弄"},{"poiid":"B2094757D064ABFC419E","title":"龙大专线","lon":"121.5646568","lat":"31.177570369","category":"500","category_name":"未知分类","address":"上海大团 龙阳路"},{"poiid":"B2094757DA6FA3FD459B","title":"莲中路255弄小区","lon":"121.558504","lat":"31.1806960000002","category":"252","category_name":"楼宇机构","address":"浦东新区莲中路255弄"},{"poiid":"B2094757D064A4FD449D","title":"nike放肆跑","lon":"121.557167775","lat":"31.1815109216","category":"500","category_name":"未知分类","address":"上海松江新城"},{"poiid":"B2094757D66CA4FA4793","title":"北中路278弄","lon":"121.55652697","lat":"31.182107935","category":"252","category_name":"楼宇机构","address":"上海市浦东新区"},{"poiid":"B2094752D16DA4FC4798","title":"杭州西湖","lon":"121.556762","lat":"31.18459","category":"500","category_name":"未知分类","address":"杭州西湖"},{"poiid":"B2094750D06CA0F4469E","title":"培花新村第七居委","lon":"121.55751","lat":"31.190359","category":"252","category_name":"楼宇机构","address":"浦东新区芳芯路210弄49号"},{"poiid":"B2094757D66EA6FE4598","title":"建设银行","lon":"121.56159297","lat":"31.193506201","category":"150","category_name":"银行","address":"上海市浦东新区芳华路"},{"poiid":"B2094757D06BA5FF439F","title":"毛妞妞的老窝","lon":"121.55741141","lat":"31.18062676","category":"500","category_name":"未知分类","address":null},{"poiid":"B2094757D66FA7FF419A","title":"悸动烧仙草北中路店","lon":"121.55579297","lat":"31.186758044","category":"500","category_name":"未知分类","address":"上海沪南路北中路"},{"poiid":"B2094757D16CA6F44692","title":"A2高速公路","lon":"121.561655825","lat":"31.1933955118","category":"500","category_name":"未知分类","address":"上海近郊临港新城-新四平公路-大叶公路-沪南公路-康桥-A20  "},{"poiid":"B2094654DA6AA0F54693","title":"清雅网络","lon":"121.55794","lat":"31.17894","category":"176","category_name":"网吧","address":"新陈路25-57号"},{"poiid":"B2094654DA6AA0F4479D","title":"上海日轮汽车配件有限公司","lon":"121.56607","lat":"31.17642","category":"263","category_name":"公司","address":"五星路351"},{"poiid":"B2094654DA6AA0F44792","title":"日轮软管工业(上海)有限公司","lon":"121.56607","lat":"31.17642","category":"263","category_name":"公司","address":"五星路351"}]