[{"poiid":"B2094757D06EAAFD449C","title":"淞滨路地铁站","lon":"121.49308822","lat":"31.371401359","category":"36","category_name":"地铁站","address":"上海轨道交通 三号线 轨交淞滨路站 轻轨 3"},{"poiid":"B2094757D06FA3F54498","title":"上海市第一人民医院宝山分院","lon":"121.49514495","lat":"31.377317909","category":"162","category_name":"医院","address":"上海宝山区同泰北路101号"},{"poiid":"B2094757D068A2FF459F","title":"宝山区房地产交易中心","lon":"121.49867993","lat":"31.374190423","category":"249","category_name":"购物服务","address":"上海同泰路68号4楼"},{"poiid":"B2094655D26BA2FC469E","title":"吴淞码头","lon":"121.49789","lat":"31.37766","category":"38","category_name":"公交车站","address":""},{"poiid":"B2094757D06BA4FE459F","title":"自由港量贩式KTV(吴淞店)","lon":"121.492368831","lat":"31.3726181214","category":"170","category_name":"KTV","address":"宝山区淞滨路600号北翼大厦6楼"},{"poiid":"B2094757D06FA2FC4198","title":"85度C(淞滨店)","lon":"121.49433","lat":"31.37185","category":"112","category_name":"糕饼店","address":"宝山区淞滨路600号北翼商厦内(淞桥东路口)"},{"poiid":"B2094757D06AA6F84598","title":"吴淞客运中心客运站","lon":"121.50122083","lat":"31.378539743","category":"35","category_name":"长途汽车站","address":"上海市宝山区化成路271号"},{"poiid":"B2094757D06FA0F8489C","title":"吴淞大桥","lon":"121.494989","lat":"31.372818","category":"260","category_name":"其他","address":"上海宝山区同济路淞滨路"},{"poiid":"B2094757D06FAAFA419A","title":"吴淞中学","lon":"121.49766","lat":"31.37568","category":"55","category_name":"中学","address":"宝山区泰和路99号(近牡丹江路)"},{"poiid":"B2094757D069AAFA479B","title":"渔人码头","lon":"121.49790628","lat":"31.372561055","category":"251","category_name":"出行住宿","address":"上海吴淞"},{"poiid":"B2094757D068A7F84592","title":"宝山区税务局","lon":"121.499759","lat":"31.375406","category":"500","category_name":"未知分类","address":"上海淞滨路28号"},{"poiid":"B2094757D06FA5F8449F","title":"吴淞新城","lon":"121.49651","lat":"31.371421","category":"47","category_name":"住宅区","address":"上海市普陀区延川路299号"},{"poiid":"B2094757D064A5FC499F","title":"淞滨路同济路","lon":"121.49180323","lat":"31.371394696","category":"38","category_name":"公交车站","address":"上海宝山"},{"poiid":"B2094757D165A6FF4292","title":"宝山区社会保险基金管理中心","lon":"121.495352231","lat":"31.3711405909","category":"500","category_name":"未知分类","address":"上海宝山区淞兴路309号"},{"poiid":"B2094757D06FA6FB409F","title":"吴淞轮渡站","lon":"121.5012188","lat":"31.374578336","category":"35","category_name":"长途汽车站","address":"上海宝山区淞浦路114号"},{"poiid":"B2094757D069A6FF449C","title":"中国工商银行(吴淞支行)","lon":"121.49517","lat":"31.37223","category":"150","category_name":"银行","address":"上海宝山区淞滨路318号近同济路  "},{"poiid":"B2094654D46AA2FE419A","title":"川福火锅 淞滨店","lon":"121.49659170423","lat":"31.373469886091","category":"86","category_name":"火锅店","address":"宝山区淞滨路156号(班溪路淞滨路)"},{"poiid":"B2094757D069A5FB409F","title":"好友家四季日本料理","lon":"121.494904054","lat":"31.378035793","category":"95","category_name":"日本料理","address":"宝山区同泰北路183号(近第一人民医院)"},{"poiid":"B2094655D26BA1F84598","title":"牡丹江路吴淞医院","lon":"121.4972","lat":"31.37913","category":"162","category_name":"医院","address":""},{"poiid":"B2094757D069A1F5479E","title":"新亚大包 淞滨路店","lon":"121.494271054","lat":"31.371617793","category":"68","category_name":"快餐厅","address":"宝山区淞滨路600号北翼商厦内(淞桥东路口)"},{"poiid":"B2094655D26AA0F94292","title":"地铁淞滨路站","lon":"121.49313","lat":"31.37141","category":"36","category_name":"地铁站","address":""},{"poiid":"B2094757D66FA7F4429C","title":"MUSE婚纱摄影","lon":"121.492350831","lat":"31.3682135306","category":"500","category_name":"未知分类","address":"上海淞兴西路76号G栋"},{"poiid":"B2094654D46AA0F94199","title":"春泥酒楼","lon":"121.49774","lat":"31.37271","category":"76","category_name":"上海菜","address":"宝山区淞兴路151号(近宝山区房产交易中心)"},{"poiid":"B2094654D46AA5F9479A","title":"宝房集团海滨新村小区","lon":"121.49339","lat":"31.37679","category":"47","category_name":"住宅区","address":""},{"poiid":"B2094757D465A0FA449D","title":"魔锅坊麻辣香锅 吴淞店","lon":"121.498840054","lat":"31.372756793","category":"71","category_name":"四川菜","address":"宝山区同泰路59号(近吴淞码头)"},{"poiid":"B2094757D06AA0F9469E","title":"吴淞医院","lon":"121.491671831","lat":"31.3705815794","category":"162","category_name":"医院","address":"上海市宝山区泰和路"},{"poiid":"B2094654DB65A7FA4598","title":"宝山区吴淞中心医院","lon":"121.49513","lat":"31.37731","category":"162","category_name":"医院","address":"宝山区吴淞镇同泰北路101号"},{"poiid":"B2094750DA65A7F9439D","title":"弄堂口","lon":"121.500152","lat":"31.379171","category":"75","category_name":"浙江菜","address":"宝山区淞宝路155弄星月国际商务广场29号(近永清路)"},{"poiid":"B2094655D264A1F44893","title":"吴淞老镇三街坊","lon":"121.497482","lat":"31.374553","category":"47","category_name":"住宅区","address":"上海市宝山区同泰路135弄"},{"poiid":"B2094750D76EA7FF4393","title":"吴淞馄饨店","lon":"121.498","lat":"31.374","category":"68","category_name":"快餐厅","address":"宝山区北兴路84号(三阳路同泰路)"},{"poiid":"B2094757D66BA5F4429C","title":"老街小菜馆","lon":"121.49915881808","lat":"31.373547588504","category":"76","category_name":"上海菜","address":"宝山区淞兴路149号(淞兴路同泰路)"},{"poiid":"B2094654D469ABF5469B","title":"淞韩大酒店","lon":"121.49533","lat":"31.37327","category":"76","category_name":"上海菜","address":"宝山区淞滨路165号(近同济路)"},{"poiid":"B2094654D46AA2FF409B","title":"99鲢鱼庄","lon":"121.49668","lat":"31.37072","category":"71","category_name":"四川菜","address":"宝山区班溪路南侧(近宝山户客隆)"},{"poiid":"B2094750D768A6FA469C","title":"老北京热气涮羊肉馆","lon":"121.494","lat":"31.371","category":"86","category_name":"火锅店","address":"宝山区淞桥东路112号(近淞滨路)"},{"poiid":"B2094654D469ABF54392","title":"中国交通银行(上海宝山支行)","lon":"121.49635","lat":"31.37328","category":"150","category_name":"银行","address":"宝山区淞滨路138号(淞滨路同泰路)"},{"poiid":"B2094757D06BA3FB4798","title":"上海憬顺棋牌俱乐部","lon":"121.497197","lat":"31.372499","category":"171","category_name":"台球厅","address":"上海宝山区淞兴路163号沪客隆5楼"},{"poiid":"B2094654DB6AA5FF499A","title":"沪客隆·商务中心(同泰路)","lon":"121.49629","lat":"31.37262","category":"46","category_name":"楼宇","address":"同泰路78"},{"poiid":"B2094654D469ABF5469D","title":"吴淞新村","lon":"121.49742","lat":"31.37129","category":"47","category_name":"住宅区","address":""},{"poiid":"B2094757D16CA2FC449E","title":"老四川 同泰北路","lon":"121.49381778839","lat":"31.378953589365","category":"71","category_name":"四川菜","address":"宝山区同泰北路142号(同济支路同泰北路)"},{"poiid":"B2094655D36DA7F5459A","title":"淞滨路","lon":"121.49428","lat":"31.37253","category":"38","category_name":"公交车站","address":""},{"poiid":"B2094654D469AAFD439B","title":"上海海事局吴淞海事处专用码头","lon":"121.50117","lat":"31.37341","category":"34","category_name":"港口码头","address":"淞浦路181"},{"poiid":"B2094757D069A0F9429C","title":"绅德世健身中心(吴淞店)","lon":"121.49656","lat":"31.37235","category":"148","category_name":"美容美发店","address":"宝山区同泰路68号沪客隆5楼(三阳路同泰路)"},{"poiid":"B2094654DB6AA5FE4599","title":"快客","lon":"121.49732","lat":"31.37249","category":"117","category_name":"便民商店/便利店","address":""},{"poiid":"B2094654D46AA0F9439D","title":"克丽缇娜国际护肤中心","lon":"121.49689","lat":"31.37188","category":"148","category_name":"美容美发店","address":"淞兴路242"},{"poiid":"B2094654D469ABFB4192","title":"吴淞镇街道图书馆","lon":"121.49835","lat":"31.37261","category":"181","category_name":"图书馆","address":"宝山区同济路60弄48号(近水产路)"},{"poiid":"B2094654D469ABF5469C","title":"吴淞地段医院","lon":"121.49766","lat":"31.37404","category":"162","category_name":"医院","address":"宝山区淞滨路120号(近吴淞码头)"},{"poiid":"B2094654DB69A6FE4099","title":"上海集装箱码头有限公司张华浜码头","lon":"121.4989","lat":"31.36852","category":"34","category_name":"港口码头","address":"杨浦区逸仙路4333号"},{"poiid":"B2094757D66AA0F44392","title":"红川椒菜馆 淞兴西路店","lon":"121.49156","lat":"31.36938","category":"71","category_name":"四川菜","address":"宝山区淞兴西路76号(近地铁松滨路站)"},{"poiid":"B2094751D56FA7FA439A","title":"横店电影城","lon":"121.499498","lat":"31.378073","category":"178","category_name":"电影院","address":"上海市宝山区淞宝路155弄71号一楼"},{"poiid":"B2094757D06AA0FB4893","title":"吴淞三村","lon":"121.49521","lat":"31.370993","category":"252","category_name":"楼宇机构","address":"班溪路26弄"},{"poiid":"B2094757D06BA4FF4398","title":"联合滨江大厦","lon":"121.494198","lat":"31.371047","category":"252","category_name":"楼宇机构","address":"上海淞桥东路111号"},{"poiid":"B2094757D465A7FF4499","title":"北兴饮食店","lon":"121.499257054","lat":"31.373863793","category":"247","category_name":"餐饮美食","address":"北兴路84号近淞滨路"},{"poiid":"B2094654D469AAFD4592","title":"吴淞菜场","lon":"121.49692","lat":"31.37228","category":"117","category_name":"便民商店/便利店","address":"淞兴路163-165号"},{"poiid":"B2094757D469A0F4429D","title":"好旺牛蛙馆 同泰北路店","lon":"121.495223054","lat":"31.378003793","category":"71","category_name":"四川菜","address":"宝山区同泰北路183号(近吴淞医院)"},{"poiid":"B2094654D46AA2FE469E","title":"丰鼎国际商务楼","lon":"121.49686","lat":"31.37405","category":"46","category_name":"楼宇","address":"淞滨路135"},{"poiid":"B2094757D16DA5F4429B","title":"老顺兴苏式面馆","lon":"121.493010631","lat":"31.3713621955","category":"68","category_name":"快餐厅","address":"宝山区淞兴西路76号"},{"poiid":"B2094757D164A6F84592","title":"易佰连锁旅店","lon":"121.496748831","lat":"31.3720856104","category":"217","category_name":"旅馆招待所","address":"宝山区班溪路99号(近淞滨路)"},{"poiid":"B2094654D46AA0F94699","title":"淞兴路步行街","lon":"121.49479","lat":"31.37079","category":"116","category_name":"特色商业街","address":"宝山区淞兴路(近愚人码头)"},{"poiid":"B2094654D46AA2FE419F","title":"英港医院","lon":"121.49719","lat":"31.37372","category":"162","category_name":"医院","address":"宝山区淞滨路130号"},{"poiid":"B2094654D469AAFD479C","title":"小绍兴 淞滨店","lon":"121.500228054","lat":"31.375448793","category":"68","category_name":"快餐厅","address":"宝山区淞滨路58号(淞滨路牡丹江路)"},{"poiid":"B2094757D068ABFE4093","title":"中国农业银行(上海宝山支行)","lon":"121.493702307","lat":"31.371556364","category":"150","category_name":"银行","address":"宝山区同济路131号(海江路同济路)"},{"poiid":"B2094654D46AA7FD4798","title":"吴淞边防派出所","lon":"121.49784","lat":"31.37075","category":"609","category_name":"警察局","address":"淞浦路366"},{"poiid":"B2094654D46AA2FB479E","title":"小区(北兴路)","lon":"121.49848","lat":"31.3738","category":"47","category_name":"住宅区","address":""},{"poiid":"B2094654D469AAFD409B","title":"吴淞镇街道经济园区","lon":"121.49613","lat":"31.36956","category":"45","category_name":"产业园区","address":"淞浦路492"},{"poiid":"B2094655D26AA3F8419F","title":"憬顺台球俱乐部","lon":"121.49461","lat":"31.37189","category":"247","category_name":"餐饮美食","address":"宝山区淞滨路600号北翼大酒店4楼(淞桥东路口)"},{"poiid":"B2094654D469AAFD4293","title":"上海市宝山区淞兴路第一小学","lon":"121.50041","lat":"31.37365","category":"56","category_name":"小学","address":"宝山区淞兴路40号(淞滨支路淞兴西路)"},{"poiid":"B2094655D36DA7F5459B","title":"淞滨路牡丹江路","lon":"121.49912","lat":"31.37502","category":"38","category_name":"公交车站","address":""},{"poiid":"B2094757D568A0FC429B","title":"星岛之夜KTV","lon":"121.4959939","lat":"31.37247","category":"170","category_name":"KTV","address":"宝山区班溪路99号(班溪路淞兴路)"},{"poiid":"B2094654D46AA2FF409C","title":"宝宸怡秀园","lon":"121.49724","lat":"31.374489","category":"47","category_name":"住宅区","address":"同泰路135弄1-4号"},{"poiid":"B2094757D06AAAFD459D","title":"沪客隆","lon":"121.496296065","lat":"31.3726277287","category":"249","category_name":"购物服务","address":"宝山区凇兴路163号(近三阳路)"},{"poiid":"B2094654D46AA2FE469B","title":"全家(淞滨路)","lon":"121.49738","lat":"31.37432","category":"118","category_name":"超级市场","address":"淞滨路131"},{"poiid":"B2094654D469ABF5469E","title":"同济大厦","lon":"121.49385","lat":"31.37157","category":"46","category_name":"楼宇","address":"淞滨路666"},{"poiid":"B2094654D469AAFC489D","title":"宝山区淞滨路小学","lon":"121.4953","lat":"31.37326","category":"56","category_name":"小学","address":"宝山区淞滨路173号(近同济路)"},{"poiid":"B2094655D26BA1F8459B","title":"牡丹江路吴淞码头","lon":"121.49923","lat":"31.37505","category":"38","category_name":"公交车站","address":""},{"poiid":"B2094757D16BA6FF459F","title":"淞滨小区","lon":"121.49775183","lat":"31.374767665","category":"47","category_name":"住宅区","address":"上海市宝山区淞滨路"},{"poiid":"B2094654D46AA2FE4298","title":"光明便利NO.410","lon":"121.49913","lat":"31.37472","category":"117","category_name":"便民商店/便利店","address":"淞滨路68甲"},{"poiid":"B2094757D16DA7F94699","title":"吴淞出入境边防检查站","lon":"121.494719","lat":"31.372731","category":"500","category_name":"未知分类","address":"上海淞滨路361号"},{"poiid":"B2094757D568ABF44999","title":"沪客隆服饰批发市场","lon":"121.49604655","lat":"31.37209907","category":"141","category_name":"服装鞋帽皮具店","address":"中国上海市宝山区班溪路"},{"poiid":"B2094654D46AA2FE479A","title":"可的(淞滨路)","lon":"121.49562","lat":"31.37342","category":"117","category_name":"便民商店/便利店","address":"宝山区淞滨路161号(班溪路淞滨路)"},{"poiid":"B2094654DB69A5F84893","title":"文峰美容美发(淞滨路店)","lon":"121.49775","lat":"31.37452","category":"148","category_name":"美容美发店","address":"宝山区淞滨路115号(近同泰北路)"},{"poiid":"B2094654D46AA2FE4292","title":"好德(淞滨路)","lon":"121.49941","lat":"31.37488","category":"117","category_name":"便民商店/便利店","address":""},{"poiid":"B2094654D46AA2FE419D","title":"王良富美发厅","lon":"121.4979","lat":"31.37416","category":"148","category_name":"美容美发店","address":""},{"poiid":"B2094757D064ABFF459D","title":"中国建设银行(吴淞支行)","lon":"121.4971","lat":"31.37379","category":"150","category_name":"银行","address":"宝山区淞滨路137号(淞滨路同泰路)"},{"poiid":"B2094757D16BAAF5469C","title":"逸仙路高架","lon":"121.49657883","lat":"31.364935463","category":"500","category_name":"未知分类","address":"上海市宝山区淞浦路"},{"poiid":"B2094654D46AA2FE449E","title":"快客(淞滨路)","lon":"121.49896","lat":"31.37509","category":"117","category_name":"便民商店/便利店","address":""},{"poiid":"B2094757D065AAF44392","title":"医疗器械高等专科学校(东沪校区)","lon":"121.49483783","lat":"31.376112693","category":"52","category_name":"高等院校","address":"上海同济支路199号"},{"poiid":"B2094757D06AAAF4459A","title":"教师公寓","lon":"121.498889","lat":"31.374684","category":"47","category_name":"住宅区","address":"上海牡丹江路"},{"poiid":"B2094655D265ABFD469A","title":"长江口大楼","lon":"121.49967","lat":"31.37551","category":"46","category_name":"楼宇","address":"淞滨路1号"},{"poiid":"B2094654D469ABF54293","title":"北翼商厦","lon":"121.49406","lat":"31.37212","category":"119","category_name":"商场","address":"宝山区淞滨路600号(淞桥东路口)"},{"poiid":"B2094654D469AAFC4892","title":"华联超市NO.322","lon":"121.49591","lat":"31.37357","category":"118","category_name":"超级市场","address":"吴淞镇"},{"poiid":"B2094757D06AA0FA449C","title":"海滨新村","lon":"121.492617731","lat":"31.3750184376","category":"252","category_name":"楼宇机构","address":"上海同济支路同泰北路"},{"poiid":"B2094655D26BA3FC4799","title":"迪欧咖啡 淞滨店 DIO CAFE","lon":"121.494957054","lat":"31.372718793","category":"260","category_name":"其他","address":"宝山区淞滨路600号北翼商厦3楼(淞桥东路口)"},{"poiid":"B2094757D568A0FB459D","title":"联和滨江大厦","lon":"121.501","lat":"31.377","category":"46","category_name":"楼宇","address":"丰台学城海鹰路1号,3号"},{"poiid":"B2094757D465ABF4429E","title":"淞滨路砂锅馄饨","lon":"121.501186054","lat":"31.375434793","category":"68","category_name":"快餐厅","address":"淞滨路近吴淞码头"},{"poiid":"B2094757D16AA0FD469B","title":"鞍山路江浦路当中的麦当劳","lon":"121.50089703","lat":"31.370497627","category":"500","category_name":"未知分类","address":"上海鞍山路上"},{"poiid":"B2094654D469ABF5439A","title":"长江口商城","lon":"121.50129","lat":"31.37501","category":"119","category_name":"商场","address":""},{"poiid":"B2094757D16FA0FE429B","title":"宝山工商局","lon":"121.499763489","lat":"31.3754024506","category":"500","category_name":"未知分类","address":"上海淞滨路28号"},{"poiid":"B2094757D16BABFA429C","title":"吴淞淞兴路步行街","lon":"121.494797","lat":"31.3708","category":"500","category_name":"未知分类","address":"上海吴淞淞兴路步行街"},{"poiid":"B2094655D264A5F8409F","title":"如家快捷酒店宝山吴淞店","lon":"121.49472","lat":"31.37799","category":"216","category_name":"经济型连锁酒店","address":"宝山区同泰北路183号"},{"poiid":"B2094757D169A3F5409D","title":"国美电器(淞滨路店)","lon":"121.494195","lat":"31.372166","category":"138","category_name":"家电电子卖场","address":"上海市宝山区淞滨路500号"},{"poiid":"B2094757D169A4FF429A","title":"吴淞街道社区卫生服务中心淞滨路服务中心","lon":"121.49783","lat":"31.37389","category":"500","category_name":"未知分类","address":"宝山区淞滨路120号(淞滨路同泰路)"},{"poiid":"B2094655D26AA2FE4299","title":"申武大厦餐厅","lon":"121.49556","lat":"31.37607","category":"72","category_name":"广东菜","address":"宝山区同泰北路28号(近泰和路)"},{"poiid":"B2094654D469AAFD429D","title":"吴淞站","lon":"121.501","lat":"31.37538","category":"35","category_name":"长途汽车站","address":"淞浦路100"},{"poiid":"B2094654D46AA2FC459D","title":"新兴西点面包房","lon":"121.49266","lat":"31.37005","category":"112","category_name":"糕饼店","address":"宝山区淞兴西路23号"},{"poiid":"B2094757D16BA6FF469D","title":"开泰餐厅","lon":"121.49786883","lat":"31.373886647","category":"500","category_name":"未知分类","address":"上海建国西路135号1楼"},{"poiid":"B2094654D469ABF5459E","title":"上海银行吴淞支行","lon":"121.49561","lat":"31.37291","category":"150","category_name":"银行","address":"宝山区淞滨路168号"},{"poiid":"B2094750D56DA5FB4798","title":"呈色lisa摄影工作室","lon":"121.491996","lat":"31.368463","category":"263","category_name":"公司","address":"淞兴西路76号半岛1919创意园区H座"},{"poiid":"B2094654DB6AA5F94793","title":"乡土人家","lon":"121.49428","lat":"31.37807","category":"76","category_name":"上海菜","address":"宝山区同泰北路134号"},{"poiid":"B2094654D46AA5FE4698","title":"申武大厦","lon":"121.49555","lat":"31.37607","category":"46","category_name":"楼宇","address":"同泰北路28号"},{"poiid":"B2094750D568A1FB4792","title":"重庆鸡公煲","lon":"121.49176","lat":"31.36976","category":"71","category_name":"四川菜","address":"宝山区淞兴西路77号(近半岛1919创意园区)"},{"poiid":"B2094757D164A4F9439D","title":"全家便利(淞滨路店)","lon":"121.497803831","lat":"31.3751466735","category":"249","category_name":"购物服务","address":"上海市宝山区淞滨路133号"},{"poiid":"B2094654D469ABF5499C","title":"宝山区地税局","lon":"121.49997","lat":"31.37552","category":"250","category_name":"公园户外","address":"淞滨路28"},{"poiid":"B2094757D16BA0F44892","title":"S型动派","lon":"121.495386731","lat":"31.370220072","category":"500","category_name":"未知分类","address":"上海淞兴路步行街上"},{"poiid":"B2094654D469ABF54992","title":"宝山区国税局","lon":"121.49976","lat":"31.3754","category":"250","category_name":"公园户外","address":"淞滨路28号"},{"poiid":"B2094654D46AA2FC429D","title":"重庆鸡公煲淞兴店","lon":"121.49585","lat":"31.37144","category":"71","category_name":"四川菜","address":"宝山区淞兴西路77号(近半岛1919创意园区)"},{"poiid":"B2094654D46AA5FE4699","title":"上海市吴淞中学(西门)","lon":"121.49575","lat":"31.37643","category":"678","category_name":"学校大门","address":"同泰北路99号"},{"poiid":"B2094757D064A4FF4193","title":"公共交通116路淞滨路同泰路站","lon":"121.497382","lat":"31.374325","category":"500","category_name":"未知分类","address":"上海宝山区淞滨路同泰路"},{"poiid":"B2094757D569A3F54099","title":"上海港吴淞客运中心客运站","lon":"121.50186089","lat":"31.37859239","category":"35","category_name":"长途汽车站","address":"中国上海市宝山区化成路"},{"poiid":"B2094757D66CA3FA4398","title":"玉生香大酒店","lon":"121.49181","lat":"31.36911","category":"76","category_name":"上海菜","address":"宝山区淞兴西路76号(近淞兴路)"},{"poiid":"B2094654D46AA5FE429C","title":"上海市交通大学附属第一人民医院(牡丹江路)","lon":"121.49636","lat":"31.37803","category":"162","category_name":"医院","address":"牡丹江路216号"},{"poiid":"B2094757D16BA1FB449F","title":"101店(外卖饮品店)","lon":"121.49538","lat":"31.37267","category":"500","category_name":"未知分类","address":"上海宝山区淞滨路187号(近班溪路)  "},{"poiid":"B2094654D46AA2FE4399","title":"中国银行上海市淞滨路支行","lon":"121.49966","lat":"31.37551","category":"150","category_name":"银行","address":"宝山区淞滨路1号(淞滨路牡丹江路)"},{"poiid":"B2094654DB6AA5F84898","title":"老川菜","lon":"121.492166054","lat":"31.371739793","category":"71","category_name":"四川菜","address":"宝山区淞滨西路739号(近地铁三号线淞滨路站)"},{"poiid":"B2094757D66AA6FB4493","title":"满城香老北京涮肉馆","lon":"121.492855","lat":"31.370231","category":"86","category_name":"火锅店","address":"淞兴路108号近淞滨路"},{"poiid":"B2094753D064A3F5499A","title":"永乐生活电器(淞滨路店)","lon":"121.49366","lat":"31.37218","category":"138","category_name":"家电电子卖场","address":"宝山区淞滨路600号(近三号线淞滨路站)"},{"poiid":"B2094654D46AA2FE499B","title":"快客(同济大厦东北)","lon":"121.4939","lat":"31.37254","category":"117","category_name":"便民商店/便利店","address":"同济路131号同济大厦3楼(近北翼商厦)"},{"poiid":"B2094757D16DA1FA439C","title":"728路(淞滨路)","lon":"121.495276","lat":"31.373288","category":"500","category_name":"未知分类","address":"上海宝山区淞滨路"},{"poiid":"B2094654D469AAFC4998","title":"宝山区一德中医诊所","lon":"121.49704","lat":"31.37366","category":"668","category_name":"诊所","address":""},{"poiid":"B2094757D164A2FE4598","title":"中国人寿保险有限公司","lon":"121.49871826","lat":"31.368463516","category":"263","category_name":"公司","address":"上海宝山区淞滨路387号"},{"poiid":"B2094654D46AA2FC439D","title":"吴淞镇街道都市工业园区","lon":"121.49298","lat":"31.36992","category":"45","category_name":"产业园区","address":"淞兴西路16号"},{"poiid":"B2094654D46AA2FC469A","title":"良友金伴(淞兴西路)","lon":"121.4926","lat":"31.37003","category":"117","category_name":"便民商店/便利店","address":""},{"poiid":"B2094654DB65AAF5449B","title":"林茵香榭","lon":"121.49672","lat":"31.36397","category":"46","category_name":"楼宇","address":"北一环与亳州路交叉口(庐阳区政府对面)"},{"poiid":"B2094655D26BA2FC4693","title":"吴淞公交客运站","lon":"121.49837","lat":"31.37698","category":"38","category_name":"公交车站","address":""},{"poiid":"B2094655D268A1F5439F","title":"味之都(同泰北路)","lon":"121.49475","lat":"31.37814","category":"68","category_name":"快餐厅","address":"宝山区同泰北路183号(近同济支路)"},{"poiid":"B2094654D469AAFC4293","title":"吴凇实验学校","lon":"121.49114","lat":"31.37129","category":"55","category_name":"中学","address":"淞滨路711"},{"poiid":"B2094654D46AA2FC469B","title":"好德(淞兴西路)","lon":"121.49242","lat":"31.36995","category":"117","category_name":"便民商店/便利店","address":""},{"poiid":"B2094655D36DA1F8429D","title":"外环隧道","lon":"121.50045","lat":"31.37633","category":"250","category_name":"公园户外","address":""},{"poiid":"B2094752D46AA2FE409C","title":"中国农业银行宝山吴淞支行","lon":"121.500317","lat":"31.377396","category":"150","category_name":"银行","address":"上海市宝山区同济路131号"},{"poiid":"B2094757D165A4FE489B","title":"同泰路淞滨路","lon":"121.499610831","lat":"31.3755496818","category":"500","category_name":"未知分类","address":"上海同泰路淞滨路"},{"poiid":"B209475DD26EAAFB4799","title":"UME影城宝山店","lon":"121.501152","lat":"31.376657","category":"500","category_name":"未知分类","address":"上海市 上海市宝山区牡丹江路318号诺亚新天地4楼"},{"poiid":"B2094757D064AAFB429D","title":"长征新村","lon":"121.492063","lat":"31.370028","category":"252","category_name":"楼宇机构","address":"上海宝山区淞滨路淞滨支路"},{"poiid":"B2094655D26BA2FF459E","title":"同济路泰和路","lon":"121.49213","lat":"31.37471","category":"38","category_name":"公交车站","address":""},{"poiid":"B2094654D46AA2F4409B","title":"长征幼儿园","lon":"121.49234","lat":"31.37074","category":"57","category_name":"幼儿园","address":"宝山区长征新村21号(近轻轨3号线淞滨路站)"},{"poiid":"B2094757D16AAAF44499","title":"地球","lon":"121.50335447","lat":"31.372226613","category":"248","category_name":"生活娱乐","address":"上海水蓝色星球"},{"poiid":"B2094757D66DABF5459D","title":"宝山区残疾人联合会","lon":"121.49766433","lat":"31.375587782","category":"500","category_name":"未知分类","address":"上海永清路126号"},{"poiid":"B2094655D26FABFA4293","title":"吴淞环岛花鸟市场","lon":"121.49775","lat":"31.37838","category":"117","category_name":"便民商店/便利店","address":""},{"poiid":"B2094654D469AAFC489C","title":"上海宝房(集团)房地产交易市场","lon":"121.49438","lat":"31.37281","category":"248","category_name":"生活娱乐","address":"淞滨路373号"},{"poiid":"B2094655D26BA1F8459A","title":"牡丹江路淞宝路","lon":"121.49752","lat":"31.3783","category":"38","category_name":"公交车站","address":""},{"poiid":"B2094654D469ABF5439D","title":"集祥大楼","lon":"121.4971","lat":"31.3644","category":"46","category_name":"楼宇","address":"上海逸仙路4333号"},{"poiid":"B2094757D16FA2F94698","title":"上行线(淞滨路店)","lon":"121.493187566","lat":"31.3714587139","category":"125","category_name":"书店","address":"上海地铁三号线淞滨路站"},{"poiid":"B2094654D46AA5FE459A","title":"吴淞羽毛球训练中心","lon":"121.49777","lat":"31.37586","category":"190","category_name":"培训机构","address":""},{"poiid":"B2094654D46AA2FC439C","title":"上海市地方税务局宝山分局车船税征收所","lon":"121.49293","lat":"31.36989","category":"250","category_name":"公园户外","address":"淞兴西路16号"},{"poiid":"B2094654DB69A0F4439C","title":"海滨小学","lon":"121.4932","lat":"31.37495","category":"56","category_name":"小学","address":"宝山区泰和路291号(近牡丹江路)"},{"poiid":"B2094757D66DA4F4409D","title":"国家电网宝山营业厅","lon":"121.499288","lat":"31.376556","category":"150","category_name":"银行","address":"上海泰和路15号"},{"poiid":"B209475DD068ABF4419D","title":"UME影城","lon":"121.498588","lat":"31.378984","category":"178","category_name":"电影院","address":"上海市 牡丹江路318号诺亚广场4楼"},{"poiid":"B2094757D16BA0FA489C","title":"淞滨路淞滨支路116车站","lon":"121.493131","lat":"31.371415","category":"500","category_name":"未知分类","address":"上海淞滨路淞滨支路"},{"poiid":"B2094757D16AA6FF479E","title":"琴帼人家","lon":"121.500552431","lat":"31.3774340207","category":"247","category_name":"餐饮美食","address":"上海农工商水产路"},{"poiid":"B2094655D265AAF84592","title":"元和大厦","lon":"121.49676","lat":"31.36515","category":"46","category_name":"楼宇","address":"逸仙路300号"},{"poiid":"B2094654D469AAFD429C","title":"上海市宝山区招商服务中心","lon":"121.50045","lat":"31.37521","category":"248","category_name":"生活娱乐","address":""},{"poiid":"B2094654D46AA2FC479E","title":"快客NO.1261","lon":"121.49163","lat":"31.36961","category":"117","category_name":"便民商店/便利店","address":""},{"poiid":"B2094757D06AABF8419C","title":"爱心献血点(牡丹江路)","lon":"121.497289","lat":"31.378272","category":"162","category_name":"医院","address":"上海宝山区牡丹江路186号(近淞宝路)"},{"poiid":"B2094655D268A6FF429A","title":"良友(同济路)","lon":"121.49281","lat":"31.3755","category":"117","category_name":"便民商店/便利店","address":""},{"poiid":"B2094757D06BA3FB479E","title":"外環浦西隧道口","lon":"121.491708631","lat":"31.3716683018","category":"500","category_name":"未知分类","address":"上海外環浦西隧道口"},{"poiid":"B2094654D46AA2FB4998","title":"宝山区成人教师进修学校附属中学","lon":"121.49102","lat":"31.36983","category":"55","category_name":"中学","address":"淞桥西路18"},{"poiid":"B2094654D46AA2FE409E","title":"中国平安(淞滨路)","lon":"121.49472","lat":"31.37244","category":"219","category_name":"其他","address":""},{"poiid":"B2094654D46AA6F4429E","title":"上海市电力公司宝山供电分公司","lon":"121.49945","lat":"31.37662","category":"263","category_name":"公司","address":"泰和路15"},{"poiid":"B2094655D26FA5F9499A","title":"联华超市(淞兴西路)","lon":"121.49153","lat":"31.36955","category":"118","category_name":"超级市场","address":""},{"poiid":"B2094654D469AAFC4392","title":"中国人寿保险股份有限公司(淞滨路)","lon":"121.49372","lat":"31.37247","category":"219","category_name":"其他","address":"淞滨路387"},{"poiid":"B2094757D065A3F84399","title":"中國人民財產保險股份有限公司上海市寶山支公司","lon":"121.49892773","lat":"31.376777007","category":"500","category_name":"未知分类","address":"上海寶山區淞濱路143號"},{"poiid":"B2094654D469ABFB449F","title":"新华都市工业园区","lon":"121.49571","lat":"31.3651","category":"45","category_name":"产业园区","address":"逸仙路4318号"},{"poiid":"B2094654D46AA5FE429D","title":"上海市第一人民医院宝山分院体检站","lon":"121.49723","lat":"31.37833","category":"162","category_name":"医院","address":""},{"poiid":"B2094757D66DAAFC499A","title":"绿地建设设计","lon":"121.49302723","lat":"31.373958349","category":"500","category_name":"未知分类","address":"上海同济路208弄28号"},{"poiid":"B2094655D265A7F84192","title":"华联吉买盛江湾店","lon":"121.49676","lat":"31.36478","category":"118","category_name":"超级市场","address":"逸仙路580号"},{"poiid":"B2094654D46AA5FE479B","title":"海滨都市工业吴淞服装工业园","lon":"121.49472","lat":"31.37798","category":"45","category_name":"产业园区","address":"同泰北路183"},{"poiid":"B2094753D46BA6F5419C","title":"韩国慕色Muse Studio（宝山店）","lon":"121.49261","lat":"31.369376","category":"248","category_name":"生活娱乐","address":"宝山区淞兴西路76号F栋(近3号线淞滨路地铁站)"},{"poiid":"B2094757D165A4FF4898","title":"阿英煲(同泰北路店)","lon":"121.491756531","lat":"31.371579","category":"500","category_name":"未知分类","address":"上海市宝山区同泰北路403辅楼"},{"poiid":"B2094654D46AA2FB4999","title":"上海市宝山区成人教师进修学校","lon":"121.49102","lat":"31.36983","category":"53","category_name":"成人教育","address":"淞桥西路18"},{"poiid":"B2094757D16AA2FE419C","title":"呆呆の家","lon":"121.491757231","lat":"31.3715992004","category":"500","category_name":"未知分类","address":null},{"poiid":"B2094655D268A6FF429E","title":"真骐99酒店上海宝山吴淞店","lon":"121.49559","lat":"31.37852","category":"250","category_name":"公园户外","address":"宝山区同泰北路183号2号楼(近同济支路)"},{"poiid":"B2094757D06BA4F84293","title":"水产路","lon":"121.493006831","lat":"31.3686005386","category":"260","category_name":"其他","address":"上海市宝山区水产路"},{"poiid":"B209475DD16FA6FA4099","title":"丽粤茶餐厅","lon":"121.496551","lat":"31.378631","category":"500","category_name":"未知分类","address":"上海市 诺亚新天地2F"},{"poiid":"B2094757D66DA0FA439C","title":"鼎邦撞球俱乐部","lon":"121.495444831","lat":"31.3779137306","category":"500","category_name":"未知分类","address":"上海市宝山区同泰北路"},{"poiid":"B2094655D268A6FF4299","title":"鼎邦桌球棋牌俱乐部","lon":"121.49528","lat":"31.37835","category":"171","category_name":"台球厅","address":""},{"poiid":"B2094757D169AAFA4798","title":"金富都娱乐广场","lon":"121.49769","lat":"31.37855","category":"149","category_name":"洗浴推拿场所","address":"宝山区牡丹江路215号(近淞宝路)"},{"poiid":"B2094654D46AA6F4409D","title":"上海农村商业银行吴淞支行","lon":"121.49887","lat":"31.37936","category":"150","category_name":"银行","address":"淞宝路74号"},{"poiid":"B2094655D26FABF9419B","title":"海滨新村小区(西门)","lon":"121.49223","lat":"31.37517","category":"656","category_name":"大门","address":""},{"poiid":"B2094757D06BAAF5499C","title":"安利精致生活馆(牡丹江路店)","lon":"121.49762","lat":"31.37835","category":"260","category_name":"其他","address":"宝山区牡丹江路184号(近吴淞医院)"}]