[{"poiid":"B2094757D06FAAF44399","title":"华为技术有限公司上海研究所","lon":"121.63109735","lat":"31.26100277","category":"500","category_name":"未知分类","address":"上海浦东新金桥路2222号"},{"poiid":"B2094654DB6BA1FA469B","title":"上海第二工业大学","lon":"121.65148","lat":"31.26086","category":"671","category_name":"高校中心点","address":"浦东新区金海路2360号"},{"poiid":"B2094757D06BA7FF449E","title":"金领之都","lon":"121.62876399826","lat":"31.265811442778","category":"76","category_name":"上海菜","address":"金海路1000号新金桥路1888号"},{"poiid":"B2094655D36CA0FF459D","title":"金海路申江路","lon":"121.62591","lat":"31.26437","category":"38","category_name":"公交车站","address":""},{"poiid":"B2094757D068A3FC469A","title":"联合汽车电子有限公司","lon":"121.62747955","lat":"31.267131805","category":"263","category_name":"公司","address":"上海浦东新区榕桥路555号"},{"poiid":"B2094654DA6AA4FF409D","title":"上海国际队足球训练基地","lon":"121.62972","lat":"31.24588","category":"230","category_name":"足球场","address":"唐陆路888"},{"poiid":"B2094757D06AABF9499E","title":"欧姆龙(上海)有限公司","lon":"121.630658239","lat":"31.2653492501","category":"263","category_name":"公司","address":"上海市浦东新区金桥出口加工区金吉路789号"},{"poiid":"B2094757D16BA5FE4598","title":"金海路金穗路","lon":"121.637383339","lat":"31.2625120849","category":"500","category_name":"未知分类","address":"上海金海路金穗路十字路口"},{"poiid":"B2094655D36CA0FF4698","title":"金海路环东二大道","lon":"121.64525","lat":"31.26434","category":"38","category_name":"公交车站","address":""},{"poiid":"B2094757D06BA7F94692","title":"上海日立电器有限公司东厂区","lon":"121.63239031","lat":"31.260006227","category":"46","category_name":"楼宇","address":"上海金苏路77号"},{"poiid":"B2094757D16BA7F9429B","title":"新金桥路金穗路","lon":"121.63384","lat":"31.260881","category":"500","category_name":"未知分类","address":"上海新金桥路金穗路"},{"poiid":"B2094655D36CA5FE419A","title":"川桥路申江路","lon":"121.62423","lat":"31.2483","category":"38","category_name":"公交车站","address":""},{"poiid":"B2094654D568ABF44598","title":"金门广场","lon":"121.626","lat":"31.2613","category":"46","category_name":"楼宇","address":"上海金皖路389号"},{"poiid":"B2094654D569A3F8439C","title":"上海三电汽车空调有限公司","lon":"121.63461","lat":"31.25946","category":"263","category_name":"公司","address":"金穗路1900"},{"poiid":"B2094757D16EA0F84198","title":"BASF JTC","lon":"121.63327133","lat":"31.258475992","category":"500","category_name":"未知分类","address":"上海市浦东新区新金桥路"},{"poiid":"B2094655D36DA0FD419A","title":"新金桥路申江路","lon":"121.62647","lat":"31.26099","category":"38","category_name":"公交车站","address":""},{"poiid":"B2094654D569A2FA4399","title":"梁山饺子馆","lon":"121.63507","lat":"31.26231","category":"87","category_name":"特色／地方风味餐厅","address":""},{"poiid":"B2094757D069A5FA459D","title":"上海通用汽车 南厂车身","lon":"121.619228339","lat":"31.2691012364","category":"500","category_name":"未知分类","address":"上海申江路1500"},{"poiid":"B2094654D569A3F8409E","title":"长谷川香料(上海)有限公司","lon":"121.63386","lat":"31.26076","category":"263","category_name":"公司","address":"新金桥路2365"},{"poiid":"B2094655D36CA0FE4392","title":"金穗路鲁桥路","lon":"121.63487","lat":"31.25718","category":"38","category_name":"公交车站","address":""},{"poiid":"B2094757D66CA0F9449A","title":"浦东新区金穗路993车站","lon":"121.635134","lat":"31.259555","category":"500","category_name":"未知分类","address":"上海浦东新区金穗路"},{"poiid":"B2094655D36CA0FE4499","title":"金苏路新金桥路","lon":"121.63001","lat":"31.25993","category":"38","category_name":"公交车站","address":""},{"poiid":"B2094655D264A5FA4199","title":"欧姆龙大厦","lon":"121.63175","lat":"31.26543","category":"46","category_name":"楼宇","address":"金吉路789号"},{"poiid":"B2094654D568ABF54392","title":"上海京瓷电子有限公司上海金桥工厂","lon":"121.6284","lat":"31.26052","category":"263","category_name":"公司","address":"新金桥路2077"},{"poiid":"B2094654D569A3F8409F","title":"上海日立电器有限公司东厂区二号门","lon":"121.63241","lat":"31.26077","category":"263","category_name":"公司","address":"新金桥路2333号"},{"poiid":"B2094757D06FABFD499C","title":"上海华虹NEC电子有限公司","lon":"121.62340126","lat":"31.247653226","category":"46","category_name":"楼宇","address":"上海浦东新区川桥路1188号"},{"poiid":"B2094757D068A6FA409B","title":"上海日立电器有限公司","lon":"121.62077638","lat":"31.252898312","category":"46","category_name":"楼宇","address":"上海浦东金桥出口加工区宁桥路888号"},{"poiid":"B2094757D064A6F54193","title":"上海京瓷电子有限公司","lon":"121.63351473","lat":"31.257024225","category":"263","category_name":"公司","address":"上海市浦东新区新金桥路2077号"},{"poiid":"B2094757D16EA0FC489C","title":"上海第二工业大学 图文信息中心","lon":"121.650222339","lat":"31.2628240921","category":"500","category_name":"未知分类","address":"上海浦东新区金海路2360号,第二工业大学,校内"},{"poiid":"B2094757D66EA2F5429C","title":"云桥路","lon":"121.634679539","lat":"31.2571377614","category":"500","category_name":"未知分类","address":"上海云桥路"},{"poiid":"B2094757D66CA6FE4393","title":"巴斯夫中国有限公司","lon":"121.637796039","lat":"31.2636734116","category":"263","category_name":"公司","address":"上海市金桥出口加工区鲁桥路239号"},{"poiid":"B2094654D569A2FA4393","title":"上海日立电器有限公司东厂区一号门","lon":"121.63017","lat":"31.25923","category":"263","category_name":"公司","address":"金苏路77号"},{"poiid":"B2094655D36DA0FD409E","title":"新金桥路冀桥路","lon":"121.62778","lat":"31.26094","category":"38","category_name":"公交车站","address":""},{"poiid":"B2094654D569A2F9489D","title":"河南好再来拉面(金高路)","lon":"121.63803","lat":"31.25624","category":"257","category_name":"中餐厅","address":""},{"poiid":"B2094757D169A1FE469A","title":"华为","lon":"121.62854933","lat":"31.262195077","category":"249","category_name":"购物服务","address":"上海市浦东新区金海路"},{"poiid":"B2094654D569A3F8409D","title":"康宁(上海)有限公司","lon":"121.63402","lat":"31.25611","category":"263","category_name":"公司","address":"鲁桥路358号"},{"poiid":"B2094757D66EAAF9489E","title":"kyocers","lon":"121.63168933","lat":"31.256940956","category":"500","category_name":"未知分类","address":"上海新金桥路"},{"poiid":"B2094654D569A2F94892","title":"清真兰州牛肉拉面(金高路)","lon":"121.63839","lat":"31.25619","category":"90","category_name":"清真餐馆","address":""},{"poiid":"B2094757D068AAFF4898","title":"Omron","lon":"121.63202","lat":"31.26516","category":"263","category_name":"公司","address":"浦东新区金吉路789号(近金海路)"},{"poiid":"B2094654D569A2FA449A","title":"上海日立电器有限公司东厂区三号门","lon":"121.63066","lat":"31.25802","category":"263","category_name":"公司","address":"冀桥路"},{"poiid":"B2094757D06AA4F9489B","title":"方正大厦","lon":"121.618","lat":"31.2592","category":"46","category_name":"楼宇","address":"丰台学城海鹰路1号,3号"},{"poiid":"B2094757D168A0FE4498","title":"广汽丰田长宇浦东店","lon":"121.629372939","lat":"31.2664535255","category":"500","category_name":"未知分类","address":"浦东新区榕桥路618号(近金海路)"},{"poiid":"B2094655D36CA0FF439C","title":"金吉路榕桥路","lon":"121.63155","lat":"31.26624","category":"38","category_name":"公交车站","address":""},{"poiid":"B2094757D06AA4FF4698","title":"宁桥路","lon":"121.624057","lat":"31.253684","category":"46","category_name":"楼宇","address":"上海宁桥路999号金桥加工园区"},{"poiid":"B2094654D568ABF54393","title":"上海京瓷电子有限公司(冀桥路)","lon":"121.62841","lat":"31.2579","category":"263","category_name":"公司","address":""},{"poiid":"B2094654D568ABF5469B","title":"宝钢工贸大厦","lon":"121.626","lat":"31.2627","category":"46","category_name":"楼宇","address":"新金桥路1568号"},{"poiid":"B2094757D06AABF44193","title":"上海帝森克虏伯汇众","lon":"121.629655998","lat":"31.2660571747","category":"500","category_name":"未知分类","address":"上海申江路1900号"},{"poiid":"B2094757D06AA0FA4192","title":"辉门中国","lon":"121.626588339","lat":"31.2579829808","category":"500","category_name":"未知分类","address":"上海市浦东新区冀桥路118号"},{"poiid":"B2094654D569A2FA449B","title":"上海华裕汽车修理有限公司","lon":"121.62979","lat":"31.25614","category":"263","category_name":"公司","address":"浦东新区金苏路238号(金苏路鲁桥路)"},{"poiid":"B2094655D36CA6F9479A","title":"二工大","lon":"121.64724","lat":"31.26448","category":"38","category_name":"公交车站","address":"金海路2360"},{"poiid":"B2094757D06FAAF44399","title":"华为技术有限公司上海研究所","lon":"121.63109735","lat":"31.26100277","category":"500","category_name":"未知分类","address":"上海浦东新金桥路2222号"},{"poiid":"B2094654DB6BA1FA469B","title":"上海第二工业大学","lon":"121.65148","lat":"31.26086","category":"671","category_name":"高校中心点","address":"浦东新区金海路2360号"},{"poiid":"B2094757D06BA7FF449E","title":"金领之都","lon":"121.62876399826","lat":"31.265811442778","category":"76","category_name":"上海菜","address":"金海路1000号新金桥路1888号"},{"poiid":"B2094655D36CA0FF459D","title":"金海路申江路","lon":"121.62591","lat":"31.26437","category":"38","category_name":"公交车站","address":""},{"poiid":"B2094757D068A3FC469A","title":"联合汽车电子有限公司","lon":"121.62747955","lat":"31.267131805","category":"263","category_name":"公司","address":"上海浦东新区榕桥路555号"},{"poiid":"B2094654DA6AA4FF409D","title":"上海国际队足球训练基地","lon":"121.62972","lat":"31.24588","category":"230","category_name":"足球场","address":"唐陆路888"},{"poiid":"B2094757D06AABF9499E","title":"欧姆龙(上海)有限公司","lon":"121.630658239","lat":"31.2653492501","category":"263","category_name":"公司","address":"上海市浦东新区金桥出口加工区金吉路789号"},{"poiid":"B2094757D16BA5FE4598","title":"金海路金穗路","lon":"121.637383339","lat":"31.2625120849","category":"500","category_name":"未知分类","address":"上海金海路金穗路十字路口"},{"poiid":"B2094655D36CA0FF4698","title":"金海路环东二大道","lon":"121.64525","lat":"31.26434","category":"38","category_name":"公交车站","address":""},{"poiid":"B2094757D06BA7F94692","title":"上海日立电器有限公司东厂区","lon":"121.63239031","lat":"31.260006227","category":"46","category_name":"楼宇","address":"上海金苏路77号"},{"poiid":"B2094757D16BA7F9429B","title":"新金桥路金穗路","lon":"121.63384","lat":"31.260881","category":"500","category_name":"未知分类","address":"上海新金桥路金穗路"},{"poiid":"B2094655D36CA5FE419A","title":"川桥路申江路","lon":"121.62423","lat":"31.2483","category":"38","category_name":"公交车站","address":""},{"poiid":"B2094654D568ABF44598","title":"金门广场","lon":"121.626","lat":"31.2613","category":"46","category_name":"楼宇","address":"上海金皖路389号"},{"poiid":"B2094654D569A3F8439C","title":"上海三电汽车空调有限公司","lon":"121.63461","lat":"31.25946","category":"263","category_name":"公司","address":"金穗路1900"},{"poiid":"B2094757D16EA0F84198","title":"BASF JTC","lon":"121.63327133","lat":"31.258475992","category":"500","category_name":"未知分类","address":"上海市浦东新区新金桥路"},{"poiid":"B2094655D36DA0FD419A","title":"新金桥路申江路","lon":"121.62647","lat":"31.26099","category":"38","category_name":"公交车站","address":""},{"poiid":"B2094654D569A2FA4399","title":"梁山饺子馆","lon":"121.63507","lat":"31.26231","category":"87","category_name":"特色／地方风味餐厅","address":""},{"poiid":"B2094757D069A5FA459D","title":"上海通用汽车 南厂车身","lon":"121.619228339","lat":"31.2691012364","category":"500","category_name":"未知分类","address":"上海申江路1500"},{"poiid":"B2094654D569A3F8409E","title":"长谷川香料(上海)有限公司","lon":"121.63386","lat":"31.26076","category":"263","category_name":"公司","address":"新金桥路2365"},{"poiid":"B2094655D36CA0FE4392","title":"金穗路鲁桥路","lon":"121.63487","lat":"31.25718","category":"38","category_name":"公交车站","address":""},{"poiid":"B2094757D66CA0F9449A","title":"浦东新区金穗路993车站","lon":"121.635134","lat":"31.259555","category":"500","category_name":"未知分类","address":"上海浦东新区金穗路"},{"poiid":"B2094655D36CA0FE4499","title":"金苏路新金桥路","lon":"121.63001","lat":"31.25993","category":"38","category_name":"公交车站","address":""},{"poiid":"B2094655D264A5FA4199","title":"欧姆龙大厦","lon":"121.63175","lat":"31.26543","category":"46","category_name":"楼宇","address":"金吉路789号"},{"poiid":"B2094654D568ABF54392","title":"上海京瓷电子有限公司上海金桥工厂","lon":"121.6284","lat":"31.26052","category":"263","category_name":"公司","address":"新金桥路2077"},{"poiid":"B2094654D569A3F8409F","title":"上海日立电器有限公司东厂区二号门","lon":"121.63241","lat":"31.26077","category":"263","category_name":"公司","address":"新金桥路2333号"},{"poiid":"B2094757D06FABFD499C","title":"上海华虹NEC电子有限公司","lon":"121.62340126","lat":"31.247653226","category":"46","category_name":"楼宇","address":"上海浦东新区川桥路1188号"},{"poiid":"B2094757D068A6FA409B","title":"上海日立电器有限公司","lon":"121.62077638","lat":"31.252898312","category":"46","category_name":"楼宇","address":"上海浦东金桥出口加工区宁桥路888号"},{"poiid":"B2094757D064A6F54193","title":"上海京瓷电子有限公司","lon":"121.63351473","lat":"31.257024225","category":"263","category_name":"公司","address":"上海市浦东新区新金桥路2077号"},{"poiid":"B2094757D16EA0FC489C","title":"上海第二工业大学 图文信息中心","lon":"121.650222339","lat":"31.2628240921","category":"500","category_name":"未知分类","address":"上海浦东新区金海路2360号,第二工业大学,校内"},{"poiid":"B2094757D66EA2F5429C","title":"云桥路","lon":"121.634679539","lat":"31.2571377614","category":"500","category_name":"未知分类","address":"上海云桥路"},{"poiid":"B2094757D66CA6FE4393","title":"巴斯夫中国有限公司","lon":"121.637796039","lat":"31.2636734116","category":"263","category_name":"公司","address":"上海市金桥出口加工区鲁桥路239号"},{"poiid":"B2094654D569A2FA4393","title":"上海日立电器有限公司东厂区一号门","lon":"121.63017","lat":"31.25923","category":"263","category_name":"公司","address":"金苏路77号"},{"poiid":"B2094655D36DA0FD409E","title":"新金桥路冀桥路","lon":"121.62778","lat":"31.26094","category":"38","category_name":"公交车站","address":""},{"poiid":"B2094654D569A2F9489D","title":"河南好再来拉面(金高路)","lon":"121.63803","lat":"31.25624","category":"257","category_name":"中餐厅","address":""},{"poiid":"B2094757D169A1FE469A","title":"华为","lon":"121.62854933","lat":"31.262195077","category":"249","category_name":"购物服务","address":"上海市浦东新区金海路"},{"poiid":"B2094654D569A3F8409D","title":"康宁(上海)有限公司","lon":"121.63402","lat":"31.25611","category":"263","category_name":"公司","address":"鲁桥路358号"},{"poiid":"B2094757D66EAAF9489E","title":"kyocers","lon":"121.63168933","lat":"31.256940956","category":"500","category_name":"未知分类","address":"上海新金桥路"},{"poiid":"B2094654D569A2F94892","title":"清真兰州牛肉拉面(金高路)","lon":"121.63839","lat":"31.25619","category":"90","category_name":"清真餐馆","address":""},{"poiid":"B2094757D068AAFF4898","title":"Omron","lon":"121.63202","lat":"31.26516","category":"263","category_name":"公司","address":"浦东新区金吉路789号(近金海路)"},{"poiid":"B2094654D569A2FA449A","title":"上海日立电器有限公司东厂区三号门","lon":"121.63066","lat":"31.25802","category":"263","category_name":"公司","address":"冀桥路"},{"poiid":"B2094757D06AA4F9489B","title":"方正大厦","lon":"121.618","lat":"31.2592","category":"46","category_name":"楼宇","address":"丰台学城海鹰路1号,3号"},{"poiid":"B2094757D168A0FE4498","title":"广汽丰田长宇浦东店","lon":"121.629372939","lat":"31.2664535255","category":"500","category_name":"未知分类","address":"浦东新区榕桥路618号(近金海路)"},{"poiid":"B2094655D36CA0FF439C","title":"金吉路榕桥路","lon":"121.63155","lat":"31.26624","category":"38","category_name":"公交车站","address":""},{"poiid":"B2094757D06AA4FF4698","title":"宁桥路","lon":"121.624057","lat":"31.253684","category":"46","category_name":"楼宇","address":"上海宁桥路999号金桥加工园区"},{"poiid":"B2094654D568ABF54393","title":"上海京瓷电子有限公司(冀桥路)","lon":"121.62841","lat":"31.2579","category":"263","category_name":"公司","address":""},{"poiid":"B2094654D568ABF5469B","title":"宝钢工贸大厦","lon":"121.626","lat":"31.2627","category":"46","category_name":"楼宇","address":"新金桥路1568号"},{"poiid":"B2094757D06AABF44193","title":"上海帝森克虏伯汇众","lon":"121.629655998","lat":"31.2660571747","category":"500","category_name":"未知分类","address":"上海申江路1900号"},{"poiid":"B2094757D06AA0FA4192","title":"辉门中国","lon":"121.626588339","lat":"31.2579829808","category":"500","category_name":"未知分类","address":"上海市浦东新区冀桥路118号"},{"poiid":"B2094654D569A2FA449B","title":"上海华裕汽车修理有限公司","lon":"121.62979","lat":"31.25614","category":"263","category_name":"公司","address":"浦东新区金苏路238号(金苏路鲁桥路)"},{"poiid":"B2094655D36CA6F9479A","title":"二工大","lon":"121.64724","lat":"31.26448","category":"38","category_name":"公交车站","address":"金海路2360"},{"poiid":"B2094757D06FAAF44399","title":"华为技术有限公司上海研究所","lon":"121.63109735","lat":"31.26100277","category":"500","category_name":"未知分类","address":"上海浦东新金桥路2222号"},{"poiid":"B2094654DB6BA1FA469B","title":"上海第二工业大学","lon":"121.65148","lat":"31.26086","category":"671","category_name":"高校中心点","address":"浦东新区金海路2360号"},{"poiid":"B2094757D06BA7FF449E","title":"金领之都","lon":"121.62876399826","lat":"31.265811442778","category":"76","category_name":"上海菜","address":"金海路1000号新金桥路1888号"},{"poiid":"B2094655D36CA0FF459D","title":"金海路申江路","lon":"121.62591","lat":"31.26437","category":"38","category_name":"公交车站","address":""},{"poiid":"B2094757D068A3FC469A","title":"联合汽车电子有限公司","lon":"121.62747955","lat":"31.267131805","category":"263","category_name":"公司","address":"上海浦东新区榕桥路555号"},{"poiid":"B2094654DA6AA4FF409D","title":"上海国际队足球训练基地","lon":"121.62972","lat":"31.24588","category":"230","category_name":"足球场","address":"唐陆路888"},{"poiid":"B2094757D06AABF9499E","title":"欧姆龙(上海)有限公司","lon":"121.630658239","lat":"31.2653492501","category":"263","category_name":"公司","address":"上海市浦东新区金桥出口加工区金吉路789号"},{"poiid":"B2094757D16BA5FE4598","title":"金海路金穗路","lon":"121.637383339","lat":"31.2625120849","category":"500","category_name":"未知分类","address":"上海金海路金穗路十字路口"},{"poiid":"B2094655D36CA0FF4698","title":"金海路环东二大道","lon":"121.64525","lat":"31.26434","category":"38","category_name":"公交车站","address":""},{"poiid":"B2094757D06BA7F94692","title":"上海日立电器有限公司东厂区","lon":"121.63239031","lat":"31.260006227","category":"46","category_name":"楼宇","address":"上海金苏路77号"},{"poiid":"B2094757D16BA7F9429B","title":"新金桥路金穗路","lon":"121.63384","lat":"31.260881","category":"500","category_name":"未知分类","address":"上海新金桥路金穗路"},{"poiid":"B2094655D36CA5FE419A","title":"川桥路申江路","lon":"121.62423","lat":"31.2483","category":"38","category_name":"公交车站","address":""},{"poiid":"B2094654D568ABF44598","title":"金门广场","lon":"121.626","lat":"31.2613","category":"46","category_name":"楼宇","address":"上海金皖路389号"},{"poiid":"B2094654D569A3F8439C","title":"上海三电汽车空调有限公司","lon":"121.63461","lat":"31.25946","category":"263","category_name":"公司","address":"金穗路1900"},{"poiid":"B2094757D16EA0F84198","title":"BASF JTC","lon":"121.63327133","lat":"31.258475992","category":"500","category_name":"未知分类","address":"上海市浦东新区新金桥路"},{"poiid":"B2094655D36DA0FD419A","title":"新金桥路申江路","lon":"121.62647","lat":"31.26099","category":"38","category_name":"公交车站","address":""},{"poiid":"B2094654D569A2FA4399","title":"梁山饺子馆","lon":"121.63507","lat":"31.26231","category":"87","category_name":"特色／地方风味餐厅","address":""},{"poiid":"B2094757D069A5FA459D","title":"上海通用汽车 南厂车身","lon":"121.619228339","lat":"31.2691012364","category":"500","category_name":"未知分类","address":"上海申江路1500"},{"poiid":"B2094654D569A3F8409E","title":"长谷川香料(上海)有限公司","lon":"121.63386","lat":"31.26076","category":"263","category_name":"公司","address":"新金桥路2365"},{"poiid":"B2094655D36CA0FE4392","title":"金穗路鲁桥路","lon":"121.63487","lat":"31.25718","category":"38","category_name":"公交车站","address":""},{"poiid":"B2094757D66CA0F9449A","title":"浦东新区金穗路993车站","lon":"121.635134","lat":"31.259555","category":"500","category_name":"未知分类","address":"上海浦东新区金穗路"},{"poiid":"B2094655D36CA0FE4499","title":"金苏路新金桥路","lon":"121.63001","lat":"31.25993","category":"38","category_name":"公交车站","address":""},{"poiid":"B2094655D264A5FA4199","title":"欧姆龙大厦","lon":"121.63175","lat":"31.26543","category":"46","category_name":"楼宇","address":"金吉路789号"},{"poiid":"B2094654D568ABF54392","title":"上海京瓷电子有限公司上海金桥工厂","lon":"121.6284","lat":"31.26052","category":"263","category_name":"公司","address":"新金桥路2077"},{"poiid":"B2094654D569A3F8409F","title":"上海日立电器有限公司东厂区二号门","lon":"121.63241","lat":"31.26077","category":"263","category_name":"公司","address":"新金桥路2333号"},{"poiid":"B2094757D06FABFD499C","title":"上海华虹NEC电子有限公司","lon":"121.62340126","lat":"31.247653226","category":"46","category_name":"楼宇","address":"上海浦东新区川桥路1188号"},{"poiid":"B2094757D068A6FA409B","title":"上海日立电器有限公司","lon":"121.62077638","lat":"31.252898312","category":"46","category_name":"楼宇","address":"上海浦东金桥出口加工区宁桥路888号"},{"poiid":"B2094757D064A6F54193","title":"上海京瓷电子有限公司","lon":"121.63351473","lat":"31.257024225","category":"263","category_name":"公司","address":"上海市浦东新区新金桥路2077号"},{"poiid":"B2094757D16EA0FC489C","title":"上海第二工业大学 图文信息中心","lon":"121.650222339","lat":"31.2628240921","category":"500","category_name":"未知分类","address":"上海浦东新区金海路2360号,第二工业大学,校内"},{"poiid":"B2094757D66EA2F5429C","title":"云桥路","lon":"121.634679539","lat":"31.2571377614","category":"500","category_name":"未知分类","address":"上海云桥路"},{"poiid":"B2094757D66CA6FE4393","title":"巴斯夫中国有限公司","lon":"121.637796039","lat":"31.2636734116","category":"263","category_name":"公司","address":"上海市金桥出口加工区鲁桥路239号"},{"poiid":"B2094654D569A2FA4393","title":"上海日立电器有限公司东厂区一号门","lon":"121.63017","lat":"31.25923","category":"263","category_name":"公司","address":"金苏路77号"},{"poiid":"B2094655D36DA0FD409E","title":"新金桥路冀桥路","lon":"121.62778","lat":"31.26094","category":"38","category_name":"公交车站","address":""},{"poiid":"B2094654D569A2F9489D","title":"河南好再来拉面(金高路)","lon":"121.63803","lat":"31.25624","category":"257","category_name":"中餐厅","address":""},{"poiid":"B2094757D169A1FE469A","title":"华为","lon":"121.62854933","lat":"31.262195077","category":"249","category_name":"购物服务","address":"上海市浦东新区金海路"},{"poiid":"B2094654D569A3F8409D","title":"康宁(上海)有限公司","lon":"121.63402","lat":"31.25611","category":"263","category_name":"公司","address":"鲁桥路358号"},{"poiid":"B2094757D66EAAF9489E","title":"kyocers","lon":"121.63168933","lat":"31.256940956","category":"500","category_name":"未知分类","address":"上海新金桥路"},{"poiid":"B2094654D569A2F94892","title":"清真兰州牛肉拉面(金高路)","lon":"121.63839","lat":"31.25619","category":"90","category_name":"清真餐馆","address":""},{"poiid":"B2094757D068AAFF4898","title":"Omron","lon":"121.63202","lat":"31.26516","category":"263","category_name":"公司","address":"浦东新区金吉路789号(近金海路)"},{"poiid":"B2094654D569A2FA449A","title":"上海日立电器有限公司东厂区三号门","lon":"121.63066","lat":"31.25802","category":"263","category_name":"公司","address":"冀桥路"},{"poiid":"B2094757D06AA4F9489B","title":"方正大厦","lon":"121.618","lat":"31.2592","category":"46","category_name":"楼宇","address":"丰台学城海鹰路1号,3号"},{"poiid":"B2094757D168A0FE4498","title":"广汽丰田长宇浦东店","lon":"121.629372939","lat":"31.2664535255","category":"500","category_name":"未知分类","address":"浦东新区榕桥路618号(近金海路)"},{"poiid":"B2094655D36CA0FF439C","title":"金吉路榕桥路","lon":"121.63155","lat":"31.26624","category":"38","category_name":"公交车站","address":""},{"poiid":"B2094757D06AA4FF4698","title":"宁桥路","lon":"121.624057","lat":"31.253684","category":"46","category_name":"楼宇","address":"上海宁桥路999号金桥加工园区"},{"poiid":"B2094654D568ABF54393","title":"上海京瓷电子有限公司(冀桥路)","lon":"121.62841","lat":"31.2579","category":"263","category_name":"公司","address":""},{"poiid":"B2094654D568ABF5469B","title":"宝钢工贸大厦","lon":"121.626","lat":"31.2627","category":"46","category_name":"楼宇","address":"新金桥路1568号"},{"poiid":"B2094757D06AABF44193","title":"上海帝森克虏伯汇众","lon":"121.629655998","lat":"31.2660571747","category":"500","category_name":"未知分类","address":"上海申江路1900号"},{"poiid":"B2094757D06AA0FA4192","title":"辉门中国","lon":"121.626588339","lat":"31.2579829808","category":"500","category_name":"未知分类","address":"上海市浦东新区冀桥路118号"},{"poiid":"B2094654D569A2FA449B","title":"上海华裕汽车修理有限公司","lon":"121.62979","lat":"31.25614","category":"263","category_name":"公司","address":"浦东新区金苏路238号(金苏路鲁桥路)"},{"poiid":"B2094655D36CA6F9479A","title":"二工大","lon":"121.64724","lat":"31.26448","category":"38","category_name":"公交车站","address":"金海路2360"},{"poiid":"B2094757D06FAAF44399","title":"华为技术有限公司上海研究所","lon":"121.63109735","lat":"31.26100277","category":"500","category_name":"未知分类","address":"上海浦东新金桥路2222号"},{"poiid":"B2094654DB6BA1FA469B","title":"上海第二工业大学","lon":"121.65148","lat":"31.26086","category":"671","category_name":"高校中心点","address":"浦东新区金海路2360号"},{"poiid":"B2094757D06BA7FF449E","title":"金领之都","lon":"121.62876399826","lat":"31.265811442778","category":"76","category_name":"上海菜","address":"金海路1000号新金桥路1888号"},{"poiid":"B2094655D36CA0FF459D","title":"金海路申江路","lon":"121.62591","lat":"31.26437","category":"38","category_name":"公交车站","address":""},{"poiid":"B2094757D068A3FC469A","title":"联合汽车电子有限公司","lon":"121.62747955","lat":"31.267131805","category":"263","category_name":"公司","address":"上海浦东新区榕桥路555号"},{"poiid":"B2094654DA6AA4FF409D","title":"上海国际队足球训练基地","lon":"121.62972","lat":"31.24588","category":"230","category_name":"足球场","address":"唐陆路888"},{"poiid":"B2094757D06AABF9499E","title":"欧姆龙(上海)有限公司","lon":"121.630658239","lat":"31.2653492501","category":"263","category_name":"公司","address":"上海市浦东新区金桥出口加工区金吉路789号"},{"poiid":"B2094757D16BA5FE4598","title":"金海路金穗路","lon":"121.637383339","lat":"31.2625120849","category":"500","category_name":"未知分类","address":"上海金海路金穗路十字路口"},{"poiid":"B2094655D36CA0FF4698","title":"金海路环东二大道","lon":"121.64525","lat":"31.26434","category":"38","category_name":"公交车站","address":""},{"poiid":"B2094757D06BA7F94692","title":"上海日立电器有限公司东厂区","lon":"121.63239031","lat":"31.260006227","category":"46","category_name":"楼宇","address":"上海金苏路77号"},{"poiid":"B2094757D16BA7F9429B","title":"新金桥路金穗路","lon":"121.63384","lat":"31.260881","category":"500","category_name":"未知分类","address":"上海新金桥路金穗路"},{"poiid":"B2094655D36CA5FE419A","title":"川桥路申江路","lon":"121.62423","lat":"31.2483","category":"38","category_name":"公交车站","address":""},{"poiid":"B2094654D568ABF44598","title":"金门广场","lon":"121.626","lat":"31.2613","category":"46","category_name":"楼宇","address":"上海金皖路389号"},{"poiid":"B2094654D569A3F8439C","title":"上海三电汽车空调有限公司","lon":"121.63461","lat":"31.25946","category":"263","category_name":"公司","address":"金穗路1900"},{"poiid":"B2094757D16EA0F84198","title":"BASF JTC","lon":"121.63327133","lat":"31.258475992","category":"500","category_name":"未知分类","address":"上海市浦东新区新金桥路"},{"poiid":"B2094655D36DA0FD419A","title":"新金桥路申江路","lon":"121.62647","lat":"31.26099","category":"38","category_name":"公交车站","address":""},{"poiid":"B2094654D569A2FA4399","title":"梁山饺子馆","lon":"121.63507","lat":"31.26231","category":"87","category_name":"特色／地方风味餐厅","address":""},{"poiid":"B2094757D069A5FA459D","title":"上海通用汽车 南厂车身","lon":"121.619228339","lat":"31.2691012364","category":"500","category_name":"未知分类","address":"上海申江路1500"},{"poiid":"B2094654D569A3F8409E","title":"长谷川香料(上海)有限公司","lon":"121.63386","lat":"31.26076","category":"263","category_name":"公司","address":"新金桥路2365"},{"poiid":"B2094655D36CA0FE4392","title":"金穗路鲁桥路","lon":"121.63487","lat":"31.25718","category":"38","category_name":"公交车站","address":""},{"poiid":"B2094757D66CA0F9449A","title":"浦东新区金穗路993车站","lon":"121.635134","lat":"31.259555","category":"500","category_name":"未知分类","address":"上海浦东新区金穗路"},{"poiid":"B2094655D36CA0FE4499","title":"金苏路新金桥路","lon":"121.63001","lat":"31.25993","category":"38","category_name":"公交车站","address":""},{"poiid":"B2094655D264A5FA4199","title":"欧姆龙大厦","lon":"121.63175","lat":"31.26543","category":"46","category_name":"楼宇","address":"金吉路789号"},{"poiid":"B2094654D568ABF54392","title":"上海京瓷电子有限公司上海金桥工厂","lon":"121.6284","lat":"31.26052","category":"263","category_name":"公司","address":"新金桥路2077"},{"poiid":"B2094654D569A3F8409F","title":"上海日立电器有限公司东厂区二号门","lon":"121.63241","lat":"31.26077","category":"263","category_name":"公司","address":"新金桥路2333号"},{"poiid":"B2094757D06FABFD499C","title":"上海华虹NEC电子有限公司","lon":"121.62340126","lat":"31.247653226","category":"46","category_name":"楼宇","address":"上海浦东新区川桥路1188号"},{"poiid":"B2094757D068A6FA409B","title":"上海日立电器有限公司","lon":"121.62077638","lat":"31.252898312","category":"46","category_name":"楼宇","address":"上海浦东金桥出口加工区宁桥路888号"},{"poiid":"B2094757D064A6F54193","title":"上海京瓷电子有限公司","lon":"121.63351473","lat":"31.257024225","category":"263","category_name":"公司","address":"上海市浦东新区新金桥路2077号"},{"poiid":"B2094757D16EA0FC489C","title":"上海第二工业大学 图文信息中心","lon":"121.650222339","lat":"31.2628240921","category":"500","category_name":"未知分类","address":"上海浦东新区金海路2360号,第二工业大学,校内"},{"poiid":"B2094757D66EA2F5429C","title":"云桥路","lon":"121.634679539","lat":"31.2571377614","category":"500","category_name":"未知分类","address":"上海云桥路"},{"poiid":"B2094757D66CA6FE4393","title":"巴斯夫中国有限公司","lon":"121.637796039","lat":"31.2636734116","category":"263","category_name":"公司","address":"上海市金桥出口加工区鲁桥路239号"},{"poiid":"B2094654D569A2FA4393","title":"上海日立电器有限公司东厂区一号门","lon":"121.63017","lat":"31.25923","category":"263","category_name":"公司","address":"金苏路77号"},{"poiid":"B2094655D36DA0FD409E","title":"新金桥路冀桥路","lon":"121.62778","lat":"31.26094","category":"38","category_name":"公交车站","address":""},{"poiid":"B2094654D569A2F9489D","title":"河南好再来拉面(金高路)","lon":"121.63803","lat":"31.25624","category":"257","category_name":"中餐厅","address":""},{"poiid":"B2094757D169A1FE469A","title":"华为","lon":"121.62854933","lat":"31.262195077","category":"249","category_name":"购物服务","address":"上海市浦东新区金海路"},{"poiid":"B2094654D569A3F8409D","title":"康宁(上海)有限公司","lon":"121.63402","lat":"31.25611","category":"263","category_name":"公司","address":"鲁桥路358号"},{"poiid":"B2094757D66EAAF9489E","title":"kyocers","lon":"121.63168933","lat":"31.256940956","category":"500","category_name":"未知分类","address":"上海新金桥路"},{"poiid":"B2094654D569A2F94892","title":"清真兰州牛肉拉面(金高路)","lon":"121.63839","lat":"31.25619","category":"90","category_name":"清真餐馆","address":""},{"poiid":"B2094757D068AAFF4898","title":"Omron","lon":"121.63202","lat":"31.26516","category":"263","category_name":"公司","address":"浦东新区金吉路789号(近金海路)"},{"poiid":"B2094654D569A2FA449A","title":"上海日立电器有限公司东厂区三号门","lon":"121.63066","lat":"31.25802","category":"263","category_name":"公司","address":"冀桥路"},{"poiid":"B2094757D06AA4F9489B","title":"方正大厦","lon":"121.618","lat":"31.2592","category":"46","category_name":"楼宇","address":"丰台学城海鹰路1号,3号"},{"poiid":"B2094757D168A0FE4498","title":"广汽丰田长宇浦东店","lon":"121.629372939","lat":"31.2664535255","category":"500","category_name":"未知分类","address":"浦东新区榕桥路618号(近金海路)"},{"poiid":"B2094655D36CA0FF439C","title":"金吉路榕桥路","lon":"121.63155","lat":"31.26624","category":"38","category_name":"公交车站","address":""},{"poiid":"B2094757D06AA4FF4698","title":"宁桥路","lon":"121.624057","lat":"31.253684","category":"46","category_name":"楼宇","address":"上海宁桥路999号金桥加工园区"},{"poiid":"B2094654D568ABF54393","title":"上海京瓷电子有限公司(冀桥路)","lon":"121.62841","lat":"31.2579","category":"263","category_name":"公司","address":""},{"poiid":"B2094654D568ABF5469B","title":"宝钢工贸大厦","lon":"121.626","lat":"31.2627","category":"46","category_name":"楼宇","address":"新金桥路1568号"},{"poiid":"B2094757D06AABF44193","title":"上海帝森克虏伯汇众","lon":"121.629655998","lat":"31.2660571747","category":"500","category_name":"未知分类","address":"上海申江路1900号"},{"poiid":"B2094757D06AA0FA4192","title":"辉门中国","lon":"121.626588339","lat":"31.2579829808","category":"500","category_name":"未知分类","address":"上海市浦东新区冀桥路118号"},{"poiid":"B2094654D569A2FA449B","title":"上海华裕汽车修理有限公司","lon":"121.62979","lat":"31.25614","category":"263","category_name":"公司","address":"浦东新区金苏路238号(金苏路鲁桥路)"},{"poiid":"B2094655D36CA6F9479A","title":"二工大","lon":"121.64724","lat":"31.26448","category":"38","category_name":"公交车站","address":"金海路2360"}]