[{"poiid":"B2094757D068A6FC429D","title":"饭香精菜坊","lon":"121.41779558","lat":"31.233561496","category":"76","category_name":"上海菜","address":"普陀区宁夏路370号(近白玉路)"},{"poiid":"B2094752DB64A4FE429D","title":"蜀九香","lon":"121.421003","lat":"31.234351","category":"500","category_name":"未知分类","address":"上海市 曹杨路333号3楼"},{"poiid":"B2094757D068A5F44592","title":"谈家渡路曹杨路","lon":"121.421281704","lat":"31.2341927364","category":"500","category_name":"未知分类","address":"上海谈家渡路曹杨路"},{"poiid":"B2094757D06FA2F4489A","title":"上海印钞有限公司","lon":"121.42245769","lat":"31.232129732","category":"263","category_name":"公司","address":"上海市曹杨路158号"},{"poiid":"B2094757D06FA1FC4292","title":"隆德路地铁站","lon":"121.42287716","lat":"31.231111303","category":"36","category_name":"地铁站","address":"上海轨道交通 十一号线 轨交隆德路站 11"},{"poiid":"B2094757D068AAFC4392","title":"中环大厦","lon":"121.4180654908","lat":"31.232873517761","category":"46","category_name":"楼宇","address":"上海普陀区中山北路3856弄1-4号"},{"poiid":"B2094654D565A3FE489A","title":"上钞大厦","lon":"121.42248","lat":"31.23261","category":"46","category_name":"楼宇","address":"浦东区崂山东路410号"},{"poiid":"B2094655D36CA3F4479F","title":"绿地世纪城(上海春天)","lon":"121.42038","lat":"31.23339","category":"47","category_name":"住宅区","address":"绿地世纪城(上海春天)位于普陀曹杨路303弄"},{"poiid":"B2094757D56DA0F8449F","title":"宁夏路营业厅","lon":"121.420158","lat":"31.234798","category":"151","category_name":"电讯营业厅","address":"普陀区宁夏路215号（曹杨路口）"},{"poiid":"B2094757D06AA2FC499E","title":"重庆鸡公煲 曹杨路店","lon":"121.421479054","lat":"31.232624793","category":"71","category_name":"四川菜","address":"普陀区曹杨路253号(近顺义路)"},{"poiid":"B2094757D06FA1F84299","title":"招商银行(曹杨支行)","lon":"121.42263","lat":"31.23245","category":"46","category_name":"楼宇","address":"普陀区曹杨路188号(曹杨路顺义路)"},{"poiid":"B2094655D26DA2F4449E","title":"上岛咖啡(曹阳一店)","lon":"121.42197","lat":"31.23225","category":"65","category_name":"咖啡厅","address":"普陀区曹杨路179号(近地铁11号线隆德路站)"},{"poiid":"B2094654DB6BA6FE4299","title":"九州拉面 顺义路店","lon":"121.42163828362","lat":"31.231864644189","category":"95","category_name":"日本料理","address":"普陀区顺义路20号(近曹杨路)"},{"poiid":"B2094757D064A0F9469C","title":"凯司令西点房 宁夏店","lon":"121.418844","lat":"31.233356","category":"67","category_name":"甜品店","address":"普陀区宁夏路331号(近瞿家廊路)"},{"poiid":"B2094753D469A6F4489D","title":"满记甜品（GLOBAL HARBOR店）","lon":"121.417198","lat":"31.231542","category":"247","category_name":"餐饮美食","address":"上海市 中山北路环球港B1楼"},{"poiid":"B2094757D16BA0F5409A","title":"摩蟹座 台湾养生牛肉面","lon":"121.421153586","lat":"31.2319234642","category":"247","category_name":"餐饮美食","address":"上海顺义路50号"},{"poiid":"B2094654DB6BA6FE4193","title":"大桶大足浴","lon":"121.4194","lat":"31.23113","category":"149","category_name":"洗浴推拿场所","address":"普陀区顺义路116号(近白玉路)"},{"poiid":"B2094757D068A0F84792","title":"盛泉商务大厦","lon":"121.42168205","lat":"31.234239539","category":"46","category_name":"楼宇","address":"上海谈家渡路28号"},{"poiid":"B2094654DB6BA6FE419F","title":"世纪同乐绿地世纪城二期","lon":"121.42071","lat":"31.23107","category":"47","category_name":"住宅区","address":"上海市普陀区顺义路68号(曹杨路口)"},{"poiid":"B2094654D565A2FC429B","title":"足沄庭健康足道中心","lon":"121.42039","lat":"31.23158","category":"149","category_name":"洗浴推拿场所","address":"普陀区普陀区顺义路78号(近白玉路)"},{"poiid":"B2094655D265ABFC409D","title":"巴比馒头顺义路店","lon":"121.41991","lat":"31.23152","category":"68","category_name":"快餐厅","address":"普陀区顺义路100弄世纪同乐附近(近曹杨路)"},{"poiid":"B2094753D46BA1FF409E","title":"哈根达斯（月星环球店）","lon":"121.417846","lat":"31.231706","category":"263","category_name":"公司","address":"上海市 上海中山北路3300号月星环球商业中心一层"},{"poiid":"B209475CD16BA1FA4898","title":"天辣绿色时尚餐厅","lon":"121.417266","lat":"31.23147","category":"500","category_name":"未知分类","address":"上海市 中山北路3300号月星环球港4楼L4059号商铺"},{"poiid":"B2094654D565A2FC4298","title":"明英美容美发","lon":"121.42045","lat":"31.23162","category":"148","category_name":"美容美发店","address":"普陀区顺义路76号(近白玉路)"},{"poiid":"B2094654D565A2FC4193","title":"可的(顺义路)","lon":"121.42021","lat":"31.23148","category":"117","category_name":"便民商店/便利店","address":"普陀区顺义路84号"},{"poiid":"B2094757D16FA2F44499","title":"主流美容美发","lon":"121.42058","lat":"31.23128","category":"148","category_name":"美容美发店","address":"普陀区顺义路80号"},{"poiid":"B2094753D764AAF84798","title":"巫山烤鱼麻辣香锅重庆鸡公煲","lon":"121.421478","lat":"31.231767","category":"247","category_name":"餐饮美食","address":"上海市 长宁支路江苏北路"},{"poiid":"B2094753D56CA0F44899","title":"赤坂亭（月星环球港店）","lon":"121.417694","lat":"31.232048","category":"500","category_name":"未知分类","address":"上海市 中山北路3300号月星环球港3楼"},{"poiid":"B2094751DA64A4F9479C","title":"南京路步行街","lon":"121.421521","lat":"31.233609","category":"500","category_name":"未知分类","address":null},{"poiid":"B2094654D565A2FC419C","title":"顺忆齿科","lon":"121.4196","lat":"31.23121","category":"162","category_name":"医院","address":"普陀区顺义路112号(近白玉路)"},{"poiid":"B2094757D068A5F4459D","title":"乐记小厨","lon":"121.41804","lat":"31.23061","category":"72","category_name":"广东菜","address":"普陀区顺义路152号(近白玉路)"},{"poiid":"B2094753D469A2F94992","title":"环球港","lon":"121.419761","lat":"31.232303","category":"500","category_name":"未知分类","address":"上海市 环球港"},{"poiid":"B2094757D068A6F54498","title":"交通银行(顺义路支行)","lon":"121.42106","lat":"31.23154","category":"150","category_name":"银行","address":"普陀区顺义路62号靠曹杨路"},{"poiid":"B2094757D06BA2F4409E","title":"锦绿新城","lon":"121.42037","lat":"31.233389","category":"47","category_name":"住宅区","address":"锦绿新城位于普陀宁夏路287号(曹杨路路口)"},{"poiid":"B2094757D66CA0F8429F","title":"顺义路","lon":"121.419774","lat":"31.2316","category":"500","category_name":"未知分类","address":"上海顺义路100弄"},{"poiid":"B2094654DB65AAF84293","title":"曹杨路办公楼","lon":"121.42176","lat":"31.23357","category":"46","category_name":"楼宇","address":"朝阳区亚运村北3公里北苑居住区"},{"poiid":"B2094757DA6EA7F4489B","title":"卡崴造型沙龙(顺义路店)","lon":"121.420449000002","lat":"31.2316209999998","category":"248","category_name":"生活娱乐","address":"普陀区顺义路76号"},{"poiid":"B2094757D064A6FA4598","title":"可的便利店","lon":"121.42011562","lat":"31.23167035","category":"500","category_name":"未知分类","address":"上海顺义路86号"},{"poiid":"B2094654D565A2FC4992","title":"绿地世纪城一期绿地世纪花园","lon":"121.4192","lat":"31.23282","category":"47","category_name":"住宅区","address":"宁夏路353弄"},{"poiid":"B2094757D06BA1FF429D","title":"上海春天","lon":"121.41882818","lat":"31.232124668","category":"500","category_name":"未知分类","address":"上海宁夏路353弄"},{"poiid":"B2094654D565A2FE409F","title":"绿地世纪城锦绿新城二期","lon":"121.42004","lat":"31.23401","category":"47","category_name":"住宅区","address":"宁夏路255号"},{"poiid":"B2094757D169A1FD4699","title":"顺义路100弄","lon":"121.41988269","lat":"31.23143974","category":"500","category_name":"未知分类","address":"上海世纪同乐"},{"poiid":"B2094654D565A2FE459C","title":"避风塘时尚饮品","lon":"121.42131","lat":"31.23338","category":"113","category_name":"冷饮店","address":""},{"poiid":"B2094654D565A2FC4098","title":"隆德小区","lon":"121.42258","lat":"31.229111","category":"47","category_name":"住宅区","address":"光复西路1145弄11"},{"poiid":"B2094757D168A2FA499E","title":"P萨工坊(浦江店)","lon":"121.419908","lat":"31.231522","category":"500","category_name":"未知分类","address":"上海浦锦路309弄绿地乐和城2楼"},{"poiid":"B2094757DB69A4F84892","title":"普陀绿地假日酒店holiday inn express","lon":"121.4194592862312","lat":"31.23176027832595","category":"500","category_name":"未知分类","address":"普陀区光复西路843号"},{"poiid":"B2094757D66CA5FE4898","title":"华联酒家","lon":"121.42069","lat":"31.23445","category":"76","category_name":"上海菜","address":"普陀区曹杨路298号(近宁夏路)"},{"poiid":"B2094752D468A2F84199","title":"上海火车站","lon":"121.420351","lat":"31.233437","category":"500","category_name":"未知分类","address":null},{"poiid":"B2094757D06AA6F44898","title":"上海印钞厂","lon":"121.422483","lat":"31.232607","category":"500","category_name":"未知分类","address":"上海曹杨路158号"},{"poiid":"B2094655D26AA0F94998","title":"地铁隆德路站","lon":"121.4228","lat":"31.2311","category":"36","category_name":"地铁站","address":""},{"poiid":"B2094757D068A6FC429D","title":"饭香精菜坊","lon":"121.41779558","lat":"31.233561496","category":"76","category_name":"上海菜","address":"普陀区宁夏路370号(近白玉路)"},{"poiid":"B2094752DB64A4FE429D","title":"蜀九香","lon":"121.421003","lat":"31.234351","category":"500","category_name":"未知分类","address":"上海市 曹杨路333号3楼"},{"poiid":"B2094757D068A5F44592","title":"谈家渡路曹杨路","lon":"121.421281704","lat":"31.2341927364","category":"500","category_name":"未知分类","address":"上海谈家渡路曹杨路"},{"poiid":"B2094757D06FA2F4489A","title":"上海印钞有限公司","lon":"121.42245769","lat":"31.232129732","category":"263","category_name":"公司","address":"上海市曹杨路158号"},{"poiid":"B2094757D06FA1FC4292","title":"隆德路地铁站","lon":"121.42287716","lat":"31.231111303","category":"36","category_name":"地铁站","address":"上海轨道交通 十一号线 轨交隆德路站 11"},{"poiid":"B2094757D068AAFC4392","title":"中环大厦","lon":"121.4180654908","lat":"31.232873517761","category":"46","category_name":"楼宇","address":"上海普陀区中山北路3856弄1-4号"},{"poiid":"B2094654D565A3FE489A","title":"上钞大厦","lon":"121.42248","lat":"31.23261","category":"46","category_name":"楼宇","address":"浦东区崂山东路410号"},{"poiid":"B2094655D36CA3F4479F","title":"绿地世纪城(上海春天)","lon":"121.42038","lat":"31.23339","category":"47","category_name":"住宅区","address":"绿地世纪城(上海春天)位于普陀曹杨路303弄"},{"poiid":"B2094757D56DA0F8449F","title":"宁夏路营业厅","lon":"121.420158","lat":"31.234798","category":"151","category_name":"电讯营业厅","address":"普陀区宁夏路215号（曹杨路口）"},{"poiid":"B2094757D06AA2FC499E","title":"重庆鸡公煲 曹杨路店","lon":"121.421479054","lat":"31.232624793","category":"71","category_name":"四川菜","address":"普陀区曹杨路253号(近顺义路)"},{"poiid":"B2094757D06FA1F84299","title":"招商银行(曹杨支行)","lon":"121.42263","lat":"31.23245","category":"46","category_name":"楼宇","address":"普陀区曹杨路188号(曹杨路顺义路)"},{"poiid":"B2094655D26DA2F4449E","title":"上岛咖啡(曹阳一店)","lon":"121.42197","lat":"31.23225","category":"65","category_name":"咖啡厅","address":"普陀区曹杨路179号(近地铁11号线隆德路站)"},{"poiid":"B2094654DB6BA6FE4299","title":"九州拉面 顺义路店","lon":"121.42163828362","lat":"31.231864644189","category":"95","category_name":"日本料理","address":"普陀区顺义路20号(近曹杨路)"},{"poiid":"B2094757D064A0F9469C","title":"凯司令西点房 宁夏店","lon":"121.418844","lat":"31.233356","category":"67","category_name":"甜品店","address":"普陀区宁夏路331号(近瞿家廊路)"},{"poiid":"B2094753D469A6F4489D","title":"满记甜品（GLOBAL HARBOR店）","lon":"121.417198","lat":"31.231542","category":"247","category_name":"餐饮美食","address":"上海市 中山北路环球港B1楼"},{"poiid":"B2094757D16BA0F5409A","title":"摩蟹座 台湾养生牛肉面","lon":"121.421153586","lat":"31.2319234642","category":"247","category_name":"餐饮美食","address":"上海顺义路50号"},{"poiid":"B2094654DB6BA6FE4193","title":"大桶大足浴","lon":"121.4194","lat":"31.23113","category":"149","category_name":"洗浴推拿场所","address":"普陀区顺义路116号(近白玉路)"},{"poiid":"B2094757D068A0F84792","title":"盛泉商务大厦","lon":"121.42168205","lat":"31.234239539","category":"46","category_name":"楼宇","address":"上海谈家渡路28号"},{"poiid":"B2094654DB6BA6FE419F","title":"世纪同乐绿地世纪城二期","lon":"121.42071","lat":"31.23107","category":"47","category_name":"住宅区","address":"上海市普陀区顺义路68号(曹杨路口)"},{"poiid":"B2094654D565A2FC429B","title":"足沄庭健康足道中心","lon":"121.42039","lat":"31.23158","category":"149","category_name":"洗浴推拿场所","address":"普陀区普陀区顺义路78号(近白玉路)"},{"poiid":"B2094655D265ABFC409D","title":"巴比馒头顺义路店","lon":"121.41991","lat":"31.23152","category":"68","category_name":"快餐厅","address":"普陀区顺义路100弄世纪同乐附近(近曹杨路)"},{"poiid":"B2094753D46BA1FF409E","title":"哈根达斯（月星环球店）","lon":"121.417846","lat":"31.231706","category":"263","category_name":"公司","address":"上海市 上海中山北路3300号月星环球商业中心一层"},{"poiid":"B209475CD16BA1FA4898","title":"天辣绿色时尚餐厅","lon":"121.417266","lat":"31.23147","category":"500","category_name":"未知分类","address":"上海市 中山北路3300号月星环球港4楼L4059号商铺"},{"poiid":"B2094654D565A2FC4298","title":"明英美容美发","lon":"121.42045","lat":"31.23162","category":"148","category_name":"美容美发店","address":"普陀区顺义路76号(近白玉路)"},{"poiid":"B2094654D565A2FC4193","title":"可的(顺义路)","lon":"121.42021","lat":"31.23148","category":"117","category_name":"便民商店/便利店","address":"普陀区顺义路84号"},{"poiid":"B2094757D16FA2F44499","title":"主流美容美发","lon":"121.42058","lat":"31.23128","category":"148","category_name":"美容美发店","address":"普陀区顺义路80号"},{"poiid":"B2094753D764AAF84798","title":"巫山烤鱼麻辣香锅重庆鸡公煲","lon":"121.421478","lat":"31.231767","category":"247","category_name":"餐饮美食","address":"上海市 长宁支路江苏北路"},{"poiid":"B2094753D56CA0F44899","title":"赤坂亭（月星环球港店）","lon":"121.417694","lat":"31.232048","category":"500","category_name":"未知分类","address":"上海市 中山北路3300号月星环球港3楼"},{"poiid":"B2094751DA64A4F9479C","title":"南京路步行街","lon":"121.421521","lat":"31.233609","category":"500","category_name":"未知分类","address":null},{"poiid":"B2094654D565A2FC419C","title":"顺忆齿科","lon":"121.4196","lat":"31.23121","category":"162","category_name":"医院","address":"普陀区顺义路112号(近白玉路)"},{"poiid":"B2094757D068A5F4459D","title":"乐记小厨","lon":"121.41804","lat":"31.23061","category":"72","category_name":"广东菜","address":"普陀区顺义路152号(近白玉路)"},{"poiid":"B2094753D469A2F94992","title":"环球港","lon":"121.419761","lat":"31.232303","category":"500","category_name":"未知分类","address":"上海市 环球港"},{"poiid":"B2094757D068A6F54498","title":"交通银行(顺义路支行)","lon":"121.42106","lat":"31.23154","category":"150","category_name":"银行","address":"普陀区顺义路62号靠曹杨路"},{"poiid":"B2094757D06BA2F4409E","title":"锦绿新城","lon":"121.42037","lat":"31.233389","category":"47","category_name":"住宅区","address":"锦绿新城位于普陀宁夏路287号(曹杨路路口)"},{"poiid":"B2094757D66CA0F8429F","title":"顺义路","lon":"121.419774","lat":"31.2316","category":"500","category_name":"未知分类","address":"上海顺义路100弄"},{"poiid":"B2094654DB65AAF84293","title":"曹杨路办公楼","lon":"121.42176","lat":"31.23357","category":"46","category_name":"楼宇","address":"朝阳区亚运村北3公里北苑居住区"},{"poiid":"B2094757DA6EA7F4489B","title":"卡崴造型沙龙(顺义路店)","lon":"121.420449000002","lat":"31.2316209999998","category":"248","category_name":"生活娱乐","address":"普陀区顺义路76号"},{"poiid":"B2094757D064A6FA4598","title":"可的便利店","lon":"121.42011562","lat":"31.23167035","category":"500","category_name":"未知分类","address":"上海顺义路86号"},{"poiid":"B2094654D565A2FC4992","title":"绿地世纪城一期绿地世纪花园","lon":"121.4192","lat":"31.23282","category":"47","category_name":"住宅区","address":"宁夏路353弄"},{"poiid":"B2094757D06BA1FF429D","title":"上海春天","lon":"121.41882818","lat":"31.232124668","category":"500","category_name":"未知分类","address":"上海宁夏路353弄"},{"poiid":"B2094654D565A2FE409F","title":"绿地世纪城锦绿新城二期","lon":"121.42004","lat":"31.23401","category":"47","category_name":"住宅区","address":"宁夏路255号"},{"poiid":"B2094757D169A1FD4699","title":"顺义路100弄","lon":"121.41988269","lat":"31.23143974","category":"500","category_name":"未知分类","address":"上海世纪同乐"},{"poiid":"B2094654D565A2FE459C","title":"避风塘时尚饮品","lon":"121.42131","lat":"31.23338","category":"113","category_name":"冷饮店","address":""},{"poiid":"B2094654D565A2FC4098","title":"隆德小区","lon":"121.42258","lat":"31.229111","category":"47","category_name":"住宅区","address":"光复西路1145弄11"},{"poiid":"B2094757D168A2FA499E","title":"P萨工坊(浦江店)","lon":"121.419908","lat":"31.231522","category":"500","category_name":"未知分类","address":"上海浦锦路309弄绿地乐和城2楼"},{"poiid":"B2094757DB69A4F84892","title":"普陀绿地假日酒店holiday inn express","lon":"121.4194592862312","lat":"31.23176027832595","category":"500","category_name":"未知分类","address":"普陀区光复西路843号"},{"poiid":"B2094757D66CA5FE4898","title":"华联酒家","lon":"121.42069","lat":"31.23445","category":"76","category_name":"上海菜","address":"普陀区曹杨路298号(近宁夏路)"},{"poiid":"B2094752D468A2F84199","title":"上海火车站","lon":"121.420351","lat":"31.233437","category":"500","category_name":"未知分类","address":null},{"poiid":"B2094757D06AA6F44898","title":"上海印钞厂","lon":"121.422483","lat":"31.232607","category":"500","category_name":"未知分类","address":"上海曹杨路158号"},{"poiid":"B2094655D26AA0F94998","title":"地铁隆德路站","lon":"121.4228","lat":"31.2311","category":"36","category_name":"地铁站","address":""},{"poiid":"B2094757D068A6FC429D","title":"饭香精菜坊","lon":"121.41779558","lat":"31.233561496","category":"76","category_name":"上海菜","address":"普陀区宁夏路370号(近白玉路)"},{"poiid":"B2094752DB64A4FE429D","title":"蜀九香","lon":"121.421003","lat":"31.234351","category":"500","category_name":"未知分类","address":"上海市 曹杨路333号3楼"},{"poiid":"B2094757D068A5F44592","title":"谈家渡路曹杨路","lon":"121.421281704","lat":"31.2341927364","category":"500","category_name":"未知分类","address":"上海谈家渡路曹杨路"},{"poiid":"B2094757D06FA2F4489A","title":"上海印钞有限公司","lon":"121.42245769","lat":"31.232129732","category":"263","category_name":"公司","address":"上海市曹杨路158号"},{"poiid":"B2094757D06FA1FC4292","title":"隆德路地铁站","lon":"121.42287716","lat":"31.231111303","category":"36","category_name":"地铁站","address":"上海轨道交通 十一号线 轨交隆德路站 11"},{"poiid":"B2094757D068AAFC4392","title":"中环大厦","lon":"121.4180654908","lat":"31.232873517761","category":"46","category_name":"楼宇","address":"上海普陀区中山北路3856弄1-4号"},{"poiid":"B2094654D565A3FE489A","title":"上钞大厦","lon":"121.42248","lat":"31.23261","category":"46","category_name":"楼宇","address":"浦东区崂山东路410号"},{"poiid":"B2094655D36CA3F4479F","title":"绿地世纪城(上海春天)","lon":"121.42038","lat":"31.23339","category":"47","category_name":"住宅区","address":"绿地世纪城(上海春天)位于普陀曹杨路303弄"},{"poiid":"B2094757D56DA0F8449F","title":"宁夏路营业厅","lon":"121.420158","lat":"31.234798","category":"151","category_name":"电讯营业厅","address":"普陀区宁夏路215号（曹杨路口）"},{"poiid":"B2094757D06AA2FC499E","title":"重庆鸡公煲 曹杨路店","lon":"121.421479054","lat":"31.232624793","category":"71","category_name":"四川菜","address":"普陀区曹杨路253号(近顺义路)"},{"poiid":"B2094757D06FA1F84299","title":"招商银行(曹杨支行)","lon":"121.42263","lat":"31.23245","category":"46","category_name":"楼宇","address":"普陀区曹杨路188号(曹杨路顺义路)"},{"poiid":"B2094655D26DA2F4449E","title":"上岛咖啡(曹阳一店)","lon":"121.42197","lat":"31.23225","category":"65","category_name":"咖啡厅","address":"普陀区曹杨路179号(近地铁11号线隆德路站)"},{"poiid":"B2094654DB6BA6FE4299","title":"九州拉面 顺义路店","lon":"121.42163828362","lat":"31.231864644189","category":"95","category_name":"日本料理","address":"普陀区顺义路20号(近曹杨路)"},{"poiid":"B2094757D064A0F9469C","title":"凯司令西点房 宁夏店","lon":"121.418844","lat":"31.233356","category":"67","category_name":"甜品店","address":"普陀区宁夏路331号(近瞿家廊路)"},{"poiid":"B2094753D469A6F4489D","title":"满记甜品（GLOBAL HARBOR店）","lon":"121.417198","lat":"31.231542","category":"247","category_name":"餐饮美食","address":"上海市 中山北路环球港B1楼"},{"poiid":"B2094757D16BA0F5409A","title":"摩蟹座 台湾养生牛肉面","lon":"121.421153586","lat":"31.2319234642","category":"247","category_name":"餐饮美食","address":"上海顺义路50号"},{"poiid":"B2094654DB6BA6FE4193","title":"大桶大足浴","lon":"121.4194","lat":"31.23113","category":"149","category_name":"洗浴推拿场所","address":"普陀区顺义路116号(近白玉路)"},{"poiid":"B2094757D068A0F84792","title":"盛泉商务大厦","lon":"121.42168205","lat":"31.234239539","category":"46","category_name":"楼宇","address":"上海谈家渡路28号"},{"poiid":"B2094654DB6BA6FE419F","title":"世纪同乐绿地世纪城二期","lon":"121.42071","lat":"31.23107","category":"47","category_name":"住宅区","address":"上海市普陀区顺义路68号(曹杨路口)"},{"poiid":"B2094654D565A2FC429B","title":"足沄庭健康足道中心","lon":"121.42039","lat":"31.23158","category":"149","category_name":"洗浴推拿场所","address":"普陀区普陀区顺义路78号(近白玉路)"},{"poiid":"B2094655D265ABFC409D","title":"巴比馒头顺义路店","lon":"121.41991","lat":"31.23152","category":"68","category_name":"快餐厅","address":"普陀区顺义路100弄世纪同乐附近(近曹杨路)"},{"poiid":"B2094753D46BA1FF409E","title":"哈根达斯（月星环球店）","lon":"121.417846","lat":"31.231706","category":"263","category_name":"公司","address":"上海市 上海中山北路3300号月星环球商业中心一层"},{"poiid":"B209475CD16BA1FA4898","title":"天辣绿色时尚餐厅","lon":"121.417266","lat":"31.23147","category":"500","category_name":"未知分类","address":"上海市 中山北路3300号月星环球港4楼L4059号商铺"},{"poiid":"B2094654D565A2FC4298","title":"明英美容美发","lon":"121.42045","lat":"31.23162","category":"148","category_name":"美容美发店","address":"普陀区顺义路76号(近白玉路)"},{"poiid":"B2094654D565A2FC4193","title":"可的(顺义路)","lon":"121.42021","lat":"31.23148","category":"117","category_name":"便民商店/便利店","address":"普陀区顺义路84号"},{"poiid":"B2094757D16FA2F44499","title":"主流美容美发","lon":"121.42058","lat":"31.23128","category":"148","category_name":"美容美发店","address":"普陀区顺义路80号"},{"poiid":"B2094753D764AAF84798","title":"巫山烤鱼麻辣香锅重庆鸡公煲","lon":"121.421478","lat":"31.231767","category":"247","category_name":"餐饮美食","address":"上海市 长宁支路江苏北路"},{"poiid":"B2094753D56CA0F44899","title":"赤坂亭（月星环球港店）","lon":"121.417694","lat":"31.232048","category":"500","category_name":"未知分类","address":"上海市 中山北路3300号月星环球港3楼"},{"poiid":"B2094751DA64A4F9479C","title":"南京路步行街","lon":"121.421521","lat":"31.233609","category":"500","category_name":"未知分类","address":null},{"poiid":"B2094654D565A2FC419C","title":"顺忆齿科","lon":"121.4196","lat":"31.23121","category":"162","category_name":"医院","address":"普陀区顺义路112号(近白玉路)"},{"poiid":"B2094757D068A5F4459D","title":"乐记小厨","lon":"121.41804","lat":"31.23061","category":"72","category_name":"广东菜","address":"普陀区顺义路152号(近白玉路)"},{"poiid":"B2094753D469A2F94992","title":"环球港","lon":"121.419761","lat":"31.232303","category":"500","category_name":"未知分类","address":"上海市 环球港"},{"poiid":"B2094757D068A6F54498","title":"交通银行(顺义路支行)","lon":"121.42106","lat":"31.23154","category":"150","category_name":"银行","address":"普陀区顺义路62号靠曹杨路"},{"poiid":"B2094757D06BA2F4409E","title":"锦绿新城","lon":"121.42037","lat":"31.233389","category":"47","category_name":"住宅区","address":"锦绿新城位于普陀宁夏路287号(曹杨路路口)"},{"poiid":"B2094757D66CA0F8429F","title":"顺义路","lon":"121.419774","lat":"31.2316","category":"500","category_name":"未知分类","address":"上海顺义路100弄"},{"poiid":"B2094654DB65AAF84293","title":"曹杨路办公楼","lon":"121.42176","lat":"31.23357","category":"46","category_name":"楼宇","address":"朝阳区亚运村北3公里北苑居住区"},{"poiid":"B2094757DA6EA7F4489B","title":"卡崴造型沙龙(顺义路店)","lon":"121.420449000002","lat":"31.2316209999998","category":"248","category_name":"生活娱乐","address":"普陀区顺义路76号"},{"poiid":"B2094757D064A6FA4598","title":"可的便利店","lon":"121.42011562","lat":"31.23167035","category":"500","category_name":"未知分类","address":"上海顺义路86号"},{"poiid":"B2094654D565A2FC4992","title":"绿地世纪城一期绿地世纪花园","lon":"121.4192","lat":"31.23282","category":"47","category_name":"住宅区","address":"宁夏路353弄"},{"poiid":"B2094757D06BA1FF429D","title":"上海春天","lon":"121.41882818","lat":"31.232124668","category":"500","category_name":"未知分类","address":"上海宁夏路353弄"},{"poiid":"B2094654D565A2FE409F","title":"绿地世纪城锦绿新城二期","lon":"121.42004","lat":"31.23401","category":"47","category_name":"住宅区","address":"宁夏路255号"},{"poiid":"B2094757D169A1FD4699","title":"顺义路100弄","lon":"121.41988269","lat":"31.23143974","category":"500","category_name":"未知分类","address":"上海世纪同乐"},{"poiid":"B2094654D565A2FE459C","title":"避风塘时尚饮品","lon":"121.42131","lat":"31.23338","category":"113","category_name":"冷饮店","address":""},{"poiid":"B2094654D565A2FC4098","title":"隆德小区","lon":"121.42258","lat":"31.229111","category":"47","category_name":"住宅区","address":"光复西路1145弄11"},{"poiid":"B2094757D168A2FA499E","title":"P萨工坊(浦江店)","lon":"121.419908","lat":"31.231522","category":"500","category_name":"未知分类","address":"上海浦锦路309弄绿地乐和城2楼"},{"poiid":"B2094757DB69A4F84892","title":"普陀绿地假日酒店holiday inn express","lon":"121.4194592862312","lat":"31.23176027832595","category":"500","category_name":"未知分类","address":"普陀区光复西路843号"},{"poiid":"B2094757D66CA5FE4898","title":"华联酒家","lon":"121.42069","lat":"31.23445","category":"76","category_name":"上海菜","address":"普陀区曹杨路298号(近宁夏路)"},{"poiid":"B2094752D468A2F84199","title":"上海火车站","lon":"121.420351","lat":"31.233437","category":"500","category_name":"未知分类","address":null},{"poiid":"B2094757D06AA6F44898","title":"上海印钞厂","lon":"121.422483","lat":"31.232607","category":"500","category_name":"未知分类","address":"上海曹杨路158号"},{"poiid":"B2094655D26AA0F94998","title":"地铁隆德路站","lon":"121.4228","lat":"31.2311","category":"36","category_name":"地铁站","address":""},{"poiid":"B2094757D068A6FC429D","title":"饭香精菜坊","lon":"121.41779558","lat":"31.233561496","category":"76","category_name":"上海菜","address":"普陀区宁夏路370号(近白玉路)"},{"poiid":"B2094752DB64A4FE429D","title":"蜀九香","lon":"121.421003","lat":"31.234351","category":"500","category_name":"未知分类","address":"上海市 曹杨路333号3楼"},{"poiid":"B2094757D068A5F44592","title":"谈家渡路曹杨路","lon":"121.421281704","lat":"31.2341927364","category":"500","category_name":"未知分类","address":"上海谈家渡路曹杨路"},{"poiid":"B2094757D06FA2F4489A","title":"上海印钞有限公司","lon":"121.42245769","lat":"31.232129732","category":"263","category_name":"公司","address":"上海市曹杨路158号"},{"poiid":"B2094757D06FA1FC4292","title":"隆德路地铁站","lon":"121.42287716","lat":"31.231111303","category":"36","category_name":"地铁站","address":"上海轨道交通 十一号线 轨交隆德路站 11"},{"poiid":"B2094757D068AAFC4392","title":"中环大厦","lon":"121.4180654908","lat":"31.232873517761","category":"46","category_name":"楼宇","address":"上海普陀区中山北路3856弄1-4号"},{"poiid":"B2094654D565A3FE489A","title":"上钞大厦","lon":"121.42248","lat":"31.23261","category":"46","category_name":"楼宇","address":"浦东区崂山东路410号"},{"poiid":"B2094655D36CA3F4479F","title":"绿地世纪城(上海春天)","lon":"121.42038","lat":"31.23339","category":"47","category_name":"住宅区","address":"绿地世纪城(上海春天)位于普陀曹杨路303弄"},{"poiid":"B2094757D56DA0F8449F","title":"宁夏路营业厅","lon":"121.420158","lat":"31.234798","category":"151","category_name":"电讯营业厅","address":"普陀区宁夏路215号（曹杨路口）"},{"poiid":"B2094757D06AA2FC499E","title":"重庆鸡公煲 曹杨路店","lon":"121.421479054","lat":"31.232624793","category":"71","category_name":"四川菜","address":"普陀区曹杨路253号(近顺义路)"},{"poiid":"B2094757D06FA1F84299","title":"招商银行(曹杨支行)","lon":"121.42263","lat":"31.23245","category":"46","category_name":"楼宇","address":"普陀区曹杨路188号(曹杨路顺义路)"},{"poiid":"B2094655D26DA2F4449E","title":"上岛咖啡(曹阳一店)","lon":"121.42197","lat":"31.23225","category":"65","category_name":"咖啡厅","address":"普陀区曹杨路179号(近地铁11号线隆德路站)"},{"poiid":"B2094654DB6BA6FE4299","title":"九州拉面 顺义路店","lon":"121.42163828362","lat":"31.231864644189","category":"95","category_name":"日本料理","address":"普陀区顺义路20号(近曹杨路)"},{"poiid":"B2094757D064A0F9469C","title":"凯司令西点房 宁夏店","lon":"121.418844","lat":"31.233356","category":"67","category_name":"甜品店","address":"普陀区宁夏路331号(近瞿家廊路)"},{"poiid":"B2094753D469A6F4489D","title":"满记甜品（GLOBAL HARBOR店）","lon":"121.417198","lat":"31.231542","category":"247","category_name":"餐饮美食","address":"上海市 中山北路环球港B1楼"},{"poiid":"B2094757D16BA0F5409A","title":"摩蟹座 台湾养生牛肉面","lon":"121.421153586","lat":"31.2319234642","category":"247","category_name":"餐饮美食","address":"上海顺义路50号"},{"poiid":"B2094654DB6BA6FE4193","title":"大桶大足浴","lon":"121.4194","lat":"31.23113","category":"149","category_name":"洗浴推拿场所","address":"普陀区顺义路116号(近白玉路)"},{"poiid":"B2094757D068A0F84792","title":"盛泉商务大厦","lon":"121.42168205","lat":"31.234239539","category":"46","category_name":"楼宇","address":"上海谈家渡路28号"},{"poiid":"B2094654DB6BA6FE419F","title":"世纪同乐绿地世纪城二期","lon":"121.42071","lat":"31.23107","category":"47","category_name":"住宅区","address":"上海市普陀区顺义路68号(曹杨路口)"},{"poiid":"B2094654D565A2FC429B","title":"足沄庭健康足道中心","lon":"121.42039","lat":"31.23158","category":"149","category_name":"洗浴推拿场所","address":"普陀区普陀区顺义路78号(近白玉路)"},{"poiid":"B2094655D265ABFC409D","title":"巴比馒头顺义路店","lon":"121.41991","lat":"31.23152","category":"68","category_name":"快餐厅","address":"普陀区顺义路100弄世纪同乐附近(近曹杨路)"},{"poiid":"B2094753D46BA1FF409E","title":"哈根达斯（月星环球店）","lon":"121.417846","lat":"31.231706","category":"263","category_name":"公司","address":"上海市 上海中山北路3300号月星环球商业中心一层"},{"poiid":"B209475CD16BA1FA4898","title":"天辣绿色时尚餐厅","lon":"121.417266","lat":"31.23147","category":"500","category_name":"未知分类","address":"上海市 中山北路3300号月星环球港4楼L4059号商铺"},{"poiid":"B2094654D565A2FC4298","title":"明英美容美发","lon":"121.42045","lat":"31.23162","category":"148","category_name":"美容美发店","address":"普陀区顺义路76号(近白玉路)"},{"poiid":"B2094654D565A2FC4193","title":"可的(顺义路)","lon":"121.42021","lat":"31.23148","category":"117","category_name":"便民商店/便利店","address":"普陀区顺义路84号"},{"poiid":"B2094757D16FA2F44499","title":"主流美容美发","lon":"121.42058","lat":"31.23128","category":"148","category_name":"美容美发店","address":"普陀区顺义路80号"},{"poiid":"B2094753D764AAF84798","title":"巫山烤鱼麻辣香锅重庆鸡公煲","lon":"121.421478","lat":"31.231767","category":"247","category_name":"餐饮美食","address":"上海市 长宁支路江苏北路"},{"poiid":"B2094753D56CA0F44899","title":"赤坂亭（月星环球港店）","lon":"121.417694","lat":"31.232048","category":"500","category_name":"未知分类","address":"上海市 中山北路3300号月星环球港3楼"},{"poiid":"B2094751DA64A4F9479C","title":"南京路步行街","lon":"121.421521","lat":"31.233609","category":"500","category_name":"未知分类","address":null},{"poiid":"B2094654D565A2FC419C","title":"顺忆齿科","lon":"121.4196","lat":"31.23121","category":"162","category_name":"医院","address":"普陀区顺义路112号(近白玉路)"},{"poiid":"B2094757D068A5F4459D","title":"乐记小厨","lon":"121.41804","lat":"31.23061","category":"72","category_name":"广东菜","address":"普陀区顺义路152号(近白玉路)"},{"poiid":"B2094753D469A2F94992","title":"环球港","lon":"121.419761","lat":"31.232303","category":"500","category_name":"未知分类","address":"上海市 环球港"},{"poiid":"B2094757D068A6F54498","title":"交通银行(顺义路支行)","lon":"121.42106","lat":"31.23154","category":"150","category_name":"银行","address":"普陀区顺义路62号靠曹杨路"},{"poiid":"B2094757D06BA2F4409E","title":"锦绿新城","lon":"121.42037","lat":"31.233389","category":"47","category_name":"住宅区","address":"锦绿新城位于普陀宁夏路287号(曹杨路路口)"},{"poiid":"B2094757D66CA0F8429F","title":"顺义路","lon":"121.419774","lat":"31.2316","category":"500","category_name":"未知分类","address":"上海顺义路100弄"},{"poiid":"B2094654DB65AAF84293","title":"曹杨路办公楼","lon":"121.42176","lat":"31.23357","category":"46","category_name":"楼宇","address":"朝阳区亚运村北3公里北苑居住区"},{"poiid":"B2094757DA6EA7F4489B","title":"卡崴造型沙龙(顺义路店)","lon":"121.420449000002","lat":"31.2316209999998","category":"248","category_name":"生活娱乐","address":"普陀区顺义路76号"},{"poiid":"B2094757D064A6FA4598","title":"可的便利店","lon":"121.42011562","lat":"31.23167035","category":"500","category_name":"未知分类","address":"上海顺义路86号"},{"poiid":"B2094654D565A2FC4992","title":"绿地世纪城一期绿地世纪花园","lon":"121.4192","lat":"31.23282","category":"47","category_name":"住宅区","address":"宁夏路353弄"},{"poiid":"B2094757D06BA1FF429D","title":"上海春天","lon":"121.41882818","lat":"31.232124668","category":"500","category_name":"未知分类","address":"上海宁夏路353弄"},{"poiid":"B2094654D565A2FE409F","title":"绿地世纪城锦绿新城二期","lon":"121.42004","lat":"31.23401","category":"47","category_name":"住宅区","address":"宁夏路255号"},{"poiid":"B2094757D169A1FD4699","title":"顺义路100弄","lon":"121.41988269","lat":"31.23143974","category":"500","category_name":"未知分类","address":"上海世纪同乐"},{"poiid":"B2094654D565A2FE459C","title":"避风塘时尚饮品","lon":"121.42131","lat":"31.23338","category":"113","category_name":"冷饮店","address":""},{"poiid":"B2094654D565A2FC4098","title":"隆德小区","lon":"121.42258","lat":"31.229111","category":"47","category_name":"住宅区","address":"光复西路1145弄11"},{"poiid":"B2094757D168A2FA499E","title":"P萨工坊(浦江店)","lon":"121.419908","lat":"31.231522","category":"500","category_name":"未知分类","address":"上海浦锦路309弄绿地乐和城2楼"},{"poiid":"B2094757DB69A4F84892","title":"普陀绿地假日酒店holiday inn express","lon":"121.4194592862312","lat":"31.23176027832595","category":"500","category_name":"未知分类","address":"普陀区光复西路843号"},{"poiid":"B2094757D66CA5FE4898","title":"华联酒家","lon":"121.42069","lat":"31.23445","category":"76","category_name":"上海菜","address":"普陀区曹杨路298号(近宁夏路)"},{"poiid":"B2094752D468A2F84199","title":"上海火车站","lon":"121.420351","lat":"31.233437","category":"500","category_name":"未知分类","address":null},{"poiid":"B2094757D06AA6F44898","title":"上海印钞厂","lon":"121.422483","lat":"31.232607","category":"500","category_name":"未知分类","address":"上海曹杨路158号"},{"poiid":"B2094655D26AA0F94998","title":"地铁隆德路站","lon":"121.4228","lat":"31.2311","category":"36","category_name":"地铁站","address":""}]