[{"poiid":"B2094757D068A6FC429D","title":"饭香精菜坊","lon":"121.41779558","lat":"31.233561496","category":"76","category_name":"上海菜","address":"普陀区宁夏路370号(近白玉路)"},{"poiid":"B2094757D068A3F9469F","title":"白玉新村","lon":"121.416642","lat":"31.232415","category":"252","category_name":"楼宇机构","address":"上海白玉路宁夏路"},{"poiid":"B2094654DB6BA6FD419F","title":"绿地世家三期","lon":"121.41726","lat":"31.23383","category":"47","category_name":"住宅区","address":"上海宁夏路366弄"},{"poiid":"B2094757D068AAFC4392","title":"中环大厦","lon":"121.4180654908","lat":"31.232873517761","category":"46","category_name":"楼宇","address":"上海普陀区中山北路3856弄1-4号"},{"poiid":"B209475CDA6AA6F84199","title":"咖喱客（环球港店）","lon":"121.416954","lat":"31.232542","category":"500","category_name":"未知分类","address":"上海市 中山北路3300号月星环球港b1165号"},{"poiid":"B2094753D469A6F4489D","title":"满记甜品（GLOBAL HARBOR店）","lon":"121.417198","lat":"31.231542","category":"247","category_name":"餐饮美食","address":"上海市 中山北路环球港B1楼"},{"poiid":"B2094753D46BA1FF409E","title":"哈根达斯（月星环球店）","lon":"121.417846","lat":"31.231706","category":"263","category_name":"公司","address":"上海市 上海中山北路3300号月星环球商业中心一层"},{"poiid":"B209475CD16BA1FA4898","title":"天辣绿色时尚餐厅","lon":"121.417266","lat":"31.23147","category":"500","category_name":"未知分类","address":"上海市 中山北路3300号月星环球港4楼L4059号商铺"},{"poiid":"B2094753D56FA3F84898","title":"釜山料理（环球港）","lon":"121.416511","lat":"31.232732","category":"247","category_name":"餐饮美食","address":"上海市 （环球港 ）中山北路3300号"},{"poiid":"B2094757D064A0F9469C","title":"凯司令西点房 宁夏店","lon":"121.418844","lat":"31.233356","category":"67","category_name":"甜品店","address":"普陀区宁夏路331号(近瞿家廊路)"},{"poiid":"B2094753D56CA0F44899","title":"赤坂亭（月星环球港店）","lon":"121.417694","lat":"31.232048","category":"500","category_name":"未知分类","address":"上海市 中山北路3300号月星环球港3楼"},{"poiid":"B2094655D26CABFC419A","title":"华东政法大学(北门)","lon":"121.41654","lat":"31.22983","category":"656","category_name":"大门","address":"顺义路2号"},{"poiid":"B2094655D36CA3F4479F","title":"绿地世纪城(上海春天)","lon":"121.42038","lat":"31.23339","category":"47","category_name":"住宅区","address":"绿地世纪城(上海春天)位于普陀曹杨路303弄"},{"poiid":"B2094757D068A1FE459C","title":"绿洲广场","lon":"121.415115","lat":"31.233871","category":"500","category_name":"未知分类","address":"上海市普陀区中山北路3058号"},{"poiid":"B2094753DB6BABF54198","title":"LE CAMÉLIA","lon":"121.416664","lat":"31.232685","category":"500","category_name":"未知分类","address":"上海市 环球港4楼"},{"poiid":"B2094753D46BA1FC499B","title":"赤板亭","lon":"121.417549","lat":"31.231842","category":"500","category_name":"未知分类","address":"上海市 普陀区中山北路3300号月星环球港三楼"},{"poiid":"B2094654DB6BA6FE4193","title":"大桶大足浴","lon":"121.4194","lat":"31.23113","category":"149","category_name":"洗浴推拿场所","address":"普陀区顺义路116号(近白玉路)"},{"poiid":"B209475CD665ABFB4393","title":"outback steakhouse","lon":"121.416992","lat":"31.231885","category":"500","category_name":"未知分类","address":"上海市 月星环球港"},{"poiid":"B2094753D469A4F84293","title":"环球港","lon":"121.41735","lat":"31.231752","category":"500","category_name":"未知分类","address":"上海市 普陀区中山北路3300号"},{"poiid":"B2094757D069AAFB439F","title":"新華書店(中山公園)","lon":"121.41735386","lat":"31.231024226","category":"249","category_name":"购物服务","address":"上海長寧路龍之夢對面"},{"poiid":"B2094752DA6BA2F9449D","title":"k11","lon":"121.416571","lat":"31.233554","category":"500","category_name":"未知分类","address":"上海市 淮海中路300号K11购物艺术中心403号铺(近黄陂南路)"},{"poiid":"B209475CD26EABFA4798","title":"吐司新语","lon":"121.417007","lat":"31.232391","category":"247","category_name":"餐饮美食","address":"上海市 环球港"},{"poiid":"B2094753DA68A5FD4699","title":"小辉哥火锅","lon":"121.417488","lat":"31.231904","category":"247","category_name":"餐饮美食","address":"上海市 环球港店"},{"poiid":"B2094757D16BAAF54393","title":"沈记崇明土菜馆","lon":"121.41789","lat":"31.23266","category":"247","category_name":"餐饮美食","address":"上海普陀区宁夏路384号(近白玉路)  "},{"poiid":"B2094757D068A5F4459D","title":"乐记小厨","lon":"121.41804","lat":"31.23061","category":"72","category_name":"广东菜","address":"普陀区顺义路152号(近白玉路)"},{"poiid":"B209475CD76DA5FE489A","title":"海上国际影城(月星环球港店)","lon":"121.416007","lat":"31.23211","category":"178","category_name":"电影院","address":"上海市 中山北路3300号月星环球港4楼4039室"},{"poiid":"B2094757D06BA1FF429D","title":"上海春天","lon":"121.41882818","lat":"31.232124668","category":"500","category_name":"未知分类","address":"上海宁夏路353弄"},{"poiid":"B2094655D264A6FA489A","title":"中山北路3924弄小区","lon":"121.41824640257","lat":"31.23184992453","category":"47","category_name":"住宅区","address":"中山北路3924弄1-3号"},{"poiid":"B2094655D26DA3F84493","title":"白玉路中化新村44号院(东门)","lon":"121.41721","lat":"31.23221","category":"47","category_name":"住宅区","address":""},{"poiid":"B209475DD669A4F44892","title":"Special sushi（森井）","lon":"121.417144","lat":"31.231365","category":"247","category_name":"餐饮美食","address":"上海市 环球港L2"},{"poiid":"B2094757D064A2F8439F","title":"马尔代夫","lon":"121.417230586","lat":"31.2324714749","category":"500","category_name":"未知分类","address":"印度洋"},{"poiid":"B2094655D26DABFA419B","title":"白玉路中化新村44号院","lon":"121.41709","lat":"31.23218","category":"47","category_name":"住宅区","address":""},{"poiid":"B2094757D169AAFF439D","title":"优指美甲工作室","lon":"121.4177447","lat":"31.23298","category":"122","category_name":"个人用品/化妆品店","address":"普陀区宁夏路366弄绿地世家4号楼1605室(近金沙江路轻轨站)"},{"poiid":"B2094753D464AAFD4093","title":"艾薯夫妇（环球港店）","lon":"121.416831","lat":"31.230215","category":"500","category_name":"未知分类","address":"上海市 月星环球港B1"},{"poiid":"B2094654D564AAF5459A","title":"良友金伴便利连锁No.385","lon":"121.41686","lat":"31.23283","category":"117","category_name":"便民商店/便利店","address":""},{"poiid":"B2094654D565A2FC4992","title":"绿地世纪城一期绿地世纪花园","lon":"121.4192","lat":"31.23282","category":"47","category_name":"住宅区","address":"宁夏路353弄"},{"poiid":"B2094757D165ABF8469F","title":"摩羯座台湾牛肉面","lon":"121.417846586","lat":"31.2313124522","category":"247","category_name":"餐饮美食","address":"上海市普陀区顺义路"},{"poiid":"B2094654DB69A6FF409A","title":"新家老家(白玉苑二期)","lon":"121.41695","lat":"31.2316","category":"47","category_name":"住宅区","address":"新家老家(白玉苑二期)位于普陀白玉路358弄"},{"poiid":"B209475DD26FA3F9469A","title":"京世造型美容（月星环球港店）","lon":"121.417877","lat":"31.232841","category":"500","category_name":"未知分类","address":"上海市 中山北路3300号月星环球港B2"},{"poiid":"B2094757D164ABF9489B","title":"白兰路羊肉串","lon":"121.41885558","lat":"31.232835482","category":"247","category_name":"餐饮美食","address":"上海市普陀区白兰公寓"},{"poiid":"B2094654D564AAF44998","title":"白玉新苑","lon":"121.41578","lat":"31.23313","category":"47","category_name":"住宅区","address":"白玉路176号"},{"poiid":"B2094757D16AAAF54698","title":"铜川路大渡河路","lon":"121.417731586","lat":"31.2314354546","category":"500","category_name":"未知分类","address":"上海铜川路大渡河路"},{"poiid":"B2094750D26CA7FA419E","title":"初花","lon":"121.415952","lat":"31.231636","category":"247","category_name":"餐饮美食","address":"长宁区虹桥路1446号古北湾大酒店3楼"},{"poiid":"B2094654D564AAF5459D","title":"复星大药房宁夏店","lon":"121.4166","lat":"31.23262","category":"162","category_name":"医院","address":"宁夏路448"},{"poiid":"B209475CD66EA7FD439B","title":"澳士佳","lon":"121.417518","lat":"31.231845","category":"249","category_name":"购物服务","address":"上海市 上海中山北路3300号环球港4109"},{"poiid":"B2094757D66BA6FF4999","title":"重庆鸡公煲 宁夏路店","lon":"121.41217","lat":"31.22934","category":"71","category_name":"四川菜","address":"普陀区凯旋北路1600号(近金沙江路轻轨站)"},{"poiid":"B209475CD36FA6F5409D","title":"摩蝎座台湾牛肉面","lon":"121.41614301","lat":"31.23287798","category":"87","category_name":"特色／地方风味餐厅","address":"顺义路50号(近曹杨路)"},{"poiid":"B2094757D06BA1FF4699","title":"欧星咖啡厅(宁夏店)","lon":"121.41859","lat":"31.23357","category":"260","category_name":"其他","address":"普陀区宁夏路331号(近白玉路)"},{"poiid":"B2094750D26EA7FF409F","title":"华师大一村","lon":"121.417","lat":"31.2325","category":"627","category_name":"一般地点标志","address":"中山北路3671弄"},{"poiid":"B2094753DB69A7F5449E","title":"见面谈","lon":"121.417236","lat":"31.231719","category":"500","category_name":"未知分类","address":"上海市 中山北路3300号月星环球港L3037"},{"poiid":"B2094757D068A6FC429D","title":"饭香精菜坊","lon":"121.41779558","lat":"31.233561496","category":"76","category_name":"上海菜","address":"普陀区宁夏路370号(近白玉路)"},{"poiid":"B2094757D068A3F9469F","title":"白玉新村","lon":"121.416642","lat":"31.232415","category":"252","category_name":"楼宇机构","address":"上海白玉路宁夏路"},{"poiid":"B2094654DB6BA6FD419F","title":"绿地世家三期","lon":"121.41726","lat":"31.23383","category":"47","category_name":"住宅区","address":"上海宁夏路366弄"},{"poiid":"B2094757D068AAFC4392","title":"中环大厦","lon":"121.4180654908","lat":"31.232873517761","category":"46","category_name":"楼宇","address":"上海普陀区中山北路3856弄1-4号"},{"poiid":"B209475CDA6AA6F84199","title":"咖喱客（环球港店）","lon":"121.416954","lat":"31.232542","category":"500","category_name":"未知分类","address":"上海市 中山北路3300号月星环球港b1165号"},{"poiid":"B2094753D469A6F4489D","title":"满记甜品（GLOBAL HARBOR店）","lon":"121.417198","lat":"31.231542","category":"247","category_name":"餐饮美食","address":"上海市 中山北路环球港B1楼"},{"poiid":"B2094753D46BA1FF409E","title":"哈根达斯（月星环球店）","lon":"121.417846","lat":"31.231706","category":"263","category_name":"公司","address":"上海市 上海中山北路3300号月星环球商业中心一层"},{"poiid":"B209475CD16BA1FA4898","title":"天辣绿色时尚餐厅","lon":"121.417266","lat":"31.23147","category":"500","category_name":"未知分类","address":"上海市 中山北路3300号月星环球港4楼L4059号商铺"},{"poiid":"B2094753D56FA3F84898","title":"釜山料理（环球港）","lon":"121.416511","lat":"31.232732","category":"247","category_name":"餐饮美食","address":"上海市 （环球港 ）中山北路3300号"},{"poiid":"B2094757D064A0F9469C","title":"凯司令西点房 宁夏店","lon":"121.418844","lat":"31.233356","category":"67","category_name":"甜品店","address":"普陀区宁夏路331号(近瞿家廊路)"},{"poiid":"B2094753D56CA0F44899","title":"赤坂亭（月星环球港店）","lon":"121.417694","lat":"31.232048","category":"500","category_name":"未知分类","address":"上海市 中山北路3300号月星环球港3楼"},{"poiid":"B2094655D26CABFC419A","title":"华东政法大学(北门)","lon":"121.41654","lat":"31.22983","category":"656","category_name":"大门","address":"顺义路2号"},{"poiid":"B2094655D36CA3F4479F","title":"绿地世纪城(上海春天)","lon":"121.42038","lat":"31.23339","category":"47","category_name":"住宅区","address":"绿地世纪城(上海春天)位于普陀曹杨路303弄"},{"poiid":"B2094757D068A1FE459C","title":"绿洲广场","lon":"121.415115","lat":"31.233871","category":"500","category_name":"未知分类","address":"上海市普陀区中山北路3058号"},{"poiid":"B2094753DB6BABF54198","title":"LE CAMÉLIA","lon":"121.416664","lat":"31.232685","category":"500","category_name":"未知分类","address":"上海市 环球港4楼"},{"poiid":"B2094753D46BA1FC499B","title":"赤板亭","lon":"121.417549","lat":"31.231842","category":"500","category_name":"未知分类","address":"上海市 普陀区中山北路3300号月星环球港三楼"},{"poiid":"B2094654DB6BA6FE4193","title":"大桶大足浴","lon":"121.4194","lat":"31.23113","category":"149","category_name":"洗浴推拿场所","address":"普陀区顺义路116号(近白玉路)"},{"poiid":"B209475CD665ABFB4393","title":"outback steakhouse","lon":"121.416992","lat":"31.231885","category":"500","category_name":"未知分类","address":"上海市 月星环球港"},{"poiid":"B2094753D469A4F84293","title":"环球港","lon":"121.41735","lat":"31.231752","category":"500","category_name":"未知分类","address":"上海市 普陀区中山北路3300号"},{"poiid":"B2094757D069AAFB439F","title":"新華書店(中山公園)","lon":"121.41735386","lat":"31.231024226","category":"249","category_name":"购物服务","address":"上海長寧路龍之夢對面"},{"poiid":"B2094752DA6BA2F9449D","title":"k11","lon":"121.416571","lat":"31.233554","category":"500","category_name":"未知分类","address":"上海市 淮海中路300号K11购物艺术中心403号铺(近黄陂南路)"},{"poiid":"B209475CD26EABFA4798","title":"吐司新语","lon":"121.417007","lat":"31.232391","category":"247","category_name":"餐饮美食","address":"上海市 环球港"},{"poiid":"B2094753DA68A5FD4699","title":"小辉哥火锅","lon":"121.417488","lat":"31.231904","category":"247","category_name":"餐饮美食","address":"上海市 环球港店"},{"poiid":"B2094757D16BAAF54393","title":"沈记崇明土菜馆","lon":"121.41789","lat":"31.23266","category":"247","category_name":"餐饮美食","address":"上海普陀区宁夏路384号(近白玉路)  "},{"poiid":"B2094757D068A5F4459D","title":"乐记小厨","lon":"121.41804","lat":"31.23061","category":"72","category_name":"广东菜","address":"普陀区顺义路152号(近白玉路)"},{"poiid":"B209475CD76DA5FE489A","title":"海上国际影城(月星环球港店)","lon":"121.416007","lat":"31.23211","category":"178","category_name":"电影院","address":"上海市 中山北路3300号月星环球港4楼4039室"},{"poiid":"B2094757D06BA1FF429D","title":"上海春天","lon":"121.41882818","lat":"31.232124668","category":"500","category_name":"未知分类","address":"上海宁夏路353弄"},{"poiid":"B2094655D264A6FA489A","title":"中山北路3924弄小区","lon":"121.41824640257","lat":"31.23184992453","category":"47","category_name":"住宅区","address":"中山北路3924弄1-3号"},{"poiid":"B2094655D26DA3F84493","title":"白玉路中化新村44号院(东门)","lon":"121.41721","lat":"31.23221","category":"47","category_name":"住宅区","address":""},{"poiid":"B209475DD669A4F44892","title":"Special sushi（森井）","lon":"121.417144","lat":"31.231365","category":"247","category_name":"餐饮美食","address":"上海市 环球港L2"},{"poiid":"B2094757D064A2F8439F","title":"马尔代夫","lon":"121.417230586","lat":"31.2324714749","category":"500","category_name":"未知分类","address":"印度洋"},{"poiid":"B2094655D26DABFA419B","title":"白玉路中化新村44号院","lon":"121.41709","lat":"31.23218","category":"47","category_name":"住宅区","address":""},{"poiid":"B2094757D169AAFF439D","title":"优指美甲工作室","lon":"121.4177447","lat":"31.23298","category":"122","category_name":"个人用品/化妆品店","address":"普陀区宁夏路366弄绿地世家4号楼1605室(近金沙江路轻轨站)"},{"poiid":"B2094753D464AAFD4093","title":"艾薯夫妇（环球港店）","lon":"121.416831","lat":"31.230215","category":"500","category_name":"未知分类","address":"上海市 月星环球港B1"},{"poiid":"B2094654D564AAF5459A","title":"良友金伴便利连锁No.385","lon":"121.41686","lat":"31.23283","category":"117","category_name":"便民商店/便利店","address":""},{"poiid":"B2094654D565A2FC4992","title":"绿地世纪城一期绿地世纪花园","lon":"121.4192","lat":"31.23282","category":"47","category_name":"住宅区","address":"宁夏路353弄"},{"poiid":"B2094757D165ABF8469F","title":"摩羯座台湾牛肉面","lon":"121.417846586","lat":"31.2313124522","category":"247","category_name":"餐饮美食","address":"上海市普陀区顺义路"},{"poiid":"B2094654DB69A6FF409A","title":"新家老家(白玉苑二期)","lon":"121.41695","lat":"31.2316","category":"47","category_name":"住宅区","address":"新家老家(白玉苑二期)位于普陀白玉路358弄"},{"poiid":"B209475DD26FA3F9469A","title":"京世造型美容（月星环球港店）","lon":"121.417877","lat":"31.232841","category":"500","category_name":"未知分类","address":"上海市 中山北路3300号月星环球港B2"},{"poiid":"B2094757D164ABF9489B","title":"白兰路羊肉串","lon":"121.41885558","lat":"31.232835482","category":"247","category_name":"餐饮美食","address":"上海市普陀区白兰公寓"},{"poiid":"B2094654D564AAF44998","title":"白玉新苑","lon":"121.41578","lat":"31.23313","category":"47","category_name":"住宅区","address":"白玉路176号"},{"poiid":"B2094757D16AAAF54698","title":"铜川路大渡河路","lon":"121.417731586","lat":"31.2314354546","category":"500","category_name":"未知分类","address":"上海铜川路大渡河路"},{"poiid":"B2094750D26CA7FA419E","title":"初花","lon":"121.415952","lat":"31.231636","category":"247","category_name":"餐饮美食","address":"长宁区虹桥路1446号古北湾大酒店3楼"},{"poiid":"B2094654D564AAF5459D","title":"复星大药房宁夏店","lon":"121.4166","lat":"31.23262","category":"162","category_name":"医院","address":"宁夏路448"},{"poiid":"B209475CD66EA7FD439B","title":"澳士佳","lon":"121.417518","lat":"31.231845","category":"249","category_name":"购物服务","address":"上海市 上海中山北路3300号环球港4109"},{"poiid":"B2094757D66BA6FF4999","title":"重庆鸡公煲 宁夏路店","lon":"121.41217","lat":"31.22934","category":"71","category_name":"四川菜","address":"普陀区凯旋北路1600号(近金沙江路轻轨站)"},{"poiid":"B209475CD36FA6F5409D","title":"摩蝎座台湾牛肉面","lon":"121.41614301","lat":"31.23287798","category":"87","category_name":"特色／地方风味餐厅","address":"顺义路50号(近曹杨路)"},{"poiid":"B2094757D06BA1FF4699","title":"欧星咖啡厅(宁夏店)","lon":"121.41859","lat":"31.23357","category":"260","category_name":"其他","address":"普陀区宁夏路331号(近白玉路)"},{"poiid":"B2094750D26EA7FF409F","title":"华师大一村","lon":"121.417","lat":"31.2325","category":"627","category_name":"一般地点标志","address":"中山北路3671弄"},{"poiid":"B2094753DB69A7F5449E","title":"见面谈","lon":"121.417236","lat":"31.231719","category":"500","category_name":"未知分类","address":"上海市 中山北路3300号月星环球港L3037"},{"poiid":"B2094757D068A6FC429D","title":"饭香精菜坊","lon":"121.41779558","lat":"31.233561496","category":"76","category_name":"上海菜","address":"普陀区宁夏路370号(近白玉路)"},{"poiid":"B2094757D068A3F9469F","title":"白玉新村","lon":"121.416642","lat":"31.232415","category":"252","category_name":"楼宇机构","address":"上海白玉路宁夏路"},{"poiid":"B2094654DB6BA6FD419F","title":"绿地世家三期","lon":"121.41726","lat":"31.23383","category":"47","category_name":"住宅区","address":"上海宁夏路366弄"},{"poiid":"B2094757D068AAFC4392","title":"中环大厦","lon":"121.4180654908","lat":"31.232873517761","category":"46","category_name":"楼宇","address":"上海普陀区中山北路3856弄1-4号"},{"poiid":"B209475CDA6AA6F84199","title":"咖喱客（环球港店）","lon":"121.416954","lat":"31.232542","category":"500","category_name":"未知分类","address":"上海市 中山北路3300号月星环球港b1165号"},{"poiid":"B2094753D469A6F4489D","title":"满记甜品（GLOBAL HARBOR店）","lon":"121.417198","lat":"31.231542","category":"247","category_name":"餐饮美食","address":"上海市 中山北路环球港B1楼"},{"poiid":"B2094753D46BA1FF409E","title":"哈根达斯（月星环球店）","lon":"121.417846","lat":"31.231706","category":"263","category_name":"公司","address":"上海市 上海中山北路3300号月星环球商业中心一层"},{"poiid":"B209475CD16BA1FA4898","title":"天辣绿色时尚餐厅","lon":"121.417266","lat":"31.23147","category":"500","category_name":"未知分类","address":"上海市 中山北路3300号月星环球港4楼L4059号商铺"},{"poiid":"B2094753D56FA3F84898","title":"釜山料理（环球港）","lon":"121.416511","lat":"31.232732","category":"247","category_name":"餐饮美食","address":"上海市 （环球港 ）中山北路3300号"},{"poiid":"B2094757D064A0F9469C","title":"凯司令西点房 宁夏店","lon":"121.418844","lat":"31.233356","category":"67","category_name":"甜品店","address":"普陀区宁夏路331号(近瞿家廊路)"},{"poiid":"B2094753D56CA0F44899","title":"赤坂亭（月星环球港店）","lon":"121.417694","lat":"31.232048","category":"500","category_name":"未知分类","address":"上海市 中山北路3300号月星环球港3楼"},{"poiid":"B2094655D26CABFC419A","title":"华东政法大学(北门)","lon":"121.41654","lat":"31.22983","category":"656","category_name":"大门","address":"顺义路2号"},{"poiid":"B2094655D36CA3F4479F","title":"绿地世纪城(上海春天)","lon":"121.42038","lat":"31.23339","category":"47","category_name":"住宅区","address":"绿地世纪城(上海春天)位于普陀曹杨路303弄"},{"poiid":"B2094757D068A1FE459C","title":"绿洲广场","lon":"121.415115","lat":"31.233871","category":"500","category_name":"未知分类","address":"上海市普陀区中山北路3058号"},{"poiid":"B2094753DB6BABF54198","title":"LE CAMÉLIA","lon":"121.416664","lat":"31.232685","category":"500","category_name":"未知分类","address":"上海市 环球港4楼"},{"poiid":"B2094753D46BA1FC499B","title":"赤板亭","lon":"121.417549","lat":"31.231842","category":"500","category_name":"未知分类","address":"上海市 普陀区中山北路3300号月星环球港三楼"},{"poiid":"B2094654DB6BA6FE4193","title":"大桶大足浴","lon":"121.4194","lat":"31.23113","category":"149","category_name":"洗浴推拿场所","address":"普陀区顺义路116号(近白玉路)"},{"poiid":"B209475CD665ABFB4393","title":"outback steakhouse","lon":"121.416992","lat":"31.231885","category":"500","category_name":"未知分类","address":"上海市 月星环球港"},{"poiid":"B2094753D469A4F84293","title":"环球港","lon":"121.41735","lat":"31.231752","category":"500","category_name":"未知分类","address":"上海市 普陀区中山北路3300号"},{"poiid":"B2094757D069AAFB439F","title":"新華書店(中山公園)","lon":"121.41735386","lat":"31.231024226","category":"249","category_name":"购物服务","address":"上海長寧路龍之夢對面"},{"poiid":"B2094752DA6BA2F9449D","title":"k11","lon":"121.416571","lat":"31.233554","category":"500","category_name":"未知分类","address":"上海市 淮海中路300号K11购物艺术中心403号铺(近黄陂南路)"},{"poiid":"B209475CD26EABFA4798","title":"吐司新语","lon":"121.417007","lat":"31.232391","category":"247","category_name":"餐饮美食","address":"上海市 环球港"},{"poiid":"B2094753DA68A5FD4699","title":"小辉哥火锅","lon":"121.417488","lat":"31.231904","category":"247","category_name":"餐饮美食","address":"上海市 环球港店"},{"poiid":"B2094757D16BAAF54393","title":"沈记崇明土菜馆","lon":"121.41789","lat":"31.23266","category":"247","category_name":"餐饮美食","address":"上海普陀区宁夏路384号(近白玉路)  "},{"poiid":"B2094757D068A5F4459D","title":"乐记小厨","lon":"121.41804","lat":"31.23061","category":"72","category_name":"广东菜","address":"普陀区顺义路152号(近白玉路)"},{"poiid":"B209475CD76DA5FE489A","title":"海上国际影城(月星环球港店)","lon":"121.416007","lat":"31.23211","category":"178","category_name":"电影院","address":"上海市 中山北路3300号月星环球港4楼4039室"},{"poiid":"B2094757D06BA1FF429D","title":"上海春天","lon":"121.41882818","lat":"31.232124668","category":"500","category_name":"未知分类","address":"上海宁夏路353弄"},{"poiid":"B2094655D264A6FA489A","title":"中山北路3924弄小区","lon":"121.41824640257","lat":"31.23184992453","category":"47","category_name":"住宅区","address":"中山北路3924弄1-3号"},{"poiid":"B2094655D26DA3F84493","title":"白玉路中化新村44号院(东门)","lon":"121.41721","lat":"31.23221","category":"47","category_name":"住宅区","address":""},{"poiid":"B209475DD669A4F44892","title":"Special sushi（森井）","lon":"121.417144","lat":"31.231365","category":"247","category_name":"餐饮美食","address":"上海市 环球港L2"},{"poiid":"B2094757D064A2F8439F","title":"马尔代夫","lon":"121.417230586","lat":"31.2324714749","category":"500","category_name":"未知分类","address":"印度洋"},{"poiid":"B2094655D26DABFA419B","title":"白玉路中化新村44号院","lon":"121.41709","lat":"31.23218","category":"47","category_name":"住宅区","address":""},{"poiid":"B2094757D169AAFF439D","title":"优指美甲工作室","lon":"121.4177447","lat":"31.23298","category":"122","category_name":"个人用品/化妆品店","address":"普陀区宁夏路366弄绿地世家4号楼1605室(近金沙江路轻轨站)"},{"poiid":"B2094753D464AAFD4093","title":"艾薯夫妇（环球港店）","lon":"121.416831","lat":"31.230215","category":"500","category_name":"未知分类","address":"上海市 月星环球港B1"},{"poiid":"B2094654D564AAF5459A","title":"良友金伴便利连锁No.385","lon":"121.41686","lat":"31.23283","category":"117","category_name":"便民商店/便利店","address":""},{"poiid":"B2094654D565A2FC4992","title":"绿地世纪城一期绿地世纪花园","lon":"121.4192","lat":"31.23282","category":"47","category_name":"住宅区","address":"宁夏路353弄"},{"poiid":"B2094757D165ABF8469F","title":"摩羯座台湾牛肉面","lon":"121.417846586","lat":"31.2313124522","category":"247","category_name":"餐饮美食","address":"上海市普陀区顺义路"},{"poiid":"B2094654DB69A6FF409A","title":"新家老家(白玉苑二期)","lon":"121.41695","lat":"31.2316","category":"47","category_name":"住宅区","address":"新家老家(白玉苑二期)位于普陀白玉路358弄"},{"poiid":"B209475DD26FA3F9469A","title":"京世造型美容（月星环球港店）","lon":"121.417877","lat":"31.232841","category":"500","category_name":"未知分类","address":"上海市 中山北路3300号月星环球港B2"},{"poiid":"B2094757D164ABF9489B","title":"白兰路羊肉串","lon":"121.41885558","lat":"31.232835482","category":"247","category_name":"餐饮美食","address":"上海市普陀区白兰公寓"},{"poiid":"B2094654D564AAF44998","title":"白玉新苑","lon":"121.41578","lat":"31.23313","category":"47","category_name":"住宅区","address":"白玉路176号"},{"poiid":"B2094757D16AAAF54698","title":"铜川路大渡河路","lon":"121.417731586","lat":"31.2314354546","category":"500","category_name":"未知分类","address":"上海铜川路大渡河路"},{"poiid":"B2094750D26CA7FA419E","title":"初花","lon":"121.415952","lat":"31.231636","category":"247","category_name":"餐饮美食","address":"长宁区虹桥路1446号古北湾大酒店3楼"},{"poiid":"B2094654D564AAF5459D","title":"复星大药房宁夏店","lon":"121.4166","lat":"31.23262","category":"162","category_name":"医院","address":"宁夏路448"},{"poiid":"B209475CD66EA7FD439B","title":"澳士佳","lon":"121.417518","lat":"31.231845","category":"249","category_name":"购物服务","address":"上海市 上海中山北路3300号环球港4109"},{"poiid":"B2094757D66BA6FF4999","title":"重庆鸡公煲 宁夏路店","lon":"121.41217","lat":"31.22934","category":"71","category_name":"四川菜","address":"普陀区凯旋北路1600号(近金沙江路轻轨站)"},{"poiid":"B209475CD36FA6F5409D","title":"摩蝎座台湾牛肉面","lon":"121.41614301","lat":"31.23287798","category":"87","category_name":"特色／地方风味餐厅","address":"顺义路50号(近曹杨路)"},{"poiid":"B2094757D06BA1FF4699","title":"欧星咖啡厅(宁夏店)","lon":"121.41859","lat":"31.23357","category":"260","category_name":"其他","address":"普陀区宁夏路331号(近白玉路)"},{"poiid":"B2094750D26EA7FF409F","title":"华师大一村","lon":"121.417","lat":"31.2325","category":"627","category_name":"一般地点标志","address":"中山北路3671弄"},{"poiid":"B2094753DB69A7F5449E","title":"见面谈","lon":"121.417236","lat":"31.231719","category":"500","category_name":"未知分类","address":"上海市 中山北路3300号月星环球港L3037"},{"poiid":"B2094757D068A6FC429D","title":"饭香精菜坊","lon":"121.41779558","lat":"31.233561496","category":"76","category_name":"上海菜","address":"普陀区宁夏路370号(近白玉路)"},{"poiid":"B2094757D068A3F9469F","title":"白玉新村","lon":"121.416642","lat":"31.232415","category":"252","category_name":"楼宇机构","address":"上海白玉路宁夏路"},{"poiid":"B2094654DB6BA6FD419F","title":"绿地世家三期","lon":"121.41726","lat":"31.23383","category":"47","category_name":"住宅区","address":"上海宁夏路366弄"},{"poiid":"B2094757D068AAFC4392","title":"中环大厦","lon":"121.4180654908","lat":"31.232873517761","category":"46","category_name":"楼宇","address":"上海普陀区中山北路3856弄1-4号"},{"poiid":"B209475CDA6AA6F84199","title":"咖喱客（环球港店）","lon":"121.416954","lat":"31.232542","category":"500","category_name":"未知分类","address":"上海市 中山北路3300号月星环球港b1165号"},{"poiid":"B2094753D469A6F4489D","title":"满记甜品（GLOBAL HARBOR店）","lon":"121.417198","lat":"31.231542","category":"247","category_name":"餐饮美食","address":"上海市 中山北路环球港B1楼"},{"poiid":"B2094753D46BA1FF409E","title":"哈根达斯（月星环球店）","lon":"121.417846","lat":"31.231706","category":"263","category_name":"公司","address":"上海市 上海中山北路3300号月星环球商业中心一层"},{"poiid":"B209475CD16BA1FA4898","title":"天辣绿色时尚餐厅","lon":"121.417266","lat":"31.23147","category":"500","category_name":"未知分类","address":"上海市 中山北路3300号月星环球港4楼L4059号商铺"},{"poiid":"B2094753D56FA3F84898","title":"釜山料理（环球港）","lon":"121.416511","lat":"31.232732","category":"247","category_name":"餐饮美食","address":"上海市 （环球港 ）中山北路3300号"},{"poiid":"B2094757D064A0F9469C","title":"凯司令西点房 宁夏店","lon":"121.418844","lat":"31.233356","category":"67","category_name":"甜品店","address":"普陀区宁夏路331号(近瞿家廊路)"},{"poiid":"B2094753D56CA0F44899","title":"赤坂亭（月星环球港店）","lon":"121.417694","lat":"31.232048","category":"500","category_name":"未知分类","address":"上海市 中山北路3300号月星环球港3楼"},{"poiid":"B2094655D26CABFC419A","title":"华东政法大学(北门)","lon":"121.41654","lat":"31.22983","category":"656","category_name":"大门","address":"顺义路2号"},{"poiid":"B2094655D36CA3F4479F","title":"绿地世纪城(上海春天)","lon":"121.42038","lat":"31.23339","category":"47","category_name":"住宅区","address":"绿地世纪城(上海春天)位于普陀曹杨路303弄"},{"poiid":"B2094757D068A1FE459C","title":"绿洲广场","lon":"121.415115","lat":"31.233871","category":"500","category_name":"未知分类","address":"上海市普陀区中山北路3058号"},{"poiid":"B2094753DB6BABF54198","title":"LE CAMÉLIA","lon":"121.416664","lat":"31.232685","category":"500","category_name":"未知分类","address":"上海市 环球港4楼"},{"poiid":"B2094753D46BA1FC499B","title":"赤板亭","lon":"121.417549","lat":"31.231842","category":"500","category_name":"未知分类","address":"上海市 普陀区中山北路3300号月星环球港三楼"},{"poiid":"B2094654DB6BA6FE4193","title":"大桶大足浴","lon":"121.4194","lat":"31.23113","category":"149","category_name":"洗浴推拿场所","address":"普陀区顺义路116号(近白玉路)"},{"poiid":"B209475CD665ABFB4393","title":"outback steakhouse","lon":"121.416992","lat":"31.231885","category":"500","category_name":"未知分类","address":"上海市 月星环球港"},{"poiid":"B2094753D469A4F84293","title":"环球港","lon":"121.41735","lat":"31.231752","category":"500","category_name":"未知分类","address":"上海市 普陀区中山北路3300号"},{"poiid":"B2094757D069AAFB439F","title":"新華書店(中山公園)","lon":"121.41735386","lat":"31.231024226","category":"249","category_name":"购物服务","address":"上海長寧路龍之夢對面"},{"poiid":"B2094752DA6BA2F9449D","title":"k11","lon":"121.416571","lat":"31.233554","category":"500","category_name":"未知分类","address":"上海市 淮海中路300号K11购物艺术中心403号铺(近黄陂南路)"},{"poiid":"B209475CD26EABFA4798","title":"吐司新语","lon":"121.417007","lat":"31.232391","category":"247","category_name":"餐饮美食","address":"上海市 环球港"},{"poiid":"B2094753DA68A5FD4699","title":"小辉哥火锅","lon":"121.417488","lat":"31.231904","category":"247","category_name":"餐饮美食","address":"上海市 环球港店"},{"poiid":"B2094757D16BAAF54393","title":"沈记崇明土菜馆","lon":"121.41789","lat":"31.23266","category":"247","category_name":"餐饮美食","address":"上海普陀区宁夏路384号(近白玉路)  "},{"poiid":"B2094757D068A5F4459D","title":"乐记小厨","lon":"121.41804","lat":"31.23061","category":"72","category_name":"广东菜","address":"普陀区顺义路152号(近白玉路)"},{"poiid":"B209475CD76DA5FE489A","title":"海上国际影城(月星环球港店)","lon":"121.416007","lat":"31.23211","category":"178","category_name":"电影院","address":"上海市 中山北路3300号月星环球港4楼4039室"},{"poiid":"B2094757D06BA1FF429D","title":"上海春天","lon":"121.41882818","lat":"31.232124668","category":"500","category_name":"未知分类","address":"上海宁夏路353弄"},{"poiid":"B2094655D264A6FA489A","title":"中山北路3924弄小区","lon":"121.41824640257","lat":"31.23184992453","category":"47","category_name":"住宅区","address":"中山北路3924弄1-3号"},{"poiid":"B2094655D26DA3F84493","title":"白玉路中化新村44号院(东门)","lon":"121.41721","lat":"31.23221","category":"47","category_name":"住宅区","address":""},{"poiid":"B209475DD669A4F44892","title":"Special sushi（森井）","lon":"121.417144","lat":"31.231365","category":"247","category_name":"餐饮美食","address":"上海市 环球港L2"},{"poiid":"B2094757D064A2F8439F","title":"马尔代夫","lon":"121.417230586","lat":"31.2324714749","category":"500","category_name":"未知分类","address":"印度洋"},{"poiid":"B2094655D26DABFA419B","title":"白玉路中化新村44号院","lon":"121.41709","lat":"31.23218","category":"47","category_name":"住宅区","address":""},{"poiid":"B2094757D169AAFF439D","title":"优指美甲工作室","lon":"121.4177447","lat":"31.23298","category":"122","category_name":"个人用品/化妆品店","address":"普陀区宁夏路366弄绿地世家4号楼1605室(近金沙江路轻轨站)"},{"poiid":"B2094753D464AAFD4093","title":"艾薯夫妇（环球港店）","lon":"121.416831","lat":"31.230215","category":"500","category_name":"未知分类","address":"上海市 月星环球港B1"},{"poiid":"B2094654D564AAF5459A","title":"良友金伴便利连锁No.385","lon":"121.41686","lat":"31.23283","category":"117","category_name":"便民商店/便利店","address":""},{"poiid":"B2094654D565A2FC4992","title":"绿地世纪城一期绿地世纪花园","lon":"121.4192","lat":"31.23282","category":"47","category_name":"住宅区","address":"宁夏路353弄"},{"poiid":"B2094757D165ABF8469F","title":"摩羯座台湾牛肉面","lon":"121.417846586","lat":"31.2313124522","category":"247","category_name":"餐饮美食","address":"上海市普陀区顺义路"},{"poiid":"B2094654DB69A6FF409A","title":"新家老家(白玉苑二期)","lon":"121.41695","lat":"31.2316","category":"47","category_name":"住宅区","address":"新家老家(白玉苑二期)位于普陀白玉路358弄"},{"poiid":"B209475DD26FA3F9469A","title":"京世造型美容（月星环球港店）","lon":"121.417877","lat":"31.232841","category":"500","category_name":"未知分类","address":"上海市 中山北路3300号月星环球港B2"},{"poiid":"B2094757D164ABF9489B","title":"白兰路羊肉串","lon":"121.41885558","lat":"31.232835482","category":"247","category_name":"餐饮美食","address":"上海市普陀区白兰公寓"},{"poiid":"B2094654D564AAF44998","title":"白玉新苑","lon":"121.41578","lat":"31.23313","category":"47","category_name":"住宅区","address":"白玉路176号"},{"poiid":"B2094757D16AAAF54698","title":"铜川路大渡河路","lon":"121.417731586","lat":"31.2314354546","category":"500","category_name":"未知分类","address":"上海铜川路大渡河路"},{"poiid":"B2094750D26CA7FA419E","title":"初花","lon":"121.415952","lat":"31.231636","category":"247","category_name":"餐饮美食","address":"长宁区虹桥路1446号古北湾大酒店3楼"},{"poiid":"B2094654D564AAF5459D","title":"复星大药房宁夏店","lon":"121.4166","lat":"31.23262","category":"162","category_name":"医院","address":"宁夏路448"},{"poiid":"B209475CD66EA7FD439B","title":"澳士佳","lon":"121.417518","lat":"31.231845","category":"249","category_name":"购物服务","address":"上海市 上海中山北路3300号环球港4109"},{"poiid":"B2094757D66BA6FF4999","title":"重庆鸡公煲 宁夏路店","lon":"121.41217","lat":"31.22934","category":"71","category_name":"四川菜","address":"普陀区凯旋北路1600号(近金沙江路轻轨站)"},{"poiid":"B209475CD36FA6F5409D","title":"摩蝎座台湾牛肉面","lon":"121.41614301","lat":"31.23287798","category":"87","category_name":"特色／地方风味餐厅","address":"顺义路50号(近曹杨路)"},{"poiid":"B2094757D06BA1FF4699","title":"欧星咖啡厅(宁夏店)","lon":"121.41859","lat":"31.23357","category":"260","category_name":"其他","address":"普陀区宁夏路331号(近白玉路)"},{"poiid":"B2094750D26EA7FF409F","title":"华师大一村","lon":"121.417","lat":"31.2325","category":"627","category_name":"一般地点标志","address":"中山北路3671弄"},{"poiid":"B2094753DB69A7F5449E","title":"见面谈","lon":"121.417236","lat":"31.231719","category":"500","category_name":"未知分类","address":"上海市 中山北路3300号月星环球港L3037"}]