[{"poiid":"B2094757D06FA2F94493","title":"上海市第五人民医院","lon":"121.40855646","lat":"31.005010156","category":"162","category_name":"医院","address":"上海市闵行区瑞丽路128号(近鹤庆路)"},{"poiid":"B2094757D06FA5F84498","title":"上海电机学院","lon":"121.4006195","lat":"31.000602722","category":"671","category_name":"高校中心点","address":"闵行区江川路690号(近华宁路)"},{"poiid":"B2094757D06FA7F8429C","title":"华宁路地铁站","lon":"121.39286603","lat":"31.006740084","category":"36","category_name":"地铁站","address":"上海轨道交通 五号线 轨交华宁路站 5"},{"poiid":"B2094655D36CA5F44392","title":"碧江路","lon":"121.40283","lat":"31.00644","category":"38","category_name":"公交车站","address":""},{"poiid":"B2094757D068A1FD4193","title":"西南体育场","lon":"121.407365366","lat":"31.0070507406","category":"220","category_name":"运动场所","address":"闵行区鹤庆路788号(近瑞丽路)"},{"poiid":"B2094654DB6FA2F94593","title":"红旗四街坊(碧江路)","lon":"121.39949","lat":"31.01496","category":"47","category_name":"住宅区","address":"上海市闵行区华宁路"},{"poiid":"B2094757D464A0FF499E","title":"龙临阁酒楼","lon":"121.40162250317","lat":"31.008949476023","category":"76","category_name":"上海菜","address":"闵行区东川路2643号(碧江路口)"},{"poiid":"B2094757D06BA5FA419C","title":"金铭福邸","lon":"121.408785128","lat":"31.0072903351","category":"47","category_name":"住宅区","address":"上海市闵行区鹤庆路560弄"},{"poiid":"B2094757D069A2FB499C","title":"上海三菱电梯有限公司","lon":"121.39488475","lat":"30.999481334","category":"263","category_name":"公司","address":"上海江川路811号"},{"poiid":"B2094757D06BABF84693","title":"紫藤新苑","lon":"121.40006312","lat":"31.008571361","category":"47","category_name":"住宅区","address":"上海闵行区东川路2759弄"},{"poiid":"B2094654DB6FA2FE409E","title":"上海电气集团上海电机厂有限公司3号门","lon":"121.4043","lat":"30.99938","category":"263","category_name":"公司","address":"上海市闵行区江川路555号"},{"poiid":"B2094654DB6FA1FC4598","title":"羊羊羊烧烤","lon":"121.4029","lat":"31.00678","category":"87","category_name":"特色／地方风味餐厅","address":"碧江路309号"},{"poiid":"B2094757D064ABF54293","title":"富士名邸","lon":"121.4021077","lat":"31.0083402","category":"47","category_name":"住宅区","address":"上海闵行区碧江路329弄"},{"poiid":"B2094654DB6FA2F9439A","title":"景谷苑(华宁路)","lon":"121.39373","lat":"31.01383","category":"47","category_name":"住宅区","address":"华宁路265弄1-70号"},{"poiid":"B2094750DA6AA2F54598","title":"上海电机学院图书馆","lon":"121.400123","lat":"31.006547","category":"500","category_name":"未知分类","address":"闵行区闵行江川路690号"},{"poiid":"B2094654DB6FA1FC449D","title":"君临六六公寓","lon":"121.40327","lat":"31.006491","category":"47","category_name":"住宅区","address":"上海市闵行区碧江路295弄"},{"poiid":"B2094654DB6FA3FA469E","title":"紫藤新园","lon":"121.39919","lat":"31.007648","category":"47","category_name":"住宅区","address":"上海市闵行区东川路2759弄"},{"poiid":"B2094655D36CA7FC469D","title":"华宁路东川路","lon":"121.39625","lat":"31.00736","category":"38","category_name":"公交车站","address":""},{"poiid":"B2094654DB6FA3FA4398","title":"上海电机学院第三教学楼","lon":"121.39937","lat":"31.0024","category":"46","category_name":"楼宇","address":""},{"poiid":"B2094654DB6FA1FC4799","title":"小张烧烤","lon":"121.40247","lat":"31.00796","category":"68","category_name":"快餐厅","address":"闵行区碧江路富仕名邸三期对面(近东川路)"},{"poiid":"B2094757D068A5FC489E","title":"宾川路","lon":"121.407331478","lat":"31.0038079636","category":"500","category_name":"未知分类","address":"上海宾川路"},{"poiid":"B2094757D16CAAFE4292","title":"跃闵烧烤(碧江路店)","lon":"121.40319","lat":"31.00632","category":"68","category_name":"快餐厅","address":"闵行区碧江路307号(近工人文化宫)"},{"poiid":"B2094757D064ABFC439F","title":"上海电机学院九宿","lon":"121.39991312","lat":"31.003962266","category":"500","category_name":"未知分类","address":"上海江川路690号"},{"poiid":"B2094654DB6FA1FC479A","title":"和家小菜 碧江路店","lon":"121.40121","lat":"31.01146","category":"257","category_name":"中餐厅","address":"闵行区碧江路333号"},{"poiid":"B2094654DB6FA2FA4198","title":"碧江立体声影剧院","lon":"121.402487","lat":"31.006717","category":"178","category_name":"电影院","address":"碧江路310"},{"poiid":"B2094655D36CA5F4439F","title":"碧江路鹤庆路","lon":"121.40289","lat":"31.00626","category":"38","category_name":"公交车站","address":""},{"poiid":"B2094654DB6FA3FA439B","title":"上海电机学院报告厅","lon":"121.39925","lat":"31.00276","category":"52","category_name":"高等院校","address":""},{"poiid":"B2094654DB6FA2FA409E","title":"康乐花园","lon":"121.40177","lat":"31.007477","category":"47","category_name":"住宅区","address":"临沂北路255弄"},{"poiid":"B2094654DB6FA2FA409F","title":"好德(碧江路)","lon":"121.40216","lat":"31.00755","category":"117","category_name":"便民商店/便利店","address":""},{"poiid":"B2094757D465A3FF469C","title":"吴泾老饭店 闵行店","lon":"121.4019826","lat":"31.0088488","category":"76","category_name":"上海菜","address":"闵行区碧江路349号"},{"poiid":"B2094654DB69A6FC439D","title":"富仕名邸一期","lon":"121.40249","lat":"31.0079","category":"47","category_name":"住宅区","address":"闵行区碧江路329弄"},{"poiid":"B2094757D16FA2F44693","title":"电机学院技术中心","lon":"121.40017699","lat":"31.002938235","category":"500","category_name":"未知分类","address":"上海电机学院技术中心"},{"poiid":"B2094654DB6FA1FC469F","title":"快客No.6287","lon":"121.40267","lat":"31.0073","category":"117","category_name":"便民商店/便利店","address":"北桥镇"},{"poiid":"B2094654DB6FA1FC459B","title":"金武鸭头(碧江路)","lon":"121.40293","lat":"31.00672","category":"247","category_name":"餐饮美食","address":""},{"poiid":"B2094654DB6FA2FA419E","title":"上海市总工会闵行区工人文化宫","lon":"121.40249","lat":"31.00672","category":"188","category_name":"文化宫","address":"碧江路"},{"poiid":"B2094757D569A3FF479C","title":"淑俊美容美发(碧江店)","lon":"121.40299262","lat":"31.00659804","category":"148","category_name":"美容美发店","address":"闵行区碧江路307号(近工人俱乐部)"},{"poiid":"B2094750D26CA2F54292","title":"上海电气电站设备有限公司发电机厂GVPI车间","lon":"121.39918","lat":"31.003669","category":"263","category_name":"公司","address":"江川路555号"},{"poiid":"B2094757D16DA3F44599","title":"妞、Nina。'home","lon":"121.402091128","lat":"31.004656281","category":"500","category_name":"未知分类","address":null},{"poiid":"B2094757D16BAAFD449A","title":"第五人民医院输液室","lon":"121.410049128","lat":"31.0065893207","category":"162","category_name":"医院","address":"上海闵行区瑞丽路128号1楼"},{"poiid":"B2094654DB6FA1FC4698","title":"上海市闵行区碧江杂货店","lon":"121.40274","lat":"31.00717","category":"117","category_name":"便民商店/便利店","address":""},{"poiid":"B2094654DB6FA2F9499A","title":"上海市第五人民医院复旦大学附属康复科","lon":"121.401","lat":"31.01085","category":"162","category_name":"医院","address":"碧江路386"},{"poiid":"B2094757D06BA4F5419D","title":"上海市第五人民医院住院部","lon":"121.40836334","lat":"31.00591278","category":"162","category_name":"医院","address":"上海市闵行区瑞丽路128号(近鹤庆路)"},{"poiid":"B2094654DB6FA2FF479E","title":"快客便利店(东川路)","lon":"121.39987","lat":"31.00917","category":"117","category_name":"便民商店/便利店","address":""},{"poiid":"B2094752D265A5FA409A","title":"瑞丽坊","lon":"121.401838","lat":"31.01133","category":"247","category_name":"餐饮美食","address":"闵行区东川路2500号(近地铁5号线金平路站)"},{"poiid":"B2094654DB6FA3FA459B","title":"上海闵行徐记杂货店","lon":"121.397","lat":"31.00769","category":"117","category_name":"便民商店/便利店","address":""},{"poiid":"B2094654DB6FA3FA4499","title":"兰州正宗牛肉拉面(东川路)","lon":"121.39644","lat":"31.00755","category":"90","category_name":"清真餐馆","address":""},{"poiid":"B2094654DB6FA2FA419D","title":"银星舞厅&OK厅&桌球房","lon":"121.40241","lat":"31.00647","category":"248","category_name":"生活娱乐","address":""},{"poiid":"B2094757D168AAF8419D","title":"わたしのいえ。。。","lon":"121.40343882","lat":"31.004181171","category":"500","category_name":"未知分类","address":"上海碧江路210弄。。。"},{"poiid":"B2094757D568AAFB4999","title":"上岛咖啡(莘庄店)","lon":"121.40253255","lat":"31.00904433","category":"70","category_name":"综合酒楼","address":"东川路2643号(碧江路口)"},{"poiid":"B2094654DB6EAAFD409E","title":"上海机电技术专科学校","lon":"121.40053","lat":"31.00158","category":"52","category_name":"高等院校","address":"碧江路"},{"poiid":"B2094757D06FA2F94493","title":"上海市第五人民医院","lon":"121.40855646","lat":"31.005010156","category":"162","category_name":"医院","address":"上海市闵行区瑞丽路128号(近鹤庆路)"},{"poiid":"B2094757D06FA5F84498","title":"上海电机学院","lon":"121.4006195","lat":"31.000602722","category":"671","category_name":"高校中心点","address":"闵行区江川路690号(近华宁路)"},{"poiid":"B2094757D06FA7F8429C","title":"华宁路地铁站","lon":"121.39286603","lat":"31.006740084","category":"36","category_name":"地铁站","address":"上海轨道交通 五号线 轨交华宁路站 5"},{"poiid":"B2094655D36CA5F44392","title":"碧江路","lon":"121.40283","lat":"31.00644","category":"38","category_name":"公交车站","address":""},{"poiid":"B2094757D068A1FD4193","title":"西南体育场","lon":"121.407365366","lat":"31.0070507406","category":"220","category_name":"运动场所","address":"闵行区鹤庆路788号(近瑞丽路)"},{"poiid":"B2094654DB6FA2F94593","title":"红旗四街坊(碧江路)","lon":"121.39949","lat":"31.01496","category":"47","category_name":"住宅区","address":"上海市闵行区华宁路"},{"poiid":"B2094757D464A0FF499E","title":"龙临阁酒楼","lon":"121.40162250317","lat":"31.008949476023","category":"76","category_name":"上海菜","address":"闵行区东川路2643号(碧江路口)"},{"poiid":"B2094757D06BA5FA419C","title":"金铭福邸","lon":"121.408785128","lat":"31.0072903351","category":"47","category_name":"住宅区","address":"上海市闵行区鹤庆路560弄"},{"poiid":"B2094757D069A2FB499C","title":"上海三菱电梯有限公司","lon":"121.39488475","lat":"30.999481334","category":"263","category_name":"公司","address":"上海江川路811号"},{"poiid":"B2094757D06BABF84693","title":"紫藤新苑","lon":"121.40006312","lat":"31.008571361","category":"47","category_name":"住宅区","address":"上海闵行区东川路2759弄"},{"poiid":"B2094654DB6FA2FE409E","title":"上海电气集团上海电机厂有限公司3号门","lon":"121.4043","lat":"30.99938","category":"263","category_name":"公司","address":"上海市闵行区江川路555号"},{"poiid":"B2094654DB6FA1FC4598","title":"羊羊羊烧烤","lon":"121.4029","lat":"31.00678","category":"87","category_name":"特色／地方风味餐厅","address":"碧江路309号"},{"poiid":"B2094757D064ABF54293","title":"富士名邸","lon":"121.4021077","lat":"31.0083402","category":"47","category_name":"住宅区","address":"上海闵行区碧江路329弄"},{"poiid":"B2094654DB6FA2F9439A","title":"景谷苑(华宁路)","lon":"121.39373","lat":"31.01383","category":"47","category_name":"住宅区","address":"华宁路265弄1-70号"},{"poiid":"B2094750DA6AA2F54598","title":"上海电机学院图书馆","lon":"121.400123","lat":"31.006547","category":"500","category_name":"未知分类","address":"闵行区闵行江川路690号"},{"poiid":"B2094654DB6FA1FC449D","title":"君临六六公寓","lon":"121.40327","lat":"31.006491","category":"47","category_name":"住宅区","address":"上海市闵行区碧江路295弄"},{"poiid":"B2094654DB6FA3FA469E","title":"紫藤新园","lon":"121.39919","lat":"31.007648","category":"47","category_name":"住宅区","address":"上海市闵行区东川路2759弄"},{"poiid":"B2094655D36CA7FC469D","title":"华宁路东川路","lon":"121.39625","lat":"31.00736","category":"38","category_name":"公交车站","address":""},{"poiid":"B2094654DB6FA3FA4398","title":"上海电机学院第三教学楼","lon":"121.39937","lat":"31.0024","category":"46","category_name":"楼宇","address":""},{"poiid":"B2094654DB6FA1FC4799","title":"小张烧烤","lon":"121.40247","lat":"31.00796","category":"68","category_name":"快餐厅","address":"闵行区碧江路富仕名邸三期对面(近东川路)"},{"poiid":"B2094757D068A5FC489E","title":"宾川路","lon":"121.407331478","lat":"31.0038079636","category":"500","category_name":"未知分类","address":"上海宾川路"},{"poiid":"B2094757D16CAAFE4292","title":"跃闵烧烤(碧江路店)","lon":"121.40319","lat":"31.00632","category":"68","category_name":"快餐厅","address":"闵行区碧江路307号(近工人文化宫)"},{"poiid":"B2094757D064ABFC439F","title":"上海电机学院九宿","lon":"121.39991312","lat":"31.003962266","category":"500","category_name":"未知分类","address":"上海江川路690号"},{"poiid":"B2094654DB6FA1FC479A","title":"和家小菜 碧江路店","lon":"121.40121","lat":"31.01146","category":"257","category_name":"中餐厅","address":"闵行区碧江路333号"},{"poiid":"B2094654DB6FA2FA4198","title":"碧江立体声影剧院","lon":"121.402487","lat":"31.006717","category":"178","category_name":"电影院","address":"碧江路310"},{"poiid":"B2094655D36CA5F4439F","title":"碧江路鹤庆路","lon":"121.40289","lat":"31.00626","category":"38","category_name":"公交车站","address":""},{"poiid":"B2094654DB6FA3FA439B","title":"上海电机学院报告厅","lon":"121.39925","lat":"31.00276","category":"52","category_name":"高等院校","address":""},{"poiid":"B2094654DB6FA2FA409E","title":"康乐花园","lon":"121.40177","lat":"31.007477","category":"47","category_name":"住宅区","address":"临沂北路255弄"},{"poiid":"B2094654DB6FA2FA409F","title":"好德(碧江路)","lon":"121.40216","lat":"31.00755","category":"117","category_name":"便民商店/便利店","address":""},{"poiid":"B2094757D465A3FF469C","title":"吴泾老饭店 闵行店","lon":"121.4019826","lat":"31.0088488","category":"76","category_name":"上海菜","address":"闵行区碧江路349号"},{"poiid":"B2094654DB69A6FC439D","title":"富仕名邸一期","lon":"121.40249","lat":"31.0079","category":"47","category_name":"住宅区","address":"闵行区碧江路329弄"},{"poiid":"B2094757D16FA2F44693","title":"电机学院技术中心","lon":"121.40017699","lat":"31.002938235","category":"500","category_name":"未知分类","address":"上海电机学院技术中心"},{"poiid":"B2094654DB6FA1FC469F","title":"快客No.6287","lon":"121.40267","lat":"31.0073","category":"117","category_name":"便民商店/便利店","address":"北桥镇"},{"poiid":"B2094654DB6FA1FC459B","title":"金武鸭头(碧江路)","lon":"121.40293","lat":"31.00672","category":"247","category_name":"餐饮美食","address":""},{"poiid":"B2094654DB6FA2FA419E","title":"上海市总工会闵行区工人文化宫","lon":"121.40249","lat":"31.00672","category":"188","category_name":"文化宫","address":"碧江路"},{"poiid":"B2094757D569A3FF479C","title":"淑俊美容美发(碧江店)","lon":"121.40299262","lat":"31.00659804","category":"148","category_name":"美容美发店","address":"闵行区碧江路307号(近工人俱乐部)"},{"poiid":"B2094750D26CA2F54292","title":"上海电气电站设备有限公司发电机厂GVPI车间","lon":"121.39918","lat":"31.003669","category":"263","category_name":"公司","address":"江川路555号"},{"poiid":"B2094757D16DA3F44599","title":"妞、Nina。'home","lon":"121.402091128","lat":"31.004656281","category":"500","category_name":"未知分类","address":null},{"poiid":"B2094757D16BAAFD449A","title":"第五人民医院输液室","lon":"121.410049128","lat":"31.0065893207","category":"162","category_name":"医院","address":"上海闵行区瑞丽路128号1楼"},{"poiid":"B2094654DB6FA1FC4698","title":"上海市闵行区碧江杂货店","lon":"121.40274","lat":"31.00717","category":"117","category_name":"便民商店/便利店","address":""},{"poiid":"B2094654DB6FA2F9499A","title":"上海市第五人民医院复旦大学附属康复科","lon":"121.401","lat":"31.01085","category":"162","category_name":"医院","address":"碧江路386"},{"poiid":"B2094757D06BA4F5419D","title":"上海市第五人民医院住院部","lon":"121.40836334","lat":"31.00591278","category":"162","category_name":"医院","address":"上海市闵行区瑞丽路128号(近鹤庆路)"},{"poiid":"B2094654DB6FA2FF479E","title":"快客便利店(东川路)","lon":"121.39987","lat":"31.00917","category":"117","category_name":"便民商店/便利店","address":""},{"poiid":"B2094752D265A5FA409A","title":"瑞丽坊","lon":"121.401838","lat":"31.01133","category":"247","category_name":"餐饮美食","address":"闵行区东川路2500号(近地铁5号线金平路站)"},{"poiid":"B2094654DB6FA3FA459B","title":"上海闵行徐记杂货店","lon":"121.397","lat":"31.00769","category":"117","category_name":"便民商店/便利店","address":""},{"poiid":"B2094654DB6FA3FA4499","title":"兰州正宗牛肉拉面(东川路)","lon":"121.39644","lat":"31.00755","category":"90","category_name":"清真餐馆","address":""},{"poiid":"B2094654DB6FA2FA419D","title":"银星舞厅&OK厅&桌球房","lon":"121.40241","lat":"31.00647","category":"248","category_name":"生活娱乐","address":""},{"poiid":"B2094757D168AAF8419D","title":"わたしのいえ。。。","lon":"121.40343882","lat":"31.004181171","category":"500","category_name":"未知分类","address":"上海碧江路210弄。。。"},{"poiid":"B2094757D568AAFB4999","title":"上岛咖啡(莘庄店)","lon":"121.40253255","lat":"31.00904433","category":"70","category_name":"综合酒楼","address":"东川路2643号(碧江路口)"},{"poiid":"B2094654DB6EAAFD409E","title":"上海机电技术专科学校","lon":"121.40053","lat":"31.00158","category":"52","category_name":"高等院校","address":"碧江路"},{"poiid":"B2094757D06FA2F94493","title":"上海市第五人民医院","lon":"121.40855646","lat":"31.005010156","category":"162","category_name":"医院","address":"上海市闵行区瑞丽路128号(近鹤庆路)"},{"poiid":"B2094757D06FA5F84498","title":"上海电机学院","lon":"121.4006195","lat":"31.000602722","category":"671","category_name":"高校中心点","address":"闵行区江川路690号(近华宁路)"},{"poiid":"B2094757D06FA7F8429C","title":"华宁路地铁站","lon":"121.39286603","lat":"31.006740084","category":"36","category_name":"地铁站","address":"上海轨道交通 五号线 轨交华宁路站 5"},{"poiid":"B2094655D36CA5F44392","title":"碧江路","lon":"121.40283","lat":"31.00644","category":"38","category_name":"公交车站","address":""},{"poiid":"B2094757D068A1FD4193","title":"西南体育场","lon":"121.407365366","lat":"31.0070507406","category":"220","category_name":"运动场所","address":"闵行区鹤庆路788号(近瑞丽路)"},{"poiid":"B2094654DB6FA2F94593","title":"红旗四街坊(碧江路)","lon":"121.39949","lat":"31.01496","category":"47","category_name":"住宅区","address":"上海市闵行区华宁路"},{"poiid":"B2094757D464A0FF499E","title":"龙临阁酒楼","lon":"121.40162250317","lat":"31.008949476023","category":"76","category_name":"上海菜","address":"闵行区东川路2643号(碧江路口)"},{"poiid":"B2094757D06BA5FA419C","title":"金铭福邸","lon":"121.408785128","lat":"31.0072903351","category":"47","category_name":"住宅区","address":"上海市闵行区鹤庆路560弄"},{"poiid":"B2094757D069A2FB499C","title":"上海三菱电梯有限公司","lon":"121.39488475","lat":"30.999481334","category":"263","category_name":"公司","address":"上海江川路811号"},{"poiid":"B2094757D06BABF84693","title":"紫藤新苑","lon":"121.40006312","lat":"31.008571361","category":"47","category_name":"住宅区","address":"上海闵行区东川路2759弄"},{"poiid":"B2094654DB6FA2FE409E","title":"上海电气集团上海电机厂有限公司3号门","lon":"121.4043","lat":"30.99938","category":"263","category_name":"公司","address":"上海市闵行区江川路555号"},{"poiid":"B2094654DB6FA1FC4598","title":"羊羊羊烧烤","lon":"121.4029","lat":"31.00678","category":"87","category_name":"特色／地方风味餐厅","address":"碧江路309号"},{"poiid":"B2094757D064ABF54293","title":"富士名邸","lon":"121.4021077","lat":"31.0083402","category":"47","category_name":"住宅区","address":"上海闵行区碧江路329弄"},{"poiid":"B2094654DB6FA2F9439A","title":"景谷苑(华宁路)","lon":"121.39373","lat":"31.01383","category":"47","category_name":"住宅区","address":"华宁路265弄1-70号"},{"poiid":"B2094750DA6AA2F54598","title":"上海电机学院图书馆","lon":"121.400123","lat":"31.006547","category":"500","category_name":"未知分类","address":"闵行区闵行江川路690号"},{"poiid":"B2094654DB6FA1FC449D","title":"君临六六公寓","lon":"121.40327","lat":"31.006491","category":"47","category_name":"住宅区","address":"上海市闵行区碧江路295弄"},{"poiid":"B2094654DB6FA3FA469E","title":"紫藤新园","lon":"121.39919","lat":"31.007648","category":"47","category_name":"住宅区","address":"上海市闵行区东川路2759弄"},{"poiid":"B2094655D36CA7FC469D","title":"华宁路东川路","lon":"121.39625","lat":"31.00736","category":"38","category_name":"公交车站","address":""},{"poiid":"B2094654DB6FA3FA4398","title":"上海电机学院第三教学楼","lon":"121.39937","lat":"31.0024","category":"46","category_name":"楼宇","address":""},{"poiid":"B2094654DB6FA1FC4799","title":"小张烧烤","lon":"121.40247","lat":"31.00796","category":"68","category_name":"快餐厅","address":"闵行区碧江路富仕名邸三期对面(近东川路)"},{"poiid":"B2094757D068A5FC489E","title":"宾川路","lon":"121.407331478","lat":"31.0038079636","category":"500","category_name":"未知分类","address":"上海宾川路"},{"poiid":"B2094757D16CAAFE4292","title":"跃闵烧烤(碧江路店)","lon":"121.40319","lat":"31.00632","category":"68","category_name":"快餐厅","address":"闵行区碧江路307号(近工人文化宫)"},{"poiid":"B2094757D064ABFC439F","title":"上海电机学院九宿","lon":"121.39991312","lat":"31.003962266","category":"500","category_name":"未知分类","address":"上海江川路690号"},{"poiid":"B2094654DB6FA1FC479A","title":"和家小菜 碧江路店","lon":"121.40121","lat":"31.01146","category":"257","category_name":"中餐厅","address":"闵行区碧江路333号"},{"poiid":"B2094654DB6FA2FA4198","title":"碧江立体声影剧院","lon":"121.402487","lat":"31.006717","category":"178","category_name":"电影院","address":"碧江路310"},{"poiid":"B2094655D36CA5F4439F","title":"碧江路鹤庆路","lon":"121.40289","lat":"31.00626","category":"38","category_name":"公交车站","address":""},{"poiid":"B2094654DB6FA3FA439B","title":"上海电机学院报告厅","lon":"121.39925","lat":"31.00276","category":"52","category_name":"高等院校","address":""},{"poiid":"B2094654DB6FA2FA409E","title":"康乐花园","lon":"121.40177","lat":"31.007477","category":"47","category_name":"住宅区","address":"临沂北路255弄"},{"poiid":"B2094654DB6FA2FA409F","title":"好德(碧江路)","lon":"121.40216","lat":"31.00755","category":"117","category_name":"便民商店/便利店","address":""},{"poiid":"B2094757D465A3FF469C","title":"吴泾老饭店 闵行店","lon":"121.4019826","lat":"31.0088488","category":"76","category_name":"上海菜","address":"闵行区碧江路349号"},{"poiid":"B2094654DB69A6FC439D","title":"富仕名邸一期","lon":"121.40249","lat":"31.0079","category":"47","category_name":"住宅区","address":"闵行区碧江路329弄"},{"poiid":"B2094757D16FA2F44693","title":"电机学院技术中心","lon":"121.40017699","lat":"31.002938235","category":"500","category_name":"未知分类","address":"上海电机学院技术中心"},{"poiid":"B2094654DB6FA1FC469F","title":"快客No.6287","lon":"121.40267","lat":"31.0073","category":"117","category_name":"便民商店/便利店","address":"北桥镇"},{"poiid":"B2094654DB6FA1FC459B","title":"金武鸭头(碧江路)","lon":"121.40293","lat":"31.00672","category":"247","category_name":"餐饮美食","address":""},{"poiid":"B2094654DB6FA2FA419E","title":"上海市总工会闵行区工人文化宫","lon":"121.40249","lat":"31.00672","category":"188","category_name":"文化宫","address":"碧江路"},{"poiid":"B2094757D569A3FF479C","title":"淑俊美容美发(碧江店)","lon":"121.40299262","lat":"31.00659804","category":"148","category_name":"美容美发店","address":"闵行区碧江路307号(近工人俱乐部)"},{"poiid":"B2094750D26CA2F54292","title":"上海电气电站设备有限公司发电机厂GVPI车间","lon":"121.39918","lat":"31.003669","category":"263","category_name":"公司","address":"江川路555号"},{"poiid":"B2094757D16DA3F44599","title":"妞、Nina。'home","lon":"121.402091128","lat":"31.004656281","category":"500","category_name":"未知分类","address":null},{"poiid":"B2094757D16BAAFD449A","title":"第五人民医院输液室","lon":"121.410049128","lat":"31.0065893207","category":"162","category_name":"医院","address":"上海闵行区瑞丽路128号1楼"},{"poiid":"B2094654DB6FA1FC4698","title":"上海市闵行区碧江杂货店","lon":"121.40274","lat":"31.00717","category":"117","category_name":"便民商店/便利店","address":""},{"poiid":"B2094654DB6FA2F9499A","title":"上海市第五人民医院复旦大学附属康复科","lon":"121.401","lat":"31.01085","category":"162","category_name":"医院","address":"碧江路386"},{"poiid":"B2094757D06BA4F5419D","title":"上海市第五人民医院住院部","lon":"121.40836334","lat":"31.00591278","category":"162","category_name":"医院","address":"上海市闵行区瑞丽路128号(近鹤庆路)"},{"poiid":"B2094654DB6FA2FF479E","title":"快客便利店(东川路)","lon":"121.39987","lat":"31.00917","category":"117","category_name":"便民商店/便利店","address":""},{"poiid":"B2094752D265A5FA409A","title":"瑞丽坊","lon":"121.401838","lat":"31.01133","category":"247","category_name":"餐饮美食","address":"闵行区东川路2500号(近地铁5号线金平路站)"},{"poiid":"B2094654DB6FA3FA459B","title":"上海闵行徐记杂货店","lon":"121.397","lat":"31.00769","category":"117","category_name":"便民商店/便利店","address":""},{"poiid":"B2094654DB6FA3FA4499","title":"兰州正宗牛肉拉面(东川路)","lon":"121.39644","lat":"31.00755","category":"90","category_name":"清真餐馆","address":""},{"poiid":"B2094654DB6FA2FA419D","title":"银星舞厅&OK厅&桌球房","lon":"121.40241","lat":"31.00647","category":"248","category_name":"生活娱乐","address":""},{"poiid":"B2094757D168AAF8419D","title":"わたしのいえ。。。","lon":"121.40343882","lat":"31.004181171","category":"500","category_name":"未知分类","address":"上海碧江路210弄。。。"},{"poiid":"B2094757D568AAFB4999","title":"上岛咖啡(莘庄店)","lon":"121.40253255","lat":"31.00904433","category":"70","category_name":"综合酒楼","address":"东川路2643号(碧江路口)"},{"poiid":"B2094654DB6EAAFD409E","title":"上海机电技术专科学校","lon":"121.40053","lat":"31.00158","category":"52","category_name":"高等院校","address":"碧江路"},{"poiid":"B2094757D06FA2F94493","title":"上海市第五人民医院","lon":"121.40855646","lat":"31.005010156","category":"162","category_name":"医院","address":"上海市闵行区瑞丽路128号(近鹤庆路)"},{"poiid":"B2094757D06FA5F84498","title":"上海电机学院","lon":"121.4006195","lat":"31.000602722","category":"671","category_name":"高校中心点","address":"闵行区江川路690号(近华宁路)"},{"poiid":"B2094757D06FA7F8429C","title":"华宁路地铁站","lon":"121.39286603","lat":"31.006740084","category":"36","category_name":"地铁站","address":"上海轨道交通 五号线 轨交华宁路站 5"},{"poiid":"B2094655D36CA5F44392","title":"碧江路","lon":"121.40283","lat":"31.00644","category":"38","category_name":"公交车站","address":""},{"poiid":"B2094757D068A1FD4193","title":"西南体育场","lon":"121.407365366","lat":"31.0070507406","category":"220","category_name":"运动场所","address":"闵行区鹤庆路788号(近瑞丽路)"},{"poiid":"B2094654DB6FA2F94593","title":"红旗四街坊(碧江路)","lon":"121.39949","lat":"31.01496","category":"47","category_name":"住宅区","address":"上海市闵行区华宁路"},{"poiid":"B2094757D464A0FF499E","title":"龙临阁酒楼","lon":"121.40162250317","lat":"31.008949476023","category":"76","category_name":"上海菜","address":"闵行区东川路2643号(碧江路口)"},{"poiid":"B2094757D06BA5FA419C","title":"金铭福邸","lon":"121.408785128","lat":"31.0072903351","category":"47","category_name":"住宅区","address":"上海市闵行区鹤庆路560弄"},{"poiid":"B2094757D069A2FB499C","title":"上海三菱电梯有限公司","lon":"121.39488475","lat":"30.999481334","category":"263","category_name":"公司","address":"上海江川路811号"},{"poiid":"B2094757D06BABF84693","title":"紫藤新苑","lon":"121.40006312","lat":"31.008571361","category":"47","category_name":"住宅区","address":"上海闵行区东川路2759弄"},{"poiid":"B2094654DB6FA2FE409E","title":"上海电气集团上海电机厂有限公司3号门","lon":"121.4043","lat":"30.99938","category":"263","category_name":"公司","address":"上海市闵行区江川路555号"},{"poiid":"B2094654DB6FA1FC4598","title":"羊羊羊烧烤","lon":"121.4029","lat":"31.00678","category":"87","category_name":"特色／地方风味餐厅","address":"碧江路309号"},{"poiid":"B2094757D064ABF54293","title":"富士名邸","lon":"121.4021077","lat":"31.0083402","category":"47","category_name":"住宅区","address":"上海闵行区碧江路329弄"},{"poiid":"B2094654DB6FA2F9439A","title":"景谷苑(华宁路)","lon":"121.39373","lat":"31.01383","category":"47","category_name":"住宅区","address":"华宁路265弄1-70号"},{"poiid":"B2094750DA6AA2F54598","title":"上海电机学院图书馆","lon":"121.400123","lat":"31.006547","category":"500","category_name":"未知分类","address":"闵行区闵行江川路690号"},{"poiid":"B2094654DB6FA1FC449D","title":"君临六六公寓","lon":"121.40327","lat":"31.006491","category":"47","category_name":"住宅区","address":"上海市闵行区碧江路295弄"},{"poiid":"B2094654DB6FA3FA469E","title":"紫藤新园","lon":"121.39919","lat":"31.007648","category":"47","category_name":"住宅区","address":"上海市闵行区东川路2759弄"},{"poiid":"B2094655D36CA7FC469D","title":"华宁路东川路","lon":"121.39625","lat":"31.00736","category":"38","category_name":"公交车站","address":""},{"poiid":"B2094654DB6FA3FA4398","title":"上海电机学院第三教学楼","lon":"121.39937","lat":"31.0024","category":"46","category_name":"楼宇","address":""},{"poiid":"B2094654DB6FA1FC4799","title":"小张烧烤","lon":"121.40247","lat":"31.00796","category":"68","category_name":"快餐厅","address":"闵行区碧江路富仕名邸三期对面(近东川路)"},{"poiid":"B2094757D068A5FC489E","title":"宾川路","lon":"121.407331478","lat":"31.0038079636","category":"500","category_name":"未知分类","address":"上海宾川路"},{"poiid":"B2094757D16CAAFE4292","title":"跃闵烧烤(碧江路店)","lon":"121.40319","lat":"31.00632","category":"68","category_name":"快餐厅","address":"闵行区碧江路307号(近工人文化宫)"},{"poiid":"B2094757D064ABFC439F","title":"上海电机学院九宿","lon":"121.39991312","lat":"31.003962266","category":"500","category_name":"未知分类","address":"上海江川路690号"},{"poiid":"B2094654DB6FA1FC479A","title":"和家小菜 碧江路店","lon":"121.40121","lat":"31.01146","category":"257","category_name":"中餐厅","address":"闵行区碧江路333号"},{"poiid":"B2094654DB6FA2FA4198","title":"碧江立体声影剧院","lon":"121.402487","lat":"31.006717","category":"178","category_name":"电影院","address":"碧江路310"},{"poiid":"B2094655D36CA5F4439F","title":"碧江路鹤庆路","lon":"121.40289","lat":"31.00626","category":"38","category_name":"公交车站","address":""},{"poiid":"B2094654DB6FA3FA439B","title":"上海电机学院报告厅","lon":"121.39925","lat":"31.00276","category":"52","category_name":"高等院校","address":""},{"poiid":"B2094654DB6FA2FA409E","title":"康乐花园","lon":"121.40177","lat":"31.007477","category":"47","category_name":"住宅区","address":"临沂北路255弄"},{"poiid":"B2094654DB6FA2FA409F","title":"好德(碧江路)","lon":"121.40216","lat":"31.00755","category":"117","category_name":"便民商店/便利店","address":""},{"poiid":"B2094757D465A3FF469C","title":"吴泾老饭店 闵行店","lon":"121.4019826","lat":"31.0088488","category":"76","category_name":"上海菜","address":"闵行区碧江路349号"},{"poiid":"B2094654DB69A6FC439D","title":"富仕名邸一期","lon":"121.40249","lat":"31.0079","category":"47","category_name":"住宅区","address":"闵行区碧江路329弄"},{"poiid":"B2094757D16FA2F44693","title":"电机学院技术中心","lon":"121.40017699","lat":"31.002938235","category":"500","category_name":"未知分类","address":"上海电机学院技术中心"},{"poiid":"B2094654DB6FA1FC469F","title":"快客No.6287","lon":"121.40267","lat":"31.0073","category":"117","category_name":"便民商店/便利店","address":"北桥镇"},{"poiid":"B2094654DB6FA1FC459B","title":"金武鸭头(碧江路)","lon":"121.40293","lat":"31.00672","category":"247","category_name":"餐饮美食","address":""},{"poiid":"B2094654DB6FA2FA419E","title":"上海市总工会闵行区工人文化宫","lon":"121.40249","lat":"31.00672","category":"188","category_name":"文化宫","address":"碧江路"},{"poiid":"B2094757D569A3FF479C","title":"淑俊美容美发(碧江店)","lon":"121.40299262","lat":"31.00659804","category":"148","category_name":"美容美发店","address":"闵行区碧江路307号(近工人俱乐部)"},{"poiid":"B2094750D26CA2F54292","title":"上海电气电站设备有限公司发电机厂GVPI车间","lon":"121.39918","lat":"31.003669","category":"263","category_name":"公司","address":"江川路555号"},{"poiid":"B2094757D16DA3F44599","title":"妞、Nina。'home","lon":"121.402091128","lat":"31.004656281","category":"500","category_name":"未知分类","address":null},{"poiid":"B2094757D16BAAFD449A","title":"第五人民医院输液室","lon":"121.410049128","lat":"31.0065893207","category":"162","category_name":"医院","address":"上海闵行区瑞丽路128号1楼"},{"poiid":"B2094654DB6FA1FC4698","title":"上海市闵行区碧江杂货店","lon":"121.40274","lat":"31.00717","category":"117","category_name":"便民商店/便利店","address":""},{"poiid":"B2094654DB6FA2F9499A","title":"上海市第五人民医院复旦大学附属康复科","lon":"121.401","lat":"31.01085","category":"162","category_name":"医院","address":"碧江路386"},{"poiid":"B2094757D06BA4F5419D","title":"上海市第五人民医院住院部","lon":"121.40836334","lat":"31.00591278","category":"162","category_name":"医院","address":"上海市闵行区瑞丽路128号(近鹤庆路)"},{"poiid":"B2094654DB6FA2FF479E","title":"快客便利店(东川路)","lon":"121.39987","lat":"31.00917","category":"117","category_name":"便民商店/便利店","address":""},{"poiid":"B2094752D265A5FA409A","title":"瑞丽坊","lon":"121.401838","lat":"31.01133","category":"247","category_name":"餐饮美食","address":"闵行区东川路2500号(近地铁5号线金平路站)"},{"poiid":"B2094654DB6FA3FA459B","title":"上海闵行徐记杂货店","lon":"121.397","lat":"31.00769","category":"117","category_name":"便民商店/便利店","address":""},{"poiid":"B2094654DB6FA3FA4499","title":"兰州正宗牛肉拉面(东川路)","lon":"121.39644","lat":"31.00755","category":"90","category_name":"清真餐馆","address":""},{"poiid":"B2094654DB6FA2FA419D","title":"银星舞厅&OK厅&桌球房","lon":"121.40241","lat":"31.00647","category":"248","category_name":"生活娱乐","address":""},{"poiid":"B2094757D168AAF8419D","title":"わたしのいえ。。。","lon":"121.40343882","lat":"31.004181171","category":"500","category_name":"未知分类","address":"上海碧江路210弄。。。"},{"poiid":"B2094757D568AAFB4999","title":"上岛咖啡(莘庄店)","lon":"121.40253255","lat":"31.00904433","category":"70","category_name":"综合酒楼","address":"东川路2643号(碧江路口)"},{"poiid":"B2094654DB6EAAFD409E","title":"上海机电技术专科学校","lon":"121.40053","lat":"31.00158","category":"52","category_name":"高等院校","address":"碧江路"}]