[{"poiid":"B2094757D068AAFE489F","title":"复兴西路","lon":"121.443012","lat":"31.208405","category":"46","category_name":"楼宇","address":"上海永福路"},{"poiid":"B2094757D06FA2FE429C","title":"The Apartment","lon":"121.44423272","lat":"31.2114678","category":"94","category_name":"西餐厅","address":"徐汇区永福路47号3楼(近复兴西路)"},{"poiid":"B2094757D06EAAF54992","title":"JZ club(爵士俱乐部)","lon":"121.44488035","lat":"31.210675495","category":"172","category_name":"酒吧","address":"徐汇区复兴西路46号(近乌鲁木齐中路)"},{"poiid":"B2094753D76FAAFA449C","title":"上海滩国泰旗舰店","lon":"121.466011","lat":"31.216125","category":"249","category_name":"购物服务","address":"淮海中路868号"},{"poiid":"B209475CD564A7F8439E","title":"上海滩中信泰富店","lon":"121.45602","lat":"31.22851","category":"119","category_name":"商场","address":"\"南京西路1168号中信泰富广场，店铺号221.\r\n\""},{"poiid":"B2094757D06FA1F5479B","title":"El Cóctel","lon":"121.44435072","lat":"31.211305167","category":"260","category_name":"其他","address":"徐汇区永福路47号2楼(近复兴西路)"},{"poiid":"B2094654DB69A7FB499A","title":"上海话剧艺术中心戏剧沙龙","lon":"121.441069","lat":"31.213643","category":"178","category_name":"电影院","address":"安福路288号话剧大厦"},{"poiid":"B2094757D06FA1FA409A","title":"一品居热气羊肉馆(乌鲁木齐中路店)","lon":"121.44662","lat":"31.21043","category":"86","category_name":"火锅店","address":"徐汇区乌鲁木齐中路352号(近复兴西路)"},{"poiid":"B2094757D06FA6FC429B","title":"La Strada","lon":"121.44373968","lat":"31.2139371011","category":"94","category_name":"西餐厅","address":"徐汇区安福路195号(近乌鲁木齐中路)"},{"poiid":"B2094757D06FA5FD4293","title":"Mr. Willis","lon":"121.44397","lat":"31.21359","category":"94","category_name":"西餐厅","address":"徐汇区安福路195号3楼(近乌鲁木齐中路)"},{"poiid":"B2094752D768A2FB409E","title":"鼎王无老锅（上海无老衡山店）","lon":"121.446411","lat":"31.211093","category":"247","category_name":"餐饮美食","address":"上海徐汇区衡山路2号甲(近桃江路)"},{"poiid":"B2094757D06FA2FC419B","title":"Amokka Café","lon":"121.44438","lat":"31.21392","category":"94","category_name":"西餐厅","address":"徐汇区安福路201号(近乌鲁木齐中路)"},{"poiid":"B2094654DB69A7FD4193","title":"雍福会","lon":"121.44264","lat":"31.20911","category":"76","category_name":"上海菜","address":"徐汇区永福路200号原英国领事馆(近湖南路)"},{"poiid":"B2094757D068ABFE469A","title":"西班牙总领事馆文化处","lon":"121.443642","lat":"31.2140977094","category":"46","category_name":"楼宇","address":"上海徐汇区安福路208号"},{"poiid":"B2094757D06FABFD459E","title":"高丽烧烤","lon":"121.4461","lat":"31.21237","category":"96","category_name":"韩国料理","address":"徐汇区五原路181弄1号(近乌鲁木齐中路)"},{"poiid":"B2094757D16CA3F44492","title":"Salute","lon":"121.444026586","lat":"31.2107440499","category":"94","category_name":"西餐厅","address":"静安区南京西路1038号梅龙镇伊势丹3楼(近江宁路)"},{"poiid":"B2094757D169ABF5459E","title":"Bocado","lon":"121.44390058","lat":"31.211565066","category":"94","category_name":"西餐厅","address":"徐汇区永福路47号203(近复兴路)"},{"poiid":"B2094757D468AAFA439F","title":"Restaurant Cuivre","lon":"121.445625","lat":"31.209066","category":"94","category_name":"西餐厅","address":"徐汇区淮海中路1502号(近乌鲁木齐路)"},{"poiid":"B2094654DA6DA6FC4898","title":"上海图书馆(东门)","lon":"121.44525","lat":"31.20854","category":"181","category_name":"图书馆","address":"淮海中路1555号"},{"poiid":"B2094757D06FA2F4459E","title":"博多新记(乌鲁木齐店)","lon":"121.44655","lat":"31.21135","category":"72","category_name":"广东菜","address":"徐汇区乌鲁木齐中路300号(近五原路)"},{"poiid":"B2094757D068A0FC449C","title":"JustGrapes(安福路店)","lon":"121.44505","lat":"31.21389","category":"94","category_name":"西餐厅","address":"徐汇区安福路162号(近乌鲁木齐中路)"},{"poiid":"B2094757D06FA1FB409E","title":"蜀地辣子鱼(安福店)","lon":"121.44467","lat":"31.21375","category":"71","category_name":"四川菜","address":"徐汇区安福路185-187号(近乌鲁木齐中路)"},{"poiid":"B2094757D66EA0FA489E","title":"NeNe Italian restaurant","lon":"121.443460786","lat":"31.2108263515","category":"94","category_name":"西餐厅","address":"徐汇区永福路47号106室(近复兴路)"},{"poiid":"B2094757D06FA0FD469B","title":"湖南乡村风味(乌鲁木齐中路店)","lon":"121.44546","lat":"31.21341","category":"77","category_name":"湖南菜","address":"徐汇区乌鲁木齐中路168号(近安福路)"},{"poiid":"B2094757D069A4F8409B","title":"Rhumerie Bounty(永福路店)","lon":"121.44434","lat":"31.21114","category":"260","category_name":"其他","address":"徐汇区永福路47号1楼(近五原路)"},{"poiid":"B2094757D068A2F54493","title":"博爱医院","lon":"121.44417408","lat":"31.208371816","category":"162","category_name":"医院","address":"卢湾区淮海中路1590号(近高安路)"},{"poiid":"B2094757D06AA4F9449A","title":"乌鲁木齐中路五原路","lon":"121.445794","lat":"31.212692","category":"500","category_name":"未知分类","address":"上海乌鲁木齐中路五原路"},{"poiid":"B2094757D16CA7F84793","title":"SetteBello","lon":"121.44418258","lat":"31.214072115","category":"94","category_name":"西餐厅","address":"徐汇区安福路193号(近乌鲁木齐路)"},{"poiid":"B2094752D669A6F8449B","title":"鼎王无老养生锅","lon":"121.444528","lat":"31.209638","category":"500","category_name":"未知分类","address":"衡山路2号甲香樟花园"},{"poiid":"B2094757D06AA4F84298","title":"Hunan House","lon":"121.445337989","lat":"31.209769788","category":"77","category_name":"湖南菜","address":"徐汇区复兴西路49弄2号(近乌鲁木齐路)"},{"poiid":"B2094757D068A4F5429E","title":"La casbah coffee","lon":"121.44471633","lat":"31.208303673","category":"65","category_name":"咖啡厅","address":"上海市淮海中路1554号"},{"poiid":"B2094757D06BA6F8419F","title":"河边港式粤菜","lon":"121.443920586","lat":"31.2106350478","category":"72","category_name":"广东菜","address":"徐汇区淮海中路1293号"},{"poiid":"B2094757D06AA5FA489A","title":"五原路","lon":"121.44202758","lat":"31.211923073","category":"500","category_name":"未知分类","address":"上海徐汇区五原路"},{"poiid":"B2094750D76CA4FE4493","title":"Bikini","lon":"121.444","lat":"31.2115","category":"94","category_name":"西餐厅","address":"徐汇区永福路47号(近复兴路)"},{"poiid":"B2094757D068A4FD459C","title":"米盖尔·德·塞万提斯图书馆","lon":"121.443635131","lat":"31.214141725","category":"181","category_name":"图书馆","address":"徐汇区安福路208号(近乌鲁木齐中路)"},{"poiid":"B2094757D16BA4F5499D","title":"新味牛肉面","lon":"121.443720087","lat":"31.2100886758","category":"68","category_name":"快餐厅","address":"徐汇区永福路127号(近复兴西路口)"},{"poiid":"B2094757D069AAFD429B","title":"上海电影（集团）有限公司","lon":"121.44379425","lat":"31.2114124298","category":"248","category_name":"生活娱乐","address":"上海永福路52号"},{"poiid":"B2094757D16FAAF5449D","title":"永福路47号","lon":"121.44387758","lat":"31.211524065","category":"500","category_name":"未知分类","address":"上海市徐汇区永福路47号"},{"poiid":"B2094751D36EA4F5409B","title":"Organic Kitchen","lon":"121.44503","lat":"31.21022","category":"94","category_name":"西餐厅","address":"徐汇区复兴西路57号(近永福路)"},{"poiid":"B2094654D564A4F94392","title":"永福商务楼","lon":"121.44411","lat":"31.21128","category":"46","category_name":"楼宇","address":"永福路47"},{"poiid":"B2094757D56CA2FF419B","title":"Misael酒吧","lon":"121.440953","lat":"31.210136","category":"260","category_name":"其他","address":"徐汇区武康路103号(近复兴西路)"},{"poiid":"B2094655D26BA3F5459D","title":"Shiva Lounge","lon":"121.44416","lat":"31.21168","category":"260","category_name":"其他","address":"徐汇区永福路47号102室(近复兴西路)"},{"poiid":"B2094757D064A0FB429E","title":"上影 永福52","lon":"121.44408345","lat":"31.211190515","category":"47","category_name":"住宅区","address":"上海上影 永福52"},{"poiid":"B2094655D265A0FC4293","title":"兰州正宗牛肉拉面","lon":"121.44733","lat":"31.21483","category":"68","category_name":"快餐厅","address":"徐汇区五原路249号"},{"poiid":"B2094750D269A3FC4199","title":"帕特蒙 The Apartment","lon":"121.44435167313","lat":"31.211002980336","category":"247","category_name":"餐饮美食","address":"永福路47号302室近复兴西路"},{"poiid":"B2094750D36FA3F94992","title":"ARCADE","lon":"121.44450906607062","lat":"31.21043640843178","category":"260","category_name":"其他","address":"徐汇区复兴西路57号2楼(近永福路)"},{"poiid":"B2094757D06FA7FA4798","title":"城市山民.谷(Urban Tribe·the Valley)","lon":"121.442986","lat":"31.210565","category":"260","category_name":"其他","address":"徐汇区复兴西路133号(近永福路)"},{"poiid":"B2094757D16EA2FE4598","title":"Bounty","lon":"121.44371058","lat":"31.211168058","category":"500","category_name":"未知分类","address":"上海市长宁区永福路"},{"poiid":"B2094752D764AAFF449A","title":"SPICE BAZAAR／香料集市","lon":"121.44263","lat":"31.210202","category":"247","category_name":"餐饮美食","address":"东平路29号"},{"poiid":"B2094655D268A6FC449A","title":"Bi N74 Wine Room","lon":"121.44328","lat":"31.21078","category":"65","category_name":"咖啡厅","address":"复兴西路72-74"},{"poiid":"B2094757D068AAFE489F","title":"复兴西路","lon":"121.443012","lat":"31.208405","category":"46","category_name":"楼宇","address":"上海永福路"},{"poiid":"B2094757D06FA2FE429C","title":"The Apartment","lon":"121.44423272","lat":"31.2114678","category":"94","category_name":"西餐厅","address":"徐汇区永福路47号3楼(近复兴西路)"},{"poiid":"B2094757D06EAAF54992","title":"JZ club(爵士俱乐部)","lon":"121.44488035","lat":"31.210675495","category":"172","category_name":"酒吧","address":"徐汇区复兴西路46号(近乌鲁木齐中路)"},{"poiid":"B2094753D76FAAFA449C","title":"上海滩国泰旗舰店","lon":"121.466011","lat":"31.216125","category":"249","category_name":"购物服务","address":"淮海中路868号"},{"poiid":"B209475CD564A7F8439E","title":"上海滩中信泰富店","lon":"121.45602","lat":"31.22851","category":"119","category_name":"商场","address":"\"南京西路1168号中信泰富广场，店铺号221.\r\n\""},{"poiid":"B2094757D06FA1F5479B","title":"El Cóctel","lon":"121.44435072","lat":"31.211305167","category":"260","category_name":"其他","address":"徐汇区永福路47号2楼(近复兴西路)"},{"poiid":"B2094654DB69A7FB499A","title":"上海话剧艺术中心戏剧沙龙","lon":"121.441069","lat":"31.213643","category":"178","category_name":"电影院","address":"安福路288号话剧大厦"},{"poiid":"B2094757D06FA1FA409A","title":"一品居热气羊肉馆(乌鲁木齐中路店)","lon":"121.44662","lat":"31.21043","category":"86","category_name":"火锅店","address":"徐汇区乌鲁木齐中路352号(近复兴西路)"},{"poiid":"B2094757D06FA6FC429B","title":"La Strada","lon":"121.44373968","lat":"31.2139371011","category":"94","category_name":"西餐厅","address":"徐汇区安福路195号(近乌鲁木齐中路)"},{"poiid":"B2094757D06FA5FD4293","title":"Mr. Willis","lon":"121.44397","lat":"31.21359","category":"94","category_name":"西餐厅","address":"徐汇区安福路195号3楼(近乌鲁木齐中路)"},{"poiid":"B2094752D768A2FB409E","title":"鼎王无老锅（上海无老衡山店）","lon":"121.446411","lat":"31.211093","category":"247","category_name":"餐饮美食","address":"上海徐汇区衡山路2号甲(近桃江路)"},{"poiid":"B2094757D06FA2FC419B","title":"Amokka Café","lon":"121.44438","lat":"31.21392","category":"94","category_name":"西餐厅","address":"徐汇区安福路201号(近乌鲁木齐中路)"},{"poiid":"B2094654DB69A7FD4193","title":"雍福会","lon":"121.44264","lat":"31.20911","category":"76","category_name":"上海菜","address":"徐汇区永福路200号原英国领事馆(近湖南路)"},{"poiid":"B2094757D068ABFE469A","title":"西班牙总领事馆文化处","lon":"121.443642","lat":"31.2140977094","category":"46","category_name":"楼宇","address":"上海徐汇区安福路208号"},{"poiid":"B2094757D06FABFD459E","title":"高丽烧烤","lon":"121.4461","lat":"31.21237","category":"96","category_name":"韩国料理","address":"徐汇区五原路181弄1号(近乌鲁木齐中路)"},{"poiid":"B2094757D16CA3F44492","title":"Salute","lon":"121.444026586","lat":"31.2107440499","category":"94","category_name":"西餐厅","address":"静安区南京西路1038号梅龙镇伊势丹3楼(近江宁路)"},{"poiid":"B2094757D169ABF5459E","title":"Bocado","lon":"121.44390058","lat":"31.211565066","category":"94","category_name":"西餐厅","address":"徐汇区永福路47号203(近复兴路)"},{"poiid":"B2094757D468AAFA439F","title":"Restaurant Cuivre","lon":"121.445625","lat":"31.209066","category":"94","category_name":"西餐厅","address":"徐汇区淮海中路1502号(近乌鲁木齐路)"},{"poiid":"B2094654DA6DA6FC4898","title":"上海图书馆(东门)","lon":"121.44525","lat":"31.20854","category":"181","category_name":"图书馆","address":"淮海中路1555号"},{"poiid":"B2094757D06FA2F4459E","title":"博多新记(乌鲁木齐店)","lon":"121.44655","lat":"31.21135","category":"72","category_name":"广东菜","address":"徐汇区乌鲁木齐中路300号(近五原路)"},{"poiid":"B2094757D068A0FC449C","title":"JustGrapes(安福路店)","lon":"121.44505","lat":"31.21389","category":"94","category_name":"西餐厅","address":"徐汇区安福路162号(近乌鲁木齐中路)"},{"poiid":"B2094757D06FA1FB409E","title":"蜀地辣子鱼(安福店)","lon":"121.44467","lat":"31.21375","category":"71","category_name":"四川菜","address":"徐汇区安福路185-187号(近乌鲁木齐中路)"},{"poiid":"B2094757D66EA0FA489E","title":"NeNe Italian restaurant","lon":"121.443460786","lat":"31.2108263515","category":"94","category_name":"西餐厅","address":"徐汇区永福路47号106室(近复兴路)"},{"poiid":"B2094757D06FA0FD469B","title":"湖南乡村风味(乌鲁木齐中路店)","lon":"121.44546","lat":"31.21341","category":"77","category_name":"湖南菜","address":"徐汇区乌鲁木齐中路168号(近安福路)"},{"poiid":"B2094757D069A4F8409B","title":"Rhumerie Bounty(永福路店)","lon":"121.44434","lat":"31.21114","category":"260","category_name":"其他","address":"徐汇区永福路47号1楼(近五原路)"},{"poiid":"B2094757D068A2F54493","title":"博爱医院","lon":"121.44417408","lat":"31.208371816","category":"162","category_name":"医院","address":"卢湾区淮海中路1590号(近高安路)"},{"poiid":"B2094757D06AA4F9449A","title":"乌鲁木齐中路五原路","lon":"121.445794","lat":"31.212692","category":"500","category_name":"未知分类","address":"上海乌鲁木齐中路五原路"},{"poiid":"B2094757D16CA7F84793","title":"SetteBello","lon":"121.44418258","lat":"31.214072115","category":"94","category_name":"西餐厅","address":"徐汇区安福路193号(近乌鲁木齐路)"},{"poiid":"B2094752D669A6F8449B","title":"鼎王无老养生锅","lon":"121.444528","lat":"31.209638","category":"500","category_name":"未知分类","address":"衡山路2号甲香樟花园"},{"poiid":"B2094757D06AA4F84298","title":"Hunan House","lon":"121.445337989","lat":"31.209769788","category":"77","category_name":"湖南菜","address":"徐汇区复兴西路49弄2号(近乌鲁木齐路)"},{"poiid":"B2094757D068A4F5429E","title":"La casbah coffee","lon":"121.44471633","lat":"31.208303673","category":"65","category_name":"咖啡厅","address":"上海市淮海中路1554号"},{"poiid":"B2094757D06BA6F8419F","title":"河边港式粤菜","lon":"121.443920586","lat":"31.2106350478","category":"72","category_name":"广东菜","address":"徐汇区淮海中路1293号"},{"poiid":"B2094757D06AA5FA489A","title":"五原路","lon":"121.44202758","lat":"31.211923073","category":"500","category_name":"未知分类","address":"上海徐汇区五原路"},{"poiid":"B2094750D76CA4FE4493","title":"Bikini","lon":"121.444","lat":"31.2115","category":"94","category_name":"西餐厅","address":"徐汇区永福路47号(近复兴路)"},{"poiid":"B2094757D068A4FD459C","title":"米盖尔·德·塞万提斯图书馆","lon":"121.443635131","lat":"31.214141725","category":"181","category_name":"图书馆","address":"徐汇区安福路208号(近乌鲁木齐中路)"},{"poiid":"B2094757D16BA4F5499D","title":"新味牛肉面","lon":"121.443720087","lat":"31.2100886758","category":"68","category_name":"快餐厅","address":"徐汇区永福路127号(近复兴西路口)"},{"poiid":"B2094757D069AAFD429B","title":"上海电影（集团）有限公司","lon":"121.44379425","lat":"31.2114124298","category":"248","category_name":"生活娱乐","address":"上海永福路52号"},{"poiid":"B2094757D16FAAF5449D","title":"永福路47号","lon":"121.44387758","lat":"31.211524065","category":"500","category_name":"未知分类","address":"上海市徐汇区永福路47号"},{"poiid":"B2094751D36EA4F5409B","title":"Organic Kitchen","lon":"121.44503","lat":"31.21022","category":"94","category_name":"西餐厅","address":"徐汇区复兴西路57号(近永福路)"},{"poiid":"B2094654D564A4F94392","title":"永福商务楼","lon":"121.44411","lat":"31.21128","category":"46","category_name":"楼宇","address":"永福路47"},{"poiid":"B2094757D56CA2FF419B","title":"Misael酒吧","lon":"121.440953","lat":"31.210136","category":"260","category_name":"其他","address":"徐汇区武康路103号(近复兴西路)"},{"poiid":"B2094655D26BA3F5459D","title":"Shiva Lounge","lon":"121.44416","lat":"31.21168","category":"260","category_name":"其他","address":"徐汇区永福路47号102室(近复兴西路)"},{"poiid":"B2094757D064A0FB429E","title":"上影 永福52","lon":"121.44408345","lat":"31.211190515","category":"47","category_name":"住宅区","address":"上海上影 永福52"},{"poiid":"B2094655D265A0FC4293","title":"兰州正宗牛肉拉面","lon":"121.44733","lat":"31.21483","category":"68","category_name":"快餐厅","address":"徐汇区五原路249号"},{"poiid":"B2094750D269A3FC4199","title":"帕特蒙 The Apartment","lon":"121.44435167313","lat":"31.211002980336","category":"247","category_name":"餐饮美食","address":"永福路47号302室近复兴西路"},{"poiid":"B2094750D36FA3F94992","title":"ARCADE","lon":"121.44450906607062","lat":"31.21043640843178","category":"260","category_name":"其他","address":"徐汇区复兴西路57号2楼(近永福路)"},{"poiid":"B2094757D06FA7FA4798","title":"城市山民.谷(Urban Tribe·the Valley)","lon":"121.442986","lat":"31.210565","category":"260","category_name":"其他","address":"徐汇区复兴西路133号(近永福路)"},{"poiid":"B2094757D16EA2FE4598","title":"Bounty","lon":"121.44371058","lat":"31.211168058","category":"500","category_name":"未知分类","address":"上海市长宁区永福路"},{"poiid":"B2094752D764AAFF449A","title":"SPICE BAZAAR／香料集市","lon":"121.44263","lat":"31.210202","category":"247","category_name":"餐饮美食","address":"东平路29号"},{"poiid":"B2094655D268A6FC449A","title":"Bi N74 Wine Room","lon":"121.44328","lat":"31.21078","category":"65","category_name":"咖啡厅","address":"复兴西路72-74"},{"poiid":"B2094757D068AAFE489F","title":"复兴西路","lon":"121.443012","lat":"31.208405","category":"46","category_name":"楼宇","address":"上海永福路"},{"poiid":"B2094757D06FA2FE429C","title":"The Apartment","lon":"121.44423272","lat":"31.2114678","category":"94","category_name":"西餐厅","address":"徐汇区永福路47号3楼(近复兴西路)"},{"poiid":"B2094757D06EAAF54992","title":"JZ club(爵士俱乐部)","lon":"121.44488035","lat":"31.210675495","category":"172","category_name":"酒吧","address":"徐汇区复兴西路46号(近乌鲁木齐中路)"},{"poiid":"B2094753D76FAAFA449C","title":"上海滩国泰旗舰店","lon":"121.466011","lat":"31.216125","category":"249","category_name":"购物服务","address":"淮海中路868号"},{"poiid":"B209475CD564A7F8439E","title":"上海滩中信泰富店","lon":"121.45602","lat":"31.22851","category":"119","category_name":"商场","address":"\"南京西路1168号中信泰富广场，店铺号221.\r\n\""},{"poiid":"B2094757D06FA1F5479B","title":"El Cóctel","lon":"121.44435072","lat":"31.211305167","category":"260","category_name":"其他","address":"徐汇区永福路47号2楼(近复兴西路)"},{"poiid":"B2094654DB69A7FB499A","title":"上海话剧艺术中心戏剧沙龙","lon":"121.441069","lat":"31.213643","category":"178","category_name":"电影院","address":"安福路288号话剧大厦"},{"poiid":"B2094757D06FA1FA409A","title":"一品居热气羊肉馆(乌鲁木齐中路店)","lon":"121.44662","lat":"31.21043","category":"86","category_name":"火锅店","address":"徐汇区乌鲁木齐中路352号(近复兴西路)"},{"poiid":"B2094757D06FA6FC429B","title":"La Strada","lon":"121.44373968","lat":"31.2139371011","category":"94","category_name":"西餐厅","address":"徐汇区安福路195号(近乌鲁木齐中路)"},{"poiid":"B2094757D06FA5FD4293","title":"Mr. Willis","lon":"121.44397","lat":"31.21359","category":"94","category_name":"西餐厅","address":"徐汇区安福路195号3楼(近乌鲁木齐中路)"},{"poiid":"B2094752D768A2FB409E","title":"鼎王无老锅（上海无老衡山店）","lon":"121.446411","lat":"31.211093","category":"247","category_name":"餐饮美食","address":"上海徐汇区衡山路2号甲(近桃江路)"},{"poiid":"B2094757D06FA2FC419B","title":"Amokka Café","lon":"121.44438","lat":"31.21392","category":"94","category_name":"西餐厅","address":"徐汇区安福路201号(近乌鲁木齐中路)"},{"poiid":"B2094654DB69A7FD4193","title":"雍福会","lon":"121.44264","lat":"31.20911","category":"76","category_name":"上海菜","address":"徐汇区永福路200号原英国领事馆(近湖南路)"},{"poiid":"B2094757D068ABFE469A","title":"西班牙总领事馆文化处","lon":"121.443642","lat":"31.2140977094","category":"46","category_name":"楼宇","address":"上海徐汇区安福路208号"},{"poiid":"B2094757D06FABFD459E","title":"高丽烧烤","lon":"121.4461","lat":"31.21237","category":"96","category_name":"韩国料理","address":"徐汇区五原路181弄1号(近乌鲁木齐中路)"},{"poiid":"B2094757D16CA3F44492","title":"Salute","lon":"121.444026586","lat":"31.2107440499","category":"94","category_name":"西餐厅","address":"静安区南京西路1038号梅龙镇伊势丹3楼(近江宁路)"},{"poiid":"B2094757D169ABF5459E","title":"Bocado","lon":"121.44390058","lat":"31.211565066","category":"94","category_name":"西餐厅","address":"徐汇区永福路47号203(近复兴路)"},{"poiid":"B2094757D468AAFA439F","title":"Restaurant Cuivre","lon":"121.445625","lat":"31.209066","category":"94","category_name":"西餐厅","address":"徐汇区淮海中路1502号(近乌鲁木齐路)"},{"poiid":"B2094654DA6DA6FC4898","title":"上海图书馆(东门)","lon":"121.44525","lat":"31.20854","category":"181","category_name":"图书馆","address":"淮海中路1555号"},{"poiid":"B2094757D06FA2F4459E","title":"博多新记(乌鲁木齐店)","lon":"121.44655","lat":"31.21135","category":"72","category_name":"广东菜","address":"徐汇区乌鲁木齐中路300号(近五原路)"},{"poiid":"B2094757D068A0FC449C","title":"JustGrapes(安福路店)","lon":"121.44505","lat":"31.21389","category":"94","category_name":"西餐厅","address":"徐汇区安福路162号(近乌鲁木齐中路)"},{"poiid":"B2094757D06FA1FB409E","title":"蜀地辣子鱼(安福店)","lon":"121.44467","lat":"31.21375","category":"71","category_name":"四川菜","address":"徐汇区安福路185-187号(近乌鲁木齐中路)"},{"poiid":"B2094757D66EA0FA489E","title":"NeNe Italian restaurant","lon":"121.443460786","lat":"31.2108263515","category":"94","category_name":"西餐厅","address":"徐汇区永福路47号106室(近复兴路)"},{"poiid":"B2094757D06FA0FD469B","title":"湖南乡村风味(乌鲁木齐中路店)","lon":"121.44546","lat":"31.21341","category":"77","category_name":"湖南菜","address":"徐汇区乌鲁木齐中路168号(近安福路)"},{"poiid":"B2094757D069A4F8409B","title":"Rhumerie Bounty(永福路店)","lon":"121.44434","lat":"31.21114","category":"260","category_name":"其他","address":"徐汇区永福路47号1楼(近五原路)"},{"poiid":"B2094757D068A2F54493","title":"博爱医院","lon":"121.44417408","lat":"31.208371816","category":"162","category_name":"医院","address":"卢湾区淮海中路1590号(近高安路)"},{"poiid":"B2094757D06AA4F9449A","title":"乌鲁木齐中路五原路","lon":"121.445794","lat":"31.212692","category":"500","category_name":"未知分类","address":"上海乌鲁木齐中路五原路"},{"poiid":"B2094757D16CA7F84793","title":"SetteBello","lon":"121.44418258","lat":"31.214072115","category":"94","category_name":"西餐厅","address":"徐汇区安福路193号(近乌鲁木齐路)"},{"poiid":"B2094752D669A6F8449B","title":"鼎王无老养生锅","lon":"121.444528","lat":"31.209638","category":"500","category_name":"未知分类","address":"衡山路2号甲香樟花园"},{"poiid":"B2094757D06AA4F84298","title":"Hunan House","lon":"121.445337989","lat":"31.209769788","category":"77","category_name":"湖南菜","address":"徐汇区复兴西路49弄2号(近乌鲁木齐路)"},{"poiid":"B2094757D068A4F5429E","title":"La casbah coffee","lon":"121.44471633","lat":"31.208303673","category":"65","category_name":"咖啡厅","address":"上海市淮海中路1554号"},{"poiid":"B2094757D06BA6F8419F","title":"河边港式粤菜","lon":"121.443920586","lat":"31.2106350478","category":"72","category_name":"广东菜","address":"徐汇区淮海中路1293号"},{"poiid":"B2094757D06AA5FA489A","title":"五原路","lon":"121.44202758","lat":"31.211923073","category":"500","category_name":"未知分类","address":"上海徐汇区五原路"},{"poiid":"B2094750D76CA4FE4493","title":"Bikini","lon":"121.444","lat":"31.2115","category":"94","category_name":"西餐厅","address":"徐汇区永福路47号(近复兴路)"},{"poiid":"B2094757D068A4FD459C","title":"米盖尔·德·塞万提斯图书馆","lon":"121.443635131","lat":"31.214141725","category":"181","category_name":"图书馆","address":"徐汇区安福路208号(近乌鲁木齐中路)"},{"poiid":"B2094757D16BA4F5499D","title":"新味牛肉面","lon":"121.443720087","lat":"31.2100886758","category":"68","category_name":"快餐厅","address":"徐汇区永福路127号(近复兴西路口)"},{"poiid":"B2094757D069AAFD429B","title":"上海电影（集团）有限公司","lon":"121.44379425","lat":"31.2114124298","category":"248","category_name":"生活娱乐","address":"上海永福路52号"},{"poiid":"B2094757D16FAAF5449D","title":"永福路47号","lon":"121.44387758","lat":"31.211524065","category":"500","category_name":"未知分类","address":"上海市徐汇区永福路47号"},{"poiid":"B2094751D36EA4F5409B","title":"Organic Kitchen","lon":"121.44503","lat":"31.21022","category":"94","category_name":"西餐厅","address":"徐汇区复兴西路57号(近永福路)"},{"poiid":"B2094654D564A4F94392","title":"永福商务楼","lon":"121.44411","lat":"31.21128","category":"46","category_name":"楼宇","address":"永福路47"},{"poiid":"B2094757D56CA2FF419B","title":"Misael酒吧","lon":"121.440953","lat":"31.210136","category":"260","category_name":"其他","address":"徐汇区武康路103号(近复兴西路)"},{"poiid":"B2094655D26BA3F5459D","title":"Shiva Lounge","lon":"121.44416","lat":"31.21168","category":"260","category_name":"其他","address":"徐汇区永福路47号102室(近复兴西路)"},{"poiid":"B2094757D064A0FB429E","title":"上影 永福52","lon":"121.44408345","lat":"31.211190515","category":"47","category_name":"住宅区","address":"上海上影 永福52"},{"poiid":"B2094655D265A0FC4293","title":"兰州正宗牛肉拉面","lon":"121.44733","lat":"31.21483","category":"68","category_name":"快餐厅","address":"徐汇区五原路249号"},{"poiid":"B2094750D269A3FC4199","title":"帕特蒙 The Apartment","lon":"121.44435167313","lat":"31.211002980336","category":"247","category_name":"餐饮美食","address":"永福路47号302室近复兴西路"},{"poiid":"B2094750D36FA3F94992","title":"ARCADE","lon":"121.44450906607062","lat":"31.21043640843178","category":"260","category_name":"其他","address":"徐汇区复兴西路57号2楼(近永福路)"},{"poiid":"B2094757D06FA7FA4798","title":"城市山民.谷(Urban Tribe·the Valley)","lon":"121.442986","lat":"31.210565","category":"260","category_name":"其他","address":"徐汇区复兴西路133号(近永福路)"},{"poiid":"B2094757D16EA2FE4598","title":"Bounty","lon":"121.44371058","lat":"31.211168058","category":"500","category_name":"未知分类","address":"上海市长宁区永福路"},{"poiid":"B2094752D764AAFF449A","title":"SPICE BAZAAR／香料集市","lon":"121.44263","lat":"31.210202","category":"247","category_name":"餐饮美食","address":"东平路29号"},{"poiid":"B2094655D268A6FC449A","title":"Bi N74 Wine Room","lon":"121.44328","lat":"31.21078","category":"65","category_name":"咖啡厅","address":"复兴西路72-74"},{"poiid":"B2094757D068AAFE489F","title":"复兴西路","lon":"121.443012","lat":"31.208405","category":"46","category_name":"楼宇","address":"上海永福路"},{"poiid":"B2094757D06FA2FE429C","title":"The Apartment","lon":"121.44423272","lat":"31.2114678","category":"94","category_name":"西餐厅","address":"徐汇区永福路47号3楼(近复兴西路)"},{"poiid":"B2094757D06EAAF54992","title":"JZ club(爵士俱乐部)","lon":"121.44488035","lat":"31.210675495","category":"172","category_name":"酒吧","address":"徐汇区复兴西路46号(近乌鲁木齐中路)"},{"poiid":"B2094753D76FAAFA449C","title":"上海滩国泰旗舰店","lon":"121.466011","lat":"31.216125","category":"249","category_name":"购物服务","address":"淮海中路868号"},{"poiid":"B209475CD564A7F8439E","title":"上海滩中信泰富店","lon":"121.45602","lat":"31.22851","category":"119","category_name":"商场","address":"\"南京西路1168号中信泰富广场，店铺号221.\r\n\""},{"poiid":"B2094757D06FA1F5479B","title":"El Cóctel","lon":"121.44435072","lat":"31.211305167","category":"260","category_name":"其他","address":"徐汇区永福路47号2楼(近复兴西路)"},{"poiid":"B2094654DB69A7FB499A","title":"上海话剧艺术中心戏剧沙龙","lon":"121.441069","lat":"31.213643","category":"178","category_name":"电影院","address":"安福路288号话剧大厦"},{"poiid":"B2094757D06FA1FA409A","title":"一品居热气羊肉馆(乌鲁木齐中路店)","lon":"121.44662","lat":"31.21043","category":"86","category_name":"火锅店","address":"徐汇区乌鲁木齐中路352号(近复兴西路)"},{"poiid":"B2094757D06FA6FC429B","title":"La Strada","lon":"121.44373968","lat":"31.2139371011","category":"94","category_name":"西餐厅","address":"徐汇区安福路195号(近乌鲁木齐中路)"},{"poiid":"B2094757D06FA5FD4293","title":"Mr. Willis","lon":"121.44397","lat":"31.21359","category":"94","category_name":"西餐厅","address":"徐汇区安福路195号3楼(近乌鲁木齐中路)"},{"poiid":"B2094752D768A2FB409E","title":"鼎王无老锅（上海无老衡山店）","lon":"121.446411","lat":"31.211093","category":"247","category_name":"餐饮美食","address":"上海徐汇区衡山路2号甲(近桃江路)"},{"poiid":"B2094757D06FA2FC419B","title":"Amokka Café","lon":"121.44438","lat":"31.21392","category":"94","category_name":"西餐厅","address":"徐汇区安福路201号(近乌鲁木齐中路)"},{"poiid":"B2094654DB69A7FD4193","title":"雍福会","lon":"121.44264","lat":"31.20911","category":"76","category_name":"上海菜","address":"徐汇区永福路200号原英国领事馆(近湖南路)"},{"poiid":"B2094757D068ABFE469A","title":"西班牙总领事馆文化处","lon":"121.443642","lat":"31.2140977094","category":"46","category_name":"楼宇","address":"上海徐汇区安福路208号"},{"poiid":"B2094757D06FABFD459E","title":"高丽烧烤","lon":"121.4461","lat":"31.21237","category":"96","category_name":"韩国料理","address":"徐汇区五原路181弄1号(近乌鲁木齐中路)"},{"poiid":"B2094757D16CA3F44492","title":"Salute","lon":"121.444026586","lat":"31.2107440499","category":"94","category_name":"西餐厅","address":"静安区南京西路1038号梅龙镇伊势丹3楼(近江宁路)"},{"poiid":"B2094757D169ABF5459E","title":"Bocado","lon":"121.44390058","lat":"31.211565066","category":"94","category_name":"西餐厅","address":"徐汇区永福路47号203(近复兴路)"},{"poiid":"B2094757D468AAFA439F","title":"Restaurant Cuivre","lon":"121.445625","lat":"31.209066","category":"94","category_name":"西餐厅","address":"徐汇区淮海中路1502号(近乌鲁木齐路)"},{"poiid":"B2094654DA6DA6FC4898","title":"上海图书馆(东门)","lon":"121.44525","lat":"31.20854","category":"181","category_name":"图书馆","address":"淮海中路1555号"},{"poiid":"B2094757D06FA2F4459E","title":"博多新记(乌鲁木齐店)","lon":"121.44655","lat":"31.21135","category":"72","category_name":"广东菜","address":"徐汇区乌鲁木齐中路300号(近五原路)"},{"poiid":"B2094757D068A0FC449C","title":"JustGrapes(安福路店)","lon":"121.44505","lat":"31.21389","category":"94","category_name":"西餐厅","address":"徐汇区安福路162号(近乌鲁木齐中路)"},{"poiid":"B2094757D06FA1FB409E","title":"蜀地辣子鱼(安福店)","lon":"121.44467","lat":"31.21375","category":"71","category_name":"四川菜","address":"徐汇区安福路185-187号(近乌鲁木齐中路)"},{"poiid":"B2094757D66EA0FA489E","title":"NeNe Italian restaurant","lon":"121.443460786","lat":"31.2108263515","category":"94","category_name":"西餐厅","address":"徐汇区永福路47号106室(近复兴路)"},{"poiid":"B2094757D06FA0FD469B","title":"湖南乡村风味(乌鲁木齐中路店)","lon":"121.44546","lat":"31.21341","category":"77","category_name":"湖南菜","address":"徐汇区乌鲁木齐中路168号(近安福路)"},{"poiid":"B2094757D069A4F8409B","title":"Rhumerie Bounty(永福路店)","lon":"121.44434","lat":"31.21114","category":"260","category_name":"其他","address":"徐汇区永福路47号1楼(近五原路)"},{"poiid":"B2094757D068A2F54493","title":"博爱医院","lon":"121.44417408","lat":"31.208371816","category":"162","category_name":"医院","address":"卢湾区淮海中路1590号(近高安路)"},{"poiid":"B2094757D06AA4F9449A","title":"乌鲁木齐中路五原路","lon":"121.445794","lat":"31.212692","category":"500","category_name":"未知分类","address":"上海乌鲁木齐中路五原路"},{"poiid":"B2094757D16CA7F84793","title":"SetteBello","lon":"121.44418258","lat":"31.214072115","category":"94","category_name":"西餐厅","address":"徐汇区安福路193号(近乌鲁木齐路)"},{"poiid":"B2094752D669A6F8449B","title":"鼎王无老养生锅","lon":"121.444528","lat":"31.209638","category":"500","category_name":"未知分类","address":"衡山路2号甲香樟花园"},{"poiid":"B2094757D06AA4F84298","title":"Hunan House","lon":"121.445337989","lat":"31.209769788","category":"77","category_name":"湖南菜","address":"徐汇区复兴西路49弄2号(近乌鲁木齐路)"},{"poiid":"B2094757D068A4F5429E","title":"La casbah coffee","lon":"121.44471633","lat":"31.208303673","category":"65","category_name":"咖啡厅","address":"上海市淮海中路1554号"},{"poiid":"B2094757D06BA6F8419F","title":"河边港式粤菜","lon":"121.443920586","lat":"31.2106350478","category":"72","category_name":"广东菜","address":"徐汇区淮海中路1293号"},{"poiid":"B2094757D06AA5FA489A","title":"五原路","lon":"121.44202758","lat":"31.211923073","category":"500","category_name":"未知分类","address":"上海徐汇区五原路"},{"poiid":"B2094750D76CA4FE4493","title":"Bikini","lon":"121.444","lat":"31.2115","category":"94","category_name":"西餐厅","address":"徐汇区永福路47号(近复兴路)"},{"poiid":"B2094757D068A4FD459C","title":"米盖尔·德·塞万提斯图书馆","lon":"121.443635131","lat":"31.214141725","category":"181","category_name":"图书馆","address":"徐汇区安福路208号(近乌鲁木齐中路)"},{"poiid":"B2094757D16BA4F5499D","title":"新味牛肉面","lon":"121.443720087","lat":"31.2100886758","category":"68","category_name":"快餐厅","address":"徐汇区永福路127号(近复兴西路口)"},{"poiid":"B2094757D069AAFD429B","title":"上海电影（集团）有限公司","lon":"121.44379425","lat":"31.2114124298","category":"248","category_name":"生活娱乐","address":"上海永福路52号"},{"poiid":"B2094757D16FAAF5449D","title":"永福路47号","lon":"121.44387758","lat":"31.211524065","category":"500","category_name":"未知分类","address":"上海市徐汇区永福路47号"},{"poiid":"B2094751D36EA4F5409B","title":"Organic Kitchen","lon":"121.44503","lat":"31.21022","category":"94","category_name":"西餐厅","address":"徐汇区复兴西路57号(近永福路)"},{"poiid":"B2094654D564A4F94392","title":"永福商务楼","lon":"121.44411","lat":"31.21128","category":"46","category_name":"楼宇","address":"永福路47"},{"poiid":"B2094757D56CA2FF419B","title":"Misael酒吧","lon":"121.440953","lat":"31.210136","category":"260","category_name":"其他","address":"徐汇区武康路103号(近复兴西路)"},{"poiid":"B2094655D26BA3F5459D","title":"Shiva Lounge","lon":"121.44416","lat":"31.21168","category":"260","category_name":"其他","address":"徐汇区永福路47号102室(近复兴西路)"},{"poiid":"B2094757D064A0FB429E","title":"上影 永福52","lon":"121.44408345","lat":"31.211190515","category":"47","category_name":"住宅区","address":"上海上影 永福52"},{"poiid":"B2094655D265A0FC4293","title":"兰州正宗牛肉拉面","lon":"121.44733","lat":"31.21483","category":"68","category_name":"快餐厅","address":"徐汇区五原路249号"},{"poiid":"B2094750D269A3FC4199","title":"帕特蒙 The Apartment","lon":"121.44435167313","lat":"31.211002980336","category":"247","category_name":"餐饮美食","address":"永福路47号302室近复兴西路"},{"poiid":"B2094750D36FA3F94992","title":"ARCADE","lon":"121.44450906607062","lat":"31.21043640843178","category":"260","category_name":"其他","address":"徐汇区复兴西路57号2楼(近永福路)"},{"poiid":"B2094757D06FA7FA4798","title":"城市山民.谷(Urban Tribe·the Valley)","lon":"121.442986","lat":"31.210565","category":"260","category_name":"其他","address":"徐汇区复兴西路133号(近永福路)"},{"poiid":"B2094757D16EA2FE4598","title":"Bounty","lon":"121.44371058","lat":"31.211168058","category":"500","category_name":"未知分类","address":"上海市长宁区永福路"},{"poiid":"B2094752D764AAFF449A","title":"SPICE BAZAAR／香料集市","lon":"121.44263","lat":"31.210202","category":"247","category_name":"餐饮美食","address":"东平路29号"},{"poiid":"B2094655D268A6FC449A","title":"Bi N74 Wine Room","lon":"121.44328","lat":"31.21078","category":"65","category_name":"咖啡厅","address":"复兴西路72-74"}]