[{"poiid":"B2094757D068AAFE489F","title":"复兴西路","lon":"121.443012","lat":"31.208405","category":"46","category_name":"楼宇","address":"上海永福路"},{"poiid":"B2094750D464A7F5429D","title":"万岛日本料理铁板烧","lon":"121.444526","lat":"31.216455","category":"95","category_name":"日本料理","address":"静安区乌鲁木齐北路480号万泰国际5楼(近华山路)"},{"poiid":"B2094654D564A4FF419E","title":"世纪商贸广场","lon":"121.44701","lat":"31.21528","category":"46","category_name":"楼宇","address":"上海市徐汇区长乐路989号（近常熟路）"},{"poiid":"B2094753D76FAAFA449C","title":"上海滩国泰旗舰店","lon":"121.466011","lat":"31.216125","category":"249","category_name":"购物服务","address":"淮海中路868号"},{"poiid":"B209475CD564A7F84292","title":"上海滩新天地店","lon":"121.47463","lat":"31.22164","category":"119","category_name":"商场","address":"\"太仓路181弄新天地北里15号\r\n\""},{"poiid":"B209475CD564A7F8439E","title":"上海滩中信泰富店","lon":"121.45602","lat":"31.22851","category":"119","category_name":"商场","address":"\"南京西路1168号中信泰富广场，店铺号221.\r\n\""},{"poiid":"B2094757D06FA7FB479D","title":"小花咖啡馆LE PETIT FLEURE","lon":"121.447838","lat":"31.215153","category":"65","category_name":"咖啡厅","address":"徐汇区安福路25号(常熟路口)"},{"poiid":"B2094751D46BA4F54898","title":"Plaza Pizza","lon":"121.447794","lat":"31.216233","category":"94","category_name":"西餐厅","address":"静安区华山路325号-1(常熟路口)"},{"poiid":"B2094757D06FA5FD4199","title":"PIRO Coffee &amp; Bar","lon":"121.447544","lat":"31.217063","category":"94","category_name":"西餐厅","address":"静安区常熟路89号(近巨鹿路)"},{"poiid":"B2094757D06FA4FE499F","title":"锡伯新疆餐厅","lon":"121.44766329","lat":"31.217222182","category":"90","category_name":"清真餐馆","address":"静安区常熟路83号3楼(近巨鹿路)"},{"poiid":"B2094655D265A1FC4292","title":"COSTA COFFEE(安福路店)","lon":"121.44395","lat":"31.21448","category":"65","category_name":"咖啡厅","address":"徐汇区安福路168号(近乌鲁木齐中路)"},{"poiid":"B2094757D06EAAF8489A","title":"星巴克(世纪商贸店)","lon":"121.446549","lat":"31.215735","category":"260","category_name":"其他","address":"徐汇区长乐路989号世纪商贸广场1楼(近常熟路,安福路)"},{"poiid":"B2094757D06FA2FE459A","title":"COSTA COFFEE(常熟路店)","lon":"121.44797","lat":"31.21687","category":"65","category_name":"咖啡厅","address":"静安区常熟路85号1楼A8(近巨鹿路)"},{"poiid":"B2094757D16CA1FA439A","title":"Hilton Hotel Shanghai","lon":"121.447136586","lat":"31.2161231551","category":"500","category_name":"未知分类","address":"上海华山路"},{"poiid":"B2094757D06FA0F8489B","title":"Enoterra红酒吧(安福路店)","lon":"121.44748","lat":"31.2147","category":"260","category_name":"其他","address":"徐汇区安福路55号(近常熟路)"},{"poiid":"B2094757DB69A4FB499E","title":"荣日本料理 华山店","lon":"121.444941","lat":"31.217337","category":"95","category_name":"日本料理","address":"静安区华山路427号2楼(近乌鲁木齐中路)"},{"poiid":"B2094654D564A4FB449C","title":"上海歌剧院","lon":"121.44642206994058","lat":"31.216509748927887","category":"180","category_name":"剧场","address":"静安区常熟路100弄10号(近长乐路)"},{"poiid":"B2094757D06FA3FA479D","title":"路飞堂（华山店）","lon":"121.44359","lat":"31.219215","category":"113","category_name":"冷饮店","address":"静安区乌鲁木齐北路429号(近延安西路)"},{"poiid":"B2094750D26FA7F5469E","title":"避风塘(常熟路店)","lon":"121.447868","lat":"31.216531","category":"72","category_name":"广东菜","address":"静安区常熟路98号(近巨鹿路)"},{"poiid":"B2094750D26CA3FE459E","title":"赤坂舞马雅","lon":"121.4465752","lat":"31.2181118","category":"95","category_name":"日本料理","address":"静安区常熟路8号静安8号内(近巨鹿路)"},{"poiid":"B2094757D068A0FC449C","title":"JustGrapes(安福路店)","lon":"121.44505","lat":"31.21389","category":"94","category_name":"西餐厅","address":"徐汇区安福路162号(近乌鲁木齐中路)"},{"poiid":"B2094654DB65A1F84193","title":"Jamaica Blue(乌鲁木齐中路)","lon":"121.44477","lat":"31.21471","category":"260","category_name":"其他","address":"徐汇区乌鲁木齐中路82号(近长乐路)"},{"poiid":"B2094654DB69A0FA459E","title":"红宝石(华山店)","lon":"121.4458","lat":"31.21781","category":"67","category_name":"甜品店","address":"静安区华山路375号(静安宾馆对面)"},{"poiid":"B2094757D069A3FD459C","title":"中国平安财产保险上海分公司","lon":"121.44687554","lat":"31.21791616","category":"263","category_name":"公司","address":"上海常熟路8号"},{"poiid":"B2094750D66FA4FF469C","title":"Dr.  Beer","lon":"121.447898","lat":"31.216619","category":"248","category_name":"生活娱乐","address":"静安区富民路83号"},{"poiid":"B2094757D068A1F84199","title":"渔人粤菜馆","lon":"121.447517","lat":"31.216825","category":"72","category_name":"广东菜","address":"静安区常熟路98号3楼(近长乐路)"},{"poiid":"B2094750D269A3FF4893","title":"Italian kitchen26","lon":"121.44738","lat":"31.215356","category":"94","category_name":"西餐厅","address":"徐汇区安福路23号(近常熟路)"},{"poiid":"B2094757D66AA5F8419F","title":"维也纳西餐厅 常熟路","lon":"121.4478","lat":"31.21693","category":"94","category_name":"西餐厅","address":"静安区常熟路98号4楼(近长乐路)"},{"poiid":"B2094757D16DA6F8429A","title":"华山医院6号楼","lon":"121.443753586","lat":"31.2167181668","category":"162","category_name":"医院","address":"上海市静安区延安西路"},{"poiid":"B2094750D26CA1FA4492","title":"玫瑰石时尚餐厅 Incarose Bistro Loun","lon":"121.447913","lat":"31.217215","category":"247","category_name":"餐饮美食","address":"静安区常熟路83号时尚前瞻大厦3楼(近巨鹿路)"},{"poiid":"B2094757D06FAAFF439D","title":"Ogilvy &amp; Mather.奥美广告","lon":"121.44699","lat":"31.215356","category":"46","category_name":"楼宇","address":"上海徐汇区长乐路989号世纪商贸广场26楼"},{"poiid":"B2094751D365A6FE429A","title":"2nd floor","lon":"121.447687","lat":"31.215626","category":"94","category_name":"西餐厅","address":"徐汇区长乐路810号2楼(近常熟路)"},{"poiid":"B2094757D06FA6F94698","title":"优纳仕意式休闲餐厅(静安店)","lon":"121.44787965","lat":"31.217260656","category":"94","category_name":"西餐厅","address":"静安区常熟路85号(近巨鹿路)"},{"poiid":"B2094753D66EAAFF469A","title":"千秋膳房常熟店","lon":"121.44784927","lat":"31.21716905","category":"247","category_name":"餐饮美食","address":"上海市静安区常熟路87号"},{"poiid":"B2094757D06AA6F94198","title":"梦曼特西餐厅(长乐店)","lon":"121.44473","lat":"31.21504","category":"94","category_name":"西餐厅","address":"徐汇区乌鲁木齐路66-69号(长乐路口)"},{"poiid":"B2094654D564ABFC439D","title":"合记茶餐厅","lon":"121.44436668466","lat":"31.21697867495","category":"72","category_name":"广东菜","address":"静安区华山路445号(近乌鲁木齐中路)"},{"poiid":"B2094757D06FA3F44098","title":"W K Shanghai","lon":"121.444271","lat":"31.21532","category":"46","category_name":"楼宇","address":"上海长乐路1035号"},{"poiid":"B2094757D069A6FA439B","title":"汇贤居","lon":"121.44571","lat":"31.214794","category":"47","category_name":"住宅区","address":"徐汇区乌鲁木齐路长乐路"},{"poiid":"B2094757D06BAAF44498","title":"Urban Thai","lon":"121.4459","lat":"31.21568","category":"99","category_name":"泰国／越南菜品餐厅","address":"徐汇区长乐路938号(近乌鲁木齐中路)"},{"poiid":"B2094757D069A4FA429D","title":"华山医院住院部","lon":"121.443770586","lat":"31.2153391398","category":"162","category_name":"医院","address":"上海市静安区乌鲁木齐路"},{"poiid":"B2094757D069A7FD4898","title":"组合发型(华山路店)","lon":"121.44613","lat":"31.21746","category":"148","category_name":"美容美发店","address":"静安区华山路383号(近乌鲁木齐中路)"},{"poiid":"B2094757DB68A5FA4198","title":"申城五月天","lon":"121.44546747208","lat":"31.2181232847","category":"72","category_name":"广东菜","address":"静安区华山路370号静安宾馆新楼2楼(近乌鲁木齐路)"},{"poiid":"B2094757D068A6FB469C","title":"静安面包房(总店)","lon":"121.4459","lat":"31.21781","category":"217","category_name":"旅馆招待所","address":"上海静安区华山路370号静安宾馆(近乌鲁木齐北路)"},{"poiid":"B2094757D069A7FF4798","title":"静安8号","lon":"121.446953795","lat":"31.217401334","category":"252","category_name":"楼宇机构","address":"上海华山路339弄1号"},{"poiid":"B2094655D36CA2FC449D","title":"香所","lon":"121.44727","lat":"31.2148","category":"111","category_name":"休闲餐饮场所","address":"安福路45-47号近常熟路"},{"poiid":"B2094654D564ABFC439B","title":"华山医院体检部","lon":"121.44483","lat":"31.2173","category":"162","category_name":"医院","address":"华山路433-3"},{"poiid":"B2094757D068AAFD499D","title":"吉祥馄饨(常熟路店)","lon":"121.44743","lat":"31.21549","category":"68","category_name":"快餐厅","address":"徐汇区长乐路802号(近常熟路)"},{"poiid":"B2094654DB6BA6FC409E","title":"荣居酒屋(华山路)","lon":"121.44494","lat":"31.21734","category":"172","category_name":"酒吧","address":""},{"poiid":"B209475DD36CABFC4699","title":"MYST","lon":"121.446189","lat":"31.218242","category":"500","category_name":"未知分类","address":"上海市 延安中路1123号(近延安饭店)"},{"poiid":"B2094757D06BA6FE429C","title":"上海渔亭","lon":"121.44626","lat":"31.21825","category":"76","category_name":"上海菜","address":"静安区华山路325号(希尔顿饭店对面)"},{"poiid":"B2094757D068AAFE489F","title":"复兴西路","lon":"121.443012","lat":"31.208405","category":"46","category_name":"楼宇","address":"上海永福路"},{"poiid":"B2094750D464A7F5429D","title":"万岛日本料理铁板烧","lon":"121.444526","lat":"31.216455","category":"95","category_name":"日本料理","address":"静安区乌鲁木齐北路480号万泰国际5楼(近华山路)"},{"poiid":"B2094654D564A4FF419E","title":"世纪商贸广场","lon":"121.44701","lat":"31.21528","category":"46","category_name":"楼宇","address":"上海市徐汇区长乐路989号（近常熟路）"},{"poiid":"B2094753D76FAAFA449C","title":"上海滩国泰旗舰店","lon":"121.466011","lat":"31.216125","category":"249","category_name":"购物服务","address":"淮海中路868号"},{"poiid":"B209475CD564A7F84292","title":"上海滩新天地店","lon":"121.47463","lat":"31.22164","category":"119","category_name":"商场","address":"\"太仓路181弄新天地北里15号\r\n\""},{"poiid":"B209475CD564A7F8439E","title":"上海滩中信泰富店","lon":"121.45602","lat":"31.22851","category":"119","category_name":"商场","address":"\"南京西路1168号中信泰富广场，店铺号221.\r\n\""},{"poiid":"B2094757D06FA7FB479D","title":"小花咖啡馆LE PETIT FLEURE","lon":"121.447838","lat":"31.215153","category":"65","category_name":"咖啡厅","address":"徐汇区安福路25号(常熟路口)"},{"poiid":"B2094751D46BA4F54898","title":"Plaza Pizza","lon":"121.447794","lat":"31.216233","category":"94","category_name":"西餐厅","address":"静安区华山路325号-1(常熟路口)"},{"poiid":"B2094757D06FA5FD4199","title":"PIRO Coffee &amp; Bar","lon":"121.447544","lat":"31.217063","category":"94","category_name":"西餐厅","address":"静安区常熟路89号(近巨鹿路)"},{"poiid":"B2094757D06FA4FE499F","title":"锡伯新疆餐厅","lon":"121.44766329","lat":"31.217222182","category":"90","category_name":"清真餐馆","address":"静安区常熟路83号3楼(近巨鹿路)"},{"poiid":"B2094655D265A1FC4292","title":"COSTA COFFEE(安福路店)","lon":"121.44395","lat":"31.21448","category":"65","category_name":"咖啡厅","address":"徐汇区安福路168号(近乌鲁木齐中路)"},{"poiid":"B2094757D06EAAF8489A","title":"星巴克(世纪商贸店)","lon":"121.446549","lat":"31.215735","category":"260","category_name":"其他","address":"徐汇区长乐路989号世纪商贸广场1楼(近常熟路,安福路)"},{"poiid":"B2094757D06FA2FE459A","title":"COSTA COFFEE(常熟路店)","lon":"121.44797","lat":"31.21687","category":"65","category_name":"咖啡厅","address":"静安区常熟路85号1楼A8(近巨鹿路)"},{"poiid":"B2094757D16CA1FA439A","title":"Hilton Hotel Shanghai","lon":"121.447136586","lat":"31.2161231551","category":"500","category_name":"未知分类","address":"上海华山路"},{"poiid":"B2094757D06FA0F8489B","title":"Enoterra红酒吧(安福路店)","lon":"121.44748","lat":"31.2147","category":"260","category_name":"其他","address":"徐汇区安福路55号(近常熟路)"},{"poiid":"B2094757DB69A4FB499E","title":"荣日本料理 华山店","lon":"121.444941","lat":"31.217337","category":"95","category_name":"日本料理","address":"静安区华山路427号2楼(近乌鲁木齐中路)"},{"poiid":"B2094654D564A4FB449C","title":"上海歌剧院","lon":"121.44642206994058","lat":"31.216509748927887","category":"180","category_name":"剧场","address":"静安区常熟路100弄10号(近长乐路)"},{"poiid":"B2094757D06FA3FA479D","title":"路飞堂（华山店）","lon":"121.44359","lat":"31.219215","category":"113","category_name":"冷饮店","address":"静安区乌鲁木齐北路429号(近延安西路)"},{"poiid":"B2094750D26FA7F5469E","title":"避风塘(常熟路店)","lon":"121.447868","lat":"31.216531","category":"72","category_name":"广东菜","address":"静安区常熟路98号(近巨鹿路)"},{"poiid":"B2094750D26CA3FE459E","title":"赤坂舞马雅","lon":"121.4465752","lat":"31.2181118","category":"95","category_name":"日本料理","address":"静安区常熟路8号静安8号内(近巨鹿路)"},{"poiid":"B2094757D068A0FC449C","title":"JustGrapes(安福路店)","lon":"121.44505","lat":"31.21389","category":"94","category_name":"西餐厅","address":"徐汇区安福路162号(近乌鲁木齐中路)"},{"poiid":"B2094654DB65A1F84193","title":"Jamaica Blue(乌鲁木齐中路)","lon":"121.44477","lat":"31.21471","category":"260","category_name":"其他","address":"徐汇区乌鲁木齐中路82号(近长乐路)"},{"poiid":"B2094654DB69A0FA459E","title":"红宝石(华山店)","lon":"121.4458","lat":"31.21781","category":"67","category_name":"甜品店","address":"静安区华山路375号(静安宾馆对面)"},{"poiid":"B2094757D069A3FD459C","title":"中国平安财产保险上海分公司","lon":"121.44687554","lat":"31.21791616","category":"263","category_name":"公司","address":"上海常熟路8号"},{"poiid":"B2094750D66FA4FF469C","title":"Dr.  Beer","lon":"121.447898","lat":"31.216619","category":"248","category_name":"生活娱乐","address":"静安区富民路83号"},{"poiid":"B2094757D068A1F84199","title":"渔人粤菜馆","lon":"121.447517","lat":"31.216825","category":"72","category_name":"广东菜","address":"静安区常熟路98号3楼(近长乐路)"},{"poiid":"B2094750D269A3FF4893","title":"Italian kitchen26","lon":"121.44738","lat":"31.215356","category":"94","category_name":"西餐厅","address":"徐汇区安福路23号(近常熟路)"},{"poiid":"B2094757D66AA5F8419F","title":"维也纳西餐厅 常熟路","lon":"121.4478","lat":"31.21693","category":"94","category_name":"西餐厅","address":"静安区常熟路98号4楼(近长乐路)"},{"poiid":"B2094757D16DA6F8429A","title":"华山医院6号楼","lon":"121.443753586","lat":"31.2167181668","category":"162","category_name":"医院","address":"上海市静安区延安西路"},{"poiid":"B2094750D26CA1FA4492","title":"玫瑰石时尚餐厅 Incarose Bistro Loun","lon":"121.447913","lat":"31.217215","category":"247","category_name":"餐饮美食","address":"静安区常熟路83号时尚前瞻大厦3楼(近巨鹿路)"},{"poiid":"B2094757D06FAAFF439D","title":"Ogilvy &amp; Mather.奥美广告","lon":"121.44699","lat":"31.215356","category":"46","category_name":"楼宇","address":"上海徐汇区长乐路989号世纪商贸广场26楼"},{"poiid":"B2094751D365A6FE429A","title":"2nd floor","lon":"121.447687","lat":"31.215626","category":"94","category_name":"西餐厅","address":"徐汇区长乐路810号2楼(近常熟路)"},{"poiid":"B2094757D06FA6F94698","title":"优纳仕意式休闲餐厅(静安店)","lon":"121.44787965","lat":"31.217260656","category":"94","category_name":"西餐厅","address":"静安区常熟路85号(近巨鹿路)"},{"poiid":"B2094753D66EAAFF469A","title":"千秋膳房常熟店","lon":"121.44784927","lat":"31.21716905","category":"247","category_name":"餐饮美食","address":"上海市静安区常熟路87号"},{"poiid":"B2094757D06AA6F94198","title":"梦曼特西餐厅(长乐店)","lon":"121.44473","lat":"31.21504","category":"94","category_name":"西餐厅","address":"徐汇区乌鲁木齐路66-69号(长乐路口)"},{"poiid":"B2094654D564ABFC439D","title":"合记茶餐厅","lon":"121.44436668466","lat":"31.21697867495","category":"72","category_name":"广东菜","address":"静安区华山路445号(近乌鲁木齐中路)"},{"poiid":"B2094757D06FA3F44098","title":"W K Shanghai","lon":"121.444271","lat":"31.21532","category":"46","category_name":"楼宇","address":"上海长乐路1035号"},{"poiid":"B2094757D069A6FA439B","title":"汇贤居","lon":"121.44571","lat":"31.214794","category":"47","category_name":"住宅区","address":"徐汇区乌鲁木齐路长乐路"},{"poiid":"B2094757D06BAAF44498","title":"Urban Thai","lon":"121.4459","lat":"31.21568","category":"99","category_name":"泰国／越南菜品餐厅","address":"徐汇区长乐路938号(近乌鲁木齐中路)"},{"poiid":"B2094757D069A4FA429D","title":"华山医院住院部","lon":"121.443770586","lat":"31.2153391398","category":"162","category_name":"医院","address":"上海市静安区乌鲁木齐路"},{"poiid":"B2094757D069A7FD4898","title":"组合发型(华山路店)","lon":"121.44613","lat":"31.21746","category":"148","category_name":"美容美发店","address":"静安区华山路383号(近乌鲁木齐中路)"},{"poiid":"B2094757DB68A5FA4198","title":"申城五月天","lon":"121.44546747208","lat":"31.2181232847","category":"72","category_name":"广东菜","address":"静安区华山路370号静安宾馆新楼2楼(近乌鲁木齐路)"},{"poiid":"B2094757D068A6FB469C","title":"静安面包房(总店)","lon":"121.4459","lat":"31.21781","category":"217","category_name":"旅馆招待所","address":"上海静安区华山路370号静安宾馆(近乌鲁木齐北路)"},{"poiid":"B2094757D069A7FF4798","title":"静安8号","lon":"121.446953795","lat":"31.217401334","category":"252","category_name":"楼宇机构","address":"上海华山路339弄1号"},{"poiid":"B2094655D36CA2FC449D","title":"香所","lon":"121.44727","lat":"31.2148","category":"111","category_name":"休闲餐饮场所","address":"安福路45-47号近常熟路"},{"poiid":"B2094654D564ABFC439B","title":"华山医院体检部","lon":"121.44483","lat":"31.2173","category":"162","category_name":"医院","address":"华山路433-3"},{"poiid":"B2094757D068AAFD499D","title":"吉祥馄饨(常熟路店)","lon":"121.44743","lat":"31.21549","category":"68","category_name":"快餐厅","address":"徐汇区长乐路802号(近常熟路)"},{"poiid":"B2094654DB6BA6FC409E","title":"荣居酒屋(华山路)","lon":"121.44494","lat":"31.21734","category":"172","category_name":"酒吧","address":""},{"poiid":"B209475DD36CABFC4699","title":"MYST","lon":"121.446189","lat":"31.218242","category":"500","category_name":"未知分类","address":"上海市 延安中路1123号(近延安饭店)"},{"poiid":"B2094757D06BA6FE429C","title":"上海渔亭","lon":"121.44626","lat":"31.21825","category":"76","category_name":"上海菜","address":"静安区华山路325号(希尔顿饭店对面)"},{"poiid":"B2094757D068AAFE489F","title":"复兴西路","lon":"121.443012","lat":"31.208405","category":"46","category_name":"楼宇","address":"上海永福路"},{"poiid":"B2094750D464A7F5429D","title":"万岛日本料理铁板烧","lon":"121.444526","lat":"31.216455","category":"95","category_name":"日本料理","address":"静安区乌鲁木齐北路480号万泰国际5楼(近华山路)"},{"poiid":"B2094654D564A4FF419E","title":"世纪商贸广场","lon":"121.44701","lat":"31.21528","category":"46","category_name":"楼宇","address":"上海市徐汇区长乐路989号（近常熟路）"},{"poiid":"B2094753D76FAAFA449C","title":"上海滩国泰旗舰店","lon":"121.466011","lat":"31.216125","category":"249","category_name":"购物服务","address":"淮海中路868号"},{"poiid":"B209475CD564A7F84292","title":"上海滩新天地店","lon":"121.47463","lat":"31.22164","category":"119","category_name":"商场","address":"\"太仓路181弄新天地北里15号\r\n\""},{"poiid":"B209475CD564A7F8439E","title":"上海滩中信泰富店","lon":"121.45602","lat":"31.22851","category":"119","category_name":"商场","address":"\"南京西路1168号中信泰富广场，店铺号221.\r\n\""},{"poiid":"B2094757D06FA7FB479D","title":"小花咖啡馆LE PETIT FLEURE","lon":"121.447838","lat":"31.215153","category":"65","category_name":"咖啡厅","address":"徐汇区安福路25号(常熟路口)"},{"poiid":"B2094751D46BA4F54898","title":"Plaza Pizza","lon":"121.447794","lat":"31.216233","category":"94","category_name":"西餐厅","address":"静安区华山路325号-1(常熟路口)"},{"poiid":"B2094757D06FA5FD4199","title":"PIRO Coffee &amp; Bar","lon":"121.447544","lat":"31.217063","category":"94","category_name":"西餐厅","address":"静安区常熟路89号(近巨鹿路)"},{"poiid":"B2094757D06FA4FE499F","title":"锡伯新疆餐厅","lon":"121.44766329","lat":"31.217222182","category":"90","category_name":"清真餐馆","address":"静安区常熟路83号3楼(近巨鹿路)"},{"poiid":"B2094655D265A1FC4292","title":"COSTA COFFEE(安福路店)","lon":"121.44395","lat":"31.21448","category":"65","category_name":"咖啡厅","address":"徐汇区安福路168号(近乌鲁木齐中路)"},{"poiid":"B2094757D06EAAF8489A","title":"星巴克(世纪商贸店)","lon":"121.446549","lat":"31.215735","category":"260","category_name":"其他","address":"徐汇区长乐路989号世纪商贸广场1楼(近常熟路,安福路)"},{"poiid":"B2094757D06FA2FE459A","title":"COSTA COFFEE(常熟路店)","lon":"121.44797","lat":"31.21687","category":"65","category_name":"咖啡厅","address":"静安区常熟路85号1楼A8(近巨鹿路)"},{"poiid":"B2094757D16CA1FA439A","title":"Hilton Hotel Shanghai","lon":"121.447136586","lat":"31.2161231551","category":"500","category_name":"未知分类","address":"上海华山路"},{"poiid":"B2094757D06FA0F8489B","title":"Enoterra红酒吧(安福路店)","lon":"121.44748","lat":"31.2147","category":"260","category_name":"其他","address":"徐汇区安福路55号(近常熟路)"},{"poiid":"B2094757DB69A4FB499E","title":"荣日本料理 华山店","lon":"121.444941","lat":"31.217337","category":"95","category_name":"日本料理","address":"静安区华山路427号2楼(近乌鲁木齐中路)"},{"poiid":"B2094654D564A4FB449C","title":"上海歌剧院","lon":"121.44642206994058","lat":"31.216509748927887","category":"180","category_name":"剧场","address":"静安区常熟路100弄10号(近长乐路)"},{"poiid":"B2094757D06FA3FA479D","title":"路飞堂（华山店）","lon":"121.44359","lat":"31.219215","category":"113","category_name":"冷饮店","address":"静安区乌鲁木齐北路429号(近延安西路)"},{"poiid":"B2094750D26FA7F5469E","title":"避风塘(常熟路店)","lon":"121.447868","lat":"31.216531","category":"72","category_name":"广东菜","address":"静安区常熟路98号(近巨鹿路)"},{"poiid":"B2094750D26CA3FE459E","title":"赤坂舞马雅","lon":"121.4465752","lat":"31.2181118","category":"95","category_name":"日本料理","address":"静安区常熟路8号静安8号内(近巨鹿路)"},{"poiid":"B2094757D068A0FC449C","title":"JustGrapes(安福路店)","lon":"121.44505","lat":"31.21389","category":"94","category_name":"西餐厅","address":"徐汇区安福路162号(近乌鲁木齐中路)"},{"poiid":"B2094654DB65A1F84193","title":"Jamaica Blue(乌鲁木齐中路)","lon":"121.44477","lat":"31.21471","category":"260","category_name":"其他","address":"徐汇区乌鲁木齐中路82号(近长乐路)"},{"poiid":"B2094654DB69A0FA459E","title":"红宝石(华山店)","lon":"121.4458","lat":"31.21781","category":"67","category_name":"甜品店","address":"静安区华山路375号(静安宾馆对面)"},{"poiid":"B2094757D069A3FD459C","title":"中国平安财产保险上海分公司","lon":"121.44687554","lat":"31.21791616","category":"263","category_name":"公司","address":"上海常熟路8号"},{"poiid":"B2094750D66FA4FF469C","title":"Dr.  Beer","lon":"121.447898","lat":"31.216619","category":"248","category_name":"生活娱乐","address":"静安区富民路83号"},{"poiid":"B2094757D068A1F84199","title":"渔人粤菜馆","lon":"121.447517","lat":"31.216825","category":"72","category_name":"广东菜","address":"静安区常熟路98号3楼(近长乐路)"},{"poiid":"B2094750D269A3FF4893","title":"Italian kitchen26","lon":"121.44738","lat":"31.215356","category":"94","category_name":"西餐厅","address":"徐汇区安福路23号(近常熟路)"},{"poiid":"B2094757D66AA5F8419F","title":"维也纳西餐厅 常熟路","lon":"121.4478","lat":"31.21693","category":"94","category_name":"西餐厅","address":"静安区常熟路98号4楼(近长乐路)"},{"poiid":"B2094757D16DA6F8429A","title":"华山医院6号楼","lon":"121.443753586","lat":"31.2167181668","category":"162","category_name":"医院","address":"上海市静安区延安西路"},{"poiid":"B2094750D26CA1FA4492","title":"玫瑰石时尚餐厅 Incarose Bistro Loun","lon":"121.447913","lat":"31.217215","category":"247","category_name":"餐饮美食","address":"静安区常熟路83号时尚前瞻大厦3楼(近巨鹿路)"},{"poiid":"B2094757D06FAAFF439D","title":"Ogilvy &amp; Mather.奥美广告","lon":"121.44699","lat":"31.215356","category":"46","category_name":"楼宇","address":"上海徐汇区长乐路989号世纪商贸广场26楼"},{"poiid":"B2094751D365A6FE429A","title":"2nd floor","lon":"121.447687","lat":"31.215626","category":"94","category_name":"西餐厅","address":"徐汇区长乐路810号2楼(近常熟路)"},{"poiid":"B2094757D06FA6F94698","title":"优纳仕意式休闲餐厅(静安店)","lon":"121.44787965","lat":"31.217260656","category":"94","category_name":"西餐厅","address":"静安区常熟路85号(近巨鹿路)"},{"poiid":"B2094753D66EAAFF469A","title":"千秋膳房常熟店","lon":"121.44784927","lat":"31.21716905","category":"247","category_name":"餐饮美食","address":"上海市静安区常熟路87号"},{"poiid":"B2094757D06AA6F94198","title":"梦曼特西餐厅(长乐店)","lon":"121.44473","lat":"31.21504","category":"94","category_name":"西餐厅","address":"徐汇区乌鲁木齐路66-69号(长乐路口)"},{"poiid":"B2094654D564ABFC439D","title":"合记茶餐厅","lon":"121.44436668466","lat":"31.21697867495","category":"72","category_name":"广东菜","address":"静安区华山路445号(近乌鲁木齐中路)"},{"poiid":"B2094757D06FA3F44098","title":"W K Shanghai","lon":"121.444271","lat":"31.21532","category":"46","category_name":"楼宇","address":"上海长乐路1035号"},{"poiid":"B2094757D069A6FA439B","title":"汇贤居","lon":"121.44571","lat":"31.214794","category":"47","category_name":"住宅区","address":"徐汇区乌鲁木齐路长乐路"},{"poiid":"B2094757D06BAAF44498","title":"Urban Thai","lon":"121.4459","lat":"31.21568","category":"99","category_name":"泰国／越南菜品餐厅","address":"徐汇区长乐路938号(近乌鲁木齐中路)"},{"poiid":"B2094757D069A4FA429D","title":"华山医院住院部","lon":"121.443770586","lat":"31.2153391398","category":"162","category_name":"医院","address":"上海市静安区乌鲁木齐路"},{"poiid":"B2094757D069A7FD4898","title":"组合发型(华山路店)","lon":"121.44613","lat":"31.21746","category":"148","category_name":"美容美发店","address":"静安区华山路383号(近乌鲁木齐中路)"},{"poiid":"B2094757DB68A5FA4198","title":"申城五月天","lon":"121.44546747208","lat":"31.2181232847","category":"72","category_name":"广东菜","address":"静安区华山路370号静安宾馆新楼2楼(近乌鲁木齐路)"},{"poiid":"B2094757D068A6FB469C","title":"静安面包房(总店)","lon":"121.4459","lat":"31.21781","category":"217","category_name":"旅馆招待所","address":"上海静安区华山路370号静安宾馆(近乌鲁木齐北路)"},{"poiid":"B2094757D069A7FF4798","title":"静安8号","lon":"121.446953795","lat":"31.217401334","category":"252","category_name":"楼宇机构","address":"上海华山路339弄1号"},{"poiid":"B2094655D36CA2FC449D","title":"香所","lon":"121.44727","lat":"31.2148","category":"111","category_name":"休闲餐饮场所","address":"安福路45-47号近常熟路"},{"poiid":"B2094654D564ABFC439B","title":"华山医院体检部","lon":"121.44483","lat":"31.2173","category":"162","category_name":"医院","address":"华山路433-3"},{"poiid":"B2094757D068AAFD499D","title":"吉祥馄饨(常熟路店)","lon":"121.44743","lat":"31.21549","category":"68","category_name":"快餐厅","address":"徐汇区长乐路802号(近常熟路)"},{"poiid":"B2094654DB6BA6FC409E","title":"荣居酒屋(华山路)","lon":"121.44494","lat":"31.21734","category":"172","category_name":"酒吧","address":""},{"poiid":"B209475DD36CABFC4699","title":"MYST","lon":"121.446189","lat":"31.218242","category":"500","category_name":"未知分类","address":"上海市 延安中路1123号(近延安饭店)"},{"poiid":"B2094757D06BA6FE429C","title":"上海渔亭","lon":"121.44626","lat":"31.21825","category":"76","category_name":"上海菜","address":"静安区华山路325号(希尔顿饭店对面)"},{"poiid":"B2094757D068AAFE489F","title":"复兴西路","lon":"121.443012","lat":"31.208405","category":"46","category_name":"楼宇","address":"上海永福路"},{"poiid":"B2094750D464A7F5429D","title":"万岛日本料理铁板烧","lon":"121.444526","lat":"31.216455","category":"95","category_name":"日本料理","address":"静安区乌鲁木齐北路480号万泰国际5楼(近华山路)"},{"poiid":"B2094654D564A4FF419E","title":"世纪商贸广场","lon":"121.44701","lat":"31.21528","category":"46","category_name":"楼宇","address":"上海市徐汇区长乐路989号（近常熟路）"},{"poiid":"B2094753D76FAAFA449C","title":"上海滩国泰旗舰店","lon":"121.466011","lat":"31.216125","category":"249","category_name":"购物服务","address":"淮海中路868号"},{"poiid":"B209475CD564A7F84292","title":"上海滩新天地店","lon":"121.47463","lat":"31.22164","category":"119","category_name":"商场","address":"\"太仓路181弄新天地北里15号\r\n\""},{"poiid":"B209475CD564A7F8439E","title":"上海滩中信泰富店","lon":"121.45602","lat":"31.22851","category":"119","category_name":"商场","address":"\"南京西路1168号中信泰富广场，店铺号221.\r\n\""},{"poiid":"B2094757D06FA7FB479D","title":"小花咖啡馆LE PETIT FLEURE","lon":"121.447838","lat":"31.215153","category":"65","category_name":"咖啡厅","address":"徐汇区安福路25号(常熟路口)"},{"poiid":"B2094751D46BA4F54898","title":"Plaza Pizza","lon":"121.447794","lat":"31.216233","category":"94","category_name":"西餐厅","address":"静安区华山路325号-1(常熟路口)"},{"poiid":"B2094757D06FA5FD4199","title":"PIRO Coffee &amp; Bar","lon":"121.447544","lat":"31.217063","category":"94","category_name":"西餐厅","address":"静安区常熟路89号(近巨鹿路)"},{"poiid":"B2094757D06FA4FE499F","title":"锡伯新疆餐厅","lon":"121.44766329","lat":"31.217222182","category":"90","category_name":"清真餐馆","address":"静安区常熟路83号3楼(近巨鹿路)"},{"poiid":"B2094655D265A1FC4292","title":"COSTA COFFEE(安福路店)","lon":"121.44395","lat":"31.21448","category":"65","category_name":"咖啡厅","address":"徐汇区安福路168号(近乌鲁木齐中路)"},{"poiid":"B2094757D06EAAF8489A","title":"星巴克(世纪商贸店)","lon":"121.446549","lat":"31.215735","category":"260","category_name":"其他","address":"徐汇区长乐路989号世纪商贸广场1楼(近常熟路,安福路)"},{"poiid":"B2094757D06FA2FE459A","title":"COSTA COFFEE(常熟路店)","lon":"121.44797","lat":"31.21687","category":"65","category_name":"咖啡厅","address":"静安区常熟路85号1楼A8(近巨鹿路)"},{"poiid":"B2094757D16CA1FA439A","title":"Hilton Hotel Shanghai","lon":"121.447136586","lat":"31.2161231551","category":"500","category_name":"未知分类","address":"上海华山路"},{"poiid":"B2094757D06FA0F8489B","title":"Enoterra红酒吧(安福路店)","lon":"121.44748","lat":"31.2147","category":"260","category_name":"其他","address":"徐汇区安福路55号(近常熟路)"},{"poiid":"B2094757DB69A4FB499E","title":"荣日本料理 华山店","lon":"121.444941","lat":"31.217337","category":"95","category_name":"日本料理","address":"静安区华山路427号2楼(近乌鲁木齐中路)"},{"poiid":"B2094654D564A4FB449C","title":"上海歌剧院","lon":"121.44642206994058","lat":"31.216509748927887","category":"180","category_name":"剧场","address":"静安区常熟路100弄10号(近长乐路)"},{"poiid":"B2094757D06FA3FA479D","title":"路飞堂（华山店）","lon":"121.44359","lat":"31.219215","category":"113","category_name":"冷饮店","address":"静安区乌鲁木齐北路429号(近延安西路)"},{"poiid":"B2094750D26FA7F5469E","title":"避风塘(常熟路店)","lon":"121.447868","lat":"31.216531","category":"72","category_name":"广东菜","address":"静安区常熟路98号(近巨鹿路)"},{"poiid":"B2094750D26CA3FE459E","title":"赤坂舞马雅","lon":"121.4465752","lat":"31.2181118","category":"95","category_name":"日本料理","address":"静安区常熟路8号静安8号内(近巨鹿路)"},{"poiid":"B2094757D068A0FC449C","title":"JustGrapes(安福路店)","lon":"121.44505","lat":"31.21389","category":"94","category_name":"西餐厅","address":"徐汇区安福路162号(近乌鲁木齐中路)"},{"poiid":"B2094654DB65A1F84193","title":"Jamaica Blue(乌鲁木齐中路)","lon":"121.44477","lat":"31.21471","category":"260","category_name":"其他","address":"徐汇区乌鲁木齐中路82号(近长乐路)"},{"poiid":"B2094654DB69A0FA459E","title":"红宝石(华山店)","lon":"121.4458","lat":"31.21781","category":"67","category_name":"甜品店","address":"静安区华山路375号(静安宾馆对面)"},{"poiid":"B2094757D069A3FD459C","title":"中国平安财产保险上海分公司","lon":"121.44687554","lat":"31.21791616","category":"263","category_name":"公司","address":"上海常熟路8号"},{"poiid":"B2094750D66FA4FF469C","title":"Dr.  Beer","lon":"121.447898","lat":"31.216619","category":"248","category_name":"生活娱乐","address":"静安区富民路83号"},{"poiid":"B2094757D068A1F84199","title":"渔人粤菜馆","lon":"121.447517","lat":"31.216825","category":"72","category_name":"广东菜","address":"静安区常熟路98号3楼(近长乐路)"},{"poiid":"B2094750D269A3FF4893","title":"Italian kitchen26","lon":"121.44738","lat":"31.215356","category":"94","category_name":"西餐厅","address":"徐汇区安福路23号(近常熟路)"},{"poiid":"B2094757D66AA5F8419F","title":"维也纳西餐厅 常熟路","lon":"121.4478","lat":"31.21693","category":"94","category_name":"西餐厅","address":"静安区常熟路98号4楼(近长乐路)"},{"poiid":"B2094757D16DA6F8429A","title":"华山医院6号楼","lon":"121.443753586","lat":"31.2167181668","category":"162","category_name":"医院","address":"上海市静安区延安西路"},{"poiid":"B2094750D26CA1FA4492","title":"玫瑰石时尚餐厅 Incarose Bistro Loun","lon":"121.447913","lat":"31.217215","category":"247","category_name":"餐饮美食","address":"静安区常熟路83号时尚前瞻大厦3楼(近巨鹿路)"},{"poiid":"B2094757D06FAAFF439D","title":"Ogilvy &amp; Mather.奥美广告","lon":"121.44699","lat":"31.215356","category":"46","category_name":"楼宇","address":"上海徐汇区长乐路989号世纪商贸广场26楼"},{"poiid":"B2094751D365A6FE429A","title":"2nd floor","lon":"121.447687","lat":"31.215626","category":"94","category_name":"西餐厅","address":"徐汇区长乐路810号2楼(近常熟路)"},{"poiid":"B2094757D06FA6F94698","title":"优纳仕意式休闲餐厅(静安店)","lon":"121.44787965","lat":"31.217260656","category":"94","category_name":"西餐厅","address":"静安区常熟路85号(近巨鹿路)"},{"poiid":"B2094753D66EAAFF469A","title":"千秋膳房常熟店","lon":"121.44784927","lat":"31.21716905","category":"247","category_name":"餐饮美食","address":"上海市静安区常熟路87号"},{"poiid":"B2094757D06AA6F94198","title":"梦曼特西餐厅(长乐店)","lon":"121.44473","lat":"31.21504","category":"94","category_name":"西餐厅","address":"徐汇区乌鲁木齐路66-69号(长乐路口)"},{"poiid":"B2094654D564ABFC439D","title":"合记茶餐厅","lon":"121.44436668466","lat":"31.21697867495","category":"72","category_name":"广东菜","address":"静安区华山路445号(近乌鲁木齐中路)"},{"poiid":"B2094757D06FA3F44098","title":"W K Shanghai","lon":"121.444271","lat":"31.21532","category":"46","category_name":"楼宇","address":"上海长乐路1035号"},{"poiid":"B2094757D069A6FA439B","title":"汇贤居","lon":"121.44571","lat":"31.214794","category":"47","category_name":"住宅区","address":"徐汇区乌鲁木齐路长乐路"},{"poiid":"B2094757D06BAAF44498","title":"Urban Thai","lon":"121.4459","lat":"31.21568","category":"99","category_name":"泰国／越南菜品餐厅","address":"徐汇区长乐路938号(近乌鲁木齐中路)"},{"poiid":"B2094757D069A4FA429D","title":"华山医院住院部","lon":"121.443770586","lat":"31.2153391398","category":"162","category_name":"医院","address":"上海市静安区乌鲁木齐路"},{"poiid":"B2094757D069A7FD4898","title":"组合发型(华山路店)","lon":"121.44613","lat":"31.21746","category":"148","category_name":"美容美发店","address":"静安区华山路383号(近乌鲁木齐中路)"},{"poiid":"B2094757DB68A5FA4198","title":"申城五月天","lon":"121.44546747208","lat":"31.2181232847","category":"72","category_name":"广东菜","address":"静安区华山路370号静安宾馆新楼2楼(近乌鲁木齐路)"},{"poiid":"B2094757D068A6FB469C","title":"静安面包房(总店)","lon":"121.4459","lat":"31.21781","category":"217","category_name":"旅馆招待所","address":"上海静安区华山路370号静安宾馆(近乌鲁木齐北路)"},{"poiid":"B2094757D069A7FF4798","title":"静安8号","lon":"121.446953795","lat":"31.217401334","category":"252","category_name":"楼宇机构","address":"上海华山路339弄1号"},{"poiid":"B2094655D36CA2FC449D","title":"香所","lon":"121.44727","lat":"31.2148","category":"111","category_name":"休闲餐饮场所","address":"安福路45-47号近常熟路"},{"poiid":"B2094654D564ABFC439B","title":"华山医院体检部","lon":"121.44483","lat":"31.2173","category":"162","category_name":"医院","address":"华山路433-3"},{"poiid":"B2094757D068AAFD499D","title":"吉祥馄饨(常熟路店)","lon":"121.44743","lat":"31.21549","category":"68","category_name":"快餐厅","address":"徐汇区长乐路802号(近常熟路)"},{"poiid":"B2094654DB6BA6FC409E","title":"荣居酒屋(华山路)","lon":"121.44494","lat":"31.21734","category":"172","category_name":"酒吧","address":""},{"poiid":"B209475DD36CABFC4699","title":"MYST","lon":"121.446189","lat":"31.218242","category":"500","category_name":"未知分类","address":"上海市 延安中路1123号(近延安饭店)"},{"poiid":"B2094757D06BA6FE429C","title":"上海渔亭","lon":"121.44626","lat":"31.21825","category":"76","category_name":"上海菜","address":"静安区华山路325号(希尔顿饭店对面)"},{"poiid":"B2094757D068AAFE489F","title":"复兴西路","lon":"121.443012","lat":"31.208405","category":"46","category_name":"楼宇","address":"上海永福路"},{"poiid":"B2094750D464A7F5429D","title":"万岛日本料理铁板烧","lon":"121.444526","lat":"31.216455","category":"95","category_name":"日本料理","address":"静安区乌鲁木齐北路480号万泰国际5楼(近华山路)"},{"poiid":"B2094654D564A4FF419E","title":"世纪商贸广场","lon":"121.44701","lat":"31.21528","category":"46","category_name":"楼宇","address":"上海市徐汇区长乐路989号（近常熟路）"},{"poiid":"B2094753D76FAAFA449C","title":"上海滩国泰旗舰店","lon":"121.466011","lat":"31.216125","category":"249","category_name":"购物服务","address":"淮海中路868号"},{"poiid":"B209475CD564A7F84292","title":"上海滩新天地店","lon":"121.47463","lat":"31.22164","category":"119","category_name":"商场","address":"\"太仓路181弄新天地北里15号\r\n\""},{"poiid":"B209475CD564A7F8439E","title":"上海滩中信泰富店","lon":"121.45602","lat":"31.22851","category":"119","category_name":"商场","address":"\"南京西路1168号中信泰富广场，店铺号221.\r\n\""},{"poiid":"B2094757D06FA7FB479D","title":"小花咖啡馆LE PETIT FLEURE","lon":"121.447838","lat":"31.215153","category":"65","category_name":"咖啡厅","address":"徐汇区安福路25号(常熟路口)"},{"poiid":"B2094751D46BA4F54898","title":"Plaza Pizza","lon":"121.447794","lat":"31.216233","category":"94","category_name":"西餐厅","address":"静安区华山路325号-1(常熟路口)"},{"poiid":"B2094757D06FA5FD4199","title":"PIRO Coffee &amp; Bar","lon":"121.447544","lat":"31.217063","category":"94","category_name":"西餐厅","address":"静安区常熟路89号(近巨鹿路)"},{"poiid":"B2094757D06FA4FE499F","title":"锡伯新疆餐厅","lon":"121.44766329","lat":"31.217222182","category":"90","category_name":"清真餐馆","address":"静安区常熟路83号3楼(近巨鹿路)"},{"poiid":"B2094655D265A1FC4292","title":"COSTA COFFEE(安福路店)","lon":"121.44395","lat":"31.21448","category":"65","category_name":"咖啡厅","address":"徐汇区安福路168号(近乌鲁木齐中路)"},{"poiid":"B2094757D06EAAF8489A","title":"星巴克(世纪商贸店)","lon":"121.446549","lat":"31.215735","category":"260","category_name":"其他","address":"徐汇区长乐路989号世纪商贸广场1楼(近常熟路,安福路)"},{"poiid":"B2094757D06FA2FE459A","title":"COSTA COFFEE(常熟路店)","lon":"121.44797","lat":"31.21687","category":"65","category_name":"咖啡厅","address":"静安区常熟路85号1楼A8(近巨鹿路)"},{"poiid":"B2094757D16CA1FA439A","title":"Hilton Hotel Shanghai","lon":"121.447136586","lat":"31.2161231551","category":"500","category_name":"未知分类","address":"上海华山路"},{"poiid":"B2094757D06FA0F8489B","title":"Enoterra红酒吧(安福路店)","lon":"121.44748","lat":"31.2147","category":"260","category_name":"其他","address":"徐汇区安福路55号(近常熟路)"},{"poiid":"B2094757DB69A4FB499E","title":"荣日本料理 华山店","lon":"121.444941","lat":"31.217337","category":"95","category_name":"日本料理","address":"静安区华山路427号2楼(近乌鲁木齐中路)"},{"poiid":"B2094654D564A4FB449C","title":"上海歌剧院","lon":"121.44642206994058","lat":"31.216509748927887","category":"180","category_name":"剧场","address":"静安区常熟路100弄10号(近长乐路)"},{"poiid":"B2094757D06FA3FA479D","title":"路飞堂（华山店）","lon":"121.44359","lat":"31.219215","category":"113","category_name":"冷饮店","address":"静安区乌鲁木齐北路429号(近延安西路)"},{"poiid":"B2094750D26FA7F5469E","title":"避风塘(常熟路店)","lon":"121.447868","lat":"31.216531","category":"72","category_name":"广东菜","address":"静安区常熟路98号(近巨鹿路)"},{"poiid":"B2094750D26CA3FE459E","title":"赤坂舞马雅","lon":"121.4465752","lat":"31.2181118","category":"95","category_name":"日本料理","address":"静安区常熟路8号静安8号内(近巨鹿路)"},{"poiid":"B2094757D068A0FC449C","title":"JustGrapes(安福路店)","lon":"121.44505","lat":"31.21389","category":"94","category_name":"西餐厅","address":"徐汇区安福路162号(近乌鲁木齐中路)"},{"poiid":"B2094654DB65A1F84193","title":"Jamaica Blue(乌鲁木齐中路)","lon":"121.44477","lat":"31.21471","category":"260","category_name":"其他","address":"徐汇区乌鲁木齐中路82号(近长乐路)"},{"poiid":"B2094654DB69A0FA459E","title":"红宝石(华山店)","lon":"121.4458","lat":"31.21781","category":"67","category_name":"甜品店","address":"静安区华山路375号(静安宾馆对面)"},{"poiid":"B2094757D069A3FD459C","title":"中国平安财产保险上海分公司","lon":"121.44687554","lat":"31.21791616","category":"263","category_name":"公司","address":"上海常熟路8号"},{"poiid":"B2094750D66FA4FF469C","title":"Dr.  Beer","lon":"121.447898","lat":"31.216619","category":"248","category_name":"生活娱乐","address":"静安区富民路83号"},{"poiid":"B2094757D068A1F84199","title":"渔人粤菜馆","lon":"121.447517","lat":"31.216825","category":"72","category_name":"广东菜","address":"静安区常熟路98号3楼(近长乐路)"},{"poiid":"B2094750D269A3FF4893","title":"Italian kitchen26","lon":"121.44738","lat":"31.215356","category":"94","category_name":"西餐厅","address":"徐汇区安福路23号(近常熟路)"},{"poiid":"B2094757D66AA5F8419F","title":"维也纳西餐厅 常熟路","lon":"121.4478","lat":"31.21693","category":"94","category_name":"西餐厅","address":"静安区常熟路98号4楼(近长乐路)"},{"poiid":"B2094757D16DA6F8429A","title":"华山医院6号楼","lon":"121.443753586","lat":"31.2167181668","category":"162","category_name":"医院","address":"上海市静安区延安西路"},{"poiid":"B2094750D26CA1FA4492","title":"玫瑰石时尚餐厅 Incarose Bistro Loun","lon":"121.447913","lat":"31.217215","category":"247","category_name":"餐饮美食","address":"静安区常熟路83号时尚前瞻大厦3楼(近巨鹿路)"},{"poiid":"B2094757D06FAAFF439D","title":"Ogilvy &amp; Mather.奥美广告","lon":"121.44699","lat":"31.215356","category":"46","category_name":"楼宇","address":"上海徐汇区长乐路989号世纪商贸广场26楼"},{"poiid":"B2094751D365A6FE429A","title":"2nd floor","lon":"121.447687","lat":"31.215626","category":"94","category_name":"西餐厅","address":"徐汇区长乐路810号2楼(近常熟路)"},{"poiid":"B2094757D06FA6F94698","title":"优纳仕意式休闲餐厅(静安店)","lon":"121.44787965","lat":"31.217260656","category":"94","category_name":"西餐厅","address":"静安区常熟路85号(近巨鹿路)"},{"poiid":"B2094753D66EAAFF469A","title":"千秋膳房常熟店","lon":"121.44784927","lat":"31.21716905","category":"247","category_name":"餐饮美食","address":"上海市静安区常熟路87号"},{"poiid":"B2094757D06AA6F94198","title":"梦曼特西餐厅(长乐店)","lon":"121.44473","lat":"31.21504","category":"94","category_name":"西餐厅","address":"徐汇区乌鲁木齐路66-69号(长乐路口)"},{"poiid":"B2094654D564ABFC439D","title":"合记茶餐厅","lon":"121.44436668466","lat":"31.21697867495","category":"72","category_name":"广东菜","address":"静安区华山路445号(近乌鲁木齐中路)"},{"poiid":"B2094757D06FA3F44098","title":"W K Shanghai","lon":"121.444271","lat":"31.21532","category":"46","category_name":"楼宇","address":"上海长乐路1035号"},{"poiid":"B2094757D069A6FA439B","title":"汇贤居","lon":"121.44571","lat":"31.214794","category":"47","category_name":"住宅区","address":"徐汇区乌鲁木齐路长乐路"},{"poiid":"B2094757D06BAAF44498","title":"Urban Thai","lon":"121.4459","lat":"31.21568","category":"99","category_name":"泰国／越南菜品餐厅","address":"徐汇区长乐路938号(近乌鲁木齐中路)"},{"poiid":"B2094757D069A4FA429D","title":"华山医院住院部","lon":"121.443770586","lat":"31.2153391398","category":"162","category_name":"医院","address":"上海市静安区乌鲁木齐路"},{"poiid":"B2094757D069A7FD4898","title":"组合发型(华山路店)","lon":"121.44613","lat":"31.21746","category":"148","category_name":"美容美发店","address":"静安区华山路383号(近乌鲁木齐中路)"},{"poiid":"B2094757DB68A5FA4198","title":"申城五月天","lon":"121.44546747208","lat":"31.2181232847","category":"72","category_name":"广东菜","address":"静安区华山路370号静安宾馆新楼2楼(近乌鲁木齐路)"},{"poiid":"B2094757D068A6FB469C","title":"静安面包房(总店)","lon":"121.4459","lat":"31.21781","category":"217","category_name":"旅馆招待所","address":"上海静安区华山路370号静安宾馆(近乌鲁木齐北路)"},{"poiid":"B2094757D069A7FF4798","title":"静安8号","lon":"121.446953795","lat":"31.217401334","category":"252","category_name":"楼宇机构","address":"上海华山路339弄1号"},{"poiid":"B2094655D36CA2FC449D","title":"香所","lon":"121.44727","lat":"31.2148","category":"111","category_name":"休闲餐饮场所","address":"安福路45-47号近常熟路"},{"poiid":"B2094654D564ABFC439B","title":"华山医院体检部","lon":"121.44483","lat":"31.2173","category":"162","category_name":"医院","address":"华山路433-3"},{"poiid":"B2094757D068AAFD499D","title":"吉祥馄饨(常熟路店)","lon":"121.44743","lat":"31.21549","category":"68","category_name":"快餐厅","address":"徐汇区长乐路802号(近常熟路)"},{"poiid":"B2094654DB6BA6FC409E","title":"荣居酒屋(华山路)","lon":"121.44494","lat":"31.21734","category":"172","category_name":"酒吧","address":""},{"poiid":"B209475DD36CABFC4699","title":"MYST","lon":"121.446189","lat":"31.218242","category":"500","category_name":"未知分类","address":"上海市 延安中路1123号(近延安饭店)"},{"poiid":"B2094757D06BA6FE429C","title":"上海渔亭","lon":"121.44626","lat":"31.21825","category":"76","category_name":"上海菜","address":"静安区华山路325号(希尔顿饭店对面)"}]