[{"poiid":"B2094757D06FA3F54698","title":"川沙","lon":"121.6893013","lat":"31.197668498","category":"500","category_name":"未知分类","address":"上海市浦东新区川沙新镇"},{"poiid":"B2094757D068ABF8439D","title":"金凯门","lon":"121.69318","lat":"31.207","category":"76","category_name":"上海菜","address":"浦东新区川沙镇川沙路4118号"},{"poiid":"B2094757D068ABFC439F","title":"夏都豆捞坊","lon":"121.689809054","lat":"31.195373793","category":"86","category_name":"火锅店","address":"浦东新区川沙妙境路128号(近新德路)"},{"poiid":"B2094750D769A3F5449C","title":"鲜芋仙(金汇广场店)","lon":"121.695","lat":"31.2004","category":"67","category_name":"甜品店","address":"浦东新区华夏东路2255号金汇广场1楼(近川沙路)"},{"poiid":"B2094757D069ABF8409B","title":"华夏特色龙虾","lon":"121.68929","lat":"31.19569","category":"68","category_name":"快餐厅","address":"浦东新区川沙新德路800号(妙境路新德路)"},{"poiid":"B2094757D66AA0F9449E","title":"浙商大酒店","lon":"121.6884642486","lat":"31.199801153235","category":"76","category_name":"上海菜","address":"浦东新区华夏东路2021号(华夏东路益华路)"},{"poiid":"B2094654DB64A3FB429A","title":"肯德基 金汇店 KFC","lon":"121.697216054","lat":"31.199588793","category":"68","category_name":"快餐厅","address":"闵行区华夏东路2255号卜峰莲花内(近川沙路)"},{"poiid":"B2094757D069A0FA4498","title":"华夏东路华东路","lon":"121.680707333","lat":"31.1978406773","category":"500","category_name":"未知分类","address":"上海华夏东路华东路"},{"poiid":"B2094757D469A0F4479C","title":"瑶家湘域 川沙店 Jade House","lon":"121.689841","lat":"31.197122","category":"77","category_name":"湖南菜","address":"浦东新区川沙镇妙境路168号(妙境路新德路)"},{"poiid":"B2094757D568A6FC439B","title":"六团景园酒家(川沙金路店)","lon":"121.68850179","lat":"31.19903781","category":"70","category_name":"综合酒楼","address":"浦东新区妙境路22-26号(华夏东路妙境路)"},{"poiid":"B2094654DB69A6FC449D","title":"金宇别墅","lon":"121.685","lat":"31.2001","category":"47","category_name":"住宅区","address":"金宇别墅位于浦东华夏三路201弄"},{"poiid":"B2094757D165A2FA4799","title":"52Riverside","lon":"121.69339","lat":"31.19632","category":"260","category_name":"其他","address":"浦东新区民贤路52号(近新德路)"},{"poiid":"B2094655D265A6F5489D","title":"和憬家园","lon":"121.68529","lat":"31.200127","category":"47","category_name":"住宅区","address":"浦东新区川沙镇硕川路125弄"},{"poiid":"B2094654DA6BA1FE429F","title":"红日酒店","lon":"121.68879","lat":"31.19781","category":"76","category_name":"上海菜","address":"浦东新区川沙镇妙境路84号(青厦路)"},{"poiid":"B2094757D465A0F5409A","title":"森铁板料理","lon":"121.6921169","lat":"31.1964342","category":"95","category_name":"日本料理","address":"浦东新区新德路641号"},{"poiid":"B2094654DA6BA3F54692","title":"华夏银桂苑","lon":"121.684356","lat":"31.197366","category":"47","category_name":"住宅区","address":"浦东新区浦东青厦路200"},{"poiid":"B2094654DB64A3FA4999","title":"明珠小区(新德路)","lon":"121.69033","lat":"31.19597","category":"47","category_name":"住宅区","address":"新德路735弄"},{"poiid":"B2094757D064A1F44393","title":"食佳传奇火锅","lon":"121.68879","lat":"31.19825","category":"86","category_name":"火锅店","address":"浦东新区妙境路58号(近华夏东路)"},{"poiid":"B2094757D468AAFB499B","title":"湛江半岛海鲜烧烤","lon":"121.6885393","lat":"31.196031369516","category":"68","category_name":"快餐厅","address":"浦东新区新德路818号(近秒境路)"},{"poiid":"B2094757D16BA2F5479D","title":"川杨璟园","lon":"121.68465","lat":"31.199945","category":"47","category_name":"住宅区","address":"华夏东路1801弄1～5号"},{"poiid":"B2094655D26BA1F9459A","title":"妙镜路新德路","lon":"121.68968","lat":"31.19588","category":"38","category_name":"公交车站","address":""},{"poiid":"B2094757D46FA6FF499C","title":"诸葛烤鱼 妙境路店","lon":"121.688805054","lat":"31.198817793","category":"71","category_name":"四川菜","address":"浦东新区川沙镇妙境路56号旁(华夏东路妙境路)"},{"poiid":"B2094654DA6AABFC439A","title":"世纪花园火锅酒楼 川沙店","lon":"121.68986590374","lat":"31.195882609072","category":"86","category_name":"火锅店","address":"浦东新区川沙妙境路133号(近新德路)"},{"poiid":"B2094654DA6BA1FE419A","title":"谭火锅 川沙店","lon":"121.6890765223","lat":"31.199266591492","category":"86","category_name":"火锅店","address":"浦东新区川沙镇妙境路105-107号(近华夏东路)"},{"poiid":"B2094654DA6BA3FE4192","title":"兴东名苑","lon":"121.6927","lat":"31.200563","category":"47","category_name":"住宅区","address":"浦东区华夏东路2139弄"},{"poiid":"B2094654DA6AABFC4499","title":"金钟苑","lon":"121.689312","lat":"31.199018","category":"47","category_name":"住宅区","address":"浦东新区妙境路55弄"},{"poiid":"B2094654DA6AABF9439B","title":"青厦小区","lon":"121.68867","lat":"31.196123","category":"47","category_name":"住宅区","address":"妙境路162-124弄"},{"poiid":"B2094757D465A3FF4598","title":"龙门饭店","lon":"121.68751","lat":"31.195842","category":"76","category_name":"上海菜","address":"浦东新区川沙镇新德路836号(近妙镜路)"},{"poiid":"B2094654DA6AABF94093","title":"振宇家常坊川北店","lon":"121.68862","lat":"31.19859","category":"257","category_name":"中餐厅","address":"浦东新区川沙镇妙境路394号(近华夏路)"},{"poiid":"B2094654DA6AABF44793","title":"华佳苑","lon":"121.68653","lat":"31.199928","category":"47","category_name":"住宅区","address":"华夏东路1881弄"},{"poiid":"B2094757D16FA0FA419B","title":"御景豪园","lon":"121.68444","lat":"31.191935","category":"47","category_name":"住宅区","address":"上海市浦东新区华夏二路350弄"},{"poiid":"B2094655D36CA0F5499C","title":"华夏一路华夏东路","lon":"121.68613","lat":"31.19858","category":"38","category_name":"公交车站","address":""},{"poiid":"B2094757D06AA5F54392","title":"川沙中学华夏西校","lon":"121.68378","lat":"31.19579","category":"253","category_name":"校园生活","address":"上海华夏二路150号"},{"poiid":"B2094750D76DA4F5479B","title":"蜀地水煮鱼","lon":"121.69","lat":"31.1959","category":"71","category_name":"四川菜","address":"浦东新区妙境路193号"},{"poiid":"B2094655D264ABF9419E","title":"快客","lon":"121.68516","lat":"31.19911","category":"117","category_name":"便民商店/便利店","address":""},{"poiid":"B2094757D66DA1FF449E","title":"交运动力","lon":"121.68766708","lat":"31.20055143","category":"500","category_name":"未知分类","address":"上海市浦东新区妙境北路"},{"poiid":"B2094655D265A7F9429C","title":"牵手KTV","lon":"121.68541","lat":"31.19914","category":"170","category_name":"KTV","address":"浦东新区华夏东路1813号(华夏东路华夏一路)"},{"poiid":"B2094654DA6AABF4479A","title":"玉兰苑(华夏一路)","lon":"121.68647","lat":"31.19808","category":"47","category_name":"住宅区","address":"华夏一路55弄"},{"poiid":"B2094757D165A5FD4198","title":"新洲豪园","lon":"121.6851","lat":"31.199348","category":"47","category_name":"住宅区","address":"上海市浦东新区华夏东路1801弄"},{"poiid":"B2094655D36DA0FC439A","title":"新德路华夏二路","lon":"121.68481","lat":"31.19515","category":"38","category_name":"公交车站","address":""},{"poiid":"B2094757D16AA0FA439C","title":"村夫烤鱼(新德路店)","lon":"121.68941","lat":"31.19582","category":"68","category_name":"快餐厅","address":"浦东新区川沙镇新德路(近妙境路)"},{"poiid":"B2094757D06BA3FD439A","title":"川杨锦苑","lon":"121.684103085","lat":"31.1996394102","category":"47","category_name":"住宅区","address":"上海市浦东新区华东路"},{"poiid":"B2094757D66EA2FD499E","title":"上海浦东汽车检修中心有限公司","lon":"121.69036308","lat":"31.200028418","category":"500","category_name":"未知分类","address":"浦东新区华夏东路2005号(华夏东路情谊路)"},{"poiid":"B2094654DB69A5F84098","title":"文峰美容美发(川沙妙境路店)","lon":"121.68949","lat":"31.19875","category":"148","category_name":"美容美发店","address":"浦东新区川沙妙境路655-657号城南路口(川沙城南路妙境路)"},{"poiid":"B2094751D364ABFC409A","title":"风波庄","lon":"121.684907","lat":"31.195071","category":"247","category_name":"餐饮美食","address":"浦东新区川沙新镇新德路965号(近华夏二路)"},{"poiid":"B2094654DA6AA4F9439E","title":"鑫龙花苑","lon":"121.693125","lat":"31.196515","category":"47","category_name":"住宅区","address":"六合区程桥镇编钟路90号"},{"poiid":"B2094654DA6BA3F54998","title":"金钟酒店","lon":"121.68675","lat":"31.19701","category":"70","category_name":"综合酒楼","address":"浦东新区青厦路99号"},{"poiid":"B2094757D66BA6F9499E","title":"西安印象 新德路店","lon":"121.68771","lat":"31.19557","category":"68","category_name":"快餐厅","address":"浦东新区新德路851号(近妙境路)"},{"poiid":"B2094757D06AAAFB4199","title":"阳光桌球俱乐部","lon":"121.69008379","lat":"31.196395738","category":"500","category_name":"未知分类","address":"上海浦东新区川沙妙境路(近新德路)"},{"poiid":"B2094757D66EA1F5499C","title":"上海风情","lon":"121.689009","lat":"31.1983077","category":"500","category_name":"未知分类","address":"浦东新区川沙妙境路71-77号(妙境路青厦路)"},{"poiid":"B2094757D06FA3F54698","title":"川沙","lon":"121.6893013","lat":"31.197668498","category":"500","category_name":"未知分类","address":"上海市浦东新区川沙新镇"},{"poiid":"B2094757D068ABF8439D","title":"金凯门","lon":"121.69318","lat":"31.207","category":"76","category_name":"上海菜","address":"浦东新区川沙镇川沙路4118号"},{"poiid":"B2094757D068ABFC439F","title":"夏都豆捞坊","lon":"121.689809054","lat":"31.195373793","category":"86","category_name":"火锅店","address":"浦东新区川沙妙境路128号(近新德路)"},{"poiid":"B2094750D769A3F5449C","title":"鲜芋仙(金汇广场店)","lon":"121.695","lat":"31.2004","category":"67","category_name":"甜品店","address":"浦东新区华夏东路2255号金汇广场1楼(近川沙路)"},{"poiid":"B2094757D069ABF8409B","title":"华夏特色龙虾","lon":"121.68929","lat":"31.19569","category":"68","category_name":"快餐厅","address":"浦东新区川沙新德路800号(妙境路新德路)"},{"poiid":"B2094757D66AA0F9449E","title":"浙商大酒店","lon":"121.6884642486","lat":"31.199801153235","category":"76","category_name":"上海菜","address":"浦东新区华夏东路2021号(华夏东路益华路)"},{"poiid":"B2094654DB64A3FB429A","title":"肯德基 金汇店 KFC","lon":"121.697216054","lat":"31.199588793","category":"68","category_name":"快餐厅","address":"闵行区华夏东路2255号卜峰莲花内(近川沙路)"},{"poiid":"B2094757D069A0FA4498","title":"华夏东路华东路","lon":"121.680707333","lat":"31.1978406773","category":"500","category_name":"未知分类","address":"上海华夏东路华东路"},{"poiid":"B2094757D469A0F4479C","title":"瑶家湘域 川沙店 Jade House","lon":"121.689841","lat":"31.197122","category":"77","category_name":"湖南菜","address":"浦东新区川沙镇妙境路168号(妙境路新德路)"},{"poiid":"B2094757D568A6FC439B","title":"六团景园酒家(川沙金路店)","lon":"121.68850179","lat":"31.19903781","category":"70","category_name":"综合酒楼","address":"浦东新区妙境路22-26号(华夏东路妙境路)"},{"poiid":"B2094654DB69A6FC449D","title":"金宇别墅","lon":"121.685","lat":"31.2001","category":"47","category_name":"住宅区","address":"金宇别墅位于浦东华夏三路201弄"},{"poiid":"B2094757D165A2FA4799","title":"52Riverside","lon":"121.69339","lat":"31.19632","category":"260","category_name":"其他","address":"浦东新区民贤路52号(近新德路)"},{"poiid":"B2094655D265A6F5489D","title":"和憬家园","lon":"121.68529","lat":"31.200127","category":"47","category_name":"住宅区","address":"浦东新区川沙镇硕川路125弄"},{"poiid":"B2094654DA6BA1FE429F","title":"红日酒店","lon":"121.68879","lat":"31.19781","category":"76","category_name":"上海菜","address":"浦东新区川沙镇妙境路84号(青厦路)"},{"poiid":"B2094757D465A0F5409A","title":"森铁板料理","lon":"121.6921169","lat":"31.1964342","category":"95","category_name":"日本料理","address":"浦东新区新德路641号"},{"poiid":"B2094654DA6BA3F54692","title":"华夏银桂苑","lon":"121.684356","lat":"31.197366","category":"47","category_name":"住宅区","address":"浦东新区浦东青厦路200"},{"poiid":"B2094654DB64A3FA4999","title":"明珠小区(新德路)","lon":"121.69033","lat":"31.19597","category":"47","category_name":"住宅区","address":"新德路735弄"},{"poiid":"B2094757D064A1F44393","title":"食佳传奇火锅","lon":"121.68879","lat":"31.19825","category":"86","category_name":"火锅店","address":"浦东新区妙境路58号(近华夏东路)"},{"poiid":"B2094757D468AAFB499B","title":"湛江半岛海鲜烧烤","lon":"121.6885393","lat":"31.196031369516","category":"68","category_name":"快餐厅","address":"浦东新区新德路818号(近秒境路)"},{"poiid":"B2094757D16BA2F5479D","title":"川杨璟园","lon":"121.68465","lat":"31.199945","category":"47","category_name":"住宅区","address":"华夏东路1801弄1～5号"},{"poiid":"B2094655D26BA1F9459A","title":"妙镜路新德路","lon":"121.68968","lat":"31.19588","category":"38","category_name":"公交车站","address":""},{"poiid":"B2094757D46FA6FF499C","title":"诸葛烤鱼 妙境路店","lon":"121.688805054","lat":"31.198817793","category":"71","category_name":"四川菜","address":"浦东新区川沙镇妙境路56号旁(华夏东路妙境路)"},{"poiid":"B2094654DA6AABFC439A","title":"世纪花园火锅酒楼 川沙店","lon":"121.68986590374","lat":"31.195882609072","category":"86","category_name":"火锅店","address":"浦东新区川沙妙境路133号(近新德路)"},{"poiid":"B2094654DA6BA1FE419A","title":"谭火锅 川沙店","lon":"121.6890765223","lat":"31.199266591492","category":"86","category_name":"火锅店","address":"浦东新区川沙镇妙境路105-107号(近华夏东路)"},{"poiid":"B2094654DA6BA3FE4192","title":"兴东名苑","lon":"121.6927","lat":"31.200563","category":"47","category_name":"住宅区","address":"浦东区华夏东路2139弄"},{"poiid":"B2094654DA6AABFC4499","title":"金钟苑","lon":"121.689312","lat":"31.199018","category":"47","category_name":"住宅区","address":"浦东新区妙境路55弄"},{"poiid":"B2094654DA6AABF9439B","title":"青厦小区","lon":"121.68867","lat":"31.196123","category":"47","category_name":"住宅区","address":"妙境路162-124弄"},{"poiid":"B2094757D465A3FF4598","title":"龙门饭店","lon":"121.68751","lat":"31.195842","category":"76","category_name":"上海菜","address":"浦东新区川沙镇新德路836号(近妙镜路)"},{"poiid":"B2094654DA6AABF94093","title":"振宇家常坊川北店","lon":"121.68862","lat":"31.19859","category":"257","category_name":"中餐厅","address":"浦东新区川沙镇妙境路394号(近华夏路)"},{"poiid":"B2094654DA6AABF44793","title":"华佳苑","lon":"121.68653","lat":"31.199928","category":"47","category_name":"住宅区","address":"华夏东路1881弄"},{"poiid":"B2094757D16FA0FA419B","title":"御景豪园","lon":"121.68444","lat":"31.191935","category":"47","category_name":"住宅区","address":"上海市浦东新区华夏二路350弄"},{"poiid":"B2094655D36CA0F5499C","title":"华夏一路华夏东路","lon":"121.68613","lat":"31.19858","category":"38","category_name":"公交车站","address":""},{"poiid":"B2094757D06AA5F54392","title":"川沙中学华夏西校","lon":"121.68378","lat":"31.19579","category":"253","category_name":"校园生活","address":"上海华夏二路150号"},{"poiid":"B2094750D76DA4F5479B","title":"蜀地水煮鱼","lon":"121.69","lat":"31.1959","category":"71","category_name":"四川菜","address":"浦东新区妙境路193号"},{"poiid":"B2094655D264ABF9419E","title":"快客","lon":"121.68516","lat":"31.19911","category":"117","category_name":"便民商店/便利店","address":""},{"poiid":"B2094757D66DA1FF449E","title":"交运动力","lon":"121.68766708","lat":"31.20055143","category":"500","category_name":"未知分类","address":"上海市浦东新区妙境北路"},{"poiid":"B2094655D265A7F9429C","title":"牵手KTV","lon":"121.68541","lat":"31.19914","category":"170","category_name":"KTV","address":"浦东新区华夏东路1813号(华夏东路华夏一路)"},{"poiid":"B2094654DA6AABF4479A","title":"玉兰苑(华夏一路)","lon":"121.68647","lat":"31.19808","category":"47","category_name":"住宅区","address":"华夏一路55弄"},{"poiid":"B2094757D165A5FD4198","title":"新洲豪园","lon":"121.6851","lat":"31.199348","category":"47","category_name":"住宅区","address":"上海市浦东新区华夏东路1801弄"},{"poiid":"B2094655D36DA0FC439A","title":"新德路华夏二路","lon":"121.68481","lat":"31.19515","category":"38","category_name":"公交车站","address":""},{"poiid":"B2094757D16AA0FA439C","title":"村夫烤鱼(新德路店)","lon":"121.68941","lat":"31.19582","category":"68","category_name":"快餐厅","address":"浦东新区川沙镇新德路(近妙境路)"},{"poiid":"B2094757D06BA3FD439A","title":"川杨锦苑","lon":"121.684103085","lat":"31.1996394102","category":"47","category_name":"住宅区","address":"上海市浦东新区华东路"},{"poiid":"B2094757D66EA2FD499E","title":"上海浦东汽车检修中心有限公司","lon":"121.69036308","lat":"31.200028418","category":"500","category_name":"未知分类","address":"浦东新区华夏东路2005号(华夏东路情谊路)"},{"poiid":"B2094654DB69A5F84098","title":"文峰美容美发(川沙妙境路店)","lon":"121.68949","lat":"31.19875","category":"148","category_name":"美容美发店","address":"浦东新区川沙妙境路655-657号城南路口(川沙城南路妙境路)"},{"poiid":"B2094751D364ABFC409A","title":"风波庄","lon":"121.684907","lat":"31.195071","category":"247","category_name":"餐饮美食","address":"浦东新区川沙新镇新德路965号(近华夏二路)"},{"poiid":"B2094654DA6AA4F9439E","title":"鑫龙花苑","lon":"121.693125","lat":"31.196515","category":"47","category_name":"住宅区","address":"六合区程桥镇编钟路90号"},{"poiid":"B2094654DA6BA3F54998","title":"金钟酒店","lon":"121.68675","lat":"31.19701","category":"70","category_name":"综合酒楼","address":"浦东新区青厦路99号"},{"poiid":"B2094757D66BA6F9499E","title":"西安印象 新德路店","lon":"121.68771","lat":"31.19557","category":"68","category_name":"快餐厅","address":"浦东新区新德路851号(近妙境路)"},{"poiid":"B2094757D06AAAFB4199","title":"阳光桌球俱乐部","lon":"121.69008379","lat":"31.196395738","category":"500","category_name":"未知分类","address":"上海浦东新区川沙妙境路(近新德路)"},{"poiid":"B2094757D66EA1F5499C","title":"上海风情","lon":"121.689009","lat":"31.1983077","category":"500","category_name":"未知分类","address":"浦东新区川沙妙境路71-77号(妙境路青厦路)"},{"poiid":"B2094757D06FA3F54698","title":"川沙","lon":"121.6893013","lat":"31.197668498","category":"500","category_name":"未知分类","address":"上海市浦东新区川沙新镇"},{"poiid":"B2094757D068ABF8439D","title":"金凯门","lon":"121.69318","lat":"31.207","category":"76","category_name":"上海菜","address":"浦东新区川沙镇川沙路4118号"},{"poiid":"B2094757D068ABFC439F","title":"夏都豆捞坊","lon":"121.689809054","lat":"31.195373793","category":"86","category_name":"火锅店","address":"浦东新区川沙妙境路128号(近新德路)"},{"poiid":"B2094750D769A3F5449C","title":"鲜芋仙(金汇广场店)","lon":"121.695","lat":"31.2004","category":"67","category_name":"甜品店","address":"浦东新区华夏东路2255号金汇广场1楼(近川沙路)"},{"poiid":"B2094757D069ABF8409B","title":"华夏特色龙虾","lon":"121.68929","lat":"31.19569","category":"68","category_name":"快餐厅","address":"浦东新区川沙新德路800号(妙境路新德路)"},{"poiid":"B2094757D66AA0F9449E","title":"浙商大酒店","lon":"121.6884642486","lat":"31.199801153235","category":"76","category_name":"上海菜","address":"浦东新区华夏东路2021号(华夏东路益华路)"},{"poiid":"B2094654DB64A3FB429A","title":"肯德基 金汇店 KFC","lon":"121.697216054","lat":"31.199588793","category":"68","category_name":"快餐厅","address":"闵行区华夏东路2255号卜峰莲花内(近川沙路)"},{"poiid":"B2094757D069A0FA4498","title":"华夏东路华东路","lon":"121.680707333","lat":"31.1978406773","category":"500","category_name":"未知分类","address":"上海华夏东路华东路"},{"poiid":"B2094757D469A0F4479C","title":"瑶家湘域 川沙店 Jade House","lon":"121.689841","lat":"31.197122","category":"77","category_name":"湖南菜","address":"浦东新区川沙镇妙境路168号(妙境路新德路)"},{"poiid":"B2094757D568A6FC439B","title":"六团景园酒家(川沙金路店)","lon":"121.68850179","lat":"31.19903781","category":"70","category_name":"综合酒楼","address":"浦东新区妙境路22-26号(华夏东路妙境路)"},{"poiid":"B2094654DB69A6FC449D","title":"金宇别墅","lon":"121.685","lat":"31.2001","category":"47","category_name":"住宅区","address":"金宇别墅位于浦东华夏三路201弄"},{"poiid":"B2094757D165A2FA4799","title":"52Riverside","lon":"121.69339","lat":"31.19632","category":"260","category_name":"其他","address":"浦东新区民贤路52号(近新德路)"},{"poiid":"B2094655D265A6F5489D","title":"和憬家园","lon":"121.68529","lat":"31.200127","category":"47","category_name":"住宅区","address":"浦东新区川沙镇硕川路125弄"},{"poiid":"B2094654DA6BA1FE429F","title":"红日酒店","lon":"121.68879","lat":"31.19781","category":"76","category_name":"上海菜","address":"浦东新区川沙镇妙境路84号(青厦路)"},{"poiid":"B2094757D465A0F5409A","title":"森铁板料理","lon":"121.6921169","lat":"31.1964342","category":"95","category_name":"日本料理","address":"浦东新区新德路641号"},{"poiid":"B2094654DA6BA3F54692","title":"华夏银桂苑","lon":"121.684356","lat":"31.197366","category":"47","category_name":"住宅区","address":"浦东新区浦东青厦路200"},{"poiid":"B2094654DB64A3FA4999","title":"明珠小区(新德路)","lon":"121.69033","lat":"31.19597","category":"47","category_name":"住宅区","address":"新德路735弄"},{"poiid":"B2094757D064A1F44393","title":"食佳传奇火锅","lon":"121.68879","lat":"31.19825","category":"86","category_name":"火锅店","address":"浦东新区妙境路58号(近华夏东路)"},{"poiid":"B2094757D468AAFB499B","title":"湛江半岛海鲜烧烤","lon":"121.6885393","lat":"31.196031369516","category":"68","category_name":"快餐厅","address":"浦东新区新德路818号(近秒境路)"},{"poiid":"B2094757D16BA2F5479D","title":"川杨璟园","lon":"121.68465","lat":"31.199945","category":"47","category_name":"住宅区","address":"华夏东路1801弄1～5号"},{"poiid":"B2094655D26BA1F9459A","title":"妙镜路新德路","lon":"121.68968","lat":"31.19588","category":"38","category_name":"公交车站","address":""},{"poiid":"B2094757D46FA6FF499C","title":"诸葛烤鱼 妙境路店","lon":"121.688805054","lat":"31.198817793","category":"71","category_name":"四川菜","address":"浦东新区川沙镇妙境路56号旁(华夏东路妙境路)"},{"poiid":"B2094654DA6AABFC439A","title":"世纪花园火锅酒楼 川沙店","lon":"121.68986590374","lat":"31.195882609072","category":"86","category_name":"火锅店","address":"浦东新区川沙妙境路133号(近新德路)"},{"poiid":"B2094654DA6BA1FE419A","title":"谭火锅 川沙店","lon":"121.6890765223","lat":"31.199266591492","category":"86","category_name":"火锅店","address":"浦东新区川沙镇妙境路105-107号(近华夏东路)"},{"poiid":"B2094654DA6BA3FE4192","title":"兴东名苑","lon":"121.6927","lat":"31.200563","category":"47","category_name":"住宅区","address":"浦东区华夏东路2139弄"},{"poiid":"B2094654DA6AABFC4499","title":"金钟苑","lon":"121.689312","lat":"31.199018","category":"47","category_name":"住宅区","address":"浦东新区妙境路55弄"},{"poiid":"B2094654DA6AABF9439B","title":"青厦小区","lon":"121.68867","lat":"31.196123","category":"47","category_name":"住宅区","address":"妙境路162-124弄"},{"poiid":"B2094757D465A3FF4598","title":"龙门饭店","lon":"121.68751","lat":"31.195842","category":"76","category_name":"上海菜","address":"浦东新区川沙镇新德路836号(近妙镜路)"},{"poiid":"B2094654DA6AABF94093","title":"振宇家常坊川北店","lon":"121.68862","lat":"31.19859","category":"257","category_name":"中餐厅","address":"浦东新区川沙镇妙境路394号(近华夏路)"},{"poiid":"B2094654DA6AABF44793","title":"华佳苑","lon":"121.68653","lat":"31.199928","category":"47","category_name":"住宅区","address":"华夏东路1881弄"},{"poiid":"B2094757D16FA0FA419B","title":"御景豪园","lon":"121.68444","lat":"31.191935","category":"47","category_name":"住宅区","address":"上海市浦东新区华夏二路350弄"},{"poiid":"B2094655D36CA0F5499C","title":"华夏一路华夏东路","lon":"121.68613","lat":"31.19858","category":"38","category_name":"公交车站","address":""},{"poiid":"B2094757D06AA5F54392","title":"川沙中学华夏西校","lon":"121.68378","lat":"31.19579","category":"253","category_name":"校园生活","address":"上海华夏二路150号"},{"poiid":"B2094750D76DA4F5479B","title":"蜀地水煮鱼","lon":"121.69","lat":"31.1959","category":"71","category_name":"四川菜","address":"浦东新区妙境路193号"},{"poiid":"B2094655D264ABF9419E","title":"快客","lon":"121.68516","lat":"31.19911","category":"117","category_name":"便民商店/便利店","address":""},{"poiid":"B2094757D66DA1FF449E","title":"交运动力","lon":"121.68766708","lat":"31.20055143","category":"500","category_name":"未知分类","address":"上海市浦东新区妙境北路"},{"poiid":"B2094655D265A7F9429C","title":"牵手KTV","lon":"121.68541","lat":"31.19914","category":"170","category_name":"KTV","address":"浦东新区华夏东路1813号(华夏东路华夏一路)"},{"poiid":"B2094654DA6AABF4479A","title":"玉兰苑(华夏一路)","lon":"121.68647","lat":"31.19808","category":"47","category_name":"住宅区","address":"华夏一路55弄"},{"poiid":"B2094757D165A5FD4198","title":"新洲豪园","lon":"121.6851","lat":"31.199348","category":"47","category_name":"住宅区","address":"上海市浦东新区华夏东路1801弄"},{"poiid":"B2094655D36DA0FC439A","title":"新德路华夏二路","lon":"121.68481","lat":"31.19515","category":"38","category_name":"公交车站","address":""},{"poiid":"B2094757D16AA0FA439C","title":"村夫烤鱼(新德路店)","lon":"121.68941","lat":"31.19582","category":"68","category_name":"快餐厅","address":"浦东新区川沙镇新德路(近妙境路)"},{"poiid":"B2094757D06BA3FD439A","title":"川杨锦苑","lon":"121.684103085","lat":"31.1996394102","category":"47","category_name":"住宅区","address":"上海市浦东新区华东路"},{"poiid":"B2094757D66EA2FD499E","title":"上海浦东汽车检修中心有限公司","lon":"121.69036308","lat":"31.200028418","category":"500","category_name":"未知分类","address":"浦东新区华夏东路2005号(华夏东路情谊路)"},{"poiid":"B2094654DB69A5F84098","title":"文峰美容美发(川沙妙境路店)","lon":"121.68949","lat":"31.19875","category":"148","category_name":"美容美发店","address":"浦东新区川沙妙境路655-657号城南路口(川沙城南路妙境路)"},{"poiid":"B2094751D364ABFC409A","title":"风波庄","lon":"121.684907","lat":"31.195071","category":"247","category_name":"餐饮美食","address":"浦东新区川沙新镇新德路965号(近华夏二路)"},{"poiid":"B2094654DA6AA4F9439E","title":"鑫龙花苑","lon":"121.693125","lat":"31.196515","category":"47","category_name":"住宅区","address":"六合区程桥镇编钟路90号"},{"poiid":"B2094654DA6BA3F54998","title":"金钟酒店","lon":"121.68675","lat":"31.19701","category":"70","category_name":"综合酒楼","address":"浦东新区青厦路99号"},{"poiid":"B2094757D66BA6F9499E","title":"西安印象 新德路店","lon":"121.68771","lat":"31.19557","category":"68","category_name":"快餐厅","address":"浦东新区新德路851号(近妙境路)"},{"poiid":"B2094757D06AAAFB4199","title":"阳光桌球俱乐部","lon":"121.69008379","lat":"31.196395738","category":"500","category_name":"未知分类","address":"上海浦东新区川沙妙境路(近新德路)"},{"poiid":"B2094757D66EA1F5499C","title":"上海风情","lon":"121.689009","lat":"31.1983077","category":"500","category_name":"未知分类","address":"浦东新区川沙妙境路71-77号(妙境路青厦路)"}]