[{"poiid":"B2094757D06FA7F5489D","title":"唐镇地铁站","lon":"121.655261389","lat":"31.2132715098","category":"36","category_name":"地铁站","address":"上海轨道交通 二号线 轨交塘镇站 2"},{"poiid":"B2094654DA6AAAFD4699","title":"上海民远职业技术学院","lon":"121.66107","lat":"31.19932","category":"671","category_name":"高校中心点","address":"浦东新区唐陆公路3892号(近华夏东路)"},{"poiid":"B2094757D06FA3F44799","title":"华夏东路地铁站","lon":"121.67645614","lat":"31.196494693","category":"36","category_name":"地铁站","address":"上海轨道交通 二号线 轨交华夏东路站 2"},{"poiid":"B2094655D36DA6FE4698","title":"唐镇","lon":"121.65525","lat":"31.21328","category":"38","category_name":"公交车站","address":""},{"poiid":"B2094757D06AA5FA489D","title":"永安公墓","lon":"121.666467005","lat":"31.195946669","category":"620","category_name":"丧葬","address":"浦东新区川沙镇唐陆公路(近华夏东路)"},{"poiid":"B2094757D068A7FA469F","title":"金唐公寓","lon":"121.65786","lat":"31.202555","category":"500","category_name":"未知分类","address":"创新西路75弄1-136号"},{"poiid":"B2094654DA6AAAFD489D","title":"绿波城","lon":"121.66481","lat":"31.209545","category":"47","category_name":"住宅区","address":"创新中路258号"},{"poiid":"B2094757D065A5F8409E","title":"华夏公园","lon":"121.65080441079522","lat":"31.192232339010502","category":"196","category_name":"公园","address":"上海华夏东路185号"},{"poiid":"B2094757D069A3F9479C","title":"唐镇天主教堂","lon":"121.65758514","lat":"31.201940536","category":"245","category_name":"教堂","address":"上海唐陆路"},{"poiid":"B2094757D06FA5FF4692","title":"金利公寓","lon":"121.66344","lat":"31.2026","category":"47","category_name":"住宅区","address":"上海南曹路901弄"},{"poiid":"B2094655D265ABF9499B","title":"保利金爵公寓(一期)","lon":"121.651128","lat":"31.206772","category":"47","category_name":"住宅区","address":"浦东新区创新西路75弄131号B座"},{"poiid":"B2094757D06BA3FD409E","title":"瀚盛家园","lon":"121.65532","lat":"31.200581","category":"47","category_name":"住宅区","address":"上海浦东新区创新西路199弄"},{"poiid":"B2094757D164A6FD409F","title":"学校","lon":"121.659774","lat":"31.197994","category":"500","category_name":"未知分类","address":"上海民远学院"},{"poiid":"B2094654DA6AABF4419B","title":"万馨佳园","lon":"121.67354","lat":"31.192419","category":"47","category_name":"住宅区","address":"新德西路207弄"},{"poiid":"B2094757D16DA6FC459E","title":"S1高速公路","lon":"121.646461375","lat":"31.1899818195","category":"500","category_name":"未知分类","address":"上海S1高速公路"},{"poiid":"B2094655D36CA7FC4092","title":"华夏东路唐陆路","lon":"121.66202","lat":"31.19424","category":"38","category_name":"公交车站","address":""},{"poiid":"B2094757D16DA6FA449D","title":"黑暗料理界","lon":"121.65785208","lat":"31.200647432","category":"247","category_name":"餐饮美食","address":"上海市浦东新区创新西路"},{"poiid":"B2094757D065A4F9429B","title":"上海民远学院","lon":"121.662209","lat":"31.194214","category":"253","category_name":"校园生活","address":"上海华夏东路唐陆路"},{"poiid":"B2094654DA6AAAFD429D","title":"唐人苑","lon":"121.64923","lat":"31.208265","category":"47","category_name":"住宅区","address":"唐镇路127弄"},{"poiid":"B2094655D36CA6F5449F","title":"德川路新德西路","lon":"121.67037","lat":"31.19054","category":"38","category_name":"公交车站","address":""},{"poiid":"B2094654DA6AABFB4993","title":"环东别墅","lon":"121.669","lat":"31.1925","category":"47","category_name":"住宅区","address":"三灶路1630号"},{"poiid":"B2094750D768A3F84399","title":"川悦食空","lon":"121.655","lat":"31.2048","category":"71","category_name":"四川菜","address":"浦东新区唐安路1008号(唐兴路口)"},{"poiid":"B2094655D36CA6F9489C","title":"对面街","lon":"121.66672","lat":"31.19537","category":"38","category_name":"公交车站","address":""},{"poiid":"B2094654DA6AA5F54992","title":"天堂商场","lon":"121.66354","lat":"31.19948","category":"119","category_name":"商场","address":"唐陆路3269号"},{"poiid":"B2094655D36CA7FC429A","title":"华夏东路德川路","lon":"121.66601","lat":"31.19523","category":"38","category_name":"公交车站","address":""},{"poiid":"B2094655D26BA1F8449A","title":"南曹","lon":"121.66075","lat":"31.20117","category":"38","category_name":"公交车站","address":""},{"poiid":"B2094654DA6AA5F5409E","title":"佳晖百货商场","lon":"121.65885","lat":"31.2008","category":"119","category_name":"商场","address":"唐陆路3354号"},{"poiid":"B2094655D36CA7FC429F","title":"华夏东路","lon":"121.67","lat":"31.19609","category":"38","category_name":"公交车站","address":""},{"poiid":"B2094757D16FABFA439B","title":"顺馨佳园","lon":"121.67588","lat":"31.193375","category":"46","category_name":"楼宇","address":"浦东新区新德西路99弄"},{"poiid":"B2094655D26BA2FA499C","title":"孙浦路华夏东路","lon":"121.65624","lat":"31.19223","category":"38","category_name":"公交车站","address":""},{"poiid":"B2094655D264A6FD449A","title":"齐爱佳苑","lon":"121.6618","lat":"31.206957","category":"47","category_name":"住宅区","address":"上海市宝山区新二路183弄"},{"poiid":"B2094757D169A0F9439B","title":"瀚龙苑","lon":"121.6634969","lat":"31.194606549","category":"252","category_name":"楼宇机构","address":"上海華夏東路860號"},{"poiid":"B2094655D36CA7FC4193","title":"华夏东路环东路","lon":"121.65718","lat":"31.19302","category":"38","category_name":"公交车站","address":""},{"poiid":"B2094654DA6AA5F54298","title":"佳晔综合商场","lon":"121.65946","lat":"31.20145","category":"119","category_name":"商场","address":"唐陆路3351号"},{"poiid":"B2094757D069A1F44693","title":"肯德基 KFC (金汇店)","lon":"121.65681783","lat":"31.197557864","category":"500","category_name":"未知分类","address":"上海华夏东路2255号"},{"poiid":"B2094757D169A3FC479B","title":"园西小学","lon":"121.672974109","lat":"31.1927022909","category":"56","category_name":"小学","address":"浦东新区新德西路236号"},{"poiid":"B2094654DA6AA5F5429B","title":"佳丽商场","lon":"121.65801","lat":"31.20137","category":"119","category_name":"商场","address":"唐陆路3251号"},{"poiid":"B2094750D768A7F9499C","title":"爵鼎鸡(唐安路店)","lon":"121.655","lat":"31.2037","category":"68","category_name":"快餐厅","address":"浦东新区唐镇唐安路1052-1058号(近创新西路)"},{"poiid":"B2094655D36CA7FC419A","title":"华夏东路孙新路","lon":"121.65593","lat":"31.19276","category":"38","category_name":"公交车站","address":""},{"poiid":"B2094757D06BA5F54599","title":"阳台","lon":"121.659713385","lat":"31.20099523","category":"500","category_name":"未知分类","address":"上海家里"},{"poiid":"B2094757D16DA0F84392","title":"浦东出租屋","lon":"121.658122601","lat":"31.2000060259","category":"500","category_name":"未知分类","address":"上海浦东创新西路75弄72号"},{"poiid":"B2094757D065A2F4419D","title":"乐乡公墓","lon":"121.666836085","lat":"31.1802569844","category":"620","category_name":"丧葬","address":"浦东新区栏学路8号(近科农路)"},{"poiid":"B2094654DA6BA3FE459D","title":"中国电信(华夏东路)","lon":"121.66672","lat":"31.19555","category":"151","category_name":"电讯营业厅","address":""},{"poiid":"B2094654DA6AA5F5429A","title":"佳乐商场","lon":"121.65726","lat":"31.20282","category":"119","category_name":"商场","address":"唐陆路3343号"},{"poiid":"B2094757DB6CA0F5459D","title":"舒馨北苑","lon":"121.6678","lat":"31.191277","category":"47","category_name":"住宅区","address":"浦东新区新德西路508弄"},{"poiid":"B2094655D36CA5FD439D","title":"创新中路齐爱路","lon":"121.66386","lat":"31.20711","category":"38","category_name":"公交车站","address":""},{"poiid":"B2094654DA6AAAF5459D","title":"鑫唐佳苑","lon":"121.65543","lat":"31.203997","category":"47","category_name":"住宅区","address":"唐安路1047弄"},{"poiid":"B2094757D16EA3FE4898","title":"沙田公寓","lon":"121.67172","lat":"31.1945","category":"47","category_name":"住宅区","address":"上海市浦东新区华夏东路1152弄"},{"poiid":"B2094757DA6EAAF94692","title":"海珑烧烤","lon":"121.656160354614","lat":"31.2033315370279","category":"247","category_name":"餐饮美食","address":"浦东新区创新西路1085号门口"},{"poiid":"B2094654DA6AAAFD449E","title":"唐镇小学","lon":"121.65505","lat":"31.20651","category":"56","category_name":"小学","address":"唐兴路439号"},{"poiid":"B2094757D06FA7F5489D","title":"唐镇地铁站","lon":"121.655261389","lat":"31.2132715098","category":"36","category_name":"地铁站","address":"上海轨道交通 二号线 轨交塘镇站 2"},{"poiid":"B2094654DA6AAAFD4699","title":"上海民远职业技术学院","lon":"121.66107","lat":"31.19932","category":"671","category_name":"高校中心点","address":"浦东新区唐陆公路3892号(近华夏东路)"},{"poiid":"B2094757D06FA3F44799","title":"华夏东路地铁站","lon":"121.67645614","lat":"31.196494693","category":"36","category_name":"地铁站","address":"上海轨道交通 二号线 轨交华夏东路站 2"},{"poiid":"B2094655D36DA6FE4698","title":"唐镇","lon":"121.65525","lat":"31.21328","category":"38","category_name":"公交车站","address":""},{"poiid":"B2094757D06AA5FA489D","title":"永安公墓","lon":"121.666467005","lat":"31.195946669","category":"620","category_name":"丧葬","address":"浦东新区川沙镇唐陆公路(近华夏东路)"},{"poiid":"B2094757D068A7FA469F","title":"金唐公寓","lon":"121.65786","lat":"31.202555","category":"500","category_name":"未知分类","address":"创新西路75弄1-136号"},{"poiid":"B2094654DA6AAAFD489D","title":"绿波城","lon":"121.66481","lat":"31.209545","category":"47","category_name":"住宅区","address":"创新中路258号"},{"poiid":"B2094757D065A5F8409E","title":"华夏公园","lon":"121.65080441079522","lat":"31.192232339010502","category":"196","category_name":"公园","address":"上海华夏东路185号"},{"poiid":"B2094757D069A3F9479C","title":"唐镇天主教堂","lon":"121.65758514","lat":"31.201940536","category":"245","category_name":"教堂","address":"上海唐陆路"},{"poiid":"B2094757D06FA5FF4692","title":"金利公寓","lon":"121.66344","lat":"31.2026","category":"47","category_name":"住宅区","address":"上海南曹路901弄"},{"poiid":"B2094655D265ABF9499B","title":"保利金爵公寓(一期)","lon":"121.651128","lat":"31.206772","category":"47","category_name":"住宅区","address":"浦东新区创新西路75弄131号B座"},{"poiid":"B2094757D06BA3FD409E","title":"瀚盛家园","lon":"121.65532","lat":"31.200581","category":"47","category_name":"住宅区","address":"上海浦东新区创新西路199弄"},{"poiid":"B2094757D164A6FD409F","title":"学校","lon":"121.659774","lat":"31.197994","category":"500","category_name":"未知分类","address":"上海民远学院"},{"poiid":"B2094654DA6AABF4419B","title":"万馨佳园","lon":"121.67354","lat":"31.192419","category":"47","category_name":"住宅区","address":"新德西路207弄"},{"poiid":"B2094757D16DA6FC459E","title":"S1高速公路","lon":"121.646461375","lat":"31.1899818195","category":"500","category_name":"未知分类","address":"上海S1高速公路"},{"poiid":"B2094655D36CA7FC4092","title":"华夏东路唐陆路","lon":"121.66202","lat":"31.19424","category":"38","category_name":"公交车站","address":""},{"poiid":"B2094757D16DA6FA449D","title":"黑暗料理界","lon":"121.65785208","lat":"31.200647432","category":"247","category_name":"餐饮美食","address":"上海市浦东新区创新西路"},{"poiid":"B2094757D065A4F9429B","title":"上海民远学院","lon":"121.662209","lat":"31.194214","category":"253","category_name":"校园生活","address":"上海华夏东路唐陆路"},{"poiid":"B2094654DA6AAAFD429D","title":"唐人苑","lon":"121.64923","lat":"31.208265","category":"47","category_name":"住宅区","address":"唐镇路127弄"},{"poiid":"B2094655D36CA6F5449F","title":"德川路新德西路","lon":"121.67037","lat":"31.19054","category":"38","category_name":"公交车站","address":""},{"poiid":"B2094654DA6AABFB4993","title":"环东别墅","lon":"121.669","lat":"31.1925","category":"47","category_name":"住宅区","address":"三灶路1630号"},{"poiid":"B2094750D768A3F84399","title":"川悦食空","lon":"121.655","lat":"31.2048","category":"71","category_name":"四川菜","address":"浦东新区唐安路1008号(唐兴路口)"},{"poiid":"B2094655D36CA6F9489C","title":"对面街","lon":"121.66672","lat":"31.19537","category":"38","category_name":"公交车站","address":""},{"poiid":"B2094654DA6AA5F54992","title":"天堂商场","lon":"121.66354","lat":"31.19948","category":"119","category_name":"商场","address":"唐陆路3269号"},{"poiid":"B2094655D36CA7FC429A","title":"华夏东路德川路","lon":"121.66601","lat":"31.19523","category":"38","category_name":"公交车站","address":""},{"poiid":"B2094655D26BA1F8449A","title":"南曹","lon":"121.66075","lat":"31.20117","category":"38","category_name":"公交车站","address":""},{"poiid":"B2094654DA6AA5F5409E","title":"佳晖百货商场","lon":"121.65885","lat":"31.2008","category":"119","category_name":"商场","address":"唐陆路3354号"},{"poiid":"B2094655D36CA7FC429F","title":"华夏东路","lon":"121.67","lat":"31.19609","category":"38","category_name":"公交车站","address":""},{"poiid":"B2094757D16FABFA439B","title":"顺馨佳园","lon":"121.67588","lat":"31.193375","category":"46","category_name":"楼宇","address":"浦东新区新德西路99弄"},{"poiid":"B2094655D26BA2FA499C","title":"孙浦路华夏东路","lon":"121.65624","lat":"31.19223","category":"38","category_name":"公交车站","address":""},{"poiid":"B2094655D264A6FD449A","title":"齐爱佳苑","lon":"121.6618","lat":"31.206957","category":"47","category_name":"住宅区","address":"上海市宝山区新二路183弄"},{"poiid":"B2094757D169A0F9439B","title":"瀚龙苑","lon":"121.6634969","lat":"31.194606549","category":"252","category_name":"楼宇机构","address":"上海華夏東路860號"},{"poiid":"B2094655D36CA7FC4193","title":"华夏东路环东路","lon":"121.65718","lat":"31.19302","category":"38","category_name":"公交车站","address":""},{"poiid":"B2094654DA6AA5F54298","title":"佳晔综合商场","lon":"121.65946","lat":"31.20145","category":"119","category_name":"商场","address":"唐陆路3351号"},{"poiid":"B2094757D069A1F44693","title":"肯德基 KFC (金汇店)","lon":"121.65681783","lat":"31.197557864","category":"500","category_name":"未知分类","address":"上海华夏东路2255号"},{"poiid":"B2094757D169A3FC479B","title":"园西小学","lon":"121.672974109","lat":"31.1927022909","category":"56","category_name":"小学","address":"浦东新区新德西路236号"},{"poiid":"B2094654DA6AA5F5429B","title":"佳丽商场","lon":"121.65801","lat":"31.20137","category":"119","category_name":"商场","address":"唐陆路3251号"},{"poiid":"B2094750D768A7F9499C","title":"爵鼎鸡(唐安路店)","lon":"121.655","lat":"31.2037","category":"68","category_name":"快餐厅","address":"浦东新区唐镇唐安路1052-1058号(近创新西路)"},{"poiid":"B2094655D36CA7FC419A","title":"华夏东路孙新路","lon":"121.65593","lat":"31.19276","category":"38","category_name":"公交车站","address":""},{"poiid":"B2094757D06BA5F54599","title":"阳台","lon":"121.659713385","lat":"31.20099523","category":"500","category_name":"未知分类","address":"上海家里"},{"poiid":"B2094757D16DA0F84392","title":"浦东出租屋","lon":"121.658122601","lat":"31.2000060259","category":"500","category_name":"未知分类","address":"上海浦东创新西路75弄72号"},{"poiid":"B2094757D065A2F4419D","title":"乐乡公墓","lon":"121.666836085","lat":"31.1802569844","category":"620","category_name":"丧葬","address":"浦东新区栏学路8号(近科农路)"},{"poiid":"B2094654DA6BA3FE459D","title":"中国电信(华夏东路)","lon":"121.66672","lat":"31.19555","category":"151","category_name":"电讯营业厅","address":""},{"poiid":"B2094654DA6AA5F5429A","title":"佳乐商场","lon":"121.65726","lat":"31.20282","category":"119","category_name":"商场","address":"唐陆路3343号"},{"poiid":"B2094757DB6CA0F5459D","title":"舒馨北苑","lon":"121.6678","lat":"31.191277","category":"47","category_name":"住宅区","address":"浦东新区新德西路508弄"},{"poiid":"B2094655D36CA5FD439D","title":"创新中路齐爱路","lon":"121.66386","lat":"31.20711","category":"38","category_name":"公交车站","address":""},{"poiid":"B2094654DA6AAAF5459D","title":"鑫唐佳苑","lon":"121.65543","lat":"31.203997","category":"47","category_name":"住宅区","address":"唐安路1047弄"},{"poiid":"B2094757D16EA3FE4898","title":"沙田公寓","lon":"121.67172","lat":"31.1945","category":"47","category_name":"住宅区","address":"上海市浦东新区华夏东路1152弄"},{"poiid":"B2094757DA6EAAF94692","title":"海珑烧烤","lon":"121.656160354614","lat":"31.2033315370279","category":"247","category_name":"餐饮美食","address":"浦东新区创新西路1085号门口"},{"poiid":"B2094654DA6AAAFD449E","title":"唐镇小学","lon":"121.65505","lat":"31.20651","category":"56","category_name":"小学","address":"唐兴路439号"},{"poiid":"B2094757D06FA7F5489D","title":"唐镇地铁站","lon":"121.655261389","lat":"31.2132715098","category":"36","category_name":"地铁站","address":"上海轨道交通 二号线 轨交塘镇站 2"},{"poiid":"B2094654DA6AAAFD4699","title":"上海民远职业技术学院","lon":"121.66107","lat":"31.19932","category":"671","category_name":"高校中心点","address":"浦东新区唐陆公路3892号(近华夏东路)"},{"poiid":"B2094757D06FA3F44799","title":"华夏东路地铁站","lon":"121.67645614","lat":"31.196494693","category":"36","category_name":"地铁站","address":"上海轨道交通 二号线 轨交华夏东路站 2"},{"poiid":"B2094655D36DA6FE4698","title":"唐镇","lon":"121.65525","lat":"31.21328","category":"38","category_name":"公交车站","address":""},{"poiid":"B2094757D06AA5FA489D","title":"永安公墓","lon":"121.666467005","lat":"31.195946669","category":"620","category_name":"丧葬","address":"浦东新区川沙镇唐陆公路(近华夏东路)"},{"poiid":"B2094757D068A7FA469F","title":"金唐公寓","lon":"121.65786","lat":"31.202555","category":"500","category_name":"未知分类","address":"创新西路75弄1-136号"},{"poiid":"B2094654DA6AAAFD489D","title":"绿波城","lon":"121.66481","lat":"31.209545","category":"47","category_name":"住宅区","address":"创新中路258号"},{"poiid":"B2094757D065A5F8409E","title":"华夏公园","lon":"121.65080441079522","lat":"31.192232339010502","category":"196","category_name":"公园","address":"上海华夏东路185号"},{"poiid":"B2094757D069A3F9479C","title":"唐镇天主教堂","lon":"121.65758514","lat":"31.201940536","category":"245","category_name":"教堂","address":"上海唐陆路"},{"poiid":"B2094757D06FA5FF4692","title":"金利公寓","lon":"121.66344","lat":"31.2026","category":"47","category_name":"住宅区","address":"上海南曹路901弄"},{"poiid":"B2094655D265ABF9499B","title":"保利金爵公寓(一期)","lon":"121.651128","lat":"31.206772","category":"47","category_name":"住宅区","address":"浦东新区创新西路75弄131号B座"},{"poiid":"B2094757D06BA3FD409E","title":"瀚盛家园","lon":"121.65532","lat":"31.200581","category":"47","category_name":"住宅区","address":"上海浦东新区创新西路199弄"},{"poiid":"B2094757D164A6FD409F","title":"学校","lon":"121.659774","lat":"31.197994","category":"500","category_name":"未知分类","address":"上海民远学院"},{"poiid":"B2094654DA6AABF4419B","title":"万馨佳园","lon":"121.67354","lat":"31.192419","category":"47","category_name":"住宅区","address":"新德西路207弄"},{"poiid":"B2094757D16DA6FC459E","title":"S1高速公路","lon":"121.646461375","lat":"31.1899818195","category":"500","category_name":"未知分类","address":"上海S1高速公路"},{"poiid":"B2094655D36CA7FC4092","title":"华夏东路唐陆路","lon":"121.66202","lat":"31.19424","category":"38","category_name":"公交车站","address":""},{"poiid":"B2094757D16DA6FA449D","title":"黑暗料理界","lon":"121.65785208","lat":"31.200647432","category":"247","category_name":"餐饮美食","address":"上海市浦东新区创新西路"},{"poiid":"B2094757D065A4F9429B","title":"上海民远学院","lon":"121.662209","lat":"31.194214","category":"253","category_name":"校园生活","address":"上海华夏东路唐陆路"},{"poiid":"B2094654DA6AAAFD429D","title":"唐人苑","lon":"121.64923","lat":"31.208265","category":"47","category_name":"住宅区","address":"唐镇路127弄"},{"poiid":"B2094655D36CA6F5449F","title":"德川路新德西路","lon":"121.67037","lat":"31.19054","category":"38","category_name":"公交车站","address":""},{"poiid":"B2094654DA6AABFB4993","title":"环东别墅","lon":"121.669","lat":"31.1925","category":"47","category_name":"住宅区","address":"三灶路1630号"},{"poiid":"B2094750D768A3F84399","title":"川悦食空","lon":"121.655","lat":"31.2048","category":"71","category_name":"四川菜","address":"浦东新区唐安路1008号(唐兴路口)"},{"poiid":"B2094655D36CA6F9489C","title":"对面街","lon":"121.66672","lat":"31.19537","category":"38","category_name":"公交车站","address":""},{"poiid":"B2094654DA6AA5F54992","title":"天堂商场","lon":"121.66354","lat":"31.19948","category":"119","category_name":"商场","address":"唐陆路3269号"},{"poiid":"B2094655D36CA7FC429A","title":"华夏东路德川路","lon":"121.66601","lat":"31.19523","category":"38","category_name":"公交车站","address":""},{"poiid":"B2094655D26BA1F8449A","title":"南曹","lon":"121.66075","lat":"31.20117","category":"38","category_name":"公交车站","address":""},{"poiid":"B2094654DA6AA5F5409E","title":"佳晖百货商场","lon":"121.65885","lat":"31.2008","category":"119","category_name":"商场","address":"唐陆路3354号"},{"poiid":"B2094655D36CA7FC429F","title":"华夏东路","lon":"121.67","lat":"31.19609","category":"38","category_name":"公交车站","address":""},{"poiid":"B2094757D16FABFA439B","title":"顺馨佳园","lon":"121.67588","lat":"31.193375","category":"46","category_name":"楼宇","address":"浦东新区新德西路99弄"},{"poiid":"B2094655D26BA2FA499C","title":"孙浦路华夏东路","lon":"121.65624","lat":"31.19223","category":"38","category_name":"公交车站","address":""},{"poiid":"B2094655D264A6FD449A","title":"齐爱佳苑","lon":"121.6618","lat":"31.206957","category":"47","category_name":"住宅区","address":"上海市宝山区新二路183弄"},{"poiid":"B2094757D169A0F9439B","title":"瀚龙苑","lon":"121.6634969","lat":"31.194606549","category":"252","category_name":"楼宇机构","address":"上海華夏東路860號"},{"poiid":"B2094655D36CA7FC4193","title":"华夏东路环东路","lon":"121.65718","lat":"31.19302","category":"38","category_name":"公交车站","address":""},{"poiid":"B2094654DA6AA5F54298","title":"佳晔综合商场","lon":"121.65946","lat":"31.20145","category":"119","category_name":"商场","address":"唐陆路3351号"},{"poiid":"B2094757D069A1F44693","title":"肯德基 KFC (金汇店)","lon":"121.65681783","lat":"31.197557864","category":"500","category_name":"未知分类","address":"上海华夏东路2255号"},{"poiid":"B2094757D169A3FC479B","title":"园西小学","lon":"121.672974109","lat":"31.1927022909","category":"56","category_name":"小学","address":"浦东新区新德西路236号"},{"poiid":"B2094654DA6AA5F5429B","title":"佳丽商场","lon":"121.65801","lat":"31.20137","category":"119","category_name":"商场","address":"唐陆路3251号"},{"poiid":"B2094750D768A7F9499C","title":"爵鼎鸡(唐安路店)","lon":"121.655","lat":"31.2037","category":"68","category_name":"快餐厅","address":"浦东新区唐镇唐安路1052-1058号(近创新西路)"},{"poiid":"B2094655D36CA7FC419A","title":"华夏东路孙新路","lon":"121.65593","lat":"31.19276","category":"38","category_name":"公交车站","address":""},{"poiid":"B2094757D06BA5F54599","title":"阳台","lon":"121.659713385","lat":"31.20099523","category":"500","category_name":"未知分类","address":"上海家里"},{"poiid":"B2094757D16DA0F84392","title":"浦东出租屋","lon":"121.658122601","lat":"31.2000060259","category":"500","category_name":"未知分类","address":"上海浦东创新西路75弄72号"},{"poiid":"B2094757D065A2F4419D","title":"乐乡公墓","lon":"121.666836085","lat":"31.1802569844","category":"620","category_name":"丧葬","address":"浦东新区栏学路8号(近科农路)"},{"poiid":"B2094654DA6BA3FE459D","title":"中国电信(华夏东路)","lon":"121.66672","lat":"31.19555","category":"151","category_name":"电讯营业厅","address":""},{"poiid":"B2094654DA6AA5F5429A","title":"佳乐商场","lon":"121.65726","lat":"31.20282","category":"119","category_name":"商场","address":"唐陆路3343号"},{"poiid":"B2094757DB6CA0F5459D","title":"舒馨北苑","lon":"121.6678","lat":"31.191277","category":"47","category_name":"住宅区","address":"浦东新区新德西路508弄"},{"poiid":"B2094655D36CA5FD439D","title":"创新中路齐爱路","lon":"121.66386","lat":"31.20711","category":"38","category_name":"公交车站","address":""},{"poiid":"B2094654DA6AAAF5459D","title":"鑫唐佳苑","lon":"121.65543","lat":"31.203997","category":"47","category_name":"住宅区","address":"唐安路1047弄"},{"poiid":"B2094757D16EA3FE4898","title":"沙田公寓","lon":"121.67172","lat":"31.1945","category":"47","category_name":"住宅区","address":"上海市浦东新区华夏东路1152弄"},{"poiid":"B2094757DA6EAAF94692","title":"海珑烧烤","lon":"121.656160354614","lat":"31.2033315370279","category":"247","category_name":"餐饮美食","address":"浦东新区创新西路1085号门口"},{"poiid":"B2094654DA6AAAFD449E","title":"唐镇小学","lon":"121.65505","lat":"31.20651","category":"56","category_name":"小学","address":"唐兴路439号"},{"poiid":"B2094757D06FA7F5489D","title":"唐镇地铁站","lon":"121.655261389","lat":"31.2132715098","category":"36","category_name":"地铁站","address":"上海轨道交通 二号线 轨交塘镇站 2"},{"poiid":"B2094654DA6AAAFD4699","title":"上海民远职业技术学院","lon":"121.66107","lat":"31.19932","category":"671","category_name":"高校中心点","address":"浦东新区唐陆公路3892号(近华夏东路)"},{"poiid":"B2094757D06FA3F44799","title":"华夏东路地铁站","lon":"121.67645614","lat":"31.196494693","category":"36","category_name":"地铁站","address":"上海轨道交通 二号线 轨交华夏东路站 2"},{"poiid":"B2094655D36DA6FE4698","title":"唐镇","lon":"121.65525","lat":"31.21328","category":"38","category_name":"公交车站","address":""},{"poiid":"B2094757D06AA5FA489D","title":"永安公墓","lon":"121.666467005","lat":"31.195946669","category":"620","category_name":"丧葬","address":"浦东新区川沙镇唐陆公路(近华夏东路)"},{"poiid":"B2094757D068A7FA469F","title":"金唐公寓","lon":"121.65786","lat":"31.202555","category":"500","category_name":"未知分类","address":"创新西路75弄1-136号"},{"poiid":"B2094654DA6AAAFD489D","title":"绿波城","lon":"121.66481","lat":"31.209545","category":"47","category_name":"住宅区","address":"创新中路258号"},{"poiid":"B2094757D065A5F8409E","title":"华夏公园","lon":"121.65080441079522","lat":"31.192232339010502","category":"196","category_name":"公园","address":"上海华夏东路185号"},{"poiid":"B2094757D069A3F9479C","title":"唐镇天主教堂","lon":"121.65758514","lat":"31.201940536","category":"245","category_name":"教堂","address":"上海唐陆路"},{"poiid":"B2094757D06FA5FF4692","title":"金利公寓","lon":"121.66344","lat":"31.2026","category":"47","category_name":"住宅区","address":"上海南曹路901弄"},{"poiid":"B2094655D265ABF9499B","title":"保利金爵公寓(一期)","lon":"121.651128","lat":"31.206772","category":"47","category_name":"住宅区","address":"浦东新区创新西路75弄131号B座"},{"poiid":"B2094757D06BA3FD409E","title":"瀚盛家园","lon":"121.65532","lat":"31.200581","category":"47","category_name":"住宅区","address":"上海浦东新区创新西路199弄"},{"poiid":"B2094757D164A6FD409F","title":"学校","lon":"121.659774","lat":"31.197994","category":"500","category_name":"未知分类","address":"上海民远学院"},{"poiid":"B2094654DA6AABF4419B","title":"万馨佳园","lon":"121.67354","lat":"31.192419","category":"47","category_name":"住宅区","address":"新德西路207弄"},{"poiid":"B2094757D16DA6FC459E","title":"S1高速公路","lon":"121.646461375","lat":"31.1899818195","category":"500","category_name":"未知分类","address":"上海S1高速公路"},{"poiid":"B2094655D36CA7FC4092","title":"华夏东路唐陆路","lon":"121.66202","lat":"31.19424","category":"38","category_name":"公交车站","address":""},{"poiid":"B2094757D16DA6FA449D","title":"黑暗料理界","lon":"121.65785208","lat":"31.200647432","category":"247","category_name":"餐饮美食","address":"上海市浦东新区创新西路"},{"poiid":"B2094757D065A4F9429B","title":"上海民远学院","lon":"121.662209","lat":"31.194214","category":"253","category_name":"校园生活","address":"上海华夏东路唐陆路"},{"poiid":"B2094654DA6AAAFD429D","title":"唐人苑","lon":"121.64923","lat":"31.208265","category":"47","category_name":"住宅区","address":"唐镇路127弄"},{"poiid":"B2094655D36CA6F5449F","title":"德川路新德西路","lon":"121.67037","lat":"31.19054","category":"38","category_name":"公交车站","address":""},{"poiid":"B2094654DA6AABFB4993","title":"环东别墅","lon":"121.669","lat":"31.1925","category":"47","category_name":"住宅区","address":"三灶路1630号"},{"poiid":"B2094750D768A3F84399","title":"川悦食空","lon":"121.655","lat":"31.2048","category":"71","category_name":"四川菜","address":"浦东新区唐安路1008号(唐兴路口)"},{"poiid":"B2094655D36CA6F9489C","title":"对面街","lon":"121.66672","lat":"31.19537","category":"38","category_name":"公交车站","address":""},{"poiid":"B2094654DA6AA5F54992","title":"天堂商场","lon":"121.66354","lat":"31.19948","category":"119","category_name":"商场","address":"唐陆路3269号"},{"poiid":"B2094655D36CA7FC429A","title":"华夏东路德川路","lon":"121.66601","lat":"31.19523","category":"38","category_name":"公交车站","address":""},{"poiid":"B2094655D26BA1F8449A","title":"南曹","lon":"121.66075","lat":"31.20117","category":"38","category_name":"公交车站","address":""},{"poiid":"B2094654DA6AA5F5409E","title":"佳晖百货商场","lon":"121.65885","lat":"31.2008","category":"119","category_name":"商场","address":"唐陆路3354号"},{"poiid":"B2094655D36CA7FC429F","title":"华夏东路","lon":"121.67","lat":"31.19609","category":"38","category_name":"公交车站","address":""},{"poiid":"B2094757D16FABFA439B","title":"顺馨佳园","lon":"121.67588","lat":"31.193375","category":"46","category_name":"楼宇","address":"浦东新区新德西路99弄"},{"poiid":"B2094655D26BA2FA499C","title":"孙浦路华夏东路","lon":"121.65624","lat":"31.19223","category":"38","category_name":"公交车站","address":""},{"poiid":"B2094655D264A6FD449A","title":"齐爱佳苑","lon":"121.6618","lat":"31.206957","category":"47","category_name":"住宅区","address":"上海市宝山区新二路183弄"},{"poiid":"B2094757D169A0F9439B","title":"瀚龙苑","lon":"121.6634969","lat":"31.194606549","category":"252","category_name":"楼宇机构","address":"上海華夏東路860號"},{"poiid":"B2094655D36CA7FC4193","title":"华夏东路环东路","lon":"121.65718","lat":"31.19302","category":"38","category_name":"公交车站","address":""},{"poiid":"B2094654DA6AA5F54298","title":"佳晔综合商场","lon":"121.65946","lat":"31.20145","category":"119","category_name":"商场","address":"唐陆路3351号"},{"poiid":"B2094757D069A1F44693","title":"肯德基 KFC (金汇店)","lon":"121.65681783","lat":"31.197557864","category":"500","category_name":"未知分类","address":"上海华夏东路2255号"},{"poiid":"B2094757D169A3FC479B","title":"园西小学","lon":"121.672974109","lat":"31.1927022909","category":"56","category_name":"小学","address":"浦东新区新德西路236号"},{"poiid":"B2094654DA6AA5F5429B","title":"佳丽商场","lon":"121.65801","lat":"31.20137","category":"119","category_name":"商场","address":"唐陆路3251号"},{"poiid":"B2094750D768A7F9499C","title":"爵鼎鸡(唐安路店)","lon":"121.655","lat":"31.2037","category":"68","category_name":"快餐厅","address":"浦东新区唐镇唐安路1052-1058号(近创新西路)"},{"poiid":"B2094655D36CA7FC419A","title":"华夏东路孙新路","lon":"121.65593","lat":"31.19276","category":"38","category_name":"公交车站","address":""},{"poiid":"B2094757D06BA5F54599","title":"阳台","lon":"121.659713385","lat":"31.20099523","category":"500","category_name":"未知分类","address":"上海家里"},{"poiid":"B2094757D16DA0F84392","title":"浦东出租屋","lon":"121.658122601","lat":"31.2000060259","category":"500","category_name":"未知分类","address":"上海浦东创新西路75弄72号"},{"poiid":"B2094757D065A2F4419D","title":"乐乡公墓","lon":"121.666836085","lat":"31.1802569844","category":"620","category_name":"丧葬","address":"浦东新区栏学路8号(近科农路)"},{"poiid":"B2094654DA6BA3FE459D","title":"中国电信(华夏东路)","lon":"121.66672","lat":"31.19555","category":"151","category_name":"电讯营业厅","address":""},{"poiid":"B2094654DA6AA5F5429A","title":"佳乐商场","lon":"121.65726","lat":"31.20282","category":"119","category_name":"商场","address":"唐陆路3343号"},{"poiid":"B2094757DB6CA0F5459D","title":"舒馨北苑","lon":"121.6678","lat":"31.191277","category":"47","category_name":"住宅区","address":"浦东新区新德西路508弄"},{"poiid":"B2094655D36CA5FD439D","title":"创新中路齐爱路","lon":"121.66386","lat":"31.20711","category":"38","category_name":"公交车站","address":""},{"poiid":"B2094654DA6AAAF5459D","title":"鑫唐佳苑","lon":"121.65543","lat":"31.203997","category":"47","category_name":"住宅区","address":"唐安路1047弄"},{"poiid":"B2094757D16EA3FE4898","title":"沙田公寓","lon":"121.67172","lat":"31.1945","category":"47","category_name":"住宅区","address":"上海市浦东新区华夏东路1152弄"},{"poiid":"B2094757DA6EAAF94692","title":"海珑烧烤","lon":"121.656160354614","lat":"31.2033315370279","category":"247","category_name":"餐饮美食","address":"浦东新区创新西路1085号门口"},{"poiid":"B2094654DA6AAAFD449E","title":"唐镇小学","lon":"121.65505","lat":"31.20651","category":"56","category_name":"小学","address":"唐兴路439号"}]