[{"poiid":"B2094757DA69A3F44592","title":"甲泰餐厅","lon":"121.48598641005","lat":"31.239524260517","category":"99","category_name":"泰国／越南菜品餐厅","address":"黄浦区宁波路51号(近江西中路)"},{"poiid":"B2094654DA6FAAFD499A","title":"港泰广场","lon":"121.486","lat":"31.2358","category":"46","category_name":"楼宇","address":"延安东路700号"},{"poiid":"B2094654DA6FABFA4398","title":"世界贸易大厦","lon":"121.48850902222","lat":"31.238273726782","category":"46","category_name":"楼宇","address":"格林SOHO位于和平十三纬路云集街10号甲(东北炊具城西侧)"},{"poiid":"B209475CD564A7F84292","title":"上海滩新天地店","lon":"121.47463","lat":"31.22164","category":"119","category_name":"商场","address":"\"太仓路181弄新天地北里15号\r\n\""},{"poiid":"B209475CD564A7F84392","title":"上海滩浦东香格里拉店","lon":"121.50058","lat":"31.23634","category":"119","category_name":"商场","address":"浦东富成路33号香格里拉酒店内大堂层"},{"poiid":"B2094757D068A4F9469A","title":"成隆行蟹王府","lon":"121.485942537","lat":"31.2369416306","category":"257","category_name":"中餐厅","address":"黄浦区九江路216号(河南中路口)"},{"poiid":"B2094654DA6FA4F5409B","title":"曼哈顿(外滩)商务酒店","lon":"121.48818","lat":"31.23942","category":"250","category_name":"公园户外","address":"黄浦区滇池路81-85号"},{"poiid":"B2094655D26DA3FE419B","title":"上海外滩花园酒店(南门)","lon":"121.48571","lat":"31.2361","category":"250","category_name":"公园户外","address":"上海市黄浦区汉口路200号（河南中路路口）"},{"poiid":"B2094757D469A7FA449C","title":"龙记茶餐厅 南京东路店","lon":"121.48559","lat":"31.23748","category":"257","category_name":"中餐厅","address":"黄浦区南京东路233号南京大楼5楼(近河南中路)"},{"poiid":"B2094757D16DA0FD429F","title":"苹果旗舰店南京东路","lon":"121.485093338","lat":"31.2374578541","category":"500","category_name":"未知分类","address":"上海南京东路300号"},{"poiid":"B2094751D36EA3F9459A","title":"云上云源生态云南菜","lon":"121.48562","lat":"31.23753","category":"76","category_name":"上海菜","address":"黄浦区南京东路233号南京大厦5楼(近河南路)"},{"poiid":"B2094752D56EA0FF4498","title":"Deli & Leisure","lon":"121.488318","lat":"31.239285","category":"247","category_name":"餐饮美食","address":null},{"poiid":"B2094757D06FABF5429F","title":"新发记港式茶餐厅","lon":"121.4876","lat":"31.23866","category":"72","category_name":"广东菜","address":"上海黄浦区四川中路417号(近南京东路)"},{"poiid":"B2094751D56BA3F9469E","title":"南麓浙里","lon":"121.488525","lat":"31.235992","category":"76","category_name":"上海菜","address":"黄浦区四川中路216号(近福州路)"},{"poiid":"B2094654DA6FA4FB4199","title":"香港仔码头茶餐厅(河南中路店)","lon":"121.48529","lat":"31.2369","category":"72","category_name":"广东菜","address":"上海黄浦区河南中路368号(近南京东路)"},{"poiid":"B2094654DA6FA4FB4598","title":"申华金融大厦","lon":"121.48691","lat":"31.23962","category":"46","category_name":"楼宇","address":"浦东临港新城主城区申港大道200号"},{"poiid":"B2094757DA6FA3F5499C","title":"金装大家乐茶餐厅(南京东路店)","lon":"121.487614100001","lat":"31.2384557","category":"72","category_name":"广东菜","address":"黄浦区南京东路300号名人购物中心3楼(近苹果南京路旗舰店)"},{"poiid":"B2094757D06AA5FA4993","title":"华东建筑设计研究院有限公司","lon":"121.487157492","lat":"31.2361457026","category":"46","category_name":"楼宇","address":"上海市黄浦区汉口路151号"},{"poiid":"B2094757D068A4FC409D","title":"外滩花园酒店","lon":"121.48874013","lat":"31.236291039","category":"74","category_name":"江苏菜","address":"黄浦区汉口路200号(近河南中路)"},{"poiid":"B2094654DB69A4F4479A","title":"九江路营业厅","lon":"121.48819","lat":"31.23781","category":"151","category_name":"电讯营业厅","address":"黄浦区四川中路324号"},{"poiid":"B2094757D064A1FF429E","title":"立信会计师事务所(特殊普通合伙)","lon":"121.488855538","lat":"31.2386172788","category":"500","category_name":"未知分类","address":"南京东路61号新黄浦金融大厦"},{"poiid":"B2094654DA6FAAF8449F","title":"福申大厦","lon":"121.489","lat":"31.2377","category":"46","category_name":"楼宇","address":"行宫位于沈河北站一路41号"},{"poiid":"B2094757D068A3FB469A","title":"交通银行上海市分行","lon":"121.487329","lat":"31.235579","category":"46","category_name":"楼宇","address":"上海黄浦区江西中路200号"},{"poiid":"B2094750D66DA2F8449D","title":"上海火车站","lon":"121.488983","lat":"31.237527","category":"500","category_name":"未知分类","address":null},{"poiid":"B2094757D064A7F8469D","title":"和平饭店和平厅","lon":"121.48885773","lat":"31.238736481","category":"500","category_name":"未知分类","address":"黄浦区南京东路20号和平饭店"},{"poiid":"B2094751D468ABFB469B","title":"环球金融中心100层","lon":"121.486472","lat":"31.236774","category":"500","category_name":"未知分类","address":null},{"poiid":"B2094757D069A6F4479B","title":"上海市民政局","lon":"121.48800659","lat":"31.236328125","category":"252","category_name":"楼宇机构","address":"上海江西中路215号汉口路口"},{"poiid":"B2094757D064ABFE4899","title":"中国银行外滩多媒体教室","lon":"121.48706973","lat":"31.23868248","category":"500","category_name":"未知分类","address":"上海滇池路74号540室"},{"poiid":"B2094757D568A2FB4692","title":"外滩新界","lon":"121.4883339","lat":"31.23850806","category":"47","category_name":"住宅区","address":"黄浦区南京东路61号"},{"poiid":"B2094655D26BA4F8489F","title":"外滩艺术馆(边门)","lon":"121.4864","lat":"31.23599","category":"183","category_name":"展览馆","address":"汉口路193"},{"poiid":"B2094757D16DA3FA469C","title":"大块头面菜馆","lon":"121.485606738","lat":"31.2383654735","category":"68","category_name":"快餐厅","address":"黄浦区宁波路190号(近河南中路)"},{"poiid":"B2094655D26FA6FB4898","title":"美伦大楼","lon":"121.48694","lat":"31.23808","category":"46","category_name":"楼宇","address":"昌平区回龙观镇国际信息产业基地高新二街"},{"poiid":"B2094750D76CA6FC489E","title":"AnnaBanana爱酸奶(南京东路店)","lon":"121.485","lat":"31.2376","category":"68","category_name":"快餐厅","address":"南京东路300号名人购物中心1楼L115室(近河南中路)"},{"poiid":"B2094757D06AAAFE4699","title":"49路汉口路江西中路终点站","lon":"121.48606126","lat":"31.236072386","category":"38","category_name":"公交车站","address":"上海黄浦区汉口路201号(对面)"},{"poiid":"B2094655D36CA7F9459C","title":"河南中路南京东路","lon":"121.48531","lat":"31.23659","category":"38","category_name":"公交车站","address":""},{"poiid":"B2094750D26FA7FC409C","title":"龙之梦","lon":"121.489173","lat":"31.238418","category":"248","category_name":"生活娱乐","address":"虹口"},{"poiid":"B2094757D064A1FD469F","title":"外滩名店 The Bund Plaza","lon":"121.48541","lat":"31.23746","category":"119","category_name":"商场","address":"上海黄浦区南京东路233号(河南中路口)"},{"poiid":"B2094655D268ABFE4098","title":"中央商场","lon":"121.4876","lat":"31.23832","category":"119","category_name":"商场","address":"黄浦区南京东路119号B楼1室(南京东路四川中路)"},{"poiid":"B2094757D469A7FC4693","title":"田仓米粉 四川中路店","lon":"121.487229054","lat":"31.239221793","category":"68","category_name":"快餐厅","address":"黄浦区四川中路429号(近南京东路)"},{"poiid":"B2094750DB68A5FE4192","title":"Forever21","lon":"121.484977","lat":"31.237642","category":"500","category_name":"未知分类","address":null},{"poiid":"B2094654DA6FA4F44293","title":"中国工商银行上海市黄浦支行","lon":"121.48806","lat":"31.23813","category":"150","category_name":"银行","address":"黄浦区南京东路99号四川中路口(南京东路四川中路)"},{"poiid":"B2094753DA65A7FA439F","title":"东方明珠塔","lon":"121.486999","lat":"31.2359","category":"500","category_name":"未知分类","address":"上海市 上海市东方明珠塔"},{"poiid":"B2094757D06AAAFB4393","title":"上海市文化广播影视管理局","lon":"121.48869379","lat":"31.236775364","category":"500","category_name":"未知分类","address":"上海四川中路276号"},{"poiid":"B2094757D16FAAFF489D","title":"滇池路","lon":"121.488587738","lat":"31.2387532817","category":"500","category_name":"未知分类","address":"上海56号"},{"poiid":"B2094654DA6FA4F4439A","title":"嘉陵大楼","lon":"121.48806","lat":"31.23812","category":"46","category_name":"楼宇","address":"嘉定区阿克苏路1187号"},{"poiid":"B2094757D46BA4F9459C","title":"和平饭店西餐厅","lon":"121.48899321933","lat":"31.238868788609","category":"101","category_name":"美式风味","address":"南京东路20号平饭店南楼底楼近中山东一路"},{"poiid":"B2094654DA6FA4F4479F","title":"工联大厦","lon":"121.48802","lat":"31.23879","category":"46","category_name":"楼宇","address":"上海市长宁区延安西路889号"},{"poiid":"B2094654DA6FA4F9419E","title":"安利大楼","lon":"121.48832","lat":"31.23756","category":"46","category_name":"楼宇","address":"沈河北站路与北京街的交汇处"},{"poiid":"B2094655D26EA2FB4198","title":"德大西餐社","lon":"121.48763","lat":"31.23826","category":"247","category_name":"餐饮美食","address":"黄浦区四川中路359号"},{"poiid":"B2094655D26DA3FE4093","title":"爱建金融大楼","lon":"121.48801","lat":"31.23662","category":"46","category_name":"楼宇","address":"广益路与江海东路交汇处(五洲·中华美食城)"},{"poiid":"B2094757DA69A3F44592","title":"甲泰餐厅","lon":"121.48598641005","lat":"31.239524260517","category":"99","category_name":"泰国／越南菜品餐厅","address":"黄浦区宁波路51号(近江西中路)"},{"poiid":"B2094654DA6FAAFD499A","title":"港泰广场","lon":"121.486","lat":"31.2358","category":"46","category_name":"楼宇","address":"延安东路700号"},{"poiid":"B2094654DA6FABFA4398","title":"世界贸易大厦","lon":"121.48850902222","lat":"31.238273726782","category":"46","category_name":"楼宇","address":"格林SOHO位于和平十三纬路云集街10号甲(东北炊具城西侧)"},{"poiid":"B209475CD564A7F84292","title":"上海滩新天地店","lon":"121.47463","lat":"31.22164","category":"119","category_name":"商场","address":"\"太仓路181弄新天地北里15号\r\n\""},{"poiid":"B209475CD564A7F84392","title":"上海滩浦东香格里拉店","lon":"121.50058","lat":"31.23634","category":"119","category_name":"商场","address":"浦东富成路33号香格里拉酒店内大堂层"},{"poiid":"B2094757D068A4F9469A","title":"成隆行蟹王府","lon":"121.485942537","lat":"31.2369416306","category":"257","category_name":"中餐厅","address":"黄浦区九江路216号(河南中路口)"},{"poiid":"B2094654DA6FA4F5409B","title":"曼哈顿(外滩)商务酒店","lon":"121.48818","lat":"31.23942","category":"250","category_name":"公园户外","address":"黄浦区滇池路81-85号"},{"poiid":"B2094655D26DA3FE419B","title":"上海外滩花园酒店(南门)","lon":"121.48571","lat":"31.2361","category":"250","category_name":"公园户外","address":"上海市黄浦区汉口路200号（河南中路路口）"},{"poiid":"B2094757D469A7FA449C","title":"龙记茶餐厅 南京东路店","lon":"121.48559","lat":"31.23748","category":"257","category_name":"中餐厅","address":"黄浦区南京东路233号南京大楼5楼(近河南中路)"},{"poiid":"B2094757D16DA0FD429F","title":"苹果旗舰店南京东路","lon":"121.485093338","lat":"31.2374578541","category":"500","category_name":"未知分类","address":"上海南京东路300号"},{"poiid":"B2094751D36EA3F9459A","title":"云上云源生态云南菜","lon":"121.48562","lat":"31.23753","category":"76","category_name":"上海菜","address":"黄浦区南京东路233号南京大厦5楼(近河南路)"},{"poiid":"B2094752D56EA0FF4498","title":"Deli & Leisure","lon":"121.488318","lat":"31.239285","category":"247","category_name":"餐饮美食","address":null},{"poiid":"B2094757D06FABF5429F","title":"新发记港式茶餐厅","lon":"121.4876","lat":"31.23866","category":"72","category_name":"广东菜","address":"上海黄浦区四川中路417号(近南京东路)"},{"poiid":"B2094751D56BA3F9469E","title":"南麓浙里","lon":"121.488525","lat":"31.235992","category":"76","category_name":"上海菜","address":"黄浦区四川中路216号(近福州路)"},{"poiid":"B2094654DA6FA4FB4199","title":"香港仔码头茶餐厅(河南中路店)","lon":"121.48529","lat":"31.2369","category":"72","category_name":"广东菜","address":"上海黄浦区河南中路368号(近南京东路)"},{"poiid":"B2094654DA6FA4FB4598","title":"申华金融大厦","lon":"121.48691","lat":"31.23962","category":"46","category_name":"楼宇","address":"浦东临港新城主城区申港大道200号"},{"poiid":"B2094757DA6FA3F5499C","title":"金装大家乐茶餐厅(南京东路店)","lon":"121.487614100001","lat":"31.2384557","category":"72","category_name":"广东菜","address":"黄浦区南京东路300号名人购物中心3楼(近苹果南京路旗舰店)"},{"poiid":"B2094757D06AA5FA4993","title":"华东建筑设计研究院有限公司","lon":"121.487157492","lat":"31.2361457026","category":"46","category_name":"楼宇","address":"上海市黄浦区汉口路151号"},{"poiid":"B2094757D068A4FC409D","title":"外滩花园酒店","lon":"121.48874013","lat":"31.236291039","category":"74","category_name":"江苏菜","address":"黄浦区汉口路200号(近河南中路)"},{"poiid":"B2094654DB69A4F4479A","title":"九江路营业厅","lon":"121.48819","lat":"31.23781","category":"151","category_name":"电讯营业厅","address":"黄浦区四川中路324号"},{"poiid":"B2094757D064A1FF429E","title":"立信会计师事务所(特殊普通合伙)","lon":"121.488855538","lat":"31.2386172788","category":"500","category_name":"未知分类","address":"南京东路61号新黄浦金融大厦"},{"poiid":"B2094654DA6FAAF8449F","title":"福申大厦","lon":"121.489","lat":"31.2377","category":"46","category_name":"楼宇","address":"行宫位于沈河北站一路41号"},{"poiid":"B2094757D068A3FB469A","title":"交通银行上海市分行","lon":"121.487329","lat":"31.235579","category":"46","category_name":"楼宇","address":"上海黄浦区江西中路200号"},{"poiid":"B2094750D66DA2F8449D","title":"上海火车站","lon":"121.488983","lat":"31.237527","category":"500","category_name":"未知分类","address":null},{"poiid":"B2094757D064A7F8469D","title":"和平饭店和平厅","lon":"121.48885773","lat":"31.238736481","category":"500","category_name":"未知分类","address":"黄浦区南京东路20号和平饭店"},{"poiid":"B2094751D468ABFB469B","title":"环球金融中心100层","lon":"121.486472","lat":"31.236774","category":"500","category_name":"未知分类","address":null},{"poiid":"B2094757D069A6F4479B","title":"上海市民政局","lon":"121.48800659","lat":"31.236328125","category":"252","category_name":"楼宇机构","address":"上海江西中路215号汉口路口"},{"poiid":"B2094757D064ABFE4899","title":"中国银行外滩多媒体教室","lon":"121.48706973","lat":"31.23868248","category":"500","category_name":"未知分类","address":"上海滇池路74号540室"},{"poiid":"B2094757D568A2FB4692","title":"外滩新界","lon":"121.4883339","lat":"31.23850806","category":"47","category_name":"住宅区","address":"黄浦区南京东路61号"},{"poiid":"B2094655D26BA4F8489F","title":"外滩艺术馆(边门)","lon":"121.4864","lat":"31.23599","category":"183","category_name":"展览馆","address":"汉口路193"},{"poiid":"B2094757D16DA3FA469C","title":"大块头面菜馆","lon":"121.485606738","lat":"31.2383654735","category":"68","category_name":"快餐厅","address":"黄浦区宁波路190号(近河南中路)"},{"poiid":"B2094655D26FA6FB4898","title":"美伦大楼","lon":"121.48694","lat":"31.23808","category":"46","category_name":"楼宇","address":"昌平区回龙观镇国际信息产业基地高新二街"},{"poiid":"B2094750D76CA6FC489E","title":"AnnaBanana爱酸奶(南京东路店)","lon":"121.485","lat":"31.2376","category":"68","category_name":"快餐厅","address":"南京东路300号名人购物中心1楼L115室(近河南中路)"},{"poiid":"B2094757D06AAAFE4699","title":"49路汉口路江西中路终点站","lon":"121.48606126","lat":"31.236072386","category":"38","category_name":"公交车站","address":"上海黄浦区汉口路201号(对面)"},{"poiid":"B2094655D36CA7F9459C","title":"河南中路南京东路","lon":"121.48531","lat":"31.23659","category":"38","category_name":"公交车站","address":""},{"poiid":"B2094750D26FA7FC409C","title":"龙之梦","lon":"121.489173","lat":"31.238418","category":"248","category_name":"生活娱乐","address":"虹口"},{"poiid":"B2094757D064A1FD469F","title":"外滩名店 The Bund Plaza","lon":"121.48541","lat":"31.23746","category":"119","category_name":"商场","address":"上海黄浦区南京东路233号(河南中路口)"},{"poiid":"B2094655D268ABFE4098","title":"中央商场","lon":"121.4876","lat":"31.23832","category":"119","category_name":"商场","address":"黄浦区南京东路119号B楼1室(南京东路四川中路)"},{"poiid":"B2094757D469A7FC4693","title":"田仓米粉 四川中路店","lon":"121.487229054","lat":"31.239221793","category":"68","category_name":"快餐厅","address":"黄浦区四川中路429号(近南京东路)"},{"poiid":"B2094750DB68A5FE4192","title":"Forever21","lon":"121.484977","lat":"31.237642","category":"500","category_name":"未知分类","address":null},{"poiid":"B2094654DA6FA4F44293","title":"中国工商银行上海市黄浦支行","lon":"121.48806","lat":"31.23813","category":"150","category_name":"银行","address":"黄浦区南京东路99号四川中路口(南京东路四川中路)"},{"poiid":"B2094753DA65A7FA439F","title":"东方明珠塔","lon":"121.486999","lat":"31.2359","category":"500","category_name":"未知分类","address":"上海市 上海市东方明珠塔"},{"poiid":"B2094757D06AAAFB4393","title":"上海市文化广播影视管理局","lon":"121.48869379","lat":"31.236775364","category":"500","category_name":"未知分类","address":"上海四川中路276号"},{"poiid":"B2094757D16FAAFF489D","title":"滇池路","lon":"121.488587738","lat":"31.2387532817","category":"500","category_name":"未知分类","address":"上海56号"},{"poiid":"B2094654DA6FA4F4439A","title":"嘉陵大楼","lon":"121.48806","lat":"31.23812","category":"46","category_name":"楼宇","address":"嘉定区阿克苏路1187号"},{"poiid":"B2094757D46BA4F9459C","title":"和平饭店西餐厅","lon":"121.48899321933","lat":"31.238868788609","category":"101","category_name":"美式风味","address":"南京东路20号平饭店南楼底楼近中山东一路"},{"poiid":"B2094654DA6FA4F4479F","title":"工联大厦","lon":"121.48802","lat":"31.23879","category":"46","category_name":"楼宇","address":"上海市长宁区延安西路889号"},{"poiid":"B2094654DA6FA4F9419E","title":"安利大楼","lon":"121.48832","lat":"31.23756","category":"46","category_name":"楼宇","address":"沈河北站路与北京街的交汇处"},{"poiid":"B2094655D26EA2FB4198","title":"德大西餐社","lon":"121.48763","lat":"31.23826","category":"247","category_name":"餐饮美食","address":"黄浦区四川中路359号"},{"poiid":"B2094655D26DA3FE4093","title":"爱建金融大楼","lon":"121.48801","lat":"31.23662","category":"46","category_name":"楼宇","address":"广益路与江海东路交汇处(五洲·中华美食城)"},{"poiid":"B2094757DA69A3F44592","title":"甲泰餐厅","lon":"121.48598641005","lat":"31.239524260517","category":"99","category_name":"泰国／越南菜品餐厅","address":"黄浦区宁波路51号(近江西中路)"},{"poiid":"B2094654DA6FAAFD499A","title":"港泰广场","lon":"121.486","lat":"31.2358","category":"46","category_name":"楼宇","address":"延安东路700号"},{"poiid":"B2094654DA6FABFA4398","title":"世界贸易大厦","lon":"121.48850902222","lat":"31.238273726782","category":"46","category_name":"楼宇","address":"格林SOHO位于和平十三纬路云集街10号甲(东北炊具城西侧)"},{"poiid":"B209475CD564A7F84292","title":"上海滩新天地店","lon":"121.47463","lat":"31.22164","category":"119","category_name":"商场","address":"\"太仓路181弄新天地北里15号\r\n\""},{"poiid":"B209475CD564A7F84392","title":"上海滩浦东香格里拉店","lon":"121.50058","lat":"31.23634","category":"119","category_name":"商场","address":"浦东富成路33号香格里拉酒店内大堂层"},{"poiid":"B2094757D068A4F9469A","title":"成隆行蟹王府","lon":"121.485942537","lat":"31.2369416306","category":"257","category_name":"中餐厅","address":"黄浦区九江路216号(河南中路口)"},{"poiid":"B2094654DA6FA4F5409B","title":"曼哈顿(外滩)商务酒店","lon":"121.48818","lat":"31.23942","category":"250","category_name":"公园户外","address":"黄浦区滇池路81-85号"},{"poiid":"B2094655D26DA3FE419B","title":"上海外滩花园酒店(南门)","lon":"121.48571","lat":"31.2361","category":"250","category_name":"公园户外","address":"上海市黄浦区汉口路200号（河南中路路口）"},{"poiid":"B2094757D469A7FA449C","title":"龙记茶餐厅 南京东路店","lon":"121.48559","lat":"31.23748","category":"257","category_name":"中餐厅","address":"黄浦区南京东路233号南京大楼5楼(近河南中路)"},{"poiid":"B2094757D16DA0FD429F","title":"苹果旗舰店南京东路","lon":"121.485093338","lat":"31.2374578541","category":"500","category_name":"未知分类","address":"上海南京东路300号"},{"poiid":"B2094751D36EA3F9459A","title":"云上云源生态云南菜","lon":"121.48562","lat":"31.23753","category":"76","category_name":"上海菜","address":"黄浦区南京东路233号南京大厦5楼(近河南路)"},{"poiid":"B2094752D56EA0FF4498","title":"Deli & Leisure","lon":"121.488318","lat":"31.239285","category":"247","category_name":"餐饮美食","address":null},{"poiid":"B2094757D06FABF5429F","title":"新发记港式茶餐厅","lon":"121.4876","lat":"31.23866","category":"72","category_name":"广东菜","address":"上海黄浦区四川中路417号(近南京东路)"},{"poiid":"B2094751D56BA3F9469E","title":"南麓浙里","lon":"121.488525","lat":"31.235992","category":"76","category_name":"上海菜","address":"黄浦区四川中路216号(近福州路)"},{"poiid":"B2094654DA6FA4FB4199","title":"香港仔码头茶餐厅(河南中路店)","lon":"121.48529","lat":"31.2369","category":"72","category_name":"广东菜","address":"上海黄浦区河南中路368号(近南京东路)"},{"poiid":"B2094654DA6FA4FB4598","title":"申华金融大厦","lon":"121.48691","lat":"31.23962","category":"46","category_name":"楼宇","address":"浦东临港新城主城区申港大道200号"},{"poiid":"B2094757DA6FA3F5499C","title":"金装大家乐茶餐厅(南京东路店)","lon":"121.487614100001","lat":"31.2384557","category":"72","category_name":"广东菜","address":"黄浦区南京东路300号名人购物中心3楼(近苹果南京路旗舰店)"},{"poiid":"B2094757D06AA5FA4993","title":"华东建筑设计研究院有限公司","lon":"121.487157492","lat":"31.2361457026","category":"46","category_name":"楼宇","address":"上海市黄浦区汉口路151号"},{"poiid":"B2094757D068A4FC409D","title":"外滩花园酒店","lon":"121.48874013","lat":"31.236291039","category":"74","category_name":"江苏菜","address":"黄浦区汉口路200号(近河南中路)"},{"poiid":"B2094654DB69A4F4479A","title":"九江路营业厅","lon":"121.48819","lat":"31.23781","category":"151","category_name":"电讯营业厅","address":"黄浦区四川中路324号"},{"poiid":"B2094757D064A1FF429E","title":"立信会计师事务所(特殊普通合伙)","lon":"121.488855538","lat":"31.2386172788","category":"500","category_name":"未知分类","address":"南京东路61号新黄浦金融大厦"},{"poiid":"B2094654DA6FAAF8449F","title":"福申大厦","lon":"121.489","lat":"31.2377","category":"46","category_name":"楼宇","address":"行宫位于沈河北站一路41号"},{"poiid":"B2094757D068A3FB469A","title":"交通银行上海市分行","lon":"121.487329","lat":"31.235579","category":"46","category_name":"楼宇","address":"上海黄浦区江西中路200号"},{"poiid":"B2094750D66DA2F8449D","title":"上海火车站","lon":"121.488983","lat":"31.237527","category":"500","category_name":"未知分类","address":null},{"poiid":"B2094757D064A7F8469D","title":"和平饭店和平厅","lon":"121.48885773","lat":"31.238736481","category":"500","category_name":"未知分类","address":"黄浦区南京东路20号和平饭店"},{"poiid":"B2094751D468ABFB469B","title":"环球金融中心100层","lon":"121.486472","lat":"31.236774","category":"500","category_name":"未知分类","address":null},{"poiid":"B2094757D069A6F4479B","title":"上海市民政局","lon":"121.48800659","lat":"31.236328125","category":"252","category_name":"楼宇机构","address":"上海江西中路215号汉口路口"},{"poiid":"B2094757D064ABFE4899","title":"中国银行外滩多媒体教室","lon":"121.48706973","lat":"31.23868248","category":"500","category_name":"未知分类","address":"上海滇池路74号540室"},{"poiid":"B2094757D568A2FB4692","title":"外滩新界","lon":"121.4883339","lat":"31.23850806","category":"47","category_name":"住宅区","address":"黄浦区南京东路61号"},{"poiid":"B2094655D26BA4F8489F","title":"外滩艺术馆(边门)","lon":"121.4864","lat":"31.23599","category":"183","category_name":"展览馆","address":"汉口路193"},{"poiid":"B2094757D16DA3FA469C","title":"大块头面菜馆","lon":"121.485606738","lat":"31.2383654735","category":"68","category_name":"快餐厅","address":"黄浦区宁波路190号(近河南中路)"},{"poiid":"B2094655D26FA6FB4898","title":"美伦大楼","lon":"121.48694","lat":"31.23808","category":"46","category_name":"楼宇","address":"昌平区回龙观镇国际信息产业基地高新二街"},{"poiid":"B2094750D76CA6FC489E","title":"AnnaBanana爱酸奶(南京东路店)","lon":"121.485","lat":"31.2376","category":"68","category_name":"快餐厅","address":"南京东路300号名人购物中心1楼L115室(近河南中路)"},{"poiid":"B2094757D06AAAFE4699","title":"49路汉口路江西中路终点站","lon":"121.48606126","lat":"31.236072386","category":"38","category_name":"公交车站","address":"上海黄浦区汉口路201号(对面)"},{"poiid":"B2094655D36CA7F9459C","title":"河南中路南京东路","lon":"121.48531","lat":"31.23659","category":"38","category_name":"公交车站","address":""},{"poiid":"B2094750D26FA7FC409C","title":"龙之梦","lon":"121.489173","lat":"31.238418","category":"248","category_name":"生活娱乐","address":"虹口"},{"poiid":"B2094757D064A1FD469F","title":"外滩名店 The Bund Plaza","lon":"121.48541","lat":"31.23746","category":"119","category_name":"商场","address":"上海黄浦区南京东路233号(河南中路口)"},{"poiid":"B2094655D268ABFE4098","title":"中央商场","lon":"121.4876","lat":"31.23832","category":"119","category_name":"商场","address":"黄浦区南京东路119号B楼1室(南京东路四川中路)"},{"poiid":"B2094757D469A7FC4693","title":"田仓米粉 四川中路店","lon":"121.487229054","lat":"31.239221793","category":"68","category_name":"快餐厅","address":"黄浦区四川中路429号(近南京东路)"},{"poiid":"B2094750DB68A5FE4192","title":"Forever21","lon":"121.484977","lat":"31.237642","category":"500","category_name":"未知分类","address":null},{"poiid":"B2094654DA6FA4F44293","title":"中国工商银行上海市黄浦支行","lon":"121.48806","lat":"31.23813","category":"150","category_name":"银行","address":"黄浦区南京东路99号四川中路口(南京东路四川中路)"},{"poiid":"B2094753DA65A7FA439F","title":"东方明珠塔","lon":"121.486999","lat":"31.2359","category":"500","category_name":"未知分类","address":"上海市 上海市东方明珠塔"},{"poiid":"B2094757D06AAAFB4393","title":"上海市文化广播影视管理局","lon":"121.48869379","lat":"31.236775364","category":"500","category_name":"未知分类","address":"上海四川中路276号"},{"poiid":"B2094757D16FAAFF489D","title":"滇池路","lon":"121.488587738","lat":"31.2387532817","category":"500","category_name":"未知分类","address":"上海56号"},{"poiid":"B2094654DA6FA4F4439A","title":"嘉陵大楼","lon":"121.48806","lat":"31.23812","category":"46","category_name":"楼宇","address":"嘉定区阿克苏路1187号"},{"poiid":"B2094757D46BA4F9459C","title":"和平饭店西餐厅","lon":"121.48899321933","lat":"31.238868788609","category":"101","category_name":"美式风味","address":"南京东路20号平饭店南楼底楼近中山东一路"},{"poiid":"B2094654DA6FA4F4479F","title":"工联大厦","lon":"121.48802","lat":"31.23879","category":"46","category_name":"楼宇","address":"上海市长宁区延安西路889号"},{"poiid":"B2094654DA6FA4F9419E","title":"安利大楼","lon":"121.48832","lat":"31.23756","category":"46","category_name":"楼宇","address":"沈河北站路与北京街的交汇处"},{"poiid":"B2094655D26EA2FB4198","title":"德大西餐社","lon":"121.48763","lat":"31.23826","category":"247","category_name":"餐饮美食","address":"黄浦区四川中路359号"},{"poiid":"B2094655D26DA3FE4093","title":"爱建金融大楼","lon":"121.48801","lat":"31.23662","category":"46","category_name":"楼宇","address":"广益路与江海东路交汇处(五洲·中华美食城)"},{"poiid":"B2094757DA69A3F44592","title":"甲泰餐厅","lon":"121.48598641005","lat":"31.239524260517","category":"99","category_name":"泰国／越南菜品餐厅","address":"黄浦区宁波路51号(近江西中路)"},{"poiid":"B2094654DA6FAAFD499A","title":"港泰广场","lon":"121.486","lat":"31.2358","category":"46","category_name":"楼宇","address":"延安东路700号"},{"poiid":"B2094654DA6FABFA4398","title":"世界贸易大厦","lon":"121.48850902222","lat":"31.238273726782","category":"46","category_name":"楼宇","address":"格林SOHO位于和平十三纬路云集街10号甲(东北炊具城西侧)"},{"poiid":"B209475CD564A7F84292","title":"上海滩新天地店","lon":"121.47463","lat":"31.22164","category":"119","category_name":"商场","address":"\"太仓路181弄新天地北里15号\r\n\""},{"poiid":"B209475CD564A7F84392","title":"上海滩浦东香格里拉店","lon":"121.50058","lat":"31.23634","category":"119","category_name":"商场","address":"浦东富成路33号香格里拉酒店内大堂层"},{"poiid":"B2094757D068A4F9469A","title":"成隆行蟹王府","lon":"121.485942537","lat":"31.2369416306","category":"257","category_name":"中餐厅","address":"黄浦区九江路216号(河南中路口)"},{"poiid":"B2094654DA6FA4F5409B","title":"曼哈顿(外滩)商务酒店","lon":"121.48818","lat":"31.23942","category":"250","category_name":"公园户外","address":"黄浦区滇池路81-85号"},{"poiid":"B2094655D26DA3FE419B","title":"上海外滩花园酒店(南门)","lon":"121.48571","lat":"31.2361","category":"250","category_name":"公园户外","address":"上海市黄浦区汉口路200号（河南中路路口）"},{"poiid":"B2094757D469A7FA449C","title":"龙记茶餐厅 南京东路店","lon":"121.48559","lat":"31.23748","category":"257","category_name":"中餐厅","address":"黄浦区南京东路233号南京大楼5楼(近河南中路)"},{"poiid":"B2094757D16DA0FD429F","title":"苹果旗舰店南京东路","lon":"121.485093338","lat":"31.2374578541","category":"500","category_name":"未知分类","address":"上海南京东路300号"},{"poiid":"B2094751D36EA3F9459A","title":"云上云源生态云南菜","lon":"121.48562","lat":"31.23753","category":"76","category_name":"上海菜","address":"黄浦区南京东路233号南京大厦5楼(近河南路)"},{"poiid":"B2094752D56EA0FF4498","title":"Deli & Leisure","lon":"121.488318","lat":"31.239285","category":"247","category_name":"餐饮美食","address":null},{"poiid":"B2094757D06FABF5429F","title":"新发记港式茶餐厅","lon":"121.4876","lat":"31.23866","category":"72","category_name":"广东菜","address":"上海黄浦区四川中路417号(近南京东路)"},{"poiid":"B2094751D56BA3F9469E","title":"南麓浙里","lon":"121.488525","lat":"31.235992","category":"76","category_name":"上海菜","address":"黄浦区四川中路216号(近福州路)"},{"poiid":"B2094654DA6FA4FB4199","title":"香港仔码头茶餐厅(河南中路店)","lon":"121.48529","lat":"31.2369","category":"72","category_name":"广东菜","address":"上海黄浦区河南中路368号(近南京东路)"},{"poiid":"B2094654DA6FA4FB4598","title":"申华金融大厦","lon":"121.48691","lat":"31.23962","category":"46","category_name":"楼宇","address":"浦东临港新城主城区申港大道200号"},{"poiid":"B2094757DA6FA3F5499C","title":"金装大家乐茶餐厅(南京东路店)","lon":"121.487614100001","lat":"31.2384557","category":"72","category_name":"广东菜","address":"黄浦区南京东路300号名人购物中心3楼(近苹果南京路旗舰店)"},{"poiid":"B2094757D06AA5FA4993","title":"华东建筑设计研究院有限公司","lon":"121.487157492","lat":"31.2361457026","category":"46","category_name":"楼宇","address":"上海市黄浦区汉口路151号"},{"poiid":"B2094757D068A4FC409D","title":"外滩花园酒店","lon":"121.48874013","lat":"31.236291039","category":"74","category_name":"江苏菜","address":"黄浦区汉口路200号(近河南中路)"},{"poiid":"B2094654DB69A4F4479A","title":"九江路营业厅","lon":"121.48819","lat":"31.23781","category":"151","category_name":"电讯营业厅","address":"黄浦区四川中路324号"},{"poiid":"B2094757D064A1FF429E","title":"立信会计师事务所(特殊普通合伙)","lon":"121.488855538","lat":"31.2386172788","category":"500","category_name":"未知分类","address":"南京东路61号新黄浦金融大厦"},{"poiid":"B2094654DA6FAAF8449F","title":"福申大厦","lon":"121.489","lat":"31.2377","category":"46","category_name":"楼宇","address":"行宫位于沈河北站一路41号"},{"poiid":"B2094757D068A3FB469A","title":"交通银行上海市分行","lon":"121.487329","lat":"31.235579","category":"46","category_name":"楼宇","address":"上海黄浦区江西中路200号"},{"poiid":"B2094750D66DA2F8449D","title":"上海火车站","lon":"121.488983","lat":"31.237527","category":"500","category_name":"未知分类","address":null},{"poiid":"B2094757D064A7F8469D","title":"和平饭店和平厅","lon":"121.48885773","lat":"31.238736481","category":"500","category_name":"未知分类","address":"黄浦区南京东路20号和平饭店"},{"poiid":"B2094751D468ABFB469B","title":"环球金融中心100层","lon":"121.486472","lat":"31.236774","category":"500","category_name":"未知分类","address":null},{"poiid":"B2094757D069A6F4479B","title":"上海市民政局","lon":"121.48800659","lat":"31.236328125","category":"252","category_name":"楼宇机构","address":"上海江西中路215号汉口路口"},{"poiid":"B2094757D064ABFE4899","title":"中国银行外滩多媒体教室","lon":"121.48706973","lat":"31.23868248","category":"500","category_name":"未知分类","address":"上海滇池路74号540室"},{"poiid":"B2094757D568A2FB4692","title":"外滩新界","lon":"121.4883339","lat":"31.23850806","category":"47","category_name":"住宅区","address":"黄浦区南京东路61号"},{"poiid":"B2094655D26BA4F8489F","title":"外滩艺术馆(边门)","lon":"121.4864","lat":"31.23599","category":"183","category_name":"展览馆","address":"汉口路193"},{"poiid":"B2094757D16DA3FA469C","title":"大块头面菜馆","lon":"121.485606738","lat":"31.2383654735","category":"68","category_name":"快餐厅","address":"黄浦区宁波路190号(近河南中路)"},{"poiid":"B2094655D26FA6FB4898","title":"美伦大楼","lon":"121.48694","lat":"31.23808","category":"46","category_name":"楼宇","address":"昌平区回龙观镇国际信息产业基地高新二街"},{"poiid":"B2094750D76CA6FC489E","title":"AnnaBanana爱酸奶(南京东路店)","lon":"121.485","lat":"31.2376","category":"68","category_name":"快餐厅","address":"南京东路300号名人购物中心1楼L115室(近河南中路)"},{"poiid":"B2094757D06AAAFE4699","title":"49路汉口路江西中路终点站","lon":"121.48606126","lat":"31.236072386","category":"38","category_name":"公交车站","address":"上海黄浦区汉口路201号(对面)"},{"poiid":"B2094655D36CA7F9459C","title":"河南中路南京东路","lon":"121.48531","lat":"31.23659","category":"38","category_name":"公交车站","address":""},{"poiid":"B2094750D26FA7FC409C","title":"龙之梦","lon":"121.489173","lat":"31.238418","category":"248","category_name":"生活娱乐","address":"虹口"},{"poiid":"B2094757D064A1FD469F","title":"外滩名店 The Bund Plaza","lon":"121.48541","lat":"31.23746","category":"119","category_name":"商场","address":"上海黄浦区南京东路233号(河南中路口)"},{"poiid":"B2094655D268ABFE4098","title":"中央商场","lon":"121.4876","lat":"31.23832","category":"119","category_name":"商场","address":"黄浦区南京东路119号B楼1室(南京东路四川中路)"},{"poiid":"B2094757D469A7FC4693","title":"田仓米粉 四川中路店","lon":"121.487229054","lat":"31.239221793","category":"68","category_name":"快餐厅","address":"黄浦区四川中路429号(近南京东路)"},{"poiid":"B2094750DB68A5FE4192","title":"Forever21","lon":"121.484977","lat":"31.237642","category":"500","category_name":"未知分类","address":null},{"poiid":"B2094654DA6FA4F44293","title":"中国工商银行上海市黄浦支行","lon":"121.48806","lat":"31.23813","category":"150","category_name":"银行","address":"黄浦区南京东路99号四川中路口(南京东路四川中路)"},{"poiid":"B2094753DA65A7FA439F","title":"东方明珠塔","lon":"121.486999","lat":"31.2359","category":"500","category_name":"未知分类","address":"上海市 上海市东方明珠塔"},{"poiid":"B2094757D06AAAFB4393","title":"上海市文化广播影视管理局","lon":"121.48869379","lat":"31.236775364","category":"500","category_name":"未知分类","address":"上海四川中路276号"},{"poiid":"B2094757D16FAAFF489D","title":"滇池路","lon":"121.488587738","lat":"31.2387532817","category":"500","category_name":"未知分类","address":"上海56号"},{"poiid":"B2094654DA6FA4F4439A","title":"嘉陵大楼","lon":"121.48806","lat":"31.23812","category":"46","category_name":"楼宇","address":"嘉定区阿克苏路1187号"},{"poiid":"B2094757D46BA4F9459C","title":"和平饭店西餐厅","lon":"121.48899321933","lat":"31.238868788609","category":"101","category_name":"美式风味","address":"南京东路20号平饭店南楼底楼近中山东一路"},{"poiid":"B2094654DA6FA4F4479F","title":"工联大厦","lon":"121.48802","lat":"31.23879","category":"46","category_name":"楼宇","address":"上海市长宁区延安西路889号"},{"poiid":"B2094654DA6FA4F9419E","title":"安利大楼","lon":"121.48832","lat":"31.23756","category":"46","category_name":"楼宇","address":"沈河北站路与北京街的交汇处"},{"poiid":"B2094655D26EA2FB4198","title":"德大西餐社","lon":"121.48763","lat":"31.23826","category":"247","category_name":"餐饮美食","address":"黄浦区四川中路359号"},{"poiid":"B2094655D26DA3FE4093","title":"爱建金融大楼","lon":"121.48801","lat":"31.23662","category":"46","category_name":"楼宇","address":"广益路与江海东路交汇处(五洲·中华美食城)"},{"poiid":"B2094757DA69A3F44592","title":"甲泰餐厅","lon":"121.48598641005","lat":"31.239524260517","category":"99","category_name":"泰国／越南菜品餐厅","address":"黄浦区宁波路51号(近江西中路)"},{"poiid":"B2094654DA6FAAFD499A","title":"港泰广场","lon":"121.486","lat":"31.2358","category":"46","category_name":"楼宇","address":"延安东路700号"},{"poiid":"B2094654DA6FABFA4398","title":"世界贸易大厦","lon":"121.48850902222","lat":"31.238273726782","category":"46","category_name":"楼宇","address":"格林SOHO位于和平十三纬路云集街10号甲(东北炊具城西侧)"},{"poiid":"B209475CD564A7F84292","title":"上海滩新天地店","lon":"121.47463","lat":"31.22164","category":"119","category_name":"商场","address":"\"太仓路181弄新天地北里15号\r\n\""},{"poiid":"B209475CD564A7F84392","title":"上海滩浦东香格里拉店","lon":"121.50058","lat":"31.23634","category":"119","category_name":"商场","address":"浦东富成路33号香格里拉酒店内大堂层"},{"poiid":"B2094757D068A4F9469A","title":"成隆行蟹王府","lon":"121.485942537","lat":"31.2369416306","category":"257","category_name":"中餐厅","address":"黄浦区九江路216号(河南中路口)"},{"poiid":"B2094654DA6FA4F5409B","title":"曼哈顿(外滩)商务酒店","lon":"121.48818","lat":"31.23942","category":"250","category_name":"公园户外","address":"黄浦区滇池路81-85号"},{"poiid":"B2094655D26DA3FE419B","title":"上海外滩花园酒店(南门)","lon":"121.48571","lat":"31.2361","category":"250","category_name":"公园户外","address":"上海市黄浦区汉口路200号（河南中路路口）"},{"poiid":"B2094757D469A7FA449C","title":"龙记茶餐厅 南京东路店","lon":"121.48559","lat":"31.23748","category":"257","category_name":"中餐厅","address":"黄浦区南京东路233号南京大楼5楼(近河南中路)"},{"poiid":"B2094757D16DA0FD429F","title":"苹果旗舰店南京东路","lon":"121.485093338","lat":"31.2374578541","category":"500","category_name":"未知分类","address":"上海南京东路300号"},{"poiid":"B2094751D36EA3F9459A","title":"云上云源生态云南菜","lon":"121.48562","lat":"31.23753","category":"76","category_name":"上海菜","address":"黄浦区南京东路233号南京大厦5楼(近河南路)"},{"poiid":"B2094752D56EA0FF4498","title":"Deli & Leisure","lon":"121.488318","lat":"31.239285","category":"247","category_name":"餐饮美食","address":null},{"poiid":"B2094757D06FABF5429F","title":"新发记港式茶餐厅","lon":"121.4876","lat":"31.23866","category":"72","category_name":"广东菜","address":"上海黄浦区四川中路417号(近南京东路)"},{"poiid":"B2094751D56BA3F9469E","title":"南麓浙里","lon":"121.488525","lat":"31.235992","category":"76","category_name":"上海菜","address":"黄浦区四川中路216号(近福州路)"},{"poiid":"B2094654DA6FA4FB4199","title":"香港仔码头茶餐厅(河南中路店)","lon":"121.48529","lat":"31.2369","category":"72","category_name":"广东菜","address":"上海黄浦区河南中路368号(近南京东路)"},{"poiid":"B2094654DA6FA4FB4598","title":"申华金融大厦","lon":"121.48691","lat":"31.23962","category":"46","category_name":"楼宇","address":"浦东临港新城主城区申港大道200号"},{"poiid":"B2094757DA6FA3F5499C","title":"金装大家乐茶餐厅(南京东路店)","lon":"121.487614100001","lat":"31.2384557","category":"72","category_name":"广东菜","address":"黄浦区南京东路300号名人购物中心3楼(近苹果南京路旗舰店)"},{"poiid":"B2094757D06AA5FA4993","title":"华东建筑设计研究院有限公司","lon":"121.487157492","lat":"31.2361457026","category":"46","category_name":"楼宇","address":"上海市黄浦区汉口路151号"},{"poiid":"B2094757D068A4FC409D","title":"外滩花园酒店","lon":"121.48874013","lat":"31.236291039","category":"74","category_name":"江苏菜","address":"黄浦区汉口路200号(近河南中路)"},{"poiid":"B2094654DB69A4F4479A","title":"九江路营业厅","lon":"121.48819","lat":"31.23781","category":"151","category_name":"电讯营业厅","address":"黄浦区四川中路324号"},{"poiid":"B2094757D064A1FF429E","title":"立信会计师事务所(特殊普通合伙)","lon":"121.488855538","lat":"31.2386172788","category":"500","category_name":"未知分类","address":"南京东路61号新黄浦金融大厦"},{"poiid":"B2094654DA6FAAF8449F","title":"福申大厦","lon":"121.489","lat":"31.2377","category":"46","category_name":"楼宇","address":"行宫位于沈河北站一路41号"},{"poiid":"B2094757D068A3FB469A","title":"交通银行上海市分行","lon":"121.487329","lat":"31.235579","category":"46","category_name":"楼宇","address":"上海黄浦区江西中路200号"},{"poiid":"B2094750D66DA2F8449D","title":"上海火车站","lon":"121.488983","lat":"31.237527","category":"500","category_name":"未知分类","address":null},{"poiid":"B2094757D064A7F8469D","title":"和平饭店和平厅","lon":"121.48885773","lat":"31.238736481","category":"500","category_name":"未知分类","address":"黄浦区南京东路20号和平饭店"},{"poiid":"B2094751D468ABFB469B","title":"环球金融中心100层","lon":"121.486472","lat":"31.236774","category":"500","category_name":"未知分类","address":null},{"poiid":"B2094757D069A6F4479B","title":"上海市民政局","lon":"121.48800659","lat":"31.236328125","category":"252","category_name":"楼宇机构","address":"上海江西中路215号汉口路口"},{"poiid":"B2094757D064ABFE4899","title":"中国银行外滩多媒体教室","lon":"121.48706973","lat":"31.23868248","category":"500","category_name":"未知分类","address":"上海滇池路74号540室"},{"poiid":"B2094757D568A2FB4692","title":"外滩新界","lon":"121.4883339","lat":"31.23850806","category":"47","category_name":"住宅区","address":"黄浦区南京东路61号"},{"poiid":"B2094655D26BA4F8489F","title":"外滩艺术馆(边门)","lon":"121.4864","lat":"31.23599","category":"183","category_name":"展览馆","address":"汉口路193"},{"poiid":"B2094757D16DA3FA469C","title":"大块头面菜馆","lon":"121.485606738","lat":"31.2383654735","category":"68","category_name":"快餐厅","address":"黄浦区宁波路190号(近河南中路)"},{"poiid":"B2094655D26FA6FB4898","title":"美伦大楼","lon":"121.48694","lat":"31.23808","category":"46","category_name":"楼宇","address":"昌平区回龙观镇国际信息产业基地高新二街"},{"poiid":"B2094750D76CA6FC489E","title":"AnnaBanana爱酸奶(南京东路店)","lon":"121.485","lat":"31.2376","category":"68","category_name":"快餐厅","address":"南京东路300号名人购物中心1楼L115室(近河南中路)"},{"poiid":"B2094757D06AAAFE4699","title":"49路汉口路江西中路终点站","lon":"121.48606126","lat":"31.236072386","category":"38","category_name":"公交车站","address":"上海黄浦区汉口路201号(对面)"},{"poiid":"B2094655D36CA7F9459C","title":"河南中路南京东路","lon":"121.48531","lat":"31.23659","category":"38","category_name":"公交车站","address":""},{"poiid":"B2094750D26FA7FC409C","title":"龙之梦","lon":"121.489173","lat":"31.238418","category":"248","category_name":"生活娱乐","address":"虹口"},{"poiid":"B2094757D064A1FD469F","title":"外滩名店 The Bund Plaza","lon":"121.48541","lat":"31.23746","category":"119","category_name":"商场","address":"上海黄浦区南京东路233号(河南中路口)"},{"poiid":"B2094655D268ABFE4098","title":"中央商场","lon":"121.4876","lat":"31.23832","category":"119","category_name":"商场","address":"黄浦区南京东路119号B楼1室(南京东路四川中路)"},{"poiid":"B2094757D469A7FC4693","title":"田仓米粉 四川中路店","lon":"121.487229054","lat":"31.239221793","category":"68","category_name":"快餐厅","address":"黄浦区四川中路429号(近南京东路)"},{"poiid":"B2094750DB68A5FE4192","title":"Forever21","lon":"121.484977","lat":"31.237642","category":"500","category_name":"未知分类","address":null},{"poiid":"B2094654DA6FA4F44293","title":"中国工商银行上海市黄浦支行","lon":"121.48806","lat":"31.23813","category":"150","category_name":"银行","address":"黄浦区南京东路99号四川中路口(南京东路四川中路)"},{"poiid":"B2094753DA65A7FA439F","title":"东方明珠塔","lon":"121.486999","lat":"31.2359","category":"500","category_name":"未知分类","address":"上海市 上海市东方明珠塔"},{"poiid":"B2094757D06AAAFB4393","title":"上海市文化广播影视管理局","lon":"121.48869379","lat":"31.236775364","category":"500","category_name":"未知分类","address":"上海四川中路276号"},{"poiid":"B2094757D16FAAFF489D","title":"滇池路","lon":"121.488587738","lat":"31.2387532817","category":"500","category_name":"未知分类","address":"上海56号"},{"poiid":"B2094654DA6FA4F4439A","title":"嘉陵大楼","lon":"121.48806","lat":"31.23812","category":"46","category_name":"楼宇","address":"嘉定区阿克苏路1187号"},{"poiid":"B2094757D46BA4F9459C","title":"和平饭店西餐厅","lon":"121.48899321933","lat":"31.238868788609","category":"101","category_name":"美式风味","address":"南京东路20号平饭店南楼底楼近中山东一路"},{"poiid":"B2094654DA6FA4F4479F","title":"工联大厦","lon":"121.48802","lat":"31.23879","category":"46","category_name":"楼宇","address":"上海市长宁区延安西路889号"},{"poiid":"B2094654DA6FA4F9419E","title":"安利大楼","lon":"121.48832","lat":"31.23756","category":"46","category_name":"楼宇","address":"沈河北站路与北京街的交汇处"},{"poiid":"B2094655D26EA2FB4198","title":"德大西餐社","lon":"121.48763","lat":"31.23826","category":"247","category_name":"餐饮美食","address":"黄浦区四川中路359号"},{"poiid":"B2094655D26DA3FE4093","title":"爱建金融大楼","lon":"121.48801","lat":"31.23662","category":"46","category_name":"楼宇","address":"广益路与江海东路交汇处(五洲·中华美食城)"}]