[{"poiid":"B2094757D064A1F4459F","title":"迪利特大酒店","lon":"121.23090626","lat":"31.2381837257","category":"217","category_name":"旅馆招待所","address":"青浦区华腾路288号(新府路口)"},{"poiid":"B2094757D66DA5FD4592","title":"青浦区","lon":"121.23249416","lat":"31.2441145001","category":"500","category_name":"未知分类","address":"上海华新镇"},{"poiid":"B2094757D06BA1FA4698","title":"富岛垂钓休闲农庄","lon":"121.24705028","lat":"31.248836073","category":"500","category_name":"未知分类","address":"闵行区纪鹤路(近联友路)"},{"poiid":"B2094654D569A0F4479E","title":"三友星墅","lon":"121.24241407787","lat":"31.245980294148","category":"47","category_name":"住宅区","address":"上海市青浦区华强街路203弄"},{"poiid":"B2094654DB6AA5F5479F","title":"上海工商学院","lon":"121.22241","lat":"31.24846","category":"671","category_name":"高校中心点","address":"新凤北路565"},{"poiid":"B2094757D065A1FE479A","title":"沪宁高速公路","lon":"121.24991228","lat":"31.254790196","category":"500","category_name":"未知分类","address":"上海市闵行区华漕镇赵家村"},{"poiid":"B2094655D36CA0F5489D","title":"华新","lon":"121.2227","lat":"31.24633","category":"38","category_name":"公交车站","address":""},{"poiid":"B2094654D569A1F5499C","title":"黑珍珠咖啡厅No.9","lon":"121.23442","lat":"31.24471","category":"65","category_name":"咖啡厅","address":"华富街"},{"poiid":"B2094654D569A7F84399","title":"凌家村卫生室","lon":"121.23439","lat":"31.24619","category":"162","category_name":"医院","address":"凌家村8"},{"poiid":"B2094654D569A7F54793","title":"龙族小吃楼","lon":"121.23461","lat":"31.24588","category":"68","category_name":"快餐厅","address":""},{"poiid":"B2094654D569A0F4479F","title":"华新明珠苑","lon":"121.23486","lat":"31.243608","category":"47","category_name":"住宅区","address":"华新镇华强街118弄"},{"poiid":"B2094654D569A0FE489C","title":"洪峰美食林","lon":"121.23365","lat":"31.24424","category":"257","category_name":"中餐厅","address":"华富街99号"},{"poiid":"B2094654D569A0F44993","title":"华新幼儿园","lon":"121.23313","lat":"31.24385","category":"57","category_name":"幼儿园","address":""},{"poiid":"B2094654D569A0F4499B","title":"光明乳业华新块配送站","lon":"121.23365","lat":"31.24364","category":"117","category_name":"便民商店/便利店","address":""},{"poiid":"B2094654D569A7F84392","title":"蒋苑","lon":"121.23342","lat":"31.246986","category":"47","category_name":"住宅区","address":"纪鹤公路1988号"},{"poiid":"B2094654D569A0FC4199","title":"华富公寓","lon":"121.233","lat":"31.244535","category":"47","category_name":"住宅区","address":"华富街130弄"},{"poiid":"B2094654D569A0FE489A","title":"浙江海宁特色煲华新店","lon":"121.2326","lat":"31.2441","category":"75","category_name":"浙江菜","address":"华富街"},{"poiid":"B2094655D26FA6FE4393","title":"上海市青浦区华新中心小学","lon":"121.23276","lat":"31.24233","category":"56","category_name":"小学","address":"青浦区华新镇华强街218号"},{"poiid":"B2094655D36DA6FC449F","title":"鹫山村","lon":"121.24808","lat":"31.24214","category":"38","category_name":"公交车站","address":""},{"poiid":"B2094655D36CA0FB429C","title":"纪鹤路华徐公路","lon":"121.2394","lat":"31.23876","category":"38","category_name":"公交车站","address":""},{"poiid":"B2094654D569A7F54393","title":"青浦区华新中学","lon":"121.23075","lat":"31.24193","category":"55","category_name":"中学","address":"华强街318"},{"poiid":"B2094654D569A0FC429F","title":"联怡大酒店","lon":"121.23207","lat":"31.24439","category":"250","category_name":"公园户外","address":"华富街198"},{"poiid":"B2094757D06BA3FD4492","title":"南华苑度假村","lon":"121.221997","lat":"31.236371","category":"217","category_name":"旅馆招待所","address":"上海青浦区华新镇华滕路969号(近嘉松中路)"},{"poiid":"B2094757D165ABF4419D","title":"纪王仓库","lon":"121.24262392","lat":"31.243903762","category":"263","category_name":"公司","address":"上海市闵行区纪鹤路839弄39号"},{"poiid":"B2094654D569A7FF489B","title":"青蒲区华新镇会议中心","lon":"121.23012","lat":"31.24319","category":"185","category_name":"会展中心","address":""},{"poiid":"B2094654DB6BA1FB4298","title":"上海新朋金属制品有限公司","lon":"121.23353","lat":"31.24638","category":"263","category_name":"公司","address":"华新镇华新路28号"},{"poiid":"B2094654D46BA0FC449E","title":"千帆竞发园区","lon":"121.24056","lat":"31.25244","category":"45","category_name":"产业园区","address":"华益路55号"},{"poiid":"B2094757D66EA5F44092","title":"黑子蟹庄","lon":"121.24522368","lat":"31.249985497","category":"247","category_name":"餐饮美食","address":"苏州正仪镇马鞍山路  "},{"poiid":"B2094654D569A0FE479F","title":"小肥牛府骨头王","lon":"121.2308","lat":"31.24386","category":"257","category_name":"中餐厅","address":"华新店华富街207号"},{"poiid":"B2094655D36CA0F54792","title":"华益路华新街","lon":"121.2296","lat":"31.24467","category":"38","category_name":"公交车站","address":""},{"poiid":"B2094654D569A0FC439D","title":"贸龙音乐茶座","lon":"121.23026","lat":"31.24415","category":"66","category_name":"茶艺馆","address":""},{"poiid":"B2094654D569A0F4409C","title":"阳光餐厅","lon":"121.24537","lat":"31.24115","category":"257","category_name":"中餐厅","address":""},{"poiid":"B2094757D16BA4F9479B","title":"中国工商银行(华新支行)","lon":"121.23046856","lat":"31.2396186058","category":"46","category_name":"楼宇","address":"青浦区华新镇2号街361号(近新苗路)"},{"poiid":"B2094654D569A0F4419E","title":"新食尚餐厅","lon":"121.24556","lat":"31.24065","category":"257","category_name":"中餐厅","address":""},{"poiid":"B2094654D569A0F44799","title":"新大洲华新家苑","lon":"121.22926","lat":"31.240648","category":"47","category_name":"住宅区","address":"华强街395弄"},{"poiid":"B2094757D16AA3FD4998","title":"鹫山村村民之家","lon":"121.24573516","lat":"31.241350174","category":"500","category_name":"未知分类","address":"上海纪鹤路"},{"poiid":"B2094654D569A0FE409F","title":"华新派出所","lon":"121.22817","lat":"31.24563","category":"609","category_name":"警察局","address":"青浦区华新街288号"},{"poiid":"B2094654D569A0FC4499","title":"名角女士生活馆(华富街)","lon":"121.22854","lat":"31.24391","category":"148","category_name":"美容美发店","address":""},{"poiid":"B2094752D46BA0FE4899","title":"世纪天虹影城","lon":"121.226013","lat":"31.242829","category":"178","category_name":"电影院","address":"青浦区华新镇华强街239号朋联国际广场3楼"},{"poiid":"B2094757D164A2FB4993","title":"亮区饭店(青浦店)","lon":"121.22576","lat":"31.24034","category":"76","category_name":"上海菜","address":"青浦区华新镇华强街625号(华强街新凤北路)"},{"poiid":"B2094752D16FAAFB499A","title":"上岛咖啡","lon":"121.230759","lat":"31.239883","category":"247","category_name":"餐饮美食","address":"上海市青浦区华新镇新府中路"},{"poiid":"B2094655D36DA0FC459D","title":"新府路华滕路","lon":"121.232","lat":"31.23773","category":"38","category_name":"公交车站","address":""},{"poiid":"B2094654D569A7F5499A","title":"英伦咖啡","lon":"121.22509","lat":"31.24079","category":"65","category_name":"咖啡厅","address":"青浦区华新镇华强街588号(华强街新凤北路)"},{"poiid":"B2094757D064A5FD4192","title":"上海新侨职业技术学院(青浦校区)","lon":"121.22601018","lat":"31.248803373","category":"500","category_name":"未知分类","address":"青浦区华新镇新凤北路565号"},{"poiid":"B2094757DB6CA4FB439A","title":"嘉亭荟生活广场","lon":"121.2320396","lat":"31.2522186","category":"627","category_name":"一般地点标志","address":"地铁11号线安亭出口处"},{"poiid":"B2094654D569A7F5449A","title":"重庆鸡公煲华新店","lon":"121.22636","lat":"31.24108","category":"71","category_name":"四川菜","address":"青浦区华新镇新益路"},{"poiid":"B2094757D66BABFB489A","title":"湘芙蓉 青浦店","lon":"121.223439054","lat":"31.245190793","category":"77","category_name":"湖南菜","address":"青浦区华新镇华新街421号(华新街新益路)"},{"poiid":"B2094654D569A0F4409B","title":"上海欧信实业有限公司","lon":"121.24428","lat":"31.23943","category":"263","category_name":"公司","address":"纪鹤公路1385弄168号"},{"poiid":"B2094654D569A0F5409F","title":"公园小区","lon":"121.2264","lat":"31.243116","category":"47","category_name":"住宅区","address":"新益路258弄"},{"poiid":"B2094654D569A0F54392","title":"东联建村","lon":"121.2263","lat":"31.24617","category":"47","category_name":"住宅区","address":"新苗路156弄"},{"poiid":"B2094757D064A1F4459F","title":"迪利特大酒店","lon":"121.23090626","lat":"31.2381837257","category":"217","category_name":"旅馆招待所","address":"青浦区华腾路288号(新府路口)"},{"poiid":"B2094757D66DA5FD4592","title":"青浦区","lon":"121.23249416","lat":"31.2441145001","category":"500","category_name":"未知分类","address":"上海华新镇"},{"poiid":"B2094757D06BA1FA4698","title":"富岛垂钓休闲农庄","lon":"121.24705028","lat":"31.248836073","category":"500","category_name":"未知分类","address":"闵行区纪鹤路(近联友路)"},{"poiid":"B2094654D569A0F4479E","title":"三友星墅","lon":"121.24241407787","lat":"31.245980294148","category":"47","category_name":"住宅区","address":"上海市青浦区华强街路203弄"},{"poiid":"B2094654DB6AA5F5479F","title":"上海工商学院","lon":"121.22241","lat":"31.24846","category":"671","category_name":"高校中心点","address":"新凤北路565"},{"poiid":"B2094757D065A1FE479A","title":"沪宁高速公路","lon":"121.24991228","lat":"31.254790196","category":"500","category_name":"未知分类","address":"上海市闵行区华漕镇赵家村"},{"poiid":"B2094655D36CA0F5489D","title":"华新","lon":"121.2227","lat":"31.24633","category":"38","category_name":"公交车站","address":""},{"poiid":"B2094654D569A1F5499C","title":"黑珍珠咖啡厅No.9","lon":"121.23442","lat":"31.24471","category":"65","category_name":"咖啡厅","address":"华富街"},{"poiid":"B2094654D569A7F84399","title":"凌家村卫生室","lon":"121.23439","lat":"31.24619","category":"162","category_name":"医院","address":"凌家村8"},{"poiid":"B2094654D569A7F54793","title":"龙族小吃楼","lon":"121.23461","lat":"31.24588","category":"68","category_name":"快餐厅","address":""},{"poiid":"B2094654D569A0F4479F","title":"华新明珠苑","lon":"121.23486","lat":"31.243608","category":"47","category_name":"住宅区","address":"华新镇华强街118弄"},{"poiid":"B2094654D569A0FE489C","title":"洪峰美食林","lon":"121.23365","lat":"31.24424","category":"257","category_name":"中餐厅","address":"华富街99号"},{"poiid":"B2094654D569A0F44993","title":"华新幼儿园","lon":"121.23313","lat":"31.24385","category":"57","category_name":"幼儿园","address":""},{"poiid":"B2094654D569A0F4499B","title":"光明乳业华新块配送站","lon":"121.23365","lat":"31.24364","category":"117","category_name":"便民商店/便利店","address":""},{"poiid":"B2094654D569A7F84392","title":"蒋苑","lon":"121.23342","lat":"31.246986","category":"47","category_name":"住宅区","address":"纪鹤公路1988号"},{"poiid":"B2094654D569A0FC4199","title":"华富公寓","lon":"121.233","lat":"31.244535","category":"47","category_name":"住宅区","address":"华富街130弄"},{"poiid":"B2094654D569A0FE489A","title":"浙江海宁特色煲华新店","lon":"121.2326","lat":"31.2441","category":"75","category_name":"浙江菜","address":"华富街"},{"poiid":"B2094655D26FA6FE4393","title":"上海市青浦区华新中心小学","lon":"121.23276","lat":"31.24233","category":"56","category_name":"小学","address":"青浦区华新镇华强街218号"},{"poiid":"B2094655D36DA6FC449F","title":"鹫山村","lon":"121.24808","lat":"31.24214","category":"38","category_name":"公交车站","address":""},{"poiid":"B2094655D36CA0FB429C","title":"纪鹤路华徐公路","lon":"121.2394","lat":"31.23876","category":"38","category_name":"公交车站","address":""},{"poiid":"B2094654D569A7F54393","title":"青浦区华新中学","lon":"121.23075","lat":"31.24193","category":"55","category_name":"中学","address":"华强街318"},{"poiid":"B2094654D569A0FC429F","title":"联怡大酒店","lon":"121.23207","lat":"31.24439","category":"250","category_name":"公园户外","address":"华富街198"},{"poiid":"B2094757D06BA3FD4492","title":"南华苑度假村","lon":"121.221997","lat":"31.236371","category":"217","category_name":"旅馆招待所","address":"上海青浦区华新镇华滕路969号(近嘉松中路)"},{"poiid":"B2094757D165ABF4419D","title":"纪王仓库","lon":"121.24262392","lat":"31.243903762","category":"263","category_name":"公司","address":"上海市闵行区纪鹤路839弄39号"},{"poiid":"B2094654D569A7FF489B","title":"青蒲区华新镇会议中心","lon":"121.23012","lat":"31.24319","category":"185","category_name":"会展中心","address":""},{"poiid":"B2094654DB6BA1FB4298","title":"上海新朋金属制品有限公司","lon":"121.23353","lat":"31.24638","category":"263","category_name":"公司","address":"华新镇华新路28号"},{"poiid":"B2094654D46BA0FC449E","title":"千帆竞发园区","lon":"121.24056","lat":"31.25244","category":"45","category_name":"产业园区","address":"华益路55号"},{"poiid":"B2094757D66EA5F44092","title":"黑子蟹庄","lon":"121.24522368","lat":"31.249985497","category":"247","category_name":"餐饮美食","address":"苏州正仪镇马鞍山路  "},{"poiid":"B2094654D569A0FE479F","title":"小肥牛府骨头王","lon":"121.2308","lat":"31.24386","category":"257","category_name":"中餐厅","address":"华新店华富街207号"},{"poiid":"B2094655D36CA0F54792","title":"华益路华新街","lon":"121.2296","lat":"31.24467","category":"38","category_name":"公交车站","address":""},{"poiid":"B2094654D569A0FC439D","title":"贸龙音乐茶座","lon":"121.23026","lat":"31.24415","category":"66","category_name":"茶艺馆","address":""},{"poiid":"B2094654D569A0F4409C","title":"阳光餐厅","lon":"121.24537","lat":"31.24115","category":"257","category_name":"中餐厅","address":""},{"poiid":"B2094757D16BA4F9479B","title":"中国工商银行(华新支行)","lon":"121.23046856","lat":"31.2396186058","category":"46","category_name":"楼宇","address":"青浦区华新镇2号街361号(近新苗路)"},{"poiid":"B2094654D569A0F4419E","title":"新食尚餐厅","lon":"121.24556","lat":"31.24065","category":"257","category_name":"中餐厅","address":""},{"poiid":"B2094654D569A0F44799","title":"新大洲华新家苑","lon":"121.22926","lat":"31.240648","category":"47","category_name":"住宅区","address":"华强街395弄"},{"poiid":"B2094757D16AA3FD4998","title":"鹫山村村民之家","lon":"121.24573516","lat":"31.241350174","category":"500","category_name":"未知分类","address":"上海纪鹤路"},{"poiid":"B2094654D569A0FE409F","title":"华新派出所","lon":"121.22817","lat":"31.24563","category":"609","category_name":"警察局","address":"青浦区华新街288号"},{"poiid":"B2094654D569A0FC4499","title":"名角女士生活馆(华富街)","lon":"121.22854","lat":"31.24391","category":"148","category_name":"美容美发店","address":""},{"poiid":"B2094752D46BA0FE4899","title":"世纪天虹影城","lon":"121.226013","lat":"31.242829","category":"178","category_name":"电影院","address":"青浦区华新镇华强街239号朋联国际广场3楼"},{"poiid":"B2094757D164A2FB4993","title":"亮区饭店(青浦店)","lon":"121.22576","lat":"31.24034","category":"76","category_name":"上海菜","address":"青浦区华新镇华强街625号(华强街新凤北路)"},{"poiid":"B2094752D16FAAFB499A","title":"上岛咖啡","lon":"121.230759","lat":"31.239883","category":"247","category_name":"餐饮美食","address":"上海市青浦区华新镇新府中路"},{"poiid":"B2094655D36DA0FC459D","title":"新府路华滕路","lon":"121.232","lat":"31.23773","category":"38","category_name":"公交车站","address":""},{"poiid":"B2094654D569A7F5499A","title":"英伦咖啡","lon":"121.22509","lat":"31.24079","category":"65","category_name":"咖啡厅","address":"青浦区华新镇华强街588号(华强街新凤北路)"},{"poiid":"B2094757D064A5FD4192","title":"上海新侨职业技术学院(青浦校区)","lon":"121.22601018","lat":"31.248803373","category":"500","category_name":"未知分类","address":"青浦区华新镇新凤北路565号"},{"poiid":"B2094757DB6CA4FB439A","title":"嘉亭荟生活广场","lon":"121.2320396","lat":"31.2522186","category":"627","category_name":"一般地点标志","address":"地铁11号线安亭出口处"},{"poiid":"B2094654D569A7F5449A","title":"重庆鸡公煲华新店","lon":"121.22636","lat":"31.24108","category":"71","category_name":"四川菜","address":"青浦区华新镇新益路"},{"poiid":"B2094757D66BABFB489A","title":"湘芙蓉 青浦店","lon":"121.223439054","lat":"31.245190793","category":"77","category_name":"湖南菜","address":"青浦区华新镇华新街421号(华新街新益路)"},{"poiid":"B2094654D569A0F4409B","title":"上海欧信实业有限公司","lon":"121.24428","lat":"31.23943","category":"263","category_name":"公司","address":"纪鹤公路1385弄168号"},{"poiid":"B2094654D569A0F5409F","title":"公园小区","lon":"121.2264","lat":"31.243116","category":"47","category_name":"住宅区","address":"新益路258弄"},{"poiid":"B2094654D569A0F54392","title":"东联建村","lon":"121.2263","lat":"31.24617","category":"47","category_name":"住宅区","address":"新苗路156弄"}]