[{"poiid":"B2094757D069A3FD419F","title":"虹桥国际科技广场","lon":"121.350976621","lat":"31.22021909","category":"201","category_name":"城市广场","address":"上海市金钟路999号"},{"poiid":"B2094757D06BA3FE499E","title":"虹桥机场航站楼摆渡巴士","lon":"121.33571936","lat":"31.2153037328","category":"260","category_name":"其他","address":"上海虹桥机场"},{"poiid":"B2094757D06FA6FD469E","title":"虹桥临空经济园区","lon":"121.348955","lat":"31.230453","category":"500","category_name":"未知分类","address":"上海临虹路280弄"},{"poiid":"B2094757D068A3FB469F","title":"金色西郊城","lon":"121.33219585036659","lat":"31.223784683592665","category":"47","category_name":"住宅区","address":"闵行区北翟路2000弄70支弄"},{"poiid":"B2094757D06FAAF84792","title":"虹桥临空SOHO中国羽毛球馆","lon":"121.35188056","lat":"31.230200647","category":"500","category_name":"未知分类","address":"长宁区协和路1551号(近临虹路)"},{"poiid":"B2094757D068A6FD4493","title":"博世总部","lon":"121.3555534","lat":"31.2297448","category":"46","category_name":"楼宇","address":"上海福泉北路333号"},{"poiid":"B2094757D068A2FF449C","title":"虹桥临空经济园区","lon":"121.35365074","lat":"31.219283776","category":"500","category_name":"未知分类","address":"上海长宁区协和路787号"},{"poiid":"B2094757D06BA6FF4893","title":"华漕","lon":"121.33239356","lat":"31.220920451","category":"500","category_name":"未知分类","address":"上海闵行区北翟路七莘路"},{"poiid":"B2094655D36CA5F5439C","title":"北翟路外环线","lon":"121.34992","lat":"31.22355","category":"38","category_name":"公交车站","address":""},{"poiid":"B2094757D068A5F44692","title":"北新泾监狱","lon":"121.34015983","lat":"31.222733249","category":"608","category_name":"法院","address":"上海北瞿路1551号"},{"poiid":"B2094757D66DABF94199","title":"虹桥国际商务花园","lon":"121.34893556","lat":"31.2321786891","category":"500","category_name":"未知分类","address":"上海市长宁区临虹路"},{"poiid":"B2094757D16EAAFE499D","title":"一汽沪奥奥迪4s","lon":"121.33582056","lat":"31.2242945226","category":"500","category_name":"未知分类","address":"闵行区北翟路1800号(近北沈路)"},{"poiid":"B209475CD76BA1F54292","title":"上海虹桥机场","lon":"121.341972","lat":"31.223468","category":"500","category_name":"未知分类","address":"上海市 上海市虹桥机场"},{"poiid":"B2094753DA68A6FA489C","title":"上海市人民广场","lon":"121.346488","lat":"31.222667","category":"500","category_name":"未知分类","address":"上海市 上海市人民广场"},{"poiid":"B2094757D069A6FA489B","title":"上海国际赛车场主看台","lon":"121.34329565","lat":"31.22072098","category":"220","category_name":"运动场所","address":"嘉定区伊宁路2000号上海国际赛车场内(近嘉定汽车城)"},{"poiid":"B2094654D56AA3F94693","title":"懂你餐厅","lon":"121.34278","lat":"31.22474","category":"257","category_name":"中餐厅","address":"北松路"},{"poiid":"B2094654D56AA0F5479C","title":"上海北翟长途汽车客运站","lon":"121.34455","lat":"31.22266","category":"35","category_name":"长途汽车站","address":"绥宁路897"},{"poiid":"B2094757D768A4FE459A","title":"炭烧丫霸 北翟路店","lon":"121.34595","lat":"31.22364","category":"647","category_name":"熟食","address":"闵行区北翟路1444弄130号"},{"poiid":"B2094654D56AA1F9429B","title":"双泾寺角落综合小区","lon":"121.34291","lat":"31.224089","category":"47","category_name":"住宅区","address":"北翟路北松路"},{"poiid":"B2094654D56AA3FB4093","title":"上海市工业区万力都市绥宁园区","lon":"121.34416","lat":"31.22231","category":"45","category_name":"产业园区","address":"绥宁路889"},{"poiid":"B2094757D568AAFB479D","title":"虹桥临空·弘基休闲广场","lon":"121.35109646","lat":"31.22970405","category":"201","category_name":"城市广场","address":"长宁区协和路临虹路口"},{"poiid":"B2094654D56AA3F94698","title":"双泾村","lon":"121.34657","lat":"31.224707","category":"47","category_name":"住宅区","address":"北翟路1280号"},{"poiid":"B2094654D56AA0FF419E","title":"双泾前场小区","lon":"121.34642","lat":"31.224743","category":"47","category_name":"住宅区","address":"北翟路1330弄"},{"poiid":"B2094757D069A5FD4998","title":"北翟路地铁车库","lon":"121.347985427","lat":"31.2325931867","category":"36","category_name":"地铁站","address":"上海市长宁区北翟路（泾力西路），外环旁边"},{"poiid":"B2094654D56AA3F94498","title":"双泾后场居住小区","lon":"121.3469","lat":"31.22431","category":"47","category_name":"住宅区","address":"外环经力西路"},{"poiid":"B2094655D265A3F5479D","title":"君腾鼎汇大酒楼","lon":"121.334582054","lat":"31.223914793","category":"76","category_name":"上海菜","address":"闵行区北翟路1551(近吴北路)"},{"poiid":"B2094757D069ABF8409E","title":"万博家园","lon":"121.334806","lat":"31.226895","category":"500","category_name":"未知分类","address":"上海北华路168弄"},{"poiid":"B2094654D569A4F9409F","title":"国际商务花园","lon":"121.34925","lat":"31.23099","category":"46","category_name":"楼宇","address":"上海临虹路280弄"},{"poiid":"B2094757D068A0F84599","title":"统一企业","lon":"121.35552514","lat":"31.225415922","category":"263","category_name":"公司","address":"上海长宁区临虹路131号"},{"poiid":"B2094752D164A5FB419C","title":"七宝老街","lon":"121.344863","lat":"31.220336","category":"247","category_name":"餐饮美食","address":null},{"poiid":"B2094654D56AA3F9439B","title":"前巷工业小区","lon":"121.34703","lat":"31.22549","category":"47","category_name":"住宅区","address":"外环经力西路"},{"poiid":"B2094752D369A2FE4593","title":"中环百联","lon":"121.3437696685427","lat":"31.22502612320585","category":"500","category_name":"未知分类","address":null},{"poiid":"B2094654D56AA3F94792","title":"东沈巷小区","lon":"121.34072","lat":"31.22438","category":"47","category_name":"住宅区","address":"上海北翟路1550号"},{"poiid":"B2094654D56AABFA469F","title":"鑫电公司职工宿舍","lon":"121.34151","lat":"31.22587","category":"47","category_name":"住宅区","address":"北翟路1550弄58号"},{"poiid":"B2094655D265A7FB499D","title":"莫泰168旅店上海华漕店","lon":"121.33481","lat":"31.2269","category":"216","category_name":"经济型连锁酒店","address":"闵行区北沈路168号(近北翟路)"},{"poiid":"B2094751D66FA4FD4392","title":"上海虹桥机场","lon":"121.336583","lat":"31.221818","category":"627","category_name":"一般地点标志","address":null},{"poiid":"B2094750DA6AA3F8469D","title":"虹桥国际会议中心","lon":"121.351852","lat":"31.220067","category":"263","category_name":"公司","address":"金钟路999号A栋"},{"poiid":"B2094654D56AA0F9409E","title":"足之道保健按摩","lon":"121.34221","lat":"31.22583","category":"149","category_name":"洗浴推拿场所","address":""},{"poiid":"B2094655D26FA1FE479D","title":"许浦村","lon":"121.33717","lat":"31.224735","category":"47","category_name":"住宅区","address":"北翟路1556弄2号"},{"poiid":"B2094655D265A3F54792","title":"君腾鼎汇快捷酒店","lon":"121.34028","lat":"31.22356","category":"216","category_name":"经济型连锁酒店","address":""},{"poiid":"B2094757D16BA4FC4193","title":"翟业汽车销售服务","lon":"121.33716656","lat":"31.224153519","category":"163","category_name":"4S店","address":"闵行区北翟路1556号(近北沈路)"},{"poiid":"B2094757D66CAAF94492","title":"上海第二十八机动车安全检测站","lon":"121.339871","lat":"31.223724","category":"500","category_name":"未知分类","address":"上海市长宁区北翟1551号"},{"poiid":"B2094655D26BAAFE419A","title":"金色西郊城二期","lon":"121.33854989726","lat":"31.230137003253","category":"47","category_name":"住宅区","address":"上海市闵行区北翟路1700弄"},{"poiid":"B2094757D66BA0FD4998","title":"山塘人家","lon":"121.3500812","lat":"31.2238095","category":"77","category_name":"湖南菜","address":"闵行区北翟路2000弄50号金色西郊城商业街"},{"poiid":"B2094757D16FABF94998","title":"翟业别克维修站","lon":"121.338707","lat":"31.22363","category":"163","category_name":"4S店","address":"上海北翟路1571号"},{"poiid":"B2094757D06AA1F44599","title":"莉莲蛋挞(临空店)Lilian Macau","lon":"121.35226447","lat":"31.230552955","category":"67","category_name":"甜品店","address":"长宁区协和路1551号宏基休闲广场(近临虹路)"},{"poiid":"B2094654DB6BA0FF439C","title":"华漕苑","lon":"121.33511","lat":"31.220428","category":"47","category_name":"住宅区","address":"东美路108弄"},{"poiid":"B2094750D76EA1F94793","title":"君淙会所","lon":"121.334","lat":"31.2238","category":"72","category_name":"广东菜","address":"闵行区北翟路2869号(近七莘路)"},{"poiid":"B2094757D16FA4FF429B","title":"第九机动车检测中心","lon":"121.340421","lat":"31.217435","category":"500","category_name":"未知分类","address":"上海天闪西路2166号"},{"poiid":"B2094757D06AA4F4499B","title":"7-ELEVEN(金钟店)","lon":"121.3514642","lat":"31.2208796","category":"117","category_name":"便民商店/便利店","address":"上海市金钟路999号C栋(3号楼)"},{"poiid":"B2094757D069A3FD419F","title":"虹桥国际科技广场","lon":"121.350976621","lat":"31.22021909","category":"201","category_name":"城市广场","address":"上海市金钟路999号"},{"poiid":"B2094757D06BA3FE499E","title":"虹桥机场航站楼摆渡巴士","lon":"121.33571936","lat":"31.2153037328","category":"260","category_name":"其他","address":"上海虹桥机场"},{"poiid":"B2094757D06FA6FD469E","title":"虹桥临空经济园区","lon":"121.348955","lat":"31.230453","category":"500","category_name":"未知分类","address":"上海临虹路280弄"},{"poiid":"B2094757D068A3FB469F","title":"金色西郊城","lon":"121.33219585036659","lat":"31.223784683592665","category":"47","category_name":"住宅区","address":"闵行区北翟路2000弄70支弄"},{"poiid":"B2094757D06FAAF84792","title":"虹桥临空SOHO中国羽毛球馆","lon":"121.35188056","lat":"31.230200647","category":"500","category_name":"未知分类","address":"长宁区协和路1551号(近临虹路)"},{"poiid":"B2094757D068A6FD4493","title":"博世总部","lon":"121.3555534","lat":"31.2297448","category":"46","category_name":"楼宇","address":"上海福泉北路333号"},{"poiid":"B2094757D068A2FF449C","title":"虹桥临空经济园区","lon":"121.35365074","lat":"31.219283776","category":"500","category_name":"未知分类","address":"上海长宁区协和路787号"},{"poiid":"B2094757D06BA6FF4893","title":"华漕","lon":"121.33239356","lat":"31.220920451","category":"500","category_name":"未知分类","address":"上海闵行区北翟路七莘路"},{"poiid":"B2094655D36CA5F5439C","title":"北翟路外环线","lon":"121.34992","lat":"31.22355","category":"38","category_name":"公交车站","address":""},{"poiid":"B2094757D068A5F44692","title":"北新泾监狱","lon":"121.34015983","lat":"31.222733249","category":"608","category_name":"法院","address":"上海北瞿路1551号"},{"poiid":"B2094757D66DABF94199","title":"虹桥国际商务花园","lon":"121.34893556","lat":"31.2321786891","category":"500","category_name":"未知分类","address":"上海市长宁区临虹路"},{"poiid":"B2094757D16EAAFE499D","title":"一汽沪奥奥迪4s","lon":"121.33582056","lat":"31.2242945226","category":"500","category_name":"未知分类","address":"闵行区北翟路1800号(近北沈路)"},{"poiid":"B209475CD76BA1F54292","title":"上海虹桥机场","lon":"121.341972","lat":"31.223468","category":"500","category_name":"未知分类","address":"上海市 上海市虹桥机场"},{"poiid":"B2094753DA68A6FA489C","title":"上海市人民广场","lon":"121.346488","lat":"31.222667","category":"500","category_name":"未知分类","address":"上海市 上海市人民广场"},{"poiid":"B2094757D069A6FA489B","title":"上海国际赛车场主看台","lon":"121.34329565","lat":"31.22072098","category":"220","category_name":"运动场所","address":"嘉定区伊宁路2000号上海国际赛车场内(近嘉定汽车城)"},{"poiid":"B2094654D56AA3F94693","title":"懂你餐厅","lon":"121.34278","lat":"31.22474","category":"257","category_name":"中餐厅","address":"北松路"},{"poiid":"B2094654D56AA0F5479C","title":"上海北翟长途汽车客运站","lon":"121.34455","lat":"31.22266","category":"35","category_name":"长途汽车站","address":"绥宁路897"},{"poiid":"B2094757D768A4FE459A","title":"炭烧丫霸 北翟路店","lon":"121.34595","lat":"31.22364","category":"647","category_name":"熟食","address":"闵行区北翟路1444弄130号"},{"poiid":"B2094654D56AA1F9429B","title":"双泾寺角落综合小区","lon":"121.34291","lat":"31.224089","category":"47","category_name":"住宅区","address":"北翟路北松路"},{"poiid":"B2094654D56AA3FB4093","title":"上海市工业区万力都市绥宁园区","lon":"121.34416","lat":"31.22231","category":"45","category_name":"产业园区","address":"绥宁路889"},{"poiid":"B2094757D568AAFB479D","title":"虹桥临空·弘基休闲广场","lon":"121.35109646","lat":"31.22970405","category":"201","category_name":"城市广场","address":"长宁区协和路临虹路口"},{"poiid":"B2094654D56AA3F94698","title":"双泾村","lon":"121.34657","lat":"31.224707","category":"47","category_name":"住宅区","address":"北翟路1280号"},{"poiid":"B2094654D56AA0FF419E","title":"双泾前场小区","lon":"121.34642","lat":"31.224743","category":"47","category_name":"住宅区","address":"北翟路1330弄"},{"poiid":"B2094757D069A5FD4998","title":"北翟路地铁车库","lon":"121.347985427","lat":"31.2325931867","category":"36","category_name":"地铁站","address":"上海市长宁区北翟路（泾力西路），外环旁边"},{"poiid":"B2094654D56AA3F94498","title":"双泾后场居住小区","lon":"121.3469","lat":"31.22431","category":"47","category_name":"住宅区","address":"外环经力西路"},{"poiid":"B2094655D265A3F5479D","title":"君腾鼎汇大酒楼","lon":"121.334582054","lat":"31.223914793","category":"76","category_name":"上海菜","address":"闵行区北翟路1551(近吴北路)"},{"poiid":"B2094757D069ABF8409E","title":"万博家园","lon":"121.334806","lat":"31.226895","category":"500","category_name":"未知分类","address":"上海北华路168弄"},{"poiid":"B2094654D569A4F9409F","title":"国际商务花园","lon":"121.34925","lat":"31.23099","category":"46","category_name":"楼宇","address":"上海临虹路280弄"},{"poiid":"B2094757D068A0F84599","title":"统一企业","lon":"121.35552514","lat":"31.225415922","category":"263","category_name":"公司","address":"上海长宁区临虹路131号"},{"poiid":"B2094752D164A5FB419C","title":"七宝老街","lon":"121.344863","lat":"31.220336","category":"247","category_name":"餐饮美食","address":null},{"poiid":"B2094654D56AA3F9439B","title":"前巷工业小区","lon":"121.34703","lat":"31.22549","category":"47","category_name":"住宅区","address":"外环经力西路"},{"poiid":"B2094752D369A2FE4593","title":"中环百联","lon":"121.3437696685427","lat":"31.22502612320585","category":"500","category_name":"未知分类","address":null},{"poiid":"B2094654D56AA3F94792","title":"东沈巷小区","lon":"121.34072","lat":"31.22438","category":"47","category_name":"住宅区","address":"上海北翟路1550号"},{"poiid":"B2094654D56AABFA469F","title":"鑫电公司职工宿舍","lon":"121.34151","lat":"31.22587","category":"47","category_name":"住宅区","address":"北翟路1550弄58号"},{"poiid":"B2094655D265A7FB499D","title":"莫泰168旅店上海华漕店","lon":"121.33481","lat":"31.2269","category":"216","category_name":"经济型连锁酒店","address":"闵行区北沈路168号(近北翟路)"},{"poiid":"B2094751D66FA4FD4392","title":"上海虹桥机场","lon":"121.336583","lat":"31.221818","category":"627","category_name":"一般地点标志","address":null},{"poiid":"B2094750DA6AA3F8469D","title":"虹桥国际会议中心","lon":"121.351852","lat":"31.220067","category":"263","category_name":"公司","address":"金钟路999号A栋"},{"poiid":"B2094654D56AA0F9409E","title":"足之道保健按摩","lon":"121.34221","lat":"31.22583","category":"149","category_name":"洗浴推拿场所","address":""},{"poiid":"B2094655D26FA1FE479D","title":"许浦村","lon":"121.33717","lat":"31.224735","category":"47","category_name":"住宅区","address":"北翟路1556弄2号"},{"poiid":"B2094655D265A3F54792","title":"君腾鼎汇快捷酒店","lon":"121.34028","lat":"31.22356","category":"216","category_name":"经济型连锁酒店","address":""},{"poiid":"B2094757D16BA4FC4193","title":"翟业汽车销售服务","lon":"121.33716656","lat":"31.224153519","category":"163","category_name":"4S店","address":"闵行区北翟路1556号(近北沈路)"},{"poiid":"B2094757D66CAAF94492","title":"上海第二十八机动车安全检测站","lon":"121.339871","lat":"31.223724","category":"500","category_name":"未知分类","address":"上海市长宁区北翟1551号"},{"poiid":"B2094655D26BAAFE419A","title":"金色西郊城二期","lon":"121.33854989726","lat":"31.230137003253","category":"47","category_name":"住宅区","address":"上海市闵行区北翟路1700弄"},{"poiid":"B2094757D66BA0FD4998","title":"山塘人家","lon":"121.3500812","lat":"31.2238095","category":"77","category_name":"湖南菜","address":"闵行区北翟路2000弄50号金色西郊城商业街"},{"poiid":"B2094757D16FABF94998","title":"翟业别克维修站","lon":"121.338707","lat":"31.22363","category":"163","category_name":"4S店","address":"上海北翟路1571号"},{"poiid":"B2094757D06AA1F44599","title":"莉莲蛋挞(临空店)Lilian Macau","lon":"121.35226447","lat":"31.230552955","category":"67","category_name":"甜品店","address":"长宁区协和路1551号宏基休闲广场(近临虹路)"},{"poiid":"B2094654DB6BA0FF439C","title":"华漕苑","lon":"121.33511","lat":"31.220428","category":"47","category_name":"住宅区","address":"东美路108弄"},{"poiid":"B2094750D76EA1F94793","title":"君淙会所","lon":"121.334","lat":"31.2238","category":"72","category_name":"广东菜","address":"闵行区北翟路2869号(近七莘路)"},{"poiid":"B2094757D16FA4FF429B","title":"第九机动车检测中心","lon":"121.340421","lat":"31.217435","category":"500","category_name":"未知分类","address":"上海天闪西路2166号"},{"poiid":"B2094757D06AA4F4499B","title":"7-ELEVEN(金钟店)","lon":"121.3514642","lat":"31.2208796","category":"117","category_name":"便民商店/便利店","address":"上海市金钟路999号C栋(3号楼)"},{"poiid":"B2094757D069A3FD419F","title":"虹桥国际科技广场","lon":"121.350976621","lat":"31.22021909","category":"201","category_name":"城市广场","address":"上海市金钟路999号"},{"poiid":"B2094757D06BA3FE499E","title":"虹桥机场航站楼摆渡巴士","lon":"121.33571936","lat":"31.2153037328","category":"260","category_name":"其他","address":"上海虹桥机场"},{"poiid":"B2094757D06FA6FD469E","title":"虹桥临空经济园区","lon":"121.348955","lat":"31.230453","category":"500","category_name":"未知分类","address":"上海临虹路280弄"},{"poiid":"B2094757D068A3FB469F","title":"金色西郊城","lon":"121.33219585036659","lat":"31.223784683592665","category":"47","category_name":"住宅区","address":"闵行区北翟路2000弄70支弄"},{"poiid":"B2094757D06FAAF84792","title":"虹桥临空SOHO中国羽毛球馆","lon":"121.35188056","lat":"31.230200647","category":"500","category_name":"未知分类","address":"长宁区协和路1551号(近临虹路)"},{"poiid":"B2094757D068A6FD4493","title":"博世总部","lon":"121.3555534","lat":"31.2297448","category":"46","category_name":"楼宇","address":"上海福泉北路333号"},{"poiid":"B2094757D068A2FF449C","title":"虹桥临空经济园区","lon":"121.35365074","lat":"31.219283776","category":"500","category_name":"未知分类","address":"上海长宁区协和路787号"},{"poiid":"B2094757D06BA6FF4893","title":"华漕","lon":"121.33239356","lat":"31.220920451","category":"500","category_name":"未知分类","address":"上海闵行区北翟路七莘路"},{"poiid":"B2094655D36CA5F5439C","title":"北翟路外环线","lon":"121.34992","lat":"31.22355","category":"38","category_name":"公交车站","address":""},{"poiid":"B2094757D068A5F44692","title":"北新泾监狱","lon":"121.34015983","lat":"31.222733249","category":"608","category_name":"法院","address":"上海北瞿路1551号"},{"poiid":"B2094757D66DABF94199","title":"虹桥国际商务花园","lon":"121.34893556","lat":"31.2321786891","category":"500","category_name":"未知分类","address":"上海市长宁区临虹路"},{"poiid":"B2094757D16EAAFE499D","title":"一汽沪奥奥迪4s","lon":"121.33582056","lat":"31.2242945226","category":"500","category_name":"未知分类","address":"闵行区北翟路1800号(近北沈路)"},{"poiid":"B209475CD76BA1F54292","title":"上海虹桥机场","lon":"121.341972","lat":"31.223468","category":"500","category_name":"未知分类","address":"上海市 上海市虹桥机场"},{"poiid":"B2094753DA68A6FA489C","title":"上海市人民广场","lon":"121.346488","lat":"31.222667","category":"500","category_name":"未知分类","address":"上海市 上海市人民广场"},{"poiid":"B2094757D069A6FA489B","title":"上海国际赛车场主看台","lon":"121.34329565","lat":"31.22072098","category":"220","category_name":"运动场所","address":"嘉定区伊宁路2000号上海国际赛车场内(近嘉定汽车城)"},{"poiid":"B2094654D56AA3F94693","title":"懂你餐厅","lon":"121.34278","lat":"31.22474","category":"257","category_name":"中餐厅","address":"北松路"},{"poiid":"B2094654D56AA0F5479C","title":"上海北翟长途汽车客运站","lon":"121.34455","lat":"31.22266","category":"35","category_name":"长途汽车站","address":"绥宁路897"},{"poiid":"B2094757D768A4FE459A","title":"炭烧丫霸 北翟路店","lon":"121.34595","lat":"31.22364","category":"647","category_name":"熟食","address":"闵行区北翟路1444弄130号"},{"poiid":"B2094654D56AA1F9429B","title":"双泾寺角落综合小区","lon":"121.34291","lat":"31.224089","category":"47","category_name":"住宅区","address":"北翟路北松路"},{"poiid":"B2094654D56AA3FB4093","title":"上海市工业区万力都市绥宁园区","lon":"121.34416","lat":"31.22231","category":"45","category_name":"产业园区","address":"绥宁路889"},{"poiid":"B2094757D568AAFB479D","title":"虹桥临空·弘基休闲广场","lon":"121.35109646","lat":"31.22970405","category":"201","category_name":"城市广场","address":"长宁区协和路临虹路口"},{"poiid":"B2094654D56AA3F94698","title":"双泾村","lon":"121.34657","lat":"31.224707","category":"47","category_name":"住宅区","address":"北翟路1280号"},{"poiid":"B2094654D56AA0FF419E","title":"双泾前场小区","lon":"121.34642","lat":"31.224743","category":"47","category_name":"住宅区","address":"北翟路1330弄"},{"poiid":"B2094757D069A5FD4998","title":"北翟路地铁车库","lon":"121.347985427","lat":"31.2325931867","category":"36","category_name":"地铁站","address":"上海市长宁区北翟路（泾力西路），外环旁边"},{"poiid":"B2094654D56AA3F94498","title":"双泾后场居住小区","lon":"121.3469","lat":"31.22431","category":"47","category_name":"住宅区","address":"外环经力西路"},{"poiid":"B2094655D265A3F5479D","title":"君腾鼎汇大酒楼","lon":"121.334582054","lat":"31.223914793","category":"76","category_name":"上海菜","address":"闵行区北翟路1551(近吴北路)"},{"poiid":"B2094757D069ABF8409E","title":"万博家园","lon":"121.334806","lat":"31.226895","category":"500","category_name":"未知分类","address":"上海北华路168弄"},{"poiid":"B2094654D569A4F9409F","title":"国际商务花园","lon":"121.34925","lat":"31.23099","category":"46","category_name":"楼宇","address":"上海临虹路280弄"},{"poiid":"B2094757D068A0F84599","title":"统一企业","lon":"121.35552514","lat":"31.225415922","category":"263","category_name":"公司","address":"上海长宁区临虹路131号"},{"poiid":"B2094752D164A5FB419C","title":"七宝老街","lon":"121.344863","lat":"31.220336","category":"247","category_name":"餐饮美食","address":null},{"poiid":"B2094654D56AA3F9439B","title":"前巷工业小区","lon":"121.34703","lat":"31.22549","category":"47","category_name":"住宅区","address":"外环经力西路"},{"poiid":"B2094752D369A2FE4593","title":"中环百联","lon":"121.3437696685427","lat":"31.22502612320585","category":"500","category_name":"未知分类","address":null},{"poiid":"B2094654D56AA3F94792","title":"东沈巷小区","lon":"121.34072","lat":"31.22438","category":"47","category_name":"住宅区","address":"上海北翟路1550号"},{"poiid":"B2094654D56AABFA469F","title":"鑫电公司职工宿舍","lon":"121.34151","lat":"31.22587","category":"47","category_name":"住宅区","address":"北翟路1550弄58号"},{"poiid":"B2094655D265A7FB499D","title":"莫泰168旅店上海华漕店","lon":"121.33481","lat":"31.2269","category":"216","category_name":"经济型连锁酒店","address":"闵行区北沈路168号(近北翟路)"},{"poiid":"B2094751D66FA4FD4392","title":"上海虹桥机场","lon":"121.336583","lat":"31.221818","category":"627","category_name":"一般地点标志","address":null},{"poiid":"B2094750DA6AA3F8469D","title":"虹桥国际会议中心","lon":"121.351852","lat":"31.220067","category":"263","category_name":"公司","address":"金钟路999号A栋"},{"poiid":"B2094654D56AA0F9409E","title":"足之道保健按摩","lon":"121.34221","lat":"31.22583","category":"149","category_name":"洗浴推拿场所","address":""},{"poiid":"B2094655D26FA1FE479D","title":"许浦村","lon":"121.33717","lat":"31.224735","category":"47","category_name":"住宅区","address":"北翟路1556弄2号"},{"poiid":"B2094655D265A3F54792","title":"君腾鼎汇快捷酒店","lon":"121.34028","lat":"31.22356","category":"216","category_name":"经济型连锁酒店","address":""},{"poiid":"B2094757D16BA4FC4193","title":"翟业汽车销售服务","lon":"121.33716656","lat":"31.224153519","category":"163","category_name":"4S店","address":"闵行区北翟路1556号(近北沈路)"},{"poiid":"B2094757D66CAAF94492","title":"上海第二十八机动车安全检测站","lon":"121.339871","lat":"31.223724","category":"500","category_name":"未知分类","address":"上海市长宁区北翟1551号"},{"poiid":"B2094655D26BAAFE419A","title":"金色西郊城二期","lon":"121.33854989726","lat":"31.230137003253","category":"47","category_name":"住宅区","address":"上海市闵行区北翟路1700弄"},{"poiid":"B2094757D66BA0FD4998","title":"山塘人家","lon":"121.3500812","lat":"31.2238095","category":"77","category_name":"湖南菜","address":"闵行区北翟路2000弄50号金色西郊城商业街"},{"poiid":"B2094757D16FABF94998","title":"翟业别克维修站","lon":"121.338707","lat":"31.22363","category":"163","category_name":"4S店","address":"上海北翟路1571号"},{"poiid":"B2094757D06AA1F44599","title":"莉莲蛋挞(临空店)Lilian Macau","lon":"121.35226447","lat":"31.230552955","category":"67","category_name":"甜品店","address":"长宁区协和路1551号宏基休闲广场(近临虹路)"},{"poiid":"B2094654DB6BA0FF439C","title":"华漕苑","lon":"121.33511","lat":"31.220428","category":"47","category_name":"住宅区","address":"东美路108弄"},{"poiid":"B2094750D76EA1F94793","title":"君淙会所","lon":"121.334","lat":"31.2238","category":"72","category_name":"广东菜","address":"闵行区北翟路2869号(近七莘路)"},{"poiid":"B2094757D16FA4FF429B","title":"第九机动车检测中心","lon":"121.340421","lat":"31.217435","category":"500","category_name":"未知分类","address":"上海天闪西路2166号"},{"poiid":"B2094757D06AA4F4499B","title":"7-ELEVEN(金钟店)","lon":"121.3514642","lat":"31.2208796","category":"117","category_name":"便民商店/便利店","address":"上海市金钟路999号C栋(3号楼)"},{"poiid":"B2094757D069A3FD419F","title":"虹桥国际科技广场","lon":"121.350976621","lat":"31.22021909","category":"201","category_name":"城市广场","address":"上海市金钟路999号"},{"poiid":"B2094757D06BA3FE499E","title":"虹桥机场航站楼摆渡巴士","lon":"121.33571936","lat":"31.2153037328","category":"260","category_name":"其他","address":"上海虹桥机场"},{"poiid":"B2094757D06FA6FD469E","title":"虹桥临空经济园区","lon":"121.348955","lat":"31.230453","category":"500","category_name":"未知分类","address":"上海临虹路280弄"},{"poiid":"B2094757D068A3FB469F","title":"金色西郊城","lon":"121.33219585036659","lat":"31.223784683592665","category":"47","category_name":"住宅区","address":"闵行区北翟路2000弄70支弄"},{"poiid":"B2094757D06FAAF84792","title":"虹桥临空SOHO中国羽毛球馆","lon":"121.35188056","lat":"31.230200647","category":"500","category_name":"未知分类","address":"长宁区协和路1551号(近临虹路)"},{"poiid":"B2094757D068A6FD4493","title":"博世总部","lon":"121.3555534","lat":"31.2297448","category":"46","category_name":"楼宇","address":"上海福泉北路333号"},{"poiid":"B2094757D068A2FF449C","title":"虹桥临空经济园区","lon":"121.35365074","lat":"31.219283776","category":"500","category_name":"未知分类","address":"上海长宁区协和路787号"},{"poiid":"B2094757D06BA6FF4893","title":"华漕","lon":"121.33239356","lat":"31.220920451","category":"500","category_name":"未知分类","address":"上海闵行区北翟路七莘路"},{"poiid":"B2094655D36CA5F5439C","title":"北翟路外环线","lon":"121.34992","lat":"31.22355","category":"38","category_name":"公交车站","address":""},{"poiid":"B2094757D068A5F44692","title":"北新泾监狱","lon":"121.34015983","lat":"31.222733249","category":"608","category_name":"法院","address":"上海北瞿路1551号"},{"poiid":"B2094757D66DABF94199","title":"虹桥国际商务花园","lon":"121.34893556","lat":"31.2321786891","category":"500","category_name":"未知分类","address":"上海市长宁区临虹路"},{"poiid":"B2094757D16EAAFE499D","title":"一汽沪奥奥迪4s","lon":"121.33582056","lat":"31.2242945226","category":"500","category_name":"未知分类","address":"闵行区北翟路1800号(近北沈路)"},{"poiid":"B209475CD76BA1F54292","title":"上海虹桥机场","lon":"121.341972","lat":"31.223468","category":"500","category_name":"未知分类","address":"上海市 上海市虹桥机场"},{"poiid":"B2094753DA68A6FA489C","title":"上海市人民广场","lon":"121.346488","lat":"31.222667","category":"500","category_name":"未知分类","address":"上海市 上海市人民广场"},{"poiid":"B2094757D069A6FA489B","title":"上海国际赛车场主看台","lon":"121.34329565","lat":"31.22072098","category":"220","category_name":"运动场所","address":"嘉定区伊宁路2000号上海国际赛车场内(近嘉定汽车城)"},{"poiid":"B2094654D56AA3F94693","title":"懂你餐厅","lon":"121.34278","lat":"31.22474","category":"257","category_name":"中餐厅","address":"北松路"},{"poiid":"B2094654D56AA0F5479C","title":"上海北翟长途汽车客运站","lon":"121.34455","lat":"31.22266","category":"35","category_name":"长途汽车站","address":"绥宁路897"},{"poiid":"B2094757D768A4FE459A","title":"炭烧丫霸 北翟路店","lon":"121.34595","lat":"31.22364","category":"647","category_name":"熟食","address":"闵行区北翟路1444弄130号"},{"poiid":"B2094654D56AA1F9429B","title":"双泾寺角落综合小区","lon":"121.34291","lat":"31.224089","category":"47","category_name":"住宅区","address":"北翟路北松路"},{"poiid":"B2094654D56AA3FB4093","title":"上海市工业区万力都市绥宁园区","lon":"121.34416","lat":"31.22231","category":"45","category_name":"产业园区","address":"绥宁路889"},{"poiid":"B2094757D568AAFB479D","title":"虹桥临空·弘基休闲广场","lon":"121.35109646","lat":"31.22970405","category":"201","category_name":"城市广场","address":"长宁区协和路临虹路口"},{"poiid":"B2094654D56AA3F94698","title":"双泾村","lon":"121.34657","lat":"31.224707","category":"47","category_name":"住宅区","address":"北翟路1280号"},{"poiid":"B2094654D56AA0FF419E","title":"双泾前场小区","lon":"121.34642","lat":"31.224743","category":"47","category_name":"住宅区","address":"北翟路1330弄"},{"poiid":"B2094757D069A5FD4998","title":"北翟路地铁车库","lon":"121.347985427","lat":"31.2325931867","category":"36","category_name":"地铁站","address":"上海市长宁区北翟路（泾力西路），外环旁边"},{"poiid":"B2094654D56AA3F94498","title":"双泾后场居住小区","lon":"121.3469","lat":"31.22431","category":"47","category_name":"住宅区","address":"外环经力西路"},{"poiid":"B2094655D265A3F5479D","title":"君腾鼎汇大酒楼","lon":"121.334582054","lat":"31.223914793","category":"76","category_name":"上海菜","address":"闵行区北翟路1551(近吴北路)"},{"poiid":"B2094757D069ABF8409E","title":"万博家园","lon":"121.334806","lat":"31.226895","category":"500","category_name":"未知分类","address":"上海北华路168弄"},{"poiid":"B2094654D569A4F9409F","title":"国际商务花园","lon":"121.34925","lat":"31.23099","category":"46","category_name":"楼宇","address":"上海临虹路280弄"},{"poiid":"B2094757D068A0F84599","title":"统一企业","lon":"121.35552514","lat":"31.225415922","category":"263","category_name":"公司","address":"上海长宁区临虹路131号"},{"poiid":"B2094752D164A5FB419C","title":"七宝老街","lon":"121.344863","lat":"31.220336","category":"247","category_name":"餐饮美食","address":null},{"poiid":"B2094654D56AA3F9439B","title":"前巷工业小区","lon":"121.34703","lat":"31.22549","category":"47","category_name":"住宅区","address":"外环经力西路"},{"poiid":"B2094752D369A2FE4593","title":"中环百联","lon":"121.3437696685427","lat":"31.22502612320585","category":"500","category_name":"未知分类","address":null},{"poiid":"B2094654D56AA3F94792","title":"东沈巷小区","lon":"121.34072","lat":"31.22438","category":"47","category_name":"住宅区","address":"上海北翟路1550号"},{"poiid":"B2094654D56AABFA469F","title":"鑫电公司职工宿舍","lon":"121.34151","lat":"31.22587","category":"47","category_name":"住宅区","address":"北翟路1550弄58号"},{"poiid":"B2094655D265A7FB499D","title":"莫泰168旅店上海华漕店","lon":"121.33481","lat":"31.2269","category":"216","category_name":"经济型连锁酒店","address":"闵行区北沈路168号(近北翟路)"},{"poiid":"B2094751D66FA4FD4392","title":"上海虹桥机场","lon":"121.336583","lat":"31.221818","category":"627","category_name":"一般地点标志","address":null},{"poiid":"B2094750DA6AA3F8469D","title":"虹桥国际会议中心","lon":"121.351852","lat":"31.220067","category":"263","category_name":"公司","address":"金钟路999号A栋"},{"poiid":"B2094654D56AA0F9409E","title":"足之道保健按摩","lon":"121.34221","lat":"31.22583","category":"149","category_name":"洗浴推拿场所","address":""},{"poiid":"B2094655D26FA1FE479D","title":"许浦村","lon":"121.33717","lat":"31.224735","category":"47","category_name":"住宅区","address":"北翟路1556弄2号"},{"poiid":"B2094655D265A3F54792","title":"君腾鼎汇快捷酒店","lon":"121.34028","lat":"31.22356","category":"216","category_name":"经济型连锁酒店","address":""},{"poiid":"B2094757D16BA4FC4193","title":"翟业汽车销售服务","lon":"121.33716656","lat":"31.224153519","category":"163","category_name":"4S店","address":"闵行区北翟路1556号(近北沈路)"},{"poiid":"B2094757D66CAAF94492","title":"上海第二十八机动车安全检测站","lon":"121.339871","lat":"31.223724","category":"500","category_name":"未知分类","address":"上海市长宁区北翟1551号"},{"poiid":"B2094655D26BAAFE419A","title":"金色西郊城二期","lon":"121.33854989726","lat":"31.230137003253","category":"47","category_name":"住宅区","address":"上海市闵行区北翟路1700弄"},{"poiid":"B2094757D66BA0FD4998","title":"山塘人家","lon":"121.3500812","lat":"31.2238095","category":"77","category_name":"湖南菜","address":"闵行区北翟路2000弄50号金色西郊城商业街"},{"poiid":"B2094757D16FABF94998","title":"翟业别克维修站","lon":"121.338707","lat":"31.22363","category":"163","category_name":"4S店","address":"上海北翟路1571号"},{"poiid":"B2094757D06AA1F44599","title":"莉莲蛋挞(临空店)Lilian Macau","lon":"121.35226447","lat":"31.230552955","category":"67","category_name":"甜品店","address":"长宁区协和路1551号宏基休闲广场(近临虹路)"},{"poiid":"B2094654DB6BA0FF439C","title":"华漕苑","lon":"121.33511","lat":"31.220428","category":"47","category_name":"住宅区","address":"东美路108弄"},{"poiid":"B2094750D76EA1F94793","title":"君淙会所","lon":"121.334","lat":"31.2238","category":"72","category_name":"广东菜","address":"闵行区北翟路2869号(近七莘路)"},{"poiid":"B2094757D16FA4FF429B","title":"第九机动车检测中心","lon":"121.340421","lat":"31.217435","category":"500","category_name":"未知分类","address":"上海天闪西路2166号"},{"poiid":"B2094757D06AA4F4499B","title":"7-ELEVEN(金钟店)","lon":"121.3514642","lat":"31.2208796","category":"117","category_name":"便民商店/便利店","address":"上海市金钟路999号C栋(3号楼)"}]