[{"poiid":"B2094757D06FA3F84992","title":"上海市行健职业学院","lon":"121.43371","lat":"31.27958","category":"52","category_name":"高等院校","address":"上海闸北区原平路55号(近灵石路)"},{"poiid":"B2094757D06FA5FB4693","title":"新中高级中学","lon":"121.43286","lat":"31.28429","category":"55","category_name":"中学","address":"上海闸北区原平路400号(近永和路)  "},{"poiid":"B2094757D06FA7FB4793","title":"大华阳城花园","lon":"121.4272474","lat":"31.282851137","category":"47","category_name":"住宅区","address":"上海市闸北区阳城路283弄"},{"poiid":"B2094757D06FABF4479D","title":"养和酒家","lon":"121.42893","lat":"31.28509","category":"76","category_name":"上海菜","address":"闸北区阳城路183号4楼(近高平路)"},{"poiid":"B2094752D769A0FF499B","title":"雅悦新天地","lon":"121.43202600967","lat":"31.277625125387","category":"247","category_name":"餐饮美食","address":"上海市闸北区高平路88号"},{"poiid":"B2094654D464A7F9489E","title":"上海行健职业学院西区","lon":"121.43023","lat":"31.27903","category":"54","category_name":"职业技术学校","address":"高平路131"},{"poiid":"B2094757D06FA7FB4198","title":"枫庭丽苑","lon":"121.428396","lat":"31.28578","category":"47","category_name":"住宅区","address":"上海华灵路1788弄"},{"poiid":"B2094654D464A7FC409A","title":"上海市民办新和中学","lon":"121.43285","lat":"31.28185","category":"55","category_name":"中学","address":"闸北区原平路128号(近晋城路)"},{"poiid":"B2094750D46BABF84298","title":"大宁","lon":"121.43309","lat":"31.276487","category":"247","category_name":"餐饮美食","address":null},{"poiid":"B2094654D464A6FC469F","title":"上海幻维数码创意科技有限公司","lon":"121.43862","lat":"31.27926","category":"263","category_name":"公司","address":"广中西路777弄11"},{"poiid":"B2094757D064A0FB4498","title":"永灵小区","lon":"121.43119","lat":"31.283329","category":"47","category_name":"住宅区","address":"上海闸北区原平路289弄"},{"poiid":"B2094655D265A0FE409E","title":"大华虎城购物中心","lon":"121.42791","lat":"31.28188","category":"119","category_name":"商场","address":"晋城路663弄"},{"poiid":"B2094757D06FAAF44192","title":"彭浦镇社区文化活动中心","lon":"121.43815612","lat":"31.282266616","category":"260","category_name":"其他","address":"闸北区灵石路745号"},{"poiid":"B2094757D469A6FE4098","title":"味多美 阳城路店 Wedome","lon":"121.4277045","lat":"31.2843577","category":"112","category_name":"糕饼店","address":"闸北区阳城路192号(高平路口)"},{"poiid":"B2094757D06FABF9499C","title":"大华阳城书院","lon":"121.4337446","lat":"31.2820867","category":"500","category_name":"未知分类","address":"上海市闸北区晋城路338弄"},{"poiid":"B2094757D06AABFF479E","title":"派特宠物医院","lon":"121.43196","lat":"31.28451","category":"162","category_name":"医院","address":"闸北区阳城路8号(近原平路)"},{"poiid":"B2094655D26DAAFB4493","title":"德缘居茶道","lon":"121.43232","lat":"31.28135","category":"66","category_name":"茶艺馆","address":"闸北区晋城路427号(晋城路原平路)"},{"poiid":"B2094757D06FA4F84698","title":"永和丽园","lon":"121.431884","lat":"31.285396","category":"47","category_name":"住宅区","address":"上海原平路383弄"},{"poiid":"B2094654D464A7F94599","title":"上海行健职业学院(西门)","lon":"121.43037","lat":"31.28002","category":"656","category_name":"大门","address":""},{"poiid":"B2094757D168A7FB499D","title":"闸北区第二中心小学","lon":"121.433872","lat":"31.280976","category":"253","category_name":"校园生活","address":"闸北区原平路56"},{"poiid":"B2094654D464A7F9419B","title":"震旦外国语幼儿园","lon":"121.43361","lat":"31.28112","category":"57","category_name":"幼儿园","address":"原平路58"},{"poiid":"B2094757D16FA4FC4198","title":"雅乐湘菜馆","lon":"121.43280025","lat":"31.282356251","category":"247","category_name":"餐饮美食","address":"上海阳城路10号"},{"poiid":"B2094655D36DA0F54893","title":"原平路阳城路","lon":"121.43219","lat":"31.2832","category":"38","category_name":"公交车站","address":""},{"poiid":"B2094757D568A4FB4999","title":"全家","lon":"121.43228353","lat":"31.28165419","category":"117","category_name":"便民商店/便利店","address":"中国上海市闸北区原平路"},{"poiid":"B2094757D06AA6F8469D","title":"鑫旺苏州汤包馆","lon":"121.42918295","lat":"31.2865863768","category":"68","category_name":"快餐厅","address":"闸北区阳城路101弄10号(近高平路)"},{"poiid":"B2094757D06FA4FF449B","title":"广盛苑","lon":"121.43116","lat":"31.276625","category":"252","category_name":"楼宇机构","address":"上海灵石路963弄"},{"poiid":"B2094655D36DA0F5499B","title":"原平路永和小区","lon":"121.4322","lat":"31.28326","category":"38","category_name":"公交车站","address":""},{"poiid":"B2094757D069A7F9459B","title":"大桶大足浴(晋城路店)","lon":"121.43197","lat":"31.28095","category":"149","category_name":"洗浴推拿场所","address":"闸北区晋城路751号(近沪太路)"},{"poiid":"B2094757D76CA0FE439D","title":"上味馆南翔小笼 高平路店","lon":"121.42862","lat":"31.28253","category":"68","category_name":"快餐厅","address":"闸北区高平路209号(近阳城路)"},{"poiid":"B2094750DB65A4F54293","title":"铜川路炸猪排","lon":"121.436103","lat":"31.282503","category":"247","category_name":"餐饮美食","address":"铜川路万镇路"},{"poiid":"B2094757D168A2FB4293","title":"高平路晋城路","lon":"121.429628","lat":"31.280521","category":"500","category_name":"未知分类","address":"上海高平路晋城路"},{"poiid":"B2094655D265A6FB479E","title":"永和新城阳城三期","lon":"121.43153","lat":"31.28208","category":"47","category_name":"住宅区","address":"永和新城.阳城三期位于闸北原平路183弄13号"},{"poiid":"B2094751D565A4FB479F","title":"蔡嘉法式甜品","lon":"121.43639","lat":"31.28445","category":"247","category_name":"餐饮美食","address":"大宁中心广场万荣路700号c5"},{"poiid":"B2094752D564A7FA489F","title":"鲜芋仙 万荣大宁中心广场店","lon":"121.435867","lat":"31.284233","category":"247","category_name":"餐饮美食","address":"闸北区 灵石路700号D座"},{"poiid":"B2094654DB6AA4F54393","title":"新中高级中学(西一门)","lon":"121.43229","lat":"31.28453","category":"678","category_name":"学校大门","address":"原平路330"},{"poiid":"B2094655D26DAAF94192","title":"学生公寓","lon":"121.43319","lat":"31.27976","category":"47","category_name":"住宅区","address":""},{"poiid":"B2094757D168ABFE429B","title":"人和餐厅","lon":"121.42916695","lat":"31.285961364","category":"76","category_name":"上海菜","address":"闸北区高平路545-549号(近永和路)"},{"poiid":"B2094655D36DA0F94592","title":"阳城路","lon":"121.43042","lat":"31.28448","category":"38","category_name":"公交车站","address":""},{"poiid":"B2094752D668A5FE499A","title":"Vili Bistro","lon":"121.437426","lat":"31.284248","category":"247","category_name":"餐饮美食","address":"闸北区大宁中心C3"},{"poiid":"B2094654D464A7F9419E","title":"上海大学高等技术学院闸北分院","lon":"121.43251","lat":"31.2801","category":"52","category_name":"高等院校","address":"原平路55"},{"poiid":"B2094757D46EA5F54598","title":"阿三烧鸡公 高平路店","lon":"121.4294559","lat":"31.281142","category":"71","category_name":"四川菜","address":"闸北区高平路201号(近晋城路)"},{"poiid":"B2094757D065A7F8459D","title":"闸北区彭浦镇社区卫生服务中心","lon":"121.437971","lat":"31.282313","category":"500","category_name":"未知分类","address":"上海灵石路789号"},{"poiid":"B2094655D26CA1F9479A","title":"上海市闸北区社区学院","lon":"121.43251","lat":"31.28011","category":"52","category_name":"高等院校","address":"原平路55"},{"poiid":"B2094654DB69A6FE439A","title":"阳城世家(大华阳城六期)","lon":"121.43092","lat":"31.28354","category":"47","category_name":"住宅区","address":"闸北区沪太路1589号"},{"poiid":"B2094654D464A7FD419C","title":"中国移动阳城路营业厅","lon":"121.43149","lat":"31.28474","category":"151","category_name":"电讯营业厅","address":"阳城路18"},{"poiid":"B2094757D76CA3FE4693","title":"豪味道大大鸡排 高平路店","lon":"121.42914","lat":"31.28208","category":"68","category_name":"快餐厅","address":"闸北区高平路214号(近晋城路)"},{"poiid":"B2094757D165A4FD419B","title":"紫尚OEC造型会所","lon":"121.43285955","lat":"31.2841457302","category":"148","category_name":"美容美发店","address":"上海共和新路广中西路"},{"poiid":"B2094757D168A0F94092","title":"豪大大香鸡排","lon":"121.43174525","lat":"31.284846943","category":"247","category_name":"餐饮美食","address":"上海阳城路"},{"poiid":"B2094757D06BA0FC4598","title":"上海电视大学(闸北分校)","lon":"121.43282","lat":"31.28054","category":"253","category_name":"校园生活","address":"上海闸北区原平路55号  "},{"poiid":"B2094654D464A7FD4293","title":"永和丽园(南门)","lon":"121.42986","lat":"31.2847","category":"656","category_name":"大门","address":"阳城路100弄"},{"poiid":"B2094757D06FA3F84992","title":"上海市行健职业学院","lon":"121.43371","lat":"31.27958","category":"52","category_name":"高等院校","address":"上海闸北区原平路55号(近灵石路)"},{"poiid":"B2094757D06FA5FB4693","title":"新中高级中学","lon":"121.43286","lat":"31.28429","category":"55","category_name":"中学","address":"上海闸北区原平路400号(近永和路)  "},{"poiid":"B2094757D06FA7FB4793","title":"大华阳城花园","lon":"121.4272474","lat":"31.282851137","category":"47","category_name":"住宅区","address":"上海市闸北区阳城路283弄"},{"poiid":"B2094757D06FABF4479D","title":"养和酒家","lon":"121.42893","lat":"31.28509","category":"76","category_name":"上海菜","address":"闸北区阳城路183号4楼(近高平路)"},{"poiid":"B2094752D769A0FF499B","title":"雅悦新天地","lon":"121.43202600967","lat":"31.277625125387","category":"247","category_name":"餐饮美食","address":"上海市闸北区高平路88号"},{"poiid":"B2094654D464A7F9489E","title":"上海行健职业学院西区","lon":"121.43023","lat":"31.27903","category":"54","category_name":"职业技术学校","address":"高平路131"},{"poiid":"B2094757D06FA7FB4198","title":"枫庭丽苑","lon":"121.428396","lat":"31.28578","category":"47","category_name":"住宅区","address":"上海华灵路1788弄"},{"poiid":"B2094654D464A7FC409A","title":"上海市民办新和中学","lon":"121.43285","lat":"31.28185","category":"55","category_name":"中学","address":"闸北区原平路128号(近晋城路)"},{"poiid":"B2094750D46BABF84298","title":"大宁","lon":"121.43309","lat":"31.276487","category":"247","category_name":"餐饮美食","address":null},{"poiid":"B2094654D464A6FC469F","title":"上海幻维数码创意科技有限公司","lon":"121.43862","lat":"31.27926","category":"263","category_name":"公司","address":"广中西路777弄11"},{"poiid":"B2094757D064A0FB4498","title":"永灵小区","lon":"121.43119","lat":"31.283329","category":"47","category_name":"住宅区","address":"上海闸北区原平路289弄"},{"poiid":"B2094655D265A0FE409E","title":"大华虎城购物中心","lon":"121.42791","lat":"31.28188","category":"119","category_name":"商场","address":"晋城路663弄"},{"poiid":"B2094757D06FAAF44192","title":"彭浦镇社区文化活动中心","lon":"121.43815612","lat":"31.282266616","category":"260","category_name":"其他","address":"闸北区灵石路745号"},{"poiid":"B2094757D469A6FE4098","title":"味多美 阳城路店 Wedome","lon":"121.4277045","lat":"31.2843577","category":"112","category_name":"糕饼店","address":"闸北区阳城路192号(高平路口)"},{"poiid":"B2094757D06FABF9499C","title":"大华阳城书院","lon":"121.4337446","lat":"31.2820867","category":"500","category_name":"未知分类","address":"上海市闸北区晋城路338弄"},{"poiid":"B2094757D06AABFF479E","title":"派特宠物医院","lon":"121.43196","lat":"31.28451","category":"162","category_name":"医院","address":"闸北区阳城路8号(近原平路)"},{"poiid":"B2094655D26DAAFB4493","title":"德缘居茶道","lon":"121.43232","lat":"31.28135","category":"66","category_name":"茶艺馆","address":"闸北区晋城路427号(晋城路原平路)"},{"poiid":"B2094757D06FA4F84698","title":"永和丽园","lon":"121.431884","lat":"31.285396","category":"47","category_name":"住宅区","address":"上海原平路383弄"},{"poiid":"B2094654D464A7F94599","title":"上海行健职业学院(西门)","lon":"121.43037","lat":"31.28002","category":"656","category_name":"大门","address":""},{"poiid":"B2094757D168A7FB499D","title":"闸北区第二中心小学","lon":"121.433872","lat":"31.280976","category":"253","category_name":"校园生活","address":"闸北区原平路56"},{"poiid":"B2094654D464A7F9419B","title":"震旦外国语幼儿园","lon":"121.43361","lat":"31.28112","category":"57","category_name":"幼儿园","address":"原平路58"},{"poiid":"B2094757D16FA4FC4198","title":"雅乐湘菜馆","lon":"121.43280025","lat":"31.282356251","category":"247","category_name":"餐饮美食","address":"上海阳城路10号"},{"poiid":"B2094655D36DA0F54893","title":"原平路阳城路","lon":"121.43219","lat":"31.2832","category":"38","category_name":"公交车站","address":""},{"poiid":"B2094757D568A4FB4999","title":"全家","lon":"121.43228353","lat":"31.28165419","category":"117","category_name":"便民商店/便利店","address":"中国上海市闸北区原平路"},{"poiid":"B2094757D06AA6F8469D","title":"鑫旺苏州汤包馆","lon":"121.42918295","lat":"31.2865863768","category":"68","category_name":"快餐厅","address":"闸北区阳城路101弄10号(近高平路)"},{"poiid":"B2094757D06FA4FF449B","title":"广盛苑","lon":"121.43116","lat":"31.276625","category":"252","category_name":"楼宇机构","address":"上海灵石路963弄"},{"poiid":"B2094655D36DA0F5499B","title":"原平路永和小区","lon":"121.4322","lat":"31.28326","category":"38","category_name":"公交车站","address":""},{"poiid":"B2094757D069A7F9459B","title":"大桶大足浴(晋城路店)","lon":"121.43197","lat":"31.28095","category":"149","category_name":"洗浴推拿场所","address":"闸北区晋城路751号(近沪太路)"},{"poiid":"B2094757D76CA0FE439D","title":"上味馆南翔小笼 高平路店","lon":"121.42862","lat":"31.28253","category":"68","category_name":"快餐厅","address":"闸北区高平路209号(近阳城路)"},{"poiid":"B2094750DB65A4F54293","title":"铜川路炸猪排","lon":"121.436103","lat":"31.282503","category":"247","category_name":"餐饮美食","address":"铜川路万镇路"},{"poiid":"B2094757D168A2FB4293","title":"高平路晋城路","lon":"121.429628","lat":"31.280521","category":"500","category_name":"未知分类","address":"上海高平路晋城路"},{"poiid":"B2094655D265A6FB479E","title":"永和新城阳城三期","lon":"121.43153","lat":"31.28208","category":"47","category_name":"住宅区","address":"永和新城.阳城三期位于闸北原平路183弄13号"},{"poiid":"B2094751D565A4FB479F","title":"蔡嘉法式甜品","lon":"121.43639","lat":"31.28445","category":"247","category_name":"餐饮美食","address":"大宁中心广场万荣路700号c5"},{"poiid":"B2094752D564A7FA489F","title":"鲜芋仙 万荣大宁中心广场店","lon":"121.435867","lat":"31.284233","category":"247","category_name":"餐饮美食","address":"闸北区 灵石路700号D座"},{"poiid":"B2094654DB6AA4F54393","title":"新中高级中学(西一门)","lon":"121.43229","lat":"31.28453","category":"678","category_name":"学校大门","address":"原平路330"},{"poiid":"B2094655D26DAAF94192","title":"学生公寓","lon":"121.43319","lat":"31.27976","category":"47","category_name":"住宅区","address":""},{"poiid":"B2094757D168ABFE429B","title":"人和餐厅","lon":"121.42916695","lat":"31.285961364","category":"76","category_name":"上海菜","address":"闸北区高平路545-549号(近永和路)"},{"poiid":"B2094655D36DA0F94592","title":"阳城路","lon":"121.43042","lat":"31.28448","category":"38","category_name":"公交车站","address":""},{"poiid":"B2094752D668A5FE499A","title":"Vili Bistro","lon":"121.437426","lat":"31.284248","category":"247","category_name":"餐饮美食","address":"闸北区大宁中心C3"},{"poiid":"B2094654D464A7F9419E","title":"上海大学高等技术学院闸北分院","lon":"121.43251","lat":"31.2801","category":"52","category_name":"高等院校","address":"原平路55"},{"poiid":"B2094757D46EA5F54598","title":"阿三烧鸡公 高平路店","lon":"121.4294559","lat":"31.281142","category":"71","category_name":"四川菜","address":"闸北区高平路201号(近晋城路)"},{"poiid":"B2094757D065A7F8459D","title":"闸北区彭浦镇社区卫生服务中心","lon":"121.437971","lat":"31.282313","category":"500","category_name":"未知分类","address":"上海灵石路789号"},{"poiid":"B2094655D26CA1F9479A","title":"上海市闸北区社区学院","lon":"121.43251","lat":"31.28011","category":"52","category_name":"高等院校","address":"原平路55"},{"poiid":"B2094654DB69A6FE439A","title":"阳城世家(大华阳城六期)","lon":"121.43092","lat":"31.28354","category":"47","category_name":"住宅区","address":"闸北区沪太路1589号"},{"poiid":"B2094654D464A7FD419C","title":"中国移动阳城路营业厅","lon":"121.43149","lat":"31.28474","category":"151","category_name":"电讯营业厅","address":"阳城路18"},{"poiid":"B2094757D76CA3FE4693","title":"豪味道大大鸡排 高平路店","lon":"121.42914","lat":"31.28208","category":"68","category_name":"快餐厅","address":"闸北区高平路214号(近晋城路)"},{"poiid":"B2094757D165A4FD419B","title":"紫尚OEC造型会所","lon":"121.43285955","lat":"31.2841457302","category":"148","category_name":"美容美发店","address":"上海共和新路广中西路"},{"poiid":"B2094757D168A0F94092","title":"豪大大香鸡排","lon":"121.43174525","lat":"31.284846943","category":"247","category_name":"餐饮美食","address":"上海阳城路"},{"poiid":"B2094757D06BA0FC4598","title":"上海电视大学(闸北分校)","lon":"121.43282","lat":"31.28054","category":"253","category_name":"校园生活","address":"上海闸北区原平路55号  "},{"poiid":"B2094654D464A7FD4293","title":"永和丽园(南门)","lon":"121.42986","lat":"31.2847","category":"656","category_name":"大门","address":"阳城路100弄"},{"poiid":"B2094757D06FA3F84992","title":"上海市行健职业学院","lon":"121.43371","lat":"31.27958","category":"52","category_name":"高等院校","address":"上海闸北区原平路55号(近灵石路)"},{"poiid":"B2094757D06FA5FB4693","title":"新中高级中学","lon":"121.43286","lat":"31.28429","category":"55","category_name":"中学","address":"上海闸北区原平路400号(近永和路)  "},{"poiid":"B2094757D06FA7FB4793","title":"大华阳城花园","lon":"121.4272474","lat":"31.282851137","category":"47","category_name":"住宅区","address":"上海市闸北区阳城路283弄"},{"poiid":"B2094757D06FABF4479D","title":"养和酒家","lon":"121.42893","lat":"31.28509","category":"76","category_name":"上海菜","address":"闸北区阳城路183号4楼(近高平路)"},{"poiid":"B2094752D769A0FF499B","title":"雅悦新天地","lon":"121.43202600967","lat":"31.277625125387","category":"247","category_name":"餐饮美食","address":"上海市闸北区高平路88号"},{"poiid":"B2094654D464A7F9489E","title":"上海行健职业学院西区","lon":"121.43023","lat":"31.27903","category":"54","category_name":"职业技术学校","address":"高平路131"},{"poiid":"B2094757D06FA7FB4198","title":"枫庭丽苑","lon":"121.428396","lat":"31.28578","category":"47","category_name":"住宅区","address":"上海华灵路1788弄"},{"poiid":"B2094654D464A7FC409A","title":"上海市民办新和中学","lon":"121.43285","lat":"31.28185","category":"55","category_name":"中学","address":"闸北区原平路128号(近晋城路)"},{"poiid":"B2094750D46BABF84298","title":"大宁","lon":"121.43309","lat":"31.276487","category":"247","category_name":"餐饮美食","address":null},{"poiid":"B2094654D464A6FC469F","title":"上海幻维数码创意科技有限公司","lon":"121.43862","lat":"31.27926","category":"263","category_name":"公司","address":"广中西路777弄11"},{"poiid":"B2094757D064A0FB4498","title":"永灵小区","lon":"121.43119","lat":"31.283329","category":"47","category_name":"住宅区","address":"上海闸北区原平路289弄"},{"poiid":"B2094655D265A0FE409E","title":"大华虎城购物中心","lon":"121.42791","lat":"31.28188","category":"119","category_name":"商场","address":"晋城路663弄"},{"poiid":"B2094757D06FAAF44192","title":"彭浦镇社区文化活动中心","lon":"121.43815612","lat":"31.282266616","category":"260","category_name":"其他","address":"闸北区灵石路745号"},{"poiid":"B2094757D469A6FE4098","title":"味多美 阳城路店 Wedome","lon":"121.4277045","lat":"31.2843577","category":"112","category_name":"糕饼店","address":"闸北区阳城路192号(高平路口)"},{"poiid":"B2094757D06FABF9499C","title":"大华阳城书院","lon":"121.4337446","lat":"31.2820867","category":"500","category_name":"未知分类","address":"上海市闸北区晋城路338弄"},{"poiid":"B2094757D06AABFF479E","title":"派特宠物医院","lon":"121.43196","lat":"31.28451","category":"162","category_name":"医院","address":"闸北区阳城路8号(近原平路)"},{"poiid":"B2094655D26DAAFB4493","title":"德缘居茶道","lon":"121.43232","lat":"31.28135","category":"66","category_name":"茶艺馆","address":"闸北区晋城路427号(晋城路原平路)"},{"poiid":"B2094757D06FA4F84698","title":"永和丽园","lon":"121.431884","lat":"31.285396","category":"47","category_name":"住宅区","address":"上海原平路383弄"},{"poiid":"B2094654D464A7F94599","title":"上海行健职业学院(西门)","lon":"121.43037","lat":"31.28002","category":"656","category_name":"大门","address":""},{"poiid":"B2094757D168A7FB499D","title":"闸北区第二中心小学","lon":"121.433872","lat":"31.280976","category":"253","category_name":"校园生活","address":"闸北区原平路56"},{"poiid":"B2094654D464A7F9419B","title":"震旦外国语幼儿园","lon":"121.43361","lat":"31.28112","category":"57","category_name":"幼儿园","address":"原平路58"},{"poiid":"B2094757D16FA4FC4198","title":"雅乐湘菜馆","lon":"121.43280025","lat":"31.282356251","category":"247","category_name":"餐饮美食","address":"上海阳城路10号"},{"poiid":"B2094655D36DA0F54893","title":"原平路阳城路","lon":"121.43219","lat":"31.2832","category":"38","category_name":"公交车站","address":""},{"poiid":"B2094757D568A4FB4999","title":"全家","lon":"121.43228353","lat":"31.28165419","category":"117","category_name":"便民商店/便利店","address":"中国上海市闸北区原平路"},{"poiid":"B2094757D06AA6F8469D","title":"鑫旺苏州汤包馆","lon":"121.42918295","lat":"31.2865863768","category":"68","category_name":"快餐厅","address":"闸北区阳城路101弄10号(近高平路)"},{"poiid":"B2094757D06FA4FF449B","title":"广盛苑","lon":"121.43116","lat":"31.276625","category":"252","category_name":"楼宇机构","address":"上海灵石路963弄"},{"poiid":"B2094655D36DA0F5499B","title":"原平路永和小区","lon":"121.4322","lat":"31.28326","category":"38","category_name":"公交车站","address":""},{"poiid":"B2094757D069A7F9459B","title":"大桶大足浴(晋城路店)","lon":"121.43197","lat":"31.28095","category":"149","category_name":"洗浴推拿场所","address":"闸北区晋城路751号(近沪太路)"},{"poiid":"B2094757D76CA0FE439D","title":"上味馆南翔小笼 高平路店","lon":"121.42862","lat":"31.28253","category":"68","category_name":"快餐厅","address":"闸北区高平路209号(近阳城路)"},{"poiid":"B2094750DB65A4F54293","title":"铜川路炸猪排","lon":"121.436103","lat":"31.282503","category":"247","category_name":"餐饮美食","address":"铜川路万镇路"},{"poiid":"B2094757D168A2FB4293","title":"高平路晋城路","lon":"121.429628","lat":"31.280521","category":"500","category_name":"未知分类","address":"上海高平路晋城路"},{"poiid":"B2094655D265A6FB479E","title":"永和新城阳城三期","lon":"121.43153","lat":"31.28208","category":"47","category_name":"住宅区","address":"永和新城.阳城三期位于闸北原平路183弄13号"},{"poiid":"B2094751D565A4FB479F","title":"蔡嘉法式甜品","lon":"121.43639","lat":"31.28445","category":"247","category_name":"餐饮美食","address":"大宁中心广场万荣路700号c5"},{"poiid":"B2094752D564A7FA489F","title":"鲜芋仙 万荣大宁中心广场店","lon":"121.435867","lat":"31.284233","category":"247","category_name":"餐饮美食","address":"闸北区 灵石路700号D座"},{"poiid":"B2094654DB6AA4F54393","title":"新中高级中学(西一门)","lon":"121.43229","lat":"31.28453","category":"678","category_name":"学校大门","address":"原平路330"},{"poiid":"B2094655D26DAAF94192","title":"学生公寓","lon":"121.43319","lat":"31.27976","category":"47","category_name":"住宅区","address":""},{"poiid":"B2094757D168ABFE429B","title":"人和餐厅","lon":"121.42916695","lat":"31.285961364","category":"76","category_name":"上海菜","address":"闸北区高平路545-549号(近永和路)"},{"poiid":"B2094655D36DA0F94592","title":"阳城路","lon":"121.43042","lat":"31.28448","category":"38","category_name":"公交车站","address":""},{"poiid":"B2094752D668A5FE499A","title":"Vili Bistro","lon":"121.437426","lat":"31.284248","category":"247","category_name":"餐饮美食","address":"闸北区大宁中心C3"},{"poiid":"B2094654D464A7F9419E","title":"上海大学高等技术学院闸北分院","lon":"121.43251","lat":"31.2801","category":"52","category_name":"高等院校","address":"原平路55"},{"poiid":"B2094757D46EA5F54598","title":"阿三烧鸡公 高平路店","lon":"121.4294559","lat":"31.281142","category":"71","category_name":"四川菜","address":"闸北区高平路201号(近晋城路)"},{"poiid":"B2094757D065A7F8459D","title":"闸北区彭浦镇社区卫生服务中心","lon":"121.437971","lat":"31.282313","category":"500","category_name":"未知分类","address":"上海灵石路789号"},{"poiid":"B2094655D26CA1F9479A","title":"上海市闸北区社区学院","lon":"121.43251","lat":"31.28011","category":"52","category_name":"高等院校","address":"原平路55"},{"poiid":"B2094654DB69A6FE439A","title":"阳城世家(大华阳城六期)","lon":"121.43092","lat":"31.28354","category":"47","category_name":"住宅区","address":"闸北区沪太路1589号"},{"poiid":"B2094654D464A7FD419C","title":"中国移动阳城路营业厅","lon":"121.43149","lat":"31.28474","category":"151","category_name":"电讯营业厅","address":"阳城路18"},{"poiid":"B2094757D76CA3FE4693","title":"豪味道大大鸡排 高平路店","lon":"121.42914","lat":"31.28208","category":"68","category_name":"快餐厅","address":"闸北区高平路214号(近晋城路)"},{"poiid":"B2094757D165A4FD419B","title":"紫尚OEC造型会所","lon":"121.43285955","lat":"31.2841457302","category":"148","category_name":"美容美发店","address":"上海共和新路广中西路"},{"poiid":"B2094757D168A0F94092","title":"豪大大香鸡排","lon":"121.43174525","lat":"31.284846943","category":"247","category_name":"餐饮美食","address":"上海阳城路"},{"poiid":"B2094757D06BA0FC4598","title":"上海电视大学(闸北分校)","lon":"121.43282","lat":"31.28054","category":"253","category_name":"校园生活","address":"上海闸北区原平路55号  "},{"poiid":"B2094654D464A7FD4293","title":"永和丽园(南门)","lon":"121.42986","lat":"31.2847","category":"656","category_name":"大门","address":"阳城路100弄"},{"poiid":"B2094757D06FA3F84992","title":"上海市行健职业学院","lon":"121.43371","lat":"31.27958","category":"52","category_name":"高等院校","address":"上海闸北区原平路55号(近灵石路)"},{"poiid":"B2094757D06FA5FB4693","title":"新中高级中学","lon":"121.43286","lat":"31.28429","category":"55","category_name":"中学","address":"上海闸北区原平路400号(近永和路)  "},{"poiid":"B2094757D06FA7FB4793","title":"大华阳城花园","lon":"121.4272474","lat":"31.282851137","category":"47","category_name":"住宅区","address":"上海市闸北区阳城路283弄"},{"poiid":"B2094757D06FABF4479D","title":"养和酒家","lon":"121.42893","lat":"31.28509","category":"76","category_name":"上海菜","address":"闸北区阳城路183号4楼(近高平路)"},{"poiid":"B2094752D769A0FF499B","title":"雅悦新天地","lon":"121.43202600967","lat":"31.277625125387","category":"247","category_name":"餐饮美食","address":"上海市闸北区高平路88号"},{"poiid":"B2094654D464A7F9489E","title":"上海行健职业学院西区","lon":"121.43023","lat":"31.27903","category":"54","category_name":"职业技术学校","address":"高平路131"},{"poiid":"B2094757D06FA7FB4198","title":"枫庭丽苑","lon":"121.428396","lat":"31.28578","category":"47","category_name":"住宅区","address":"上海华灵路1788弄"},{"poiid":"B2094654D464A7FC409A","title":"上海市民办新和中学","lon":"121.43285","lat":"31.28185","category":"55","category_name":"中学","address":"闸北区原平路128号(近晋城路)"},{"poiid":"B2094750D46BABF84298","title":"大宁","lon":"121.43309","lat":"31.276487","category":"247","category_name":"餐饮美食","address":null},{"poiid":"B2094654D464A6FC469F","title":"上海幻维数码创意科技有限公司","lon":"121.43862","lat":"31.27926","category":"263","category_name":"公司","address":"广中西路777弄11"},{"poiid":"B2094757D064A0FB4498","title":"永灵小区","lon":"121.43119","lat":"31.283329","category":"47","category_name":"住宅区","address":"上海闸北区原平路289弄"},{"poiid":"B2094655D265A0FE409E","title":"大华虎城购物中心","lon":"121.42791","lat":"31.28188","category":"119","category_name":"商场","address":"晋城路663弄"},{"poiid":"B2094757D06FAAF44192","title":"彭浦镇社区文化活动中心","lon":"121.43815612","lat":"31.282266616","category":"260","category_name":"其他","address":"闸北区灵石路745号"},{"poiid":"B2094757D469A6FE4098","title":"味多美 阳城路店 Wedome","lon":"121.4277045","lat":"31.2843577","category":"112","category_name":"糕饼店","address":"闸北区阳城路192号(高平路口)"},{"poiid":"B2094757D06FABF9499C","title":"大华阳城书院","lon":"121.4337446","lat":"31.2820867","category":"500","category_name":"未知分类","address":"上海市闸北区晋城路338弄"},{"poiid":"B2094757D06AABFF479E","title":"派特宠物医院","lon":"121.43196","lat":"31.28451","category":"162","category_name":"医院","address":"闸北区阳城路8号(近原平路)"},{"poiid":"B2094655D26DAAFB4493","title":"德缘居茶道","lon":"121.43232","lat":"31.28135","category":"66","category_name":"茶艺馆","address":"闸北区晋城路427号(晋城路原平路)"},{"poiid":"B2094757D06FA4F84698","title":"永和丽园","lon":"121.431884","lat":"31.285396","category":"47","category_name":"住宅区","address":"上海原平路383弄"},{"poiid":"B2094654D464A7F94599","title":"上海行健职业学院(西门)","lon":"121.43037","lat":"31.28002","category":"656","category_name":"大门","address":""},{"poiid":"B2094757D168A7FB499D","title":"闸北区第二中心小学","lon":"121.433872","lat":"31.280976","category":"253","category_name":"校园生活","address":"闸北区原平路56"},{"poiid":"B2094654D464A7F9419B","title":"震旦外国语幼儿园","lon":"121.43361","lat":"31.28112","category":"57","category_name":"幼儿园","address":"原平路58"},{"poiid":"B2094757D16FA4FC4198","title":"雅乐湘菜馆","lon":"121.43280025","lat":"31.282356251","category":"247","category_name":"餐饮美食","address":"上海阳城路10号"},{"poiid":"B2094655D36DA0F54893","title":"原平路阳城路","lon":"121.43219","lat":"31.2832","category":"38","category_name":"公交车站","address":""},{"poiid":"B2094757D568A4FB4999","title":"全家","lon":"121.43228353","lat":"31.28165419","category":"117","category_name":"便民商店/便利店","address":"中国上海市闸北区原平路"},{"poiid":"B2094757D06AA6F8469D","title":"鑫旺苏州汤包馆","lon":"121.42918295","lat":"31.2865863768","category":"68","category_name":"快餐厅","address":"闸北区阳城路101弄10号(近高平路)"},{"poiid":"B2094757D06FA4FF449B","title":"广盛苑","lon":"121.43116","lat":"31.276625","category":"252","category_name":"楼宇机构","address":"上海灵石路963弄"},{"poiid":"B2094655D36DA0F5499B","title":"原平路永和小区","lon":"121.4322","lat":"31.28326","category":"38","category_name":"公交车站","address":""},{"poiid":"B2094757D069A7F9459B","title":"大桶大足浴(晋城路店)","lon":"121.43197","lat":"31.28095","category":"149","category_name":"洗浴推拿场所","address":"闸北区晋城路751号(近沪太路)"},{"poiid":"B2094757D76CA0FE439D","title":"上味馆南翔小笼 高平路店","lon":"121.42862","lat":"31.28253","category":"68","category_name":"快餐厅","address":"闸北区高平路209号(近阳城路)"},{"poiid":"B2094750DB65A4F54293","title":"铜川路炸猪排","lon":"121.436103","lat":"31.282503","category":"247","category_name":"餐饮美食","address":"铜川路万镇路"},{"poiid":"B2094757D168A2FB4293","title":"高平路晋城路","lon":"121.429628","lat":"31.280521","category":"500","category_name":"未知分类","address":"上海高平路晋城路"},{"poiid":"B2094655D265A6FB479E","title":"永和新城阳城三期","lon":"121.43153","lat":"31.28208","category":"47","category_name":"住宅区","address":"永和新城.阳城三期位于闸北原平路183弄13号"},{"poiid":"B2094751D565A4FB479F","title":"蔡嘉法式甜品","lon":"121.43639","lat":"31.28445","category":"247","category_name":"餐饮美食","address":"大宁中心广场万荣路700号c5"},{"poiid":"B2094752D564A7FA489F","title":"鲜芋仙 万荣大宁中心广场店","lon":"121.435867","lat":"31.284233","category":"247","category_name":"餐饮美食","address":"闸北区 灵石路700号D座"},{"poiid":"B2094654DB6AA4F54393","title":"新中高级中学(西一门)","lon":"121.43229","lat":"31.28453","category":"678","category_name":"学校大门","address":"原平路330"},{"poiid":"B2094655D26DAAF94192","title":"学生公寓","lon":"121.43319","lat":"31.27976","category":"47","category_name":"住宅区","address":""},{"poiid":"B2094757D168ABFE429B","title":"人和餐厅","lon":"121.42916695","lat":"31.285961364","category":"76","category_name":"上海菜","address":"闸北区高平路545-549号(近永和路)"},{"poiid":"B2094655D36DA0F94592","title":"阳城路","lon":"121.43042","lat":"31.28448","category":"38","category_name":"公交车站","address":""},{"poiid":"B2094752D668A5FE499A","title":"Vili Bistro","lon":"121.437426","lat":"31.284248","category":"247","category_name":"餐饮美食","address":"闸北区大宁中心C3"},{"poiid":"B2094654D464A7F9419E","title":"上海大学高等技术学院闸北分院","lon":"121.43251","lat":"31.2801","category":"52","category_name":"高等院校","address":"原平路55"},{"poiid":"B2094757D46EA5F54598","title":"阿三烧鸡公 高平路店","lon":"121.4294559","lat":"31.281142","category":"71","category_name":"四川菜","address":"闸北区高平路201号(近晋城路)"},{"poiid":"B2094757D065A7F8459D","title":"闸北区彭浦镇社区卫生服务中心","lon":"121.437971","lat":"31.282313","category":"500","category_name":"未知分类","address":"上海灵石路789号"},{"poiid":"B2094655D26CA1F9479A","title":"上海市闸北区社区学院","lon":"121.43251","lat":"31.28011","category":"52","category_name":"高等院校","address":"原平路55"},{"poiid":"B2094654DB69A6FE439A","title":"阳城世家(大华阳城六期)","lon":"121.43092","lat":"31.28354","category":"47","category_name":"住宅区","address":"闸北区沪太路1589号"},{"poiid":"B2094654D464A7FD419C","title":"中国移动阳城路营业厅","lon":"121.43149","lat":"31.28474","category":"151","category_name":"电讯营业厅","address":"阳城路18"},{"poiid":"B2094757D76CA3FE4693","title":"豪味道大大鸡排 高平路店","lon":"121.42914","lat":"31.28208","category":"68","category_name":"快餐厅","address":"闸北区高平路214号(近晋城路)"},{"poiid":"B2094757D165A4FD419B","title":"紫尚OEC造型会所","lon":"121.43285955","lat":"31.2841457302","category":"148","category_name":"美容美发店","address":"上海共和新路广中西路"},{"poiid":"B2094757D168A0F94092","title":"豪大大香鸡排","lon":"121.43174525","lat":"31.284846943","category":"247","category_name":"餐饮美食","address":"上海阳城路"},{"poiid":"B2094757D06BA0FC4598","title":"上海电视大学(闸北分校)","lon":"121.43282","lat":"31.28054","category":"253","category_name":"校园生活","address":"上海闸北区原平路55号  "},{"poiid":"B2094654D464A7FD4293","title":"永和丽园(南门)","lon":"121.42986","lat":"31.2847","category":"656","category_name":"大门","address":"阳城路100弄"}]