[{"poiid":"B2094757D06FA7FF4999","title":"漕河泾科技大楼A区","lon":"121.40035247","lat":"31.171821594","category":"46","category_name":"楼宇","address":"上海宜山路900号"},{"poiid":"B2094757D06FA2FF419D","title":"创新大厦","lon":"121.400981077","lat":"31.1706389813","category":"46","category_name":"楼宇","address":"上海宜山路1009号"},{"poiid":"B2094654D564A2FC4892","title":"齐来工业城","lon":"121.40454","lat":"31.17084","category":"45","category_name":"产业园区","address":"丰台学城海鹰路1号，3号"},{"poiid":"B2094750D66AA0FC459A","title":"上海虹桥火车站出发","lon":"121.400276","lat":"31.171752","category":"21","category_name":"飞机场","address":""},{"poiid":"B2094757D068ABFB469B","title":"齐来大厦","lon":"121.404473","lat":"31.170888","category":"46","category_name":"楼宇","address":"上海宜山路889号"},{"poiid":"B2094757D068A1FA4298","title":"漕河泾科技大楼C座","lon":"121.40041674","lat":"31.17200494","category":"46","category_name":"楼宇","address":"上海宜山路900号"},{"poiid":"B2094757D068A5F4419A","title":"上海爱信诺航天信息有限公司","lon":"121.399977617","lat":"31.1777739822","category":"46","category_name":"楼宇","address":"上海徐汇区钦州北路1198号82栋"},{"poiid":"B2094757D068A4FF429C","title":"669音乐生态餐厅","lon":"121.397555733","lat":"31.1744916934","category":"91","category_name":"台湾菜","address":"徐汇区桂果路669号(近钦江路)"},{"poiid":"B2094757D068A6FD4892","title":"科技绿洲","lon":"121.406","lat":"31.1726","category":"47","category_name":"住宅区","address":"上海徐汇区田林路888号"},{"poiid":"B2094757D069A3FF409B","title":"齐来工业城4号楼","lon":"121.40359752","lat":"31.171171526","category":"46","category_name":"楼宇","address":"上海市徐汇区宜山路889号"},{"poiid":"B2094654D56BABF5469F","title":"上海漕河泾开发区新汇园","lon":"121.40301","lat":"31.17879","category":"45","category_name":"产业园区","address":"钦州北路1122"},{"poiid":"B2094757D06AA4FB4892","title":"上海统一星巴克咖啡有限公司(上海总部)","lon":"121.400966517","lat":"31.1707895172","category":"46","category_name":"楼宇","address":"上海宜山路1009号3楼"},{"poiid":"B2094757D068A1F4459A","title":"新思大楼","lon":"121.39803582","lat":"31.17168267","category":"46","category_name":"楼宇","address":"上海宜山路926号"},{"poiid":"B2094654D56BABF4409F","title":"桂箐路69号工业园","lon":"121.40483","lat":"31.17456","category":"45","category_name":"产业园区","address":"桂箐路69"},{"poiid":"B2094757D06AA1F54193","title":"中国农业银行漕河泾开发区支行","lon":"121.40289","lat":"31.17225","category":"150","category_name":"银行","address":"上海市徐汇区宜山路888号"},{"poiid":"B2094751D36AABF84299","title":"点水楼","lon":"121.40283","lat":"31.17147","category":"76","category_name":"上海菜","address":"徐汇区宜山路889号6栋齐来会所内(近桂菁路)"},{"poiid":"B2094757D568A4F44392","title":"新业大厦","lon":"121.405","lat":"31.1727","category":"46","category_name":"楼宇","address":"徐汇区田林路388号"},{"poiid":"B2094655D26BA0FC4292","title":"泰科电子上海科技园南区","lon":"121.40117","lat":"31.17408","category":"45","category_name":"产业园区","address":"钦江路287-307号"},{"poiid":"B2094654D56BAAFF4099","title":"中国工商银行漕河泾开发区支行","lon":"121.40131","lat":"31.17211","category":"150","category_name":"银行","address":"宜山路900号漕河泾开发区科技楼1层、9层"},{"poiid":"B2094655D36CA7F4449A","title":"桂平路宜山路","lon":"121.40284","lat":"31.17095","category":"38","category_name":"公交车站","address":""},{"poiid":"B2094654D56BAAFD449F","title":"立明","lon":"121.40399","lat":"31.1774","category":"46","category_name":"楼宇","address":"桂箐路111号"},{"poiid":"B2094654D56BAAFD4592","title":"上海漕河泾开发区智汇园A座","lon":"121.40055","lat":"31.17803","category":"46","category_name":"楼宇","address":"钦州北路1198"},{"poiid":"B2094753D469ABFF4092","title":"环球港","lon":"121.40187","lat":"31.172307","category":"500","category_name":"未知分类","address":"上海市 中山北路3300号"},{"poiid":"B2094654D56BAAFE439F","title":"漕河泾开发区科技楼","lon":"121.40156","lat":"31.17223","category":"46","category_name":"楼宇","address":"宜山路900"},{"poiid":"B2094757D16EA4F94292","title":"齐来工业城3号楼","lon":"121.40375758","lat":"31.171151276","category":"500","category_name":"未知分类","address":"上海市徐汇区宜山路889号"},{"poiid":"B2094757D568A5FC4792","title":"钦江园","lon":"121.4000906","lat":"31.17442735","category":"45","category_name":"产业园区","address":"钦江路333"},{"poiid":"B2094655D36CA2FF4692","title":"钦江路桂平路","lon":"121.40237","lat":"31.17509","category":"38","category_name":"公交车站","address":""},{"poiid":"B2094654D564A2FC4593","title":"上海金陵商务广场","lon":"121.40777","lat":"31.17252","category":"45","category_name":"产业园区","address":"宜山路801"},{"poiid":"B2094757D069A0FD449A","title":"立豪海鲜酒家","lon":"121.39750149","lat":"31.172032413","category":"257","category_name":"中餐厅","address":"徐汇区虹梅路2530号(近宜山路)"},{"poiid":"B2094757D069A6FA489A","title":"谱尼测试中心","lon":"121.40218733","lat":"31.171975692","category":"46","category_name":"楼宇","address":"桂平路680号创业中心大厦35号楼4层"},{"poiid":"B2094654D56BABF4439B","title":"新联技贸中心","lon":"121.40526","lat":"31.17249","category":"46","category_name":"楼宇","address":"虹口区海宁路、吴淞路口"},{"poiid":"B2094757D064A0F5429E","title":"钦江路333号","lon":"121.40008758","lat":"31.173148315","category":"500","category_name":"未知分类","address":"上海市钦江路桂果路"},{"poiid":"B2094757D164A5F9429A","title":"上海全球儿童用品股份有限公司","lon":"121.402927586","lat":"31.1719362916","category":"46","category_name":"楼宇","address":"上海桂平路555号46号楼3楼"},{"poiid":"B2094654D56BABF54399","title":"中国移动宜山路营业厅","lon":"121.403","lat":"31.1721","category":"151","category_name":"电讯营业厅","address":"徐汇区宜山路888号1层"},{"poiid":"B2094654DB69A5F4459A","title":"SPRCOFFEE(宜山路店)","lon":"121.40223","lat":"31.17183","category":"65","category_name":"咖啡厅","address":"徐汇区漕河泾开发区900号C楼102室(漕宝路莲花路)"},{"poiid":"B2094757D06AA0FE4693","title":"创业大厦","lon":"121.403038025","lat":"31.1733951569","category":"252","category_name":"楼宇机构","address":"上海桂平路"},{"poiid":"B2094654D56BABF5449C","title":"敦吉电子(上海)有限公司","lon":"121.40314","lat":"31.17395","category":"263","category_name":"公司","address":"桂平路680号创业中心大厦34栋3-4层"},{"poiid":"B2094757D06BA0F54493","title":"Cafe Freshin","lon":"121.40518","lat":"31.17214","category":"67","category_name":"甜品店","address":"徐汇区宜山路822号(近桂箐路)"},{"poiid":"B2094654D56BAAFF4093","title":"梅特勒-托利多仪器(上海)有限公司(桂平路)","lon":"121.4017","lat":"31.17299","category":"263","category_name":"公司","address":"桂平路589"},{"poiid":"B2094757D068A2F94499","title":"漕河泾开发区智汇园","lon":"121.399838","lat":"31.177512","category":"260","category_name":"其他","address":"上海徐汇区钦州北路1199号"},{"poiid":"B2094757D568A6FC4798","title":"桂平园","lon":"121.40268446","lat":"31.17049425","category":"45","category_name":"产业园区","address":"桂平路555"},{"poiid":"B2094654D56BABF5449D","title":"上海华测导航技术有限公司","lon":"121.40314","lat":"31.17395","category":"263","category_name":"公司","address":"桂平路680号创业中心大厦35号楼5层"},{"poiid":"B2094655D36DA0FA449F","title":"宜山路桂平路","lon":"121.40207","lat":"31.17149","category":"38","category_name":"公交车站","address":""},{"poiid":"B2094654DB65A1FF419A","title":"上海市南电力集团","lon":"121.40339","lat":"31.17547","category":"263","category_name":"公司","address":""},{"poiid":"B2094655D36DA0FA449D","title":"宜山路桂箐路","lon":"121.40445","lat":"31.17192","category":"38","category_name":"公交车站","address":""},{"poiid":"B2094655D268A7F5469C","title":"上海华联罗森有限公司","lon":"121.40157","lat":"31.17223","category":"117","category_name":"便民商店/便利店","address":"宜山路900号1层"},{"poiid":"B2094757D06BA7FB459F","title":"上海安普泰科电子有限公司","lon":"121.402997186","lat":"31.1764760802","category":"500","category_name":"未知分类","address":"上海桂平路668号"},{"poiid":"B2094750DA6DA7F94493","title":"日月光广场","lon":"121.398994","lat":"31.171499","category":"247","category_name":"餐饮美食","address":null},{"poiid":"B2094654D56BAAFE4393","title":"电信恒联营业部","lon":"121.40156","lat":"31.17224","category":"151","category_name":"电讯营业厅","address":"宜山路900号漕河泾开发区科技楼1层"},{"poiid":"B2094753D56CA2F5489C","title":"上海博物馆","lon":"121.401176","lat":"31.175823","category":"500","category_name":"未知分类","address":"上海市 黄浦区人民广场"},{"poiid":"B2094757D06FA7FF4999","title":"漕河泾科技大楼A区","lon":"121.40035247","lat":"31.171821594","category":"46","category_name":"楼宇","address":"上海宜山路900号"},{"poiid":"B2094757D06FA2FF419D","title":"创新大厦","lon":"121.400981077","lat":"31.1706389813","category":"46","category_name":"楼宇","address":"上海宜山路1009号"},{"poiid":"B2094654D564A2FC4892","title":"齐来工业城","lon":"121.40454","lat":"31.17084","category":"45","category_name":"产业园区","address":"丰台学城海鹰路1号，3号"},{"poiid":"B2094750D66AA0FC459A","title":"上海虹桥火车站出发","lon":"121.400276","lat":"31.171752","category":"21","category_name":"飞机场","address":""},{"poiid":"B2094757D068ABFB469B","title":"齐来大厦","lon":"121.404473","lat":"31.170888","category":"46","category_name":"楼宇","address":"上海宜山路889号"},{"poiid":"B2094757D068A1FA4298","title":"漕河泾科技大楼C座","lon":"121.40041674","lat":"31.17200494","category":"46","category_name":"楼宇","address":"上海宜山路900号"},{"poiid":"B2094757D068A5F4419A","title":"上海爱信诺航天信息有限公司","lon":"121.399977617","lat":"31.1777739822","category":"46","category_name":"楼宇","address":"上海徐汇区钦州北路1198号82栋"},{"poiid":"B2094757D068A4FF429C","title":"669音乐生态餐厅","lon":"121.397555733","lat":"31.1744916934","category":"91","category_name":"台湾菜","address":"徐汇区桂果路669号(近钦江路)"},{"poiid":"B2094757D068A6FD4892","title":"科技绿洲","lon":"121.406","lat":"31.1726","category":"47","category_name":"住宅区","address":"上海徐汇区田林路888号"},{"poiid":"B2094757D069A3FF409B","title":"齐来工业城4号楼","lon":"121.40359752","lat":"31.171171526","category":"46","category_name":"楼宇","address":"上海市徐汇区宜山路889号"},{"poiid":"B2094654D56BABF5469F","title":"上海漕河泾开发区新汇园","lon":"121.40301","lat":"31.17879","category":"45","category_name":"产业园区","address":"钦州北路1122"},{"poiid":"B2094757D06AA4FB4892","title":"上海统一星巴克咖啡有限公司(上海总部)","lon":"121.400966517","lat":"31.1707895172","category":"46","category_name":"楼宇","address":"上海宜山路1009号3楼"},{"poiid":"B2094757D068A1F4459A","title":"新思大楼","lon":"121.39803582","lat":"31.17168267","category":"46","category_name":"楼宇","address":"上海宜山路926号"},{"poiid":"B2094654D56BABF4409F","title":"桂箐路69号工业园","lon":"121.40483","lat":"31.17456","category":"45","category_name":"产业园区","address":"桂箐路69"},{"poiid":"B2094757D06AA1F54193","title":"中国农业银行漕河泾开发区支行","lon":"121.40289","lat":"31.17225","category":"150","category_name":"银行","address":"上海市徐汇区宜山路888号"},{"poiid":"B2094751D36AABF84299","title":"点水楼","lon":"121.40283","lat":"31.17147","category":"76","category_name":"上海菜","address":"徐汇区宜山路889号6栋齐来会所内(近桂菁路)"},{"poiid":"B2094757D568A4F44392","title":"新业大厦","lon":"121.405","lat":"31.1727","category":"46","category_name":"楼宇","address":"徐汇区田林路388号"},{"poiid":"B2094655D26BA0FC4292","title":"泰科电子上海科技园南区","lon":"121.40117","lat":"31.17408","category":"45","category_name":"产业园区","address":"钦江路287-307号"},{"poiid":"B2094654D56BAAFF4099","title":"中国工商银行漕河泾开发区支行","lon":"121.40131","lat":"31.17211","category":"150","category_name":"银行","address":"宜山路900号漕河泾开发区科技楼1层、9层"},{"poiid":"B2094655D36CA7F4449A","title":"桂平路宜山路","lon":"121.40284","lat":"31.17095","category":"38","category_name":"公交车站","address":""},{"poiid":"B2094654D56BAAFD449F","title":"立明","lon":"121.40399","lat":"31.1774","category":"46","category_name":"楼宇","address":"桂箐路111号"},{"poiid":"B2094654D56BAAFD4592","title":"上海漕河泾开发区智汇园A座","lon":"121.40055","lat":"31.17803","category":"46","category_name":"楼宇","address":"钦州北路1198"},{"poiid":"B2094753D469ABFF4092","title":"环球港","lon":"121.40187","lat":"31.172307","category":"500","category_name":"未知分类","address":"上海市 中山北路3300号"},{"poiid":"B2094654D56BAAFE439F","title":"漕河泾开发区科技楼","lon":"121.40156","lat":"31.17223","category":"46","category_name":"楼宇","address":"宜山路900"},{"poiid":"B2094757D16EA4F94292","title":"齐来工业城3号楼","lon":"121.40375758","lat":"31.171151276","category":"500","category_name":"未知分类","address":"上海市徐汇区宜山路889号"},{"poiid":"B2094757D568A5FC4792","title":"钦江园","lon":"121.4000906","lat":"31.17442735","category":"45","category_name":"产业园区","address":"钦江路333"},{"poiid":"B2094655D36CA2FF4692","title":"钦江路桂平路","lon":"121.40237","lat":"31.17509","category":"38","category_name":"公交车站","address":""},{"poiid":"B2094654D564A2FC4593","title":"上海金陵商务广场","lon":"121.40777","lat":"31.17252","category":"45","category_name":"产业园区","address":"宜山路801"},{"poiid":"B2094757D069A0FD449A","title":"立豪海鲜酒家","lon":"121.39750149","lat":"31.172032413","category":"257","category_name":"中餐厅","address":"徐汇区虹梅路2530号(近宜山路)"},{"poiid":"B2094757D069A6FA489A","title":"谱尼测试中心","lon":"121.40218733","lat":"31.171975692","category":"46","category_name":"楼宇","address":"桂平路680号创业中心大厦35号楼4层"},{"poiid":"B2094654D56BABF4439B","title":"新联技贸中心","lon":"121.40526","lat":"31.17249","category":"46","category_name":"楼宇","address":"虹口区海宁路、吴淞路口"},{"poiid":"B2094757D064A0F5429E","title":"钦江路333号","lon":"121.40008758","lat":"31.173148315","category":"500","category_name":"未知分类","address":"上海市钦江路桂果路"},{"poiid":"B2094757D164A5F9429A","title":"上海全球儿童用品股份有限公司","lon":"121.402927586","lat":"31.1719362916","category":"46","category_name":"楼宇","address":"上海桂平路555号46号楼3楼"},{"poiid":"B2094654D56BABF54399","title":"中国移动宜山路营业厅","lon":"121.403","lat":"31.1721","category":"151","category_name":"电讯营业厅","address":"徐汇区宜山路888号1层"},{"poiid":"B2094654DB69A5F4459A","title":"SPRCOFFEE(宜山路店)","lon":"121.40223","lat":"31.17183","category":"65","category_name":"咖啡厅","address":"徐汇区漕河泾开发区900号C楼102室(漕宝路莲花路)"},{"poiid":"B2094757D06AA0FE4693","title":"创业大厦","lon":"121.403038025","lat":"31.1733951569","category":"252","category_name":"楼宇机构","address":"上海桂平路"},{"poiid":"B2094654D56BABF5449C","title":"敦吉电子(上海)有限公司","lon":"121.40314","lat":"31.17395","category":"263","category_name":"公司","address":"桂平路680号创业中心大厦34栋3-4层"},{"poiid":"B2094757D06BA0F54493","title":"Cafe Freshin","lon":"121.40518","lat":"31.17214","category":"67","category_name":"甜品店","address":"徐汇区宜山路822号(近桂箐路)"},{"poiid":"B2094654D56BAAFF4093","title":"梅特勒-托利多仪器(上海)有限公司(桂平路)","lon":"121.4017","lat":"31.17299","category":"263","category_name":"公司","address":"桂平路589"},{"poiid":"B2094757D068A2F94499","title":"漕河泾开发区智汇园","lon":"121.399838","lat":"31.177512","category":"260","category_name":"其他","address":"上海徐汇区钦州北路1199号"},{"poiid":"B2094757D568A6FC4798","title":"桂平园","lon":"121.40268446","lat":"31.17049425","category":"45","category_name":"产业园区","address":"桂平路555"},{"poiid":"B2094654D56BABF5449D","title":"上海华测导航技术有限公司","lon":"121.40314","lat":"31.17395","category":"263","category_name":"公司","address":"桂平路680号创业中心大厦35号楼5层"},{"poiid":"B2094655D36DA0FA449F","title":"宜山路桂平路","lon":"121.40207","lat":"31.17149","category":"38","category_name":"公交车站","address":""},{"poiid":"B2094654DB65A1FF419A","title":"上海市南电力集团","lon":"121.40339","lat":"31.17547","category":"263","category_name":"公司","address":""},{"poiid":"B2094655D36DA0FA449D","title":"宜山路桂箐路","lon":"121.40445","lat":"31.17192","category":"38","category_name":"公交车站","address":""},{"poiid":"B2094655D268A7F5469C","title":"上海华联罗森有限公司","lon":"121.40157","lat":"31.17223","category":"117","category_name":"便民商店/便利店","address":"宜山路900号1层"},{"poiid":"B2094757D06BA7FB459F","title":"上海安普泰科电子有限公司","lon":"121.402997186","lat":"31.1764760802","category":"500","category_name":"未知分类","address":"上海桂平路668号"},{"poiid":"B2094750DA6DA7F94493","title":"日月光广场","lon":"121.398994","lat":"31.171499","category":"247","category_name":"餐饮美食","address":null},{"poiid":"B2094654D56BAAFE4393","title":"电信恒联营业部","lon":"121.40156","lat":"31.17224","category":"151","category_name":"电讯营业厅","address":"宜山路900号漕河泾开发区科技楼1层"},{"poiid":"B2094753D56CA2F5489C","title":"上海博物馆","lon":"121.401176","lat":"31.175823","category":"500","category_name":"未知分类","address":"上海市 黄浦区人民广场"},{"poiid":"B2094757D06FA7FF4999","title":"漕河泾科技大楼A区","lon":"121.40035247","lat":"31.171821594","category":"46","category_name":"楼宇","address":"上海宜山路900号"},{"poiid":"B2094757D06FA2FF419D","title":"创新大厦","lon":"121.400981077","lat":"31.1706389813","category":"46","category_name":"楼宇","address":"上海宜山路1009号"},{"poiid":"B2094654D564A2FC4892","title":"齐来工业城","lon":"121.40454","lat":"31.17084","category":"45","category_name":"产业园区","address":"丰台学城海鹰路1号，3号"},{"poiid":"B2094750D66AA0FC459A","title":"上海虹桥火车站出发","lon":"121.400276","lat":"31.171752","category":"21","category_name":"飞机场","address":""},{"poiid":"B2094757D068ABFB469B","title":"齐来大厦","lon":"121.404473","lat":"31.170888","category":"46","category_name":"楼宇","address":"上海宜山路889号"},{"poiid":"B2094757D068A1FA4298","title":"漕河泾科技大楼C座","lon":"121.40041674","lat":"31.17200494","category":"46","category_name":"楼宇","address":"上海宜山路900号"},{"poiid":"B2094757D068A5F4419A","title":"上海爱信诺航天信息有限公司","lon":"121.399977617","lat":"31.1777739822","category":"46","category_name":"楼宇","address":"上海徐汇区钦州北路1198号82栋"},{"poiid":"B2094757D068A4FF429C","title":"669音乐生态餐厅","lon":"121.397555733","lat":"31.1744916934","category":"91","category_name":"台湾菜","address":"徐汇区桂果路669号(近钦江路)"},{"poiid":"B2094757D068A6FD4892","title":"科技绿洲","lon":"121.406","lat":"31.1726","category":"47","category_name":"住宅区","address":"上海徐汇区田林路888号"},{"poiid":"B2094757D069A3FF409B","title":"齐来工业城4号楼","lon":"121.40359752","lat":"31.171171526","category":"46","category_name":"楼宇","address":"上海市徐汇区宜山路889号"},{"poiid":"B2094654D56BABF5469F","title":"上海漕河泾开发区新汇园","lon":"121.40301","lat":"31.17879","category":"45","category_name":"产业园区","address":"钦州北路1122"},{"poiid":"B2094757D06AA4FB4892","title":"上海统一星巴克咖啡有限公司(上海总部)","lon":"121.400966517","lat":"31.1707895172","category":"46","category_name":"楼宇","address":"上海宜山路1009号3楼"},{"poiid":"B2094757D068A1F4459A","title":"新思大楼","lon":"121.39803582","lat":"31.17168267","category":"46","category_name":"楼宇","address":"上海宜山路926号"},{"poiid":"B2094654D56BABF4409F","title":"桂箐路69号工业园","lon":"121.40483","lat":"31.17456","category":"45","category_name":"产业园区","address":"桂箐路69"},{"poiid":"B2094757D06AA1F54193","title":"中国农业银行漕河泾开发区支行","lon":"121.40289","lat":"31.17225","category":"150","category_name":"银行","address":"上海市徐汇区宜山路888号"},{"poiid":"B2094751D36AABF84299","title":"点水楼","lon":"121.40283","lat":"31.17147","category":"76","category_name":"上海菜","address":"徐汇区宜山路889号6栋齐来会所内(近桂菁路)"},{"poiid":"B2094757D568A4F44392","title":"新业大厦","lon":"121.405","lat":"31.1727","category":"46","category_name":"楼宇","address":"徐汇区田林路388号"},{"poiid":"B2094655D26BA0FC4292","title":"泰科电子上海科技园南区","lon":"121.40117","lat":"31.17408","category":"45","category_name":"产业园区","address":"钦江路287-307号"},{"poiid":"B2094654D56BAAFF4099","title":"中国工商银行漕河泾开发区支行","lon":"121.40131","lat":"31.17211","category":"150","category_name":"银行","address":"宜山路900号漕河泾开发区科技楼1层、9层"},{"poiid":"B2094655D36CA7F4449A","title":"桂平路宜山路","lon":"121.40284","lat":"31.17095","category":"38","category_name":"公交车站","address":""},{"poiid":"B2094654D56BAAFD449F","title":"立明","lon":"121.40399","lat":"31.1774","category":"46","category_name":"楼宇","address":"桂箐路111号"},{"poiid":"B2094654D56BAAFD4592","title":"上海漕河泾开发区智汇园A座","lon":"121.40055","lat":"31.17803","category":"46","category_name":"楼宇","address":"钦州北路1198"},{"poiid":"B2094753D469ABFF4092","title":"环球港","lon":"121.40187","lat":"31.172307","category":"500","category_name":"未知分类","address":"上海市 中山北路3300号"},{"poiid":"B2094654D56BAAFE439F","title":"漕河泾开发区科技楼","lon":"121.40156","lat":"31.17223","category":"46","category_name":"楼宇","address":"宜山路900"},{"poiid":"B2094757D16EA4F94292","title":"齐来工业城3号楼","lon":"121.40375758","lat":"31.171151276","category":"500","category_name":"未知分类","address":"上海市徐汇区宜山路889号"},{"poiid":"B2094757D568A5FC4792","title":"钦江园","lon":"121.4000906","lat":"31.17442735","category":"45","category_name":"产业园区","address":"钦江路333"},{"poiid":"B2094655D36CA2FF4692","title":"钦江路桂平路","lon":"121.40237","lat":"31.17509","category":"38","category_name":"公交车站","address":""},{"poiid":"B2094654D564A2FC4593","title":"上海金陵商务广场","lon":"121.40777","lat":"31.17252","category":"45","category_name":"产业园区","address":"宜山路801"},{"poiid":"B2094757D069A0FD449A","title":"立豪海鲜酒家","lon":"121.39750149","lat":"31.172032413","category":"257","category_name":"中餐厅","address":"徐汇区虹梅路2530号(近宜山路)"},{"poiid":"B2094757D069A6FA489A","title":"谱尼测试中心","lon":"121.40218733","lat":"31.171975692","category":"46","category_name":"楼宇","address":"桂平路680号创业中心大厦35号楼4层"},{"poiid":"B2094654D56BABF4439B","title":"新联技贸中心","lon":"121.40526","lat":"31.17249","category":"46","category_name":"楼宇","address":"虹口区海宁路、吴淞路口"},{"poiid":"B2094757D064A0F5429E","title":"钦江路333号","lon":"121.40008758","lat":"31.173148315","category":"500","category_name":"未知分类","address":"上海市钦江路桂果路"},{"poiid":"B2094757D164A5F9429A","title":"上海全球儿童用品股份有限公司","lon":"121.402927586","lat":"31.1719362916","category":"46","category_name":"楼宇","address":"上海桂平路555号46号楼3楼"},{"poiid":"B2094654D56BABF54399","title":"中国移动宜山路营业厅","lon":"121.403","lat":"31.1721","category":"151","category_name":"电讯营业厅","address":"徐汇区宜山路888号1层"},{"poiid":"B2094654DB69A5F4459A","title":"SPRCOFFEE(宜山路店)","lon":"121.40223","lat":"31.17183","category":"65","category_name":"咖啡厅","address":"徐汇区漕河泾开发区900号C楼102室(漕宝路莲花路)"},{"poiid":"B2094757D06AA0FE4693","title":"创业大厦","lon":"121.403038025","lat":"31.1733951569","category":"252","category_name":"楼宇机构","address":"上海桂平路"},{"poiid":"B2094654D56BABF5449C","title":"敦吉电子(上海)有限公司","lon":"121.40314","lat":"31.17395","category":"263","category_name":"公司","address":"桂平路680号创业中心大厦34栋3-4层"},{"poiid":"B2094757D06BA0F54493","title":"Cafe Freshin","lon":"121.40518","lat":"31.17214","category":"67","category_name":"甜品店","address":"徐汇区宜山路822号(近桂箐路)"},{"poiid":"B2094654D56BAAFF4093","title":"梅特勒-托利多仪器(上海)有限公司(桂平路)","lon":"121.4017","lat":"31.17299","category":"263","category_name":"公司","address":"桂平路589"},{"poiid":"B2094757D068A2F94499","title":"漕河泾开发区智汇园","lon":"121.399838","lat":"31.177512","category":"260","category_name":"其他","address":"上海徐汇区钦州北路1199号"},{"poiid":"B2094757D568A6FC4798","title":"桂平园","lon":"121.40268446","lat":"31.17049425","category":"45","category_name":"产业园区","address":"桂平路555"},{"poiid":"B2094654D56BABF5449D","title":"上海华测导航技术有限公司","lon":"121.40314","lat":"31.17395","category":"263","category_name":"公司","address":"桂平路680号创业中心大厦35号楼5层"},{"poiid":"B2094655D36DA0FA449F","title":"宜山路桂平路","lon":"121.40207","lat":"31.17149","category":"38","category_name":"公交车站","address":""},{"poiid":"B2094654DB65A1FF419A","title":"上海市南电力集团","lon":"121.40339","lat":"31.17547","category":"263","category_name":"公司","address":""},{"poiid":"B2094655D36DA0FA449D","title":"宜山路桂箐路","lon":"121.40445","lat":"31.17192","category":"38","category_name":"公交车站","address":""},{"poiid":"B2094655D268A7F5469C","title":"上海华联罗森有限公司","lon":"121.40157","lat":"31.17223","category":"117","category_name":"便民商店/便利店","address":"宜山路900号1层"},{"poiid":"B2094757D06BA7FB459F","title":"上海安普泰科电子有限公司","lon":"121.402997186","lat":"31.1764760802","category":"500","category_name":"未知分类","address":"上海桂平路668号"},{"poiid":"B2094750DA6DA7F94493","title":"日月光广场","lon":"121.398994","lat":"31.171499","category":"247","category_name":"餐饮美食","address":null},{"poiid":"B2094654D56BAAFE4393","title":"电信恒联营业部","lon":"121.40156","lat":"31.17224","category":"151","category_name":"电讯营业厅","address":"宜山路900号漕河泾开发区科技楼1层"},{"poiid":"B2094753D56CA2F5489C","title":"上海博物馆","lon":"121.401176","lat":"31.175823","category":"500","category_name":"未知分类","address":"上海市 黄浦区人民广场"},{"poiid":"B2094757D06FA7FF4999","title":"漕河泾科技大楼A区","lon":"121.40035247","lat":"31.171821594","category":"46","category_name":"楼宇","address":"上海宜山路900号"},{"poiid":"B2094757D06FA2FF419D","title":"创新大厦","lon":"121.400981077","lat":"31.1706389813","category":"46","category_name":"楼宇","address":"上海宜山路1009号"},{"poiid":"B2094654D564A2FC4892","title":"齐来工业城","lon":"121.40454","lat":"31.17084","category":"45","category_name":"产业园区","address":"丰台学城海鹰路1号，3号"},{"poiid":"B2094750D66AA0FC459A","title":"上海虹桥火车站出发","lon":"121.400276","lat":"31.171752","category":"21","category_name":"飞机场","address":""},{"poiid":"B2094757D068ABFB469B","title":"齐来大厦","lon":"121.404473","lat":"31.170888","category":"46","category_name":"楼宇","address":"上海宜山路889号"},{"poiid":"B2094757D068A1FA4298","title":"漕河泾科技大楼C座","lon":"121.40041674","lat":"31.17200494","category":"46","category_name":"楼宇","address":"上海宜山路900号"},{"poiid":"B2094757D068A5F4419A","title":"上海爱信诺航天信息有限公司","lon":"121.399977617","lat":"31.1777739822","category":"46","category_name":"楼宇","address":"上海徐汇区钦州北路1198号82栋"},{"poiid":"B2094757D068A4FF429C","title":"669音乐生态餐厅","lon":"121.397555733","lat":"31.1744916934","category":"91","category_name":"台湾菜","address":"徐汇区桂果路669号(近钦江路)"},{"poiid":"B2094757D068A6FD4892","title":"科技绿洲","lon":"121.406","lat":"31.1726","category":"47","category_name":"住宅区","address":"上海徐汇区田林路888号"},{"poiid":"B2094757D069A3FF409B","title":"齐来工业城4号楼","lon":"121.40359752","lat":"31.171171526","category":"46","category_name":"楼宇","address":"上海市徐汇区宜山路889号"},{"poiid":"B2094654D56BABF5469F","title":"上海漕河泾开发区新汇园","lon":"121.40301","lat":"31.17879","category":"45","category_name":"产业园区","address":"钦州北路1122"},{"poiid":"B2094757D06AA4FB4892","title":"上海统一星巴克咖啡有限公司(上海总部)","lon":"121.400966517","lat":"31.1707895172","category":"46","category_name":"楼宇","address":"上海宜山路1009号3楼"},{"poiid":"B2094757D068A1F4459A","title":"新思大楼","lon":"121.39803582","lat":"31.17168267","category":"46","category_name":"楼宇","address":"上海宜山路926号"},{"poiid":"B2094654D56BABF4409F","title":"桂箐路69号工业园","lon":"121.40483","lat":"31.17456","category":"45","category_name":"产业园区","address":"桂箐路69"},{"poiid":"B2094757D06AA1F54193","title":"中国农业银行漕河泾开发区支行","lon":"121.40289","lat":"31.17225","category":"150","category_name":"银行","address":"上海市徐汇区宜山路888号"},{"poiid":"B2094751D36AABF84299","title":"点水楼","lon":"121.40283","lat":"31.17147","category":"76","category_name":"上海菜","address":"徐汇区宜山路889号6栋齐来会所内(近桂菁路)"},{"poiid":"B2094757D568A4F44392","title":"新业大厦","lon":"121.405","lat":"31.1727","category":"46","category_name":"楼宇","address":"徐汇区田林路388号"},{"poiid":"B2094655D26BA0FC4292","title":"泰科电子上海科技园南区","lon":"121.40117","lat":"31.17408","category":"45","category_name":"产业园区","address":"钦江路287-307号"},{"poiid":"B2094654D56BAAFF4099","title":"中国工商银行漕河泾开发区支行","lon":"121.40131","lat":"31.17211","category":"150","category_name":"银行","address":"宜山路900号漕河泾开发区科技楼1层、9层"},{"poiid":"B2094655D36CA7F4449A","title":"桂平路宜山路","lon":"121.40284","lat":"31.17095","category":"38","category_name":"公交车站","address":""},{"poiid":"B2094654D56BAAFD449F","title":"立明","lon":"121.40399","lat":"31.1774","category":"46","category_name":"楼宇","address":"桂箐路111号"},{"poiid":"B2094654D56BAAFD4592","title":"上海漕河泾开发区智汇园A座","lon":"121.40055","lat":"31.17803","category":"46","category_name":"楼宇","address":"钦州北路1198"},{"poiid":"B2094753D469ABFF4092","title":"环球港","lon":"121.40187","lat":"31.172307","category":"500","category_name":"未知分类","address":"上海市 中山北路3300号"},{"poiid":"B2094654D56BAAFE439F","title":"漕河泾开发区科技楼","lon":"121.40156","lat":"31.17223","category":"46","category_name":"楼宇","address":"宜山路900"},{"poiid":"B2094757D16EA4F94292","title":"齐来工业城3号楼","lon":"121.40375758","lat":"31.171151276","category":"500","category_name":"未知分类","address":"上海市徐汇区宜山路889号"},{"poiid":"B2094757D568A5FC4792","title":"钦江园","lon":"121.4000906","lat":"31.17442735","category":"45","category_name":"产业园区","address":"钦江路333"},{"poiid":"B2094655D36CA2FF4692","title":"钦江路桂平路","lon":"121.40237","lat":"31.17509","category":"38","category_name":"公交车站","address":""},{"poiid":"B2094654D564A2FC4593","title":"上海金陵商务广场","lon":"121.40777","lat":"31.17252","category":"45","category_name":"产业园区","address":"宜山路801"},{"poiid":"B2094757D069A0FD449A","title":"立豪海鲜酒家","lon":"121.39750149","lat":"31.172032413","category":"257","category_name":"中餐厅","address":"徐汇区虹梅路2530号(近宜山路)"},{"poiid":"B2094757D069A6FA489A","title":"谱尼测试中心","lon":"121.40218733","lat":"31.171975692","category":"46","category_name":"楼宇","address":"桂平路680号创业中心大厦35号楼4层"},{"poiid":"B2094654D56BABF4439B","title":"新联技贸中心","lon":"121.40526","lat":"31.17249","category":"46","category_name":"楼宇","address":"虹口区海宁路、吴淞路口"},{"poiid":"B2094757D064A0F5429E","title":"钦江路333号","lon":"121.40008758","lat":"31.173148315","category":"500","category_name":"未知分类","address":"上海市钦江路桂果路"},{"poiid":"B2094757D164A5F9429A","title":"上海全球儿童用品股份有限公司","lon":"121.402927586","lat":"31.1719362916","category":"46","category_name":"楼宇","address":"上海桂平路555号46号楼3楼"},{"poiid":"B2094654D56BABF54399","title":"中国移动宜山路营业厅","lon":"121.403","lat":"31.1721","category":"151","category_name":"电讯营业厅","address":"徐汇区宜山路888号1层"},{"poiid":"B2094654DB69A5F4459A","title":"SPRCOFFEE(宜山路店)","lon":"121.40223","lat":"31.17183","category":"65","category_name":"咖啡厅","address":"徐汇区漕河泾开发区900号C楼102室(漕宝路莲花路)"},{"poiid":"B2094757D06AA0FE4693","title":"创业大厦","lon":"121.403038025","lat":"31.1733951569","category":"252","category_name":"楼宇机构","address":"上海桂平路"},{"poiid":"B2094654D56BABF5449C","title":"敦吉电子(上海)有限公司","lon":"121.40314","lat":"31.17395","category":"263","category_name":"公司","address":"桂平路680号创业中心大厦34栋3-4层"},{"poiid":"B2094757D06BA0F54493","title":"Cafe Freshin","lon":"121.40518","lat":"31.17214","category":"67","category_name":"甜品店","address":"徐汇区宜山路822号(近桂箐路)"},{"poiid":"B2094654D56BAAFF4093","title":"梅特勒-托利多仪器(上海)有限公司(桂平路)","lon":"121.4017","lat":"31.17299","category":"263","category_name":"公司","address":"桂平路589"},{"poiid":"B2094757D068A2F94499","title":"漕河泾开发区智汇园","lon":"121.399838","lat":"31.177512","category":"260","category_name":"其他","address":"上海徐汇区钦州北路1199号"},{"poiid":"B2094757D568A6FC4798","title":"桂平园","lon":"121.40268446","lat":"31.17049425","category":"45","category_name":"产业园区","address":"桂平路555"},{"poiid":"B2094654D56BABF5449D","title":"上海华测导航技术有限公司","lon":"121.40314","lat":"31.17395","category":"263","category_name":"公司","address":"桂平路680号创业中心大厦35号楼5层"},{"poiid":"B2094655D36DA0FA449F","title":"宜山路桂平路","lon":"121.40207","lat":"31.17149","category":"38","category_name":"公交车站","address":""},{"poiid":"B2094654DB65A1FF419A","title":"上海市南电力集团","lon":"121.40339","lat":"31.17547","category":"263","category_name":"公司","address":""},{"poiid":"B2094655D36DA0FA449D","title":"宜山路桂箐路","lon":"121.40445","lat":"31.17192","category":"38","category_name":"公交车站","address":""},{"poiid":"B2094655D268A7F5469C","title":"上海华联罗森有限公司","lon":"121.40157","lat":"31.17223","category":"117","category_name":"便民商店/便利店","address":"宜山路900号1层"},{"poiid":"B2094757D06BA7FB459F","title":"上海安普泰科电子有限公司","lon":"121.402997186","lat":"31.1764760802","category":"500","category_name":"未知分类","address":"上海桂平路668号"},{"poiid":"B2094750DA6DA7F94493","title":"日月光广场","lon":"121.398994","lat":"31.171499","category":"247","category_name":"餐饮美食","address":null},{"poiid":"B2094654D56BAAFE4393","title":"电信恒联营业部","lon":"121.40156","lat":"31.17224","category":"151","category_name":"电讯营业厅","address":"宜山路900号漕河泾开发区科技楼1层"},{"poiid":"B2094753D56CA2F5489C","title":"上海博物馆","lon":"121.401176","lat":"31.175823","category":"500","category_name":"未知分类","address":"上海市 黄浦区人民广场"}]