[{"poiid":"B2094757D065ABFB439D","title":"绿地万豪酒店","lon":"121.47298469159864","lat":"31.192103398628525","category":"213","category_name":"五星级宾馆","address":"卢湾区江滨路99号(近打浦路)"},{"poiid":"B2094757D06FA2FA449D","title":"上海世博会博物馆 - 上海世博会纪念展","lon":"121.48130635","lat":"31.1936099525","category":"182","category_name":"博物馆","address":"卢湾区局门路原世博会城市足迹馆内(近龙华东路)"},{"poiid":"B2094655D265A6F5429C","title":"海外滩中心","lon":"121.47417","lat":"31.19376","category":"46","category_name":"楼宇","address":"卢湾区龙华东路886号"},{"poiid":"B2094757D06FAAFE419F","title":"后滩公园","lon":"121.4758535","lat":"31.184998305","category":"196","category_name":"公园","address":"上海浦东新区世博会园B片区"},{"poiid":"B2094655D26EA7F84093","title":"卢浦大桥","lon":"121.48255","lat":"31.18603","category":"250","category_name":"公园户外","address":"卢湾区鲁班路909号"},{"poiid":"B2094753D76BA0FD4593","title":"K11购物艺术中心","lon":"121.474906","lat":"31.194225","category":"500","category_name":"未知分类","address":"上海市 上海市淮海中路300号"},{"poiid":"B2094757D06FA7F5409F","title":"南园公园","lon":"121.4752825","lat":"31.193345331","category":"196","category_name":"公园","address":"上海卢湾区龙华东路800号(打浦路口)"},{"poiid":"B2094751D46FA1F9439B","title":"小团圆甜品","lon":"121.477386","lat":"31.198929","category":"247","category_name":"餐饮美食","address":"瞿溪路汇暻广场"},{"poiid":"B2094757D06AA3F9449C","title":"江滨路观江平台～","lon":"121.47499573","lat":"31.192089987","category":"500","category_name":"未知分类","address":"上海卢湾区"},{"poiid":"B2094757D06FA5F8499C","title":"宝钢大舞台","lon":"121.484091043","lat":"31.1868936206","category":"260","category_name":"其他","address":"上海浦东新区世博公园"},{"poiid":"B2094757D068A2FC439C","title":"星港酒楼","lon":"121.47484","lat":"31.19505","category":"76","category_name":"上海菜","address":"卢湾区打浦路603号农工商超市5楼(近中山南一路)"},{"poiid":"B2094750DA6AABFB4293","title":"汇暻生活广场","lon":"121.47724395700834","lat":"31.198751495772107","category":"248","category_name":"生活娱乐","address":"上海市黄浦区瞿溪路988号"},{"poiid":"B2094757D16CA2FF439C","title":"新富港中心I座","lon":"121.482165824","lat":"31.1968062719","category":"46","category_name":"楼宇","address":"上海市卢湾区蒙自路763号"},{"poiid":"B2094757D064A4FE4198","title":"海外滩","lon":"121.472043738","lat":"31.1922194905","category":"500","category_name":"未知分类","address":"上海龙华东路868号"},{"poiid":"B2094751D16CABFE4593","title":"海外滩舒适堡","lon":"121.473662","lat":"31.193563","category":"248","category_name":"生活娱乐","address":"徐汇区龙华东路868号绿地海外滩中心B1楼(近打浦路)"},{"poiid":"B2094654DA6DA4FA419D","title":"卢湾城市花园","lon":"121.4775","lat":"31.19385","category":"47","category_name":"住宅区","address":"上海市卢湾区鲁班路738弄"},{"poiid":"B2094654DA6DA4FA429B","title":"紫荆新苑","lon":"121.47836","lat":"31.192335","category":"47","category_name":"住宅区","address":"紫荆新苑位于卢湾鲁班路797号"},{"poiid":"B2094655D26BA1F44499","title":"鲁班路瞿溪路","lon":"121.47688","lat":"31.19875","category":"38","category_name":"公交车站","address":""},{"poiid":"B2094752D26EA5F8479E","title":"世博希腊馆","lon":"121.477208","lat":"31.185743","category":"500","category_name":"未知分类","address":null},{"poiid":"B2094655D26FA5F44792","title":"农工商超市No.0119","lon":"121.4751","lat":"31.19522","category":"118","category_name":"超级市场","address":"打浦路603"},{"poiid":"B2094751D56BA4FA479F","title":"上海歌城","lon":"121.480165","lat":"31.191962","category":"170","category_name":"KTV","address":"昌里路337号浦东商场4层"},{"poiid":"B2094750DB64A5FE459B","title":"Rose Queen Coffee","lon":"121.47404","lat":"31.19128","category":"260","category_name":"其他","address":"卢湾区打浦路688号(近江滨路)"},{"poiid":"B209475CD66DA6FC4198","title":"辣府","lon":"121.474594","lat":"31.19452","category":"247","category_name":"餐饮美食","address":"上海市 打浦路603号"},{"poiid":"B2094753D568ABFE479F","title":"风云电竞馆","lon":"121.479003","lat":"31.194408","category":"500","category_name":"未知分类","address":"上海市 鲁班路899号"},{"poiid":"B2094757D068ABFD429C","title":"半盆菜酒家","lon":"121.47602","lat":"31.19694","category":"76","category_name":"上海菜","address":"卢湾区中山南一路893号(鲁班路口)"},{"poiid":"B2094655D26EA1FB439F","title":"卢浦大桥观光平台","lon":"121.47928","lat":"31.19279","category":"250","category_name":"公园户外","address":"鲁班路909"},{"poiid":"B2094757D168A0FE4393","title":"绿地万豪28楼行政餐厅","lon":"121.472935738","lat":"31.1918104818","category":"500","category_name":"未知分类","address":"上海市卢湾区江滨路99号"},{"poiid":"B2094757D069A2FE449B","title":"Level-T撞球公社","lon":"121.4738576","lat":"31.1959885","category":"171","category_name":"台球厅","address":"上海卢湾区中山南一路937号(近打浦路)"},{"poiid":"B2094654DA6DAAF4489F","title":"江南造船大厦餐厅","lon":"121.47678603674","lat":"31.198814812868","category":"268","category_name":"自助","address":"卢湾区鲁班路600号(近中山南一路)"},{"poiid":"B209475CD16EA4F8419E","title":"辣府","lon":"121.478958","lat":"31.1928","category":"247","category_name":"餐饮美食","address":"上海市 打浦路603号"},{"poiid":"B2094757D069A2FA469F","title":"肯德基 KFC (五里桥店)","lon":"121.474865","lat":"31.195255","category":"68","category_name":"快餐厅","address":"卢湾区打浦路603号农工商超市(近中山南一路)"},{"poiid":"B2094757D464ABF9439F","title":"棒约翰比萨 打浦店 Papa John's Pizza","lon":"121.47492980957","lat":"31.194774627686","category":"101","category_name":"美式风味","address":"卢湾区打浦路603号农工商超市1楼(近中山南一路)"},{"poiid":"B209475CD46EA5F4449B","title":"爱丽舍宫韩国高端礼堂","lon":"121.481152","lat":"31.193035","category":"265","category_name":"知名企业","address":"黄浦区局门路801号（近蒙自路）"},{"poiid":"B2094752DA6BA2FE4898","title":"上海八万人体育场","lon":"121.477028","lat":"31.192318","category":"500","category_name":"未知分类","address":"上海市 中山南二路"},{"poiid":"B2094654DA6DA4FA4193","title":"鲁班公寓","lon":"121.47804","lat":"31.193214","category":"47","category_name":"住宅区","address":"上海市卢湾区鲁班路776号"},{"poiid":"B2094655D268ABFF419A","title":"内环鲁班路立交桥","lon":"121.47785","lat":"31.1974","category":"250","category_name":"公园户外","address":""},{"poiid":"B2094757DA69A2FE429B","title":"海外滩-卢湾绿地商业","lon":"121.47404291225","lat":"31.193181193841","category":"119","category_name":"商场","address":"上海市黄浦区龙华东路810号海外滩?名品汇"},{"poiid":"B2094654DA6DAAF54093","title":"上海第二医科大学学生公寓一区","lon":"121.47491","lat":"31.19697","category":"47","category_name":"住宅区","address":"上海市卢湾区中山南一路937号"},{"poiid":"B209475CD568A0FD4192","title":"环贸iapm","lon":"121.476234","lat":"31.193092","category":"500","category_name":"未知分类","address":"上海市 淮海中路襄阳路"},{"poiid":"B2094751DA64A3F94598","title":"风云再起","lon":"121.480591","lat":"31.190842","category":"248","category_name":"生活娱乐","address":"人民广场迪美购物中心"},{"poiid":"B2094757D66DA3F44493","title":"来福仕和平影都","lon":"121.483822738","lat":"31.1938715257","category":"500","category_name":"未知分类","address":"上海市黄浦区南京西路"},{"poiid":"B2094757D16BA3FB439B","title":"龙华东路","lon":"121.478322326","lat":"31.1919154909","category":"500","category_name":"未知分类","address":"上海打浦路"},{"poiid":"B2094654DA6DA4F9439D","title":"卢湾区教师进修学院附属中山学校(东门)","lon":"121.47768","lat":"31.19597","category":"678","category_name":"学校大门","address":"鲁班路618"},{"poiid":"B209475DDA6FA3FD439B","title":"辣府(打浦路旗舰店)","lon":"121.474662","lat":"31.196044","category":"247","category_name":"餐饮美食","address":"上海市 黄浦区打浦路603号"},{"poiid":"B209475CD46DA4FB469C","title":"风云电竞馆","lon":"121.481163","lat":"31.193283","category":"500","category_name":"未知分类","address":"上海市 上海市黄浦区鲁班路往南到底（近龙华东路），风云电竞馆。"},{"poiid":"B2094757D065A6FC479B","title":"地铁十三号线(已暂停营运)","lon":"121.481882","lat":"31.193804","category":"36","category_name":"地铁站","address":"上海马当路 - 世博大道 轨道交通十三号线 轨交 13"},{"poiid":"B2094750DB65A1FF4092","title":"江边城外巫山烤全鱼","lon":"121.479843","lat":"31.195262","category":"247","category_name":"餐饮美食","address":"金陵东路"},{"poiid":"B2094655D264A2FD479B","title":"自由广场","lon":"121.47981","lat":"31.19517","category":"201","category_name":"城市广场","address":"上海世博园区"},{"poiid":"B2094655D36DA7F8479C","title":"中山南一路打浦路","lon":"121.47502","lat":"31.19667","category":"38","category_name":"公交车站","address":""},{"poiid":"B2094757D068A1F5419F","title":"世博园一号门","lon":"121.48098064","lat":"31.194694578","category":"260","category_name":"其他","address":"上海世博园一号门鲁班路出入口"},{"poiid":"B2094757D065ABFB439D","title":"绿地万豪酒店","lon":"121.47298469159864","lat":"31.192103398628525","category":"213","category_name":"五星级宾馆","address":"卢湾区江滨路99号(近打浦路)"},{"poiid":"B2094757D06FA2FA449D","title":"上海世博会博物馆 - 上海世博会纪念展","lon":"121.48130635","lat":"31.1936099525","category":"182","category_name":"博物馆","address":"卢湾区局门路原世博会城市足迹馆内(近龙华东路)"},{"poiid":"B2094655D265A6F5429C","title":"海外滩中心","lon":"121.47417","lat":"31.19376","category":"46","category_name":"楼宇","address":"卢湾区龙华东路886号"},{"poiid":"B2094757D06FAAFE419F","title":"后滩公园","lon":"121.4758535","lat":"31.184998305","category":"196","category_name":"公园","address":"上海浦东新区世博会园B片区"},{"poiid":"B2094655D26EA7F84093","title":"卢浦大桥","lon":"121.48255","lat":"31.18603","category":"250","category_name":"公园户外","address":"卢湾区鲁班路909号"},{"poiid":"B2094753D76BA0FD4593","title":"K11购物艺术中心","lon":"121.474906","lat":"31.194225","category":"500","category_name":"未知分类","address":"上海市 上海市淮海中路300号"},{"poiid":"B2094757D06FA7F5409F","title":"南园公园","lon":"121.4752825","lat":"31.193345331","category":"196","category_name":"公园","address":"上海卢湾区龙华东路800号(打浦路口)"},{"poiid":"B2094751D46FA1F9439B","title":"小团圆甜品","lon":"121.477386","lat":"31.198929","category":"247","category_name":"餐饮美食","address":"瞿溪路汇暻广场"},{"poiid":"B2094757D06AA3F9449C","title":"江滨路观江平台～","lon":"121.47499573","lat":"31.192089987","category":"500","category_name":"未知分类","address":"上海卢湾区"},{"poiid":"B2094757D06FA5F8499C","title":"宝钢大舞台","lon":"121.484091043","lat":"31.1868936206","category":"260","category_name":"其他","address":"上海浦东新区世博公园"},{"poiid":"B2094757D068A2FC439C","title":"星港酒楼","lon":"121.47484","lat":"31.19505","category":"76","category_name":"上海菜","address":"卢湾区打浦路603号农工商超市5楼(近中山南一路)"},{"poiid":"B2094750DA6AABFB4293","title":"汇暻生活广场","lon":"121.47724395700834","lat":"31.198751495772107","category":"248","category_name":"生活娱乐","address":"上海市黄浦区瞿溪路988号"},{"poiid":"B2094757D16CA2FF439C","title":"新富港中心I座","lon":"121.482165824","lat":"31.1968062719","category":"46","category_name":"楼宇","address":"上海市卢湾区蒙自路763号"},{"poiid":"B2094757D064A4FE4198","title":"海外滩","lon":"121.472043738","lat":"31.1922194905","category":"500","category_name":"未知分类","address":"上海龙华东路868号"},{"poiid":"B2094751D16CABFE4593","title":"海外滩舒适堡","lon":"121.473662","lat":"31.193563","category":"248","category_name":"生活娱乐","address":"徐汇区龙华东路868号绿地海外滩中心B1楼(近打浦路)"},{"poiid":"B2094654DA6DA4FA419D","title":"卢湾城市花园","lon":"121.4775","lat":"31.19385","category":"47","category_name":"住宅区","address":"上海市卢湾区鲁班路738弄"},{"poiid":"B2094654DA6DA4FA429B","title":"紫荆新苑","lon":"121.47836","lat":"31.192335","category":"47","category_name":"住宅区","address":"紫荆新苑位于卢湾鲁班路797号"},{"poiid":"B2094655D26BA1F44499","title":"鲁班路瞿溪路","lon":"121.47688","lat":"31.19875","category":"38","category_name":"公交车站","address":""},{"poiid":"B2094752D26EA5F8479E","title":"世博希腊馆","lon":"121.477208","lat":"31.185743","category":"500","category_name":"未知分类","address":null},{"poiid":"B2094655D26FA5F44792","title":"农工商超市No.0119","lon":"121.4751","lat":"31.19522","category":"118","category_name":"超级市场","address":"打浦路603"},{"poiid":"B2094751D56BA4FA479F","title":"上海歌城","lon":"121.480165","lat":"31.191962","category":"170","category_name":"KTV","address":"昌里路337号浦东商场4层"},{"poiid":"B2094750DB64A5FE459B","title":"Rose Queen Coffee","lon":"121.47404","lat":"31.19128","category":"260","category_name":"其他","address":"卢湾区打浦路688号(近江滨路)"},{"poiid":"B209475CD66DA6FC4198","title":"辣府","lon":"121.474594","lat":"31.19452","category":"247","category_name":"餐饮美食","address":"上海市 打浦路603号"},{"poiid":"B2094753D568ABFE479F","title":"风云电竞馆","lon":"121.479003","lat":"31.194408","category":"500","category_name":"未知分类","address":"上海市 鲁班路899号"},{"poiid":"B2094757D068ABFD429C","title":"半盆菜酒家","lon":"121.47602","lat":"31.19694","category":"76","category_name":"上海菜","address":"卢湾区中山南一路893号(鲁班路口)"},{"poiid":"B2094655D26EA1FB439F","title":"卢浦大桥观光平台","lon":"121.47928","lat":"31.19279","category":"250","category_name":"公园户外","address":"鲁班路909"},{"poiid":"B2094757D168A0FE4393","title":"绿地万豪28楼行政餐厅","lon":"121.472935738","lat":"31.1918104818","category":"500","category_name":"未知分类","address":"上海市卢湾区江滨路99号"},{"poiid":"B2094757D069A2FE449B","title":"Level-T撞球公社","lon":"121.4738576","lat":"31.1959885","category":"171","category_name":"台球厅","address":"上海卢湾区中山南一路937号(近打浦路)"},{"poiid":"B2094654DA6DAAF4489F","title":"江南造船大厦餐厅","lon":"121.47678603674","lat":"31.198814812868","category":"268","category_name":"自助","address":"卢湾区鲁班路600号(近中山南一路)"},{"poiid":"B209475CD16EA4F8419E","title":"辣府","lon":"121.478958","lat":"31.1928","category":"247","category_name":"餐饮美食","address":"上海市 打浦路603号"},{"poiid":"B2094757D069A2FA469F","title":"肯德基 KFC (五里桥店)","lon":"121.474865","lat":"31.195255","category":"68","category_name":"快餐厅","address":"卢湾区打浦路603号农工商超市(近中山南一路)"},{"poiid":"B2094757D464ABF9439F","title":"棒约翰比萨 打浦店 Papa John's Pizza","lon":"121.47492980957","lat":"31.194774627686","category":"101","category_name":"美式风味","address":"卢湾区打浦路603号农工商超市1楼(近中山南一路)"},{"poiid":"B209475CD46EA5F4449B","title":"爱丽舍宫韩国高端礼堂","lon":"121.481152","lat":"31.193035","category":"265","category_name":"知名企业","address":"黄浦区局门路801号（近蒙自路）"},{"poiid":"B2094752DA6BA2FE4898","title":"上海八万人体育场","lon":"121.477028","lat":"31.192318","category":"500","category_name":"未知分类","address":"上海市 中山南二路"},{"poiid":"B2094654DA6DA4FA4193","title":"鲁班公寓","lon":"121.47804","lat":"31.193214","category":"47","category_name":"住宅区","address":"上海市卢湾区鲁班路776号"},{"poiid":"B2094655D268ABFF419A","title":"内环鲁班路立交桥","lon":"121.47785","lat":"31.1974","category":"250","category_name":"公园户外","address":""},{"poiid":"B2094757DA69A2FE429B","title":"海外滩-卢湾绿地商业","lon":"121.47404291225","lat":"31.193181193841","category":"119","category_name":"商场","address":"上海市黄浦区龙华东路810号海外滩?名品汇"},{"poiid":"B2094654DA6DAAF54093","title":"上海第二医科大学学生公寓一区","lon":"121.47491","lat":"31.19697","category":"47","category_name":"住宅区","address":"上海市卢湾区中山南一路937号"},{"poiid":"B209475CD568A0FD4192","title":"环贸iapm","lon":"121.476234","lat":"31.193092","category":"500","category_name":"未知分类","address":"上海市 淮海中路襄阳路"},{"poiid":"B2094751DA64A3F94598","title":"风云再起","lon":"121.480591","lat":"31.190842","category":"248","category_name":"生活娱乐","address":"人民广场迪美购物中心"},{"poiid":"B2094757D66DA3F44493","title":"来福仕和平影都","lon":"121.483822738","lat":"31.1938715257","category":"500","category_name":"未知分类","address":"上海市黄浦区南京西路"},{"poiid":"B2094757D16BA3FB439B","title":"龙华东路","lon":"121.478322326","lat":"31.1919154909","category":"500","category_name":"未知分类","address":"上海打浦路"},{"poiid":"B2094654DA6DA4F9439D","title":"卢湾区教师进修学院附属中山学校(东门)","lon":"121.47768","lat":"31.19597","category":"678","category_name":"学校大门","address":"鲁班路618"},{"poiid":"B209475DDA6FA3FD439B","title":"辣府(打浦路旗舰店)","lon":"121.474662","lat":"31.196044","category":"247","category_name":"餐饮美食","address":"上海市 黄浦区打浦路603号"},{"poiid":"B209475CD46DA4FB469C","title":"风云电竞馆","lon":"121.481163","lat":"31.193283","category":"500","category_name":"未知分类","address":"上海市 上海市黄浦区鲁班路往南到底（近龙华东路），风云电竞馆。"},{"poiid":"B2094757D065A6FC479B","title":"地铁十三号线(已暂停营运)","lon":"121.481882","lat":"31.193804","category":"36","category_name":"地铁站","address":"上海马当路 - 世博大道 轨道交通十三号线 轨交 13"},{"poiid":"B2094750DB65A1FF4092","title":"江边城外巫山烤全鱼","lon":"121.479843","lat":"31.195262","category":"247","category_name":"餐饮美食","address":"金陵东路"},{"poiid":"B2094655D264A2FD479B","title":"自由广场","lon":"121.47981","lat":"31.19517","category":"201","category_name":"城市广场","address":"上海世博园区"},{"poiid":"B2094655D36DA7F8479C","title":"中山南一路打浦路","lon":"121.47502","lat":"31.19667","category":"38","category_name":"公交车站","address":""},{"poiid":"B2094757D068A1F5419F","title":"世博园一号门","lon":"121.48098064","lat":"31.194694578","category":"260","category_name":"其他","address":"上海世博园一号门鲁班路出入口"},{"poiid":"B2094757D065ABFB439D","title":"绿地万豪酒店","lon":"121.47298469159864","lat":"31.192103398628525","category":"213","category_name":"五星级宾馆","address":"卢湾区江滨路99号(近打浦路)"},{"poiid":"B2094757D06FA2FA449D","title":"上海世博会博物馆 - 上海世博会纪念展","lon":"121.48130635","lat":"31.1936099525","category":"182","category_name":"博物馆","address":"卢湾区局门路原世博会城市足迹馆内(近龙华东路)"},{"poiid":"B2094655D265A6F5429C","title":"海外滩中心","lon":"121.47417","lat":"31.19376","category":"46","category_name":"楼宇","address":"卢湾区龙华东路886号"},{"poiid":"B2094757D06FAAFE419F","title":"后滩公园","lon":"121.4758535","lat":"31.184998305","category":"196","category_name":"公园","address":"上海浦东新区世博会园B片区"},{"poiid":"B2094655D26EA7F84093","title":"卢浦大桥","lon":"121.48255","lat":"31.18603","category":"250","category_name":"公园户外","address":"卢湾区鲁班路909号"},{"poiid":"B2094753D76BA0FD4593","title":"K11购物艺术中心","lon":"121.474906","lat":"31.194225","category":"500","category_name":"未知分类","address":"上海市 上海市淮海中路300号"},{"poiid":"B2094757D06FA7F5409F","title":"南园公园","lon":"121.4752825","lat":"31.193345331","category":"196","category_name":"公园","address":"上海卢湾区龙华东路800号(打浦路口)"},{"poiid":"B2094751D46FA1F9439B","title":"小团圆甜品","lon":"121.477386","lat":"31.198929","category":"247","category_name":"餐饮美食","address":"瞿溪路汇暻广场"},{"poiid":"B2094757D06AA3F9449C","title":"江滨路观江平台～","lon":"121.47499573","lat":"31.192089987","category":"500","category_name":"未知分类","address":"上海卢湾区"},{"poiid":"B2094757D06FA5F8499C","title":"宝钢大舞台","lon":"121.484091043","lat":"31.1868936206","category":"260","category_name":"其他","address":"上海浦东新区世博公园"},{"poiid":"B2094757D068A2FC439C","title":"星港酒楼","lon":"121.47484","lat":"31.19505","category":"76","category_name":"上海菜","address":"卢湾区打浦路603号农工商超市5楼(近中山南一路)"},{"poiid":"B2094750DA6AABFB4293","title":"汇暻生活广场","lon":"121.47724395700834","lat":"31.198751495772107","category":"248","category_name":"生活娱乐","address":"上海市黄浦区瞿溪路988号"},{"poiid":"B2094757D16CA2FF439C","title":"新富港中心I座","lon":"121.482165824","lat":"31.1968062719","category":"46","category_name":"楼宇","address":"上海市卢湾区蒙自路763号"},{"poiid":"B2094757D064A4FE4198","title":"海外滩","lon":"121.472043738","lat":"31.1922194905","category":"500","category_name":"未知分类","address":"上海龙华东路868号"},{"poiid":"B2094751D16CABFE4593","title":"海外滩舒适堡","lon":"121.473662","lat":"31.193563","category":"248","category_name":"生活娱乐","address":"徐汇区龙华东路868号绿地海外滩中心B1楼(近打浦路)"},{"poiid":"B2094654DA6DA4FA419D","title":"卢湾城市花园","lon":"121.4775","lat":"31.19385","category":"47","category_name":"住宅区","address":"上海市卢湾区鲁班路738弄"},{"poiid":"B2094654DA6DA4FA429B","title":"紫荆新苑","lon":"121.47836","lat":"31.192335","category":"47","category_name":"住宅区","address":"紫荆新苑位于卢湾鲁班路797号"},{"poiid":"B2094655D26BA1F44499","title":"鲁班路瞿溪路","lon":"121.47688","lat":"31.19875","category":"38","category_name":"公交车站","address":""},{"poiid":"B2094752D26EA5F8479E","title":"世博希腊馆","lon":"121.477208","lat":"31.185743","category":"500","category_name":"未知分类","address":null},{"poiid":"B2094655D26FA5F44792","title":"农工商超市No.0119","lon":"121.4751","lat":"31.19522","category":"118","category_name":"超级市场","address":"打浦路603"},{"poiid":"B2094751D56BA4FA479F","title":"上海歌城","lon":"121.480165","lat":"31.191962","category":"170","category_name":"KTV","address":"昌里路337号浦东商场4层"},{"poiid":"B2094750DB64A5FE459B","title":"Rose Queen Coffee","lon":"121.47404","lat":"31.19128","category":"260","category_name":"其他","address":"卢湾区打浦路688号(近江滨路)"},{"poiid":"B209475CD66DA6FC4198","title":"辣府","lon":"121.474594","lat":"31.19452","category":"247","category_name":"餐饮美食","address":"上海市 打浦路603号"},{"poiid":"B2094753D568ABFE479F","title":"风云电竞馆","lon":"121.479003","lat":"31.194408","category":"500","category_name":"未知分类","address":"上海市 鲁班路899号"},{"poiid":"B2094757D068ABFD429C","title":"半盆菜酒家","lon":"121.47602","lat":"31.19694","category":"76","category_name":"上海菜","address":"卢湾区中山南一路893号(鲁班路口)"},{"poiid":"B2094655D26EA1FB439F","title":"卢浦大桥观光平台","lon":"121.47928","lat":"31.19279","category":"250","category_name":"公园户外","address":"鲁班路909"},{"poiid":"B2094757D168A0FE4393","title":"绿地万豪28楼行政餐厅","lon":"121.472935738","lat":"31.1918104818","category":"500","category_name":"未知分类","address":"上海市卢湾区江滨路99号"},{"poiid":"B2094757D069A2FE449B","title":"Level-T撞球公社","lon":"121.4738576","lat":"31.1959885","category":"171","category_name":"台球厅","address":"上海卢湾区中山南一路937号(近打浦路)"},{"poiid":"B2094654DA6DAAF4489F","title":"江南造船大厦餐厅","lon":"121.47678603674","lat":"31.198814812868","category":"268","category_name":"自助","address":"卢湾区鲁班路600号(近中山南一路)"},{"poiid":"B209475CD16EA4F8419E","title":"辣府","lon":"121.478958","lat":"31.1928","category":"247","category_name":"餐饮美食","address":"上海市 打浦路603号"},{"poiid":"B2094757D069A2FA469F","title":"肯德基 KFC (五里桥店)","lon":"121.474865","lat":"31.195255","category":"68","category_name":"快餐厅","address":"卢湾区打浦路603号农工商超市(近中山南一路)"},{"poiid":"B2094757D464ABF9439F","title":"棒约翰比萨 打浦店 Papa John's Pizza","lon":"121.47492980957","lat":"31.194774627686","category":"101","category_name":"美式风味","address":"卢湾区打浦路603号农工商超市1楼(近中山南一路)"},{"poiid":"B209475CD46EA5F4449B","title":"爱丽舍宫韩国高端礼堂","lon":"121.481152","lat":"31.193035","category":"265","category_name":"知名企业","address":"黄浦区局门路801号（近蒙自路）"},{"poiid":"B2094752DA6BA2FE4898","title":"上海八万人体育场","lon":"121.477028","lat":"31.192318","category":"500","category_name":"未知分类","address":"上海市 中山南二路"},{"poiid":"B2094654DA6DA4FA4193","title":"鲁班公寓","lon":"121.47804","lat":"31.193214","category":"47","category_name":"住宅区","address":"上海市卢湾区鲁班路776号"},{"poiid":"B2094655D268ABFF419A","title":"内环鲁班路立交桥","lon":"121.47785","lat":"31.1974","category":"250","category_name":"公园户外","address":""},{"poiid":"B2094757DA69A2FE429B","title":"海外滩-卢湾绿地商业","lon":"121.47404291225","lat":"31.193181193841","category":"119","category_name":"商场","address":"上海市黄浦区龙华东路810号海外滩?名品汇"},{"poiid":"B2094654DA6DAAF54093","title":"上海第二医科大学学生公寓一区","lon":"121.47491","lat":"31.19697","category":"47","category_name":"住宅区","address":"上海市卢湾区中山南一路937号"},{"poiid":"B209475CD568A0FD4192","title":"环贸iapm","lon":"121.476234","lat":"31.193092","category":"500","category_name":"未知分类","address":"上海市 淮海中路襄阳路"},{"poiid":"B2094751DA64A3F94598","title":"风云再起","lon":"121.480591","lat":"31.190842","category":"248","category_name":"生活娱乐","address":"人民广场迪美购物中心"},{"poiid":"B2094757D66DA3F44493","title":"来福仕和平影都","lon":"121.483822738","lat":"31.1938715257","category":"500","category_name":"未知分类","address":"上海市黄浦区南京西路"},{"poiid":"B2094757D16BA3FB439B","title":"龙华东路","lon":"121.478322326","lat":"31.1919154909","category":"500","category_name":"未知分类","address":"上海打浦路"},{"poiid":"B2094654DA6DA4F9439D","title":"卢湾区教师进修学院附属中山学校(东门)","lon":"121.47768","lat":"31.19597","category":"678","category_name":"学校大门","address":"鲁班路618"},{"poiid":"B209475DDA6FA3FD439B","title":"辣府(打浦路旗舰店)","lon":"121.474662","lat":"31.196044","category":"247","category_name":"餐饮美食","address":"上海市 黄浦区打浦路603号"},{"poiid":"B209475CD46DA4FB469C","title":"风云电竞馆","lon":"121.481163","lat":"31.193283","category":"500","category_name":"未知分类","address":"上海市 上海市黄浦区鲁班路往南到底（近龙华东路），风云电竞馆。"},{"poiid":"B2094757D065A6FC479B","title":"地铁十三号线(已暂停营运)","lon":"121.481882","lat":"31.193804","category":"36","category_name":"地铁站","address":"上海马当路 - 世博大道 轨道交通十三号线 轨交 13"},{"poiid":"B2094750DB65A1FF4092","title":"江边城外巫山烤全鱼","lon":"121.479843","lat":"31.195262","category":"247","category_name":"餐饮美食","address":"金陵东路"},{"poiid":"B2094655D264A2FD479B","title":"自由广场","lon":"121.47981","lat":"31.19517","category":"201","category_name":"城市广场","address":"上海世博园区"},{"poiid":"B2094655D36DA7F8479C","title":"中山南一路打浦路","lon":"121.47502","lat":"31.19667","category":"38","category_name":"公交车站","address":""},{"poiid":"B2094757D068A1F5419F","title":"世博园一号门","lon":"121.48098064","lat":"31.194694578","category":"260","category_name":"其他","address":"上海世博园一号门鲁班路出入口"},{"poiid":"B2094757D065ABFB439D","title":"绿地万豪酒店","lon":"121.47298469159864","lat":"31.192103398628525","category":"213","category_name":"五星级宾馆","address":"卢湾区江滨路99号(近打浦路)"},{"poiid":"B2094757D06FA2FA449D","title":"上海世博会博物馆 - 上海世博会纪念展","lon":"121.48130635","lat":"31.1936099525","category":"182","category_name":"博物馆","address":"卢湾区局门路原世博会城市足迹馆内(近龙华东路)"},{"poiid":"B2094655D265A6F5429C","title":"海外滩中心","lon":"121.47417","lat":"31.19376","category":"46","category_name":"楼宇","address":"卢湾区龙华东路886号"},{"poiid":"B2094757D06FAAFE419F","title":"后滩公园","lon":"121.4758535","lat":"31.184998305","category":"196","category_name":"公园","address":"上海浦东新区世博会园B片区"},{"poiid":"B2094655D26EA7F84093","title":"卢浦大桥","lon":"121.48255","lat":"31.18603","category":"250","category_name":"公园户外","address":"卢湾区鲁班路909号"},{"poiid":"B2094753D76BA0FD4593","title":"K11购物艺术中心","lon":"121.474906","lat":"31.194225","category":"500","category_name":"未知分类","address":"上海市 上海市淮海中路300号"},{"poiid":"B2094757D06FA7F5409F","title":"南园公园","lon":"121.4752825","lat":"31.193345331","category":"196","category_name":"公园","address":"上海卢湾区龙华东路800号(打浦路口)"},{"poiid":"B2094751D46FA1F9439B","title":"小团圆甜品","lon":"121.477386","lat":"31.198929","category":"247","category_name":"餐饮美食","address":"瞿溪路汇暻广场"},{"poiid":"B2094757D06AA3F9449C","title":"江滨路观江平台～","lon":"121.47499573","lat":"31.192089987","category":"500","category_name":"未知分类","address":"上海卢湾区"},{"poiid":"B2094757D06FA5F8499C","title":"宝钢大舞台","lon":"121.484091043","lat":"31.1868936206","category":"260","category_name":"其他","address":"上海浦东新区世博公园"},{"poiid":"B2094757D068A2FC439C","title":"星港酒楼","lon":"121.47484","lat":"31.19505","category":"76","category_name":"上海菜","address":"卢湾区打浦路603号农工商超市5楼(近中山南一路)"},{"poiid":"B2094750DA6AABFB4293","title":"汇暻生活广场","lon":"121.47724395700834","lat":"31.198751495772107","category":"248","category_name":"生活娱乐","address":"上海市黄浦区瞿溪路988号"},{"poiid":"B2094757D16CA2FF439C","title":"新富港中心I座","lon":"121.482165824","lat":"31.1968062719","category":"46","category_name":"楼宇","address":"上海市卢湾区蒙自路763号"},{"poiid":"B2094757D064A4FE4198","title":"海外滩","lon":"121.472043738","lat":"31.1922194905","category":"500","category_name":"未知分类","address":"上海龙华东路868号"},{"poiid":"B2094751D16CABFE4593","title":"海外滩舒适堡","lon":"121.473662","lat":"31.193563","category":"248","category_name":"生活娱乐","address":"徐汇区龙华东路868号绿地海外滩中心B1楼(近打浦路)"},{"poiid":"B2094654DA6DA4FA419D","title":"卢湾城市花园","lon":"121.4775","lat":"31.19385","category":"47","category_name":"住宅区","address":"上海市卢湾区鲁班路738弄"},{"poiid":"B2094654DA6DA4FA429B","title":"紫荆新苑","lon":"121.47836","lat":"31.192335","category":"47","category_name":"住宅区","address":"紫荆新苑位于卢湾鲁班路797号"},{"poiid":"B2094655D26BA1F44499","title":"鲁班路瞿溪路","lon":"121.47688","lat":"31.19875","category":"38","category_name":"公交车站","address":""},{"poiid":"B2094752D26EA5F8479E","title":"世博希腊馆","lon":"121.477208","lat":"31.185743","category":"500","category_name":"未知分类","address":null},{"poiid":"B2094655D26FA5F44792","title":"农工商超市No.0119","lon":"121.4751","lat":"31.19522","category":"118","category_name":"超级市场","address":"打浦路603"},{"poiid":"B2094751D56BA4FA479F","title":"上海歌城","lon":"121.480165","lat":"31.191962","category":"170","category_name":"KTV","address":"昌里路337号浦东商场4层"},{"poiid":"B2094750DB64A5FE459B","title":"Rose Queen Coffee","lon":"121.47404","lat":"31.19128","category":"260","category_name":"其他","address":"卢湾区打浦路688号(近江滨路)"},{"poiid":"B209475CD66DA6FC4198","title":"辣府","lon":"121.474594","lat":"31.19452","category":"247","category_name":"餐饮美食","address":"上海市 打浦路603号"},{"poiid":"B2094753D568ABFE479F","title":"风云电竞馆","lon":"121.479003","lat":"31.194408","category":"500","category_name":"未知分类","address":"上海市 鲁班路899号"},{"poiid":"B2094757D068ABFD429C","title":"半盆菜酒家","lon":"121.47602","lat":"31.19694","category":"76","category_name":"上海菜","address":"卢湾区中山南一路893号(鲁班路口)"},{"poiid":"B2094655D26EA1FB439F","title":"卢浦大桥观光平台","lon":"121.47928","lat":"31.19279","category":"250","category_name":"公园户外","address":"鲁班路909"},{"poiid":"B2094757D168A0FE4393","title":"绿地万豪28楼行政餐厅","lon":"121.472935738","lat":"31.1918104818","category":"500","category_name":"未知分类","address":"上海市卢湾区江滨路99号"},{"poiid":"B2094757D069A2FE449B","title":"Level-T撞球公社","lon":"121.4738576","lat":"31.1959885","category":"171","category_name":"台球厅","address":"上海卢湾区中山南一路937号(近打浦路)"},{"poiid":"B2094654DA6DAAF4489F","title":"江南造船大厦餐厅","lon":"121.47678603674","lat":"31.198814812868","category":"268","category_name":"自助","address":"卢湾区鲁班路600号(近中山南一路)"},{"poiid":"B209475CD16EA4F8419E","title":"辣府","lon":"121.478958","lat":"31.1928","category":"247","category_name":"餐饮美食","address":"上海市 打浦路603号"},{"poiid":"B2094757D069A2FA469F","title":"肯德基 KFC (五里桥店)","lon":"121.474865","lat":"31.195255","category":"68","category_name":"快餐厅","address":"卢湾区打浦路603号农工商超市(近中山南一路)"},{"poiid":"B2094757D464ABF9439F","title":"棒约翰比萨 打浦店 Papa John's Pizza","lon":"121.47492980957","lat":"31.194774627686","category":"101","category_name":"美式风味","address":"卢湾区打浦路603号农工商超市1楼(近中山南一路)"},{"poiid":"B209475CD46EA5F4449B","title":"爱丽舍宫韩国高端礼堂","lon":"121.481152","lat":"31.193035","category":"265","category_name":"知名企业","address":"黄浦区局门路801号（近蒙自路）"},{"poiid":"B2094752DA6BA2FE4898","title":"上海八万人体育场","lon":"121.477028","lat":"31.192318","category":"500","category_name":"未知分类","address":"上海市 中山南二路"},{"poiid":"B2094654DA6DA4FA4193","title":"鲁班公寓","lon":"121.47804","lat":"31.193214","category":"47","category_name":"住宅区","address":"上海市卢湾区鲁班路776号"},{"poiid":"B2094655D268ABFF419A","title":"内环鲁班路立交桥","lon":"121.47785","lat":"31.1974","category":"250","category_name":"公园户外","address":""},{"poiid":"B2094757DA69A2FE429B","title":"海外滩-卢湾绿地商业","lon":"121.47404291225","lat":"31.193181193841","category":"119","category_name":"商场","address":"上海市黄浦区龙华东路810号海外滩?名品汇"},{"poiid":"B2094654DA6DAAF54093","title":"上海第二医科大学学生公寓一区","lon":"121.47491","lat":"31.19697","category":"47","category_name":"住宅区","address":"上海市卢湾区中山南一路937号"},{"poiid":"B209475CD568A0FD4192","title":"环贸iapm","lon":"121.476234","lat":"31.193092","category":"500","category_name":"未知分类","address":"上海市 淮海中路襄阳路"},{"poiid":"B2094751DA64A3F94598","title":"风云再起","lon":"121.480591","lat":"31.190842","category":"248","category_name":"生活娱乐","address":"人民广场迪美购物中心"},{"poiid":"B2094757D66DA3F44493","title":"来福仕和平影都","lon":"121.483822738","lat":"31.1938715257","category":"500","category_name":"未知分类","address":"上海市黄浦区南京西路"},{"poiid":"B2094757D16BA3FB439B","title":"龙华东路","lon":"121.478322326","lat":"31.1919154909","category":"500","category_name":"未知分类","address":"上海打浦路"},{"poiid":"B2094654DA6DA4F9439D","title":"卢湾区教师进修学院附属中山学校(东门)","lon":"121.47768","lat":"31.19597","category":"678","category_name":"学校大门","address":"鲁班路618"},{"poiid":"B209475DDA6FA3FD439B","title":"辣府(打浦路旗舰店)","lon":"121.474662","lat":"31.196044","category":"247","category_name":"餐饮美食","address":"上海市 黄浦区打浦路603号"},{"poiid":"B209475CD46DA4FB469C","title":"风云电竞馆","lon":"121.481163","lat":"31.193283","category":"500","category_name":"未知分类","address":"上海市 上海市黄浦区鲁班路往南到底（近龙华东路），风云电竞馆。"},{"poiid":"B2094757D065A6FC479B","title":"地铁十三号线(已暂停营运)","lon":"121.481882","lat":"31.193804","category":"36","category_name":"地铁站","address":"上海马当路 - 世博大道 轨道交通十三号线 轨交 13"},{"poiid":"B2094750DB65A1FF4092","title":"江边城外巫山烤全鱼","lon":"121.479843","lat":"31.195262","category":"247","category_name":"餐饮美食","address":"金陵东路"},{"poiid":"B2094655D264A2FD479B","title":"自由广场","lon":"121.47981","lat":"31.19517","category":"201","category_name":"城市广场","address":"上海世博园区"},{"poiid":"B2094655D36DA7F8479C","title":"中山南一路打浦路","lon":"121.47502","lat":"31.19667","category":"38","category_name":"公交车站","address":""},{"poiid":"B2094757D068A1F5419F","title":"世博园一号门","lon":"121.48098064","lat":"31.194694578","category":"260","category_name":"其他","address":"上海世博园一号门鲁班路出入口"}]