[{"poiid":"B2094654DA68A7FE4398","title":"上海交通大学医学院附属第九人民医院","lon":"121.48547","lat":"31.20242","category":"162","category_name":"医院","address":"上海市黄浦区制造局路639号"},{"poiid":"B2094757D06EAAFB489A","title":"西藏南路地铁站","lon":"121.48955049","lat":"31.201815904","category":"36","category_name":"地铁站","address":"黄浦区西藏南路"},{"poiid":"B2094757D068A3FF4999","title":"上海第九人民医院一号楼(牙科)","lon":"121.4861226","lat":"31.201654541","category":"162","category_name":"医院","address":"上海市黄浦区制造局路639号"},{"poiid":"B2094753D76FAAFA449C","title":"上海滩国泰旗舰店","lon":"121.466011","lat":"31.216125","category":"249","category_name":"购物服务","address":"淮海中路868号"},{"poiid":"B209475CD564A7F84292","title":"上海滩新天地店","lon":"121.47463","lat":"31.22164","category":"119","category_name":"商场","address":"\"太仓路181弄新天地北里15号\r\n\""},{"poiid":"B2094757D16CA2FF439C","title":"新富港中心I座","lon":"121.482165824","lat":"31.1968062719","category":"46","category_name":"楼宇","address":"上海市卢湾区蒙自路763号"},{"poiid":"B2094655D268A5FB499B","title":"上海交通大学口腔医学院九院临床医学院","lon":"121.4868","lat":"31.1995","category":"52","category_name":"高等院校","address":""},{"poiid":"B2094654DA68A7FB489D","title":"上海市公安局卢湾分局(中山南一路)","lon":"121.482","lat":"31.19939","category":"248","category_name":"生活娱乐","address":"中山南一路599"},{"poiid":"B2094654DA68A7F4499B","title":"卢湾都市花园","lon":"121.4851008675","lat":"31.200123503758","category":"47","category_name":"住宅区","address":"上海市卢湾区鲁班路509号"},{"poiid":"B2094750D56DA6FF439B","title":"x先生密室","lon":"121.486541","lat":"31.200435","category":"500","category_name":"未知分类","address":"卢湾区局门路550号八号桥三期1号楼"},{"poiid":"B2094757D569A3F8449A","title":"香啡缤(局门路)","lon":"121.48269884","lat":"31.20096924","category":"260","category_name":"其他","address":"卢湾区局门路550号8号楼8102单元(近瞿溪路)"},{"poiid":"B2094654DA68A7FE429A","title":"五爱高级中学","lon":"121.48476","lat":"31.20134","category":"55","category_name":"中学","address":"卢湾区制造局路666号(近瞿溪路)"},{"poiid":"B2094751DA6BA0FA419D","title":"世博源巴国布衣","lon":"121.486386","lat":"31.198458","category":"247","category_name":"餐饮美食","address":"世博大道1368号世博源"},{"poiid":"B2094757D068A4FE4799","title":"蔡先生苏州汤包馆(制造局路店)","lon":"121.48496","lat":"31.20279","category":"68","category_name":"快餐厅","address":"卢湾区制造局路592号(近第九人民医院)"},{"poiid":"B2094757D06AA4F94292","title":"coffee bean","lon":"121.48605346","lat":"31.199184417","category":"65","category_name":"咖啡厅","address":"上海8号桥三期"},{"poiid":"B2094757D16CA0F5439A","title":"香港新世界花园一期","lon":"121.48666023","lat":"31.197706047","category":"47","category_name":"住宅区","address":"上海市卢湾区中山南一路500弄"},{"poiid":"B2094654DA68A7F94699","title":"黄金岛大酒店","lon":"121.48628","lat":"31.19932","category":"250","category_name":"公园户外","address":"卢湾区制造局路833弄口(近市第九人民医院)"},{"poiid":"B2094655D36DA7F84792","title":"中山南一路西藏南路","lon":"121.48866","lat":"31.20129","category":"38","category_name":"公交车站","address":""},{"poiid":"B2094757D068ABFE4499","title":"上海卢工邮币卡交易市场","lon":"121.482825715","lat":"31.2002586785","category":"134","category_name":"古玩字画店","address":"卢湾区局门路600号(局门路中山南一路)"},{"poiid":"B2094757D069A3F4489A","title":"世博会可口可乐馆","lon":"121.48672","lat":"31.19594","category":"183","category_name":"展览馆","address":"上海世博会D片区"},{"poiid":"B2094654DA68A7FA409E","title":"晟光商务","lon":"121.48671","lat":"31.19829","category":"46","category_name":"楼宇","address":"制造局路893"},{"poiid":"B2094655D268A4F84098","title":"上海交通大学口腔医学院九院临床医学院(南门)","lon":"121.48694","lat":"31.19947","category":"52","category_name":"高等院校","address":""},{"poiid":"B2094654DA68A7F9469E","title":"黄金岛食府","lon":"121.4861","lat":"31.19926","category":"76","category_name":"上海菜","address":"黄浦区制造局路789号(近中山南一路口)"},{"poiid":"B2094654DA68A7FE459B","title":"瞿四小区(瞿溪路)","lon":"121.48677","lat":"31.20107","category":"47","category_name":"住宅区","address":"中山南一路247弄1-24号"},{"poiid":"B2094654DA68A7F9489B","title":"南康公寓","lon":"121.48646","lat":"31.19877","category":"47","category_name":"住宅区","address":"制造局路859弄"},{"poiid":"B2094655D268A5FB489D","title":"嘉登公寓","lon":"121.48667","lat":"31.19915","category":"47","category_name":"住宅区","address":"制造局路833弄8号-11号"},{"poiid":"B2094655D268A5FB489C","title":"南康公寓(西门)","lon":"121.48632","lat":"31.19869","category":"47","category_name":"住宅区","address":"制造局路859弄"},{"poiid":"B2094757D069ABFB409F","title":"吴越人家面馆(制造局路店)","lon":"121.4855","lat":"31.20157","category":"68","category_name":"快餐厅","address":"卢湾区制造局路640号(近中山南一路)"},{"poiid":"B2094654DB64AAF54999","title":"上海市黄浦区科技工业大楼","lon":"121.48626","lat":"31.19946","category":"46","category_name":"楼宇","address":"制造局路787号"},{"poiid":"B2094654DB65A5F84298","title":"银锚大厦","lon":"121.48531","lat":"31.19899","category":"46","category_name":"楼宇","address":"江边路181号"},{"poiid":"B2094654DA68A7F9419F","title":"黄浦科技孵化大楼","lon":"121.48626","lat":"31.19945","category":"46","category_name":"楼宇","address":"制造局路787号"},{"poiid":"B2094655D26EA0FD4199","title":"丽华快餐","lon":"121.48635","lat":"31.19905","category":"257","category_name":"中餐厅","address":"黄浦区制造局路833号"},{"poiid":"B2094655D26BA6FB4192","title":"上海交通大学口腔医学院(西门)","lon":"121.48699","lat":"31.1995","category":"52","category_name":"高等院校","address":"制造局路833弄12"},{"poiid":"B2094750DA68A6F94398","title":"Mr X 密室逃脱","lon":"121.483734","lat":"31.198822","category":"248","category_name":"生活娱乐","address":null},{"poiid":"B2094753DA69A4FC429B","title":"华东理工大学","lon":"121.485984","lat":"31.199546","category":"500","category_name":"未知分类","address":"上海市 上海市徐汇区梅陇路130号"},{"poiid":"B2094757DB6DABFA4793","title":"莫泰168（上海西藏南路店）—原千岛湖酒店","lon":"121.4901403","lat":"31.19946134","category":"215","category_name":"三星级宾馆","address":"上海市黄浦区西藏南路1735号（近中山南路路口）"},{"poiid":"B2094757D06BA3F4449B","title":"上海市第九人民医院临床医学院宿舍楼","lon":"121.486989","lat":"31.199509","category":"253","category_name":"校园生活","address":"上海制造局路833弄12号"},{"poiid":"B2094655D26FA5FC4799","title":"望江苑","lon":"121.4892","lat":"31.198946","category":"47","category_name":"住宅区","address":"高雄路185,189"},{"poiid":"B2094655D268A4F8409C","title":"惠祥公寓","lon":"121.48793","lat":"31.199553","category":"47","category_name":"住宅区","address":"制造局路833弄19号"},{"poiid":"B2094752D26AAAFC489D","title":"上海政法学院","lon":"121.486179","lat":"31.196277","category":"253","category_name":"校园生活","address":null},{"poiid":"B2094757D169A6FE489F","title":"世博高雄路出入口","lon":"121.48752594","lat":"31.1971988678","category":"500","category_name":"未知分类","address":"上海高雄路製造局路"},{"poiid":"B2094655D268A5FB4893","title":"嘉登公寓(北门)","lon":"121.48651","lat":"31.19924","category":"47","category_name":"住宅区","address":"制造局路833弄8号-11号"},{"poiid":"B2094757D16CA6F5449D","title":"卢湾公安分局","lon":"121.485741738","lat":"31.1988945326","category":"500","category_name":"未知分类","address":"上海中山南一路599号"},{"poiid":"B2094654DA68A7FD4898","title":"东怡花苑","lon":"121.48348","lat":"31.200453","category":"47","category_name":"住宅区","address":"上海市卢湾区局门路599弄"},{"poiid":"B2094654DB6BABF9409E","title":"悦悦旺","lon":"121.4858","lat":"31.20039","category":"86","category_name":"火锅店","address":"卢湾区中山南一路299号](制造局路口)"},{"poiid":"B2094757D16AABFF479E","title":"BBPHOTO","lon":"121.4855134","lat":"31.198104563","category":"500","category_name":"未知分类","address":"上海西藏南路773号"},{"poiid":"B2094753DA69A3FD4593","title":"绿城•盛世滨江","lon":"121.485595","lat":"31.199218","category":"500","category_name":"未知分类","address":"上海市 蒙自路"},{"poiid":"B2094654DA68A7F94198","title":"华联超市No.2685","lon":"121.48607","lat":"31.19944","category":"118","category_name":"超级市场","address":"半淞园路"},{"poiid":"B2094757D66CA6FA4298","title":"胖子烧烤","lon":"121.48614","lat":"31.19889","category":"68","category_name":"快餐厅","address":"卢湾区制造局路833弄内(近中山南一路)"},{"poiid":"B2094757DA6EABF4459D","title":"制造局路833弄","lon":"121.486151200002","lat":"31.1988697999997","category":"252","category_name":"楼宇机构","address":"卢湾区制造局路833弄"},{"poiid":"B2094654DA68A7FE4398","title":"上海交通大学医学院附属第九人民医院","lon":"121.48547","lat":"31.20242","category":"162","category_name":"医院","address":"上海市黄浦区制造局路639号"},{"poiid":"B2094757D06EAAFB489A","title":"西藏南路地铁站","lon":"121.48955049","lat":"31.201815904","category":"36","category_name":"地铁站","address":"黄浦区西藏南路"},{"poiid":"B2094757D068A3FF4999","title":"上海第九人民医院一号楼(牙科)","lon":"121.4861226","lat":"31.201654541","category":"162","category_name":"医院","address":"上海市黄浦区制造局路639号"},{"poiid":"B2094753D76FAAFA449C","title":"上海滩国泰旗舰店","lon":"121.466011","lat":"31.216125","category":"249","category_name":"购物服务","address":"淮海中路868号"},{"poiid":"B209475CD564A7F84292","title":"上海滩新天地店","lon":"121.47463","lat":"31.22164","category":"119","category_name":"商场","address":"\"太仓路181弄新天地北里15号\r\n\""},{"poiid":"B2094757D16CA2FF439C","title":"新富港中心I座","lon":"121.482165824","lat":"31.1968062719","category":"46","category_name":"楼宇","address":"上海市卢湾区蒙自路763号"},{"poiid":"B2094655D268A5FB499B","title":"上海交通大学口腔医学院九院临床医学院","lon":"121.4868","lat":"31.1995","category":"52","category_name":"高等院校","address":""},{"poiid":"B2094654DA68A7FB489D","title":"上海市公安局卢湾分局(中山南一路)","lon":"121.482","lat":"31.19939","category":"248","category_name":"生活娱乐","address":"中山南一路599"},{"poiid":"B2094654DA68A7F4499B","title":"卢湾都市花园","lon":"121.4851008675","lat":"31.200123503758","category":"47","category_name":"住宅区","address":"上海市卢湾区鲁班路509号"},{"poiid":"B2094750D56DA6FF439B","title":"x先生密室","lon":"121.486541","lat":"31.200435","category":"500","category_name":"未知分类","address":"卢湾区局门路550号八号桥三期1号楼"},{"poiid":"B2094757D569A3F8449A","title":"香啡缤(局门路)","lon":"121.48269884","lat":"31.20096924","category":"260","category_name":"其他","address":"卢湾区局门路550号8号楼8102单元(近瞿溪路)"},{"poiid":"B2094654DA68A7FE429A","title":"五爱高级中学","lon":"121.48476","lat":"31.20134","category":"55","category_name":"中学","address":"卢湾区制造局路666号(近瞿溪路)"},{"poiid":"B2094751DA6BA0FA419D","title":"世博源巴国布衣","lon":"121.486386","lat":"31.198458","category":"247","category_name":"餐饮美食","address":"世博大道1368号世博源"},{"poiid":"B2094757D068A4FE4799","title":"蔡先生苏州汤包馆(制造局路店)","lon":"121.48496","lat":"31.20279","category":"68","category_name":"快餐厅","address":"卢湾区制造局路592号(近第九人民医院)"},{"poiid":"B2094757D06AA4F94292","title":"coffee bean","lon":"121.48605346","lat":"31.199184417","category":"65","category_name":"咖啡厅","address":"上海8号桥三期"},{"poiid":"B2094757D16CA0F5439A","title":"香港新世界花园一期","lon":"121.48666023","lat":"31.197706047","category":"47","category_name":"住宅区","address":"上海市卢湾区中山南一路500弄"},{"poiid":"B2094654DA68A7F94699","title":"黄金岛大酒店","lon":"121.48628","lat":"31.19932","category":"250","category_name":"公园户外","address":"卢湾区制造局路833弄口(近市第九人民医院)"},{"poiid":"B2094655D36DA7F84792","title":"中山南一路西藏南路","lon":"121.48866","lat":"31.20129","category":"38","category_name":"公交车站","address":""},{"poiid":"B2094757D068ABFE4499","title":"上海卢工邮币卡交易市场","lon":"121.482825715","lat":"31.2002586785","category":"134","category_name":"古玩字画店","address":"卢湾区局门路600号(局门路中山南一路)"},{"poiid":"B2094757D069A3F4489A","title":"世博会可口可乐馆","lon":"121.48672","lat":"31.19594","category":"183","category_name":"展览馆","address":"上海世博会D片区"},{"poiid":"B2094654DA68A7FA409E","title":"晟光商务","lon":"121.48671","lat":"31.19829","category":"46","category_name":"楼宇","address":"制造局路893"},{"poiid":"B2094655D268A4F84098","title":"上海交通大学口腔医学院九院临床医学院(南门)","lon":"121.48694","lat":"31.19947","category":"52","category_name":"高等院校","address":""},{"poiid":"B2094654DA68A7F9469E","title":"黄金岛食府","lon":"121.4861","lat":"31.19926","category":"76","category_name":"上海菜","address":"黄浦区制造局路789号(近中山南一路口)"},{"poiid":"B2094654DA68A7FE459B","title":"瞿四小区(瞿溪路)","lon":"121.48677","lat":"31.20107","category":"47","category_name":"住宅区","address":"中山南一路247弄1-24号"},{"poiid":"B2094654DA68A7F9489B","title":"南康公寓","lon":"121.48646","lat":"31.19877","category":"47","category_name":"住宅区","address":"制造局路859弄"},{"poiid":"B2094655D268A5FB489D","title":"嘉登公寓","lon":"121.48667","lat":"31.19915","category":"47","category_name":"住宅区","address":"制造局路833弄8号-11号"},{"poiid":"B2094655D268A5FB489C","title":"南康公寓(西门)","lon":"121.48632","lat":"31.19869","category":"47","category_name":"住宅区","address":"制造局路859弄"},{"poiid":"B2094757D069ABFB409F","title":"吴越人家面馆(制造局路店)","lon":"121.4855","lat":"31.20157","category":"68","category_name":"快餐厅","address":"卢湾区制造局路640号(近中山南一路)"},{"poiid":"B2094654DB64AAF54999","title":"上海市黄浦区科技工业大楼","lon":"121.48626","lat":"31.19946","category":"46","category_name":"楼宇","address":"制造局路787号"},{"poiid":"B2094654DB65A5F84298","title":"银锚大厦","lon":"121.48531","lat":"31.19899","category":"46","category_name":"楼宇","address":"江边路181号"},{"poiid":"B2094654DA68A7F9419F","title":"黄浦科技孵化大楼","lon":"121.48626","lat":"31.19945","category":"46","category_name":"楼宇","address":"制造局路787号"},{"poiid":"B2094655D26EA0FD4199","title":"丽华快餐","lon":"121.48635","lat":"31.19905","category":"257","category_name":"中餐厅","address":"黄浦区制造局路833号"},{"poiid":"B2094655D26BA6FB4192","title":"上海交通大学口腔医学院(西门)","lon":"121.48699","lat":"31.1995","category":"52","category_name":"高等院校","address":"制造局路833弄12"},{"poiid":"B2094750DA68A6F94398","title":"Mr X 密室逃脱","lon":"121.483734","lat":"31.198822","category":"248","category_name":"生活娱乐","address":null},{"poiid":"B2094753DA69A4FC429B","title":"华东理工大学","lon":"121.485984","lat":"31.199546","category":"500","category_name":"未知分类","address":"上海市 上海市徐汇区梅陇路130号"},{"poiid":"B2094757DB6DABFA4793","title":"莫泰168（上海西藏南路店）—原千岛湖酒店","lon":"121.4901403","lat":"31.19946134","category":"215","category_name":"三星级宾馆","address":"上海市黄浦区西藏南路1735号（近中山南路路口）"},{"poiid":"B2094757D06BA3F4449B","title":"上海市第九人民医院临床医学院宿舍楼","lon":"121.486989","lat":"31.199509","category":"253","category_name":"校园生活","address":"上海制造局路833弄12号"},{"poiid":"B2094655D26FA5FC4799","title":"望江苑","lon":"121.4892","lat":"31.198946","category":"47","category_name":"住宅区","address":"高雄路185,189"},{"poiid":"B2094655D268A4F8409C","title":"惠祥公寓","lon":"121.48793","lat":"31.199553","category":"47","category_name":"住宅区","address":"制造局路833弄19号"},{"poiid":"B2094752D26AAAFC489D","title":"上海政法学院","lon":"121.486179","lat":"31.196277","category":"253","category_name":"校园生活","address":null},{"poiid":"B2094757D169A6FE489F","title":"世博高雄路出入口","lon":"121.48752594","lat":"31.1971988678","category":"500","category_name":"未知分类","address":"上海高雄路製造局路"},{"poiid":"B2094655D268A5FB4893","title":"嘉登公寓(北门)","lon":"121.48651","lat":"31.19924","category":"47","category_name":"住宅区","address":"制造局路833弄8号-11号"},{"poiid":"B2094757D16CA6F5449D","title":"卢湾公安分局","lon":"121.485741738","lat":"31.1988945326","category":"500","category_name":"未知分类","address":"上海中山南一路599号"},{"poiid":"B2094654DA68A7FD4898","title":"东怡花苑","lon":"121.48348","lat":"31.200453","category":"47","category_name":"住宅区","address":"上海市卢湾区局门路599弄"},{"poiid":"B2094654DB6BABF9409E","title":"悦悦旺","lon":"121.4858","lat":"31.20039","category":"86","category_name":"火锅店","address":"卢湾区中山南一路299号](制造局路口)"},{"poiid":"B2094757D16AABFF479E","title":"BBPHOTO","lon":"121.4855134","lat":"31.198104563","category":"500","category_name":"未知分类","address":"上海西藏南路773号"},{"poiid":"B2094753DA69A3FD4593","title":"绿城•盛世滨江","lon":"121.485595","lat":"31.199218","category":"500","category_name":"未知分类","address":"上海市 蒙自路"},{"poiid":"B2094654DA68A7F94198","title":"华联超市No.2685","lon":"121.48607","lat":"31.19944","category":"118","category_name":"超级市场","address":"半淞园路"},{"poiid":"B2094757D66CA6FA4298","title":"胖子烧烤","lon":"121.48614","lat":"31.19889","category":"68","category_name":"快餐厅","address":"卢湾区制造局路833弄内(近中山南一路)"},{"poiid":"B2094757DA6EABF4459D","title":"制造局路833弄","lon":"121.486151200002","lat":"31.1988697999997","category":"252","category_name":"楼宇机构","address":"卢湾区制造局路833弄"},{"poiid":"B2094654DA68A7FE4398","title":"上海交通大学医学院附属第九人民医院","lon":"121.48547","lat":"31.20242","category":"162","category_name":"医院","address":"上海市黄浦区制造局路639号"},{"poiid":"B2094757D06EAAFB489A","title":"西藏南路地铁站","lon":"121.48955049","lat":"31.201815904","category":"36","category_name":"地铁站","address":"黄浦区西藏南路"},{"poiid":"B2094757D068A3FF4999","title":"上海第九人民医院一号楼(牙科)","lon":"121.4861226","lat":"31.201654541","category":"162","category_name":"医院","address":"上海市黄浦区制造局路639号"},{"poiid":"B2094753D76FAAFA449C","title":"上海滩国泰旗舰店","lon":"121.466011","lat":"31.216125","category":"249","category_name":"购物服务","address":"淮海中路868号"},{"poiid":"B209475CD564A7F84292","title":"上海滩新天地店","lon":"121.47463","lat":"31.22164","category":"119","category_name":"商场","address":"\"太仓路181弄新天地北里15号\r\n\""},{"poiid":"B2094757D16CA2FF439C","title":"新富港中心I座","lon":"121.482165824","lat":"31.1968062719","category":"46","category_name":"楼宇","address":"上海市卢湾区蒙自路763号"},{"poiid":"B2094655D268A5FB499B","title":"上海交通大学口腔医学院九院临床医学院","lon":"121.4868","lat":"31.1995","category":"52","category_name":"高等院校","address":""},{"poiid":"B2094654DA68A7FB489D","title":"上海市公安局卢湾分局(中山南一路)","lon":"121.482","lat":"31.19939","category":"248","category_name":"生活娱乐","address":"中山南一路599"},{"poiid":"B2094654DA68A7F4499B","title":"卢湾都市花园","lon":"121.4851008675","lat":"31.200123503758","category":"47","category_name":"住宅区","address":"上海市卢湾区鲁班路509号"},{"poiid":"B2094750D56DA6FF439B","title":"x先生密室","lon":"121.486541","lat":"31.200435","category":"500","category_name":"未知分类","address":"卢湾区局门路550号八号桥三期1号楼"},{"poiid":"B2094757D569A3F8449A","title":"香啡缤(局门路)","lon":"121.48269884","lat":"31.20096924","category":"260","category_name":"其他","address":"卢湾区局门路550号8号楼8102单元(近瞿溪路)"},{"poiid":"B2094654DA68A7FE429A","title":"五爱高级中学","lon":"121.48476","lat":"31.20134","category":"55","category_name":"中学","address":"卢湾区制造局路666号(近瞿溪路)"},{"poiid":"B2094751DA6BA0FA419D","title":"世博源巴国布衣","lon":"121.486386","lat":"31.198458","category":"247","category_name":"餐饮美食","address":"世博大道1368号世博源"},{"poiid":"B2094757D068A4FE4799","title":"蔡先生苏州汤包馆(制造局路店)","lon":"121.48496","lat":"31.20279","category":"68","category_name":"快餐厅","address":"卢湾区制造局路592号(近第九人民医院)"},{"poiid":"B2094757D06AA4F94292","title":"coffee bean","lon":"121.48605346","lat":"31.199184417","category":"65","category_name":"咖啡厅","address":"上海8号桥三期"},{"poiid":"B2094757D16CA0F5439A","title":"香港新世界花园一期","lon":"121.48666023","lat":"31.197706047","category":"47","category_name":"住宅区","address":"上海市卢湾区中山南一路500弄"},{"poiid":"B2094654DA68A7F94699","title":"黄金岛大酒店","lon":"121.48628","lat":"31.19932","category":"250","category_name":"公园户外","address":"卢湾区制造局路833弄口(近市第九人民医院)"},{"poiid":"B2094655D36DA7F84792","title":"中山南一路西藏南路","lon":"121.48866","lat":"31.20129","category":"38","category_name":"公交车站","address":""},{"poiid":"B2094757D068ABFE4499","title":"上海卢工邮币卡交易市场","lon":"121.482825715","lat":"31.2002586785","category":"134","category_name":"古玩字画店","address":"卢湾区局门路600号(局门路中山南一路)"},{"poiid":"B2094757D069A3F4489A","title":"世博会可口可乐馆","lon":"121.48672","lat":"31.19594","category":"183","category_name":"展览馆","address":"上海世博会D片区"},{"poiid":"B2094654DA68A7FA409E","title":"晟光商务","lon":"121.48671","lat":"31.19829","category":"46","category_name":"楼宇","address":"制造局路893"},{"poiid":"B2094655D268A4F84098","title":"上海交通大学口腔医学院九院临床医学院(南门)","lon":"121.48694","lat":"31.19947","category":"52","category_name":"高等院校","address":""},{"poiid":"B2094654DA68A7F9469E","title":"黄金岛食府","lon":"121.4861","lat":"31.19926","category":"76","category_name":"上海菜","address":"黄浦区制造局路789号(近中山南一路口)"},{"poiid":"B2094654DA68A7FE459B","title":"瞿四小区(瞿溪路)","lon":"121.48677","lat":"31.20107","category":"47","category_name":"住宅区","address":"中山南一路247弄1-24号"},{"poiid":"B2094654DA68A7F9489B","title":"南康公寓","lon":"121.48646","lat":"31.19877","category":"47","category_name":"住宅区","address":"制造局路859弄"},{"poiid":"B2094655D268A5FB489D","title":"嘉登公寓","lon":"121.48667","lat":"31.19915","category":"47","category_name":"住宅区","address":"制造局路833弄8号-11号"},{"poiid":"B2094655D268A5FB489C","title":"南康公寓(西门)","lon":"121.48632","lat":"31.19869","category":"47","category_name":"住宅区","address":"制造局路859弄"},{"poiid":"B2094757D069ABFB409F","title":"吴越人家面馆(制造局路店)","lon":"121.4855","lat":"31.20157","category":"68","category_name":"快餐厅","address":"卢湾区制造局路640号(近中山南一路)"},{"poiid":"B2094654DB64AAF54999","title":"上海市黄浦区科技工业大楼","lon":"121.48626","lat":"31.19946","category":"46","category_name":"楼宇","address":"制造局路787号"},{"poiid":"B2094654DB65A5F84298","title":"银锚大厦","lon":"121.48531","lat":"31.19899","category":"46","category_name":"楼宇","address":"江边路181号"},{"poiid":"B2094654DA68A7F9419F","title":"黄浦科技孵化大楼","lon":"121.48626","lat":"31.19945","category":"46","category_name":"楼宇","address":"制造局路787号"},{"poiid":"B2094655D26EA0FD4199","title":"丽华快餐","lon":"121.48635","lat":"31.19905","category":"257","category_name":"中餐厅","address":"黄浦区制造局路833号"},{"poiid":"B2094655D26BA6FB4192","title":"上海交通大学口腔医学院(西门)","lon":"121.48699","lat":"31.1995","category":"52","category_name":"高等院校","address":"制造局路833弄12"},{"poiid":"B2094750DA68A6F94398","title":"Mr X 密室逃脱","lon":"121.483734","lat":"31.198822","category":"248","category_name":"生活娱乐","address":null},{"poiid":"B2094753DA69A4FC429B","title":"华东理工大学","lon":"121.485984","lat":"31.199546","category":"500","category_name":"未知分类","address":"上海市 上海市徐汇区梅陇路130号"},{"poiid":"B2094757DB6DABFA4793","title":"莫泰168（上海西藏南路店）—原千岛湖酒店","lon":"121.4901403","lat":"31.19946134","category":"215","category_name":"三星级宾馆","address":"上海市黄浦区西藏南路1735号（近中山南路路口）"},{"poiid":"B2094757D06BA3F4449B","title":"上海市第九人民医院临床医学院宿舍楼","lon":"121.486989","lat":"31.199509","category":"253","category_name":"校园生活","address":"上海制造局路833弄12号"},{"poiid":"B2094655D26FA5FC4799","title":"望江苑","lon":"121.4892","lat":"31.198946","category":"47","category_name":"住宅区","address":"高雄路185,189"},{"poiid":"B2094655D268A4F8409C","title":"惠祥公寓","lon":"121.48793","lat":"31.199553","category":"47","category_name":"住宅区","address":"制造局路833弄19号"},{"poiid":"B2094752D26AAAFC489D","title":"上海政法学院","lon":"121.486179","lat":"31.196277","category":"253","category_name":"校园生活","address":null},{"poiid":"B2094757D169A6FE489F","title":"世博高雄路出入口","lon":"121.48752594","lat":"31.1971988678","category":"500","category_name":"未知分类","address":"上海高雄路製造局路"},{"poiid":"B2094655D268A5FB4893","title":"嘉登公寓(北门)","lon":"121.48651","lat":"31.19924","category":"47","category_name":"住宅区","address":"制造局路833弄8号-11号"},{"poiid":"B2094757D16CA6F5449D","title":"卢湾公安分局","lon":"121.485741738","lat":"31.1988945326","category":"500","category_name":"未知分类","address":"上海中山南一路599号"},{"poiid":"B2094654DA68A7FD4898","title":"东怡花苑","lon":"121.48348","lat":"31.200453","category":"47","category_name":"住宅区","address":"上海市卢湾区局门路599弄"},{"poiid":"B2094654DB6BABF9409E","title":"悦悦旺","lon":"121.4858","lat":"31.20039","category":"86","category_name":"火锅店","address":"卢湾区中山南一路299号](制造局路口)"},{"poiid":"B2094757D16AABFF479E","title":"BBPHOTO","lon":"121.4855134","lat":"31.198104563","category":"500","category_name":"未知分类","address":"上海西藏南路773号"},{"poiid":"B2094753DA69A3FD4593","title":"绿城•盛世滨江","lon":"121.485595","lat":"31.199218","category":"500","category_name":"未知分类","address":"上海市 蒙自路"},{"poiid":"B2094654DA68A7F94198","title":"华联超市No.2685","lon":"121.48607","lat":"31.19944","category":"118","category_name":"超级市场","address":"半淞园路"},{"poiid":"B2094757D66CA6FA4298","title":"胖子烧烤","lon":"121.48614","lat":"31.19889","category":"68","category_name":"快餐厅","address":"卢湾区制造局路833弄内(近中山南一路)"},{"poiid":"B2094757DA6EABF4459D","title":"制造局路833弄","lon":"121.486151200002","lat":"31.1988697999997","category":"252","category_name":"楼宇机构","address":"卢湾区制造局路833弄"},{"poiid":"B2094654DA68A7FE4398","title":"上海交通大学医学院附属第九人民医院","lon":"121.48547","lat":"31.20242","category":"162","category_name":"医院","address":"上海市黄浦区制造局路639号"},{"poiid":"B2094757D06EAAFB489A","title":"西藏南路地铁站","lon":"121.48955049","lat":"31.201815904","category":"36","category_name":"地铁站","address":"黄浦区西藏南路"},{"poiid":"B2094757D068A3FF4999","title":"上海第九人民医院一号楼(牙科)","lon":"121.4861226","lat":"31.201654541","category":"162","category_name":"医院","address":"上海市黄浦区制造局路639号"},{"poiid":"B2094753D76FAAFA449C","title":"上海滩国泰旗舰店","lon":"121.466011","lat":"31.216125","category":"249","category_name":"购物服务","address":"淮海中路868号"},{"poiid":"B209475CD564A7F84292","title":"上海滩新天地店","lon":"121.47463","lat":"31.22164","category":"119","category_name":"商场","address":"\"太仓路181弄新天地北里15号\r\n\""},{"poiid":"B2094757D16CA2FF439C","title":"新富港中心I座","lon":"121.482165824","lat":"31.1968062719","category":"46","category_name":"楼宇","address":"上海市卢湾区蒙自路763号"},{"poiid":"B2094655D268A5FB499B","title":"上海交通大学口腔医学院九院临床医学院","lon":"121.4868","lat":"31.1995","category":"52","category_name":"高等院校","address":""},{"poiid":"B2094654DA68A7FB489D","title":"上海市公安局卢湾分局(中山南一路)","lon":"121.482","lat":"31.19939","category":"248","category_name":"生活娱乐","address":"中山南一路599"},{"poiid":"B2094654DA68A7F4499B","title":"卢湾都市花园","lon":"121.4851008675","lat":"31.200123503758","category":"47","category_name":"住宅区","address":"上海市卢湾区鲁班路509号"},{"poiid":"B2094750D56DA6FF439B","title":"x先生密室","lon":"121.486541","lat":"31.200435","category":"500","category_name":"未知分类","address":"卢湾区局门路550号八号桥三期1号楼"},{"poiid":"B2094757D569A3F8449A","title":"香啡缤(局门路)","lon":"121.48269884","lat":"31.20096924","category":"260","category_name":"其他","address":"卢湾区局门路550号8号楼8102单元(近瞿溪路)"},{"poiid":"B2094654DA68A7FE429A","title":"五爱高级中学","lon":"121.48476","lat":"31.20134","category":"55","category_name":"中学","address":"卢湾区制造局路666号(近瞿溪路)"},{"poiid":"B2094751DA6BA0FA419D","title":"世博源巴国布衣","lon":"121.486386","lat":"31.198458","category":"247","category_name":"餐饮美食","address":"世博大道1368号世博源"},{"poiid":"B2094757D068A4FE4799","title":"蔡先生苏州汤包馆(制造局路店)","lon":"121.48496","lat":"31.20279","category":"68","category_name":"快餐厅","address":"卢湾区制造局路592号(近第九人民医院)"},{"poiid":"B2094757D06AA4F94292","title":"coffee bean","lon":"121.48605346","lat":"31.199184417","category":"65","category_name":"咖啡厅","address":"上海8号桥三期"},{"poiid":"B2094757D16CA0F5439A","title":"香港新世界花园一期","lon":"121.48666023","lat":"31.197706047","category":"47","category_name":"住宅区","address":"上海市卢湾区中山南一路500弄"},{"poiid":"B2094654DA68A7F94699","title":"黄金岛大酒店","lon":"121.48628","lat":"31.19932","category":"250","category_name":"公园户外","address":"卢湾区制造局路833弄口(近市第九人民医院)"},{"poiid":"B2094655D36DA7F84792","title":"中山南一路西藏南路","lon":"121.48866","lat":"31.20129","category":"38","category_name":"公交车站","address":""},{"poiid":"B2094757D068ABFE4499","title":"上海卢工邮币卡交易市场","lon":"121.482825715","lat":"31.2002586785","category":"134","category_name":"古玩字画店","address":"卢湾区局门路600号(局门路中山南一路)"},{"poiid":"B2094757D069A3F4489A","title":"世博会可口可乐馆","lon":"121.48672","lat":"31.19594","category":"183","category_name":"展览馆","address":"上海世博会D片区"},{"poiid":"B2094654DA68A7FA409E","title":"晟光商务","lon":"121.48671","lat":"31.19829","category":"46","category_name":"楼宇","address":"制造局路893"},{"poiid":"B2094655D268A4F84098","title":"上海交通大学口腔医学院九院临床医学院(南门)","lon":"121.48694","lat":"31.19947","category":"52","category_name":"高等院校","address":""},{"poiid":"B2094654DA68A7F9469E","title":"黄金岛食府","lon":"121.4861","lat":"31.19926","category":"76","category_name":"上海菜","address":"黄浦区制造局路789号(近中山南一路口)"},{"poiid":"B2094654DA68A7FE459B","title":"瞿四小区(瞿溪路)","lon":"121.48677","lat":"31.20107","category":"47","category_name":"住宅区","address":"中山南一路247弄1-24号"},{"poiid":"B2094654DA68A7F9489B","title":"南康公寓","lon":"121.48646","lat":"31.19877","category":"47","category_name":"住宅区","address":"制造局路859弄"},{"poiid":"B2094655D268A5FB489D","title":"嘉登公寓","lon":"121.48667","lat":"31.19915","category":"47","category_name":"住宅区","address":"制造局路833弄8号-11号"},{"poiid":"B2094655D268A5FB489C","title":"南康公寓(西门)","lon":"121.48632","lat":"31.19869","category":"47","category_name":"住宅区","address":"制造局路859弄"},{"poiid":"B2094757D069ABFB409F","title":"吴越人家面馆(制造局路店)","lon":"121.4855","lat":"31.20157","category":"68","category_name":"快餐厅","address":"卢湾区制造局路640号(近中山南一路)"},{"poiid":"B2094654DB64AAF54999","title":"上海市黄浦区科技工业大楼","lon":"121.48626","lat":"31.19946","category":"46","category_name":"楼宇","address":"制造局路787号"},{"poiid":"B2094654DB65A5F84298","title":"银锚大厦","lon":"121.48531","lat":"31.19899","category":"46","category_name":"楼宇","address":"江边路181号"},{"poiid":"B2094654DA68A7F9419F","title":"黄浦科技孵化大楼","lon":"121.48626","lat":"31.19945","category":"46","category_name":"楼宇","address":"制造局路787号"},{"poiid":"B2094655D26EA0FD4199","title":"丽华快餐","lon":"121.48635","lat":"31.19905","category":"257","category_name":"中餐厅","address":"黄浦区制造局路833号"},{"poiid":"B2094655D26BA6FB4192","title":"上海交通大学口腔医学院(西门)","lon":"121.48699","lat":"31.1995","category":"52","category_name":"高等院校","address":"制造局路833弄12"},{"poiid":"B2094750DA68A6F94398","title":"Mr X 密室逃脱","lon":"121.483734","lat":"31.198822","category":"248","category_name":"生活娱乐","address":null},{"poiid":"B2094753DA69A4FC429B","title":"华东理工大学","lon":"121.485984","lat":"31.199546","category":"500","category_name":"未知分类","address":"上海市 上海市徐汇区梅陇路130号"},{"poiid":"B2094757DB6DABFA4793","title":"莫泰168（上海西藏南路店）—原千岛湖酒店","lon":"121.4901403","lat":"31.19946134","category":"215","category_name":"三星级宾馆","address":"上海市黄浦区西藏南路1735号（近中山南路路口）"},{"poiid":"B2094757D06BA3F4449B","title":"上海市第九人民医院临床医学院宿舍楼","lon":"121.486989","lat":"31.199509","category":"253","category_name":"校园生活","address":"上海制造局路833弄12号"},{"poiid":"B2094655D26FA5FC4799","title":"望江苑","lon":"121.4892","lat":"31.198946","category":"47","category_name":"住宅区","address":"高雄路185,189"},{"poiid":"B2094655D268A4F8409C","title":"惠祥公寓","lon":"121.48793","lat":"31.199553","category":"47","category_name":"住宅区","address":"制造局路833弄19号"},{"poiid":"B2094752D26AAAFC489D","title":"上海政法学院","lon":"121.486179","lat":"31.196277","category":"253","category_name":"校园生活","address":null},{"poiid":"B2094757D169A6FE489F","title":"世博高雄路出入口","lon":"121.48752594","lat":"31.1971988678","category":"500","category_name":"未知分类","address":"上海高雄路製造局路"},{"poiid":"B2094655D268A5FB4893","title":"嘉登公寓(北门)","lon":"121.48651","lat":"31.19924","category":"47","category_name":"住宅区","address":"制造局路833弄8号-11号"},{"poiid":"B2094757D16CA6F5449D","title":"卢湾公安分局","lon":"121.485741738","lat":"31.1988945326","category":"500","category_name":"未知分类","address":"上海中山南一路599号"},{"poiid":"B2094654DA68A7FD4898","title":"东怡花苑","lon":"121.48348","lat":"31.200453","category":"47","category_name":"住宅区","address":"上海市卢湾区局门路599弄"},{"poiid":"B2094654DB6BABF9409E","title":"悦悦旺","lon":"121.4858","lat":"31.20039","category":"86","category_name":"火锅店","address":"卢湾区中山南一路299号](制造局路口)"},{"poiid":"B2094757D16AABFF479E","title":"BBPHOTO","lon":"121.4855134","lat":"31.198104563","category":"500","category_name":"未知分类","address":"上海西藏南路773号"},{"poiid":"B2094753DA69A3FD4593","title":"绿城•盛世滨江","lon":"121.485595","lat":"31.199218","category":"500","category_name":"未知分类","address":"上海市 蒙自路"},{"poiid":"B2094654DA68A7F94198","title":"华联超市No.2685","lon":"121.48607","lat":"31.19944","category":"118","category_name":"超级市场","address":"半淞园路"},{"poiid":"B2094757D66CA6FA4298","title":"胖子烧烤","lon":"121.48614","lat":"31.19889","category":"68","category_name":"快餐厅","address":"卢湾区制造局路833弄内(近中山南一路)"},{"poiid":"B2094757DA6EABF4459D","title":"制造局路833弄","lon":"121.486151200002","lat":"31.1988697999997","category":"252","category_name":"楼宇机构","address":"卢湾区制造局路833弄"}]