[{"poiid":"B2094655D264A7FA4899","title":"幸福码头","lon":"121.50506","lat":"31.21097","category":"47","category_name":"住宅区","address":"黄浦区中山南路1029号幸福码头5号楼(近多稼路)"},{"poiid":"B2094757DA6EA7FB479F","title":"G Water Front","lon":"121.507171000002","lat":"31.2175409999998","category":"247","category_name":"餐饮美食","address":"黄浦区外马路601号老码头沃弗3号库112室、206室"},{"poiid":"B2094757D06FA7FD4298","title":"薇拉宫邸(浦东店)","lon":"121.50889556","lat":"31.207375193","category":"95","category_name":"日本料理","address":"上海浦明路1888号5号楼"},{"poiid":"B209475CD564A7F84392","title":"上海滩浦东香格里拉店","lon":"121.50058","lat":"31.23634","category":"119","category_name":"商场","address":"浦东富成路33号香格里拉酒店内大堂层"},{"poiid":"B2094757DA69A1F9469A","title":"尚九外滩店","lon":"121.50774328047","lat":"31.216663643904","category":"111","category_name":"休闲餐饮场所","address":"黄浦区外马路653号4号库5楼(近王家码头路)"},{"poiid":"B2094757D16AA7F44893","title":"Sigma Film Club","lon":"121.507247738","lat":"31.2176420319","category":"72","category_name":"广东菜","address":"黄浦区外马路601号3号库3A楼(近老码头)"},{"poiid":"B2094757D465ABFE419E","title":"濠芭 The Steak and Oyster Bar","lon":"121.50754451752","lat":"31.216563470075","category":"88","category_name":"海鲜酒楼","address":"黄浦区老码头外马路653号宏基2期四号库105号商铺"},{"poiid":"B2094757DA6EAAF9489A","title":"纽约客匹萨(老码头店)","lon":"121.507447900002","lat":"31.2164712999997","category":"94","category_name":"西餐厅","address":"黄浦区外马路653号4库106室"},{"poiid":"B2094655D268A1FA459F","title":"东江高尔夫会所","lon":"121.51033","lat":"31.2083","category":"206","category_name":"高尔夫相关","address":"小南码头路5号"},{"poiid":"B2094757D169ABFE449D","title":"巴富仕游艇会","lon":"121.505978738","lat":"31.2121359146","category":"500","category_name":"未知分类","address":"上海市黄浦区幸福码头创意园区"},{"poiid":"B2094757D16CA2FD469D","title":"上海亚廷游艇会","lon":"121.505592","lat":"31.209361","category":"260","category_name":"其他","address":"黄浦区外马路1162号(近南浦大桥浦西桥墩)"},{"poiid":"B2094757D068A6FD449A","title":"陆家庄(塘桥店)","lon":"121.51753","lat":"31.21043","category":"76","category_name":"上海菜","address":"浦东新区浦建路1号塘桥生活广场(近浦东南路)"},{"poiid":"B2094752D269A1FE439F","title":"满记甜品","lon":"121.51564","lat":"31.210876","category":"247","category_name":"餐饮美食","address":"浦建路巴黎春天"},{"poiid":"B2094757D468AAFA4393","title":"锘瓦 老码头店 NOVA","lon":"121.5074508","lat":"31.2164635","category":"94","category_name":"西餐厅","address":"黄浦区外马路653号4号库2楼(近王家码头路)"},{"poiid":"B2094757DB68A5FA409B","title":"罗曼园高级婚礼会馆 外滩雅致英伦馆","lon":"121.50477647781","lat":"31.210635939807","category":"247","category_name":"餐饮美食","address":"长宁区中山西路1011号(近虹桥路)查看地图"},{"poiid":"B2094757D168A2FF4999","title":"Rico Rico","lon":"121.507503738","lat":"31.2178780369","category":"500","category_name":"未知分类","address":"上海外滩奥斯卡"},{"poiid":"B2094757D06EAAFE4493","title":"幸福码头创意园区","lon":"121.5111","lat":"31.216562","category":"45","category_name":"产业园区","address":"上海中山南路1029号"},{"poiid":"B2094757D06AA2F44792","title":"仁恒广场","lon":"121.51391","lat":"31.209261","category":"46","category_name":"楼宇","address":"上海茂兴路90号"},{"poiid":"B2094751D36AA4FF4993","title":"景汇酒店","lon":"121.50783","lat":"31.21542","category":"72","category_name":"广东菜","address":"黄浦区外马路725号老码头二期五号库5-6楼"},{"poiid":"B2094654DB6BABF44892","title":"上海南外滩大楼","lon":"121.50641","lat":"31.21476","category":"46","category_name":"楼宇","address":"浦东新区金湘路225弄"},{"poiid":"B2094654DA68AAF84599","title":"谷泰滨江大厦","lon":"121.50619","lat":"31.213778","category":"46","category_name":"楼宇","address":"朝阳京城大厦西100米路北(新源里14号)"},{"poiid":"B2094753D26BABF84899","title":"梅赛德斯奔驰文化中心","lon":"121.511778","lat":"31.210557","category":"500","category_name":"未知分类","address":"上海市 上海浦东世博大道1200号"},{"poiid":"B2094757DA6EABFB4999","title":"薇拉宫邸私人婚礼会所(南浦店)","lon":"121.509479","lat":"31.2066410000002","category":"248","category_name":"生活娱乐","address":"浦东新区浦明路1888号5号楼(近南浦大桥)查看地图"},{"poiid":"B2094654DA6EA4FF4892","title":"华普科技大厦","lon":"121.508","lat":"31.2161","category":"46","category_name":"楼宇","address":"徐汇区田林路300号"},{"poiid":"B2094757D068A4FA419F","title":"董家渡路轮渡","lon":"121.50824447","lat":"31.214948531","category":"35","category_name":"长途汽车站","address":"上海外马路737号"},{"poiid":"B2094757D16DA2F9429C","title":"优艾贝国际月子会所","lon":"121.511133338","lat":"31.2068565021","category":"248","category_name":"生活娱乐","address":"浦东新区浦明路1888号(近南浦大桥)"},{"poiid":"B2094655D264A4F5479E","title":"中国人民财产保险公司大厦","lon":"121.50608","lat":"31.21533","category":"46","category_name":"楼宇","address":"行宫位于沈河北站一路41号"},{"poiid":"B2094757D06BA3F8439D","title":"汉庭海友客栈","lon":"121.515409","lat":"31.208214","category":"216","category_name":"经济型连锁酒店","address":"浦东新区浦东南路2162号(近微山路)"},{"poiid":"B2094654DA6EA4F84692","title":"南浦大厦","lon":"121.51","lat":"31.2171","category":"46","category_name":"楼宇","address":"丰台学城海鹰路1号,3号"},{"poiid":"B2094655D268A1FA4699","title":"如家快捷酒店上海南外滩店","lon":"121.50653","lat":"31.21198","category":"216","category_name":"经济型连锁酒店","address":"黄浦区中山南路943号(董家渡口)"},{"poiid":"B2094750D56FA4F94798","title":"x密室","lon":"121.505592","lat":"31.21318","category":"248","category_name":"生活娱乐","address":null},{"poiid":"B2094655D264A5FA469A","title":"世博服务区上海馆A楼(移动援博办公楼)","lon":"121.51207","lat":"31.21234","category":"185","category_name":"会展中心","address":"塘桥新路78号"},{"poiid":"B2094655D265A0F5439E","title":"幸福码头(西门)","lon":"121.50463","lat":"31.21119","category":"47","category_name":"住宅区","address":"中山南路1029号"},{"poiid":"B2094757D064A1FE4393","title":"嘉轩大酒店","lon":"121.50651","lat":"31.21271","category":"72","category_name":"广东菜","address":"黄浦区中山南路891号(近赖义码头街)"},{"poiid":"B2094757DB69A0F94398","title":"孔乙己月明楼","lon":"121.50743","lat":"31.21646","category":"72","category_name":"广东菜","address":"外马路653号四号库3楼近毛家园路"},{"poiid":"B2094655D26BA2F44998","title":"浦明路塘桥新路","lon":"121.51326","lat":"31.21196","category":"38","category_name":"公交车站","address":""},{"poiid":"B2094757D465A4FA4193","title":"逦可餐厅 Rico Rico","lon":"121.507171","lat":"31.217541","category":"100","category_name":"地中海风格菜品","address":"黄浦区南外滩外马路601号114室(复兴轮渡南侧)"},{"poiid":"B2094654DA68AAF84298","title":"张江商务大厦","lon":"121.50686","lat":"31.21231","category":"46","category_name":"楼宇","address":"沈河北站路与北京街的交汇处"},{"poiid":"B2094757D064A3F44998","title":"塘桥轮渡站","lon":"121.51180901","lat":"31.212446273","category":"260","category_name":"其他","address":"上海浦东新区塘桥路1号"},{"poiid":"B2094757D064ABFB459C","title":"国家税务局三分局","lon":"121.507158","lat":"31.213001","category":"500","category_name":"未知分类","address":"上海中山南路865号"},{"poiid":"B2094655D26FA5FD499A","title":"临江花苑大厦","lon":"121.50683","lat":"31.21344","category":"46","category_name":"楼宇","address":"中山南路865号"},{"poiid":"B2094655D26FA6F94399","title":"香园(浦明路)","lon":"121.51418","lat":"31.21349","category":"47","category_name":"住宅区","address":"上海浦明路1188弄-1228弄"},{"poiid":"B2094757D16FA4F54899","title":"给力大厦","lon":"121.51304773","lat":"31.211284896","category":"252","category_name":"楼宇机构","address":"浦东新区塘桥新路78号(近浦明路)"},{"poiid":"B2094753D764A7F8429F","title":"国金白丽宫影院","lon":"121.511009","lat":"31.209058","category":"178","category_name":"电影院","address":"上海市 陆家嘴国金"},{"poiid":"B2094750D76CABF4409B","title":"Bubba'sTexas-styleBBQ(老码头店)","lon":"121.507","lat":"31.2165","category":"94","category_name":"西餐厅","address":"黄浦区外马路653号103室(近码头路)"},{"poiid":"B2094750DA6AA6FE4798","title":"上海文化广场","lon":"121.508308","lat":"31.210443","category":"500","category_name":"未知分类","address":null},{"poiid":"B2094750D76DA7FB449B","title":"阿华面馆","lon":"121.515","lat":"31.211","category":"68","category_name":"快餐厅","address":"浦东新区塘桥新路182弄1号(近茂兴路)"},{"poiid":"B2094655D36CA6FA4393","title":"董家渡","lon":"121.50658","lat":"31.21535","category":"38","category_name":"公交车站","address":""},{"poiid":"B2094655D26DA1FA4293","title":"仁恒广场第三座","lon":"121.51408","lat":"31.20956","category":"46","category_name":"楼宇","address":"茂兴路90"},{"poiid":"B2094654DA68AAF8459A","title":"上海市强生职工医院","lon":"121.50682","lat":"31.21189","category":"162","category_name":"医院","address":"黄埔区外马路984号"},{"poiid":"B2094655D264A7FA4899","title":"幸福码头","lon":"121.50506","lat":"31.21097","category":"47","category_name":"住宅区","address":"黄浦区中山南路1029号幸福码头5号楼(近多稼路)"},{"poiid":"B2094757DA6EA7FB479F","title":"G Water Front","lon":"121.507171000002","lat":"31.2175409999998","category":"247","category_name":"餐饮美食","address":"黄浦区外马路601号老码头沃弗3号库112室、206室"},{"poiid":"B2094757D06FA7FD4298","title":"薇拉宫邸(浦东店)","lon":"121.50889556","lat":"31.207375193","category":"95","category_name":"日本料理","address":"上海浦明路1888号5号楼"},{"poiid":"B209475CD564A7F84392","title":"上海滩浦东香格里拉店","lon":"121.50058","lat":"31.23634","category":"119","category_name":"商场","address":"浦东富成路33号香格里拉酒店内大堂层"},{"poiid":"B2094757DA69A1F9469A","title":"尚九外滩店","lon":"121.50774328047","lat":"31.216663643904","category":"111","category_name":"休闲餐饮场所","address":"黄浦区外马路653号4号库5楼(近王家码头路)"},{"poiid":"B2094757D16AA7F44893","title":"Sigma Film Club","lon":"121.507247738","lat":"31.2176420319","category":"72","category_name":"广东菜","address":"黄浦区外马路601号3号库3A楼(近老码头)"},{"poiid":"B2094757D465ABFE419E","title":"濠芭 The Steak and Oyster Bar","lon":"121.50754451752","lat":"31.216563470075","category":"88","category_name":"海鲜酒楼","address":"黄浦区老码头外马路653号宏基2期四号库105号商铺"},{"poiid":"B2094757DA6EAAF9489A","title":"纽约客匹萨(老码头店)","lon":"121.507447900002","lat":"31.2164712999997","category":"94","category_name":"西餐厅","address":"黄浦区外马路653号4库106室"},{"poiid":"B2094655D268A1FA459F","title":"东江高尔夫会所","lon":"121.51033","lat":"31.2083","category":"206","category_name":"高尔夫相关","address":"小南码头路5号"},{"poiid":"B2094757D169ABFE449D","title":"巴富仕游艇会","lon":"121.505978738","lat":"31.2121359146","category":"500","category_name":"未知分类","address":"上海市黄浦区幸福码头创意园区"},{"poiid":"B2094757D16CA2FD469D","title":"上海亚廷游艇会","lon":"121.505592","lat":"31.209361","category":"260","category_name":"其他","address":"黄浦区外马路1162号(近南浦大桥浦西桥墩)"},{"poiid":"B2094757D068A6FD449A","title":"陆家庄(塘桥店)","lon":"121.51753","lat":"31.21043","category":"76","category_name":"上海菜","address":"浦东新区浦建路1号塘桥生活广场(近浦东南路)"},{"poiid":"B2094752D269A1FE439F","title":"满记甜品","lon":"121.51564","lat":"31.210876","category":"247","category_name":"餐饮美食","address":"浦建路巴黎春天"},{"poiid":"B2094757D468AAFA4393","title":"锘瓦 老码头店 NOVA","lon":"121.5074508","lat":"31.2164635","category":"94","category_name":"西餐厅","address":"黄浦区外马路653号4号库2楼(近王家码头路)"},{"poiid":"B2094757DB68A5FA409B","title":"罗曼园高级婚礼会馆 外滩雅致英伦馆","lon":"121.50477647781","lat":"31.210635939807","category":"247","category_name":"餐饮美食","address":"长宁区中山西路1011号(近虹桥路)查看地图"},{"poiid":"B2094757D168A2FF4999","title":"Rico Rico","lon":"121.507503738","lat":"31.2178780369","category":"500","category_name":"未知分类","address":"上海外滩奥斯卡"},{"poiid":"B2094757D06EAAFE4493","title":"幸福码头创意园区","lon":"121.5111","lat":"31.216562","category":"45","category_name":"产业园区","address":"上海中山南路1029号"},{"poiid":"B2094757D06AA2F44792","title":"仁恒广场","lon":"121.51391","lat":"31.209261","category":"46","category_name":"楼宇","address":"上海茂兴路90号"},{"poiid":"B2094751D36AA4FF4993","title":"景汇酒店","lon":"121.50783","lat":"31.21542","category":"72","category_name":"广东菜","address":"黄浦区外马路725号老码头二期五号库5-6楼"},{"poiid":"B2094654DB6BABF44892","title":"上海南外滩大楼","lon":"121.50641","lat":"31.21476","category":"46","category_name":"楼宇","address":"浦东新区金湘路225弄"},{"poiid":"B2094654DA68AAF84599","title":"谷泰滨江大厦","lon":"121.50619","lat":"31.213778","category":"46","category_name":"楼宇","address":"朝阳京城大厦西100米路北(新源里14号)"},{"poiid":"B2094753D26BABF84899","title":"梅赛德斯奔驰文化中心","lon":"121.511778","lat":"31.210557","category":"500","category_name":"未知分类","address":"上海市 上海浦东世博大道1200号"},{"poiid":"B2094757DA6EABFB4999","title":"薇拉宫邸私人婚礼会所(南浦店)","lon":"121.509479","lat":"31.2066410000002","category":"248","category_name":"生活娱乐","address":"浦东新区浦明路1888号5号楼(近南浦大桥)查看地图"},{"poiid":"B2094654DA6EA4FF4892","title":"华普科技大厦","lon":"121.508","lat":"31.2161","category":"46","category_name":"楼宇","address":"徐汇区田林路300号"},{"poiid":"B2094757D068A4FA419F","title":"董家渡路轮渡","lon":"121.50824447","lat":"31.214948531","category":"35","category_name":"长途汽车站","address":"上海外马路737号"},{"poiid":"B2094757D16DA2F9429C","title":"优艾贝国际月子会所","lon":"121.511133338","lat":"31.2068565021","category":"248","category_name":"生活娱乐","address":"浦东新区浦明路1888号(近南浦大桥)"},{"poiid":"B2094655D264A4F5479E","title":"中国人民财产保险公司大厦","lon":"121.50608","lat":"31.21533","category":"46","category_name":"楼宇","address":"行宫位于沈河北站一路41号"},{"poiid":"B2094757D06BA3F8439D","title":"汉庭海友客栈","lon":"121.515409","lat":"31.208214","category":"216","category_name":"经济型连锁酒店","address":"浦东新区浦东南路2162号(近微山路)"},{"poiid":"B2094654DA6EA4F84692","title":"南浦大厦","lon":"121.51","lat":"31.2171","category":"46","category_name":"楼宇","address":"丰台学城海鹰路1号,3号"},{"poiid":"B2094655D268A1FA4699","title":"如家快捷酒店上海南外滩店","lon":"121.50653","lat":"31.21198","category":"216","category_name":"经济型连锁酒店","address":"黄浦区中山南路943号(董家渡口)"},{"poiid":"B2094750D56FA4F94798","title":"x密室","lon":"121.505592","lat":"31.21318","category":"248","category_name":"生活娱乐","address":null},{"poiid":"B2094655D264A5FA469A","title":"世博服务区上海馆A楼(移动援博办公楼)","lon":"121.51207","lat":"31.21234","category":"185","category_name":"会展中心","address":"塘桥新路78号"},{"poiid":"B2094655D265A0F5439E","title":"幸福码头(西门)","lon":"121.50463","lat":"31.21119","category":"47","category_name":"住宅区","address":"中山南路1029号"},{"poiid":"B2094757D064A1FE4393","title":"嘉轩大酒店","lon":"121.50651","lat":"31.21271","category":"72","category_name":"广东菜","address":"黄浦区中山南路891号(近赖义码头街)"},{"poiid":"B2094757DB69A0F94398","title":"孔乙己月明楼","lon":"121.50743","lat":"31.21646","category":"72","category_name":"广东菜","address":"外马路653号四号库3楼近毛家园路"},{"poiid":"B2094655D26BA2F44998","title":"浦明路塘桥新路","lon":"121.51326","lat":"31.21196","category":"38","category_name":"公交车站","address":""},{"poiid":"B2094757D465A4FA4193","title":"逦可餐厅 Rico Rico","lon":"121.507171","lat":"31.217541","category":"100","category_name":"地中海风格菜品","address":"黄浦区南外滩外马路601号114室(复兴轮渡南侧)"},{"poiid":"B2094654DA68AAF84298","title":"张江商务大厦","lon":"121.50686","lat":"31.21231","category":"46","category_name":"楼宇","address":"沈河北站路与北京街的交汇处"},{"poiid":"B2094757D064A3F44998","title":"塘桥轮渡站","lon":"121.51180901","lat":"31.212446273","category":"260","category_name":"其他","address":"上海浦东新区塘桥路1号"},{"poiid":"B2094757D064ABFB459C","title":"国家税务局三分局","lon":"121.507158","lat":"31.213001","category":"500","category_name":"未知分类","address":"上海中山南路865号"},{"poiid":"B2094655D26FA5FD499A","title":"临江花苑大厦","lon":"121.50683","lat":"31.21344","category":"46","category_name":"楼宇","address":"中山南路865号"},{"poiid":"B2094655D26FA6F94399","title":"香园(浦明路)","lon":"121.51418","lat":"31.21349","category":"47","category_name":"住宅区","address":"上海浦明路1188弄-1228弄"},{"poiid":"B2094757D16FA4F54899","title":"给力大厦","lon":"121.51304773","lat":"31.211284896","category":"252","category_name":"楼宇机构","address":"浦东新区塘桥新路78号(近浦明路)"},{"poiid":"B2094753D764A7F8429F","title":"国金白丽宫影院","lon":"121.511009","lat":"31.209058","category":"178","category_name":"电影院","address":"上海市 陆家嘴国金"},{"poiid":"B2094750D76CABF4409B","title":"Bubba'sTexas-styleBBQ(老码头店)","lon":"121.507","lat":"31.2165","category":"94","category_name":"西餐厅","address":"黄浦区外马路653号103室(近码头路)"},{"poiid":"B2094750DA6AA6FE4798","title":"上海文化广场","lon":"121.508308","lat":"31.210443","category":"500","category_name":"未知分类","address":null},{"poiid":"B2094750D76DA7FB449B","title":"阿华面馆","lon":"121.515","lat":"31.211","category":"68","category_name":"快餐厅","address":"浦东新区塘桥新路182弄1号(近茂兴路)"},{"poiid":"B2094655D36CA6FA4393","title":"董家渡","lon":"121.50658","lat":"31.21535","category":"38","category_name":"公交车站","address":""},{"poiid":"B2094655D26DA1FA4293","title":"仁恒广场第三座","lon":"121.51408","lat":"31.20956","category":"46","category_name":"楼宇","address":"茂兴路90"},{"poiid":"B2094654DA68AAF8459A","title":"上海市强生职工医院","lon":"121.50682","lat":"31.21189","category":"162","category_name":"医院","address":"黄埔区外马路984号"},{"poiid":"B2094655D264A7FA4899","title":"幸福码头","lon":"121.50506","lat":"31.21097","category":"47","category_name":"住宅区","address":"黄浦区中山南路1029号幸福码头5号楼(近多稼路)"},{"poiid":"B2094757DA6EA7FB479F","title":"G Water Front","lon":"121.507171000002","lat":"31.2175409999998","category":"247","category_name":"餐饮美食","address":"黄浦区外马路601号老码头沃弗3号库112室、206室"},{"poiid":"B2094757D06FA7FD4298","title":"薇拉宫邸(浦东店)","lon":"121.50889556","lat":"31.207375193","category":"95","category_name":"日本料理","address":"上海浦明路1888号5号楼"},{"poiid":"B209475CD564A7F84392","title":"上海滩浦东香格里拉店","lon":"121.50058","lat":"31.23634","category":"119","category_name":"商场","address":"浦东富成路33号香格里拉酒店内大堂层"},{"poiid":"B2094757DA69A1F9469A","title":"尚九外滩店","lon":"121.50774328047","lat":"31.216663643904","category":"111","category_name":"休闲餐饮场所","address":"黄浦区外马路653号4号库5楼(近王家码头路)"},{"poiid":"B2094757D16AA7F44893","title":"Sigma Film Club","lon":"121.507247738","lat":"31.2176420319","category":"72","category_name":"广东菜","address":"黄浦区外马路601号3号库3A楼(近老码头)"},{"poiid":"B2094757D465ABFE419E","title":"濠芭 The Steak and Oyster Bar","lon":"121.50754451752","lat":"31.216563470075","category":"88","category_name":"海鲜酒楼","address":"黄浦区老码头外马路653号宏基2期四号库105号商铺"},{"poiid":"B2094757DA6EAAF9489A","title":"纽约客匹萨(老码头店)","lon":"121.507447900002","lat":"31.2164712999997","category":"94","category_name":"西餐厅","address":"黄浦区外马路653号4库106室"},{"poiid":"B2094655D268A1FA459F","title":"东江高尔夫会所","lon":"121.51033","lat":"31.2083","category":"206","category_name":"高尔夫相关","address":"小南码头路5号"},{"poiid":"B2094757D169ABFE449D","title":"巴富仕游艇会","lon":"121.505978738","lat":"31.2121359146","category":"500","category_name":"未知分类","address":"上海市黄浦区幸福码头创意园区"},{"poiid":"B2094757D16CA2FD469D","title":"上海亚廷游艇会","lon":"121.505592","lat":"31.209361","category":"260","category_name":"其他","address":"黄浦区外马路1162号(近南浦大桥浦西桥墩)"},{"poiid":"B2094757D068A6FD449A","title":"陆家庄(塘桥店)","lon":"121.51753","lat":"31.21043","category":"76","category_name":"上海菜","address":"浦东新区浦建路1号塘桥生活广场(近浦东南路)"},{"poiid":"B2094752D269A1FE439F","title":"满记甜品","lon":"121.51564","lat":"31.210876","category":"247","category_name":"餐饮美食","address":"浦建路巴黎春天"},{"poiid":"B2094757D468AAFA4393","title":"锘瓦 老码头店 NOVA","lon":"121.5074508","lat":"31.2164635","category":"94","category_name":"西餐厅","address":"黄浦区外马路653号4号库2楼(近王家码头路)"},{"poiid":"B2094757DB68A5FA409B","title":"罗曼园高级婚礼会馆 外滩雅致英伦馆","lon":"121.50477647781","lat":"31.210635939807","category":"247","category_name":"餐饮美食","address":"长宁区中山西路1011号(近虹桥路)查看地图"},{"poiid":"B2094757D168A2FF4999","title":"Rico Rico","lon":"121.507503738","lat":"31.2178780369","category":"500","category_name":"未知分类","address":"上海外滩奥斯卡"},{"poiid":"B2094757D06EAAFE4493","title":"幸福码头创意园区","lon":"121.5111","lat":"31.216562","category":"45","category_name":"产业园区","address":"上海中山南路1029号"},{"poiid":"B2094757D06AA2F44792","title":"仁恒广场","lon":"121.51391","lat":"31.209261","category":"46","category_name":"楼宇","address":"上海茂兴路90号"},{"poiid":"B2094751D36AA4FF4993","title":"景汇酒店","lon":"121.50783","lat":"31.21542","category":"72","category_name":"广东菜","address":"黄浦区外马路725号老码头二期五号库5-6楼"},{"poiid":"B2094654DB6BABF44892","title":"上海南外滩大楼","lon":"121.50641","lat":"31.21476","category":"46","category_name":"楼宇","address":"浦东新区金湘路225弄"},{"poiid":"B2094654DA68AAF84599","title":"谷泰滨江大厦","lon":"121.50619","lat":"31.213778","category":"46","category_name":"楼宇","address":"朝阳京城大厦西100米路北(新源里14号)"},{"poiid":"B2094753D26BABF84899","title":"梅赛德斯奔驰文化中心","lon":"121.511778","lat":"31.210557","category":"500","category_name":"未知分类","address":"上海市 上海浦东世博大道1200号"},{"poiid":"B2094757DA6EABFB4999","title":"薇拉宫邸私人婚礼会所(南浦店)","lon":"121.509479","lat":"31.2066410000002","category":"248","category_name":"生活娱乐","address":"浦东新区浦明路1888号5号楼(近南浦大桥)查看地图"},{"poiid":"B2094654DA6EA4FF4892","title":"华普科技大厦","lon":"121.508","lat":"31.2161","category":"46","category_name":"楼宇","address":"徐汇区田林路300号"},{"poiid":"B2094757D068A4FA419F","title":"董家渡路轮渡","lon":"121.50824447","lat":"31.214948531","category":"35","category_name":"长途汽车站","address":"上海外马路737号"},{"poiid":"B2094757D16DA2F9429C","title":"优艾贝国际月子会所","lon":"121.511133338","lat":"31.2068565021","category":"248","category_name":"生活娱乐","address":"浦东新区浦明路1888号(近南浦大桥)"},{"poiid":"B2094655D264A4F5479E","title":"中国人民财产保险公司大厦","lon":"121.50608","lat":"31.21533","category":"46","category_name":"楼宇","address":"行宫位于沈河北站一路41号"},{"poiid":"B2094757D06BA3F8439D","title":"汉庭海友客栈","lon":"121.515409","lat":"31.208214","category":"216","category_name":"经济型连锁酒店","address":"浦东新区浦东南路2162号(近微山路)"},{"poiid":"B2094654DA6EA4F84692","title":"南浦大厦","lon":"121.51","lat":"31.2171","category":"46","category_name":"楼宇","address":"丰台学城海鹰路1号,3号"},{"poiid":"B2094655D268A1FA4699","title":"如家快捷酒店上海南外滩店","lon":"121.50653","lat":"31.21198","category":"216","category_name":"经济型连锁酒店","address":"黄浦区中山南路943号(董家渡口)"},{"poiid":"B2094750D56FA4F94798","title":"x密室","lon":"121.505592","lat":"31.21318","category":"248","category_name":"生活娱乐","address":null},{"poiid":"B2094655D264A5FA469A","title":"世博服务区上海馆A楼(移动援博办公楼)","lon":"121.51207","lat":"31.21234","category":"185","category_name":"会展中心","address":"塘桥新路78号"},{"poiid":"B2094655D265A0F5439E","title":"幸福码头(西门)","lon":"121.50463","lat":"31.21119","category":"47","category_name":"住宅区","address":"中山南路1029号"},{"poiid":"B2094757D064A1FE4393","title":"嘉轩大酒店","lon":"121.50651","lat":"31.21271","category":"72","category_name":"广东菜","address":"黄浦区中山南路891号(近赖义码头街)"},{"poiid":"B2094757DB69A0F94398","title":"孔乙己月明楼","lon":"121.50743","lat":"31.21646","category":"72","category_name":"广东菜","address":"外马路653号四号库3楼近毛家园路"},{"poiid":"B2094655D26BA2F44998","title":"浦明路塘桥新路","lon":"121.51326","lat":"31.21196","category":"38","category_name":"公交车站","address":""},{"poiid":"B2094757D465A4FA4193","title":"逦可餐厅 Rico Rico","lon":"121.507171","lat":"31.217541","category":"100","category_name":"地中海风格菜品","address":"黄浦区南外滩外马路601号114室(复兴轮渡南侧)"},{"poiid":"B2094654DA68AAF84298","title":"张江商务大厦","lon":"121.50686","lat":"31.21231","category":"46","category_name":"楼宇","address":"沈河北站路与北京街的交汇处"},{"poiid":"B2094757D064A3F44998","title":"塘桥轮渡站","lon":"121.51180901","lat":"31.212446273","category":"260","category_name":"其他","address":"上海浦东新区塘桥路1号"},{"poiid":"B2094757D064ABFB459C","title":"国家税务局三分局","lon":"121.507158","lat":"31.213001","category":"500","category_name":"未知分类","address":"上海中山南路865号"},{"poiid":"B2094655D26FA5FD499A","title":"临江花苑大厦","lon":"121.50683","lat":"31.21344","category":"46","category_name":"楼宇","address":"中山南路865号"},{"poiid":"B2094655D26FA6F94399","title":"香园(浦明路)","lon":"121.51418","lat":"31.21349","category":"47","category_name":"住宅区","address":"上海浦明路1188弄-1228弄"},{"poiid":"B2094757D16FA4F54899","title":"给力大厦","lon":"121.51304773","lat":"31.211284896","category":"252","category_name":"楼宇机构","address":"浦东新区塘桥新路78号(近浦明路)"},{"poiid":"B2094753D764A7F8429F","title":"国金白丽宫影院","lon":"121.511009","lat":"31.209058","category":"178","category_name":"电影院","address":"上海市 陆家嘴国金"},{"poiid":"B2094750D76CABF4409B","title":"Bubba'sTexas-styleBBQ(老码头店)","lon":"121.507","lat":"31.2165","category":"94","category_name":"西餐厅","address":"黄浦区外马路653号103室(近码头路)"},{"poiid":"B2094750DA6AA6FE4798","title":"上海文化广场","lon":"121.508308","lat":"31.210443","category":"500","category_name":"未知分类","address":null},{"poiid":"B2094750D76DA7FB449B","title":"阿华面馆","lon":"121.515","lat":"31.211","category":"68","category_name":"快餐厅","address":"浦东新区塘桥新路182弄1号(近茂兴路)"},{"poiid":"B2094655D36CA6FA4393","title":"董家渡","lon":"121.50658","lat":"31.21535","category":"38","category_name":"公交车站","address":""},{"poiid":"B2094655D26DA1FA4293","title":"仁恒广场第三座","lon":"121.51408","lat":"31.20956","category":"46","category_name":"楼宇","address":"茂兴路90"},{"poiid":"B2094654DA68AAF8459A","title":"上海市强生职工医院","lon":"121.50682","lat":"31.21189","category":"162","category_name":"医院","address":"黄埔区外马路984号"},{"poiid":"B2094655D264A7FA4899","title":"幸福码头","lon":"121.50506","lat":"31.21097","category":"47","category_name":"住宅区","address":"黄浦区中山南路1029号幸福码头5号楼(近多稼路)"},{"poiid":"B2094757DA6EA7FB479F","title":"G Water Front","lon":"121.507171000002","lat":"31.2175409999998","category":"247","category_name":"餐饮美食","address":"黄浦区外马路601号老码头沃弗3号库112室、206室"},{"poiid":"B2094757D06FA7FD4298","title":"薇拉宫邸(浦东店)","lon":"121.50889556","lat":"31.207375193","category":"95","category_name":"日本料理","address":"上海浦明路1888号5号楼"},{"poiid":"B209475CD564A7F84392","title":"上海滩浦东香格里拉店","lon":"121.50058","lat":"31.23634","category":"119","category_name":"商场","address":"浦东富成路33号香格里拉酒店内大堂层"},{"poiid":"B2094757DA69A1F9469A","title":"尚九外滩店","lon":"121.50774328047","lat":"31.216663643904","category":"111","category_name":"休闲餐饮场所","address":"黄浦区外马路653号4号库5楼(近王家码头路)"},{"poiid":"B2094757D16AA7F44893","title":"Sigma Film Club","lon":"121.507247738","lat":"31.2176420319","category":"72","category_name":"广东菜","address":"黄浦区外马路601号3号库3A楼(近老码头)"},{"poiid":"B2094757D465ABFE419E","title":"濠芭 The Steak and Oyster Bar","lon":"121.50754451752","lat":"31.216563470075","category":"88","category_name":"海鲜酒楼","address":"黄浦区老码头外马路653号宏基2期四号库105号商铺"},{"poiid":"B2094757DA6EAAF9489A","title":"纽约客匹萨(老码头店)","lon":"121.507447900002","lat":"31.2164712999997","category":"94","category_name":"西餐厅","address":"黄浦区外马路653号4库106室"},{"poiid":"B2094655D268A1FA459F","title":"东江高尔夫会所","lon":"121.51033","lat":"31.2083","category":"206","category_name":"高尔夫相关","address":"小南码头路5号"},{"poiid":"B2094757D169ABFE449D","title":"巴富仕游艇会","lon":"121.505978738","lat":"31.2121359146","category":"500","category_name":"未知分类","address":"上海市黄浦区幸福码头创意园区"},{"poiid":"B2094757D16CA2FD469D","title":"上海亚廷游艇会","lon":"121.505592","lat":"31.209361","category":"260","category_name":"其他","address":"黄浦区外马路1162号(近南浦大桥浦西桥墩)"},{"poiid":"B2094757D068A6FD449A","title":"陆家庄(塘桥店)","lon":"121.51753","lat":"31.21043","category":"76","category_name":"上海菜","address":"浦东新区浦建路1号塘桥生活广场(近浦东南路)"},{"poiid":"B2094752D269A1FE439F","title":"满记甜品","lon":"121.51564","lat":"31.210876","category":"247","category_name":"餐饮美食","address":"浦建路巴黎春天"},{"poiid":"B2094757D468AAFA4393","title":"锘瓦 老码头店 NOVA","lon":"121.5074508","lat":"31.2164635","category":"94","category_name":"西餐厅","address":"黄浦区外马路653号4号库2楼(近王家码头路)"},{"poiid":"B2094757DB68A5FA409B","title":"罗曼园高级婚礼会馆 外滩雅致英伦馆","lon":"121.50477647781","lat":"31.210635939807","category":"247","category_name":"餐饮美食","address":"长宁区中山西路1011号(近虹桥路)查看地图"},{"poiid":"B2094757D168A2FF4999","title":"Rico Rico","lon":"121.507503738","lat":"31.2178780369","category":"500","category_name":"未知分类","address":"上海外滩奥斯卡"},{"poiid":"B2094757D06EAAFE4493","title":"幸福码头创意园区","lon":"121.5111","lat":"31.216562","category":"45","category_name":"产业园区","address":"上海中山南路1029号"},{"poiid":"B2094757D06AA2F44792","title":"仁恒广场","lon":"121.51391","lat":"31.209261","category":"46","category_name":"楼宇","address":"上海茂兴路90号"},{"poiid":"B2094751D36AA4FF4993","title":"景汇酒店","lon":"121.50783","lat":"31.21542","category":"72","category_name":"广东菜","address":"黄浦区外马路725号老码头二期五号库5-6楼"},{"poiid":"B2094654DB6BABF44892","title":"上海南外滩大楼","lon":"121.50641","lat":"31.21476","category":"46","category_name":"楼宇","address":"浦东新区金湘路225弄"},{"poiid":"B2094654DA68AAF84599","title":"谷泰滨江大厦","lon":"121.50619","lat":"31.213778","category":"46","category_name":"楼宇","address":"朝阳京城大厦西100米路北(新源里14号)"},{"poiid":"B2094753D26BABF84899","title":"梅赛德斯奔驰文化中心","lon":"121.511778","lat":"31.210557","category":"500","category_name":"未知分类","address":"上海市 上海浦东世博大道1200号"},{"poiid":"B2094757DA6EABFB4999","title":"薇拉宫邸私人婚礼会所(南浦店)","lon":"121.509479","lat":"31.2066410000002","category":"248","category_name":"生活娱乐","address":"浦东新区浦明路1888号5号楼(近南浦大桥)查看地图"},{"poiid":"B2094654DA6EA4FF4892","title":"华普科技大厦","lon":"121.508","lat":"31.2161","category":"46","category_name":"楼宇","address":"徐汇区田林路300号"},{"poiid":"B2094757D068A4FA419F","title":"董家渡路轮渡","lon":"121.50824447","lat":"31.214948531","category":"35","category_name":"长途汽车站","address":"上海外马路737号"},{"poiid":"B2094757D16DA2F9429C","title":"优艾贝国际月子会所","lon":"121.511133338","lat":"31.2068565021","category":"248","category_name":"生活娱乐","address":"浦东新区浦明路1888号(近南浦大桥)"},{"poiid":"B2094655D264A4F5479E","title":"中国人民财产保险公司大厦","lon":"121.50608","lat":"31.21533","category":"46","category_name":"楼宇","address":"行宫位于沈河北站一路41号"},{"poiid":"B2094757D06BA3F8439D","title":"汉庭海友客栈","lon":"121.515409","lat":"31.208214","category":"216","category_name":"经济型连锁酒店","address":"浦东新区浦东南路2162号(近微山路)"},{"poiid":"B2094654DA6EA4F84692","title":"南浦大厦","lon":"121.51","lat":"31.2171","category":"46","category_name":"楼宇","address":"丰台学城海鹰路1号,3号"},{"poiid":"B2094655D268A1FA4699","title":"如家快捷酒店上海南外滩店","lon":"121.50653","lat":"31.21198","category":"216","category_name":"经济型连锁酒店","address":"黄浦区中山南路943号(董家渡口)"},{"poiid":"B2094750D56FA4F94798","title":"x密室","lon":"121.505592","lat":"31.21318","category":"248","category_name":"生活娱乐","address":null},{"poiid":"B2094655D264A5FA469A","title":"世博服务区上海馆A楼(移动援博办公楼)","lon":"121.51207","lat":"31.21234","category":"185","category_name":"会展中心","address":"塘桥新路78号"},{"poiid":"B2094655D265A0F5439E","title":"幸福码头(西门)","lon":"121.50463","lat":"31.21119","category":"47","category_name":"住宅区","address":"中山南路1029号"},{"poiid":"B2094757D064A1FE4393","title":"嘉轩大酒店","lon":"121.50651","lat":"31.21271","category":"72","category_name":"广东菜","address":"黄浦区中山南路891号(近赖义码头街)"},{"poiid":"B2094757DB69A0F94398","title":"孔乙己月明楼","lon":"121.50743","lat":"31.21646","category":"72","category_name":"广东菜","address":"外马路653号四号库3楼近毛家园路"},{"poiid":"B2094655D26BA2F44998","title":"浦明路塘桥新路","lon":"121.51326","lat":"31.21196","category":"38","category_name":"公交车站","address":""},{"poiid":"B2094757D465A4FA4193","title":"逦可餐厅 Rico Rico","lon":"121.507171","lat":"31.217541","category":"100","category_name":"地中海风格菜品","address":"黄浦区南外滩外马路601号114室(复兴轮渡南侧)"},{"poiid":"B2094654DA68AAF84298","title":"张江商务大厦","lon":"121.50686","lat":"31.21231","category":"46","category_name":"楼宇","address":"沈河北站路与北京街的交汇处"},{"poiid":"B2094757D064A3F44998","title":"塘桥轮渡站","lon":"121.51180901","lat":"31.212446273","category":"260","category_name":"其他","address":"上海浦东新区塘桥路1号"},{"poiid":"B2094757D064ABFB459C","title":"国家税务局三分局","lon":"121.507158","lat":"31.213001","category":"500","category_name":"未知分类","address":"上海中山南路865号"},{"poiid":"B2094655D26FA5FD499A","title":"临江花苑大厦","lon":"121.50683","lat":"31.21344","category":"46","category_name":"楼宇","address":"中山南路865号"},{"poiid":"B2094655D26FA6F94399","title":"香园(浦明路)","lon":"121.51418","lat":"31.21349","category":"47","category_name":"住宅区","address":"上海浦明路1188弄-1228弄"},{"poiid":"B2094757D16FA4F54899","title":"给力大厦","lon":"121.51304773","lat":"31.211284896","category":"252","category_name":"楼宇机构","address":"浦东新区塘桥新路78号(近浦明路)"},{"poiid":"B2094753D764A7F8429F","title":"国金白丽宫影院","lon":"121.511009","lat":"31.209058","category":"178","category_name":"电影院","address":"上海市 陆家嘴国金"},{"poiid":"B2094750D76CABF4409B","title":"Bubba'sTexas-styleBBQ(老码头店)","lon":"121.507","lat":"31.2165","category":"94","category_name":"西餐厅","address":"黄浦区外马路653号103室(近码头路)"},{"poiid":"B2094750DA6AA6FE4798","title":"上海文化广场","lon":"121.508308","lat":"31.210443","category":"500","category_name":"未知分类","address":null},{"poiid":"B2094750D76DA7FB449B","title":"阿华面馆","lon":"121.515","lat":"31.211","category":"68","category_name":"快餐厅","address":"浦东新区塘桥新路182弄1号(近茂兴路)"},{"poiid":"B2094655D36CA6FA4393","title":"董家渡","lon":"121.50658","lat":"31.21535","category":"38","category_name":"公交车站","address":""},{"poiid":"B2094655D26DA1FA4293","title":"仁恒广场第三座","lon":"121.51408","lat":"31.20956","category":"46","category_name":"楼宇","address":"茂兴路90"},{"poiid":"B2094654DA68AAF8459A","title":"上海市强生职工医院","lon":"121.50682","lat":"31.21189","category":"162","category_name":"医院","address":"黄埔区外马路984号"}]