[{"poiid":"B2094757D06FABFE4993","title":"桃花村","lon":"121.762","lat":"31.0648","category":"260","category_name":"其他","address":"浦东新区惠南镇北门路289号"},{"poiid":"B2094757D068A1F4409A","title":"避风塘(南汇店)","lon":"121.76907","lat":"31.04929","category":"72","category_name":"广东菜","address":"浦东新区惠南镇人民东路2635号富客斯豪布斯卡名品村1楼(靖海路人民东路)"},{"poiid":"B2094757D069A3FE4799","title":"麦当劳 城东路店 McDonald's","lon":"121.7640120153","lat":"31.053221981636","category":"68","category_name":"快餐厅","address":"浦东新区惠南镇城东路378-392号(川南奉公路拱极路)"},{"poiid":"B2094757DB6DA5F8409A","title":"上海景悦国际航空酒店","lon":"121.763918102","lat":"31.053370571","category":"214","category_name":"四星级宾馆","address":"浦东新区惠南镇拱极路2875-2883号"},{"poiid":"B2094757D06AA1FE449B","title":"清风人家(惠南店)","lon":"121.765126356","lat":"31.049164942","category":"260","category_name":"其他","address":"浦东新区惠南镇人民东路2815号(近南祝路)"},{"poiid":"B2094757D06BA0F84992","title":"紫阳富豪大酒楼","lon":"121.76478376","lat":"31.055028553","category":"76","category_name":"上海菜","address":"浦东新区川南祝公路6101号弘基广场3楼"},{"poiid":"B2094757D06BA0FB479D","title":"小桥流水(南汇店)","lon":"121.76021766","lat":"31.053877983","category":"47","category_name":"住宅区","address":"浦东新区拱极路3028号(近梅花路)"},{"poiid":"B2094757D069A7FD4398","title":"古钟园","lon":"121.7631","lat":"31.05383","category":"196","category_name":"公园","address":"卫星西路11号"},{"poiid":"B2094757D068ABF8409D","title":"世纪联华(南汇店)","lon":"121.76421","lat":"31.05314","category":"118","category_name":"超级市场","address":"上海近郊南汇区惠南镇环城东路388号  "},{"poiid":"B2094757D469A0FB439E","title":"肯德基 人民东路店 KFC","lon":"121.768935054","lat":"31.049392793","category":"68","category_name":"快餐厅","address":"浦东新区惠南镇人民东路2635弄152-158号(富客斯豪布斯卡名品村外街)"},{"poiid":"B2094654DB6FA6FA409D","title":"红光花苑","lon":"121.769783","lat":"31.06468391","category":"47","category_name":"住宅区","address":"红光花苑位于浦东拱乐路698弄等"},{"poiid":"B2094655D36CA5FE429D","title":"川南奉公路小二灶","lon":"121.76571","lat":"31.06222","category":"38","category_name":"公交车站","address":""},{"poiid":"B2094757D46DABFF469F","title":"真锅咖啡馆 文益街店","lon":"121.7686809","lat":"31.0532748","category":"260","category_name":"其他","address":"浦东新区惠南镇拱极路文益街1-3号(近拱极路)"},{"poiid":"B2094655D36CA5FE4498","title":"川南奉公路拱乐路","lon":"121.76557","lat":"31.06474","category":"38","category_name":"公交车站","address":""},{"poiid":"B2094654DB6FA6F94599","title":"上海市公安局南汇分局交通警察大队","lon":"121.76396","lat":"31.05681","category":"250","category_name":"公园户外","address":""},{"poiid":"B2094654DB6FA6FB4599","title":"阿强餐馆","lon":"121.76648","lat":"31.06345","category":"76","category_name":"上海菜","address":"浦东新区惠南镇拱乐路898号红光菜场2楼(南祝公路口)"},{"poiid":"B2094654DB6FA5F94293","title":"东城花苑","lon":"121.7682","lat":"31.052595","category":"47","category_name":"住宅区","address":"人民东路2660号"},{"poiid":"B2094654DB6FA5FC409A","title":"桃源二村","lon":"121.763","lat":"31.0597","category":"47","category_name":"住宅区","address":"桃源二村"},{"poiid":"B2094757D16FA1F8479D","title":"Jepson Bread(人民东路店)","lon":"121.76240236","lat":"31.04960435","category":"67","category_name":"甜品店","address":"浦东新区人民东路2970-2974号(川南奉公路人民东路)"},{"poiid":"B2094757D164A0F94099","title":"韩尚宫","lon":"121.770652263","lat":"31.0513579898","category":"96","category_name":"韩国料理","address":"浦东新区人民东路2635弄富客斯豪布斯卡名品村"},{"poiid":"B2094757D568A1FC4999","title":"米乐星","lon":"121.76444824","lat":"31.05632433","category":"170","category_name":"KTV","address":"中国上海市浦东新区拱北路"},{"poiid":"B2094654DB6FA6F94393","title":"浦东新区文化艺术指导中心惠南分中心","lon":"121.76877288533683","lat":"31.05506610785254","category":"248","category_name":"生活娱乐","address":"浦东新区惠南镇靖海路509号、文友街38号"},{"poiid":"B2094654DB64ABF5419D","title":"金地城","lon":"121.7673","lat":"31.05744","category":"47","category_name":"住宅区","address":"浦东新区靖海路547弄"},{"poiid":"B2094654DB6FA6F9459E","title":"兴东佳苑","lon":"121.75928","lat":"31.053974","category":"47","category_name":"住宅区","address":"上海市南汇区拱极路305弄"},{"poiid":"B2094751D36EAAFD429A","title":"江南茶人(拱极路店)","lon":"121.76029","lat":"31.05379","category":"247","category_name":"餐饮美食","address":"浦东新区拱极路3030号(近小桥流水)"},{"poiid":"B2094757D66CA7FE419B","title":"卡雨诗","lon":"121.766834263","lat":"31.0650112932","category":"500","category_name":"未知分类","address":"上海浦东新区人民东路"},{"poiid":"B2094655D26BA1FB489E","title":"陆楼","lon":"121.76463","lat":"31.06797","category":"38","category_name":"公交车站","address":""},{"poiid":"B2094654DB6FA6F9459A","title":"南汇信息大楼","lon":"121.76412","lat":"31.05504","category":"46","category_name":"楼宇","address":"拱极路2900号"},{"poiid":"B2094654DB6FA6F9459B","title":"上海道路交通事故物损评估中心南汇站","lon":"121.76425","lat":"31.05771","category":"250","category_name":"公园户外","address":""},{"poiid":"B2094757D06BA4F44798","title":"重庆德庄火锅(惠南店)","lon":"121.77014126","lat":"31.049291943","category":"86","category_name":"火锅店","address":"浦东新区人民东路2657-2659号(靖海路人民东路)"},{"poiid":"B2094655D36DA2FC429E","title":"宋家洋桥","lon":"121.76496","lat":"31.067","category":"250","category_name":"公园户外","address":""},{"poiid":"B2094753D36CA3F9449D","title":"巨麦时尚KTV(南汇店)","lon":"121.764106","lat":"31.056578","category":"170","category_name":"KTV","address":"川南奉公路6101号弘基广场"},{"poiid":"B2094655D26BA1FF489C","title":"南汇交警支队","lon":"121.76417","lat":"31.05621","category":"38","category_name":"公交车站","address":""},{"poiid":"B2094654DB6FA6FB4598","title":"小二灶土菜馆","lon":"121.77033","lat":"31.06131","category":"257","category_name":"中餐厅","address":""},{"poiid":"B2094757D16BA3FD479B","title":"桃花村农家菜","lon":"121.75581","lat":"31.05862","category":"76","category_name":"上海菜","address":"浦东新区桃花村"},{"poiid":"B2094757D16AA0FB409A","title":"日月伴鸡面馆(梅花路店)","lon":"121.76084","lat":"31.054","category":"68","category_name":"快餐厅","address":"浦东新区惠南镇梅花路3号(人民东路)"},{"poiid":"B2094757D568A1FD439C","title":"弘基商业休闲广场","lon":"121.771","lat":"31.0614","category":"249","category_name":"购物服务","address":"川南奉公路6101号(南汇电信大楼旁)"},{"poiid":"B2094757D66CA7FE4393","title":"manabe真锅","lon":"121.76510756","lat":"31.053776943","category":"247","category_name":"餐饮美食","address":"上海拱极路"},{"poiid":"B2094757D16CA0FC429E","title":"向南阁(惠南镇店)","lon":"121.76949395","lat":"31.049798215","category":"76","category_name":"上海菜","address":"浦东新区惠南镇人民东路2645-2647号(近靖海路)"},{"poiid":"B2094751D26BA0FE449A","title":"侬好蛙","lon":"121.769089","lat":"31.049286","category":"500","category_name":"未知分类","address":null},{"poiid":"B2094654DB6FA6FB449D","title":"快客(川南奉公路)","lon":"121.76432","lat":"31.05585","category":"117","category_name":"便民商店/便利店","address":""},{"poiid":"B2094654DB6FA6FB4799","title":"南汇保安公司","lon":"121.76428","lat":"31.05779","category":"263","category_name":"公司","address":""},{"poiid":"B2094757D66FA6F84892","title":"爱吃排骨农家坊","lon":"121.768302263","lat":"31.0654643033","category":"500","category_name":"未知分类","address":"上海南汇惠南镇南园路27号"},{"poiid":"B2094757D16BA6F8489E","title":"南汇桃花村驾驶员交规考试场","lon":"121.75559585","lat":"31.060705603","category":"500","category_name":"未知分类","address":"上海南汇桃花村"},{"poiid":"B2094757D66BABF54692","title":"周记烤吧","lon":"121.764265054","lat":"31.049648793","category":"68","category_name":"快餐厅","address":"浦东新区惠南镇人民东路(近川南奉公路)"},{"poiid":"B2094655D264A4FF4293","title":"上海汇强汽车服务有限公司客运站","lon":"121.76361","lat":"31.0553","category":"35","category_name":"长途汽车站","address":"惠南镇城东路1号"},{"poiid":"B2094655D26DA6FB429C","title":"爱盛家园中苑A","lon":"121.76634","lat":"31.05431","category":"47","category_name":"住宅区","address":""},{"poiid":"B2094654DB6FA6FA479D","title":"新凤凰城1号门","lon":"121.77069","lat":"31.05371","category":"47","category_name":"住宅区","address":"拱极路2626弄22-36号"},{"poiid":"B2094757D164A1F5499D","title":"原力健(惠南店)","lon":"121.765078763","lat":"31.0545230601","category":"148","category_name":"美容美发店","address":"浦东新区惠南镇川南奉公路6101弄弘基广场内(近世纪联华)"},{"poiid":"B2094654DB6FA5FD459E","title":"康达公寓","lon":"121.768348272","lat":"31.05543150234","category":"47","category_name":"住宅区","address":"上海市南汇区城东路路759弄"},{"poiid":"B2094757D06FABFE4993","title":"桃花村","lon":"121.762","lat":"31.0648","category":"260","category_name":"其他","address":"浦东新区惠南镇北门路289号"},{"poiid":"B2094757D068A1F4409A","title":"避风塘(南汇店)","lon":"121.76907","lat":"31.04929","category":"72","category_name":"广东菜","address":"浦东新区惠南镇人民东路2635号富客斯豪布斯卡名品村1楼(靖海路人民东路)"},{"poiid":"B2094757D069A3FE4799","title":"麦当劳 城东路店 McDonald's","lon":"121.7640120153","lat":"31.053221981636","category":"68","category_name":"快餐厅","address":"浦东新区惠南镇城东路378-392号(川南奉公路拱极路)"},{"poiid":"B2094757DB6DA5F8409A","title":"上海景悦国际航空酒店","lon":"121.763918102","lat":"31.053370571","category":"214","category_name":"四星级宾馆","address":"浦东新区惠南镇拱极路2875-2883号"},{"poiid":"B2094757D06AA1FE449B","title":"清风人家(惠南店)","lon":"121.765126356","lat":"31.049164942","category":"260","category_name":"其他","address":"浦东新区惠南镇人民东路2815号(近南祝路)"},{"poiid":"B2094757D06BA0F84992","title":"紫阳富豪大酒楼","lon":"121.76478376","lat":"31.055028553","category":"76","category_name":"上海菜","address":"浦东新区川南祝公路6101号弘基广场3楼"},{"poiid":"B2094757D06BA0FB479D","title":"小桥流水(南汇店)","lon":"121.76021766","lat":"31.053877983","category":"47","category_name":"住宅区","address":"浦东新区拱极路3028号(近梅花路)"},{"poiid":"B2094757D069A7FD4398","title":"古钟园","lon":"121.7631","lat":"31.05383","category":"196","category_name":"公园","address":"卫星西路11号"},{"poiid":"B2094757D068ABF8409D","title":"世纪联华(南汇店)","lon":"121.76421","lat":"31.05314","category":"118","category_name":"超级市场","address":"上海近郊南汇区惠南镇环城东路388号  "},{"poiid":"B2094757D469A0FB439E","title":"肯德基 人民东路店 KFC","lon":"121.768935054","lat":"31.049392793","category":"68","category_name":"快餐厅","address":"浦东新区惠南镇人民东路2635弄152-158号(富客斯豪布斯卡名品村外街)"},{"poiid":"B2094654DB6FA6FA409D","title":"红光花苑","lon":"121.769783","lat":"31.06468391","category":"47","category_name":"住宅区","address":"红光花苑位于浦东拱乐路698弄等"},{"poiid":"B2094655D36CA5FE429D","title":"川南奉公路小二灶","lon":"121.76571","lat":"31.06222","category":"38","category_name":"公交车站","address":""},{"poiid":"B2094757D46DABFF469F","title":"真锅咖啡馆 文益街店","lon":"121.7686809","lat":"31.0532748","category":"260","category_name":"其他","address":"浦东新区惠南镇拱极路文益街1-3号(近拱极路)"},{"poiid":"B2094655D36CA5FE4498","title":"川南奉公路拱乐路","lon":"121.76557","lat":"31.06474","category":"38","category_name":"公交车站","address":""},{"poiid":"B2094654DB6FA6F94599","title":"上海市公安局南汇分局交通警察大队","lon":"121.76396","lat":"31.05681","category":"250","category_name":"公园户外","address":""},{"poiid":"B2094654DB6FA6FB4599","title":"阿强餐馆","lon":"121.76648","lat":"31.06345","category":"76","category_name":"上海菜","address":"浦东新区惠南镇拱乐路898号红光菜场2楼(南祝公路口)"},{"poiid":"B2094654DB6FA5F94293","title":"东城花苑","lon":"121.7682","lat":"31.052595","category":"47","category_name":"住宅区","address":"人民东路2660号"},{"poiid":"B2094654DB6FA5FC409A","title":"桃源二村","lon":"121.763","lat":"31.0597","category":"47","category_name":"住宅区","address":"桃源二村"},{"poiid":"B2094757D16FA1F8479D","title":"Jepson Bread(人民东路店)","lon":"121.76240236","lat":"31.04960435","category":"67","category_name":"甜品店","address":"浦东新区人民东路2970-2974号(川南奉公路人民东路)"},{"poiid":"B2094757D164A0F94099","title":"韩尚宫","lon":"121.770652263","lat":"31.0513579898","category":"96","category_name":"韩国料理","address":"浦东新区人民东路2635弄富客斯豪布斯卡名品村"},{"poiid":"B2094757D568A1FC4999","title":"米乐星","lon":"121.76444824","lat":"31.05632433","category":"170","category_name":"KTV","address":"中国上海市浦东新区拱北路"},{"poiid":"B2094654DB6FA6F94393","title":"浦东新区文化艺术指导中心惠南分中心","lon":"121.76877288533683","lat":"31.05506610785254","category":"248","category_name":"生活娱乐","address":"浦东新区惠南镇靖海路509号、文友街38号"},{"poiid":"B2094654DB64ABF5419D","title":"金地城","lon":"121.7673","lat":"31.05744","category":"47","category_name":"住宅区","address":"浦东新区靖海路547弄"},{"poiid":"B2094654DB6FA6F9459E","title":"兴东佳苑","lon":"121.75928","lat":"31.053974","category":"47","category_name":"住宅区","address":"上海市南汇区拱极路305弄"},{"poiid":"B2094751D36EAAFD429A","title":"江南茶人(拱极路店)","lon":"121.76029","lat":"31.05379","category":"247","category_name":"餐饮美食","address":"浦东新区拱极路3030号(近小桥流水)"},{"poiid":"B2094757D66CA7FE419B","title":"卡雨诗","lon":"121.766834263","lat":"31.0650112932","category":"500","category_name":"未知分类","address":"上海浦东新区人民东路"},{"poiid":"B2094655D26BA1FB489E","title":"陆楼","lon":"121.76463","lat":"31.06797","category":"38","category_name":"公交车站","address":""},{"poiid":"B2094654DB6FA6F9459A","title":"南汇信息大楼","lon":"121.76412","lat":"31.05504","category":"46","category_name":"楼宇","address":"拱极路2900号"},{"poiid":"B2094654DB6FA6F9459B","title":"上海道路交通事故物损评估中心南汇站","lon":"121.76425","lat":"31.05771","category":"250","category_name":"公园户外","address":""},{"poiid":"B2094757D06BA4F44798","title":"重庆德庄火锅(惠南店)","lon":"121.77014126","lat":"31.049291943","category":"86","category_name":"火锅店","address":"浦东新区人民东路2657-2659号(靖海路人民东路)"},{"poiid":"B2094655D36DA2FC429E","title":"宋家洋桥","lon":"121.76496","lat":"31.067","category":"250","category_name":"公园户外","address":""},{"poiid":"B2094753D36CA3F9449D","title":"巨麦时尚KTV(南汇店)","lon":"121.764106","lat":"31.056578","category":"170","category_name":"KTV","address":"川南奉公路6101号弘基广场"},{"poiid":"B2094655D26BA1FF489C","title":"南汇交警支队","lon":"121.76417","lat":"31.05621","category":"38","category_name":"公交车站","address":""},{"poiid":"B2094654DB6FA6FB4598","title":"小二灶土菜馆","lon":"121.77033","lat":"31.06131","category":"257","category_name":"中餐厅","address":""},{"poiid":"B2094757D16BA3FD479B","title":"桃花村农家菜","lon":"121.75581","lat":"31.05862","category":"76","category_name":"上海菜","address":"浦东新区桃花村"},{"poiid":"B2094757D16AA0FB409A","title":"日月伴鸡面馆(梅花路店)","lon":"121.76084","lat":"31.054","category":"68","category_name":"快餐厅","address":"浦东新区惠南镇梅花路3号(人民东路)"},{"poiid":"B2094757D568A1FD439C","title":"弘基商业休闲广场","lon":"121.771","lat":"31.0614","category":"249","category_name":"购物服务","address":"川南奉公路6101号(南汇电信大楼旁)"},{"poiid":"B2094757D66CA7FE4393","title":"manabe真锅","lon":"121.76510756","lat":"31.053776943","category":"247","category_name":"餐饮美食","address":"上海拱极路"},{"poiid":"B2094757D16CA0FC429E","title":"向南阁(惠南镇店)","lon":"121.76949395","lat":"31.049798215","category":"76","category_name":"上海菜","address":"浦东新区惠南镇人民东路2645-2647号(近靖海路)"},{"poiid":"B2094751D26BA0FE449A","title":"侬好蛙","lon":"121.769089","lat":"31.049286","category":"500","category_name":"未知分类","address":null},{"poiid":"B2094654DB6FA6FB449D","title":"快客(川南奉公路)","lon":"121.76432","lat":"31.05585","category":"117","category_name":"便民商店/便利店","address":""},{"poiid":"B2094654DB6FA6FB4799","title":"南汇保安公司","lon":"121.76428","lat":"31.05779","category":"263","category_name":"公司","address":""},{"poiid":"B2094757D66FA6F84892","title":"爱吃排骨农家坊","lon":"121.768302263","lat":"31.0654643033","category":"500","category_name":"未知分类","address":"上海南汇惠南镇南园路27号"},{"poiid":"B2094757D16BA6F8489E","title":"南汇桃花村驾驶员交规考试场","lon":"121.75559585","lat":"31.060705603","category":"500","category_name":"未知分类","address":"上海南汇桃花村"},{"poiid":"B2094757D66BABF54692","title":"周记烤吧","lon":"121.764265054","lat":"31.049648793","category":"68","category_name":"快餐厅","address":"浦东新区惠南镇人民东路(近川南奉公路)"},{"poiid":"B2094655D264A4FF4293","title":"上海汇强汽车服务有限公司客运站","lon":"121.76361","lat":"31.0553","category":"35","category_name":"长途汽车站","address":"惠南镇城东路1号"},{"poiid":"B2094655D26DA6FB429C","title":"爱盛家园中苑A","lon":"121.76634","lat":"31.05431","category":"47","category_name":"住宅区","address":""},{"poiid":"B2094654DB6FA6FA479D","title":"新凤凰城1号门","lon":"121.77069","lat":"31.05371","category":"47","category_name":"住宅区","address":"拱极路2626弄22-36号"},{"poiid":"B2094757D164A1F5499D","title":"原力健(惠南店)","lon":"121.765078763","lat":"31.0545230601","category":"148","category_name":"美容美发店","address":"浦东新区惠南镇川南奉公路6101弄弘基广场内(近世纪联华)"},{"poiid":"B2094654DB6FA5FD459E","title":"康达公寓","lon":"121.768348272","lat":"31.05543150234","category":"47","category_name":"住宅区","address":"上海市南汇区城东路路759弄"},{"poiid":"B2094757D06FABFE4993","title":"桃花村","lon":"121.762","lat":"31.0648","category":"260","category_name":"其他","address":"浦东新区惠南镇北门路289号"},{"poiid":"B2094757D068A1F4409A","title":"避风塘(南汇店)","lon":"121.76907","lat":"31.04929","category":"72","category_name":"广东菜","address":"浦东新区惠南镇人民东路2635号富客斯豪布斯卡名品村1楼(靖海路人民东路)"},{"poiid":"B2094757D069A3FE4799","title":"麦当劳 城东路店 McDonald's","lon":"121.7640120153","lat":"31.053221981636","category":"68","category_name":"快餐厅","address":"浦东新区惠南镇城东路378-392号(川南奉公路拱极路)"},{"poiid":"B2094757DB6DA5F8409A","title":"上海景悦国际航空酒店","lon":"121.763918102","lat":"31.053370571","category":"214","category_name":"四星级宾馆","address":"浦东新区惠南镇拱极路2875-2883号"},{"poiid":"B2094757D06AA1FE449B","title":"清风人家(惠南店)","lon":"121.765126356","lat":"31.049164942","category":"260","category_name":"其他","address":"浦东新区惠南镇人民东路2815号(近南祝路)"},{"poiid":"B2094757D06BA0F84992","title":"紫阳富豪大酒楼","lon":"121.76478376","lat":"31.055028553","category":"76","category_name":"上海菜","address":"浦东新区川南祝公路6101号弘基广场3楼"},{"poiid":"B2094757D06BA0FB479D","title":"小桥流水(南汇店)","lon":"121.76021766","lat":"31.053877983","category":"47","category_name":"住宅区","address":"浦东新区拱极路3028号(近梅花路)"},{"poiid":"B2094757D069A7FD4398","title":"古钟园","lon":"121.7631","lat":"31.05383","category":"196","category_name":"公园","address":"卫星西路11号"},{"poiid":"B2094757D068ABF8409D","title":"世纪联华(南汇店)","lon":"121.76421","lat":"31.05314","category":"118","category_name":"超级市场","address":"上海近郊南汇区惠南镇环城东路388号  "},{"poiid":"B2094757D469A0FB439E","title":"肯德基 人民东路店 KFC","lon":"121.768935054","lat":"31.049392793","category":"68","category_name":"快餐厅","address":"浦东新区惠南镇人民东路2635弄152-158号(富客斯豪布斯卡名品村外街)"},{"poiid":"B2094654DB6FA6FA409D","title":"红光花苑","lon":"121.769783","lat":"31.06468391","category":"47","category_name":"住宅区","address":"红光花苑位于浦东拱乐路698弄等"},{"poiid":"B2094655D36CA5FE429D","title":"川南奉公路小二灶","lon":"121.76571","lat":"31.06222","category":"38","category_name":"公交车站","address":""},{"poiid":"B2094757D46DABFF469F","title":"真锅咖啡馆 文益街店","lon":"121.7686809","lat":"31.0532748","category":"260","category_name":"其他","address":"浦东新区惠南镇拱极路文益街1-3号(近拱极路)"},{"poiid":"B2094655D36CA5FE4498","title":"川南奉公路拱乐路","lon":"121.76557","lat":"31.06474","category":"38","category_name":"公交车站","address":""},{"poiid":"B2094654DB6FA6F94599","title":"上海市公安局南汇分局交通警察大队","lon":"121.76396","lat":"31.05681","category":"250","category_name":"公园户外","address":""},{"poiid":"B2094654DB6FA6FB4599","title":"阿强餐馆","lon":"121.76648","lat":"31.06345","category":"76","category_name":"上海菜","address":"浦东新区惠南镇拱乐路898号红光菜场2楼(南祝公路口)"},{"poiid":"B2094654DB6FA5F94293","title":"东城花苑","lon":"121.7682","lat":"31.052595","category":"47","category_name":"住宅区","address":"人民东路2660号"},{"poiid":"B2094654DB6FA5FC409A","title":"桃源二村","lon":"121.763","lat":"31.0597","category":"47","category_name":"住宅区","address":"桃源二村"},{"poiid":"B2094757D16FA1F8479D","title":"Jepson Bread(人民东路店)","lon":"121.76240236","lat":"31.04960435","category":"67","category_name":"甜品店","address":"浦东新区人民东路2970-2974号(川南奉公路人民东路)"},{"poiid":"B2094757D164A0F94099","title":"韩尚宫","lon":"121.770652263","lat":"31.0513579898","category":"96","category_name":"韩国料理","address":"浦东新区人民东路2635弄富客斯豪布斯卡名品村"},{"poiid":"B2094757D568A1FC4999","title":"米乐星","lon":"121.76444824","lat":"31.05632433","category":"170","category_name":"KTV","address":"中国上海市浦东新区拱北路"},{"poiid":"B2094654DB6FA6F94393","title":"浦东新区文化艺术指导中心惠南分中心","lon":"121.76877288533683","lat":"31.05506610785254","category":"248","category_name":"生活娱乐","address":"浦东新区惠南镇靖海路509号、文友街38号"},{"poiid":"B2094654DB64ABF5419D","title":"金地城","lon":"121.7673","lat":"31.05744","category":"47","category_name":"住宅区","address":"浦东新区靖海路547弄"},{"poiid":"B2094654DB6FA6F9459E","title":"兴东佳苑","lon":"121.75928","lat":"31.053974","category":"47","category_name":"住宅区","address":"上海市南汇区拱极路305弄"},{"poiid":"B2094751D36EAAFD429A","title":"江南茶人(拱极路店)","lon":"121.76029","lat":"31.05379","category":"247","category_name":"餐饮美食","address":"浦东新区拱极路3030号(近小桥流水)"},{"poiid":"B2094757D66CA7FE419B","title":"卡雨诗","lon":"121.766834263","lat":"31.0650112932","category":"500","category_name":"未知分类","address":"上海浦东新区人民东路"},{"poiid":"B2094655D26BA1FB489E","title":"陆楼","lon":"121.76463","lat":"31.06797","category":"38","category_name":"公交车站","address":""},{"poiid":"B2094654DB6FA6F9459A","title":"南汇信息大楼","lon":"121.76412","lat":"31.05504","category":"46","category_name":"楼宇","address":"拱极路2900号"},{"poiid":"B2094654DB6FA6F9459B","title":"上海道路交通事故物损评估中心南汇站","lon":"121.76425","lat":"31.05771","category":"250","category_name":"公园户外","address":""},{"poiid":"B2094757D06BA4F44798","title":"重庆德庄火锅(惠南店)","lon":"121.77014126","lat":"31.049291943","category":"86","category_name":"火锅店","address":"浦东新区人民东路2657-2659号(靖海路人民东路)"},{"poiid":"B2094655D36DA2FC429E","title":"宋家洋桥","lon":"121.76496","lat":"31.067","category":"250","category_name":"公园户外","address":""},{"poiid":"B2094753D36CA3F9449D","title":"巨麦时尚KTV(南汇店)","lon":"121.764106","lat":"31.056578","category":"170","category_name":"KTV","address":"川南奉公路6101号弘基广场"},{"poiid":"B2094655D26BA1FF489C","title":"南汇交警支队","lon":"121.76417","lat":"31.05621","category":"38","category_name":"公交车站","address":""},{"poiid":"B2094654DB6FA6FB4598","title":"小二灶土菜馆","lon":"121.77033","lat":"31.06131","category":"257","category_name":"中餐厅","address":""},{"poiid":"B2094757D16BA3FD479B","title":"桃花村农家菜","lon":"121.75581","lat":"31.05862","category":"76","category_name":"上海菜","address":"浦东新区桃花村"},{"poiid":"B2094757D16AA0FB409A","title":"日月伴鸡面馆(梅花路店)","lon":"121.76084","lat":"31.054","category":"68","category_name":"快餐厅","address":"浦东新区惠南镇梅花路3号(人民东路)"},{"poiid":"B2094757D568A1FD439C","title":"弘基商业休闲广场","lon":"121.771","lat":"31.0614","category":"249","category_name":"购物服务","address":"川南奉公路6101号(南汇电信大楼旁)"},{"poiid":"B2094757D66CA7FE4393","title":"manabe真锅","lon":"121.76510756","lat":"31.053776943","category":"247","category_name":"餐饮美食","address":"上海拱极路"},{"poiid":"B2094757D16CA0FC429E","title":"向南阁(惠南镇店)","lon":"121.76949395","lat":"31.049798215","category":"76","category_name":"上海菜","address":"浦东新区惠南镇人民东路2645-2647号(近靖海路)"},{"poiid":"B2094751D26BA0FE449A","title":"侬好蛙","lon":"121.769089","lat":"31.049286","category":"500","category_name":"未知分类","address":null},{"poiid":"B2094654DB6FA6FB449D","title":"快客(川南奉公路)","lon":"121.76432","lat":"31.05585","category":"117","category_name":"便民商店/便利店","address":""},{"poiid":"B2094654DB6FA6FB4799","title":"南汇保安公司","lon":"121.76428","lat":"31.05779","category":"263","category_name":"公司","address":""},{"poiid":"B2094757D66FA6F84892","title":"爱吃排骨农家坊","lon":"121.768302263","lat":"31.0654643033","category":"500","category_name":"未知分类","address":"上海南汇惠南镇南园路27号"},{"poiid":"B2094757D16BA6F8489E","title":"南汇桃花村驾驶员交规考试场","lon":"121.75559585","lat":"31.060705603","category":"500","category_name":"未知分类","address":"上海南汇桃花村"},{"poiid":"B2094757D66BABF54692","title":"周记烤吧","lon":"121.764265054","lat":"31.049648793","category":"68","category_name":"快餐厅","address":"浦东新区惠南镇人民东路(近川南奉公路)"},{"poiid":"B2094655D264A4FF4293","title":"上海汇强汽车服务有限公司客运站","lon":"121.76361","lat":"31.0553","category":"35","category_name":"长途汽车站","address":"惠南镇城东路1号"},{"poiid":"B2094655D26DA6FB429C","title":"爱盛家园中苑A","lon":"121.76634","lat":"31.05431","category":"47","category_name":"住宅区","address":""},{"poiid":"B2094654DB6FA6FA479D","title":"新凤凰城1号门","lon":"121.77069","lat":"31.05371","category":"47","category_name":"住宅区","address":"拱极路2626弄22-36号"},{"poiid":"B2094757D164A1F5499D","title":"原力健(惠南店)","lon":"121.765078763","lat":"31.0545230601","category":"148","category_name":"美容美发店","address":"浦东新区惠南镇川南奉公路6101弄弘基广场内(近世纪联华)"},{"poiid":"B2094654DB6FA5FD459E","title":"康达公寓","lon":"121.768348272","lat":"31.05543150234","category":"47","category_name":"住宅区","address":"上海市南汇区城东路路759弄"},{"poiid":"B2094757D06FABFE4993","title":"桃花村","lon":"121.762","lat":"31.0648","category":"260","category_name":"其他","address":"浦东新区惠南镇北门路289号"},{"poiid":"B2094757D068A1F4409A","title":"避风塘(南汇店)","lon":"121.76907","lat":"31.04929","category":"72","category_name":"广东菜","address":"浦东新区惠南镇人民东路2635号富客斯豪布斯卡名品村1楼(靖海路人民东路)"},{"poiid":"B2094757D069A3FE4799","title":"麦当劳 城东路店 McDonald's","lon":"121.7640120153","lat":"31.053221981636","category":"68","category_name":"快餐厅","address":"浦东新区惠南镇城东路378-392号(川南奉公路拱极路)"},{"poiid":"B2094757DB6DA5F8409A","title":"上海景悦国际航空酒店","lon":"121.763918102","lat":"31.053370571","category":"214","category_name":"四星级宾馆","address":"浦东新区惠南镇拱极路2875-2883号"},{"poiid":"B2094757D06AA1FE449B","title":"清风人家(惠南店)","lon":"121.765126356","lat":"31.049164942","category":"260","category_name":"其他","address":"浦东新区惠南镇人民东路2815号(近南祝路)"},{"poiid":"B2094757D06BA0F84992","title":"紫阳富豪大酒楼","lon":"121.76478376","lat":"31.055028553","category":"76","category_name":"上海菜","address":"浦东新区川南祝公路6101号弘基广场3楼"},{"poiid":"B2094757D06BA0FB479D","title":"小桥流水(南汇店)","lon":"121.76021766","lat":"31.053877983","category":"47","category_name":"住宅区","address":"浦东新区拱极路3028号(近梅花路)"},{"poiid":"B2094757D069A7FD4398","title":"古钟园","lon":"121.7631","lat":"31.05383","category":"196","category_name":"公园","address":"卫星西路11号"},{"poiid":"B2094757D068ABF8409D","title":"世纪联华(南汇店)","lon":"121.76421","lat":"31.05314","category":"118","category_name":"超级市场","address":"上海近郊南汇区惠南镇环城东路388号  "},{"poiid":"B2094757D469A0FB439E","title":"肯德基 人民东路店 KFC","lon":"121.768935054","lat":"31.049392793","category":"68","category_name":"快餐厅","address":"浦东新区惠南镇人民东路2635弄152-158号(富客斯豪布斯卡名品村外街)"},{"poiid":"B2094654DB6FA6FA409D","title":"红光花苑","lon":"121.769783","lat":"31.06468391","category":"47","category_name":"住宅区","address":"红光花苑位于浦东拱乐路698弄等"},{"poiid":"B2094655D36CA5FE429D","title":"川南奉公路小二灶","lon":"121.76571","lat":"31.06222","category":"38","category_name":"公交车站","address":""},{"poiid":"B2094757D46DABFF469F","title":"真锅咖啡馆 文益街店","lon":"121.7686809","lat":"31.0532748","category":"260","category_name":"其他","address":"浦东新区惠南镇拱极路文益街1-3号(近拱极路)"},{"poiid":"B2094655D36CA5FE4498","title":"川南奉公路拱乐路","lon":"121.76557","lat":"31.06474","category":"38","category_name":"公交车站","address":""},{"poiid":"B2094654DB6FA6F94599","title":"上海市公安局南汇分局交通警察大队","lon":"121.76396","lat":"31.05681","category":"250","category_name":"公园户外","address":""},{"poiid":"B2094654DB6FA6FB4599","title":"阿强餐馆","lon":"121.76648","lat":"31.06345","category":"76","category_name":"上海菜","address":"浦东新区惠南镇拱乐路898号红光菜场2楼(南祝公路口)"},{"poiid":"B2094654DB6FA5F94293","title":"东城花苑","lon":"121.7682","lat":"31.052595","category":"47","category_name":"住宅区","address":"人民东路2660号"},{"poiid":"B2094654DB6FA5FC409A","title":"桃源二村","lon":"121.763","lat":"31.0597","category":"47","category_name":"住宅区","address":"桃源二村"},{"poiid":"B2094757D16FA1F8479D","title":"Jepson Bread(人民东路店)","lon":"121.76240236","lat":"31.04960435","category":"67","category_name":"甜品店","address":"浦东新区人民东路2970-2974号(川南奉公路人民东路)"},{"poiid":"B2094757D164A0F94099","title":"韩尚宫","lon":"121.770652263","lat":"31.0513579898","category":"96","category_name":"韩国料理","address":"浦东新区人民东路2635弄富客斯豪布斯卡名品村"},{"poiid":"B2094757D568A1FC4999","title":"米乐星","lon":"121.76444824","lat":"31.05632433","category":"170","category_name":"KTV","address":"中国上海市浦东新区拱北路"},{"poiid":"B2094654DB6FA6F94393","title":"浦东新区文化艺术指导中心惠南分中心","lon":"121.76877288533683","lat":"31.05506610785254","category":"248","category_name":"生活娱乐","address":"浦东新区惠南镇靖海路509号、文友街38号"},{"poiid":"B2094654DB64ABF5419D","title":"金地城","lon":"121.7673","lat":"31.05744","category":"47","category_name":"住宅区","address":"浦东新区靖海路547弄"},{"poiid":"B2094654DB6FA6F9459E","title":"兴东佳苑","lon":"121.75928","lat":"31.053974","category":"47","category_name":"住宅区","address":"上海市南汇区拱极路305弄"},{"poiid":"B2094751D36EAAFD429A","title":"江南茶人(拱极路店)","lon":"121.76029","lat":"31.05379","category":"247","category_name":"餐饮美食","address":"浦东新区拱极路3030号(近小桥流水)"},{"poiid":"B2094757D66CA7FE419B","title":"卡雨诗","lon":"121.766834263","lat":"31.0650112932","category":"500","category_name":"未知分类","address":"上海浦东新区人民东路"},{"poiid":"B2094655D26BA1FB489E","title":"陆楼","lon":"121.76463","lat":"31.06797","category":"38","category_name":"公交车站","address":""},{"poiid":"B2094654DB6FA6F9459A","title":"南汇信息大楼","lon":"121.76412","lat":"31.05504","category":"46","category_name":"楼宇","address":"拱极路2900号"},{"poiid":"B2094654DB6FA6F9459B","title":"上海道路交通事故物损评估中心南汇站","lon":"121.76425","lat":"31.05771","category":"250","category_name":"公园户外","address":""},{"poiid":"B2094757D06BA4F44798","title":"重庆德庄火锅(惠南店)","lon":"121.77014126","lat":"31.049291943","category":"86","category_name":"火锅店","address":"浦东新区人民东路2657-2659号(靖海路人民东路)"},{"poiid":"B2094655D36DA2FC429E","title":"宋家洋桥","lon":"121.76496","lat":"31.067","category":"250","category_name":"公园户外","address":""},{"poiid":"B2094753D36CA3F9449D","title":"巨麦时尚KTV(南汇店)","lon":"121.764106","lat":"31.056578","category":"170","category_name":"KTV","address":"川南奉公路6101号弘基广场"},{"poiid":"B2094655D26BA1FF489C","title":"南汇交警支队","lon":"121.76417","lat":"31.05621","category":"38","category_name":"公交车站","address":""},{"poiid":"B2094654DB6FA6FB4598","title":"小二灶土菜馆","lon":"121.77033","lat":"31.06131","category":"257","category_name":"中餐厅","address":""},{"poiid":"B2094757D16BA3FD479B","title":"桃花村农家菜","lon":"121.75581","lat":"31.05862","category":"76","category_name":"上海菜","address":"浦东新区桃花村"},{"poiid":"B2094757D16AA0FB409A","title":"日月伴鸡面馆(梅花路店)","lon":"121.76084","lat":"31.054","category":"68","category_name":"快餐厅","address":"浦东新区惠南镇梅花路3号(人民东路)"},{"poiid":"B2094757D568A1FD439C","title":"弘基商业休闲广场","lon":"121.771","lat":"31.0614","category":"249","category_name":"购物服务","address":"川南奉公路6101号(南汇电信大楼旁)"},{"poiid":"B2094757D66CA7FE4393","title":"manabe真锅","lon":"121.76510756","lat":"31.053776943","category":"247","category_name":"餐饮美食","address":"上海拱极路"},{"poiid":"B2094757D16CA0FC429E","title":"向南阁(惠南镇店)","lon":"121.76949395","lat":"31.049798215","category":"76","category_name":"上海菜","address":"浦东新区惠南镇人民东路2645-2647号(近靖海路)"},{"poiid":"B2094751D26BA0FE449A","title":"侬好蛙","lon":"121.769089","lat":"31.049286","category":"500","category_name":"未知分类","address":null},{"poiid":"B2094654DB6FA6FB449D","title":"快客(川南奉公路)","lon":"121.76432","lat":"31.05585","category":"117","category_name":"便民商店/便利店","address":""},{"poiid":"B2094654DB6FA6FB4799","title":"南汇保安公司","lon":"121.76428","lat":"31.05779","category":"263","category_name":"公司","address":""},{"poiid":"B2094757D66FA6F84892","title":"爱吃排骨农家坊","lon":"121.768302263","lat":"31.0654643033","category":"500","category_name":"未知分类","address":"上海南汇惠南镇南园路27号"},{"poiid":"B2094757D16BA6F8489E","title":"南汇桃花村驾驶员交规考试场","lon":"121.75559585","lat":"31.060705603","category":"500","category_name":"未知分类","address":"上海南汇桃花村"},{"poiid":"B2094757D66BABF54692","title":"周记烤吧","lon":"121.764265054","lat":"31.049648793","category":"68","category_name":"快餐厅","address":"浦东新区惠南镇人民东路(近川南奉公路)"},{"poiid":"B2094655D264A4FF4293","title":"上海汇强汽车服务有限公司客运站","lon":"121.76361","lat":"31.0553","category":"35","category_name":"长途汽车站","address":"惠南镇城东路1号"},{"poiid":"B2094655D26DA6FB429C","title":"爱盛家园中苑A","lon":"121.76634","lat":"31.05431","category":"47","category_name":"住宅区","address":""},{"poiid":"B2094654DB6FA6FA479D","title":"新凤凰城1号门","lon":"121.77069","lat":"31.05371","category":"47","category_name":"住宅区","address":"拱极路2626弄22-36号"},{"poiid":"B2094757D164A1F5499D","title":"原力健(惠南店)","lon":"121.765078763","lat":"31.0545230601","category":"148","category_name":"美容美发店","address":"浦东新区惠南镇川南奉公路6101弄弘基广场内(近世纪联华)"},{"poiid":"B2094654DB6FA5FD459E","title":"康达公寓","lon":"121.768348272","lat":"31.05543150234","category":"47","category_name":"住宅区","address":"上海市南汇区城东路路759弄"}]