[{"poiid":"B2094757D06FA2F9499C","title":"百联南桥购物中心","lon":"121.490521","lat":"30.921125","category":"119","category_name":"商场","address":"近郊奉贤南桥镇百齐路588号"},{"poiid":"B2094750DA6EA5FF4092","title":"源泰东南亚风味餐厅","lon":"121.486236","lat":"30.915634","category":"247","category_name":"餐饮美食","address":"近郊奉贤南奉公路8509弄28号南方国际C幢3楼"},{"poiid":"B2094751DA69A0FA469E","title":"上海市奉贤区中心医院","lon":"121.505821","lat":"30.921404","category":"162","category_name":"医院","address":null},{"poiid":"B2094655D26BA1F8419F","title":"南方国际广场","lon":"121.48474","lat":"30.91689","category":"38","category_name":"公交车站","address":"奉贤百兴路78弄"},{"poiid":"B2094654DB6FAAF9459C","title":"上海市奉贤中学(南奉公路)","lon":"121.49721","lat":"30.91976","category":"55","category_name":"中学","address":"近郊奉贤区南桥镇南奉公路7058号(近金海路)"},{"poiid":"B2094655D36CA6FF499B","title":"奉贤中学","lon":"121.50828","lat":"30.92005","category":"55","category_name":"中学","address":""},{"poiid":"B2094753D468ABFE4099","title":"上海市奉贤区中心医院","lon":"121.510375","lat":"30.919408","category":"162","category_name":"医院","address":"上海市 奉贤区南桥镇南奉公路6600号"},{"poiid":"B2094757D568A0FB4292","title":"绿地望海新都","lon":"121.497669","lat":"30.921249","category":"47","category_name":"住宅区","address":"上海市奉贤区望园南路1588弄"},{"poiid":"B2094753D765A4F8459E","title":"奉贤区第六人民医院","lon":"121.50048","lat":"30.919965","category":"162","category_name":"医院","address":"上海市 上海市奉贤区南桥南奉公路6600号"},{"poiid":"B2094750DB65AAFC4299","title":"奉贤中心医院","lon":"121.509864","lat":"30.918455","category":"162","category_name":"医院","address":null},{"poiid":"B2094654DB68A7FC4092","title":"上海南桥国际商业广场","lon":"121.49586","lat":"30.91441","category":"119","category_name":"商场","address":"奉贤南桥镇金海路3399号"},{"poiid":"B2094757D06AA5F94192","title":"许留山（百联）","lon":"121.48467461","lat":"30.914308984","category":"67","category_name":"甜品店","address":"近郊奉贤区南桥镇百齐路588号百联南桥购物中心内(近南桥汽车站)"},{"poiid":"B2094655D26BA1F8419B","title":"南奉公路金钱公路(光明)","lon":"121.51145","lat":"30.92046","category":"38","category_name":"公交车站","address":""},{"poiid":"B2094655D36DA3F44593","title":"光明大桥","lon":"121.50951","lat":"30.9202","category":"250","category_name":"公园户外","address":""},{"poiid":"B2094655D26BA1F84093","title":"南奉公路金海路","lon":"121.49496","lat":"30.9195","category":"38","category_name":"公交车站","address":""},{"poiid":"B2094752DB65A0FF429B","title":"奉贤区中心医院","lon":"121.502019","lat":"30.924127","category":"162","category_name":"医院","address":"上海市 南奉公路6600号"},{"poiid":"B2094757D168ABFE4898","title":"南奉公路金钱公路","lon":"121.51193576","lat":"30.9197794645","category":"500","category_name":"未知分类","address":"上海南奉公路金钱公路"},{"poiid":"B2094757D66BA4FA409B","title":"斗牛士 南桥百联店","lon":"121.485151","lat":"30.912734","category":"94","category_name":"西餐厅","address":"近郊奉贤区南桥镇百齐路588号百联南桥购物中心内(近南桥汽车站)"},{"poiid":"B2094655D26BA2F4489F","title":"浦星公路","lon":"121.51499","lat":"30.9204","category":"38","category_name":"公交车站","address":""},{"poiid":"B2094757D568AAFB489E","title":"斯波妮","lon":"121.50546739","lat":"30.91960612","category":"251","category_name":"出行住宿","address":"南奉公路6565"},{"poiid":"B2094753D66BA1FD469D","title":"上海交通大学附属第六人民医院南院","lon":"121.494728","lat":"30.918348","category":"500","category_name":"未知分类","address":"上海市 上海市奉贤南路6600号"},{"poiid":"B2094750D56EA2F54798","title":"家饰佳奉贤店","lon":"121.510574","lat":"30.920244","category":"249","category_name":"购物服务","address":"南奉公路金钱公路"},{"poiid":"B2094757D66FA2F5449F","title":"大娘水饺","lon":"121.497366916","lat":"30.9110150426","category":"247","category_name":"餐饮美食","address":"上海百联南桥"},{"poiid":"B2094757D66CA2FC4498","title":"中韩晨光文具制造有限公司","lon":"121.516291616","lat":"30.9154841447","category":"263","category_name":"公司","address":"上海市奉贤区光明镇金钱公路3469号"},{"poiid":"B2094655D36CA6FF499A","title":"奉贤中学西门","lon":"121.49479","lat":"30.92075","category":"38","category_name":"公交车站","address":""},{"poiid":"B2094655D26BABFF459E","title":"恒盛湖畔豪庭","lon":"121.498","lat":"30.934","category":"47","category_name":"住宅区","address":"奉贤南桥新城泽丰路89弄(金海路德丰路口)"},{"poiid":"B2094757D568A4FD439E","title":"南桥镇南桥经济园区","lon":"121.49665392","lat":"30.91074002","category":"45","category_name":"产业园区","address":"金海公路3369弄"},{"poiid":"B2094654DB68A2F9489B","title":"上海增由大酒店","lon":"121.49523","lat":"30.91676","category":"214","category_name":"四星级宾馆","address":"金海公路843号"},{"poiid":"B2094757DA6EAAFF479D","title":"上海晨光文具股份有限公司","lon":"121.513077","lat":"30.9202609999998","category":"263","category_name":"公司","address":"奉贤区金钱公路3469号"},{"poiid":"B2094750D56AA4F44693","title":"银河丽湾","lon":"121.49358","lat":"30.91889","category":"47","category_name":"住宅区","address":"上海市奉贤区东至金海路，南至百兴路，西至百富路，北至南奉公路"},{"poiid":"B2094757D664A7F94992","title":"DQ冰雪皇后 南桥百联店 Dairy Queen","lon":"121.484","lat":"30.91554","category":"113","category_name":"冷饮店","address":"近郊奉贤区南桥镇百齐路588号百联南郊购物中心第一食品店1楼"},{"poiid":"B2094753D56BA5FF4799","title":"三宝粥铺","lon":"121.491004","lat":"30.916704","category":"247","category_name":"餐饮美食","address":"上海市 奉贤区南奉公路8509弄南方国际2栋38号"},{"poiid":"B2094654DB68A4F44699","title":"上海奉贤区光明工业园区","lon":"121.50689","lat":"30.90649","category":"45","category_name":"产业园区","address":""},{"poiid":"B2094757D06AA6F5409A","title":"上海工商奉贤分局","lon":"121.48812446","lat":"30.921109373","category":"500","category_name":"未知分类","address":"上海奉贤区解放东路58号"},{"poiid":"B209475CDB6BA6FF4198","title":"Zoo Coffee","lon":"121.487068","lat":"30.915929","category":"500","category_name":"未知分类","address":"上海市 南奉公路8509弄28号1楼C101室C103市南方国际广场(美人鱼休闲街(海豚喷泉旁边)"},{"poiid":"B2094757D16BABF4449D","title":"奉贤南桥","lon":"121.493679916","lat":"30.9205990616","category":"500","category_name":"未知分类","address":"上海市奉贤区南奉公路"},{"poiid":"B2094655D26EAAFD4492","title":"上海梅丽亚晶商务酒店","lon":"121.48593","lat":"30.91632","category":"250","category_name":"公园户外","address":"近郊奉贤区南桥镇南奉公路8505号"},{"poiid":"B2094654DB68A4F4439A","title":"奉贤区光明学校","lon":"121.50856","lat":"30.90602","category":"55","category_name":"中学","address":""},{"poiid":"B2094655D26DA5F44493","title":"上海奉杰汽车销售有限公司","lon":"121.51592","lat":"30.91965","category":"158","category_name":"汽车销售","address":"光明镇南奉公路6001号"},{"poiid":"B2094757D46EABF84092","title":"PANKOO釜山料理 奉贤南桥店","lon":"121.484456","lat":"30.916669","category":"96","category_name":"韩国料理","address":"近郊奉贤区南奉公路8509弄2幢38号3楼"},{"poiid":"B2094654DB68A7FC4093","title":"上海多而好化工市场","lon":"121.49662","lat":"30.91079","category":"255","category_name":"专卖店","address":""},{"poiid":"B2094655D36CA0FF4699","title":"金海路解放东路","lon":"121.4923","lat":"30.92155","category":"38","category_name":"公交车站","address":""},{"poiid":"B2094654DB68A4F44892","title":"光明影剧院","lon":"121.510654","lat":"30.906477","category":"178","category_name":"电影院","address":"光明镇文化路54号"},{"poiid":"B2094757D168A5FF439C","title":"奉贤区光明村","lon":"121.516191959","lat":"30.9015928957","category":"500","category_name":"未知分类","address":"上海奉贤区光明村"},{"poiid":"B2094757D168A5FA419D","title":"聚润广场","lon":"121.48834891","lat":"30.923655131","category":"119","category_name":"商场","address":"近郊奉贤望园路(近南郊宾馆)"},{"poiid":"B2094752DB69AAF4439E","title":"蒋记海鲜姿造","lon":"121.488749","lat":"30.916181","category":"247","category_name":"餐饮美食","address":"上海市 望园南路1588弄"},{"poiid":"B2094752DA6FA3F4449F","title":"上海交通大学附属第六医院","lon":"121.489594","lat":"30.917374","category":"162","category_name":"医院","address":"上海市 奉贤区南桥9号"},{"poiid":"B2094654DB68A2F9489C","title":"庙泾新村","lon":"121.4899","lat":"30.917011","category":"47","category_name":"住宅区","address":"庙泾新村"},{"poiid":"B2094757D665A2F4419F","title":"重庆临江门老火锅 百联南桥店","lon":"121.484647","lat":"30.916607","category":"86","category_name":"火锅店","address":"近郊南奉公路8509号百联南桥购物中心南方国际2期广场(避风塘广场对面)"},{"poiid":"B2094750D16BA6FE449B","title":"萨莉亚","lon":"121.484809","lat":"30.91427","category":"247","category_name":"餐饮美食","address":"南桥百联"},{"poiid":"B2094757D06FA2F9499C","title":"百联南桥购物中心","lon":"121.490521","lat":"30.921125","category":"119","category_name":"商场","address":"近郊奉贤南桥镇百齐路588号"},{"poiid":"B2094750DA6EA5FF4092","title":"源泰东南亚风味餐厅","lon":"121.486236","lat":"30.915634","category":"247","category_name":"餐饮美食","address":"近郊奉贤南奉公路8509弄28号南方国际C幢3楼"},{"poiid":"B2094751DA69A0FA469E","title":"上海市奉贤区中心医院","lon":"121.505821","lat":"30.921404","category":"162","category_name":"医院","address":null},{"poiid":"B2094655D26BA1F8419F","title":"南方国际广场","lon":"121.48474","lat":"30.91689","category":"38","category_name":"公交车站","address":"奉贤百兴路78弄"},{"poiid":"B2094654DB6FAAF9459C","title":"上海市奉贤中学(南奉公路)","lon":"121.49721","lat":"30.91976","category":"55","category_name":"中学","address":"近郊奉贤区南桥镇南奉公路7058号(近金海路)"},{"poiid":"B2094655D36CA6FF499B","title":"奉贤中学","lon":"121.50828","lat":"30.92005","category":"55","category_name":"中学","address":""},{"poiid":"B2094753D468ABFE4099","title":"上海市奉贤区中心医院","lon":"121.510375","lat":"30.919408","category":"162","category_name":"医院","address":"上海市 奉贤区南桥镇南奉公路6600号"},{"poiid":"B2094757D568A0FB4292","title":"绿地望海新都","lon":"121.497669","lat":"30.921249","category":"47","category_name":"住宅区","address":"上海市奉贤区望园南路1588弄"},{"poiid":"B2094753D765A4F8459E","title":"奉贤区第六人民医院","lon":"121.50048","lat":"30.919965","category":"162","category_name":"医院","address":"上海市 上海市奉贤区南桥南奉公路6600号"},{"poiid":"B2094750DB65AAFC4299","title":"奉贤中心医院","lon":"121.509864","lat":"30.918455","category":"162","category_name":"医院","address":null},{"poiid":"B2094654DB68A7FC4092","title":"上海南桥国际商业广场","lon":"121.49586","lat":"30.91441","category":"119","category_name":"商场","address":"奉贤南桥镇金海路3399号"},{"poiid":"B2094757D06AA5F94192","title":"许留山（百联）","lon":"121.48467461","lat":"30.914308984","category":"67","category_name":"甜品店","address":"近郊奉贤区南桥镇百齐路588号百联南桥购物中心内(近南桥汽车站)"},{"poiid":"B2094655D26BA1F8419B","title":"南奉公路金钱公路(光明)","lon":"121.51145","lat":"30.92046","category":"38","category_name":"公交车站","address":""},{"poiid":"B2094655D36DA3F44593","title":"光明大桥","lon":"121.50951","lat":"30.9202","category":"250","category_name":"公园户外","address":""},{"poiid":"B2094655D26BA1F84093","title":"南奉公路金海路","lon":"121.49496","lat":"30.9195","category":"38","category_name":"公交车站","address":""},{"poiid":"B2094752DB65A0FF429B","title":"奉贤区中心医院","lon":"121.502019","lat":"30.924127","category":"162","category_name":"医院","address":"上海市 南奉公路6600号"},{"poiid":"B2094757D168ABFE4898","title":"南奉公路金钱公路","lon":"121.51193576","lat":"30.9197794645","category":"500","category_name":"未知分类","address":"上海南奉公路金钱公路"},{"poiid":"B2094757D66BA4FA409B","title":"斗牛士 南桥百联店","lon":"121.485151","lat":"30.912734","category":"94","category_name":"西餐厅","address":"近郊奉贤区南桥镇百齐路588号百联南桥购物中心内(近南桥汽车站)"},{"poiid":"B2094655D26BA2F4489F","title":"浦星公路","lon":"121.51499","lat":"30.9204","category":"38","category_name":"公交车站","address":""},{"poiid":"B2094757D568AAFB489E","title":"斯波妮","lon":"121.50546739","lat":"30.91960612","category":"251","category_name":"出行住宿","address":"南奉公路6565"},{"poiid":"B2094753D66BA1FD469D","title":"上海交通大学附属第六人民医院南院","lon":"121.494728","lat":"30.918348","category":"500","category_name":"未知分类","address":"上海市 上海市奉贤南路6600号"},{"poiid":"B2094750D56EA2F54798","title":"家饰佳奉贤店","lon":"121.510574","lat":"30.920244","category":"249","category_name":"购物服务","address":"南奉公路金钱公路"},{"poiid":"B2094757D66FA2F5449F","title":"大娘水饺","lon":"121.497366916","lat":"30.9110150426","category":"247","category_name":"餐饮美食","address":"上海百联南桥"},{"poiid":"B2094757D66CA2FC4498","title":"中韩晨光文具制造有限公司","lon":"121.516291616","lat":"30.9154841447","category":"263","category_name":"公司","address":"上海市奉贤区光明镇金钱公路3469号"},{"poiid":"B2094655D36CA6FF499A","title":"奉贤中学西门","lon":"121.49479","lat":"30.92075","category":"38","category_name":"公交车站","address":""},{"poiid":"B2094655D26BABFF459E","title":"恒盛湖畔豪庭","lon":"121.498","lat":"30.934","category":"47","category_name":"住宅区","address":"奉贤南桥新城泽丰路89弄(金海路德丰路口)"},{"poiid":"B2094757D568A4FD439E","title":"南桥镇南桥经济园区","lon":"121.49665392","lat":"30.91074002","category":"45","category_name":"产业园区","address":"金海公路3369弄"},{"poiid":"B2094654DB68A2F9489B","title":"上海增由大酒店","lon":"121.49523","lat":"30.91676","category":"214","category_name":"四星级宾馆","address":"金海公路843号"},{"poiid":"B2094757DA6EAAFF479D","title":"上海晨光文具股份有限公司","lon":"121.513077","lat":"30.9202609999998","category":"263","category_name":"公司","address":"奉贤区金钱公路3469号"},{"poiid":"B2094750D56AA4F44693","title":"银河丽湾","lon":"121.49358","lat":"30.91889","category":"47","category_name":"住宅区","address":"上海市奉贤区东至金海路，南至百兴路，西至百富路，北至南奉公路"},{"poiid":"B2094757D664A7F94992","title":"DQ冰雪皇后 南桥百联店 Dairy Queen","lon":"121.484","lat":"30.91554","category":"113","category_name":"冷饮店","address":"近郊奉贤区南桥镇百齐路588号百联南郊购物中心第一食品店1楼"},{"poiid":"B2094753D56BA5FF4799","title":"三宝粥铺","lon":"121.491004","lat":"30.916704","category":"247","category_name":"餐饮美食","address":"上海市 奉贤区南奉公路8509弄南方国际2栋38号"},{"poiid":"B2094654DB68A4F44699","title":"上海奉贤区光明工业园区","lon":"121.50689","lat":"30.90649","category":"45","category_name":"产业园区","address":""},{"poiid":"B2094757D06AA6F5409A","title":"上海工商奉贤分局","lon":"121.48812446","lat":"30.921109373","category":"500","category_name":"未知分类","address":"上海奉贤区解放东路58号"},{"poiid":"B209475CDB6BA6FF4198","title":"Zoo Coffee","lon":"121.487068","lat":"30.915929","category":"500","category_name":"未知分类","address":"上海市 南奉公路8509弄28号1楼C101室C103市南方国际广场(美人鱼休闲街(海豚喷泉旁边)"},{"poiid":"B2094757D16BABF4449D","title":"奉贤南桥","lon":"121.493679916","lat":"30.9205990616","category":"500","category_name":"未知分类","address":"上海市奉贤区南奉公路"},{"poiid":"B2094655D26EAAFD4492","title":"上海梅丽亚晶商务酒店","lon":"121.48593","lat":"30.91632","category":"250","category_name":"公园户外","address":"近郊奉贤区南桥镇南奉公路8505号"},{"poiid":"B2094654DB68A4F4439A","title":"奉贤区光明学校","lon":"121.50856","lat":"30.90602","category":"55","category_name":"中学","address":""},{"poiid":"B2094655D26DA5F44493","title":"上海奉杰汽车销售有限公司","lon":"121.51592","lat":"30.91965","category":"158","category_name":"汽车销售","address":"光明镇南奉公路6001号"},{"poiid":"B2094757D46EABF84092","title":"PANKOO釜山料理 奉贤南桥店","lon":"121.484456","lat":"30.916669","category":"96","category_name":"韩国料理","address":"近郊奉贤区南奉公路8509弄2幢38号3楼"},{"poiid":"B2094654DB68A7FC4093","title":"上海多而好化工市场","lon":"121.49662","lat":"30.91079","category":"255","category_name":"专卖店","address":""},{"poiid":"B2094655D36CA0FF4699","title":"金海路解放东路","lon":"121.4923","lat":"30.92155","category":"38","category_name":"公交车站","address":""},{"poiid":"B2094654DB68A4F44892","title":"光明影剧院","lon":"121.510654","lat":"30.906477","category":"178","category_name":"电影院","address":"光明镇文化路54号"},{"poiid":"B2094757D168A5FF439C","title":"奉贤区光明村","lon":"121.516191959","lat":"30.9015928957","category":"500","category_name":"未知分类","address":"上海奉贤区光明村"},{"poiid":"B2094757D168A5FA419D","title":"聚润广场","lon":"121.48834891","lat":"30.923655131","category":"119","category_name":"商场","address":"近郊奉贤望园路(近南郊宾馆)"},{"poiid":"B2094752DB69AAF4439E","title":"蒋记海鲜姿造","lon":"121.488749","lat":"30.916181","category":"247","category_name":"餐饮美食","address":"上海市 望园南路1588弄"},{"poiid":"B2094752DA6FA3F4449F","title":"上海交通大学附属第六医院","lon":"121.489594","lat":"30.917374","category":"162","category_name":"医院","address":"上海市 奉贤区南桥9号"},{"poiid":"B2094654DB68A2F9489C","title":"庙泾新村","lon":"121.4899","lat":"30.917011","category":"47","category_name":"住宅区","address":"庙泾新村"},{"poiid":"B2094757D665A2F4419F","title":"重庆临江门老火锅 百联南桥店","lon":"121.484647","lat":"30.916607","category":"86","category_name":"火锅店","address":"近郊南奉公路8509号百联南桥购物中心南方国际2期广场(避风塘广场对面)"},{"poiid":"B2094750D16BA6FE449B","title":"萨莉亚","lon":"121.484809","lat":"30.91427","category":"247","category_name":"餐饮美食","address":"南桥百联"}]