[{"poiid":"B2094757D06FABF4449F","title":"上海理工大学(浦东校区)","lon":"121.75110534","lat":"31.051996155","category":"52","category_name":"高等院校","address":"上海浦东新区拱极路3800号"},{"poiid":"B2094757D069A3FE4799","title":"麦当劳 城东路店 McDonald's","lon":"121.7640120153","lat":"31.053221981636","category":"68","category_name":"快餐厅","address":"浦东新区惠南镇城东路378-392号(川南奉公路拱极路)"},{"poiid":"B2094757D06BA0FB479D","title":"小桥流水(南汇店)","lon":"121.76021766","lat":"31.053877983","category":"47","category_name":"住宅区","address":"浦东新区拱极路3028号(近梅花路)"},{"poiid":"B2094757D069A7FD4398","title":"古钟园","lon":"121.7631","lat":"31.05383","category":"196","category_name":"公园","address":"卫星西路11号"},{"poiid":"B2094757D16FA1F8479D","title":"Jepson Bread(人民东路店)","lon":"121.76240236","lat":"31.04960435","category":"67","category_name":"甜品店","address":"浦东新区人民东路2970-2974号(川南奉公路人民东路)"},{"poiid":"B2094757DB6BA4FF499E","title":"芋贵人甜品店 北门大街店","lon":"121.755547","lat":"31.046892","category":"67","category_name":"甜品店","address":"浦东新区北门大街8号(近西门大街)"},{"poiid":"B2094654DB6FA6F9459E","title":"兴东佳苑","lon":"121.75928","lat":"31.053974","category":"47","category_name":"住宅区","address":"上海市南汇区拱极路305弄"},{"poiid":"B2094654DB6FA5FC4193","title":"南汇营业厅","lon":"121.75562","lat":"31.04889","category":"151","category_name":"电讯营业厅","address":"浦东新区惠南镇北门大街86号"},{"poiid":"B2094654DB6FA6F4409C","title":"上海市南汇精神卫生中心","lon":"121.75491","lat":"31.05281","category":"162","category_name":"医院","address":"南汇区惠南镇北门路43号"},{"poiid":"B2094751D36EAAFD429A","title":"江南茶人(拱极路店)","lon":"121.76029","lat":"31.05379","category":"247","category_name":"餐饮美食","address":"浦东新区拱极路3030号(近小桥流水)"},{"poiid":"B2094654DB6FA7FE449D","title":"南汇区卫生学校","lon":"121.75388","lat":"31.05277","category":"52","category_name":"高等院校","address":"拱极路3535"},{"poiid":"B2094654DB6FA5FC4099","title":"桃花源(拱极路)","lon":"121.75619","lat":"31.05378","category":"257","category_name":"中餐厅","address":"惠南镇"},{"poiid":"B2094757D064ABFA4893","title":"欢歌量贩式KTV","lon":"121.75849029","lat":"31.045838816","category":"170","category_name":"KTV","address":"浦东新区人民东路2635弄115号(近靖海路)"},{"poiid":"B2094654DB65AAFA4699","title":"国美电器(南汇二店)","lon":"121.75618","lat":"31.05233","category":"138","category_name":"家电电子卖场","address":"南汇区惠南镇车站路20号"},{"poiid":"B2094654DB6FA6F5499E","title":"桃花源一村","lon":"121.75707","lat":"31.05303","category":"47","category_name":"住宅区","address":"拱极路3335弄1-57号"},{"poiid":"B2094654DB6FA5FF4799","title":"王嫂面馆","lon":"121.75563","lat":"31.04698","category":"257","category_name":"中餐厅","address":"浦东新区惠南镇南门大街道(KFC对面)"},{"poiid":"B2094654DB6FA7FE4492","title":"上海交通大学医学院附属卫生学校南汇分校","lon":"121.75388","lat":"31.05276","category":"52","category_name":"高等院校","address":"拱极路3535"},{"poiid":"B2094752D764A2F54899","title":"海上歌友量贩式KTV","lon":"121.756171","lat":"31.049766","category":"170","category_name":"KTV","address":"人民东路"},{"poiid":"B2094655D265A0F44793","title":"金梅雅苑","lon":"121.75974","lat":"31.053089","category":"47","category_name":"住宅区","address":"浦东新区惠南镇梅花路235弄"},{"poiid":"B2094757D064ABF4409B","title":"爵鼎鸡(人民东路店)","lon":"121.76209021","lat":"31.049771779","category":"68","category_name":"快餐厅","address":"浦东新区惠南镇人民东路2831-2855号"},{"poiid":"B2094655D268A4FC4693","title":"桃花源一村(北门)","lon":"121.75724","lat":"31.05334","category":"47","category_name":"住宅区","address":"拱极路3335弄1-57号"},{"poiid":"B2094757D16BA2F54593","title":"85度C 惠南店","lon":"121.75571","lat":"31.0463","category":"112","category_name":"糕饼店","address":"浦东新区惠南镇南门大街130-132号"},{"poiid":"B2094655D26FAAFE439F","title":"百乐公寓(北门大街)","lon":"121.75612","lat":"31.05049","category":"47","category_name":"住宅区","address":""},{"poiid":"B2094655D26BA2F9439E","title":"桃源一村","lon":"121.75433","lat":"31.05345","category":"38","category_name":"公交车站","address":"拱极路"},{"poiid":"B2094757D16AA0FB409A","title":"日月伴鸡面馆(梅花路店)","lon":"121.76084","lat":"31.054","category":"68","category_name":"快餐厅","address":"浦东新区惠南镇梅花路3号(人民东路)"},{"poiid":"B2094654DB6FA5FD4498","title":"南汇第三中学","lon":"121.75906","lat":"31.05226","category":"55","category_name":"中学","address":"梅花路185"},{"poiid":"B2094654DB64ABF54299","title":"桃园二村(桃花源一村北)","lon":"121.75637","lat":"31.05417","category":"47","category_name":"住宅区","address":""},{"poiid":"B2094757D569A1FE499A","title":"绿地峰汇","lon":"121.755152","lat":"31.046452","category":"47","category_name":"住宅区","address":"上海市浦东新区城南路168号"},{"poiid":"B2094750D06CA7FD429E","title":"浦东新区眼病牙病防治所","lon":"121.754379","lat":"31.052478","category":"252","category_name":"楼宇机构","address":"惠南镇文化路222号"},{"poiid":"B2094752D76CABFA439C","title":"海上歌友","lon":"121.7616057","lat":"31.04935","category":"170","category_name":"KTV","address":"惠南镇南祝路252号"},{"poiid":"B2094757D164ABFD459F","title":"建行大厦","lon":"121.756275","lat":"31.052728","category":"252","category_name":"楼宇机构","address":"上海惠南镇人民西路85号"},{"poiid":"B2094655D36CA6FD429A","title":"拱极路梅花路","lon":"121.75871","lat":"31.05369","category":"38","category_name":"公交车站","address":""},{"poiid":"B2094654DB6FA6FB479D","title":"快客(兴东佳苑西南)","lon":"121.75856","lat":"31.05397","category":"117","category_name":"便民商店/便利店","address":""},{"poiid":"B2094654DB6FA7FE4493","title":"上海市环境学校南汇分部","lon":"121.75388","lat":"31.05277","category":"52","category_name":"高等院校","address":"拱极路3535"},{"poiid":"B2094757D16EA7FF4292","title":"南汇社保中心","lon":"121.75305105","lat":"31.052169425","category":"500","category_name":"未知分类","address":"上海拱极路3623号"},{"poiid":"B2094654DB64A0FA429A","title":"南华医院","lon":"121.75533","lat":"31.05583","category":"162","category_name":"医院","address":"浦东新区南汇县惠南镇城北路71号"},{"poiid":"B2094654DB6FA5FC4698","title":"南汇中心医院门诊部","lon":"121.75875","lat":"31.04906","category":"162","category_name":"医院","address":""},{"poiid":"B2094757D16EA7FB4892","title":"四海游龙(南汇店)","lon":"121.76300048","lat":"31.049600601","category":"68","category_name":"快餐厅","address":"上海近郊南汇区惠南镇城东路745号(隆顺堂大药房对面)  "},{"poiid":"B2094654DB6FA6F4469F","title":"上海工商附小","lon":"121.75405","lat":"31.04948","category":"56","category_name":"小学","address":"为民路9号"},{"poiid":"B2094757D16EAAFA469E","title":"中国建设银行(南汇支行)","lon":"121.75351135","lat":"31.049338762","category":"150","category_name":"银行","address":"浦东新区人民西路85号(近解放路)"},{"poiid":"B2094655D36CA2F94498","title":"人民东路三八路","lon":"121.75898","lat":"31.04895","category":"38","category_name":"公交车站","address":""},{"poiid":"B2094655D268A5F5469D","title":"彩虹新村(西门)","lon":"121.75705","lat":"31.05035","category":"47","category_name":"住宅区","address":""},{"poiid":"B2094654DB6FA6F4469B","title":"南园美食林(人民西路)","lon":"121.75446","lat":"31.04872","category":"76","category_name":"上海菜","address":"浦东新区惠南镇人民西路57号(跃进路人民西路)"},{"poiid":"B2094757DB69A5F8449E","title":"大地影院","lon":"121.75578111","lat":"31.04914921","category":"178","category_name":"电影院","address":"惠南镇乐购"},{"poiid":"B2094654DB6FA6FB4898","title":"东方电影院","lon":"121.755173","lat":"31.048869","category":"178","category_name":"电影院","address":"南汇区人民路2号"},{"poiid":"B2094654DB6FA5FC449F","title":"彩虹新村","lon":"121.75829","lat":"31.050413","category":"47","category_name":"住宅区","address":"工农北路"},{"poiid":"B2094654DB6FA7FE459F","title":"上海理工大学基础学院(拱极路)","lon":"121.75074","lat":"31.05252","category":"52","category_name":"高等院校","address":"拱极路3801"},{"poiid":"B2094654DB6FA6F44298","title":"元祖 惠南镇店 Ganso","lon":"121.755569054","lat":"31.047116793","category":"67","category_name":"甜品店","address":"浦东新区惠南镇北门大街7号(近西门路)"},{"poiid":"B2094654DB6FA5FD439C","title":"好德便利NO.833","lon":"121.76036","lat":"31.05133","category":"117","category_name":"便民商店/便利店","address":"梅花路167"},{"poiid":"B2094654DB6FA4FF4893","title":"上海鼎城","lon":"121.762","lat":"31.0519","category":"119","category_name":"商场","address":"南汇区惠南镇南门大街18号"},{"poiid":"B2094757D06FABF4449F","title":"上海理工大学(浦东校区)","lon":"121.75110534","lat":"31.051996155","category":"52","category_name":"高等院校","address":"上海浦东新区拱极路3800号"},{"poiid":"B2094757D069A3FE4799","title":"麦当劳 城东路店 McDonald's","lon":"121.7640120153","lat":"31.053221981636","category":"68","category_name":"快餐厅","address":"浦东新区惠南镇城东路378-392号(川南奉公路拱极路)"},{"poiid":"B2094757D06BA0FB479D","title":"小桥流水(南汇店)","lon":"121.76021766","lat":"31.053877983","category":"47","category_name":"住宅区","address":"浦东新区拱极路3028号(近梅花路)"},{"poiid":"B2094757D069A7FD4398","title":"古钟园","lon":"121.7631","lat":"31.05383","category":"196","category_name":"公园","address":"卫星西路11号"},{"poiid":"B2094757D16FA1F8479D","title":"Jepson Bread(人民东路店)","lon":"121.76240236","lat":"31.04960435","category":"67","category_name":"甜品店","address":"浦东新区人民东路2970-2974号(川南奉公路人民东路)"},{"poiid":"B2094757DB6BA4FF499E","title":"芋贵人甜品店 北门大街店","lon":"121.755547","lat":"31.046892","category":"67","category_name":"甜品店","address":"浦东新区北门大街8号(近西门大街)"},{"poiid":"B2094654DB6FA6F9459E","title":"兴东佳苑","lon":"121.75928","lat":"31.053974","category":"47","category_name":"住宅区","address":"上海市南汇区拱极路305弄"},{"poiid":"B2094654DB6FA5FC4193","title":"南汇营业厅","lon":"121.75562","lat":"31.04889","category":"151","category_name":"电讯营业厅","address":"浦东新区惠南镇北门大街86号"},{"poiid":"B2094654DB6FA6F4409C","title":"上海市南汇精神卫生中心","lon":"121.75491","lat":"31.05281","category":"162","category_name":"医院","address":"南汇区惠南镇北门路43号"},{"poiid":"B2094751D36EAAFD429A","title":"江南茶人(拱极路店)","lon":"121.76029","lat":"31.05379","category":"247","category_name":"餐饮美食","address":"浦东新区拱极路3030号(近小桥流水)"},{"poiid":"B2094654DB6FA7FE449D","title":"南汇区卫生学校","lon":"121.75388","lat":"31.05277","category":"52","category_name":"高等院校","address":"拱极路3535"},{"poiid":"B2094654DB6FA5FC4099","title":"桃花源(拱极路)","lon":"121.75619","lat":"31.05378","category":"257","category_name":"中餐厅","address":"惠南镇"},{"poiid":"B2094757D064ABFA4893","title":"欢歌量贩式KTV","lon":"121.75849029","lat":"31.045838816","category":"170","category_name":"KTV","address":"浦东新区人民东路2635弄115号(近靖海路)"},{"poiid":"B2094654DB65AAFA4699","title":"国美电器(南汇二店)","lon":"121.75618","lat":"31.05233","category":"138","category_name":"家电电子卖场","address":"南汇区惠南镇车站路20号"},{"poiid":"B2094654DB6FA6F5499E","title":"桃花源一村","lon":"121.75707","lat":"31.05303","category":"47","category_name":"住宅区","address":"拱极路3335弄1-57号"},{"poiid":"B2094654DB6FA5FF4799","title":"王嫂面馆","lon":"121.75563","lat":"31.04698","category":"257","category_name":"中餐厅","address":"浦东新区惠南镇南门大街道(KFC对面)"},{"poiid":"B2094654DB6FA7FE4492","title":"上海交通大学医学院附属卫生学校南汇分校","lon":"121.75388","lat":"31.05276","category":"52","category_name":"高等院校","address":"拱极路3535"},{"poiid":"B2094752D764A2F54899","title":"海上歌友量贩式KTV","lon":"121.756171","lat":"31.049766","category":"170","category_name":"KTV","address":"人民东路"},{"poiid":"B2094655D265A0F44793","title":"金梅雅苑","lon":"121.75974","lat":"31.053089","category":"47","category_name":"住宅区","address":"浦东新区惠南镇梅花路235弄"},{"poiid":"B2094757D064ABF4409B","title":"爵鼎鸡(人民东路店)","lon":"121.76209021","lat":"31.049771779","category":"68","category_name":"快餐厅","address":"浦东新区惠南镇人民东路2831-2855号"},{"poiid":"B2094655D268A4FC4693","title":"桃花源一村(北门)","lon":"121.75724","lat":"31.05334","category":"47","category_name":"住宅区","address":"拱极路3335弄1-57号"},{"poiid":"B2094757D16BA2F54593","title":"85度C 惠南店","lon":"121.75571","lat":"31.0463","category":"112","category_name":"糕饼店","address":"浦东新区惠南镇南门大街130-132号"},{"poiid":"B2094655D26FAAFE439F","title":"百乐公寓(北门大街)","lon":"121.75612","lat":"31.05049","category":"47","category_name":"住宅区","address":""},{"poiid":"B2094655D26BA2F9439E","title":"桃源一村","lon":"121.75433","lat":"31.05345","category":"38","category_name":"公交车站","address":"拱极路"},{"poiid":"B2094757D16AA0FB409A","title":"日月伴鸡面馆(梅花路店)","lon":"121.76084","lat":"31.054","category":"68","category_name":"快餐厅","address":"浦东新区惠南镇梅花路3号(人民东路)"},{"poiid":"B2094654DB6FA5FD4498","title":"南汇第三中学","lon":"121.75906","lat":"31.05226","category":"55","category_name":"中学","address":"梅花路185"},{"poiid":"B2094654DB64ABF54299","title":"桃园二村(桃花源一村北)","lon":"121.75637","lat":"31.05417","category":"47","category_name":"住宅区","address":""},{"poiid":"B2094757D569A1FE499A","title":"绿地峰汇","lon":"121.755152","lat":"31.046452","category":"47","category_name":"住宅区","address":"上海市浦东新区城南路168号"},{"poiid":"B2094750D06CA7FD429E","title":"浦东新区眼病牙病防治所","lon":"121.754379","lat":"31.052478","category":"252","category_name":"楼宇机构","address":"惠南镇文化路222号"},{"poiid":"B2094752D76CABFA439C","title":"海上歌友","lon":"121.7616057","lat":"31.04935","category":"170","category_name":"KTV","address":"惠南镇南祝路252号"},{"poiid":"B2094757D164ABFD459F","title":"建行大厦","lon":"121.756275","lat":"31.052728","category":"252","category_name":"楼宇机构","address":"上海惠南镇人民西路85号"},{"poiid":"B2094655D36CA6FD429A","title":"拱极路梅花路","lon":"121.75871","lat":"31.05369","category":"38","category_name":"公交车站","address":""},{"poiid":"B2094654DB6FA6FB479D","title":"快客(兴东佳苑西南)","lon":"121.75856","lat":"31.05397","category":"117","category_name":"便民商店/便利店","address":""},{"poiid":"B2094654DB6FA7FE4493","title":"上海市环境学校南汇分部","lon":"121.75388","lat":"31.05277","category":"52","category_name":"高等院校","address":"拱极路3535"},{"poiid":"B2094757D16EA7FF4292","title":"南汇社保中心","lon":"121.75305105","lat":"31.052169425","category":"500","category_name":"未知分类","address":"上海拱极路3623号"},{"poiid":"B2094654DB64A0FA429A","title":"南华医院","lon":"121.75533","lat":"31.05583","category":"162","category_name":"医院","address":"浦东新区南汇县惠南镇城北路71号"},{"poiid":"B2094654DB6FA5FC4698","title":"南汇中心医院门诊部","lon":"121.75875","lat":"31.04906","category":"162","category_name":"医院","address":""},{"poiid":"B2094757D16EA7FB4892","title":"四海游龙(南汇店)","lon":"121.76300048","lat":"31.049600601","category":"68","category_name":"快餐厅","address":"上海近郊南汇区惠南镇城东路745号(隆顺堂大药房对面)  "},{"poiid":"B2094654DB6FA6F4469F","title":"上海工商附小","lon":"121.75405","lat":"31.04948","category":"56","category_name":"小学","address":"为民路9号"},{"poiid":"B2094757D16EAAFA469E","title":"中国建设银行(南汇支行)","lon":"121.75351135","lat":"31.049338762","category":"150","category_name":"银行","address":"浦东新区人民西路85号(近解放路)"},{"poiid":"B2094655D36CA2F94498","title":"人民东路三八路","lon":"121.75898","lat":"31.04895","category":"38","category_name":"公交车站","address":""},{"poiid":"B2094655D268A5F5469D","title":"彩虹新村(西门)","lon":"121.75705","lat":"31.05035","category":"47","category_name":"住宅区","address":""},{"poiid":"B2094654DB6FA6F4469B","title":"南园美食林(人民西路)","lon":"121.75446","lat":"31.04872","category":"76","category_name":"上海菜","address":"浦东新区惠南镇人民西路57号(跃进路人民西路)"},{"poiid":"B2094757DB69A5F8449E","title":"大地影院","lon":"121.75578111","lat":"31.04914921","category":"178","category_name":"电影院","address":"惠南镇乐购"},{"poiid":"B2094654DB6FA6FB4898","title":"东方电影院","lon":"121.755173","lat":"31.048869","category":"178","category_name":"电影院","address":"南汇区人民路2号"},{"poiid":"B2094654DB6FA5FC449F","title":"彩虹新村","lon":"121.75829","lat":"31.050413","category":"47","category_name":"住宅区","address":"工农北路"},{"poiid":"B2094654DB6FA7FE459F","title":"上海理工大学基础学院(拱极路)","lon":"121.75074","lat":"31.05252","category":"52","category_name":"高等院校","address":"拱极路3801"},{"poiid":"B2094654DB6FA6F44298","title":"元祖 惠南镇店 Ganso","lon":"121.755569054","lat":"31.047116793","category":"67","category_name":"甜品店","address":"浦东新区惠南镇北门大街7号(近西门路)"},{"poiid":"B2094654DB6FA5FD439C","title":"好德便利NO.833","lon":"121.76036","lat":"31.05133","category":"117","category_name":"便民商店/便利店","address":"梅花路167"},{"poiid":"B2094654DB6FA4FF4893","title":"上海鼎城","lon":"121.762","lat":"31.0519","category":"119","category_name":"商场","address":"南汇区惠南镇南门大街18号"},{"poiid":"B2094757D06FABF4449F","title":"上海理工大学(浦东校区)","lon":"121.75110534","lat":"31.051996155","category":"52","category_name":"高等院校","address":"上海浦东新区拱极路3800号"},{"poiid":"B2094757D069A3FE4799","title":"麦当劳 城东路店 McDonald's","lon":"121.7640120153","lat":"31.053221981636","category":"68","category_name":"快餐厅","address":"浦东新区惠南镇城东路378-392号(川南奉公路拱极路)"},{"poiid":"B2094757D06BA0FB479D","title":"小桥流水(南汇店)","lon":"121.76021766","lat":"31.053877983","category":"47","category_name":"住宅区","address":"浦东新区拱极路3028号(近梅花路)"},{"poiid":"B2094757D069A7FD4398","title":"古钟园","lon":"121.7631","lat":"31.05383","category":"196","category_name":"公园","address":"卫星西路11号"},{"poiid":"B2094757D16FA1F8479D","title":"Jepson Bread(人民东路店)","lon":"121.76240236","lat":"31.04960435","category":"67","category_name":"甜品店","address":"浦东新区人民东路2970-2974号(川南奉公路人民东路)"},{"poiid":"B2094757DB6BA4FF499E","title":"芋贵人甜品店 北门大街店","lon":"121.755547","lat":"31.046892","category":"67","category_name":"甜品店","address":"浦东新区北门大街8号(近西门大街)"},{"poiid":"B2094654DB6FA6F9459E","title":"兴东佳苑","lon":"121.75928","lat":"31.053974","category":"47","category_name":"住宅区","address":"上海市南汇区拱极路305弄"},{"poiid":"B2094654DB6FA5FC4193","title":"南汇营业厅","lon":"121.75562","lat":"31.04889","category":"151","category_name":"电讯营业厅","address":"浦东新区惠南镇北门大街86号"},{"poiid":"B2094654DB6FA6F4409C","title":"上海市南汇精神卫生中心","lon":"121.75491","lat":"31.05281","category":"162","category_name":"医院","address":"南汇区惠南镇北门路43号"},{"poiid":"B2094751D36EAAFD429A","title":"江南茶人(拱极路店)","lon":"121.76029","lat":"31.05379","category":"247","category_name":"餐饮美食","address":"浦东新区拱极路3030号(近小桥流水)"},{"poiid":"B2094654DB6FA7FE449D","title":"南汇区卫生学校","lon":"121.75388","lat":"31.05277","category":"52","category_name":"高等院校","address":"拱极路3535"},{"poiid":"B2094654DB6FA5FC4099","title":"桃花源(拱极路)","lon":"121.75619","lat":"31.05378","category":"257","category_name":"中餐厅","address":"惠南镇"},{"poiid":"B2094757D064ABFA4893","title":"欢歌量贩式KTV","lon":"121.75849029","lat":"31.045838816","category":"170","category_name":"KTV","address":"浦东新区人民东路2635弄115号(近靖海路)"},{"poiid":"B2094654DB65AAFA4699","title":"国美电器(南汇二店)","lon":"121.75618","lat":"31.05233","category":"138","category_name":"家电电子卖场","address":"南汇区惠南镇车站路20号"},{"poiid":"B2094654DB6FA6F5499E","title":"桃花源一村","lon":"121.75707","lat":"31.05303","category":"47","category_name":"住宅区","address":"拱极路3335弄1-57号"},{"poiid":"B2094654DB6FA5FF4799","title":"王嫂面馆","lon":"121.75563","lat":"31.04698","category":"257","category_name":"中餐厅","address":"浦东新区惠南镇南门大街道(KFC对面)"},{"poiid":"B2094654DB6FA7FE4492","title":"上海交通大学医学院附属卫生学校南汇分校","lon":"121.75388","lat":"31.05276","category":"52","category_name":"高等院校","address":"拱极路3535"},{"poiid":"B2094752D764A2F54899","title":"海上歌友量贩式KTV","lon":"121.756171","lat":"31.049766","category":"170","category_name":"KTV","address":"人民东路"},{"poiid":"B2094655D265A0F44793","title":"金梅雅苑","lon":"121.75974","lat":"31.053089","category":"47","category_name":"住宅区","address":"浦东新区惠南镇梅花路235弄"},{"poiid":"B2094757D064ABF4409B","title":"爵鼎鸡(人民东路店)","lon":"121.76209021","lat":"31.049771779","category":"68","category_name":"快餐厅","address":"浦东新区惠南镇人民东路2831-2855号"},{"poiid":"B2094655D268A4FC4693","title":"桃花源一村(北门)","lon":"121.75724","lat":"31.05334","category":"47","category_name":"住宅区","address":"拱极路3335弄1-57号"},{"poiid":"B2094757D16BA2F54593","title":"85度C 惠南店","lon":"121.75571","lat":"31.0463","category":"112","category_name":"糕饼店","address":"浦东新区惠南镇南门大街130-132号"},{"poiid":"B2094655D26FAAFE439F","title":"百乐公寓(北门大街)","lon":"121.75612","lat":"31.05049","category":"47","category_name":"住宅区","address":""},{"poiid":"B2094655D26BA2F9439E","title":"桃源一村","lon":"121.75433","lat":"31.05345","category":"38","category_name":"公交车站","address":"拱极路"},{"poiid":"B2094757D16AA0FB409A","title":"日月伴鸡面馆(梅花路店)","lon":"121.76084","lat":"31.054","category":"68","category_name":"快餐厅","address":"浦东新区惠南镇梅花路3号(人民东路)"},{"poiid":"B2094654DB6FA5FD4498","title":"南汇第三中学","lon":"121.75906","lat":"31.05226","category":"55","category_name":"中学","address":"梅花路185"},{"poiid":"B2094654DB64ABF54299","title":"桃园二村(桃花源一村北)","lon":"121.75637","lat":"31.05417","category":"47","category_name":"住宅区","address":""},{"poiid":"B2094757D569A1FE499A","title":"绿地峰汇","lon":"121.755152","lat":"31.046452","category":"47","category_name":"住宅区","address":"上海市浦东新区城南路168号"},{"poiid":"B2094750D06CA7FD429E","title":"浦东新区眼病牙病防治所","lon":"121.754379","lat":"31.052478","category":"252","category_name":"楼宇机构","address":"惠南镇文化路222号"},{"poiid":"B2094752D76CABFA439C","title":"海上歌友","lon":"121.7616057","lat":"31.04935","category":"170","category_name":"KTV","address":"惠南镇南祝路252号"},{"poiid":"B2094757D164ABFD459F","title":"建行大厦","lon":"121.756275","lat":"31.052728","category":"252","category_name":"楼宇机构","address":"上海惠南镇人民西路85号"},{"poiid":"B2094655D36CA6FD429A","title":"拱极路梅花路","lon":"121.75871","lat":"31.05369","category":"38","category_name":"公交车站","address":""},{"poiid":"B2094654DB6FA6FB479D","title":"快客(兴东佳苑西南)","lon":"121.75856","lat":"31.05397","category":"117","category_name":"便民商店/便利店","address":""},{"poiid":"B2094654DB6FA7FE4493","title":"上海市环境学校南汇分部","lon":"121.75388","lat":"31.05277","category":"52","category_name":"高等院校","address":"拱极路3535"},{"poiid":"B2094757D16EA7FF4292","title":"南汇社保中心","lon":"121.75305105","lat":"31.052169425","category":"500","category_name":"未知分类","address":"上海拱极路3623号"},{"poiid":"B2094654DB64A0FA429A","title":"南华医院","lon":"121.75533","lat":"31.05583","category":"162","category_name":"医院","address":"浦东新区南汇县惠南镇城北路71号"},{"poiid":"B2094654DB6FA5FC4698","title":"南汇中心医院门诊部","lon":"121.75875","lat":"31.04906","category":"162","category_name":"医院","address":""},{"poiid":"B2094757D16EA7FB4892","title":"四海游龙(南汇店)","lon":"121.76300048","lat":"31.049600601","category":"68","category_name":"快餐厅","address":"上海近郊南汇区惠南镇城东路745号(隆顺堂大药房对面)  "},{"poiid":"B2094654DB6FA6F4469F","title":"上海工商附小","lon":"121.75405","lat":"31.04948","category":"56","category_name":"小学","address":"为民路9号"},{"poiid":"B2094757D16EAAFA469E","title":"中国建设银行(南汇支行)","lon":"121.75351135","lat":"31.049338762","category":"150","category_name":"银行","address":"浦东新区人民西路85号(近解放路)"},{"poiid":"B2094655D36CA2F94498","title":"人民东路三八路","lon":"121.75898","lat":"31.04895","category":"38","category_name":"公交车站","address":""},{"poiid":"B2094655D268A5F5469D","title":"彩虹新村(西门)","lon":"121.75705","lat":"31.05035","category":"47","category_name":"住宅区","address":""},{"poiid":"B2094654DB6FA6F4469B","title":"南园美食林(人民西路)","lon":"121.75446","lat":"31.04872","category":"76","category_name":"上海菜","address":"浦东新区惠南镇人民西路57号(跃进路人民西路)"},{"poiid":"B2094757DB69A5F8449E","title":"大地影院","lon":"121.75578111","lat":"31.04914921","category":"178","category_name":"电影院","address":"惠南镇乐购"},{"poiid":"B2094654DB6FA6FB4898","title":"东方电影院","lon":"121.755173","lat":"31.048869","category":"178","category_name":"电影院","address":"南汇区人民路2号"},{"poiid":"B2094654DB6FA5FC449F","title":"彩虹新村","lon":"121.75829","lat":"31.050413","category":"47","category_name":"住宅区","address":"工农北路"},{"poiid":"B2094654DB6FA7FE459F","title":"上海理工大学基础学院(拱极路)","lon":"121.75074","lat":"31.05252","category":"52","category_name":"高等院校","address":"拱极路3801"},{"poiid":"B2094654DB6FA6F44298","title":"元祖 惠南镇店 Ganso","lon":"121.755569054","lat":"31.047116793","category":"67","category_name":"甜品店","address":"浦东新区惠南镇北门大街7号(近西门路)"},{"poiid":"B2094654DB6FA5FD439C","title":"好德便利NO.833","lon":"121.76036","lat":"31.05133","category":"117","category_name":"便民商店/便利店","address":"梅花路167"},{"poiid":"B2094654DB6FA4FF4893","title":"上海鼎城","lon":"121.762","lat":"31.0519","category":"119","category_name":"商场","address":"南汇区惠南镇南门大街18号"},{"poiid":"B2094757D06FABF4449F","title":"上海理工大学(浦东校区)","lon":"121.75110534","lat":"31.051996155","category":"52","category_name":"高等院校","address":"上海浦东新区拱极路3800号"},{"poiid":"B2094757D069A3FE4799","title":"麦当劳 城东路店 McDonald's","lon":"121.7640120153","lat":"31.053221981636","category":"68","category_name":"快餐厅","address":"浦东新区惠南镇城东路378-392号(川南奉公路拱极路)"},{"poiid":"B2094757D06BA0FB479D","title":"小桥流水(南汇店)","lon":"121.76021766","lat":"31.053877983","category":"47","category_name":"住宅区","address":"浦东新区拱极路3028号(近梅花路)"},{"poiid":"B2094757D069A7FD4398","title":"古钟园","lon":"121.7631","lat":"31.05383","category":"196","category_name":"公园","address":"卫星西路11号"},{"poiid":"B2094757D16FA1F8479D","title":"Jepson Bread(人民东路店)","lon":"121.76240236","lat":"31.04960435","category":"67","category_name":"甜品店","address":"浦东新区人民东路2970-2974号(川南奉公路人民东路)"},{"poiid":"B2094757DB6BA4FF499E","title":"芋贵人甜品店 北门大街店","lon":"121.755547","lat":"31.046892","category":"67","category_name":"甜品店","address":"浦东新区北门大街8号(近西门大街)"},{"poiid":"B2094654DB6FA6F9459E","title":"兴东佳苑","lon":"121.75928","lat":"31.053974","category":"47","category_name":"住宅区","address":"上海市南汇区拱极路305弄"},{"poiid":"B2094654DB6FA5FC4193","title":"南汇营业厅","lon":"121.75562","lat":"31.04889","category":"151","category_name":"电讯营业厅","address":"浦东新区惠南镇北门大街86号"},{"poiid":"B2094654DB6FA6F4409C","title":"上海市南汇精神卫生中心","lon":"121.75491","lat":"31.05281","category":"162","category_name":"医院","address":"南汇区惠南镇北门路43号"},{"poiid":"B2094751D36EAAFD429A","title":"江南茶人(拱极路店)","lon":"121.76029","lat":"31.05379","category":"247","category_name":"餐饮美食","address":"浦东新区拱极路3030号(近小桥流水)"},{"poiid":"B2094654DB6FA7FE449D","title":"南汇区卫生学校","lon":"121.75388","lat":"31.05277","category":"52","category_name":"高等院校","address":"拱极路3535"},{"poiid":"B2094654DB6FA5FC4099","title":"桃花源(拱极路)","lon":"121.75619","lat":"31.05378","category":"257","category_name":"中餐厅","address":"惠南镇"},{"poiid":"B2094757D064ABFA4893","title":"欢歌量贩式KTV","lon":"121.75849029","lat":"31.045838816","category":"170","category_name":"KTV","address":"浦东新区人民东路2635弄115号(近靖海路)"},{"poiid":"B2094654DB65AAFA4699","title":"国美电器(南汇二店)","lon":"121.75618","lat":"31.05233","category":"138","category_name":"家电电子卖场","address":"南汇区惠南镇车站路20号"},{"poiid":"B2094654DB6FA6F5499E","title":"桃花源一村","lon":"121.75707","lat":"31.05303","category":"47","category_name":"住宅区","address":"拱极路3335弄1-57号"},{"poiid":"B2094654DB6FA5FF4799","title":"王嫂面馆","lon":"121.75563","lat":"31.04698","category":"257","category_name":"中餐厅","address":"浦东新区惠南镇南门大街道(KFC对面)"},{"poiid":"B2094654DB6FA7FE4492","title":"上海交通大学医学院附属卫生学校南汇分校","lon":"121.75388","lat":"31.05276","category":"52","category_name":"高等院校","address":"拱极路3535"},{"poiid":"B2094752D764A2F54899","title":"海上歌友量贩式KTV","lon":"121.756171","lat":"31.049766","category":"170","category_name":"KTV","address":"人民东路"},{"poiid":"B2094655D265A0F44793","title":"金梅雅苑","lon":"121.75974","lat":"31.053089","category":"47","category_name":"住宅区","address":"浦东新区惠南镇梅花路235弄"},{"poiid":"B2094757D064ABF4409B","title":"爵鼎鸡(人民东路店)","lon":"121.76209021","lat":"31.049771779","category":"68","category_name":"快餐厅","address":"浦东新区惠南镇人民东路2831-2855号"},{"poiid":"B2094655D268A4FC4693","title":"桃花源一村(北门)","lon":"121.75724","lat":"31.05334","category":"47","category_name":"住宅区","address":"拱极路3335弄1-57号"},{"poiid":"B2094757D16BA2F54593","title":"85度C 惠南店","lon":"121.75571","lat":"31.0463","category":"112","category_name":"糕饼店","address":"浦东新区惠南镇南门大街130-132号"},{"poiid":"B2094655D26FAAFE439F","title":"百乐公寓(北门大街)","lon":"121.75612","lat":"31.05049","category":"47","category_name":"住宅区","address":""},{"poiid":"B2094655D26BA2F9439E","title":"桃源一村","lon":"121.75433","lat":"31.05345","category":"38","category_name":"公交车站","address":"拱极路"},{"poiid":"B2094757D16AA0FB409A","title":"日月伴鸡面馆(梅花路店)","lon":"121.76084","lat":"31.054","category":"68","category_name":"快餐厅","address":"浦东新区惠南镇梅花路3号(人民东路)"},{"poiid":"B2094654DB6FA5FD4498","title":"南汇第三中学","lon":"121.75906","lat":"31.05226","category":"55","category_name":"中学","address":"梅花路185"},{"poiid":"B2094654DB64ABF54299","title":"桃园二村(桃花源一村北)","lon":"121.75637","lat":"31.05417","category":"47","category_name":"住宅区","address":""},{"poiid":"B2094757D569A1FE499A","title":"绿地峰汇","lon":"121.755152","lat":"31.046452","category":"47","category_name":"住宅区","address":"上海市浦东新区城南路168号"},{"poiid":"B2094750D06CA7FD429E","title":"浦东新区眼病牙病防治所","lon":"121.754379","lat":"31.052478","category":"252","category_name":"楼宇机构","address":"惠南镇文化路222号"},{"poiid":"B2094752D76CABFA439C","title":"海上歌友","lon":"121.7616057","lat":"31.04935","category":"170","category_name":"KTV","address":"惠南镇南祝路252号"},{"poiid":"B2094757D164ABFD459F","title":"建行大厦","lon":"121.756275","lat":"31.052728","category":"252","category_name":"楼宇机构","address":"上海惠南镇人民西路85号"},{"poiid":"B2094655D36CA6FD429A","title":"拱极路梅花路","lon":"121.75871","lat":"31.05369","category":"38","category_name":"公交车站","address":""},{"poiid":"B2094654DB6FA6FB479D","title":"快客(兴东佳苑西南)","lon":"121.75856","lat":"31.05397","category":"117","category_name":"便民商店/便利店","address":""},{"poiid":"B2094654DB6FA7FE4493","title":"上海市环境学校南汇分部","lon":"121.75388","lat":"31.05277","category":"52","category_name":"高等院校","address":"拱极路3535"},{"poiid":"B2094757D16EA7FF4292","title":"南汇社保中心","lon":"121.75305105","lat":"31.052169425","category":"500","category_name":"未知分类","address":"上海拱极路3623号"},{"poiid":"B2094654DB64A0FA429A","title":"南华医院","lon":"121.75533","lat":"31.05583","category":"162","category_name":"医院","address":"浦东新区南汇县惠南镇城北路71号"},{"poiid":"B2094654DB6FA5FC4698","title":"南汇中心医院门诊部","lon":"121.75875","lat":"31.04906","category":"162","category_name":"医院","address":""},{"poiid":"B2094757D16EA7FB4892","title":"四海游龙(南汇店)","lon":"121.76300048","lat":"31.049600601","category":"68","category_name":"快餐厅","address":"上海近郊南汇区惠南镇城东路745号(隆顺堂大药房对面)  "},{"poiid":"B2094654DB6FA6F4469F","title":"上海工商附小","lon":"121.75405","lat":"31.04948","category":"56","category_name":"小学","address":"为民路9号"},{"poiid":"B2094757D16EAAFA469E","title":"中国建设银行(南汇支行)","lon":"121.75351135","lat":"31.049338762","category":"150","category_name":"银行","address":"浦东新区人民西路85号(近解放路)"},{"poiid":"B2094655D36CA2F94498","title":"人民东路三八路","lon":"121.75898","lat":"31.04895","category":"38","category_name":"公交车站","address":""},{"poiid":"B2094655D268A5F5469D","title":"彩虹新村(西门)","lon":"121.75705","lat":"31.05035","category":"47","category_name":"住宅区","address":""},{"poiid":"B2094654DB6FA6F4469B","title":"南园美食林(人民西路)","lon":"121.75446","lat":"31.04872","category":"76","category_name":"上海菜","address":"浦东新区惠南镇人民西路57号(跃进路人民西路)"},{"poiid":"B2094757DB69A5F8449E","title":"大地影院","lon":"121.75578111","lat":"31.04914921","category":"178","category_name":"电影院","address":"惠南镇乐购"},{"poiid":"B2094654DB6FA6FB4898","title":"东方电影院","lon":"121.755173","lat":"31.048869","category":"178","category_name":"电影院","address":"南汇区人民路2号"},{"poiid":"B2094654DB6FA5FC449F","title":"彩虹新村","lon":"121.75829","lat":"31.050413","category":"47","category_name":"住宅区","address":"工农北路"},{"poiid":"B2094654DB6FA7FE459F","title":"上海理工大学基础学院(拱极路)","lon":"121.75074","lat":"31.05252","category":"52","category_name":"高等院校","address":"拱极路3801"},{"poiid":"B2094654DB6FA6F44298","title":"元祖 惠南镇店 Ganso","lon":"121.755569054","lat":"31.047116793","category":"67","category_name":"甜品店","address":"浦东新区惠南镇北门大街7号(近西门路)"},{"poiid":"B2094654DB6FA5FD439C","title":"好德便利NO.833","lon":"121.76036","lat":"31.05133","category":"117","category_name":"便民商店/便利店","address":"梅花路167"},{"poiid":"B2094654DB6FA4FF4893","title":"上海鼎城","lon":"121.762","lat":"31.0519","category":"119","category_name":"商场","address":"南汇区惠南镇南门大街18号"}]