[{"poiid":"B2094654D46BABFF4398","title":"古猗园","lon":"121.31596","lat":"31.29164","category":"240","category_name":"国家级景点","address":"嘉定区南翔镇沪宜路218号"},{"poiid":"B2094757D06EAAF5419F","title":"南翔漪园小笼馆","lon":"121.314494054","lat":"31.292691793","category":"68","category_name":"快餐厅","address":"嘉定区南翔镇古漪园路288号(近古漪园北门)"},{"poiid":"B2094757D06EAAFE419C","title":"南翔地铁站","lon":"121.32427277","lat":"31.297083592","category":"36","category_name":"地铁站","address":"上海轨道交通 十一号线 轨交南翔站 11"},{"poiid":"B2094757D06FA3FD479A","title":"南翔老街","lon":"121.30948","lat":"31.291","category":"260","category_name":"其他","address":"上海近郊嘉定区南翔镇德华路(近共和街)  "},{"poiid":"B2094757D06FAAFF459B","title":"古猗园餐厅","lon":"121.31639","lat":"31.29069","category":"68","category_name":"快餐厅","address":"嘉定区南翔镇沪宜公路218号古猗园南大门(古猗园路沪宜公路)"},{"poiid":"B2094757D06FA2F8499E","title":"南翔镇","lon":"121.32083892","lat":"31.293945312","category":"260","category_name":"其他","address":"上海嘉定区南翔镇"},{"poiid":"B2094654D46BA4FE4393","title":"南翔小笼(古猗园路)","lon":"121.31492","lat":"31.2904","category":"257","category_name":"中餐厅","address":""},{"poiid":"B2094757D06FA2FC479B","title":"金地格林世界","lon":"121.32311061","lat":"31.298570324","category":"47","category_name":"住宅区","address":"嘉定区南翔镇瑞林路68号(沪嘉高速丰翔路路口)"},{"poiid":"B2094654DB69A6FE489F","title":"古漪园","lon":"121.31603","lat":"31.29213","category":"196","category_name":"公园","address":"上海市嘉定区沪宜公路218号"},{"poiid":"B2094757D06AA5FF449C","title":"南翔北站","lon":"121.31378555","lat":"31.282248503","category":"22","category_name":"火车站","address":"上海银翔路,沪宁高铁,南翔北站"},{"poiid":"B2094750D26BA7F9429A","title":"南翔医院","lon":"121.317955","lat":"31.290615","category":"162","category_name":"医院","address":"众仁路495号"},{"poiid":"B2094751DA6EA7F5479C","title":"星巴克南翔祥腾广场店","lon":"121.3228","lat":"31.296463","category":"247","category_name":"餐饮美食","address":"嘉定区佳通路31弄3号中冶翔腾城市广场2楼(近11号线南翔站)"},{"poiid":"B2094655D264A2F5459E","title":"南翔古镇","lon":"121.31557","lat":"31.2895","category":"250","category_name":"公园户外","address":"嘉定区南翔镇人民街(生产街南华路间)"},{"poiid":"B2094655D26BA1FE499A","title":"南翔","lon":"121.30975","lat":"31.28663","category":"38","category_name":"公交车站","address":""},{"poiid":"B2094757D16CA0F54793","title":"祥源府邸","lon":"121.31923252","lat":"31.287508716","category":"47","category_name":"住宅区","address":"上海嘉定区南翔镇金通路1788弄"},{"poiid":"B2094750D66CAAFA409E","title":"超级玛丽","lon":"121.320045","lat":"31.289876","category":"248","category_name":"生活娱乐","address":"沪宜公路155号2弄3F"},{"poiid":"B2094757D06FA3FD4799","title":"S5沪嘉高速南翔收费站","lon":"121.325303892","lat":"31.2968820244","category":"267","category_name":"收费站","address":"上海S5沪嘉高速南翔收费站(近丰翔路)"},{"poiid":"B2094654DB69A6FE439C","title":"金地格林春晓","lon":"121.32337","lat":"31.29254","category":"47","category_name":"住宅区","address":"上海市嘉定区真南路4233号"},{"poiid":"B2094654DB65A4FD419A","title":"南翔医院","lon":"121.31098","lat":"31.29164","category":"162","category_name":"医院","address":"嘉定区南翔镇众仁路495号(近真南路)"},{"poiid":"B2094757D66DAAFC4398","title":"韩苑烧烤","lon":"121.321391825","lat":"31.2880021264","category":"247","category_name":"餐饮美食","address":"上海市闵行区保乐路634号"},{"poiid":"B2094654D46BA4FE4892","title":"泰煌火锅(翔黄公路)","lon":"121.30815","lat":"31.28604","category":"86","category_name":"火锅店","address":"嘉定区南翔镇沪宜公路653号"},{"poiid":"B2094654D46BABFE489C","title":"同盛公寓","lon":"121.31451","lat":"31.29105","category":"47","category_name":"住宅区","address":"上海市普陀区宁夏路335号"},{"poiid":"B2094757D16DA0F4409D","title":"西郊庄园国际CLUB","lon":"121.32139182","lat":"31.288002126","category":"500","category_name":"未知分类","address":"上海闵行区华漕镇金丰路588弄  "},{"poiid":"B2094757D069A2FE4792","title":"肯德基 KFC (南翔店)","lon":"121.308648","lat":"31.29012","category":"68","category_name":"快餐厅","address":"嘉定区南翔镇解放街160号(南翔解放街民主街)"},{"poiid":"B2094757D664A3FF4193","title":"兰森酒楼","lon":"121.3148692","lat":"31.2908675","category":"76","category_name":"上海菜","address":"南翔镇古猗园路291-295近沪宜公路"},{"poiid":"B2094757D06AAAFF439F","title":"嘉定二中","lon":"121.31111145","lat":"31.2952690125","category":"55","category_name":"中学","address":"嘉定区德华路388号"},{"poiid":"B2094750D76CA5FC4498","title":"锦泰酒店","lon":"121.316","lat":"31.2886","category":"76","category_name":"上海菜","address":"嘉定区南翔镇古漪园路283-287号(近古漪园)"},{"poiid":"B2094654DB69A5F54493","title":"格林豪泰酒店(南翔店)","lon":"121.32161","lat":"31.29403","category":"216","category_name":"经济型连锁酒店","address":"普陀区众仁路与真南路交叉口(南翔镇政府斜对面)"},{"poiid":"B2094655D36DA1FC489C","title":"古猗桥","lon":"121.31886","lat":"31.28626","category":"250","category_name":"公园户外","address":""},{"poiid":"B2094757D464A0FA419F","title":"古龙饭庄","lon":"121.315867054","lat":"31.289932793","category":"76","category_name":"上海菜","address":"嘉定区南翔镇沪宜公路281号古猗园内(近路沪宜公路)"},{"poiid":"B2094752D56DA4FD469B","title":"荷泰东南亚风味餐厅","lon":"121.317225","lat":"31.297102","category":"247","category_name":"餐饮美食","address":"中冶祥腾广场"},{"poiid":"B2094751D36AA7F54692","title":"乐沪阁","lon":"121.3185","lat":"31.29185","category":"96","category_name":"韩国料理","address":"嘉定区沪宜公路99弄"},{"poiid":"B2094757D568AAFF499D","title":"米兰咖啡","lon":"121.3159631","lat":"31.29164611","category":"65","category_name":"咖啡厅","address":"嘉定区南翔镇沪宜公路281号古猗园旁(沪宜公路口)"},{"poiid":"B2094654D46BA4FE4499","title":"百年老店南翔小笼","lon":"121.3154","lat":"31.29042","category":"257","category_name":"中餐厅","address":""},{"poiid":"B2094752D368A1FF409F","title":"捞王猪肚鸡","lon":"121.322586","lat":"31.294815","category":"247","category_name":"餐饮美食","address":"上海市嘉定区南翔镇中冶翔腾城市广场二楼"},{"poiid":"B2094655D36DA1FC489D","title":"银翔桥","lon":"121.32209","lat":"31.29034","category":"250","category_name":"公园户外","address":""},{"poiid":"B2094654D46BA5FC429E","title":"南翔汽车站","lon":"121.31595","lat":"31.2896","category":"35","category_name":"长途汽车站","address":"嘉定区古猗园路(古猗园路民主街)"},{"poiid":"B2094757D164AAF44699","title":"银翔新村","lon":"121.316108925","lat":"31.2864110934","category":"252","category_name":"楼宇机构","address":"上海市嘉定区南翔镇古漪园路125弄"},{"poiid":"B2094654D46BA4FE449F","title":"百年老店南翔小笼专卖店","lon":"121.31503","lat":"31.29101","category":"257","category_name":"中餐厅","address":"嘉定区民主东路344号"},{"poiid":"B2094654DB65A0F8469C","title":"锦江之星(南翔店)","lon":"121.31021","lat":"31.28772","category":"216","category_name":"经济型连锁酒店","address":"嘉定区南翔镇解放街25号(近南翔古猗园)"},{"poiid":"B2094757D66CAAFA449B","title":"古猗庄园,南翔","lon":"121.31595554","lat":"31.291649314","category":"247","category_name":"餐饮美食","address":"上海真南路3911号"},{"poiid":"B2094757D064A2F94998","title":"韩美轩","lon":"121.314423875","lat":"31.291407057","category":"500","category_name":"未知分类","address":"嘉定区南翔镇古漪园路303号(沪宜公路众仁路)"},{"poiid":"B2094757D16AA2FC4093","title":"蓝森酒楼","lon":"121.31615272","lat":"31.290897986","category":"247","category_name":"餐饮美食","address":"上海近郊嘉定区南翔镇古猗园路291号(近古猗园)  "},{"poiid":"B2094654D46BA6F54493","title":"南祥成人教育中心","lon":"121.32575","lat":"31.2892","category":"53","category_name":"成人教育","address":"众仁路385号"},{"poiid":"B2094750D56FA0FB479A","title":"上海铁路局培训基地","lon":"121.315765","lat":"31.289081","category":"500","category_name":"未知分类","address":null},{"poiid":"B2094750D664A1F4489C","title":"鹤翔知青美食","lon":"121.315","lat":"31.2896","category":"82","category_name":"东北菜","address":"嘉定区沪宜公路242号(古猗园路口)"},{"poiid":"B2094654D46BA4FF429C","title":"南华小区","lon":"121.30824","lat":"31.288046","category":"47","category_name":"住宅区","address":"南华路101弄1-56号"},{"poiid":"B2094655D36DA7F9469F","title":"众仁路真南路","lon":"121.32278","lat":"31.2931","category":"38","category_name":"公交车站","address":""},{"poiid":"B2094757D16DA3FA4499","title":"老街汤团(南翔店)","lon":"121.32111","lat":"31.29367","category":"257","category_name":"中餐厅","address":"上海近郊嘉定区南翔人民街41号  "},{"poiid":"B2094757D568AAFB4099","title":"南翔镇南华路、民主街解放街","lon":"121.31572","lat":"31.29648","category":"47","category_name":"住宅区","address":"上海市嘉定区南翔镇民主街224号"},{"poiid":"B2094654D46BABFF4398","title":"古猗园","lon":"121.31596","lat":"31.29164","category":"240","category_name":"国家级景点","address":"嘉定区南翔镇沪宜路218号"},{"poiid":"B2094757D06EAAF5419F","title":"南翔漪园小笼馆","lon":"121.314494054","lat":"31.292691793","category":"68","category_name":"快餐厅","address":"嘉定区南翔镇古漪园路288号(近古漪园北门)"},{"poiid":"B2094757D06EAAFE419C","title":"南翔地铁站","lon":"121.32427277","lat":"31.297083592","category":"36","category_name":"地铁站","address":"上海轨道交通 十一号线 轨交南翔站 11"},{"poiid":"B2094757D06FA3FD479A","title":"南翔老街","lon":"121.30948","lat":"31.291","category":"260","category_name":"其他","address":"上海近郊嘉定区南翔镇德华路(近共和街)  "},{"poiid":"B2094757D06FAAFF459B","title":"古猗园餐厅","lon":"121.31639","lat":"31.29069","category":"68","category_name":"快餐厅","address":"嘉定区南翔镇沪宜公路218号古猗园南大门(古猗园路沪宜公路)"},{"poiid":"B2094757D06FA2F8499E","title":"南翔镇","lon":"121.32083892","lat":"31.293945312","category":"260","category_name":"其他","address":"上海嘉定区南翔镇"},{"poiid":"B2094654D46BA4FE4393","title":"南翔小笼(古猗园路)","lon":"121.31492","lat":"31.2904","category":"257","category_name":"中餐厅","address":""},{"poiid":"B2094757D06FA2FC479B","title":"金地格林世界","lon":"121.32311061","lat":"31.298570324","category":"47","category_name":"住宅区","address":"嘉定区南翔镇瑞林路68号(沪嘉高速丰翔路路口)"},{"poiid":"B2094654DB69A6FE489F","title":"古漪园","lon":"121.31603","lat":"31.29213","category":"196","category_name":"公园","address":"上海市嘉定区沪宜公路218号"},{"poiid":"B2094757D06AA5FF449C","title":"南翔北站","lon":"121.31378555","lat":"31.282248503","category":"22","category_name":"火车站","address":"上海银翔路,沪宁高铁,南翔北站"},{"poiid":"B2094750D26BA7F9429A","title":"南翔医院","lon":"121.317955","lat":"31.290615","category":"162","category_name":"医院","address":"众仁路495号"},{"poiid":"B2094751DA6EA7F5479C","title":"星巴克南翔祥腾广场店","lon":"121.3228","lat":"31.296463","category":"247","category_name":"餐饮美食","address":"嘉定区佳通路31弄3号中冶翔腾城市广场2楼(近11号线南翔站)"},{"poiid":"B2094655D264A2F5459E","title":"南翔古镇","lon":"121.31557","lat":"31.2895","category":"250","category_name":"公园户外","address":"嘉定区南翔镇人民街(生产街南华路间)"},{"poiid":"B2094655D26BA1FE499A","title":"南翔","lon":"121.30975","lat":"31.28663","category":"38","category_name":"公交车站","address":""},{"poiid":"B2094757D16CA0F54793","title":"祥源府邸","lon":"121.31923252","lat":"31.287508716","category":"47","category_name":"住宅区","address":"上海嘉定区南翔镇金通路1788弄"},{"poiid":"B2094750D66CAAFA409E","title":"超级玛丽","lon":"121.320045","lat":"31.289876","category":"248","category_name":"生活娱乐","address":"沪宜公路155号2弄3F"},{"poiid":"B2094757D06FA3FD4799","title":"S5沪嘉高速南翔收费站","lon":"121.325303892","lat":"31.2968820244","category":"267","category_name":"收费站","address":"上海S5沪嘉高速南翔收费站(近丰翔路)"},{"poiid":"B2094654DB69A6FE439C","title":"金地格林春晓","lon":"121.32337","lat":"31.29254","category":"47","category_name":"住宅区","address":"上海市嘉定区真南路4233号"},{"poiid":"B2094654DB65A4FD419A","title":"南翔医院","lon":"121.31098","lat":"31.29164","category":"162","category_name":"医院","address":"嘉定区南翔镇众仁路495号(近真南路)"},{"poiid":"B2094757D66DAAFC4398","title":"韩苑烧烤","lon":"121.321391825","lat":"31.2880021264","category":"247","category_name":"餐饮美食","address":"上海市闵行区保乐路634号"},{"poiid":"B2094654D46BA4FE4892","title":"泰煌火锅(翔黄公路)","lon":"121.30815","lat":"31.28604","category":"86","category_name":"火锅店","address":"嘉定区南翔镇沪宜公路653号"},{"poiid":"B2094654D46BABFE489C","title":"同盛公寓","lon":"121.31451","lat":"31.29105","category":"47","category_name":"住宅区","address":"上海市普陀区宁夏路335号"},{"poiid":"B2094757D16DA0F4409D","title":"西郊庄园国际CLUB","lon":"121.32139182","lat":"31.288002126","category":"500","category_name":"未知分类","address":"上海闵行区华漕镇金丰路588弄  "},{"poiid":"B2094757D069A2FE4792","title":"肯德基 KFC (南翔店)","lon":"121.308648","lat":"31.29012","category":"68","category_name":"快餐厅","address":"嘉定区南翔镇解放街160号(南翔解放街民主街)"},{"poiid":"B2094757D664A3FF4193","title":"兰森酒楼","lon":"121.3148692","lat":"31.2908675","category":"76","category_name":"上海菜","address":"南翔镇古猗园路291-295近沪宜公路"},{"poiid":"B2094757D06AAAFF439F","title":"嘉定二中","lon":"121.31111145","lat":"31.2952690125","category":"55","category_name":"中学","address":"嘉定区德华路388号"},{"poiid":"B2094750D76CA5FC4498","title":"锦泰酒店","lon":"121.316","lat":"31.2886","category":"76","category_name":"上海菜","address":"嘉定区南翔镇古漪园路283-287号(近古漪园)"},{"poiid":"B2094654DB69A5F54493","title":"格林豪泰酒店(南翔店)","lon":"121.32161","lat":"31.29403","category":"216","category_name":"经济型连锁酒店","address":"普陀区众仁路与真南路交叉口(南翔镇政府斜对面)"},{"poiid":"B2094655D36DA1FC489C","title":"古猗桥","lon":"121.31886","lat":"31.28626","category":"250","category_name":"公园户外","address":""},{"poiid":"B2094757D464A0FA419F","title":"古龙饭庄","lon":"121.315867054","lat":"31.289932793","category":"76","category_name":"上海菜","address":"嘉定区南翔镇沪宜公路281号古猗园内(近路沪宜公路)"},{"poiid":"B2094752D56DA4FD469B","title":"荷泰东南亚风味餐厅","lon":"121.317225","lat":"31.297102","category":"247","category_name":"餐饮美食","address":"中冶祥腾广场"},{"poiid":"B2094751D36AA7F54692","title":"乐沪阁","lon":"121.3185","lat":"31.29185","category":"96","category_name":"韩国料理","address":"嘉定区沪宜公路99弄"},{"poiid":"B2094757D568AAFF499D","title":"米兰咖啡","lon":"121.3159631","lat":"31.29164611","category":"65","category_name":"咖啡厅","address":"嘉定区南翔镇沪宜公路281号古猗园旁(沪宜公路口)"},{"poiid":"B2094654D46BA4FE4499","title":"百年老店南翔小笼","lon":"121.3154","lat":"31.29042","category":"257","category_name":"中餐厅","address":""},{"poiid":"B2094752D368A1FF409F","title":"捞王猪肚鸡","lon":"121.322586","lat":"31.294815","category":"247","category_name":"餐饮美食","address":"上海市嘉定区南翔镇中冶翔腾城市广场二楼"},{"poiid":"B2094655D36DA1FC489D","title":"银翔桥","lon":"121.32209","lat":"31.29034","category":"250","category_name":"公园户外","address":""},{"poiid":"B2094654D46BA5FC429E","title":"南翔汽车站","lon":"121.31595","lat":"31.2896","category":"35","category_name":"长途汽车站","address":"嘉定区古猗园路(古猗园路民主街)"},{"poiid":"B2094757D164AAF44699","title":"银翔新村","lon":"121.316108925","lat":"31.2864110934","category":"252","category_name":"楼宇机构","address":"上海市嘉定区南翔镇古漪园路125弄"},{"poiid":"B2094654D46BA4FE449F","title":"百年老店南翔小笼专卖店","lon":"121.31503","lat":"31.29101","category":"257","category_name":"中餐厅","address":"嘉定区民主东路344号"},{"poiid":"B2094654DB65A0F8469C","title":"锦江之星(南翔店)","lon":"121.31021","lat":"31.28772","category":"216","category_name":"经济型连锁酒店","address":"嘉定区南翔镇解放街25号(近南翔古猗园)"},{"poiid":"B2094757D66CAAFA449B","title":"古猗庄园,南翔","lon":"121.31595554","lat":"31.291649314","category":"247","category_name":"餐饮美食","address":"上海真南路3911号"},{"poiid":"B2094757D064A2F94998","title":"韩美轩","lon":"121.314423875","lat":"31.291407057","category":"500","category_name":"未知分类","address":"嘉定区南翔镇古漪园路303号(沪宜公路众仁路)"},{"poiid":"B2094757D16AA2FC4093","title":"蓝森酒楼","lon":"121.31615272","lat":"31.290897986","category":"247","category_name":"餐饮美食","address":"上海近郊嘉定区南翔镇古猗园路291号(近古猗园)  "},{"poiid":"B2094654D46BA6F54493","title":"南祥成人教育中心","lon":"121.32575","lat":"31.2892","category":"53","category_name":"成人教育","address":"众仁路385号"},{"poiid":"B2094750D56FA0FB479A","title":"上海铁路局培训基地","lon":"121.315765","lat":"31.289081","category":"500","category_name":"未知分类","address":null},{"poiid":"B2094750D664A1F4489C","title":"鹤翔知青美食","lon":"121.315","lat":"31.2896","category":"82","category_name":"东北菜","address":"嘉定区沪宜公路242号(古猗园路口)"},{"poiid":"B2094654D46BA4FF429C","title":"南华小区","lon":"121.30824","lat":"31.288046","category":"47","category_name":"住宅区","address":"南华路101弄1-56号"},{"poiid":"B2094655D36DA7F9469F","title":"众仁路真南路","lon":"121.32278","lat":"31.2931","category":"38","category_name":"公交车站","address":""},{"poiid":"B2094757D16DA3FA4499","title":"老街汤团(南翔店)","lon":"121.32111","lat":"31.29367","category":"257","category_name":"中餐厅","address":"上海近郊嘉定区南翔人民街41号  "},{"poiid":"B2094757D568AAFB4099","title":"南翔镇南华路、民主街解放街","lon":"121.31572","lat":"31.29648","category":"47","category_name":"住宅区","address":"上海市嘉定区南翔镇民主街224号"},{"poiid":"B2094654D46BABFF4398","title":"古猗园","lon":"121.31596","lat":"31.29164","category":"240","category_name":"国家级景点","address":"嘉定区南翔镇沪宜路218号"},{"poiid":"B2094757D06EAAF5419F","title":"南翔漪园小笼馆","lon":"121.314494054","lat":"31.292691793","category":"68","category_name":"快餐厅","address":"嘉定区南翔镇古漪园路288号(近古漪园北门)"},{"poiid":"B2094757D06EAAFE419C","title":"南翔地铁站","lon":"121.32427277","lat":"31.297083592","category":"36","category_name":"地铁站","address":"上海轨道交通 十一号线 轨交南翔站 11"},{"poiid":"B2094757D06FA3FD479A","title":"南翔老街","lon":"121.30948","lat":"31.291","category":"260","category_name":"其他","address":"上海近郊嘉定区南翔镇德华路(近共和街)  "},{"poiid":"B2094757D06FAAFF459B","title":"古猗园餐厅","lon":"121.31639","lat":"31.29069","category":"68","category_name":"快餐厅","address":"嘉定区南翔镇沪宜公路218号古猗园南大门(古猗园路沪宜公路)"},{"poiid":"B2094757D06FA2F8499E","title":"南翔镇","lon":"121.32083892","lat":"31.293945312","category":"260","category_name":"其他","address":"上海嘉定区南翔镇"},{"poiid":"B2094654D46BA4FE4393","title":"南翔小笼(古猗园路)","lon":"121.31492","lat":"31.2904","category":"257","category_name":"中餐厅","address":""},{"poiid":"B2094757D06FA2FC479B","title":"金地格林世界","lon":"121.32311061","lat":"31.298570324","category":"47","category_name":"住宅区","address":"嘉定区南翔镇瑞林路68号(沪嘉高速丰翔路路口)"},{"poiid":"B2094654DB69A6FE489F","title":"古漪园","lon":"121.31603","lat":"31.29213","category":"196","category_name":"公园","address":"上海市嘉定区沪宜公路218号"},{"poiid":"B2094757D06AA5FF449C","title":"南翔北站","lon":"121.31378555","lat":"31.282248503","category":"22","category_name":"火车站","address":"上海银翔路,沪宁高铁,南翔北站"},{"poiid":"B2094750D26BA7F9429A","title":"南翔医院","lon":"121.317955","lat":"31.290615","category":"162","category_name":"医院","address":"众仁路495号"},{"poiid":"B2094751DA6EA7F5479C","title":"星巴克南翔祥腾广场店","lon":"121.3228","lat":"31.296463","category":"247","category_name":"餐饮美食","address":"嘉定区佳通路31弄3号中冶翔腾城市广场2楼(近11号线南翔站)"},{"poiid":"B2094655D264A2F5459E","title":"南翔古镇","lon":"121.31557","lat":"31.2895","category":"250","category_name":"公园户外","address":"嘉定区南翔镇人民街(生产街南华路间)"},{"poiid":"B2094655D26BA1FE499A","title":"南翔","lon":"121.30975","lat":"31.28663","category":"38","category_name":"公交车站","address":""},{"poiid":"B2094757D16CA0F54793","title":"祥源府邸","lon":"121.31923252","lat":"31.287508716","category":"47","category_name":"住宅区","address":"上海嘉定区南翔镇金通路1788弄"},{"poiid":"B2094750D66CAAFA409E","title":"超级玛丽","lon":"121.320045","lat":"31.289876","category":"248","category_name":"生活娱乐","address":"沪宜公路155号2弄3F"},{"poiid":"B2094757D06FA3FD4799","title":"S5沪嘉高速南翔收费站","lon":"121.325303892","lat":"31.2968820244","category":"267","category_name":"收费站","address":"上海S5沪嘉高速南翔收费站(近丰翔路)"},{"poiid":"B2094654DB69A6FE439C","title":"金地格林春晓","lon":"121.32337","lat":"31.29254","category":"47","category_name":"住宅区","address":"上海市嘉定区真南路4233号"},{"poiid":"B2094654DB65A4FD419A","title":"南翔医院","lon":"121.31098","lat":"31.29164","category":"162","category_name":"医院","address":"嘉定区南翔镇众仁路495号(近真南路)"},{"poiid":"B2094757D66DAAFC4398","title":"韩苑烧烤","lon":"121.321391825","lat":"31.2880021264","category":"247","category_name":"餐饮美食","address":"上海市闵行区保乐路634号"},{"poiid":"B2094654D46BA4FE4892","title":"泰煌火锅(翔黄公路)","lon":"121.30815","lat":"31.28604","category":"86","category_name":"火锅店","address":"嘉定区南翔镇沪宜公路653号"},{"poiid":"B2094654D46BABFE489C","title":"同盛公寓","lon":"121.31451","lat":"31.29105","category":"47","category_name":"住宅区","address":"上海市普陀区宁夏路335号"},{"poiid":"B2094757D16DA0F4409D","title":"西郊庄园国际CLUB","lon":"121.32139182","lat":"31.288002126","category":"500","category_name":"未知分类","address":"上海闵行区华漕镇金丰路588弄  "},{"poiid":"B2094757D069A2FE4792","title":"肯德基 KFC (南翔店)","lon":"121.308648","lat":"31.29012","category":"68","category_name":"快餐厅","address":"嘉定区南翔镇解放街160号(南翔解放街民主街)"},{"poiid":"B2094757D664A3FF4193","title":"兰森酒楼","lon":"121.3148692","lat":"31.2908675","category":"76","category_name":"上海菜","address":"南翔镇古猗园路291-295近沪宜公路"},{"poiid":"B2094757D06AAAFF439F","title":"嘉定二中","lon":"121.31111145","lat":"31.2952690125","category":"55","category_name":"中学","address":"嘉定区德华路388号"},{"poiid":"B2094750D76CA5FC4498","title":"锦泰酒店","lon":"121.316","lat":"31.2886","category":"76","category_name":"上海菜","address":"嘉定区南翔镇古漪园路283-287号(近古漪园)"},{"poiid":"B2094654DB69A5F54493","title":"格林豪泰酒店(南翔店)","lon":"121.32161","lat":"31.29403","category":"216","category_name":"经济型连锁酒店","address":"普陀区众仁路与真南路交叉口(南翔镇政府斜对面)"},{"poiid":"B2094655D36DA1FC489C","title":"古猗桥","lon":"121.31886","lat":"31.28626","category":"250","category_name":"公园户外","address":""},{"poiid":"B2094757D464A0FA419F","title":"古龙饭庄","lon":"121.315867054","lat":"31.289932793","category":"76","category_name":"上海菜","address":"嘉定区南翔镇沪宜公路281号古猗园内(近路沪宜公路)"},{"poiid":"B2094752D56DA4FD469B","title":"荷泰东南亚风味餐厅","lon":"121.317225","lat":"31.297102","category":"247","category_name":"餐饮美食","address":"中冶祥腾广场"},{"poiid":"B2094751D36AA7F54692","title":"乐沪阁","lon":"121.3185","lat":"31.29185","category":"96","category_name":"韩国料理","address":"嘉定区沪宜公路99弄"},{"poiid":"B2094757D568AAFF499D","title":"米兰咖啡","lon":"121.3159631","lat":"31.29164611","category":"65","category_name":"咖啡厅","address":"嘉定区南翔镇沪宜公路281号古猗园旁(沪宜公路口)"},{"poiid":"B2094654D46BA4FE4499","title":"百年老店南翔小笼","lon":"121.3154","lat":"31.29042","category":"257","category_name":"中餐厅","address":""},{"poiid":"B2094752D368A1FF409F","title":"捞王猪肚鸡","lon":"121.322586","lat":"31.294815","category":"247","category_name":"餐饮美食","address":"上海市嘉定区南翔镇中冶翔腾城市广场二楼"},{"poiid":"B2094655D36DA1FC489D","title":"银翔桥","lon":"121.32209","lat":"31.29034","category":"250","category_name":"公园户外","address":""},{"poiid":"B2094654D46BA5FC429E","title":"南翔汽车站","lon":"121.31595","lat":"31.2896","category":"35","category_name":"长途汽车站","address":"嘉定区古猗园路(古猗园路民主街)"},{"poiid":"B2094757D164AAF44699","title":"银翔新村","lon":"121.316108925","lat":"31.2864110934","category":"252","category_name":"楼宇机构","address":"上海市嘉定区南翔镇古漪园路125弄"},{"poiid":"B2094654D46BA4FE449F","title":"百年老店南翔小笼专卖店","lon":"121.31503","lat":"31.29101","category":"257","category_name":"中餐厅","address":"嘉定区民主东路344号"},{"poiid":"B2094654DB65A0F8469C","title":"锦江之星(南翔店)","lon":"121.31021","lat":"31.28772","category":"216","category_name":"经济型连锁酒店","address":"嘉定区南翔镇解放街25号(近南翔古猗园)"},{"poiid":"B2094757D66CAAFA449B","title":"古猗庄园,南翔","lon":"121.31595554","lat":"31.291649314","category":"247","category_name":"餐饮美食","address":"上海真南路3911号"},{"poiid":"B2094757D064A2F94998","title":"韩美轩","lon":"121.314423875","lat":"31.291407057","category":"500","category_name":"未知分类","address":"嘉定区南翔镇古漪园路303号(沪宜公路众仁路)"},{"poiid":"B2094757D16AA2FC4093","title":"蓝森酒楼","lon":"121.31615272","lat":"31.290897986","category":"247","category_name":"餐饮美食","address":"上海近郊嘉定区南翔镇古猗园路291号(近古猗园)  "},{"poiid":"B2094654D46BA6F54493","title":"南祥成人教育中心","lon":"121.32575","lat":"31.2892","category":"53","category_name":"成人教育","address":"众仁路385号"},{"poiid":"B2094750D56FA0FB479A","title":"上海铁路局培训基地","lon":"121.315765","lat":"31.289081","category":"500","category_name":"未知分类","address":null},{"poiid":"B2094750D664A1F4489C","title":"鹤翔知青美食","lon":"121.315","lat":"31.2896","category":"82","category_name":"东北菜","address":"嘉定区沪宜公路242号(古猗园路口)"},{"poiid":"B2094654D46BA4FF429C","title":"南华小区","lon":"121.30824","lat":"31.288046","category":"47","category_name":"住宅区","address":"南华路101弄1-56号"},{"poiid":"B2094655D36DA7F9469F","title":"众仁路真南路","lon":"121.32278","lat":"31.2931","category":"38","category_name":"公交车站","address":""},{"poiid":"B2094757D16DA3FA4499","title":"老街汤团(南翔店)","lon":"121.32111","lat":"31.29367","category":"257","category_name":"中餐厅","address":"上海近郊嘉定区南翔人民街41号  "},{"poiid":"B2094757D568AAFB4099","title":"南翔镇南华路、民主街解放街","lon":"121.31572","lat":"31.29648","category":"47","category_name":"住宅区","address":"上海市嘉定区南翔镇民主街224号"},{"poiid":"B2094654D46BABFF4398","title":"古猗园","lon":"121.31596","lat":"31.29164","category":"240","category_name":"国家级景点","address":"嘉定区南翔镇沪宜路218号"},{"poiid":"B2094757D06EAAF5419F","title":"南翔漪园小笼馆","lon":"121.314494054","lat":"31.292691793","category":"68","category_name":"快餐厅","address":"嘉定区南翔镇古漪园路288号(近古漪园北门)"},{"poiid":"B2094757D06EAAFE419C","title":"南翔地铁站","lon":"121.32427277","lat":"31.297083592","category":"36","category_name":"地铁站","address":"上海轨道交通 十一号线 轨交南翔站 11"},{"poiid":"B2094757D06FA3FD479A","title":"南翔老街","lon":"121.30948","lat":"31.291","category":"260","category_name":"其他","address":"上海近郊嘉定区南翔镇德华路(近共和街)  "},{"poiid":"B2094757D06FAAFF459B","title":"古猗园餐厅","lon":"121.31639","lat":"31.29069","category":"68","category_name":"快餐厅","address":"嘉定区南翔镇沪宜公路218号古猗园南大门(古猗园路沪宜公路)"},{"poiid":"B2094757D06FA2F8499E","title":"南翔镇","lon":"121.32083892","lat":"31.293945312","category":"260","category_name":"其他","address":"上海嘉定区南翔镇"},{"poiid":"B2094654D46BA4FE4393","title":"南翔小笼(古猗园路)","lon":"121.31492","lat":"31.2904","category":"257","category_name":"中餐厅","address":""},{"poiid":"B2094757D06FA2FC479B","title":"金地格林世界","lon":"121.32311061","lat":"31.298570324","category":"47","category_name":"住宅区","address":"嘉定区南翔镇瑞林路68号(沪嘉高速丰翔路路口)"},{"poiid":"B2094654DB69A6FE489F","title":"古漪园","lon":"121.31603","lat":"31.29213","category":"196","category_name":"公园","address":"上海市嘉定区沪宜公路218号"},{"poiid":"B2094757D06AA5FF449C","title":"南翔北站","lon":"121.31378555","lat":"31.282248503","category":"22","category_name":"火车站","address":"上海银翔路,沪宁高铁,南翔北站"},{"poiid":"B2094750D26BA7F9429A","title":"南翔医院","lon":"121.317955","lat":"31.290615","category":"162","category_name":"医院","address":"众仁路495号"},{"poiid":"B2094751DA6EA7F5479C","title":"星巴克南翔祥腾广场店","lon":"121.3228","lat":"31.296463","category":"247","category_name":"餐饮美食","address":"嘉定区佳通路31弄3号中冶翔腾城市广场2楼(近11号线南翔站)"},{"poiid":"B2094655D264A2F5459E","title":"南翔古镇","lon":"121.31557","lat":"31.2895","category":"250","category_name":"公园户外","address":"嘉定区南翔镇人民街(生产街南华路间)"},{"poiid":"B2094655D26BA1FE499A","title":"南翔","lon":"121.30975","lat":"31.28663","category":"38","category_name":"公交车站","address":""},{"poiid":"B2094757D16CA0F54793","title":"祥源府邸","lon":"121.31923252","lat":"31.287508716","category":"47","category_name":"住宅区","address":"上海嘉定区南翔镇金通路1788弄"},{"poiid":"B2094750D66CAAFA409E","title":"超级玛丽","lon":"121.320045","lat":"31.289876","category":"248","category_name":"生活娱乐","address":"沪宜公路155号2弄3F"},{"poiid":"B2094757D06FA3FD4799","title":"S5沪嘉高速南翔收费站","lon":"121.325303892","lat":"31.2968820244","category":"267","category_name":"收费站","address":"上海S5沪嘉高速南翔收费站(近丰翔路)"},{"poiid":"B2094654DB69A6FE439C","title":"金地格林春晓","lon":"121.32337","lat":"31.29254","category":"47","category_name":"住宅区","address":"上海市嘉定区真南路4233号"},{"poiid":"B2094654DB65A4FD419A","title":"南翔医院","lon":"121.31098","lat":"31.29164","category":"162","category_name":"医院","address":"嘉定区南翔镇众仁路495号(近真南路)"},{"poiid":"B2094757D66DAAFC4398","title":"韩苑烧烤","lon":"121.321391825","lat":"31.2880021264","category":"247","category_name":"餐饮美食","address":"上海市闵行区保乐路634号"},{"poiid":"B2094654D46BA4FE4892","title":"泰煌火锅(翔黄公路)","lon":"121.30815","lat":"31.28604","category":"86","category_name":"火锅店","address":"嘉定区南翔镇沪宜公路653号"},{"poiid":"B2094654D46BABFE489C","title":"同盛公寓","lon":"121.31451","lat":"31.29105","category":"47","category_name":"住宅区","address":"上海市普陀区宁夏路335号"},{"poiid":"B2094757D16DA0F4409D","title":"西郊庄园国际CLUB","lon":"121.32139182","lat":"31.288002126","category":"500","category_name":"未知分类","address":"上海闵行区华漕镇金丰路588弄  "},{"poiid":"B2094757D069A2FE4792","title":"肯德基 KFC (南翔店)","lon":"121.308648","lat":"31.29012","category":"68","category_name":"快餐厅","address":"嘉定区南翔镇解放街160号(南翔解放街民主街)"},{"poiid":"B2094757D664A3FF4193","title":"兰森酒楼","lon":"121.3148692","lat":"31.2908675","category":"76","category_name":"上海菜","address":"南翔镇古猗园路291-295近沪宜公路"},{"poiid":"B2094757D06AAAFF439F","title":"嘉定二中","lon":"121.31111145","lat":"31.2952690125","category":"55","category_name":"中学","address":"嘉定区德华路388号"},{"poiid":"B2094750D76CA5FC4498","title":"锦泰酒店","lon":"121.316","lat":"31.2886","category":"76","category_name":"上海菜","address":"嘉定区南翔镇古漪园路283-287号(近古漪园)"},{"poiid":"B2094654DB69A5F54493","title":"格林豪泰酒店(南翔店)","lon":"121.32161","lat":"31.29403","category":"216","category_name":"经济型连锁酒店","address":"普陀区众仁路与真南路交叉口(南翔镇政府斜对面)"},{"poiid":"B2094655D36DA1FC489C","title":"古猗桥","lon":"121.31886","lat":"31.28626","category":"250","category_name":"公园户外","address":""},{"poiid":"B2094757D464A0FA419F","title":"古龙饭庄","lon":"121.315867054","lat":"31.289932793","category":"76","category_name":"上海菜","address":"嘉定区南翔镇沪宜公路281号古猗园内(近路沪宜公路)"},{"poiid":"B2094752D56DA4FD469B","title":"荷泰东南亚风味餐厅","lon":"121.317225","lat":"31.297102","category":"247","category_name":"餐饮美食","address":"中冶祥腾广场"},{"poiid":"B2094751D36AA7F54692","title":"乐沪阁","lon":"121.3185","lat":"31.29185","category":"96","category_name":"韩国料理","address":"嘉定区沪宜公路99弄"},{"poiid":"B2094757D568AAFF499D","title":"米兰咖啡","lon":"121.3159631","lat":"31.29164611","category":"65","category_name":"咖啡厅","address":"嘉定区南翔镇沪宜公路281号古猗园旁(沪宜公路口)"},{"poiid":"B2094654D46BA4FE4499","title":"百年老店南翔小笼","lon":"121.3154","lat":"31.29042","category":"257","category_name":"中餐厅","address":""},{"poiid":"B2094752D368A1FF409F","title":"捞王猪肚鸡","lon":"121.322586","lat":"31.294815","category":"247","category_name":"餐饮美食","address":"上海市嘉定区南翔镇中冶翔腾城市广场二楼"},{"poiid":"B2094655D36DA1FC489D","title":"银翔桥","lon":"121.32209","lat":"31.29034","category":"250","category_name":"公园户外","address":""},{"poiid":"B2094654D46BA5FC429E","title":"南翔汽车站","lon":"121.31595","lat":"31.2896","category":"35","category_name":"长途汽车站","address":"嘉定区古猗园路(古猗园路民主街)"},{"poiid":"B2094757D164AAF44699","title":"银翔新村","lon":"121.316108925","lat":"31.2864110934","category":"252","category_name":"楼宇机构","address":"上海市嘉定区南翔镇古漪园路125弄"},{"poiid":"B2094654D46BA4FE449F","title":"百年老店南翔小笼专卖店","lon":"121.31503","lat":"31.29101","category":"257","category_name":"中餐厅","address":"嘉定区民主东路344号"},{"poiid":"B2094654DB65A0F8469C","title":"锦江之星(南翔店)","lon":"121.31021","lat":"31.28772","category":"216","category_name":"经济型连锁酒店","address":"嘉定区南翔镇解放街25号(近南翔古猗园)"},{"poiid":"B2094757D66CAAFA449B","title":"古猗庄园,南翔","lon":"121.31595554","lat":"31.291649314","category":"247","category_name":"餐饮美食","address":"上海真南路3911号"},{"poiid":"B2094757D064A2F94998","title":"韩美轩","lon":"121.314423875","lat":"31.291407057","category":"500","category_name":"未知分类","address":"嘉定区南翔镇古漪园路303号(沪宜公路众仁路)"},{"poiid":"B2094757D16AA2FC4093","title":"蓝森酒楼","lon":"121.31615272","lat":"31.290897986","category":"247","category_name":"餐饮美食","address":"上海近郊嘉定区南翔镇古猗园路291号(近古猗园)  "},{"poiid":"B2094654D46BA6F54493","title":"南祥成人教育中心","lon":"121.32575","lat":"31.2892","category":"53","category_name":"成人教育","address":"众仁路385号"},{"poiid":"B2094750D56FA0FB479A","title":"上海铁路局培训基地","lon":"121.315765","lat":"31.289081","category":"500","category_name":"未知分类","address":null},{"poiid":"B2094750D664A1F4489C","title":"鹤翔知青美食","lon":"121.315","lat":"31.2896","category":"82","category_name":"东北菜","address":"嘉定区沪宜公路242号(古猗园路口)"},{"poiid":"B2094654D46BA4FF429C","title":"南华小区","lon":"121.30824","lat":"31.288046","category":"47","category_name":"住宅区","address":"南华路101弄1-56号"},{"poiid":"B2094655D36DA7F9469F","title":"众仁路真南路","lon":"121.32278","lat":"31.2931","category":"38","category_name":"公交车站","address":""},{"poiid":"B2094757D16DA3FA4499","title":"老街汤团(南翔店)","lon":"121.32111","lat":"31.29367","category":"257","category_name":"中餐厅","address":"上海近郊嘉定区南翔人民街41号  "},{"poiid":"B2094757D568AAFB4099","title":"南翔镇南华路、民主街解放街","lon":"121.31572","lat":"31.29648","category":"47","category_name":"住宅区","address":"上海市嘉定区南翔镇民主街224号"}]