[{"poiid":"B2094757D568A6FB489B","title":"中冶祥腾城市广场","lon":"121.327364","lat":"31.302838","category":"47","category_name":"住宅区","address":"嘉定区真南路4500号(11号线南翔站对面)"},{"poiid":"B2094757D06EAAFE419C","title":"南翔地铁站","lon":"121.32427277","lat":"31.297083592","category":"36","category_name":"地铁站","address":"上海轨道交通 十一号线 轨交南翔站 11"},{"poiid":"B2094757D06FA2FC479B","title":"金地格林世界","lon":"121.32311061","lat":"31.298570324","category":"47","category_name":"住宅区","address":"嘉定区南翔镇瑞林路68号(沪嘉高速丰翔路路口)"},{"poiid":"B2094757D06AABF8479F","title":"南翔绿谷别墅","lon":"121.329919","lat":"31.296186","category":"47","category_name":"住宅区","address":"上海市嘉定区南翔镇虹光路111号"},{"poiid":"B2094757D06FA2F8499E","title":"南翔镇","lon":"121.32083892","lat":"31.293945312","category":"260","category_name":"其他","address":"上海嘉定区南翔镇"},{"poiid":"B2094751DA6EA7F5479C","title":"星巴克南翔祥腾广场店","lon":"121.3228","lat":"31.296463","category":"247","category_name":"餐饮美食","address":"嘉定区佳通路31弄3号中冶翔腾城市广场2楼(近11号线南翔站)"},{"poiid":"B2094757D06FA7FC4092","title":"沪嘉高速公路","lon":"121.34194886","lat":"31.292617122","category":"260","category_name":"其他","address":"上海S5 A12"},{"poiid":"B2094654D46BA4FD4692","title":"普陀体育公园","lon":"121.34309","lat":"31.28134","category":"196","category_name":"公园","address":"桃浦镇"},{"poiid":"B2094757D06FA3FD4799","title":"S5沪嘉高速南翔收费站","lon":"121.325303892","lat":"31.2968820244","category":"267","category_name":"收费站","address":"上海S5沪嘉高速南翔收费站(近丰翔路)"},{"poiid":"B2094757D068A1FC4692","title":"家乐福(南翔店)","lon":"121.33281769559676","lat":"31.304198465976114","category":"118","category_name":"超级市场","address":"上海嘉定区丰翔路3168号"},{"poiid":"B2094750D26BA7F9429A","title":"南翔医院","lon":"121.317955","lat":"31.290615","category":"162","category_name":"医院","address":"众仁路495号"},{"poiid":"B2094757D068A5FF489D","title":"膳晨海鲜大酒店","lon":"121.344917297","lat":"31.2897281647","category":"72","category_name":"广东菜","address":"普陀区桃浦镇白丽路718号(近真南路)"},{"poiid":"B2094654D46BA4FE419F","title":"永翔新苑","lon":"121.332","lat":"31.2968","category":"47","category_name":"住宅区","address":"众仁路388弄"},{"poiid":"B2094757D568A7FC499F","title":"古猗庄园","lon":"121.33028","lat":"31.294357","category":"47","category_name":"住宅区","address":"中国上海市嘉定区G204"},{"poiid":"B2094757D065A0FD479B","title":"沃尔玛(白丽生活广场地下一楼)","lon":"121.340903225","lat":"31.2929810295","category":"500","category_name":"未知分类","address":"上海市武威路(地铁11号线1，3号出口可到)"},{"poiid":"B2094750D66DA3FB479E","title":"永翔佳苑","lon":"121.331779","lat":"31.291505","category":"47","category_name":"住宅区","address":"上海市嘉定区南翔镇金润路478弄"},{"poiid":"B2094757D66FA3F84593","title":"西北物流园区","lon":"121.33337292","lat":"31.294828267","category":"500","category_name":"未知分类","address":"上海市嘉定区南翔镇金迎路999号"},{"poiid":"B2094757D068A1F44992","title":"绅瑞广汽丰田","lon":"121.33505434","lat":"31.293732341","category":"500","category_name":"未知分类","address":"普陀区真南路3847号(近金迎路)"},{"poiid":"B2094757D068ABFF449A","title":"南翔金地格林","lon":"121.32389068","lat":"31.300073623","category":"47","category_name":"住宅区","address":"上海嘉定南翔镇芳林路"},{"poiid":"B2094753D26AA5FC479B","title":"虹桥机场T2航站楼","lon":"121.335388","lat":"31.295807","category":"500","category_name":"未知分类","address":"上海市 虹桥机场T2航站楼"},{"poiid":"B2094654DB69A6FE439C","title":"金地格林春晓","lon":"121.32337","lat":"31.29254","category":"47","category_name":"住宅区","address":"上海市嘉定区真南路4233号"},{"poiid":"B2094655D36DA1FC4398","title":"金迎路翔二河桥","lon":"121.33436","lat":"31.29325","category":"250","category_name":"公园户外","address":""},{"poiid":"B2094750D56CABFE4899","title":"同进•理想城","lon":"121.334213","lat":"31.291563","category":"47","category_name":"住宅区","address":"金迎路1118弄"},{"poiid":"B2094757D16FAAF5449E","title":"绿谷别墅","lon":"121.33026392","lat":"31.296353299","category":"47","category_name":"住宅区","address":"上海市嘉定区丰翔路"},{"poiid":"B2094757D064A5FA439A","title":"金地格林世界圣琼斯湾","lon":"121.32882015978","lat":"31.308314978731","category":"500","category_name":"未知分类","address":"上海金地格林世界圣琼斯湾"},{"poiid":"B2094757D064A0FF489B","title":"宏立瑞园","lon":"121.32707785316","lat":"31.297452736929","category":"252","category_name":"楼宇机构","address":"上海南翔镇宝翔路560弄"},{"poiid":"B2094655D268ABFF4999","title":"沪嘉高速公路收费站","lon":"121.3291","lat":"31.29587","category":"267","category_name":"收费站","address":""},{"poiid":"B2094757D064AAF5499E","title":"味千拉面","lon":"121.32508392","lat":"31.298980353","category":"247","category_name":"餐饮美食","address":"上海近郊嘉定区丰翔路3168号家乐福超市1楼(近宝翔路)  "},{"poiid":"B2094752D46AA2F8439F","title":"金迈加油站","lon":"121.337458","lat":"31.293847","category":"153","category_name":"加油站","address":"上海市普陀区金迈路28号"},{"poiid":"B2094654D46BA4FD489B","title":"紫荆苑(白丽路)","lon":"121.34696","lat":"31.28638","category":"47","category_name":"住宅区","address":""},{"poiid":"B2094751D36BA5F94699","title":"地铁十一号线","lon":"121.339996","lat":"31.288757","category":"500","category_name":"未知分类","address":"上海"},{"poiid":"B2094752D368A1FF409F","title":"捞王猪肚鸡","lon":"121.322586","lat":"31.294815","category":"247","category_name":"餐饮美食","address":"上海市嘉定区南翔镇中冶翔腾城市广场二楼"},{"poiid":"B2094757D064A7F5449D","title":"嘉定区第六税务所","lon":"121.32426392","lat":"31.295500281","category":"500","category_name":"未知分类","address":"上海市嘉定区真南路4268号"},{"poiid":"B2094752D56DA4FD469B","title":"荷泰东南亚风味餐厅","lon":"121.317225","lat":"31.297102","category":"247","category_name":"餐饮美食","address":"中冶祥腾广场"},{"poiid":"B2094655D265A0FD4493","title":"郑妈妈台湾小吃","lon":"121.33607","lat":"31.29007","category":"257","category_name":"中餐厅","address":"佘山镇陈坊桥外青松公路1号营业房"},{"poiid":"B2094757DB6CA7FD4492","title":"嘉定新城","lon":"121.327738","lat":"31.296815","category":"47","category_name":"住宅区","address":"嘉定区"},{"poiid":"B2094654DB69A5F54493","title":"格林豪泰酒店(南翔店)","lon":"121.32161","lat":"31.29403","category":"216","category_name":"经济型连锁酒店","address":"普陀区众仁路与真南路交叉口(南翔镇政府斜对面)"},{"poiid":"B2094757D16DA6F94293","title":"桃浦健身中心","lon":"121.344512525","lat":"31.284894962","category":"500","category_name":"未知分类","address":"上海金通路380号"},{"poiid":"B2094757D16FA5F5409C","title":"槎浦新家园","lon":"121.33017","lat":"31.286604","category":"252","category_name":"楼宇机构","address":"上海市普陀区金迈路"},{"poiid":"B2094757D06BAAFB449A","title":"普陀区看守所","lon":"121.34403991","lat":"31.294921875","category":"500","category_name":"未知分类","address":"上海柳园路555弄55号"},{"poiid":"B2094753D76CA4F8479B","title":"上海保利国际影城祥腾店","lon":"121.32801","lat":"31.294763","category":"248","category_name":"生活娱乐","address":"上海市嘉定区真南路4368弄"},{"poiid":"B2094757D06BAAFF449D","title":"农工商红利会员店(桃浦)","lon":"121.338872525","lat":"31.2821949061","category":"118","category_name":"超级市场","address":"普陀区金迎路85号(近地铁11号线桃浦新村站)"},{"poiid":"B2094757D16DA2FE4098","title":"贝贝大酒店","lon":"121.336992054","lat":"31.303102793","category":"76","category_name":"上海菜","address":"宝山区丰翔路2158号(丰翔路园泰路)"},{"poiid":"B2094753D665A6FA449C","title":"捞王锅物料理","lon":"121.326644","lat":"31.293373","category":"247","category_name":"餐饮美食","address":"上海市 中冶翔腾广场"},{"poiid":"B2094757D16AA3F8429F","title":"味之都(南翔镇店)","lon":"121.32844","lat":"31.30149","category":"68","category_name":"快餐厅","address":"嘉定区南翔镇丰翔路3618号家乐福1楼(近沪宜公路)"},{"poiid":"B2094752D26EA1FE489C","title":"麦当劳","lon":"121.325317","lat":"31.297104","category":"247","category_name":"餐饮美食","address":"南翔中冶祥腾广场"},{"poiid":"B2094654D46BA5F8419E","title":"曙光苑(丰翔路)","lon":"121.32737","lat":"31.30015","category":"47","category_name":"住宅区","address":""},{"poiid":"B2094757D06AABF44692","title":"凯旋宫酒楼(南翔店)","lon":"121.32478942","lat":"31.298657497","category":"76","category_name":"上海菜","address":"嘉定区丰翔路3168号(近真南路)"},{"poiid":"B2094654D46BA6F5439A","title":"亚龙别墅","lon":"121.3298","lat":"31.29974","category":"47","category_name":"住宅区","address":"虹光路"},{"poiid":"B2094655D36CA3FA439E","title":"新杨雅苑","lon":"121.34382","lat":"31.29162","category":"47","category_name":"住宅区","address":"上海市普陀区真南路3407弄1,2,5,6,10-12号"},{"poiid":"B2094757D568A6FB489B","title":"中冶祥腾城市广场","lon":"121.327364","lat":"31.302838","category":"47","category_name":"住宅区","address":"嘉定区真南路4500号(11号线南翔站对面)"},{"poiid":"B2094757D06EAAFE419C","title":"南翔地铁站","lon":"121.32427277","lat":"31.297083592","category":"36","category_name":"地铁站","address":"上海轨道交通 十一号线 轨交南翔站 11"},{"poiid":"B2094757D06FA2FC479B","title":"金地格林世界","lon":"121.32311061","lat":"31.298570324","category":"47","category_name":"住宅区","address":"嘉定区南翔镇瑞林路68号(沪嘉高速丰翔路路口)"},{"poiid":"B2094757D06AABF8479F","title":"南翔绿谷别墅","lon":"121.329919","lat":"31.296186","category":"47","category_name":"住宅区","address":"上海市嘉定区南翔镇虹光路111号"},{"poiid":"B2094757D06FA2F8499E","title":"南翔镇","lon":"121.32083892","lat":"31.293945312","category":"260","category_name":"其他","address":"上海嘉定区南翔镇"},{"poiid":"B2094751DA6EA7F5479C","title":"星巴克南翔祥腾广场店","lon":"121.3228","lat":"31.296463","category":"247","category_name":"餐饮美食","address":"嘉定区佳通路31弄3号中冶翔腾城市广场2楼(近11号线南翔站)"},{"poiid":"B2094757D06FA7FC4092","title":"沪嘉高速公路","lon":"121.34194886","lat":"31.292617122","category":"260","category_name":"其他","address":"上海S5 A12"},{"poiid":"B2094654D46BA4FD4692","title":"普陀体育公园","lon":"121.34309","lat":"31.28134","category":"196","category_name":"公园","address":"桃浦镇"},{"poiid":"B2094757D06FA3FD4799","title":"S5沪嘉高速南翔收费站","lon":"121.325303892","lat":"31.2968820244","category":"267","category_name":"收费站","address":"上海S5沪嘉高速南翔收费站(近丰翔路)"},{"poiid":"B2094757D068A1FC4692","title":"家乐福(南翔店)","lon":"121.33281769559676","lat":"31.304198465976114","category":"118","category_name":"超级市场","address":"上海嘉定区丰翔路3168号"},{"poiid":"B2094750D26BA7F9429A","title":"南翔医院","lon":"121.317955","lat":"31.290615","category":"162","category_name":"医院","address":"众仁路495号"},{"poiid":"B2094757D068A5FF489D","title":"膳晨海鲜大酒店","lon":"121.344917297","lat":"31.2897281647","category":"72","category_name":"广东菜","address":"普陀区桃浦镇白丽路718号(近真南路)"},{"poiid":"B2094654D46BA4FE419F","title":"永翔新苑","lon":"121.332","lat":"31.2968","category":"47","category_name":"住宅区","address":"众仁路388弄"},{"poiid":"B2094757D568A7FC499F","title":"古猗庄园","lon":"121.33028","lat":"31.294357","category":"47","category_name":"住宅区","address":"中国上海市嘉定区G204"},{"poiid":"B2094757D065A0FD479B","title":"沃尔玛(白丽生活广场地下一楼)","lon":"121.340903225","lat":"31.2929810295","category":"500","category_name":"未知分类","address":"上海市武威路(地铁11号线1，3号出口可到)"},{"poiid":"B2094750D66DA3FB479E","title":"永翔佳苑","lon":"121.331779","lat":"31.291505","category":"47","category_name":"住宅区","address":"上海市嘉定区南翔镇金润路478弄"},{"poiid":"B2094757D66FA3F84593","title":"西北物流园区","lon":"121.33337292","lat":"31.294828267","category":"500","category_name":"未知分类","address":"上海市嘉定区南翔镇金迎路999号"},{"poiid":"B2094757D068A1F44992","title":"绅瑞广汽丰田","lon":"121.33505434","lat":"31.293732341","category":"500","category_name":"未知分类","address":"普陀区真南路3847号(近金迎路)"},{"poiid":"B2094757D068ABFF449A","title":"南翔金地格林","lon":"121.32389068","lat":"31.300073623","category":"47","category_name":"住宅区","address":"上海嘉定南翔镇芳林路"},{"poiid":"B2094753D26AA5FC479B","title":"虹桥机场T2航站楼","lon":"121.335388","lat":"31.295807","category":"500","category_name":"未知分类","address":"上海市 虹桥机场T2航站楼"},{"poiid":"B2094654DB69A6FE439C","title":"金地格林春晓","lon":"121.32337","lat":"31.29254","category":"47","category_name":"住宅区","address":"上海市嘉定区真南路4233号"},{"poiid":"B2094655D36DA1FC4398","title":"金迎路翔二河桥","lon":"121.33436","lat":"31.29325","category":"250","category_name":"公园户外","address":""},{"poiid":"B2094750D56CABFE4899","title":"同进•理想城","lon":"121.334213","lat":"31.291563","category":"47","category_name":"住宅区","address":"金迎路1118弄"},{"poiid":"B2094757D16FAAF5449E","title":"绿谷别墅","lon":"121.33026392","lat":"31.296353299","category":"47","category_name":"住宅区","address":"上海市嘉定区丰翔路"},{"poiid":"B2094757D064A5FA439A","title":"金地格林世界圣琼斯湾","lon":"121.32882015978","lat":"31.308314978731","category":"500","category_name":"未知分类","address":"上海金地格林世界圣琼斯湾"},{"poiid":"B2094757D064A0FF489B","title":"宏立瑞园","lon":"121.32707785316","lat":"31.297452736929","category":"252","category_name":"楼宇机构","address":"上海南翔镇宝翔路560弄"},{"poiid":"B2094655D268ABFF4999","title":"沪嘉高速公路收费站","lon":"121.3291","lat":"31.29587","category":"267","category_name":"收费站","address":""},{"poiid":"B2094757D064AAF5499E","title":"味千拉面","lon":"121.32508392","lat":"31.298980353","category":"247","category_name":"餐饮美食","address":"上海近郊嘉定区丰翔路3168号家乐福超市1楼(近宝翔路)  "},{"poiid":"B2094752D46AA2F8439F","title":"金迈加油站","lon":"121.337458","lat":"31.293847","category":"153","category_name":"加油站","address":"上海市普陀区金迈路28号"},{"poiid":"B2094654D46BA4FD489B","title":"紫荆苑(白丽路)","lon":"121.34696","lat":"31.28638","category":"47","category_name":"住宅区","address":""},{"poiid":"B2094751D36BA5F94699","title":"地铁十一号线","lon":"121.339996","lat":"31.288757","category":"500","category_name":"未知分类","address":"上海"},{"poiid":"B2094752D368A1FF409F","title":"捞王猪肚鸡","lon":"121.322586","lat":"31.294815","category":"247","category_name":"餐饮美食","address":"上海市嘉定区南翔镇中冶翔腾城市广场二楼"},{"poiid":"B2094757D064A7F5449D","title":"嘉定区第六税务所","lon":"121.32426392","lat":"31.295500281","category":"500","category_name":"未知分类","address":"上海市嘉定区真南路4268号"},{"poiid":"B2094752D56DA4FD469B","title":"荷泰东南亚风味餐厅","lon":"121.317225","lat":"31.297102","category":"247","category_name":"餐饮美食","address":"中冶祥腾广场"},{"poiid":"B2094655D265A0FD4493","title":"郑妈妈台湾小吃","lon":"121.33607","lat":"31.29007","category":"257","category_name":"中餐厅","address":"佘山镇陈坊桥外青松公路1号营业房"},{"poiid":"B2094757DB6CA7FD4492","title":"嘉定新城","lon":"121.327738","lat":"31.296815","category":"47","category_name":"住宅区","address":"嘉定区"},{"poiid":"B2094654DB69A5F54493","title":"格林豪泰酒店(南翔店)","lon":"121.32161","lat":"31.29403","category":"216","category_name":"经济型连锁酒店","address":"普陀区众仁路与真南路交叉口(南翔镇政府斜对面)"},{"poiid":"B2094757D16DA6F94293","title":"桃浦健身中心","lon":"121.344512525","lat":"31.284894962","category":"500","category_name":"未知分类","address":"上海金通路380号"},{"poiid":"B2094757D16FA5F5409C","title":"槎浦新家园","lon":"121.33017","lat":"31.286604","category":"252","category_name":"楼宇机构","address":"上海市普陀区金迈路"},{"poiid":"B2094757D06BAAFB449A","title":"普陀区看守所","lon":"121.34403991","lat":"31.294921875","category":"500","category_name":"未知分类","address":"上海柳园路555弄55号"},{"poiid":"B2094753D76CA4F8479B","title":"上海保利国际影城祥腾店","lon":"121.32801","lat":"31.294763","category":"248","category_name":"生活娱乐","address":"上海市嘉定区真南路4368弄"},{"poiid":"B2094757D06BAAFF449D","title":"农工商红利会员店(桃浦)","lon":"121.338872525","lat":"31.2821949061","category":"118","category_name":"超级市场","address":"普陀区金迎路85号(近地铁11号线桃浦新村站)"},{"poiid":"B2094757D16DA2FE4098","title":"贝贝大酒店","lon":"121.336992054","lat":"31.303102793","category":"76","category_name":"上海菜","address":"宝山区丰翔路2158号(丰翔路园泰路)"},{"poiid":"B2094753D665A6FA449C","title":"捞王锅物料理","lon":"121.326644","lat":"31.293373","category":"247","category_name":"餐饮美食","address":"上海市 中冶翔腾广场"},{"poiid":"B2094757D16AA3F8429F","title":"味之都(南翔镇店)","lon":"121.32844","lat":"31.30149","category":"68","category_name":"快餐厅","address":"嘉定区南翔镇丰翔路3618号家乐福1楼(近沪宜公路)"},{"poiid":"B2094752D26EA1FE489C","title":"麦当劳","lon":"121.325317","lat":"31.297104","category":"247","category_name":"餐饮美食","address":"南翔中冶祥腾广场"},{"poiid":"B2094654D46BA5F8419E","title":"曙光苑(丰翔路)","lon":"121.32737","lat":"31.30015","category":"47","category_name":"住宅区","address":""},{"poiid":"B2094757D06AABF44692","title":"凯旋宫酒楼(南翔店)","lon":"121.32478942","lat":"31.298657497","category":"76","category_name":"上海菜","address":"嘉定区丰翔路3168号(近真南路)"},{"poiid":"B2094654D46BA6F5439A","title":"亚龙别墅","lon":"121.3298","lat":"31.29974","category":"47","category_name":"住宅区","address":"虹光路"},{"poiid":"B2094655D36CA3FA439E","title":"新杨雅苑","lon":"121.34382","lat":"31.29162","category":"47","category_name":"住宅区","address":"上海市普陀区真南路3407弄1,2,5,6,10-12号"},{"poiid":"B2094757D568A6FB489B","title":"中冶祥腾城市广场","lon":"121.327364","lat":"31.302838","category":"47","category_name":"住宅区","address":"嘉定区真南路4500号(11号线南翔站对面)"},{"poiid":"B2094757D06EAAFE419C","title":"南翔地铁站","lon":"121.32427277","lat":"31.297083592","category":"36","category_name":"地铁站","address":"上海轨道交通 十一号线 轨交南翔站 11"},{"poiid":"B2094757D06FA2FC479B","title":"金地格林世界","lon":"121.32311061","lat":"31.298570324","category":"47","category_name":"住宅区","address":"嘉定区南翔镇瑞林路68号(沪嘉高速丰翔路路口)"},{"poiid":"B2094757D06AABF8479F","title":"南翔绿谷别墅","lon":"121.329919","lat":"31.296186","category":"47","category_name":"住宅区","address":"上海市嘉定区南翔镇虹光路111号"},{"poiid":"B2094757D06FA2F8499E","title":"南翔镇","lon":"121.32083892","lat":"31.293945312","category":"260","category_name":"其他","address":"上海嘉定区南翔镇"},{"poiid":"B2094751DA6EA7F5479C","title":"星巴克南翔祥腾广场店","lon":"121.3228","lat":"31.296463","category":"247","category_name":"餐饮美食","address":"嘉定区佳通路31弄3号中冶翔腾城市广场2楼(近11号线南翔站)"},{"poiid":"B2094757D06FA7FC4092","title":"沪嘉高速公路","lon":"121.34194886","lat":"31.292617122","category":"260","category_name":"其他","address":"上海S5 A12"},{"poiid":"B2094654D46BA4FD4692","title":"普陀体育公园","lon":"121.34309","lat":"31.28134","category":"196","category_name":"公园","address":"桃浦镇"},{"poiid":"B2094757D06FA3FD4799","title":"S5沪嘉高速南翔收费站","lon":"121.325303892","lat":"31.2968820244","category":"267","category_name":"收费站","address":"上海S5沪嘉高速南翔收费站(近丰翔路)"},{"poiid":"B2094757D068A1FC4692","title":"家乐福(南翔店)","lon":"121.33281769559676","lat":"31.304198465976114","category":"118","category_name":"超级市场","address":"上海嘉定区丰翔路3168号"},{"poiid":"B2094750D26BA7F9429A","title":"南翔医院","lon":"121.317955","lat":"31.290615","category":"162","category_name":"医院","address":"众仁路495号"},{"poiid":"B2094757D068A5FF489D","title":"膳晨海鲜大酒店","lon":"121.344917297","lat":"31.2897281647","category":"72","category_name":"广东菜","address":"普陀区桃浦镇白丽路718号(近真南路)"},{"poiid":"B2094654D46BA4FE419F","title":"永翔新苑","lon":"121.332","lat":"31.2968","category":"47","category_name":"住宅区","address":"众仁路388弄"},{"poiid":"B2094757D568A7FC499F","title":"古猗庄园","lon":"121.33028","lat":"31.294357","category":"47","category_name":"住宅区","address":"中国上海市嘉定区G204"},{"poiid":"B2094757D065A0FD479B","title":"沃尔玛(白丽生活广场地下一楼)","lon":"121.340903225","lat":"31.2929810295","category":"500","category_name":"未知分类","address":"上海市武威路(地铁11号线1，3号出口可到)"},{"poiid":"B2094750D66DA3FB479E","title":"永翔佳苑","lon":"121.331779","lat":"31.291505","category":"47","category_name":"住宅区","address":"上海市嘉定区南翔镇金润路478弄"},{"poiid":"B2094757D66FA3F84593","title":"西北物流园区","lon":"121.33337292","lat":"31.294828267","category":"500","category_name":"未知分类","address":"上海市嘉定区南翔镇金迎路999号"},{"poiid":"B2094757D068A1F44992","title":"绅瑞广汽丰田","lon":"121.33505434","lat":"31.293732341","category":"500","category_name":"未知分类","address":"普陀区真南路3847号(近金迎路)"},{"poiid":"B2094757D068ABFF449A","title":"南翔金地格林","lon":"121.32389068","lat":"31.300073623","category":"47","category_name":"住宅区","address":"上海嘉定南翔镇芳林路"},{"poiid":"B2094753D26AA5FC479B","title":"虹桥机场T2航站楼","lon":"121.335388","lat":"31.295807","category":"500","category_name":"未知分类","address":"上海市 虹桥机场T2航站楼"},{"poiid":"B2094654DB69A6FE439C","title":"金地格林春晓","lon":"121.32337","lat":"31.29254","category":"47","category_name":"住宅区","address":"上海市嘉定区真南路4233号"},{"poiid":"B2094655D36DA1FC4398","title":"金迎路翔二河桥","lon":"121.33436","lat":"31.29325","category":"250","category_name":"公园户外","address":""},{"poiid":"B2094750D56CABFE4899","title":"同进•理想城","lon":"121.334213","lat":"31.291563","category":"47","category_name":"住宅区","address":"金迎路1118弄"},{"poiid":"B2094757D16FAAF5449E","title":"绿谷别墅","lon":"121.33026392","lat":"31.296353299","category":"47","category_name":"住宅区","address":"上海市嘉定区丰翔路"},{"poiid":"B2094757D064A5FA439A","title":"金地格林世界圣琼斯湾","lon":"121.32882015978","lat":"31.308314978731","category":"500","category_name":"未知分类","address":"上海金地格林世界圣琼斯湾"},{"poiid":"B2094757D064A0FF489B","title":"宏立瑞园","lon":"121.32707785316","lat":"31.297452736929","category":"252","category_name":"楼宇机构","address":"上海南翔镇宝翔路560弄"},{"poiid":"B2094655D268ABFF4999","title":"沪嘉高速公路收费站","lon":"121.3291","lat":"31.29587","category":"267","category_name":"收费站","address":""},{"poiid":"B2094757D064AAF5499E","title":"味千拉面","lon":"121.32508392","lat":"31.298980353","category":"247","category_name":"餐饮美食","address":"上海近郊嘉定区丰翔路3168号家乐福超市1楼(近宝翔路)  "},{"poiid":"B2094752D46AA2F8439F","title":"金迈加油站","lon":"121.337458","lat":"31.293847","category":"153","category_name":"加油站","address":"上海市普陀区金迈路28号"},{"poiid":"B2094654D46BA4FD489B","title":"紫荆苑(白丽路)","lon":"121.34696","lat":"31.28638","category":"47","category_name":"住宅区","address":""},{"poiid":"B2094751D36BA5F94699","title":"地铁十一号线","lon":"121.339996","lat":"31.288757","category":"500","category_name":"未知分类","address":"上海"},{"poiid":"B2094752D368A1FF409F","title":"捞王猪肚鸡","lon":"121.322586","lat":"31.294815","category":"247","category_name":"餐饮美食","address":"上海市嘉定区南翔镇中冶翔腾城市广场二楼"},{"poiid":"B2094757D064A7F5449D","title":"嘉定区第六税务所","lon":"121.32426392","lat":"31.295500281","category":"500","category_name":"未知分类","address":"上海市嘉定区真南路4268号"},{"poiid":"B2094752D56DA4FD469B","title":"荷泰东南亚风味餐厅","lon":"121.317225","lat":"31.297102","category":"247","category_name":"餐饮美食","address":"中冶祥腾广场"},{"poiid":"B2094655D265A0FD4493","title":"郑妈妈台湾小吃","lon":"121.33607","lat":"31.29007","category":"257","category_name":"中餐厅","address":"佘山镇陈坊桥外青松公路1号营业房"},{"poiid":"B2094757DB6CA7FD4492","title":"嘉定新城","lon":"121.327738","lat":"31.296815","category":"47","category_name":"住宅区","address":"嘉定区"},{"poiid":"B2094654DB69A5F54493","title":"格林豪泰酒店(南翔店)","lon":"121.32161","lat":"31.29403","category":"216","category_name":"经济型连锁酒店","address":"普陀区众仁路与真南路交叉口(南翔镇政府斜对面)"},{"poiid":"B2094757D16DA6F94293","title":"桃浦健身中心","lon":"121.344512525","lat":"31.284894962","category":"500","category_name":"未知分类","address":"上海金通路380号"},{"poiid":"B2094757D16FA5F5409C","title":"槎浦新家园","lon":"121.33017","lat":"31.286604","category":"252","category_name":"楼宇机构","address":"上海市普陀区金迈路"},{"poiid":"B2094757D06BAAFB449A","title":"普陀区看守所","lon":"121.34403991","lat":"31.294921875","category":"500","category_name":"未知分类","address":"上海柳园路555弄55号"},{"poiid":"B2094753D76CA4F8479B","title":"上海保利国际影城祥腾店","lon":"121.32801","lat":"31.294763","category":"248","category_name":"生活娱乐","address":"上海市嘉定区真南路4368弄"},{"poiid":"B2094757D06BAAFF449D","title":"农工商红利会员店(桃浦)","lon":"121.338872525","lat":"31.2821949061","category":"118","category_name":"超级市场","address":"普陀区金迎路85号(近地铁11号线桃浦新村站)"},{"poiid":"B2094757D16DA2FE4098","title":"贝贝大酒店","lon":"121.336992054","lat":"31.303102793","category":"76","category_name":"上海菜","address":"宝山区丰翔路2158号(丰翔路园泰路)"},{"poiid":"B2094753D665A6FA449C","title":"捞王锅物料理","lon":"121.326644","lat":"31.293373","category":"247","category_name":"餐饮美食","address":"上海市 中冶翔腾广场"},{"poiid":"B2094757D16AA3F8429F","title":"味之都(南翔镇店)","lon":"121.32844","lat":"31.30149","category":"68","category_name":"快餐厅","address":"嘉定区南翔镇丰翔路3618号家乐福1楼(近沪宜公路)"},{"poiid":"B2094752D26EA1FE489C","title":"麦当劳","lon":"121.325317","lat":"31.297104","category":"247","category_name":"餐饮美食","address":"南翔中冶祥腾广场"},{"poiid":"B2094654D46BA5F8419E","title":"曙光苑(丰翔路)","lon":"121.32737","lat":"31.30015","category":"47","category_name":"住宅区","address":""},{"poiid":"B2094757D06AABF44692","title":"凯旋宫酒楼(南翔店)","lon":"121.32478942","lat":"31.298657497","category":"76","category_name":"上海菜","address":"嘉定区丰翔路3168号(近真南路)"},{"poiid":"B2094654D46BA6F5439A","title":"亚龙别墅","lon":"121.3298","lat":"31.29974","category":"47","category_name":"住宅区","address":"虹光路"},{"poiid":"B2094655D36CA3FA439E","title":"新杨雅苑","lon":"121.34382","lat":"31.29162","category":"47","category_name":"住宅区","address":"上海市普陀区真南路3407弄1,2,5,6,10-12号"},{"poiid":"B2094757D568A6FB489B","title":"中冶祥腾城市广场","lon":"121.327364","lat":"31.302838","category":"47","category_name":"住宅区","address":"嘉定区真南路4500号(11号线南翔站对面)"},{"poiid":"B2094757D06EAAFE419C","title":"南翔地铁站","lon":"121.32427277","lat":"31.297083592","category":"36","category_name":"地铁站","address":"上海轨道交通 十一号线 轨交南翔站 11"},{"poiid":"B2094757D06FA2FC479B","title":"金地格林世界","lon":"121.32311061","lat":"31.298570324","category":"47","category_name":"住宅区","address":"嘉定区南翔镇瑞林路68号(沪嘉高速丰翔路路口)"},{"poiid":"B2094757D06AABF8479F","title":"南翔绿谷别墅","lon":"121.329919","lat":"31.296186","category":"47","category_name":"住宅区","address":"上海市嘉定区南翔镇虹光路111号"},{"poiid":"B2094757D06FA2F8499E","title":"南翔镇","lon":"121.32083892","lat":"31.293945312","category":"260","category_name":"其他","address":"上海嘉定区南翔镇"},{"poiid":"B2094751DA6EA7F5479C","title":"星巴克南翔祥腾广场店","lon":"121.3228","lat":"31.296463","category":"247","category_name":"餐饮美食","address":"嘉定区佳通路31弄3号中冶翔腾城市广场2楼(近11号线南翔站)"},{"poiid":"B2094757D06FA7FC4092","title":"沪嘉高速公路","lon":"121.34194886","lat":"31.292617122","category":"260","category_name":"其他","address":"上海S5 A12"},{"poiid":"B2094654D46BA4FD4692","title":"普陀体育公园","lon":"121.34309","lat":"31.28134","category":"196","category_name":"公园","address":"桃浦镇"},{"poiid":"B2094757D06FA3FD4799","title":"S5沪嘉高速南翔收费站","lon":"121.325303892","lat":"31.2968820244","category":"267","category_name":"收费站","address":"上海S5沪嘉高速南翔收费站(近丰翔路)"},{"poiid":"B2094757D068A1FC4692","title":"家乐福(南翔店)","lon":"121.33281769559676","lat":"31.304198465976114","category":"118","category_name":"超级市场","address":"上海嘉定区丰翔路3168号"},{"poiid":"B2094750D26BA7F9429A","title":"南翔医院","lon":"121.317955","lat":"31.290615","category":"162","category_name":"医院","address":"众仁路495号"},{"poiid":"B2094757D068A5FF489D","title":"膳晨海鲜大酒店","lon":"121.344917297","lat":"31.2897281647","category":"72","category_name":"广东菜","address":"普陀区桃浦镇白丽路718号(近真南路)"},{"poiid":"B2094654D46BA4FE419F","title":"永翔新苑","lon":"121.332","lat":"31.2968","category":"47","category_name":"住宅区","address":"众仁路388弄"},{"poiid":"B2094757D568A7FC499F","title":"古猗庄园","lon":"121.33028","lat":"31.294357","category":"47","category_name":"住宅区","address":"中国上海市嘉定区G204"},{"poiid":"B2094757D065A0FD479B","title":"沃尔玛(白丽生活广场地下一楼)","lon":"121.340903225","lat":"31.2929810295","category":"500","category_name":"未知分类","address":"上海市武威路(地铁11号线1，3号出口可到)"},{"poiid":"B2094750D66DA3FB479E","title":"永翔佳苑","lon":"121.331779","lat":"31.291505","category":"47","category_name":"住宅区","address":"上海市嘉定区南翔镇金润路478弄"},{"poiid":"B2094757D66FA3F84593","title":"西北物流园区","lon":"121.33337292","lat":"31.294828267","category":"500","category_name":"未知分类","address":"上海市嘉定区南翔镇金迎路999号"},{"poiid":"B2094757D068A1F44992","title":"绅瑞广汽丰田","lon":"121.33505434","lat":"31.293732341","category":"500","category_name":"未知分类","address":"普陀区真南路3847号(近金迎路)"},{"poiid":"B2094757D068ABFF449A","title":"南翔金地格林","lon":"121.32389068","lat":"31.300073623","category":"47","category_name":"住宅区","address":"上海嘉定南翔镇芳林路"},{"poiid":"B2094753D26AA5FC479B","title":"虹桥机场T2航站楼","lon":"121.335388","lat":"31.295807","category":"500","category_name":"未知分类","address":"上海市 虹桥机场T2航站楼"},{"poiid":"B2094654DB69A6FE439C","title":"金地格林春晓","lon":"121.32337","lat":"31.29254","category":"47","category_name":"住宅区","address":"上海市嘉定区真南路4233号"},{"poiid":"B2094655D36DA1FC4398","title":"金迎路翔二河桥","lon":"121.33436","lat":"31.29325","category":"250","category_name":"公园户外","address":""},{"poiid":"B2094750D56CABFE4899","title":"同进•理想城","lon":"121.334213","lat":"31.291563","category":"47","category_name":"住宅区","address":"金迎路1118弄"},{"poiid":"B2094757D16FAAF5449E","title":"绿谷别墅","lon":"121.33026392","lat":"31.296353299","category":"47","category_name":"住宅区","address":"上海市嘉定区丰翔路"},{"poiid":"B2094757D064A5FA439A","title":"金地格林世界圣琼斯湾","lon":"121.32882015978","lat":"31.308314978731","category":"500","category_name":"未知分类","address":"上海金地格林世界圣琼斯湾"},{"poiid":"B2094757D064A0FF489B","title":"宏立瑞园","lon":"121.32707785316","lat":"31.297452736929","category":"252","category_name":"楼宇机构","address":"上海南翔镇宝翔路560弄"},{"poiid":"B2094655D268ABFF4999","title":"沪嘉高速公路收费站","lon":"121.3291","lat":"31.29587","category":"267","category_name":"收费站","address":""},{"poiid":"B2094757D064AAF5499E","title":"味千拉面","lon":"121.32508392","lat":"31.298980353","category":"247","category_name":"餐饮美食","address":"上海近郊嘉定区丰翔路3168号家乐福超市1楼(近宝翔路)  "},{"poiid":"B2094752D46AA2F8439F","title":"金迈加油站","lon":"121.337458","lat":"31.293847","category":"153","category_name":"加油站","address":"上海市普陀区金迈路28号"},{"poiid":"B2094654D46BA4FD489B","title":"紫荆苑(白丽路)","lon":"121.34696","lat":"31.28638","category":"47","category_name":"住宅区","address":""},{"poiid":"B2094751D36BA5F94699","title":"地铁十一号线","lon":"121.339996","lat":"31.288757","category":"500","category_name":"未知分类","address":"上海"},{"poiid":"B2094752D368A1FF409F","title":"捞王猪肚鸡","lon":"121.322586","lat":"31.294815","category":"247","category_name":"餐饮美食","address":"上海市嘉定区南翔镇中冶翔腾城市广场二楼"},{"poiid":"B2094757D064A7F5449D","title":"嘉定区第六税务所","lon":"121.32426392","lat":"31.295500281","category":"500","category_name":"未知分类","address":"上海市嘉定区真南路4268号"},{"poiid":"B2094752D56DA4FD469B","title":"荷泰东南亚风味餐厅","lon":"121.317225","lat":"31.297102","category":"247","category_name":"餐饮美食","address":"中冶祥腾广场"},{"poiid":"B2094655D265A0FD4493","title":"郑妈妈台湾小吃","lon":"121.33607","lat":"31.29007","category":"257","category_name":"中餐厅","address":"佘山镇陈坊桥外青松公路1号营业房"},{"poiid":"B2094757DB6CA7FD4492","title":"嘉定新城","lon":"121.327738","lat":"31.296815","category":"47","category_name":"住宅区","address":"嘉定区"},{"poiid":"B2094654DB69A5F54493","title":"格林豪泰酒店(南翔店)","lon":"121.32161","lat":"31.29403","category":"216","category_name":"经济型连锁酒店","address":"普陀区众仁路与真南路交叉口(南翔镇政府斜对面)"},{"poiid":"B2094757D16DA6F94293","title":"桃浦健身中心","lon":"121.344512525","lat":"31.284894962","category":"500","category_name":"未知分类","address":"上海金通路380号"},{"poiid":"B2094757D16FA5F5409C","title":"槎浦新家园","lon":"121.33017","lat":"31.286604","category":"252","category_name":"楼宇机构","address":"上海市普陀区金迈路"},{"poiid":"B2094757D06BAAFB449A","title":"普陀区看守所","lon":"121.34403991","lat":"31.294921875","category":"500","category_name":"未知分类","address":"上海柳园路555弄55号"},{"poiid":"B2094753D76CA4F8479B","title":"上海保利国际影城祥腾店","lon":"121.32801","lat":"31.294763","category":"248","category_name":"生活娱乐","address":"上海市嘉定区真南路4368弄"},{"poiid":"B2094757D06BAAFF449D","title":"农工商红利会员店(桃浦)","lon":"121.338872525","lat":"31.2821949061","category":"118","category_name":"超级市场","address":"普陀区金迎路85号(近地铁11号线桃浦新村站)"},{"poiid":"B2094757D16DA2FE4098","title":"贝贝大酒店","lon":"121.336992054","lat":"31.303102793","category":"76","category_name":"上海菜","address":"宝山区丰翔路2158号(丰翔路园泰路)"},{"poiid":"B2094753D665A6FA449C","title":"捞王锅物料理","lon":"121.326644","lat":"31.293373","category":"247","category_name":"餐饮美食","address":"上海市 中冶翔腾广场"},{"poiid":"B2094757D16AA3F8429F","title":"味之都(南翔镇店)","lon":"121.32844","lat":"31.30149","category":"68","category_name":"快餐厅","address":"嘉定区南翔镇丰翔路3618号家乐福1楼(近沪宜公路)"},{"poiid":"B2094752D26EA1FE489C","title":"麦当劳","lon":"121.325317","lat":"31.297104","category":"247","category_name":"餐饮美食","address":"南翔中冶祥腾广场"},{"poiid":"B2094654D46BA5F8419E","title":"曙光苑(丰翔路)","lon":"121.32737","lat":"31.30015","category":"47","category_name":"住宅区","address":""},{"poiid":"B2094757D06AABF44692","title":"凯旋宫酒楼(南翔店)","lon":"121.32478942","lat":"31.298657497","category":"76","category_name":"上海菜","address":"嘉定区丰翔路3168号(近真南路)"},{"poiid":"B2094654D46BA6F5439A","title":"亚龙别墅","lon":"121.3298","lat":"31.29974","category":"47","category_name":"住宅区","address":"虹光路"},{"poiid":"B2094655D36CA3FA439E","title":"新杨雅苑","lon":"121.34382","lat":"31.29162","category":"47","category_name":"住宅区","address":"上海市普陀区真南路3407弄1,2,5,6,10-12号"}]