[{"poiid":"B2094654DB65A5FC449C","title":"上海蓝海博龙国际大酒店","lon":"121.5608","lat":"31.1898","category":"247","category_name":"餐饮美食","address":"浦东新区高科西路2991号(近白杨路)"},{"poiid":"B2094757D06FA2FD459D","title":"麦当劳(北蔡店)","lon":"121.5551941","lat":"31.1822095","category":"68","category_name":"快餐厅","address":"浦东新区沪南路999号美食广场1楼(近莲溪车站)"},{"poiid":"B2094757D06FA2F8479D","title":"北蔡","lon":"121.55384826","lat":"31.188753128","category":"500","category_name":"未知分类","address":"上海浦东新区高科西路沪南路"},{"poiid":"B2094757D068A3F44099","title":"51生活时区","lon":"121.55492","lat":"31.18289","category":"119","category_name":"商场","address":"浦东新区北中路160号(沪南路口)"},{"poiid":"B2094757D069A2FC479D","title":"金钵华美达广场酒店","lon":"121.55420901","lat":"31.182115699","category":"213","category_name":"五星级宾馆","address":"上海浦东新区沪南路938号"},{"poiid":"B2094757D168A3FC439A","title":"北蔡休闲广场","lon":"121.5557373537124","lat":"31.183535609031264","category":"116","category_name":"特色商业街","address":"浦东新区北中路183号"},{"poiid":"B2094757D06BA7FC469F","title":"蓝钻海鲜自助餐厅","lon":"121.56098","lat":"31.18962","category":"268","category_name":"自助","address":"浦东新区高科西路2991号蓝海博龙国际大酒店2楼(近白杨路)"},{"poiid":"B2094757D06BA1F94398","title":"沪碟 汇味馆 浦东店","lon":"121.55287914","lat":"31.185616383","category":"257","category_name":"中餐厅","address":"浦东新区沪南路999号51生活广场4-5楼(近北中路)"},{"poiid":"B2094750D26FA2FA4099","title":"迪街量贩KTV","lon":"121.556549","lat":"31.182407","category":"170","category_name":"KTV","address":"浦东新区沪南路967号51生活广场4-5楼(北中路口)"},{"poiid":"B2094655D26FA1FD419F","title":"紫叶花园","lon":"121.559","lat":"31.1892","category":"47","category_name":"住宅区","address":"沪南路1105号"},{"poiid":"B2094654DA6AA0F5429A","title":"世外桃源花园别墅小区","lon":"121.56042","lat":"31.18675","category":"47","category_name":"住宅区","address":"上海市浦东新区莲溪路1-189号"},{"poiid":"B2094757D06BA6FC439E","title":"北蔡社区卫生服务中心","lon":"121.55328","lat":"31.18498","category":"162","category_name":"医院","address":"上海浦东新区莲园路271号(近沪南路)"},{"poiid":"B2094757D068A0FC449B","title":"上海海事大学附属(北蔡)中学(莲园路区)","lon":"121.55316","lat":"31.1847","category":"55","category_name":"中学","address":"上海浦东新区北蔡镇莲园路246号"},{"poiid":"B2094757D76EA2FC449D","title":"DQ冰雪皇后 北蔡店 Dairy Queen","lon":"121.55519","lat":"31.1822","category":"113","category_name":"冷饮店","address":"浦东新区沪南路999号美食广场1楼(近国美电器)"},{"poiid":"B2094757D16DA5F84098","title":"清风人家","lon":"121.554768975","lat":"31.182769451","category":"260","category_name":"其他","address":"浦东新区沪南路967号51时尚广场北楼3楼(近北中路)"},{"poiid":"B2094655D36CA5F44493","title":"北中路沪南路","lon":"121.55517","lat":"31.18328","category":"38","category_name":"公交车站","address":""},{"poiid":"B2094751DA6CA7F8429F","title":"浦东八佰伴","lon":"121.558891","lat":"31.18582","category":"247","category_name":"餐饮美食","address":null},{"poiid":"B2094757D069A4F4419B","title":"世外桃源","lon":"121.55750097","lat":"31.186546039","category":"500","category_name":"未知分类","address":"上海莲溪路99弄"},{"poiid":"B2094654DB64A3F94493","title":"莲溪六村","lon":"121.55984","lat":"31.186941","category":"47","category_name":"住宅区","address":"莲溪路126弄1-42号"},{"poiid":"B2094654DA68A5FA479A","title":"上海市北蔡中学(莲园路)","lon":"121.5532","lat":"31.18481","category":"55","category_name":"中学","address":"莲园路246"},{"poiid":"B2094757D068ABF8419B","title":"莲溪","lon":"121.552561","lat":"31.185026","category":"500","category_name":"未知分类","address":"上海沪南路莲园路"},{"poiid":"B2094753D265A3FA479C","title":"川流不息（北蔡店）","lon":"121.55513190478518","lat":"31.183310707007436","category":"257","category_name":"中餐厅","address":"浦东新区北中路183弄北蔡休闲广场"},{"poiid":"B2094757D068A4F4449C","title":"蓝海博龙国际大酒店宴会厅","lon":"121.56092","lat":"31.18936","category":"217","category_name":"旅馆招待所","address":"上海浦东新区高科西路2991号(近白杨路)  "},{"poiid":"B2094751DA6EABFC4093","title":"泰妃阁","lon":"121.558899","lat":"31.185818","category":"247","category_name":"餐饮美食","address":"浦东南路999号新梅联合广场"},{"poiid":"B2094757D06BA6FE4292","title":"客家小厨 莲安东路店","lon":"121.559373","lat":"31.18074","category":"72","category_name":"广东菜","address":"浦东新区莲安东路180号(近沪南路)"},{"poiid":"B2094751DA69A4FE409F","title":"港丽餐厅","lon":"121.558891","lat":"31.185814","category":"247","category_name":"餐饮美食","address":"浦东新梅广场"},{"poiid":"B2094654DA6AA0F54093","title":"莲溪广场","lon":"121.56124","lat":"31.18358","category":"202","category_name":"公园广场","address":"上海莲溪路北中路"},{"poiid":"B2094654DB6AA6F8459B","title":"上海北蔡大酒店","lon":"121.55162","lat":"31.18809","category":"76","category_name":"上海菜","address":"浦东新区高科西路2692号(近地铁芳华站)"},{"poiid":"B2094757D068ABFA4298","title":"莲溪八村","lon":"121.55817","lat":"31.185799","category":"47","category_name":"住宅区","address":"上海莲园路505弄"},{"poiid":"B2094654DA6AA7FD4699","title":"特色小笼馆(洁而挺干洗店东)","lon":"121.55825","lat":"31.1856","category":"68","category_name":"快餐厅","address":"浦东新区莲园路506号(近莲溪路)"},{"poiid":"B2094654DA6AA7FD489E","title":"莲宏苑","lon":"121.55669","lat":"31.185314","category":"47","category_name":"住宅区","address":"莲园路468弄1-19号"},{"poiid":"B2094757D16CA7FD469C","title":"沪南路莲园路","lon":"121.5563","lat":"31.186431","category":"500","category_name":"未知分类","address":"上海虹南弄"},{"poiid":"B2094654DA6AA7FE4399","title":"北蔡羊肉馆","lon":"121.55447","lat":"31.18771","category":"76","category_name":"上海菜","address":"浦东新区北蔡大街24号(近沪南路)"},{"poiid":"B2094655D268A6F5489E","title":"金桂轩","lon":"121.554421054","lat":"31.183722793","category":"72","category_name":"广东菜","address":"浦东新区沪南路938号金钵华美达广场酒店内(近北中路)"},{"poiid":"B2094654DA6AA0F5409E","title":"莲怡苑","lon":"121.560699","lat":"31.188721","category":"47","category_name":"住宅区","address":"莲怡苑位于浦东莲安东路367弄"},{"poiid":"B2094757D66CA1FB4698","title":"环龙公寓","lon":"121.55833","lat":"31.189503","category":"47","category_name":"住宅区","address":"上海市闵行区莲花南路1288弄"},{"poiid":"B2094757D66AA4F94898","title":"桐乡羊肉馆","lon":"121.554305054","lat":"31.188056793","category":"76","category_name":"上海菜","address":"浦东新区北蔡大街20号(北蔡大街沪南路)"},{"poiid":"B2094751DA69A5FC4499","title":"tasty西堤牛排（新梅店）","lon":"121.558891","lat":"31.185812","category":"247","category_name":"餐饮美食","address":"浦东新梅联合广场4楼"},{"poiid":"B2094654DA6AA7FC449D","title":"金鼎鸡","lon":"121.558235054","lat":"31.183975793","category":"76","category_name":"上海菜","address":"浦东新区北中路273号(莲中路口)"},{"poiid":"B2094751DB64A4FF4493","title":"阅香名邸中国会所","lon":"121.55391","lat":"31.18231","category":"72","category_name":"广东菜","address":"浦东新区沪南路938号(近北中路)"},{"poiid":"B2094655D36CA1FA459D","title":"莲园路","lon":"121.56009","lat":"31.18692","category":"38","category_name":"公交车站","address":""},{"poiid":"B2094757D06AA5FA419A","title":"沪碟•汇味馆","lon":"121.55505597","lat":"31.187088051","category":"247","category_name":"餐饮美食","address":"上海市浦东新区沪南路999号"},{"poiid":"B2094655D36CA1FA4592","title":"莲溪路莲园路","lon":"121.56031","lat":"31.18641","category":"38","category_name":"公交车站","address":""},{"poiid":"B2094654DA6AA7FD4793","title":"金都名剪","lon":"121.55718","lat":"31.18562","category":"148","category_name":"美容美发店","address":"莲园路471"},{"poiid":"B2094654DA6AA7FC4398","title":"莲溪二村","lon":"121.55937","lat":"31.185772","category":"47","category_name":"住宅区","address":"北中路383弄1-19号"},{"poiid":"B2094757D16FA3F8499E","title":"贝啦自助铁板烤肉","lon":"121.56000397","lat":"31.187272056","category":"257","category_name":"中餐厅","address":"上海市浦东新区高科西路莲溪路"},{"poiid":"B2094655D36CA4FD409C","title":"白杨路高科西路","lon":"121.55937","lat":"31.19019","category":"38","category_name":"公交车站","address":""},{"poiid":"B2094757D16AA4FE4493","title":"南浦大桥转内环高架","lon":"121.55892097","lat":"31.187647065","category":"260","category_name":"其他","address":"上海市浦东新区高科西路"},{"poiid":"B2094757D16EA5FD4192","title":"王中王鸡店(北中路店)","lon":"121.5565","lat":"31.18319","category":"68","category_name":"快餐厅","address":"浦东新区北中路221号(近沪南路)"},{"poiid":"B2094654DA68A5FA4493","title":"汉堡小子(莲园路)","lon":"121.55378","lat":"31.18498","category":"68","category_name":"快餐厅","address":"浦东新区沪南路846号(莲园路口)"},{"poiid":"B2094654DA6AA0F54399","title":"华佳花园","lon":"121.56171","lat":"31.18931","category":"47","category_name":"住宅区","address":"华佳花园(现房)位于浦东北蔡川北公路308号"},{"poiid":"B2094757D069A4FC429A","title":"芳芯路","lon":"121.5575512","lat":"31.1918344","category":"500","category_name":"未知分类","address":"上海市芳芯路312弄"},{"poiid":"B2094655D26AA5F5469C","title":"绝味鸭脖北中路店","lon":"121.55698","lat":"31.18348","category":"68","category_name":"快餐厅","address":"浦东新区北蔡镇北中路210号(近沪南路)"},{"poiid":"B2094757D66FA7FF419A","title":"悸动烧仙草北中路店","lon":"121.55579297","lat":"31.186758044","category":"500","category_name":"未知分类","address":"上海沪南路北中路"},{"poiid":"B2094654DA6AA7FD4492","title":"好德NO.236","lon":"121.56008","lat":"31.18618","category":"117","category_name":"便民商店/便利店","address":"莲园路599"},{"poiid":"B2094654DA6AA0F54193","title":"莲馨苑","lon":"121.56139","lat":"31.185982","category":"47","category_name":"住宅区","address":"莲园路630弄1-88号"},{"poiid":"B2094655D36CA5F4449D","title":"北中路","lon":"121.55609","lat":"31.18346","category":"38","category_name":"公交车站","address":""},{"poiid":"B2094654DA6AA7FE409A","title":"文峰美发美容丽都店","lon":"121.5544","lat":"31.18492","category":"148","category_name":"美容美发店","address":"北蔡镇"},{"poiid":"B2094757D169A6FF479F","title":"工商银行北蔡支行","lon":"121.560420975","lat":"31.1854610139","category":"150","category_name":"银行","address":"上海市浦东新区莲溪路莲园路"},{"poiid":"B2094654DA6AA7FC4298","title":"莲溪大楼","lon":"121.56049","lat":"31.18369","category":"46","category_name":"楼宇","address":"北中路354弄1-28号"},{"poiid":"B2094654DA6AA7FD499F","title":"北蔡镇图书馆","lon":"121.55467","lat":"31.18511","category":"181","category_name":"图书馆","address":"莲园路316"},{"poiid":"B2094654DB69A5F8429F","title":"文峰美容美发(沪南路店)","lon":"121.55319","lat":"31.18753","category":"148","category_name":"美容美发店","address":"浦东新区沪南路846号(沪南路莲园路)"},{"poiid":"B2094757D66EA4FF439A","title":"博士蛙365","lon":"121.559420975","lat":"31.182640948","category":"500","category_name":"未知分类","address":"上海浦东沪南路北中路"},{"poiid":"B2094654DA6AA0FA4293","title":"齿科诊所(高科西路)","lon":"121.55896","lat":"31.18954","category":"162","category_name":"医院","address":"高科西路2915"},{"poiid":"B2094757D06BA5FF439E","title":"莲园路(莲宏苑)","lon":"121.55691197","lat":"31.184809744","category":"500","category_name":"未知分类","address":"上海莲园路468弄"},{"poiid":"B2094655D268A6F54898","title":"好又多连锁超市","lon":"121.55279","lat":"31.18732","category":"118","category_name":"超级市场","address":""},{"poiid":"B2094757D068A1F9439A","title":"北蔡镇人民政府","lon":"121.55530949","lat":"31.182297488","category":"500","category_name":"未知分类","address":"上海沪南路1000号"},{"poiid":"B2094655D36CA6FE429D","title":"高科西路莲溪路","lon":"121.56042","lat":"31.18945","category":"38","category_name":"公交车站","address":""},{"poiid":"B2094654DA6AA7FC449B","title":"莲溪菜市场(北中路)","lon":"121.55879","lat":"31.18405","category":"117","category_name":"便民商店/便利店","address":"浦东新区北中路383号(北中路莲溪路)"},{"poiid":"B2094654DA6AA7FC419B","title":"好德NO.304","lon":"121.55901","lat":"31.18376","category":"117","category_name":"便民商店/便利店","address":"北中路352"},{"poiid":"B2094654DA6AA0F5429D","title":"华安公寓(高科西路)","lon":"121.56024","lat":"31.18915","category":"47","category_name":"住宅区","address":"高科西路2960弄1-4号"},{"poiid":"B2094654DA68A5FA4799","title":"北蔡派出所","lon":"121.55236","lat":"31.18537","category":"609","category_name":"警察局","address":"上海市浦东新区莲园路225号"},{"poiid":"B2094654DA6AA7FC4198","title":"莲溪一村","lon":"121.55927","lat":"31.183701","category":"47","category_name":"住宅区","address":"上海北中路354弄"},{"poiid":"B2094654DA6AA0F5499D","title":"小区(北中路)","lon":"121.55759","lat":"31.18359","category":"47","category_name":"住宅区","address":"北中路280弄"},{"poiid":"B2094654DA6AA7FE4198","title":"安达医院口腔诊所部","lon":"121.55477","lat":"31.1839","category":"162","category_name":"医院","address":"沪南路889号"},{"poiid":"B2094654DA6AA5FF4999","title":"罗森(浦东新区莲溪小学东)","lon":"121.56017","lat":"31.18416","category":"117","category_name":"便民商店/便利店","address":""},{"poiid":"B2094654DA6AA7FC429E","title":"417弄1-3号小区","lon":"121.56025","lat":"31.18422","category":"47","category_name":"住宅区","address":"北中路417弄1-3号"},{"poiid":"B2094655D36DA2FB4592","title":"沪南路白莲泾桥","lon":"121.55358","lat":"31.18642","category":"250","category_name":"公园户外","address":""},{"poiid":"B2094654DA6AA6FA419D","title":"嘉定经济城","lon":"121.55308","lat":"31.1884","category":"45","category_name":"产业园区","address":""},{"poiid":"B2094655D26BABFF419D","title":"金色航城","lon":"121.55478","lat":"31.18421","category":"47","category_name":"住宅区","address":"沪南路"},{"poiid":"B2094757D06BA5F5469A","title":"中国银行北蔡支行","lon":"121.556851","lat":"31.183718","category":"150","category_name":"银行","address":"浦东新区北蔡镇北中路253号(北中路莲中路)"},{"poiid":"B2094654DB64A3FA409B","title":"华联超市(高科西路店)","lon":"121.56039","lat":"31.18917","category":"118","category_name":"超级市场","address":"高科西路2960弄"},{"poiid":"B2094757D464A0FB489A","title":"湘味川土菜馆 莲安东路店","lon":"121.55911261861","lat":"31.181426887356","category":"71","category_name":"四川菜","address":"浦东新区莲安东路162号(近莲溪路)"},{"poiid":"B2094655D36CA7FE4693","title":"沪南路高科西路","lon":"121.55212","lat":"31.1896","category":"38","category_name":"公交车站","address":""},{"poiid":"B2094654DA6AA7FC4299","title":"好德NO.737","lon":"121.56045","lat":"31.1842","category":"117","category_name":"便民商店/便利店","address":""},{"poiid":"B2094654DA6AA7F5449E","title":"中国工商银行(莲溪路)","lon":"121.56024","lat":"31.1858","category":"150","category_name":"银行","address":"北蔡镇"},{"poiid":"B2094654DA6AA7FC429D","title":"新华书店(浦东新区莲溪小学东)","lon":"121.55999","lat":"31.18415","category":"125","category_name":"书店","address":""},{"poiid":"B2094655D26FA6F94493","title":"农工商超市(泸南路店)","lon":"121.55322","lat":"31.1887","category":"118","category_name":"超级市场","address":"泸南路633号"},{"poiid":"B2094757D66CA5F8469E","title":"上海电信北蔡营业厅","lon":"121.55435297","lat":"31.183931278","category":"150","category_name":"银行","address":"上海沪南公路1055号"},{"poiid":"B2094654DA6AA0F54293","title":"花木公寓","lon":"121.56076","lat":"31.189203","category":"47","category_name":"住宅区","address":"高科西路2970弄1-4号"},{"poiid":"B2094752D16DA4FC4798","title":"杭州西湖","lon":"121.556762","lat":"31.18459","category":"500","category_name":"未知分类","address":"杭州西湖"},{"poiid":"B2094654DA68A5FA4698","title":"中国建设银行上海北蔡支行","lon":"121.55387","lat":"31.18478","category":"150","category_name":"银行","address":"浦东新区沪南路858号(沪南路莲园路)"},{"poiid":"B2094654DA6AA0F94993","title":"培花七居","lon":"121.55782","lat":"31.191681","category":"47","category_name":"住宅区","address":"芳芯路312弄"},{"poiid":"B2094654DA6AA7FE419A","title":"兰亭花店(沪南路)","lon":"121.5547","lat":"31.18398","category":"117","category_name":"便民商店/便利店","address":"浦东新区莲园路(沪南路莲园路)"},{"poiid":"B2094654DB64A3FA4399","title":"中国电信(沪南公路营业厅)","lon":"121.55565","lat":"31.18174","category":"151","category_name":"电讯营业厅","address":"南汇区沪南公路1053号(北蔡)"},{"poiid":"B2094654DA6AA7FD4598","title":"陈桂珍(私立)口腔诊所","lon":"121.55951","lat":"31.18602","category":"668","category_name":"诊所","address":"莲园路573"},{"poiid":"B2094757D66EA4F44393","title":"沪南路","lon":"121.557594","lat":"31.183591","category":"500","category_name":"未知分类","address":"上海北中路"},{"poiid":"B2094654DA6AA1F8469D","title":"和平花园","lon":"121.5536","lat":"31.1895","category":"47","category_name":"住宅区","address":"川北公路"},{"poiid":"B2094757D569A1FE499E","title":"新家静品","lon":"121.562232","lat":"31.187394","category":"47","category_name":"住宅区","address":"新家静品位于浦东沪南路1101号808室"},{"poiid":"B2094654DA6AA0F54999","title":"红蜻蜓北蔡专卖店","lon":"121.55729","lat":"31.18354","category":"141","category_name":"服装鞋帽皮具店","address":"浦东新区北中路268号(北中路莲中路)"},{"poiid":"B2094654DB6BABFA4792","title":"新华书店(北蔡镇中心小学西)","lon":"121.55276","lat":"31.18731","category":"125","category_name":"书店","address":""},{"poiid":"B2094757D06AA5FF409B","title":"沪南线莲溪站","lon":"121.556295","lat":"31.183543","category":"500","category_name":"未知分类","address":"上海沪南路北中路"},{"poiid":"B2094753D065A3FC4598","title":"棒约翰比萨(北蔡店)","lon":"121.55551","lat":"31.18232","category":"94","category_name":"西餐厅","address":"浦东新区沪南路999号51生活广场1楼(近北中路)"},{"poiid":"B2094757D66BA4FB4493","title":"杨记川菜馆","lon":"121.55353440712","lat":"31.191858716469","category":"71","category_name":"四川菜","address":"浦东新区连波路204号(近芳草路)"},{"poiid":"B2094757D065A7FE449F","title":"全家便利北蔡店","lon":"121.552838","lat":"31.186946","category":"249","category_name":"购物服务","address":"上海沪南路611号"},{"poiid":"B2094751DA6CA5FC4293","title":"浦城路商城路","lon":"121.55476","lat":"31.183194","category":"500","category_name":"未知分类","address":null},{"poiid":"B2094654DA68A5FB4093","title":"北蔡镇中心小学","lon":"121.55146","lat":"31.18729","category":"56","category_name":"小学","address":"浦东新区北蔡大街100号(近沪南路)"},{"poiid":"B2094654DA6AA0FA459C","title":"光明便利NO.132","lon":"121.55275","lat":"31.18916","category":"117","category_name":"便民商店/便利店","address":"北蔡镇"},{"poiid":"B2094654DA6AA7FC469D","title":"东莲大厦","lon":"121.563","lat":"31.1856","category":"46","category_name":"楼宇","address":"沪南公路1101号"},{"poiid":"B2094654DA6AA0FA4092","title":"林佳拉面馆","lon":"121.55356","lat":"31.19173","category":"257","category_name":"中餐厅","address":"浦东新区连波路227号(近芳芯路)"},{"poiid":"B2094757D064AAFA449F","title":"北蔡幼儿园","lon":"121.561503975","lat":"31.1829724557","category":"57","category_name":"幼儿园","address":"上海北中路455号"},{"poiid":"B2094654DA68A5FA449B","title":"光明乳业北蔡配送站","lon":"121.55354","lat":"31.18367","category":"117","category_name":"便民商店/便利店","address":""},{"poiid":"B2094750D06CA0F4469E","title":"培花新村第七居委","lon":"121.55751","lat":"31.190359","category":"252","category_name":"楼宇机构","address":"浦东新区芳芯路210弄49号"},{"poiid":"B2094757D16FA4FC459C","title":"一茶一座 (周浦万达店)","lon":"121.55132313","lat":"31.187614592","category":"47","category_name":"住宅区","address":"上海周浦镇万达商业广场一楼"},{"poiid":"B2094757D66EA4FC4292","title":"上海市武警一支队九中队","lon":"121.55446157","lat":"31.184230185","category":"500","category_name":"未知分类","address":"上海浦东南路2257号"},{"poiid":"B2094654DA6AA6FA459D","title":"快客(高科西路)","lon":"121.56187","lat":"31.18933","category":"117","category_name":"便民商店/便利店","address":""},{"poiid":"B2094654DA68A5FA489F","title":"参泉池休闲浴场","lon":"121.55322","lat":"31.18673","category":"149","category_name":"洗浴推拿场所","address":""},{"poiid":"B2094654DA68A5FB409F","title":"上海蔬菜集团北蔡副食品批发交易市场","lon":"121.55225","lat":"31.18699","category":"117","category_name":"便民商店/便利店","address":"北蔡大街93号"},{"poiid":"B2094757D16AA7FE459D","title":"南郊花园","lon":"121.55343","lat":"31.184029","category":"47","category_name":"住宅区","address":"上海沪南公路3633弄"},{"poiid":"B2094654DA6AA0F5409F","title":"莲溪路399弄1-36号小区","lon":"121.56145","lat":"31.18297","category":"47","category_name":"住宅区","address":"莲溪路399弄1-36号"},{"poiid":"B2094757D068A3FD499F","title":"798 终点站","lon":"121.560141","lat":"31.184069","category":"500","category_name":"未知分类","address":"上海北中路 莲溪路"},{"poiid":"B2094655D265AAFF479C","title":"宏莲馨苑三期","lon":"121.556036","lat":"31.191804","category":"47","category_name":"住宅区","address":"上海市浦东新区莲园路151弄"},{"poiid":"B2094757D66CABFF4492","title":"cloRiss home","lon":"121.55501997","lat":"31.183916977","category":"500","category_name":"未知分类","address":null},{"poiid":"B2094757D06BA2FF429E","title":"黎公馆","lon":"121.554210738","lat":"31.1827809896","category":"247","category_name":"餐饮美食","address":"上海南新四村里面某号某室"},{"poiid":"B2094757D66DA2F8469A","title":"楼外楼","lon":"121.55628497","lat":"31.190411129","category":"500","category_name":"未知分类","address":"上海孤山路30号"},{"poiid":"B2094757D16BA3F44892","title":"莲溪小学","lon":"121.556443975","lat":"31.1815209218","category":"56","category_name":"小学","address":"上海北中路343号"},{"poiid":"B2094753D668A0FE429A","title":"上海浦东新国际博览中心国际品牌高级酒店","lon":"121.554106","lat":"31.182761","category":"214","category_name":"四星级宾馆","address":null},{"poiid":"B2094757D16AAAFC4299","title":"莲溪--＞莲安东路莲中路","lon":"121.55799997","lat":"31.182153936","category":"500","category_name":"未知分类","address":"上海市莲安东路(良友便利店门口)"},{"poiid":"B2094654DA68A5FA4293","title":"北蔡广场","lon":"121.55496","lat":"31.18139","category":"201","category_name":"城市广场","address":""},{"poiid":"B2094654DA6AA0F9499D","title":"芳芯苑","lon":"121.55837","lat":"31.192148","category":"47","category_name":"住宅区","address":"芳芯路363弄1-9号"},{"poiid":"B2094654DA6AA7FE409C","title":"沪南路351弄","lon":"121.561","lat":"31.1906","category":"47","category_name":"住宅区","address":"沪南路351弄5-10号"},{"poiid":"B2094654DA6AA7FC479D","title":"良友金伴便利连锁NO.236","lon":"121.5578","lat":"31.1808","category":"117","category_name":"便民商店/便利店","address":"莲安东路99"},{"poiid":"B2094654DA6AA7FD449F","title":"北蔡镇劳动保障服务所","lon":"121.56046","lat":"31.18491","category":"248","category_name":"生活娱乐","address":"莲溪路150号"},{"poiid":"B2094654DA6AA7FE449B","title":"北蔡邮政支局","lon":"121.55328","lat":"31.18797","category":"248","category_name":"生活娱乐","address":"浦东新区沪南路663号"},{"poiid":"B2094654DA6AA7FE4093","title":"华南墓园办事处","lon":"121.5547","lat":"31.18412","category":"248","category_name":"生活娱乐","address":"沪南公路881"},{"poiid":"B2094654DA68A5FB489F","title":"好德便利No.742","lon":"121.55132","lat":"31.18487","category":"117","category_name":"便民商店/便利店","address":""},{"poiid":"B2094753D565A1F84092","title":"月星•环球港","lon":"121.55397","lat":"31.191286","category":"500","category_name":"未知分类","address":"上海市 中山北路3300号"},{"poiid":"B2094654DA6AA7FC479F","title":"光明便利NO.208","lon":"121.55746","lat":"31.18077","category":"117","category_name":"便民商店/便利店","address":"北蔡镇"},{"poiid":"B2094757D66EA4FC439C","title":"福成汽车4S店","lon":"121.56137697","lat":"31.184158983","category":"500","category_name":"未知分类","address":"上海市浦东新区莲溪路1225号"},{"poiid":"B209475CD66EAAF94992","title":"巫江渔火烤全鱼","lon":"121.559898","lat":"31.181373","category":"247","category_name":"餐饮美食","address":"上海市 北中路北蔡休闲广场"},{"poiid":"B2094757D66FA3FE469B","title":"猫咪之家","lon":"121.557292975","lat":"31.1825279453","category":"500","category_name":"未知分类","address":"上海莲中路174弄"},{"poiid":"B2094757D169A4F5419D","title":"六一幼儿园芳草部","lon":"121.559902675","lat":"31.1923073739","category":"57","category_name":"幼儿园","address":"浦东新区芳草路561号(芳草路申波路)"},{"poiid":"B2094654DA6AA0F94893","title":"美洁宠物","lon":"121.55612","lat":"31.19307","category":"162","category_name":"医院","address":"芳草路252号"},{"poiid":"B2094654DA6AA7FD439D","title":"莲溪路430弄1-18号小区","lon":"121.56123","lat":"31.18217","category":"47","category_name":"住宅区","address":"莲溪路430弄1-18号"},{"poiid":"B2094752DA68A5FA409D","title":"上海新天地","lon":"121.561798","lat":"31.190328","category":"500","category_name":"未知分类","address":"上海市 卢湾区自忠路338号"},{"poiid":"B2094654DA6AA7F54399","title":"便民饮食店(连波路)","lon":"121.55326","lat":"31.19167","category":"68","category_name":"快餐厅","address":"浦东新区连波路222号(近芳芯路)"},{"poiid":"B2094757D165A4FA4498","title":"△傻逼专用地","lon":"121.55860997","lat":"31.18230344","category":"500","category_name":"未知分类","address":null},{"poiid":"B2094752DA68A5F9429A","title":"上海新天地","lon":"121.557548","lat":"31.192503","category":"500","category_name":"未知分类","address":"上海市 上海卢湾区黄陂南路380号"},{"poiid":"B2094757D16DA2FE4899","title":"国美电器(北蔡店)","lon":"121.55605","lat":"31.18129","category":"138","category_name":"家电电子卖场","address":"浦东新区沪南路1087-1097号连珠大厦1-3楼(近莲安东路)"},{"poiid":"B2094751DA6AA4F44098","title":"东昌路","lon":"121.555761","lat":"31.191895","category":"500","category_name":"未知分类","address":null},{"poiid":"B2094757D66CA4FA4793","title":"北中路278弄","lon":"121.55652697","lat":"31.182107935","category":"252","category_name":"楼宇机构","address":"上海市浦东新区"},{"poiid":"B2094654DA6AA0FA469A","title":"中国农业银行浦东北蔡支行","lon":"121.55236","lat":"31.18967","category":"150","category_name":"银行","address":"泸南路591"},{"poiid":"B2094757D16BA7F54793","title":"北蔡北中路480弄","lon":"121.561840975","lat":"31.1834939679","category":"500","category_name":"未知分类","address":"上海北蔡北中路480弄"},{"poiid":"B2094757D064ABF94492","title":"内环线","lon":"121.55219268","lat":"31.190000534","category":"500","category_name":"未知分类","address":"上海内环线"},{"poiid":"B2094757D66CABFA4698","title":"好德便利","lon":"121.55858967","lat":"31.18231834","category":"249","category_name":"购物服务","address":"上海莲安东路126号"},{"poiid":"B2094757D16DA5FE459A","title":"莲中路255弄","lon":"121.5584397","lat":"31.181569","category":"252","category_name":"楼宇机构","address":"上海莲中路255弄"},{"poiid":"B2094757D06AA2FB489C","title":"农业银行北蔡支行","lon":"121.552293538","lat":"31.1896358855","category":"150","category_name":"银行","address":"上海沪南路"},{"poiid":"B2094654DA6AA7FC4699","title":"中国电信浦东电信局北蔡分局","lon":"121.55566","lat":"31.18174","category":"263","category_name":"公司","address":"沪南路1055"},{"poiid":"B2094654DA68A5FA4498","title":"北蔡敬老院","lon":"121.55303","lat":"31.18384","category":"615","category_name":"敬老院","address":""},{"poiid":"B2094757D064A4FD449D","title":"nike放肆跑","lon":"121.557167775","lat":"31.1815109216","category":"500","category_name":"未知分类","address":"上海松江新城"},{"poiid":"B2094757D16DA5FC459A","title":"内环内环","lon":"121.558439","lat":"31.1815689","category":"500","category_name":"未知分类","address":"上海莲中路255弄"},{"poiid":"B2094757D66DA5FF499A","title":"Angel^_^Hm","lon":"121.55287573","lat":"31.19127747","category":"500","category_name":"未知分类","address":"上海市浦东新区沪南路"},{"poiid":"B2094654DA6AA7FC469C","title":"金秋之星网吧","lon":"121.55587","lat":"31.18132","category":"176","category_name":"网吧","address":"沪南路1097"},{"poiid":"B2094654DA6AA7FD449A","title":"万国驾校报名处(莲溪路)","lon":"121.56105","lat":"31.18303","category":"248","category_name":"生活娱乐","address":"莲溪路400号"},{"poiid":"B2094757DA69A1FF4093","title":"永达一汽大众沪南4S店","lon":"121.55457","lat":"31.18174","category":"639","category_name":"汽车交通类公司","address":"浦东新区沪南路御桥路"}]