[{"poiid":"B2094752D264A0FC479C","title":"巧克力开心乐园","lon":"121.475159","lat":"31.181213","category":"248","category_name":"生活娱乐","address":"博成路100号"},{"poiid":"B2094757D06FA1FF449C","title":"第一妇婴保健院(耀华路分院)","lon":"121.48462","lat":"31.17282","category":"162","category_name":"医院","address":"浦东新区耀华路391号(近长清路)"},{"poiid":"B2094757D169A6FA489C","title":"魔都","lon":"121.48171873","lat":"31.169546008","category":"500","category_name":"未知分类","address":"上海"},{"poiid":"B2094757D06FAAFE419F","title":"后滩公园","lon":"121.4758535","lat":"31.184998305","category":"196","category_name":"公园","address":"上海浦东新区世博会园B片区"},{"poiid":"B2094757D06FA0FA499E","title":"世博会非洲联合馆","lon":"121.47401428","lat":"31.182336807","category":"260","category_name":"其他","address":"上海浦东新区博成路上钢路口(原上海世博会C片区)"},{"poiid":"B2094757D06FA3F8479F","title":"世博会意大利馆","lon":"121.47576","lat":"31.1841","category":"260","category_name":"其他","address":"上海浦东新区世博大道上钢路口(原上海世博会C片区)"},{"poiid":"B2094757D06EAAF4449B","title":"长清路地铁站","lon":"121.48647265","lat":"31.174856049","category":"36","category_name":"地铁站","address":"上海轨道交通 七号线 轨交长清路站 7"},{"poiid":"B2094655D26CABFD4393","title":"新世纪花苑","lon":"121.48472","lat":"31.17509","category":"47","category_name":"住宅区","address":"上海浦东新区耀华路421弄"},{"poiid":"B2094757D06FA1F8499F","title":"富春小笼(耀华路店)","lon":"121.48261334","lat":"31.172451763","category":"68","category_name":"快餐厅","address":"浦东新区耀华路492号(近卢浦大桥)"},{"poiid":"B2094757D06FAAF4459D","title":"耀華路","lon":"121.48446655","lat":"31.174270629","category":"500","category_name":"未知分类","address":"上海耀華路"},{"poiid":"B2094757D16BA1F5419E","title":"麦盛莉","lon":"121.48261173","lat":"31.172518071","category":"249","category_name":"购物服务","address":"上海市浦东新区通耀路"},{"poiid":"B2094654DB65A6FA4592","title":"新世纪花苑(南门)","lon":"121.48059","lat":"31.17204","category":"656","category_name":"大门","address":"耀华路579弄1-127号"},{"poiid":"B2094757D56DAAFD4998","title":"冰星飞扬（世博）羽毛球馆","lon":"121.47396326065063","lat":"31.180634737769793","category":"248","category_name":"生活娱乐","address":"浦东新区后滩路139号(近国展路)"},{"poiid":"B2094757D06FAAF4429D","title":"麦盛莉(耀华店)","lon":"121.4763831","lat":"31.176898854","category":"76","category_name":"上海菜","address":"浦东新区耀华路488号(西营路口)"},{"poiid":"B2094757D068A7F5469E","title":"复旦大学附属眼耳鼻喉科医院(浦东分院)","lon":"121.484897","lat":"31.17427","category":"162","category_name":"医院","address":"浦东新区耀华路391号(近长清路)"},{"poiid":"B2094757D16FABF84098","title":"新世纪花苑三期","lon":"121.48117573","lat":"31.175086125","category":"47","category_name":"住宅区","address":"上海市杨浦区杭州路66弄"},{"poiid":"B2094757D06FA6F5459C","title":"打浦路隧道","lon":"121.48451","lat":"31.17358","category":"500","category_name":"未知分类","address":"上海长青路耀华路"},{"poiid":"B2094757D065A5FE469F","title":"浦东机场T2航站楼停车场","lon":"121.4873315","lat":"31.174126905","category":"21","category_name":"飞机场","address":"上海浦东新区启航路900号T2航站楼"},{"poiid":"B2094752DB6AA0FB469A","title":"上海海之宝体育运动中心","lon":"121.4775055492","lat":"31.179249091782","category":"230","category_name":"足球场","address":"上海浦东新区国展路410号（近上钢路）"},{"poiid":"B2094757D068A1FF4598","title":"红宝石(昌里路店)","lon":"121.48631391","lat":"31.177169422","category":"67","category_name":"甜品店","address":"浦东新区昌里路347号(近长清路)"},{"poiid":"B2094757D069A7FF4598","title":"上海世博园冰雕艺术展","lon":"121.469558038","lat":"31.1745844152","category":"500","category_name":"未知分类","address":"浦东新区世博大道1200号梅赛德斯奔驰文化中心"},{"poiid":"B2094757D06AA1F8459F","title":"卢浦大桥耀华路下匝道","lon":"121.481870571","lat":"31.1688133424","category":"500","category_name":"未知分类","address":"上海耀华路西营路"},{"poiid":"B2094752D06DA3F9459D","title":"飞行家主题园","lon":"121.475925","lat":"31.180498","category":"250","category_name":"公园户外","address":"上海市浦东新区国展路311号"},{"poiid":"B2094752DA69A1F5449B","title":"博大汽车公园","lon":"121.472341","lat":"31.179505","category":"500","category_name":"未知分类","address":"上海市 国展路189号"},{"poiid":"B2094757D068A6FB459C","title":"世博会墨西哥馆","lon":"121.47791","lat":"31.17884","category":"260","category_name":"其他","address":"上海浦东新区国展路近上钢路(原上海世博会C片区)"},{"poiid":"B2094757D06FA2FA4293","title":"后滩地铁站","lon":"121.46936755","lat":"31.174126931","category":"36","category_name":"地铁站","address":"上海轨道交通 七号线 轨交后滩站 7"},{"poiid":"B2094757D068A5F8489D","title":"上钢七村","lon":"121.48531","lat":"31.172562","category":"47","category_name":"住宅区","address":"长清路63弄"},{"poiid":"B2094757D168ABFC4598","title":"上海克虏伯不锈钢有限公司","lon":"121.476977","lat":"31.174015","category":"46","category_name":"楼宇","address":"上海雪野西路101号"},{"poiid":"B2094757D068A7FD4893","title":"济阳公园","lon":"121.47993589","lat":"31.169316816","category":"196","category_name":"公园","address":"浦东新区耀华路600号(济阳路口)"},{"poiid":"B2094752D364A3F44293","title":"新四季大酒店","lon":"121.480079","lat":"31.175937","category":"76","category_name":"上海菜","address":"浦东新区耀华路385号(长清路站地铁口)"},{"poiid":"B2094757D16CA4F5479C","title":"同里粥庄","lon":"121.477101071","lat":"31.1742154407","category":"247","category_name":"餐饮美食","address":"上海上南路894号(近昌里路)"},{"poiid":"B2094753D46BAAFD4398","title":"海之宝足球场","lon":"121.478721","lat":"31.179347","category":"220","category_name":"运动场所","address":"上海市 国展路401号"},{"poiid":"B2094757D06AA5FD4698","title":"杨高南路浦三路","lon":"121.478394451","lat":"31.1781563378","category":"500","category_name":"未知分类","address":"上海杨高南路浦三路"},{"poiid":"B2094752D26EA5F8479E","title":"世博希腊馆","lon":"121.477208","lat":"31.185743","category":"500","category_name":"未知分类","address":null},{"poiid":"B2094751D26DABF8409A","title":"飞行家主题园","lon":"121.481018","lat":"31.177612","category":"250","category_name":"公园户外","address":"浦东新区国展路300号"},{"poiid":"B2094753D668A2F8429E","title":"虹口龙之梦","lon":"121.481583","lat":"31.17323","category":"500","category_name":"未知分类","address":"上海市 虹口区"},{"poiid":"B2094753D26AAAFD4392","title":"巴黎春天","lon":"121.478516","lat":"31.174197","category":"500","category_name":"未知分类","address":"上海市 浦东新区成山路"},{"poiid":"B209475CD665A4F8429D","title":"卢浦大桥","lon":"121.480644","lat":"31.175542","category":"500","category_name":"未知分类","address":"上海市 世博后滩"},{"poiid":"B2094757D069A3FE4292","title":"龙腾大道南滨江","lon":"121.47991373","lat":"31.180792247","category":"260","category_name":"其他","address":"上海市徐汇区龙腾大道"},{"poiid":"B2094757D06FA4F54299","title":"世博园七号门","lon":"121.484425477","lat":"31.1802093305","category":"680","category_name":"楼宇机构","address":"上海世博园七号门长清北路出入口"},{"poiid":"B2094753D768A2FF469F","title":"小辉哥火锅（乐城店）","lon":"121.47583","lat":"31.182259","category":"247","category_name":"餐饮美食","address":"上海市徐汇区中山南二路699号2栋304—305"},{"poiid":"B2094757D06BA6FF419D","title":"上岛咖啡 耀华路店 UBC Coffee","lon":"121.483056","lat":"31.172774","category":"260","category_name":"其他","address":"浦东新区耀华路488号信建大厦3楼(近地铁7号线长清路站3号口)"},{"poiid":"B2094757D069A5FD4493","title":"救恩堂","lon":"121.48392","lat":"31.17312","category":"245","category_name":"教堂","address":"浦东新区耀华路439号(近西营路)"},{"poiid":"B2094757DB6CA5F8469F","title":"世博园区","lon":"121.4741098971819","lat":"31.1762945128317","category":"500","category_name":"未知分类","address":"婚博会"},{"poiid":"B209475CD769A0FF439A","title":"墨西哥艺术中心","lon":"121.479209","lat":"31.173645","category":"500","category_name":"未知分类","address":"上海市 上海市世博园国展路410号"},{"poiid":"B2094757D06BA0FA459C","title":"鼎味鲜苏州汤包馆(昌里店)","lon":"121.484429738","lat":"31.1770331673","category":"247","category_name":"餐饮美食","address":"上海市浦东新区昌里路(长青公园旁)"},{"poiid":"B2094655D26FA5FF409F","title":"联城花苑","lon":"121.48121","lat":"31.17263","category":"47","category_name":"住宅区","address":"耀华路555弄1-18号"},{"poiid":"B2094752D365A4FD4993","title":"2062新能源主题公园","lon":"121.480274","lat":"31.182386","category":"250","category_name":"公园户外","address":"世博园C片区"},{"poiid":"B2094655D36DA0F9499C","title":"耀华路新世纪花园","lon":"121.4825","lat":"31.17275","category":"38","category_name":"公交车站","address":""},{"poiid":"B2094655D265A1F94398","title":"中心广场(巴西馆西)","lon":"121.47553","lat":"31.17951","category":"201","category_name":"城市广场","address":"上海世博园区"},{"poiid":"B2094757D16AA3F8439C","title":"上海市申江两岸开发建设投资(集团)有限公司","lon":"121.481663538","lat":"31.1762608508","category":"263","category_name":"公司","address":"上海耀华路699号"},{"poiid":"B2094751D26DA1FD499F","title":"黄浦区","lon":"121.482368","lat":"31.175636","category":"500","category_name":"未知分类","address":"JW万豪酒店 南京西路399号明天广场"},{"poiid":"B2094757DB6FA5FE489B","title":"地铁9号线徐家汇站","lon":"121.4773750945231","lat":"31.18166830842563","category":"500","category_name":"未知分类","address":"徐家汇"},{"poiid":"B2094757D064A1F5449B","title":"东方体育中心P8观众停车场","lon":"121.48448861","lat":"31.177274622","category":"500","category_name":"未知分类","address":"上海耀体路耀龙路"},{"poiid":"B2094655D265A1FF4793","title":"丰收日","lon":"121.47794","lat":"31.18171","category":"257","category_name":"中餐厅","address":"上海世博园区"},{"poiid":"B2094655D26CAAFC469B","title":"上钢九村","lon":"121.4849","lat":"31.1736","category":"47","category_name":"住宅区","address":"耀华路414弄1-19号"},{"poiid":"B2094757D568AAFB489B","title":"全家(后滩路)","lon":"121.47403537","lat":"31.17884006","category":"117","category_name":"便民商店/便利店","address":"上海世博园区"},{"poiid":"B2094655D26FAAF4439A","title":"济阳二村","lon":"121.48161","lat":"31.170979","category":"47","category_name":"住宅区","address":"耀华路550弄"},{"poiid":"B2094654DA6DA6F4479B","title":"大顾饮食店","lon":"121.4761","lat":"31.1719","category":"257","category_name":"中餐厅","address":""},{"poiid":"B2094750DA6BA5FB439D","title":"地铁7号线","lon":"121.47982","lat":"31.179788","category":"627","category_name":"一般地点标志","address":null},{"poiid":"B2094753D26EA2F4429B","title":"南京西路","lon":"121.474813","lat":"31.173199","category":"500","category_name":"未知分类","address":"上海市 南京西路"},{"poiid":"B2094654DA68A6FA419E","title":"联城花苑(南门)","lon":"121.4812","lat":"31.17238","category":"47","category_name":"住宅区","address":"耀华路555弄1-18号"},{"poiid":"B2094757D065A7F4439F","title":"新世纪国际大酒店","lon":"121.48543518299","lat":"31.174531270398","category":"76","category_name":"上海菜","address":"浦东新区耀华路385号(西营路长清路间)"},{"poiid":"B2094757D16CA6FF499D","title":"西营路成山路","lon":"121.48375873","lat":"31.169918015","category":"500","category_name":"未知分类","address":"上海西营路成山路"},{"poiid":"B2094753D168A4F5479B","title":"跨悦时尚量贩KTV","lon":"121.48262","lat":"31.17264","category":"170","category_name":"KTV","address":"浦东新区耀华路488号信建大厦(近西营路)"},{"poiid":"B2094757D068A3FF409E","title":"世博会智利馆","lon":"121.47861","lat":"31.17925","category":"260","category_name":"其他","address":"上海世博会C片区"},{"poiid":"B2094757D16FA3FD419E","title":"世博会8号门 后滩","lon":"121.483853","lat":"31.179195","category":"500","category_name":"未知分类","address":"上海世博大道近雪野二路"},{"poiid":"B2094654DA6DA6F4469F","title":"上海市第二轻工业学校分部","lon":"121.47637","lat":"31.1714","category":"54","category_name":"职业技术学校","address":"耀华支路14"},{"poiid":"B209475CD668A5F84793","title":"徐汇滨江","lon":"121.472816","lat":"31.179346","category":"47","category_name":"住宅区","address":"上海市 龙腾大道"},{"poiid":"B2094655D26AA0F9469D","title":"地铁长清路站","lon":"121.48751","lat":"31.17543","category":"36","category_name":"地铁站","address":""},{"poiid":"B2094757D06AA4FD4299","title":"世博会后滩广场","lon":"121.472229","lat":"31.181316375","category":"500","category_name":"未知分类","address":"上海世博会C片区"},{"poiid":"B2094654DA68A2F4419D","title":"耀华幼儿园","lon":"121.48131","lat":"31.17114","category":"57","category_name":"幼儿园","address":"浦东新区耀华路550弄1号"},{"poiid":"B2094655D268A3FE4192","title":"济阳二村(北门)","lon":"121.48165","lat":"31.17191","category":"47","category_name":"住宅区","address":"耀华路550弄"},{"poiid":"B2094750D365A3FB489B","title":"上海意大利中心","lon":"121.47582388308","lat":"31.183763362212","category":"646","category_name":"文化体育类公司","address":"浦东新区世博大道2095号(近塘子泾路)"},{"poiid":"B2094757D165A7F44798","title":"大同古玩城","lon":"121.48319823","lat":"31.175966913","category":"249","category_name":"购物服务","address":"上海卢湾区斜徐路588号(鲁班路100号)"},{"poiid":"B209475CD165A6F5459D","title":"飞行家主题乐园","lon":"121.476776","lat":"31.181634","category":"500","category_name":"未知分类","address":"上海市 国展路311号"},{"poiid":"B2094757D06BA7FD4093","title":"龙之梦台金兰沙爹云吞面","lon":"121.48333457","lat":"31.176981544","category":"500","category_name":"未知分类","address":"上海龙之梦b2(麦当劳旁边)"},{"poiid":"B2094757D66EA4F8429C","title":"德西高层","lon":"121.477716738","lat":"31.1810352524","category":"500","category_name":"未知分类","address":"上海市浦东新区德州路400号,412号"},{"poiid":"B2094757D06FAAFB4298","title":"世博会巴西馆","lon":"121.47608","lat":"31.17963","category":"260","category_name":"其他","address":"上海浦东新区国展路近后滩路(原上海世博会C片区)"},{"poiid":"B2094752D56AABF44693","title":"世博展览馆","lon":"121.476251","lat":"31.172501","category":"627","category_name":"一般地点标志","address":null},{"poiid":"B2094655D26BAAFD469F","title":"德中同行之家","lon":"121.47682","lat":"31.18237","category":"183","category_name":"展览馆","address":"上海世博园区"},{"poiid":"B2094654DB65A1F5479F","title":"苏式面馆","lon":"121.48334","lat":"31.17072","category":"68","category_name":"快餐厅","address":"浦东新区西营路56号(近西营路菜场)"},{"poiid":"B2094655D26BA0FA409C","title":"中心广场(意大利馆东)","lon":"121.47659","lat":"31.18368","category":"201","category_name":"城市广场","address":"上海世博园区"},{"poiid":"B2094757D069A1F94393","title":"上钢八村","lon":"121.48532673","lat":"31.173201085","category":"252","category_name":"楼宇机构","address":"上海市浦东新区耀华路414弄"},{"poiid":"B2094757D06BA7FB499B","title":"济阳新村","lon":"121.481516361","lat":"31.1692341526","category":"47","category_name":"住宅区","address":"上海耀华路"},{"poiid":"B2094654DB6BABFF4298","title":"上钢新村(西门)(西营路)","lon":"121.48373","lat":"31.17119","category":"47","category_name":"住宅区","address":"西营路33弄"},{"poiid":"B2094751DA6DA2FB4693","title":"外婆家","lon":"121.485397","lat":"31.173981","category":"247","category_name":"餐饮美食","address":"浦东八佰伴"},{"poiid":"B2094757D66DA0FC4799","title":"上钢新村街道办事处","lon":"121.482347338","lat":"31.1725634722","category":"500","category_name":"未知分类","address":"上海西营路18号"},{"poiid":"B2094655D36DA0F9499F","title":"耀华路西营路","lon":"121.48639","lat":"31.17473","category":"38","category_name":"公交车站","address":""},{"poiid":"B2094655D36DA2F94593","title":"打浦路隧道","lon":"121.47834","lat":"31.18261","category":"250","category_name":"公园户外","address":""},{"poiid":"B2094654DA68A6FA4199","title":"上海盛地市政地基建设有限公司","lon":"121.4825","lat":"31.17307","category":"263","category_name":"公司","address":"耀华路495"},{"poiid":"B2094655D26AA0F9469C","title":"地铁浦江耀华站","lon":"121.47117","lat":"31.17349","category":"36","category_name":"地铁站","address":""},{"poiid":"B2094757D164A1F9429C","title":"开心城市","lon":"121.483638738","lat":"31.1737070965","category":"500","category_name":"未知分类","address":"上海某某路某某花苑"},{"poiid":"B209475CD265A3FD429C","title":"上海2062新能源公园","lon":"121.480186","lat":"31.181713","category":"500","category_name":"未知分类","address":"上海市 上海浦东塘子泾路191号"},{"poiid":"B2094654DA68A6FA419B","title":"上海市政养护管理有限公司卢浦大桥养护管理分公司","lon":"121.48264","lat":"31.17314","category":"263","category_name":"公司","address":"耀华路449"},{"poiid":"B2094757D164A7F84899","title":"梅园苏州汤包馆","lon":"121.482910638","lat":"31.1690608977","category":"68","category_name":"快餐厅","address":"浦东新区西营路56号(近成山路)"},{"poiid":"B2094751D46BA4F5409A","title":"七年八班","lon":"121.4810861","lat":"31.1688818","category":"247","category_name":"餐饮美食","address":"长清路"},{"poiid":"B2094757D66DA5F44592","title":"南燃棋牌室","lon":"121.48311976","lat":"31.173597436","category":"248","category_name":"生活娱乐","address":"上海耀华路西营路口"},{"poiid":"B2094654DA68A2FB4599","title":"济阳新村(东门)","lon":"121.48328","lat":"31.17085","category":"47","category_name":"住宅区","address":"上钢新村"},{"poiid":"B2094750DB65A6FD4399","title":"宅里厢","lon":"121.48397","lat":"31.169673","category":"76","category_name":"上海菜","address":"浦东新区西营路70-92号"},{"poiid":"B2094654DA68A6F9499E","title":"新世纪花苑(东门)","lon":"121.4858","lat":"31.17562","category":"656","category_name":"大门","address":"耀华路331弄1-59号"},{"poiid":"B2094750D26CA4FF489F","title":"日月光","lon":"121.480506","lat":"31.167711","category":"500","category_name":"未知分类","address":"日月光"},{"poiid":"B2094757D16AA3FF469C","title":"早餐很重要！","lon":"121.47877893","lat":"31.17062143","category":"500","category_name":"未知分类","address":"上海饭桌边"},{"poiid":"B2094757D16FA5F8449D","title":"意膳舫","lon":"121.487680838","lat":"31.1749609232","category":"75","category_name":"浙江菜","address":"浦东新区耀华路385号(近长清路)"},{"poiid":"B2094752D06BABFE489F","title":"商城路","lon":"121.480804","lat":"31.172869","category":"627","category_name":"一般地点标志","address":null},{"poiid":"B2094757D66EA4F8479C","title":"团购","lon":"121.47294573","lat":"31.179820226","category":"500","category_name":"未知分类","address":"上海团购"},{"poiid":"B2094757D064A5FE419C","title":"世博会欧洲广场","lon":"121.482866685","lat":"31.1816580569","category":"250","category_name":"公园户外","address":"上海浦东新区长清北路近国展路(原上海世博会C片区)"},{"poiid":"B2094753DB64A3FA4392","title":"梅赛德斯-奔驰文化中心","lon":"121.487693","lat":"31.175722","category":"500","category_name":"未知分类","address":"上海市 上海市浦东新区世博大道1200号"},{"poiid":"B2094654DA68A2FB4999","title":"上海师范大学美术学院常青分部","lon":"121.48531","lat":"31.17256","category":"52","category_name":"高等院校","address":"浦东新区耀华路414弄1-19号"},{"poiid":"B2094752D469A7F9479D","title":"2062新能源主题公园","lon":"121.4704194","lat":"31.1804502","category":"250","category_name":"公园户外","address":"塘子泾路191号"},{"poiid":"B2094757D66EA4F4409C","title":"百味居","lon":"121.48937","lat":"31.16916","category":"76","category_name":"上海菜","address":"浦东新区长清路123号(近成山路)"},{"poiid":"B2094655D26EA4FC4493","title":"和绿回转寿司","lon":"121.48531","lat":"31.17256","category":"95","category_name":"日本料理","address":"耀华路414号"},{"poiid":"B2094753D165A7FC489B","title":"湛江三仔烤海鲜（长清店）","lon":"121.484665","lat":"31.171386","category":"247","category_name":"餐饮美食","address":"上海市 长清路115号（近成山路）"},{"poiid":"B2094757D56EA6FD489E","title":"世博C区","lon":"121.476860046387","lat":"31.1818188137378","category":"251","category_name":"出行住宿","address":"上海世博园C区"},{"poiid":"B2094757D06BA5F9429C","title":"上鋼十村","lon":"121.484574738","lat":"31.1697700127","category":"47","category_name":"住宅区","address":"上海浦東新區西營路成山路"},{"poiid":"B2094757D66DA3FB4999","title":"世博二号物流仓库","lon":"121.471099854","lat":"31.1786327362","category":"500","category_name":"未知分类","address":"上海后滩八号门"},{"poiid":"B2094750D26DA6FC4498","title":"历城路夜排档","lon":"121.483647","lat":"31.183592","category":"247","category_name":"餐饮美食","address":"历城路昌里路"},{"poiid":"B2094757DA65A5F54993","title":"上海梅丽亚晶商务酒店（浦东世博店）","lon":"121.483646035","lat":"31.169339377","category":"216","category_name":"经济型连锁酒店","address":"上海市浦东新区西营路78号(近成山路)"},{"poiid":"B2094757D06AA2FE4993","title":"世博会列支敦士登馆(欧洲联合馆一)","lon":"121.48142242","lat":"31.181966781","category":"263","category_name":"公司","address":"上海世博会C片区"},{"poiid":"B2094654DA68A2FB489B","title":"上海市浦东新区上钢九村幼儿园","lon":"121.48506","lat":"31.1712","category":"57","category_name":"幼儿园","address":"浦东新区西营路33弄10号"},{"poiid":"B2094757D66DA2F4429C","title":"世博园B片区","lon":"121.470866","lat":"31.181044","category":"500","category_name":"未知分类","address":"上海世博园内"},{"poiid":"B2094757D16FA2FC4799","title":"浙东家乡菜","lon":"121.483930738","lat":"31.1689519953","category":"75","category_name":"浙江菜","address":"浦东新区西营路86-92号(近成山路)"},{"poiid":"B2094654DA68A2FB459C","title":"上海老庙黄金浦东银楼","lon":"121.48301","lat":"31.17125","category":"131","category_name":"珠宝首饰工艺品","address":""},{"poiid":"B2094752DB68A3F94398","title":"博大汽车公园","lon":"121.470067","lat":"31.1769","category":"500","category_name":"未知分类","address":"上海市 国展路189号"},{"poiid":"B2094757D568A0F9489D","title":"等候广场(欧洲广场东南)","lon":"121.4841498","lat":"31.17985138","category":"248","category_name":"生活娱乐","address":"上海世博园区"},{"poiid":"B2094655D26CAAFD479D","title":"明珠苍苑(东门)","lon":"121.48364","lat":"31.17002","category":"47","category_name":"住宅区","address":"西营路58、62"},{"poiid":"B2094757D16CA7FB429D","title":"世博会欧洲联合馆二","lon":"121.48152923","lat":"31.181295394","category":"260","category_name":"其他","address":"上海浦东新区国展路近塘子泾路(原上海世博会C片区)"},{"poiid":"B2094654DA68A2FB4893","title":"上钢七村幼儿园","lon":"121.48622","lat":"31.17258","category":"57","category_name":"幼儿园","address":"浦东新区耀华路414弄16号(西营路耀华路)"},{"poiid":"B2094655D268A1F94793","title":"教师公寓(长清路)","lon":"121.48723","lat":"31.17473","category":"47","category_name":"住宅区","address":"长清路10"},{"poiid":"B2094655D268A1F94792","title":"教师公寓东门(长清路)","lon":"121.48753","lat":"31.1747","category":"47","category_name":"住宅区","address":"长清路10"},{"poiid":"B2094757D065A0FA479E","title":"世博会阿尔巴尼亚馆（欧洲联合馆二）","lon":"121.48542022","lat":"31.179397583","category":"500","category_name":"未知分类","address":"上海世博馆C区"},{"poiid":"B209475CD264A1FE4898","title":"上海世博博大汽车公园","lon":"121.470993","lat":"31.18139","category":"500","category_name":"未知分类","address":"上海市 国展路189号"},{"poiid":"B2094753D46BA1FE409D","title":"东方体育中心游泳馆","lon":"121.48738","lat":"31.174001","category":"500","category_name":"未知分类","address":"上海市 耀体路701号"},{"poiid":"B2094655D26BA2FF4798","title":"通耀路耀龙路","lon":"121.4746","lat":"31.16836","category":"38","category_name":"公交车站","address":""},{"poiid":"B2094752D56CA3FD4892","title":"博大汽车公园","lon":"121.470101","lat":"31.180778","category":"250","category_name":"公园户外","address":"国展路后滩路"},{"poiid":"B2094757D168A7FC4592","title":"梅园苏州汤包","lon":"121.482812538","lat":"31.1687178904","category":"247","category_name":"餐饮美食","address":"上海西营路56号"},{"poiid":"B2094757D164AAFD4092","title":"黄龙体育馆","lon":"121.481685738","lat":"31.1694940069","category":"220","category_name":"运动场所","address":"杭州黄龙体育馆"},{"poiid":"B2094751DA6DA2F8409A","title":"浦东商场","lon":"121.4868102875738","lat":"31.17558196655584","category":"249","category_name":"购物服务","address":"德州路云台路"},{"poiid":"B2094757D569A3F94498","title":"百通商城","lon":"121.48447","lat":"31.16968","category":"119","category_name":"商场","address":"浦东新区成山路8-10号(近西营路)"},{"poiid":"B2094752D76CA3FE449F","title":"中国婚博会","lon":"121.483647","lat":"31.183592","category":"627","category_name":"一般地点标志","address":"上海世博展览馆"},{"poiid":"B2094655D26AA0F94899","title":"地铁世博园站","lon":"121.48543","lat":"31.18239","category":"36","category_name":"地铁站","address":""},{"poiid":"B2094655D26FA7FB489B","title":"济阳公园(北门)","lon":"121.47911","lat":"31.17045","category":"656","category_name":"大门","address":""},{"poiid":"B2094750DB68ABF44999","title":"后滩公园","lon":"121.470046","lat":"31.180978","category":"196","category_name":"公园","address":null},{"poiid":"B2094655D26AA4FF4693","title":"亨泰宾馆中餐厅","lon":"121.48371","lat":"31.16934","category":"247","category_name":"餐饮美食","address":"浦东新区西营路78号亨泰宾馆1楼(近成山路)"},{"poiid":"B2094654DB6BABFF4192","title":"明珠花苑(东门)","lon":"121.48395","lat":"31.16855","category":"47","category_name":"住宅区","address":"西营路102、106、118"},{"poiid":"B2094757D16EA3FD469E","title":"shihao's home","lon":"121.48156373","lat":"31.169370004","category":"500","category_name":"未知分类","address":"上海市浦东新区"},{"poiid":"B2094757D06AA7FA4899","title":"Ru's屋企","lon":"121.48767773","lat":"31.178688202","category":"247","category_name":"餐饮美食","address":null},{"poiid":"B2094654DA68A2FA469D","title":"上钢十村(南门)","lon":"121.48586","lat":"31.17027","category":"47","category_name":"住宅区","address":"上钢新村"},{"poiid":"B2094757D66EA7FB4793","title":"明珠花苑","lon":"121.483440238","lat":"31.1681748788","category":"47","category_name":"住宅区","address":"上海市浦东新区西营路106号"},{"poiid":"B2094655D265A1F8479C","title":"内水湿地","lon":"121.46964","lat":"31.18124","category":"196","category_name":"公园","address":"上海世博园区"},{"poiid":"B2094655D265A1FF4699","title":"中心广场(波兰馆东)","lon":"121.48181","lat":"31.18467","category":"201","category_name":"城市广场","address":"上海世博园区"},{"poiid":"B2094654DA68A2F4409E","title":"中国石化上海石油分公司(耀华路)","lon":"121.48688","lat":"31.17457","category":"255","category_name":"专卖店","address":"耀华路316"},{"poiid":"B2094757DA6EAAFF4493","title":"上海国际宠物犬博览会","lon":"121.485558500001","lat":"31.1807903","category":"248","category_name":"生活娱乐","address":"浦东新区国展路1099号"},{"poiid":"B2094757D569A7FC4698","title":"罗森(国展路)","lon":"121.48645969","lat":"31.18062039","category":"117","category_name":"便民商店/便利店","address":"上海世博园区"},{"poiid":"B2094654DB69ABFF4998","title":"农工商超市(西营店)","lon":"121.48371","lat":"31.16894","category":"118","category_name":"超级市场","address":"浦东新区西营路98号"},{"poiid":"B2094757D06FA0FF409C","title":"世博会卢森堡大公国馆","lon":"121.47599792","lat":"31.183130264","category":"260","category_name":"其他","address":"上海浦东新区上钢路博成路口(原上海世博会C片区)"},{"poiid":"B2094654DA68A2FB409F","title":"馨宝酒家(西营路)","lon":"121.48423","lat":"31.16889","category":"257","category_name":"中餐厅","address":"浦东新区西营路(近成山路)"},{"poiid":"B2094752D265A5F8499D","title":"世博滨江大道","lon":"121.486872","lat":"31.171731","category":"500","category_name":"未知分类","address":"上海市世博大道"},{"poiid":"B2094752D46AA7FA4592","title":"昌里路","lon":"121.483647","lat":"31.183592","category":"500","category_name":"未知分类","address":null},{"poiid":"B2094757D66EA1F8429B","title":"逸宸小筑","lon":"121.487371938","lat":"31.1764738554","category":"500","category_name":"未知分类","address":null},{"poiid":"B2094757D66CAAFB409E","title":"丸子铺","lon":"121.48744173","lat":"31.175085125","category":"500","category_name":"未知分类","address":"上海浦东新区上钢三村55号"},{"poiid":"B2094757D169AAFE479F","title":"耀龙路","lon":"121.468658447","lat":"31.1781234741","category":"500","category_name":"未知分类","address":"上海耀龙路"},{"poiid":"B2094757D068A3FC409A","title":"世博会卢森堡馆金色少女","lon":"121.47588","lat":"31.18309","category":"260","category_name":"其他","address":"原上海世博会卢森堡馆前"},{"poiid":"B2094654DA68A2FA499D","title":"浦东新区德州一村小学","lon":"121.4849","lat":"31.16929","category":"56","category_name":"小学","address":"浦东新区西营路55号(成山路西营路)"},{"poiid":"B2094757D064A7F54492","title":"神仙与佛的对话","lon":"121.48767261","lat":"31.175398412","category":"500","category_name":"未知分类","address":"上海各种迷惑各种纠结各种叨扰各种生活"},{"poiid":"B2094757D16DA0FB4799","title":"沫府","lon":"121.48142473","lat":"31.167577966","category":"247","category_name":"餐饮美食","address":"上海市浦东新区耀华路"},{"poiid":"B2094757D068ABFF499C","title":"世博会斯洛伐克馆","lon":"121.48275756","lat":"31.182130813","category":"260","category_name":"其他","address":"上海浦东新区长清北路近国展路(原上海世博会C片区)"},{"poiid":"B2094757D568A6F84998","title":"特许店(联华超市股份有限公司运营)(国展路)","lon":"121.48625081","lat":"31.18060438","category":"255","category_name":"专卖店","address":"上海世博园区"},{"poiid":"B2094654DA68A6F9489A","title":"上海市第四建筑有限公司","lon":"121.4878","lat":"31.177","category":"263","category_name":"公司","address":"浦东新区耀华路251"},{"poiid":"B2094757D06FA6FD4798","title":"Porterhouse爱尔兰酒吧","lon":"121.482203554","lat":"31.1844455537","category":"172","category_name":"酒吧","address":"上海世博园C区内"},{"poiid":"B2094752D064A7FE4598","title":"三林大光明影城","lon":"121.483194","lat":"31.170557","category":"627","category_name":"一般地点标志","address":"上海市浦东新区505号"},{"poiid":"B2094757D16BA7FB429E","title":"elaine home","lon":"121.48507673","lat":"31.170222022","category":"500","category_name":"未知分类","address":null},{"poiid":"B2094757D66CA5FC449C","title":"农工商西营路店","lon":"121.48288843","lat":"31.169001696","category":"500","category_name":"未知分类","address":"浦东新区西营路98号(成山路西营路)"},{"poiid":"B2094757D068A0FD479B","title":"世博会葡萄牙馆","lon":"121.48320007","lat":"31.182222366","category":"260","category_name":"其他","address":"上海浦东新区长清北路近国展路(原上海世博会C片区)"},{"poiid":"B2094752D365ABF9409A","title":"初鱼坊","lon":"121.487815","lat":"31.175778","category":"500","category_name":"未知分类","address":"昌里路220"},{"poiid":"B2094757D164A0F54699","title":"聚通装潢(杨思)","lon":"121.483665938","lat":"31.1694436058","category":"500","category_name":"未知分类","address":"浦东新区杨思路663-665号(近上南路)"},{"poiid":"B2094757D06FA5FD439F","title":"世博会丹麦馆小美人鱼","lon":"121.48209","lat":"31.18288","category":"260","category_name":"其他","address":"原上海世博会丹麦馆内"},{"poiid":"B2094753D76BA0FF4399","title":"上海世博洲际酒店","lon":"121.472961","lat":"31.184413","category":"500","category_name":"未知分类","address":"上海市 上海浦东新区雪野路1188号"},{"poiid":"B2094654DA68A6F94898","title":"上海市第四建筑有限公司市政部","lon":"121.48781","lat":"31.177","category":"263","category_name":"公司","address":"耀华路251"},{"poiid":"B2094757D16CA3F84493","title":"谋杀寂寞","lon":"121.48786273","lat":"31.178722203","category":"500","category_name":"未知分类","address":"上海孤独是高贵的 寂寞是无奈的"},{"poiid":"B2094757D56EA5F5429D","title":"世博大道站(浦东园区)4号口(地铁13号线)","lon":"121.48436","lat":"31.181859","category":"251","category_name":"出行住宿","address":"上海世博园区"},{"poiid":"B2094757D168ABFD4293","title":"龙耀路隧道","lon":"121.476461","lat":"31.166906","category":"500","category_name":"未知分类","address":"上海市浦东新区龙耀路段"},{"poiid":"B2094655D265A1FA459E","title":"上南花城(西门)","lon":"121.48763","lat":"31.17742","category":"656","category_name":"大门","address":""},{"poiid":"B2094757D06FA0FB4892","title":"世博会英国馆","lon":"121.47699","lat":"31.18422","category":"260","category_name":"其他","address":"上海浦东新区世博大道塘子泾路口(原上海世博会C片区)"},{"poiid":"B2094757D16EAAF8429F","title":"乐购(上南店)","lon":"121.485070738","lat":"31.1699810172","category":"249","category_name":"购物服务","address":"上海上南路4467弄20号"},{"poiid":"B2094757D06FA0F94792","title":"世博会冰岛馆","lon":"121.48154","lat":"31.18357","category":"260","category_name":"其他","address":"上海浦东新区博成路近塘子泾路(原上海世博会C片区)"},{"poiid":"B2094757D06FA3FE4693","title":"世博会法国馆","lon":"121.47908","lat":"31.18468","category":"260","category_name":"其他","address":"上海浦东新区世博大道塘子泾路口(原上海世博会C片区)"},{"poiid":"B2094757D66CA2FF429A","title":"马可孛罗","lon":"121.47337973","lat":"31.183959314","category":"500","category_name":"未知分类","address":"上海昌里路近历城路"},{"poiid":"B2094753D46AA7F84198","title":"上海虹桥火车站","lon":"121.481086","lat":"31.185646","category":"500","category_name":"未知分类","address":"上海市 上海虹桥火车站"},{"poiid":"B2094757D069A6FE459C","title":"德州路420弄","lon":"121.481666","lat":"31.167469","category":"500","category_name":"未知分类","address":"上海济阳一村"},{"poiid":"B2094757D66DABF5419A","title":"世博大道长清北路","lon":"121.48126943","lat":"31.185527282","category":"500","category_name":"未知分类","address":"上海世博大道长清北路"},{"poiid":"B2094757D068A4FB469C","title":"世博会菲律宾馆","lon":"121.48613739","lat":"31.181919097","category":"217","category_name":"旅馆招待所","address":"上海浦东新区国展路近世博馆路(原上海世博会B片区)"},{"poiid":"B2094757D06AA3FF4598","title":"世博会拉脱维亚馆","lon":"121.48150634","lat":"31.183462142","category":"260","category_name":"其他","address":"上海浦东新区博成路近长清北路(原上海世博会C片区)"},{"poiid":"B2094654DB6BA5FB4599","title":"上海市申江两岸开发建设投资集团","lon":"121.47288","lat":"31.16833","category":"263","category_name":"公司","address":"耀华路699"},{"poiid":"B2094655D268A4FB409E","title":"耀高小区(西门)","lon":"121.48779","lat":"31.1751","category":"656","category_name":"大门","address":""},{"poiid":"B2094757D66DA6F9499D","title":"四川北路桥","lon":"121.47620473","lat":"31.166596056","category":"500","category_name":"未知分类","address":"上海四川北路苏州河"},{"poiid":"B2094757D06FA2FB4292","title":"世博会澳大利亚馆","lon":"121.48511","lat":"31.18264","category":"260","category_name":"其他","address":"上海浦东新区长清北路近博成路(原上海世博会B片区)"},{"poiid":"B2094757D069A0FA419D","title":"世博会摩纳哥馆","lon":"121.48241424","lat":"31.184169769","category":"260","category_name":"其他","address":"上海浦东新区博成路近长清北路(原上海世博会C片区)"},{"poiid":"B2094655D26FAAF44398","title":"济阳公园(侧门)","lon":"121.48013","lat":"31.1676","category":"656","category_name":"大门","address":""},{"poiid":"B2094654DA68A2FA489D","title":"德州四村(北门)","lon":"121.4858","lat":"31.16992","category":"656","category_name":"大门","address":"成山路24弄"}]