[{"poiid":"B2094757D06FAAFA409F","title":"大同中学","lon":"121.49336","lat":"31.20645","category":"55","category_name":"中学","address":"黄浦区南车站路353号(瞿溪路南车站路)"},{"poiid":"B2094654DA68A2FF479E","title":"上海外国语大学附属大境中学","lon":"121.49034","lat":"31.20395","category":"55","category_name":"中学","address":"黄浦区保屯路210号(近瞿溪路)"},{"poiid":"B2094757D06FA4FB409F","title":"世博园二号门","lon":"121.49101012","lat":"31.200848717","category":"260","category_name":"其他","address":"上海世博园二号门西藏南路出入口"},{"poiid":"B2094753D76FAAFA449C","title":"上海滩国泰旗舰店","lon":"121.466011","lat":"31.216125","category":"249","category_name":"购物服务","address":"淮海中路868号"},{"poiid":"B209475CD564A7F84292","title":"上海滩新天地店","lon":"121.47463","lat":"31.22164","category":"119","category_name":"商场","address":"\"太仓路181弄新天地北里15号\r\n\""},{"poiid":"B2094757D56CA7F9479D","title":"博古斯学院法国餐厅","lon":"121.49647","lat":"31.20092","category":"247","category_name":"餐饮美食","address":"黄浦区保屯路379号世博会园区法国罗阿大区展馆内(近中山南路)"},{"poiid":"B2094757D16AABFA409E","title":"地铁6号线世纪大道站","lon":"121.495764738","lat":"31.2038677385","category":"500","category_name":"未知分类","address":"上海"},{"poiid":"B2094757D06FA5FF4292","title":"瞿溪新村","lon":"121.49477","lat":"31.205893","category":"47","category_name":"住宅区","address":"黄浦区瞿溪路120弄"},{"poiid":"B2094654DB64A6FA449F","title":"振鼎鸡 南车站路店","lon":"121.492433054","lat":"31.206528793","category":"68","category_name":"快餐厅","address":"黄浦区南车站路388号(瞿溪路南车站路)"},{"poiid":"B2094655D36DA7F8479E","title":"中山南路南车站路","lon":"121.49381","lat":"31.20426","category":"38","category_name":"公交车站","address":""},{"poiid":"B2094757D068A6FA439E","title":"黄浦区工人文化宫","lon":"121.49624","lat":"31.2076","category":"500","category_name":"未知分类","address":"黄浦区普育东路227号(瞿溪路普育东路)"},{"poiid":"B2094655D26AA5F8449D","title":"大富贵酒楼普育东路店","lon":"121.4959","lat":"31.20773","category":"76","category_name":"上海菜","address":"黄浦区普育东路227号(瞿溪路普育东路)"},{"poiid":"B2094655D26FA5FB4593","title":"同济·蓬莱家园","lon":"121.49293","lat":"31.20554","category":"47","category_name":"住宅区","address":"瞿溪路301弄1-4号"},{"poiid":"B2094757D06BA1F44992","title":"黄浦区体检站","lon":"121.494562","lat":"31.204399","category":"162","category_name":"医院","address":"黄浦区南车站路501号(近中山南路)"},{"poiid":"B2094654DA68A7F84299","title":"丽都大厦","lon":"121.492","lat":"31.2052","category":"46","category_name":"楼宇","address":"朝阳亚运村北炎黄艺术馆旁"},{"poiid":"B2094654DA68A2F8489D","title":"四海游龙 黄浦店 OVERSEAS DRAGON","lon":"121.493192054","lat":"31.205362793","category":"68","category_name":"快餐厅","address":"黄浦区南车站路438号(瞿溪路口)"},{"poiid":"B2094654DA68A2F84892","title":"上海市大同初级中学","lon":"121.49296","lat":"31.2047","category":"55","category_name":"中学","address":"黄浦区瞿溪路202号(近南车站路)"},{"poiid":"B2094751D36DA5F5499A","title":"农屋里香(蓬莱店)","lon":"121.49285","lat":"31.2063","category":"87","category_name":"特色／地方风味餐厅","address":"黄浦区南车站路368号(近瞿溪路)"},{"poiid":"B2094751D464A0FF4099","title":"当代艺术博物馆","lon":"121.4935019349709","lat":"31.2033344119268","category":"500","category_name":"未知分类","address":"花园港路200号"},{"poiid":"B2094654DB6BABF8439A","title":"玉府饭店","lon":"121.4932836702","lat":"31.203560235979","category":"76","category_name":"上海菜","address":"黄浦区中山南路1717号(近西藏南路)"},{"poiid":"B2094654DA68A0FC479B","title":"金中苑商务楼","lon":"121.49163","lat":"31.20221","category":"46","category_name":"楼宇","address":"黄浦区南京东路311号"},{"poiid":"B209475DD76AA1FE4599","title":"星巴克 南车站路店","lon":"121.494293","lat":"31.20285","category":"247","category_name":"餐饮美食","address":"上海市 南车站路"},{"poiid":"B2094757D064A7FE4998","title":"世博会上海案例馆","lon":"121.494041443","lat":"31.2032909393","category":"500","category_name":"未知分类","address":"上海世博会E片区"},{"poiid":"B2094654DA68A0FC469F","title":"好德便利No.518","lon":"121.49354","lat":"31.20379","category":"117","category_name":"便民商店/便利店","address":"中山南路1715号"},{"poiid":"B2094655D26FA4FB479C","title":"中山南路1726弄小区(南门)","lon":"121.49312","lat":"31.20409","category":"47","category_name":"住宅区","address":"中山南路1726弄1-9号"},{"poiid":"B2094655D26EA7F5489A","title":"好德(南车站路)","lon":"121.49378","lat":"31.20472","category":"117","category_name":"便民商店/便利店","address":"中山南路1700号"},{"poiid":"B2094757D168A5F5489C","title":"密码会变","lon":"121.493433238","lat":"31.2041151438","category":"47","category_name":"住宅区","address":"上海高邮路复兴西路转角"},{"poiid":"B2094655D268A6F84098","title":"驰骋小区","lon":"121.49368","lat":"31.20355","category":"47","category_name":"住宅区","address":"中山南路1711弄1"},{"poiid":"B2094655D26BA1F8439F","title":"南车站路","lon":"121.49553","lat":"31.20316","category":"38","category_name":"公交车站","address":"上海华教大厦"},{"poiid":"B2094654DA68A0FC459E","title":"南泰公寓","lon":"121.49507","lat":"31.203939","category":"47","category_name":"住宅区","address":"南车站路555号"},{"poiid":"B2094752DB68AAF54499","title":"汉堡馆","lon":"121.492856","lat":"31.20388","category":"247","category_name":"餐饮美食","address":"上海市 上海保屯路399号"},{"poiid":"B2094757D065A3F9419E","title":"南园大厦","lon":"121.494","lat":"31.2022","category":"252","category_name":"楼宇机构","address":"上海市卢湾区龙华东路888号"},{"poiid":"B2094654DA68A0FC4398","title":"上海三山会馆管理处","lon":"121.49584","lat":"31.20556","category":"263","category_name":"公司","address":"黄浦区中山南路1551号(半淞园路苗江路)"},{"poiid":"B2094655D26CA3FE469C","title":"上外黄浦外国语小学","lon":"121.49461","lat":"31.20074","category":"56","category_name":"小学","address":"黄浦区半淞园路621号(半淞园路望达路)"},{"poiid":"B2094654DB65A0FE489D","title":"中山南路1726弄1-9小区","lon":"121.49301","lat":"31.2043","category":"47","category_name":"住宅区","address":"中山南路1726弄1-9"},{"poiid":"B2094751DA6CA1F4499F","title":"蔡嘉法式甜点","lon":"121.4941443","lat":"31.2029382","category":"247","category_name":"餐饮美食","address":null},{"poiid":"B2094654DA68A1FB4892","title":"南浦大桥杂货店","lon":"121.49437","lat":"31.20498","category":"117","category_name":"便民商店/便利店","address":""},{"poiid":"B2094757D064A4FF4592","title":"18路中山南一路南车站路站","lon":"121.49377626","lat":"31.204142399","category":"500","category_name":"未知分类","address":"上海中山南一路南车站路"},{"poiid":"B2094757D06AA5F9419D","title":"世博会伦敦案例馆","lon":"121.494140625","lat":"31.2035884857","category":"500","category_name":"未知分类","address":"上海世博会E片区"},{"poiid":"B2094757D06BAAF44898","title":"美兰湖皇冠假日酒店宴会厅","lon":"121.493959805","lat":"31.2037272022","category":"217","category_name":"旅馆招待所","address":"上海市宝山区沪太路6655号2楼"},{"poiid":"B2094757D069A3FF499C","title":"世博会马德里案例馆","lon":"121.4945755","lat":"31.20330429","category":"500","category_name":"未知分类","address":"上海世博会E片区"},{"poiid":"B2094655D36CA4FC469F","title":"半淞园路","lon":"121.49624","lat":"31.20367","category":"38","category_name":"公交车站","address":""},{"poiid":"B209475CD46EABFE4699","title":"世博创意秀场","lon":"121.493675","lat":"31.203008","category":"148","category_name":"美容美发店","address":"上海市 世博城市最佳实践区半淞园路"},{"poiid":"B2094654DA68A0FC459A","title":"良友金伴便利No.194","lon":"121.49509","lat":"31.20499","category":"117","category_name":"便民商店/便利店","address":"中山南路1581号"},{"poiid":"B2094757D16EA3FA479F","title":"市民新村","lon":"121.49191","lat":"31.204086","category":"47","category_name":"住宅区","address":"中山南路1758号"},{"poiid":"B2094757D065A5F9439A","title":"宝山少科站","lon":"121.49374733","lat":"31.203759336","category":"500","category_name":"未知分类","address":"上海同济支路201弄6号"},{"poiid":"B2094757D16BABFC479C","title":"育辛进修学院","lon":"121.493453538","lat":"31.2041317441","category":"500","category_name":"未知分类","address":"上海黄浦区普育东路227号"},{"poiid":"B2094751DA6BA2FD4999","title":"上海现代艺术博物馆","lon":"121.493965","lat":"31.204805","category":"500","category_name":"未知分类","address":null},{"poiid":"B2094655D268A3FD4692","title":"同济·蓬莱家园(二号门)","lon":"121.49242","lat":"31.20512","category":"47","category_name":"住宅区","address":"瞿溪路301弄5-8号"},{"poiid":"B2094654DA68A0FC479D","title":"金中苑","lon":"121.492","lat":"31.202023","category":"47","category_name":"住宅区","address":"上海中山南路1887弄"},{"poiid":"B2094757D06FAAFA409F","title":"大同中学","lon":"121.49336","lat":"31.20645","category":"55","category_name":"中学","address":"黄浦区南车站路353号(瞿溪路南车站路)"},{"poiid":"B2094654DA68A2FF479E","title":"上海外国语大学附属大境中学","lon":"121.49034","lat":"31.20395","category":"55","category_name":"中学","address":"黄浦区保屯路210号(近瞿溪路)"},{"poiid":"B2094757D06FA4FB409F","title":"世博园二号门","lon":"121.49101012","lat":"31.200848717","category":"260","category_name":"其他","address":"上海世博园二号门西藏南路出入口"},{"poiid":"B2094753D76FAAFA449C","title":"上海滩国泰旗舰店","lon":"121.466011","lat":"31.216125","category":"249","category_name":"购物服务","address":"淮海中路868号"},{"poiid":"B209475CD564A7F84292","title":"上海滩新天地店","lon":"121.47463","lat":"31.22164","category":"119","category_name":"商场","address":"\"太仓路181弄新天地北里15号\r\n\""},{"poiid":"B2094757D56CA7F9479D","title":"博古斯学院法国餐厅","lon":"121.49647","lat":"31.20092","category":"247","category_name":"餐饮美食","address":"黄浦区保屯路379号世博会园区法国罗阿大区展馆内(近中山南路)"},{"poiid":"B2094757D16AABFA409E","title":"地铁6号线世纪大道站","lon":"121.495764738","lat":"31.2038677385","category":"500","category_name":"未知分类","address":"上海"},{"poiid":"B2094757D06FA5FF4292","title":"瞿溪新村","lon":"121.49477","lat":"31.205893","category":"47","category_name":"住宅区","address":"黄浦区瞿溪路120弄"},{"poiid":"B2094654DB64A6FA449F","title":"振鼎鸡 南车站路店","lon":"121.492433054","lat":"31.206528793","category":"68","category_name":"快餐厅","address":"黄浦区南车站路388号(瞿溪路南车站路)"},{"poiid":"B2094655D36DA7F8479E","title":"中山南路南车站路","lon":"121.49381","lat":"31.20426","category":"38","category_name":"公交车站","address":""},{"poiid":"B2094757D068A6FA439E","title":"黄浦区工人文化宫","lon":"121.49624","lat":"31.2076","category":"500","category_name":"未知分类","address":"黄浦区普育东路227号(瞿溪路普育东路)"},{"poiid":"B2094655D26AA5F8449D","title":"大富贵酒楼普育东路店","lon":"121.4959","lat":"31.20773","category":"76","category_name":"上海菜","address":"黄浦区普育东路227号(瞿溪路普育东路)"},{"poiid":"B2094655D26FA5FB4593","title":"同济·蓬莱家园","lon":"121.49293","lat":"31.20554","category":"47","category_name":"住宅区","address":"瞿溪路301弄1-4号"},{"poiid":"B2094757D06BA1F44992","title":"黄浦区体检站","lon":"121.494562","lat":"31.204399","category":"162","category_name":"医院","address":"黄浦区南车站路501号(近中山南路)"},{"poiid":"B2094654DA68A7F84299","title":"丽都大厦","lon":"121.492","lat":"31.2052","category":"46","category_name":"楼宇","address":"朝阳亚运村北炎黄艺术馆旁"},{"poiid":"B2094654DA68A2F8489D","title":"四海游龙 黄浦店 OVERSEAS DRAGON","lon":"121.493192054","lat":"31.205362793","category":"68","category_name":"快餐厅","address":"黄浦区南车站路438号(瞿溪路口)"},{"poiid":"B2094654DA68A2F84892","title":"上海市大同初级中学","lon":"121.49296","lat":"31.2047","category":"55","category_name":"中学","address":"黄浦区瞿溪路202号(近南车站路)"},{"poiid":"B2094751D36DA5F5499A","title":"农屋里香(蓬莱店)","lon":"121.49285","lat":"31.2063","category":"87","category_name":"特色／地方风味餐厅","address":"黄浦区南车站路368号(近瞿溪路)"},{"poiid":"B2094751D464A0FF4099","title":"当代艺术博物馆","lon":"121.4935019349709","lat":"31.2033344119268","category":"500","category_name":"未知分类","address":"花园港路200号"},{"poiid":"B2094654DB6BABF8439A","title":"玉府饭店","lon":"121.4932836702","lat":"31.203560235979","category":"76","category_name":"上海菜","address":"黄浦区中山南路1717号(近西藏南路)"},{"poiid":"B2094654DA68A0FC479B","title":"金中苑商务楼","lon":"121.49163","lat":"31.20221","category":"46","category_name":"楼宇","address":"黄浦区南京东路311号"},{"poiid":"B209475DD76AA1FE4599","title":"星巴克 南车站路店","lon":"121.494293","lat":"31.20285","category":"247","category_name":"餐饮美食","address":"上海市 南车站路"},{"poiid":"B2094757D064A7FE4998","title":"世博会上海案例馆","lon":"121.494041443","lat":"31.2032909393","category":"500","category_name":"未知分类","address":"上海世博会E片区"},{"poiid":"B2094654DA68A0FC469F","title":"好德便利No.518","lon":"121.49354","lat":"31.20379","category":"117","category_name":"便民商店/便利店","address":"中山南路1715号"},{"poiid":"B2094655D26FA4FB479C","title":"中山南路1726弄小区(南门)","lon":"121.49312","lat":"31.20409","category":"47","category_name":"住宅区","address":"中山南路1726弄1-9号"},{"poiid":"B2094655D26EA7F5489A","title":"好德(南车站路)","lon":"121.49378","lat":"31.20472","category":"117","category_name":"便民商店/便利店","address":"中山南路1700号"},{"poiid":"B2094757D168A5F5489C","title":"密码会变","lon":"121.493433238","lat":"31.2041151438","category":"47","category_name":"住宅区","address":"上海高邮路复兴西路转角"},{"poiid":"B2094655D268A6F84098","title":"驰骋小区","lon":"121.49368","lat":"31.20355","category":"47","category_name":"住宅区","address":"中山南路1711弄1"},{"poiid":"B2094655D26BA1F8439F","title":"南车站路","lon":"121.49553","lat":"31.20316","category":"38","category_name":"公交车站","address":"上海华教大厦"},{"poiid":"B2094654DA68A0FC459E","title":"南泰公寓","lon":"121.49507","lat":"31.203939","category":"47","category_name":"住宅区","address":"南车站路555号"},{"poiid":"B2094752DB68AAF54499","title":"汉堡馆","lon":"121.492856","lat":"31.20388","category":"247","category_name":"餐饮美食","address":"上海市 上海保屯路399号"},{"poiid":"B2094757D065A3F9419E","title":"南园大厦","lon":"121.494","lat":"31.2022","category":"252","category_name":"楼宇机构","address":"上海市卢湾区龙华东路888号"},{"poiid":"B2094654DA68A0FC4398","title":"上海三山会馆管理处","lon":"121.49584","lat":"31.20556","category":"263","category_name":"公司","address":"黄浦区中山南路1551号(半淞园路苗江路)"},{"poiid":"B2094655D26CA3FE469C","title":"上外黄浦外国语小学","lon":"121.49461","lat":"31.20074","category":"56","category_name":"小学","address":"黄浦区半淞园路621号(半淞园路望达路)"},{"poiid":"B2094654DB65A0FE489D","title":"中山南路1726弄1-9小区","lon":"121.49301","lat":"31.2043","category":"47","category_name":"住宅区","address":"中山南路1726弄1-9"},{"poiid":"B2094751DA6CA1F4499F","title":"蔡嘉法式甜点","lon":"121.4941443","lat":"31.2029382","category":"247","category_name":"餐饮美食","address":null},{"poiid":"B2094654DA68A1FB4892","title":"南浦大桥杂货店","lon":"121.49437","lat":"31.20498","category":"117","category_name":"便民商店/便利店","address":""},{"poiid":"B2094757D064A4FF4592","title":"18路中山南一路南车站路站","lon":"121.49377626","lat":"31.204142399","category":"500","category_name":"未知分类","address":"上海中山南一路南车站路"},{"poiid":"B2094757D06AA5F9419D","title":"世博会伦敦案例馆","lon":"121.494140625","lat":"31.2035884857","category":"500","category_name":"未知分类","address":"上海世博会E片区"},{"poiid":"B2094757D06BAAF44898","title":"美兰湖皇冠假日酒店宴会厅","lon":"121.493959805","lat":"31.2037272022","category":"217","category_name":"旅馆招待所","address":"上海市宝山区沪太路6655号2楼"},{"poiid":"B2094757D069A3FF499C","title":"世博会马德里案例馆","lon":"121.4945755","lat":"31.20330429","category":"500","category_name":"未知分类","address":"上海世博会E片区"},{"poiid":"B2094655D36CA4FC469F","title":"半淞园路","lon":"121.49624","lat":"31.20367","category":"38","category_name":"公交车站","address":""},{"poiid":"B209475CD46EABFE4699","title":"世博创意秀场","lon":"121.493675","lat":"31.203008","category":"148","category_name":"美容美发店","address":"上海市 世博城市最佳实践区半淞园路"},{"poiid":"B2094654DA68A0FC459A","title":"良友金伴便利No.194","lon":"121.49509","lat":"31.20499","category":"117","category_name":"便民商店/便利店","address":"中山南路1581号"},{"poiid":"B2094757D16EA3FA479F","title":"市民新村","lon":"121.49191","lat":"31.204086","category":"47","category_name":"住宅区","address":"中山南路1758号"},{"poiid":"B2094757D065A5F9439A","title":"宝山少科站","lon":"121.49374733","lat":"31.203759336","category":"500","category_name":"未知分类","address":"上海同济支路201弄6号"},{"poiid":"B2094757D16BABFC479C","title":"育辛进修学院","lon":"121.493453538","lat":"31.2041317441","category":"500","category_name":"未知分类","address":"上海黄浦区普育东路227号"},{"poiid":"B2094751DA6BA2FD4999","title":"上海现代艺术博物馆","lon":"121.493965","lat":"31.204805","category":"500","category_name":"未知分类","address":null},{"poiid":"B2094655D268A3FD4692","title":"同济·蓬莱家园(二号门)","lon":"121.49242","lat":"31.20512","category":"47","category_name":"住宅区","address":"瞿溪路301弄5-8号"},{"poiid":"B2094654DA68A0FC479D","title":"金中苑","lon":"121.492","lat":"31.202023","category":"47","category_name":"住宅区","address":"上海中山南路1887弄"},{"poiid":"B2094757D06FAAFA409F","title":"大同中学","lon":"121.49336","lat":"31.20645","category":"55","category_name":"中学","address":"黄浦区南车站路353号(瞿溪路南车站路)"},{"poiid":"B2094654DA68A2FF479E","title":"上海外国语大学附属大境中学","lon":"121.49034","lat":"31.20395","category":"55","category_name":"中学","address":"黄浦区保屯路210号(近瞿溪路)"},{"poiid":"B2094757D06FA4FB409F","title":"世博园二号门","lon":"121.49101012","lat":"31.200848717","category":"260","category_name":"其他","address":"上海世博园二号门西藏南路出入口"},{"poiid":"B2094753D76FAAFA449C","title":"上海滩国泰旗舰店","lon":"121.466011","lat":"31.216125","category":"249","category_name":"购物服务","address":"淮海中路868号"},{"poiid":"B209475CD564A7F84292","title":"上海滩新天地店","lon":"121.47463","lat":"31.22164","category":"119","category_name":"商场","address":"\"太仓路181弄新天地北里15号\r\n\""},{"poiid":"B2094757D56CA7F9479D","title":"博古斯学院法国餐厅","lon":"121.49647","lat":"31.20092","category":"247","category_name":"餐饮美食","address":"黄浦区保屯路379号世博会园区法国罗阿大区展馆内(近中山南路)"},{"poiid":"B2094757D16AABFA409E","title":"地铁6号线世纪大道站","lon":"121.495764738","lat":"31.2038677385","category":"500","category_name":"未知分类","address":"上海"},{"poiid":"B2094757D06FA5FF4292","title":"瞿溪新村","lon":"121.49477","lat":"31.205893","category":"47","category_name":"住宅区","address":"黄浦区瞿溪路120弄"},{"poiid":"B2094654DB64A6FA449F","title":"振鼎鸡 南车站路店","lon":"121.492433054","lat":"31.206528793","category":"68","category_name":"快餐厅","address":"黄浦区南车站路388号(瞿溪路南车站路)"},{"poiid":"B2094655D36DA7F8479E","title":"中山南路南车站路","lon":"121.49381","lat":"31.20426","category":"38","category_name":"公交车站","address":""},{"poiid":"B2094757D068A6FA439E","title":"黄浦区工人文化宫","lon":"121.49624","lat":"31.2076","category":"500","category_name":"未知分类","address":"黄浦区普育东路227号(瞿溪路普育东路)"},{"poiid":"B2094655D26AA5F8449D","title":"大富贵酒楼普育东路店","lon":"121.4959","lat":"31.20773","category":"76","category_name":"上海菜","address":"黄浦区普育东路227号(瞿溪路普育东路)"},{"poiid":"B2094655D26FA5FB4593","title":"同济·蓬莱家园","lon":"121.49293","lat":"31.20554","category":"47","category_name":"住宅区","address":"瞿溪路301弄1-4号"},{"poiid":"B2094757D06BA1F44992","title":"黄浦区体检站","lon":"121.494562","lat":"31.204399","category":"162","category_name":"医院","address":"黄浦区南车站路501号(近中山南路)"},{"poiid":"B2094654DA68A7F84299","title":"丽都大厦","lon":"121.492","lat":"31.2052","category":"46","category_name":"楼宇","address":"朝阳亚运村北炎黄艺术馆旁"},{"poiid":"B2094654DA68A2F8489D","title":"四海游龙 黄浦店 OVERSEAS DRAGON","lon":"121.493192054","lat":"31.205362793","category":"68","category_name":"快餐厅","address":"黄浦区南车站路438号(瞿溪路口)"},{"poiid":"B2094654DA68A2F84892","title":"上海市大同初级中学","lon":"121.49296","lat":"31.2047","category":"55","category_name":"中学","address":"黄浦区瞿溪路202号(近南车站路)"},{"poiid":"B2094751D36DA5F5499A","title":"农屋里香(蓬莱店)","lon":"121.49285","lat":"31.2063","category":"87","category_name":"特色／地方风味餐厅","address":"黄浦区南车站路368号(近瞿溪路)"},{"poiid":"B2094751D464A0FF4099","title":"当代艺术博物馆","lon":"121.4935019349709","lat":"31.2033344119268","category":"500","category_name":"未知分类","address":"花园港路200号"},{"poiid":"B2094654DB6BABF8439A","title":"玉府饭店","lon":"121.4932836702","lat":"31.203560235979","category":"76","category_name":"上海菜","address":"黄浦区中山南路1717号(近西藏南路)"},{"poiid":"B2094654DA68A0FC479B","title":"金中苑商务楼","lon":"121.49163","lat":"31.20221","category":"46","category_name":"楼宇","address":"黄浦区南京东路311号"},{"poiid":"B209475DD76AA1FE4599","title":"星巴克 南车站路店","lon":"121.494293","lat":"31.20285","category":"247","category_name":"餐饮美食","address":"上海市 南车站路"},{"poiid":"B2094757D064A7FE4998","title":"世博会上海案例馆","lon":"121.494041443","lat":"31.2032909393","category":"500","category_name":"未知分类","address":"上海世博会E片区"},{"poiid":"B2094654DA68A0FC469F","title":"好德便利No.518","lon":"121.49354","lat":"31.20379","category":"117","category_name":"便民商店/便利店","address":"中山南路1715号"},{"poiid":"B2094655D26FA4FB479C","title":"中山南路1726弄小区(南门)","lon":"121.49312","lat":"31.20409","category":"47","category_name":"住宅区","address":"中山南路1726弄1-9号"},{"poiid":"B2094655D26EA7F5489A","title":"好德(南车站路)","lon":"121.49378","lat":"31.20472","category":"117","category_name":"便民商店/便利店","address":"中山南路1700号"},{"poiid":"B2094757D168A5F5489C","title":"密码会变","lon":"121.493433238","lat":"31.2041151438","category":"47","category_name":"住宅区","address":"上海高邮路复兴西路转角"},{"poiid":"B2094655D268A6F84098","title":"驰骋小区","lon":"121.49368","lat":"31.20355","category":"47","category_name":"住宅区","address":"中山南路1711弄1"},{"poiid":"B2094655D26BA1F8439F","title":"南车站路","lon":"121.49553","lat":"31.20316","category":"38","category_name":"公交车站","address":"上海华教大厦"},{"poiid":"B2094654DA68A0FC459E","title":"南泰公寓","lon":"121.49507","lat":"31.203939","category":"47","category_name":"住宅区","address":"南车站路555号"},{"poiid":"B2094752DB68AAF54499","title":"汉堡馆","lon":"121.492856","lat":"31.20388","category":"247","category_name":"餐饮美食","address":"上海市 上海保屯路399号"},{"poiid":"B2094757D065A3F9419E","title":"南园大厦","lon":"121.494","lat":"31.2022","category":"252","category_name":"楼宇机构","address":"上海市卢湾区龙华东路888号"},{"poiid":"B2094654DA68A0FC4398","title":"上海三山会馆管理处","lon":"121.49584","lat":"31.20556","category":"263","category_name":"公司","address":"黄浦区中山南路1551号(半淞园路苗江路)"},{"poiid":"B2094655D26CA3FE469C","title":"上外黄浦外国语小学","lon":"121.49461","lat":"31.20074","category":"56","category_name":"小学","address":"黄浦区半淞园路621号(半淞园路望达路)"},{"poiid":"B2094654DB65A0FE489D","title":"中山南路1726弄1-9小区","lon":"121.49301","lat":"31.2043","category":"47","category_name":"住宅区","address":"中山南路1726弄1-9"},{"poiid":"B2094751DA6CA1F4499F","title":"蔡嘉法式甜点","lon":"121.4941443","lat":"31.2029382","category":"247","category_name":"餐饮美食","address":null},{"poiid":"B2094654DA68A1FB4892","title":"南浦大桥杂货店","lon":"121.49437","lat":"31.20498","category":"117","category_name":"便民商店/便利店","address":""},{"poiid":"B2094757D064A4FF4592","title":"18路中山南一路南车站路站","lon":"121.49377626","lat":"31.204142399","category":"500","category_name":"未知分类","address":"上海中山南一路南车站路"},{"poiid":"B2094757D06AA5F9419D","title":"世博会伦敦案例馆","lon":"121.494140625","lat":"31.2035884857","category":"500","category_name":"未知分类","address":"上海世博会E片区"},{"poiid":"B2094757D06BAAF44898","title":"美兰湖皇冠假日酒店宴会厅","lon":"121.493959805","lat":"31.2037272022","category":"217","category_name":"旅馆招待所","address":"上海市宝山区沪太路6655号2楼"},{"poiid":"B2094757D069A3FF499C","title":"世博会马德里案例馆","lon":"121.4945755","lat":"31.20330429","category":"500","category_name":"未知分类","address":"上海世博会E片区"},{"poiid":"B2094655D36CA4FC469F","title":"半淞园路","lon":"121.49624","lat":"31.20367","category":"38","category_name":"公交车站","address":""},{"poiid":"B209475CD46EABFE4699","title":"世博创意秀场","lon":"121.493675","lat":"31.203008","category":"148","category_name":"美容美发店","address":"上海市 世博城市最佳实践区半淞园路"},{"poiid":"B2094654DA68A0FC459A","title":"良友金伴便利No.194","lon":"121.49509","lat":"31.20499","category":"117","category_name":"便民商店/便利店","address":"中山南路1581号"},{"poiid":"B2094757D16EA3FA479F","title":"市民新村","lon":"121.49191","lat":"31.204086","category":"47","category_name":"住宅区","address":"中山南路1758号"},{"poiid":"B2094757D065A5F9439A","title":"宝山少科站","lon":"121.49374733","lat":"31.203759336","category":"500","category_name":"未知分类","address":"上海同济支路201弄6号"},{"poiid":"B2094757D16BABFC479C","title":"育辛进修学院","lon":"121.493453538","lat":"31.2041317441","category":"500","category_name":"未知分类","address":"上海黄浦区普育东路227号"},{"poiid":"B2094751DA6BA2FD4999","title":"上海现代艺术博物馆","lon":"121.493965","lat":"31.204805","category":"500","category_name":"未知分类","address":null},{"poiid":"B2094655D268A3FD4692","title":"同济·蓬莱家园(二号门)","lon":"121.49242","lat":"31.20512","category":"47","category_name":"住宅区","address":"瞿溪路301弄5-8号"},{"poiid":"B2094654DA68A0FC479D","title":"金中苑","lon":"121.492","lat":"31.202023","category":"47","category_name":"住宅区","address":"上海中山南路1887弄"},{"poiid":"B2094757D06FAAFA409F","title":"大同中学","lon":"121.49336","lat":"31.20645","category":"55","category_name":"中学","address":"黄浦区南车站路353号(瞿溪路南车站路)"},{"poiid":"B2094654DA68A2FF479E","title":"上海外国语大学附属大境中学","lon":"121.49034","lat":"31.20395","category":"55","category_name":"中学","address":"黄浦区保屯路210号(近瞿溪路)"},{"poiid":"B2094757D06FA4FB409F","title":"世博园二号门","lon":"121.49101012","lat":"31.200848717","category":"260","category_name":"其他","address":"上海世博园二号门西藏南路出入口"},{"poiid":"B2094753D76FAAFA449C","title":"上海滩国泰旗舰店","lon":"121.466011","lat":"31.216125","category":"249","category_name":"购物服务","address":"淮海中路868号"},{"poiid":"B209475CD564A7F84292","title":"上海滩新天地店","lon":"121.47463","lat":"31.22164","category":"119","category_name":"商场","address":"\"太仓路181弄新天地北里15号\r\n\""},{"poiid":"B2094757D56CA7F9479D","title":"博古斯学院法国餐厅","lon":"121.49647","lat":"31.20092","category":"247","category_name":"餐饮美食","address":"黄浦区保屯路379号世博会园区法国罗阿大区展馆内(近中山南路)"},{"poiid":"B2094757D16AABFA409E","title":"地铁6号线世纪大道站","lon":"121.495764738","lat":"31.2038677385","category":"500","category_name":"未知分类","address":"上海"},{"poiid":"B2094757D06FA5FF4292","title":"瞿溪新村","lon":"121.49477","lat":"31.205893","category":"47","category_name":"住宅区","address":"黄浦区瞿溪路120弄"},{"poiid":"B2094654DB64A6FA449F","title":"振鼎鸡 南车站路店","lon":"121.492433054","lat":"31.206528793","category":"68","category_name":"快餐厅","address":"黄浦区南车站路388号(瞿溪路南车站路)"},{"poiid":"B2094655D36DA7F8479E","title":"中山南路南车站路","lon":"121.49381","lat":"31.20426","category":"38","category_name":"公交车站","address":""},{"poiid":"B2094757D068A6FA439E","title":"黄浦区工人文化宫","lon":"121.49624","lat":"31.2076","category":"500","category_name":"未知分类","address":"黄浦区普育东路227号(瞿溪路普育东路)"},{"poiid":"B2094655D26AA5F8449D","title":"大富贵酒楼普育东路店","lon":"121.4959","lat":"31.20773","category":"76","category_name":"上海菜","address":"黄浦区普育东路227号(瞿溪路普育东路)"},{"poiid":"B2094655D26FA5FB4593","title":"同济·蓬莱家园","lon":"121.49293","lat":"31.20554","category":"47","category_name":"住宅区","address":"瞿溪路301弄1-4号"},{"poiid":"B2094757D06BA1F44992","title":"黄浦区体检站","lon":"121.494562","lat":"31.204399","category":"162","category_name":"医院","address":"黄浦区南车站路501号(近中山南路)"},{"poiid":"B2094654DA68A7F84299","title":"丽都大厦","lon":"121.492","lat":"31.2052","category":"46","category_name":"楼宇","address":"朝阳亚运村北炎黄艺术馆旁"},{"poiid":"B2094654DA68A2F8489D","title":"四海游龙 黄浦店 OVERSEAS DRAGON","lon":"121.493192054","lat":"31.205362793","category":"68","category_name":"快餐厅","address":"黄浦区南车站路438号(瞿溪路口)"},{"poiid":"B2094654DA68A2F84892","title":"上海市大同初级中学","lon":"121.49296","lat":"31.2047","category":"55","category_name":"中学","address":"黄浦区瞿溪路202号(近南车站路)"},{"poiid":"B2094751D36DA5F5499A","title":"农屋里香(蓬莱店)","lon":"121.49285","lat":"31.2063","category":"87","category_name":"特色／地方风味餐厅","address":"黄浦区南车站路368号(近瞿溪路)"},{"poiid":"B2094751D464A0FF4099","title":"当代艺术博物馆","lon":"121.4935019349709","lat":"31.2033344119268","category":"500","category_name":"未知分类","address":"花园港路200号"},{"poiid":"B2094654DB6BABF8439A","title":"玉府饭店","lon":"121.4932836702","lat":"31.203560235979","category":"76","category_name":"上海菜","address":"黄浦区中山南路1717号(近西藏南路)"},{"poiid":"B2094654DA68A0FC479B","title":"金中苑商务楼","lon":"121.49163","lat":"31.20221","category":"46","category_name":"楼宇","address":"黄浦区南京东路311号"},{"poiid":"B209475DD76AA1FE4599","title":"星巴克 南车站路店","lon":"121.494293","lat":"31.20285","category":"247","category_name":"餐饮美食","address":"上海市 南车站路"},{"poiid":"B2094757D064A7FE4998","title":"世博会上海案例馆","lon":"121.494041443","lat":"31.2032909393","category":"500","category_name":"未知分类","address":"上海世博会E片区"},{"poiid":"B2094654DA68A0FC469F","title":"好德便利No.518","lon":"121.49354","lat":"31.20379","category":"117","category_name":"便民商店/便利店","address":"中山南路1715号"},{"poiid":"B2094655D26FA4FB479C","title":"中山南路1726弄小区(南门)","lon":"121.49312","lat":"31.20409","category":"47","category_name":"住宅区","address":"中山南路1726弄1-9号"},{"poiid":"B2094655D26EA7F5489A","title":"好德(南车站路)","lon":"121.49378","lat":"31.20472","category":"117","category_name":"便民商店/便利店","address":"中山南路1700号"},{"poiid":"B2094757D168A5F5489C","title":"密码会变","lon":"121.493433238","lat":"31.2041151438","category":"47","category_name":"住宅区","address":"上海高邮路复兴西路转角"},{"poiid":"B2094655D268A6F84098","title":"驰骋小区","lon":"121.49368","lat":"31.20355","category":"47","category_name":"住宅区","address":"中山南路1711弄1"},{"poiid":"B2094655D26BA1F8439F","title":"南车站路","lon":"121.49553","lat":"31.20316","category":"38","category_name":"公交车站","address":"上海华教大厦"},{"poiid":"B2094654DA68A0FC459E","title":"南泰公寓","lon":"121.49507","lat":"31.203939","category":"47","category_name":"住宅区","address":"南车站路555号"},{"poiid":"B2094752DB68AAF54499","title":"汉堡馆","lon":"121.492856","lat":"31.20388","category":"247","category_name":"餐饮美食","address":"上海市 上海保屯路399号"},{"poiid":"B2094757D065A3F9419E","title":"南园大厦","lon":"121.494","lat":"31.2022","category":"252","category_name":"楼宇机构","address":"上海市卢湾区龙华东路888号"},{"poiid":"B2094654DA68A0FC4398","title":"上海三山会馆管理处","lon":"121.49584","lat":"31.20556","category":"263","category_name":"公司","address":"黄浦区中山南路1551号(半淞园路苗江路)"},{"poiid":"B2094655D26CA3FE469C","title":"上外黄浦外国语小学","lon":"121.49461","lat":"31.20074","category":"56","category_name":"小学","address":"黄浦区半淞园路621号(半淞园路望达路)"},{"poiid":"B2094654DB65A0FE489D","title":"中山南路1726弄1-9小区","lon":"121.49301","lat":"31.2043","category":"47","category_name":"住宅区","address":"中山南路1726弄1-9"},{"poiid":"B2094751DA6CA1F4499F","title":"蔡嘉法式甜点","lon":"121.4941443","lat":"31.2029382","category":"247","category_name":"餐饮美食","address":null},{"poiid":"B2094654DA68A1FB4892","title":"南浦大桥杂货店","lon":"121.49437","lat":"31.20498","category":"117","category_name":"便民商店/便利店","address":""},{"poiid":"B2094757D064A4FF4592","title":"18路中山南一路南车站路站","lon":"121.49377626","lat":"31.204142399","category":"500","category_name":"未知分类","address":"上海中山南一路南车站路"},{"poiid":"B2094757D06AA5F9419D","title":"世博会伦敦案例馆","lon":"121.494140625","lat":"31.2035884857","category":"500","category_name":"未知分类","address":"上海世博会E片区"},{"poiid":"B2094757D06BAAF44898","title":"美兰湖皇冠假日酒店宴会厅","lon":"121.493959805","lat":"31.2037272022","category":"217","category_name":"旅馆招待所","address":"上海市宝山区沪太路6655号2楼"},{"poiid":"B2094757D069A3FF499C","title":"世博会马德里案例馆","lon":"121.4945755","lat":"31.20330429","category":"500","category_name":"未知分类","address":"上海世博会E片区"},{"poiid":"B2094655D36CA4FC469F","title":"半淞园路","lon":"121.49624","lat":"31.20367","category":"38","category_name":"公交车站","address":""},{"poiid":"B209475CD46EABFE4699","title":"世博创意秀场","lon":"121.493675","lat":"31.203008","category":"148","category_name":"美容美发店","address":"上海市 世博城市最佳实践区半淞园路"},{"poiid":"B2094654DA68A0FC459A","title":"良友金伴便利No.194","lon":"121.49509","lat":"31.20499","category":"117","category_name":"便民商店/便利店","address":"中山南路1581号"},{"poiid":"B2094757D16EA3FA479F","title":"市民新村","lon":"121.49191","lat":"31.204086","category":"47","category_name":"住宅区","address":"中山南路1758号"},{"poiid":"B2094757D065A5F9439A","title":"宝山少科站","lon":"121.49374733","lat":"31.203759336","category":"500","category_name":"未知分类","address":"上海同济支路201弄6号"},{"poiid":"B2094757D16BABFC479C","title":"育辛进修学院","lon":"121.493453538","lat":"31.2041317441","category":"500","category_name":"未知分类","address":"上海黄浦区普育东路227号"},{"poiid":"B2094751DA6BA2FD4999","title":"上海现代艺术博物馆","lon":"121.493965","lat":"31.204805","category":"500","category_name":"未知分类","address":null},{"poiid":"B2094655D268A3FD4692","title":"同济·蓬莱家园(二号门)","lon":"121.49242","lat":"31.20512","category":"47","category_name":"住宅区","address":"瞿溪路301弄5-8号"},{"poiid":"B2094654DA68A0FC479D","title":"金中苑","lon":"121.492","lat":"31.202023","category":"47","category_name":"住宅区","address":"上海中山南路1887弄"}]