[{"poiid":"B2094750D26EA7F8489D","title":"蚝皇创意四层火锅","lon":"121.473885","lat":"31.209268","category":"86","category_name":"火锅店","address":"卢湾区徐家汇路396号(近重庆南路)"},{"poiid":"B2094757D06FA0FB439B","title":"白玉兰剧场","lon":"121.47266","lat":"31.20947","category":"179","category_name":"音乐厅","address":"卢湾区重庆南路308号(近建国中路)"},{"poiid":"B2094757D06FA0F44898","title":"英国签证申请中心","lon":"121.47317","lat":"31.2076","category":"500","category_name":"未知分类","address":"卢湾区徐家汇路555弄广东发展银行大厦1楼(重庆南路口)"},{"poiid":"B2094753D76FAAFA449C","title":"上海滩国泰旗舰店","lon":"121.466011","lat":"31.216125","category":"249","category_name":"购物服务","address":"淮海中路868号"},{"poiid":"B209475CD564A7F84292","title":"上海滩新天地店","lon":"121.47463","lat":"31.22164","category":"119","category_name":"商场","address":"\"太仓路181弄新天地北里15号\r\n\""},{"poiid":"B209475CD564A7F8439E","title":"上海滩中信泰富店","lon":"121.45602","lat":"31.22851","category":"119","category_name":"商场","address":"\"南京西路1168号中信泰富广场，店铺号221.\r\n\""},{"poiid":"B2094654DA6EA3F8499E","title":"海兴广场","lon":"121.474","lat":"31.2106","category":"119","category_name":"商场","address":"卢湾区瑞金南路1号(近徐家汇路)"},{"poiid":"B2094757D66FA6FA479A","title":"马当路地铁站","lon":"121.4764454","lat":"31.209112977","category":"36","category_name":"地铁站","address":"上海轨道交通 九号线 轨交马当路站 9"},{"poiid":"B2094654DB6AA3FC4398","title":"广发银行大厦","lon":"121.47289","lat":"31.20779","category":"46","category_name":"楼宇","address":"卢湾区徐家汇路555号"},{"poiid":"B2094757D06AA4FD439B","title":"COSTA COFFEE(徐家汇路店)","lon":"121.477546","lat":"31.209448","category":"65","category_name":"咖啡厅","address":"卢湾区徐家汇路203号(近马当路地铁3号出口)"},{"poiid":"B2094655D26AA0FF4398","title":"卢湾区工人俱乐部","lon":"121.47475","lat":"31.20917","category":"173","category_name":"游戏厅","address":"卢湾区徐家汇路358号卢湾区工人俱乐部3楼(近马当路)"},{"poiid":"B2094757DB6AA3FE499F","title":"台北纯k party 日月光店","lon":"121.4770580388095","lat":"31.20919920601938","category":"248","category_name":"生活娱乐","address":"打浦桥"},{"poiid":"B2094757D06FA0FA429B","title":"南北高架徐家汇路轧道","lon":"121.47258517","lat":"31.209395591","category":"500","category_name":"未知分类","address":"上海南北高架徐家汇路轧道"},{"poiid":"B2094757D06FA5F5459D","title":"金仕堡健身会所(卢湾店)","lon":"121.476024","lat":"31.209723","category":"221","category_name":"健身中心","address":"卢湾区马当路616号3-4楼(近徐家汇路)"},{"poiid":"B2094654DB6BABF9449F","title":"汇龙新城","lon":"121.47519","lat":"31.208281","category":"47","category_name":"住宅区","address":"卢湾区徐家汇路515号(马当路徐家汇路)"},{"poiid":"B2094757D06FA2F4409F","title":"巴士大厦","lon":"121.47304474","lat":"31.210916296","category":"46","category_name":"楼宇","address":"上海卢湾区建国东路525号(近重庆南路)"},{"poiid":"B2094757D06FA7FC499E","title":"上海壹号美术馆","lon":"121.47197","lat":"31.20997","category":"179","category_name":"音乐厅","address":"卢湾区建国中路1号(近重庆南路)"},{"poiid":"B2094757D06FA5F5499E","title":"肯德基 KFC (永业店)","lon":"121.47676864","lat":"31.208722686","category":"68","category_name":"快餐厅","address":"上海市蒙自路25--27号1层及29-31号部分商铺"},{"poiid":"B2094757D068A2F4499E","title":"艺林盲人按摩院(卢湾店)","lon":"121.47425","lat":"31.2081","category":"149","category_name":"洗浴推拿场所","address":"卢湾区徐家汇路521号(近鲁班路)"},{"poiid":"B2094757D06AABFE499B","title":"汉庭海友客栈新天地店","lon":"121.47331237","lat":"31.209251403","category":"216","category_name":"经济型连锁酒店","address":"卢湾区重庆南路283号(近徐家汇路)"},{"poiid":"B2094757D069A1F84093","title":"淡水湾花园","lon":"121.4753","lat":"31.210466","category":"252","category_name":"楼宇机构","address":"上海市卢湾区马当路588弄"},{"poiid":"B2094757D569A0FD439A","title":"汉庭全季酒店(上海新天地店)","lon":"121.47338325","lat":"31.20904243","category":"216","category_name":"经济型连锁酒店","address":"上海市黄浦区重庆南路283号(徐家汇路)"},{"poiid":"B2094752D468A0F9439D","title":"香港龍鳳樓","lon":"121.472769","lat":"31.209387","category":"247","category_name":"餐饮美食","address":null},{"poiid":"B2094750D36BA2F5489B","title":"Scarpetta","lon":"121.476409","lat":"31.208549","category":"94","category_name":"西餐厅","address":"卢湾区蒙自路33号(近地铁9号线马当路站)"},{"poiid":"B2094751D264A1F4409B","title":"上海第九人民醫院","lon":"121.4759313320953","lat":"31.20993031848828","category":"162","category_name":"医院","address":"製造局路"},{"poiid":"B2094757D06BA4F9429A","title":"鲁班路徐家汇路","lon":"121.472943962","lat":"31.2082465125","category":"500","category_name":"未知分类","address":"上海鲁班路徐家汇路"},{"poiid":"B2094757D769A4FC409D","title":"C多多 日月光中心广场店","lon":"121.47467","lat":"31.20865","category":"67","category_name":"甜品店","address":"卢湾区徐家汇路618号日月光中心广场B2楼(近瑞金二路)"},{"poiid":"B2094751D26CA6FA439A","title":"地铁7号线后滩站","lon":"121.474853","lat":"31.209953","category":"250","category_name":"公园户外","address":null},{"poiid":"B2094757D06BA4FF4299","title":"卢湾区第一中心小学","lon":"121.47419","lat":"31.21231","category":"56","category_name":"小学","address":"卢湾区淡水路416号(淡水路建国东路)"},{"poiid":"B2094757D46AA1FD489E","title":"咖世家咖啡 蒙自路店 COSTA COFFEE","lon":"121.476903","lat":"31.209101","category":"67","category_name":"甜品店","address":"卢湾区蒙自路(近徐家汇路)"},{"poiid":"B209475CD365A4F94193","title":"Dazzling Cafe","lon":"121.474758","lat":"31.209177","category":"111","category_name":"休闲餐饮场所","address":"徐家汇路618号日月光百货一楼中庭"},{"poiid":"B2094757D66DA3FB429B","title":"肇嘉浜路地铁站","lon":"121.472531","lat":"31.210758","category":"36","category_name":"地铁站","address":"上海轨道交通7/9号线 肇嘉浜路站"},{"poiid":"B2094655D26AA0F4489C","title":"MASTERCOOL舞蹈工作室","lon":"121.47475","lat":"31.20917","category":"247","category_name":"餐饮美食","address":"徐汇区华山路2088号汇银广场南楼13楼01室(近虹桥路)"},{"poiid":"B2094655D26BA1FA4998","title":"马当路徐家汇路","lon":"121.47614","lat":"31.2101","category":"38","category_name":"公交车站","address":""},{"poiid":"B2094655D26EA7FD4498","title":"上海电力大楼","lon":"121.47249","lat":"31.2087","category":"46","category_name":"楼宇","address":"广益路与江海东路交汇处(五洲·中华美食城)"},{"poiid":"B2094750D26CA0F44998","title":"丽园路局门路柴排馄饨","lon":"121.474685","lat":"31.209176","category":"500","category_name":"未知分类","address":null},{"poiid":"B2094757D66DA3FB479D","title":"拜尔齿科(新天地旗舰门诊部)","lon":"121.474041838","lat":"31.2073237121","category":"162","category_name":"医院","address":"卢湾区徐家汇路338号4楼(近蒙自路)"},{"poiid":"B2094654DB6BA4FB489F","title":"瑞金新苑(徐家汇路)","lon":"121.47405","lat":"31.20907","category":"47","category_name":"住宅区","address":"徐家汇路378-388号"},{"poiid":"B2094751D06CAAF8419C","title":"ifc国金","lon":"121.47593128","lat":"31.20993033999999","category":"500","category_name":"未知分类","address":null},{"poiid":"B2094750DB6CA0FB4193","title":"柴片馄饨","lon":"121.474851","lat":"31.208349","category":"247","category_name":"餐饮美食","address":null},{"poiid":"B2094655D36DA6FE409D","title":"马当路","lon":"121.4763","lat":"31.20994","category":"38","category_name":"公交车站","address":""},{"poiid":"B2094750DA69A0F54699","title":"澳大利亚签中中心","lon":"121.472793","lat":"31.208116","category":"252","category_name":"楼宇机构","address":"徐家汇路555号广发大厦"},{"poiid":"B2094753D569AAFA459D","title":"上海日月光City Shop城市超市","lon":"121.473762","lat":"31.209482","category":"500","category_name":"未知分类","address":"上海市 卢湾区"},{"poiid":"B2094757D664A4FE489F","title":"YOYO","lon":"121.47603","lat":"31.21052","category":"67","category_name":"甜品店","address":"黄浦区南京西路19-169号华盛街A126号(近西藏中路)"},{"poiid":"B2094654DB65A3FE4299","title":"上海第三机动车安全检测站","lon":"121.47337","lat":"31.20924","category":"250","category_name":"公园户外","address":"重庆南路275号"},{"poiid":"B2094654DA6EA3FA4692","title":"海丽花园","lon":"121.477","lat":"31.2095","category":"47","category_name":"住宅区","address":"打浦路80弄1-3"},{"poiid":"B2094654DA6FA3FF4492","title":"上海市兴业中学","lon":"121.47257","lat":"31.21138","category":"55","category_name":"中学","address":"卢湾区建国东路518号"},{"poiid":"B2094757D16DAAF44292","title":"上海市第三机动车检测站","lon":"121.474249","lat":"31.210696","category":"500","category_name":"未知分类","address":"上海重庆南路275号"},{"poiid":"B2094654DB69A4F5439A","title":"可颂坊 蒙自店 Croissants de France","lon":"121.476530054","lat":"31.207481793","category":"112","category_name":"糕饼店","address":"卢湾区蒙自路116号(近丽园路)"},{"poiid":"B2094750D26EA7F8489D","title":"蚝皇创意四层火锅","lon":"121.473885","lat":"31.209268","category":"86","category_name":"火锅店","address":"卢湾区徐家汇路396号(近重庆南路)"},{"poiid":"B2094757D06FA0FB439B","title":"白玉兰剧场","lon":"121.47266","lat":"31.20947","category":"179","category_name":"音乐厅","address":"卢湾区重庆南路308号(近建国中路)"},{"poiid":"B2094757D06FA0F44898","title":"英国签证申请中心","lon":"121.47317","lat":"31.2076","category":"500","category_name":"未知分类","address":"卢湾区徐家汇路555弄广东发展银行大厦1楼(重庆南路口)"},{"poiid":"B2094753D76FAAFA449C","title":"上海滩国泰旗舰店","lon":"121.466011","lat":"31.216125","category":"249","category_name":"购物服务","address":"淮海中路868号"},{"poiid":"B209475CD564A7F84292","title":"上海滩新天地店","lon":"121.47463","lat":"31.22164","category":"119","category_name":"商场","address":"\"太仓路181弄新天地北里15号\r\n\""},{"poiid":"B209475CD564A7F8439E","title":"上海滩中信泰富店","lon":"121.45602","lat":"31.22851","category":"119","category_name":"商场","address":"\"南京西路1168号中信泰富广场，店铺号221.\r\n\""},{"poiid":"B2094654DA6EA3F8499E","title":"海兴广场","lon":"121.474","lat":"31.2106","category":"119","category_name":"商场","address":"卢湾区瑞金南路1号(近徐家汇路)"},{"poiid":"B2094757D66FA6FA479A","title":"马当路地铁站","lon":"121.4764454","lat":"31.209112977","category":"36","category_name":"地铁站","address":"上海轨道交通 九号线 轨交马当路站 9"},{"poiid":"B2094654DB6AA3FC4398","title":"广发银行大厦","lon":"121.47289","lat":"31.20779","category":"46","category_name":"楼宇","address":"卢湾区徐家汇路555号"},{"poiid":"B2094757D06AA4FD439B","title":"COSTA COFFEE(徐家汇路店)","lon":"121.477546","lat":"31.209448","category":"65","category_name":"咖啡厅","address":"卢湾区徐家汇路203号(近马当路地铁3号出口)"},{"poiid":"B2094655D26AA0FF4398","title":"卢湾区工人俱乐部","lon":"121.47475","lat":"31.20917","category":"173","category_name":"游戏厅","address":"卢湾区徐家汇路358号卢湾区工人俱乐部3楼(近马当路)"},{"poiid":"B2094757DB6AA3FE499F","title":"台北纯k party 日月光店","lon":"121.4770580388095","lat":"31.20919920601938","category":"248","category_name":"生活娱乐","address":"打浦桥"},{"poiid":"B2094757D06FA0FA429B","title":"南北高架徐家汇路轧道","lon":"121.47258517","lat":"31.209395591","category":"500","category_name":"未知分类","address":"上海南北高架徐家汇路轧道"},{"poiid":"B2094757D06FA5F5459D","title":"金仕堡健身会所(卢湾店)","lon":"121.476024","lat":"31.209723","category":"221","category_name":"健身中心","address":"卢湾区马当路616号3-4楼(近徐家汇路)"},{"poiid":"B2094654DB6BABF9449F","title":"汇龙新城","lon":"121.47519","lat":"31.208281","category":"47","category_name":"住宅区","address":"卢湾区徐家汇路515号(马当路徐家汇路)"},{"poiid":"B2094757D06FA2F4409F","title":"巴士大厦","lon":"121.47304474","lat":"31.210916296","category":"46","category_name":"楼宇","address":"上海卢湾区建国东路525号(近重庆南路)"},{"poiid":"B2094757D06FA7FC499E","title":"上海壹号美术馆","lon":"121.47197","lat":"31.20997","category":"179","category_name":"音乐厅","address":"卢湾区建国中路1号(近重庆南路)"},{"poiid":"B2094757D06FA5F5499E","title":"肯德基 KFC (永业店)","lon":"121.47676864","lat":"31.208722686","category":"68","category_name":"快餐厅","address":"上海市蒙自路25--27号1层及29-31号部分商铺"},{"poiid":"B2094757D068A2F4499E","title":"艺林盲人按摩院(卢湾店)","lon":"121.47425","lat":"31.2081","category":"149","category_name":"洗浴推拿场所","address":"卢湾区徐家汇路521号(近鲁班路)"},{"poiid":"B2094757D06AABFE499B","title":"汉庭海友客栈新天地店","lon":"121.47331237","lat":"31.209251403","category":"216","category_name":"经济型连锁酒店","address":"卢湾区重庆南路283号(近徐家汇路)"},{"poiid":"B2094757D069A1F84093","title":"淡水湾花园","lon":"121.4753","lat":"31.210466","category":"252","category_name":"楼宇机构","address":"上海市卢湾区马当路588弄"},{"poiid":"B2094757D569A0FD439A","title":"汉庭全季酒店(上海新天地店)","lon":"121.47338325","lat":"31.20904243","category":"216","category_name":"经济型连锁酒店","address":"上海市黄浦区重庆南路283号(徐家汇路)"},{"poiid":"B2094752D468A0F9439D","title":"香港龍鳳樓","lon":"121.472769","lat":"31.209387","category":"247","category_name":"餐饮美食","address":null},{"poiid":"B2094750D36BA2F5489B","title":"Scarpetta","lon":"121.476409","lat":"31.208549","category":"94","category_name":"西餐厅","address":"卢湾区蒙自路33号(近地铁9号线马当路站)"},{"poiid":"B2094751D264A1F4409B","title":"上海第九人民醫院","lon":"121.4759313320953","lat":"31.20993031848828","category":"162","category_name":"医院","address":"製造局路"},{"poiid":"B2094757D06BA4F9429A","title":"鲁班路徐家汇路","lon":"121.472943962","lat":"31.2082465125","category":"500","category_name":"未知分类","address":"上海鲁班路徐家汇路"},{"poiid":"B2094757D769A4FC409D","title":"C多多 日月光中心广场店","lon":"121.47467","lat":"31.20865","category":"67","category_name":"甜品店","address":"卢湾区徐家汇路618号日月光中心广场B2楼(近瑞金二路)"},{"poiid":"B2094751D26CA6FA439A","title":"地铁7号线后滩站","lon":"121.474853","lat":"31.209953","category":"250","category_name":"公园户外","address":null},{"poiid":"B2094757D06BA4FF4299","title":"卢湾区第一中心小学","lon":"121.47419","lat":"31.21231","category":"56","category_name":"小学","address":"卢湾区淡水路416号(淡水路建国东路)"},{"poiid":"B2094757D46AA1FD489E","title":"咖世家咖啡 蒙自路店 COSTA COFFEE","lon":"121.476903","lat":"31.209101","category":"67","category_name":"甜品店","address":"卢湾区蒙自路(近徐家汇路)"},{"poiid":"B209475CD365A4F94193","title":"Dazzling Cafe","lon":"121.474758","lat":"31.209177","category":"111","category_name":"休闲餐饮场所","address":"徐家汇路618号日月光百货一楼中庭"},{"poiid":"B2094757D66DA3FB429B","title":"肇嘉浜路地铁站","lon":"121.472531","lat":"31.210758","category":"36","category_name":"地铁站","address":"上海轨道交通7/9号线 肇嘉浜路站"},{"poiid":"B2094655D26AA0F4489C","title":"MASTERCOOL舞蹈工作室","lon":"121.47475","lat":"31.20917","category":"247","category_name":"餐饮美食","address":"徐汇区华山路2088号汇银广场南楼13楼01室(近虹桥路)"},{"poiid":"B2094655D26BA1FA4998","title":"马当路徐家汇路","lon":"121.47614","lat":"31.2101","category":"38","category_name":"公交车站","address":""},{"poiid":"B2094655D26EA7FD4498","title":"上海电力大楼","lon":"121.47249","lat":"31.2087","category":"46","category_name":"楼宇","address":"广益路与江海东路交汇处(五洲·中华美食城)"},{"poiid":"B2094750D26CA0F44998","title":"丽园路局门路柴排馄饨","lon":"121.474685","lat":"31.209176","category":"500","category_name":"未知分类","address":null},{"poiid":"B2094757D66DA3FB479D","title":"拜尔齿科(新天地旗舰门诊部)","lon":"121.474041838","lat":"31.2073237121","category":"162","category_name":"医院","address":"卢湾区徐家汇路338号4楼(近蒙自路)"},{"poiid":"B2094654DB6BA4FB489F","title":"瑞金新苑(徐家汇路)","lon":"121.47405","lat":"31.20907","category":"47","category_name":"住宅区","address":"徐家汇路378-388号"},{"poiid":"B2094751D06CAAF8419C","title":"ifc国金","lon":"121.47593128","lat":"31.20993033999999","category":"500","category_name":"未知分类","address":null},{"poiid":"B2094750DB6CA0FB4193","title":"柴片馄饨","lon":"121.474851","lat":"31.208349","category":"247","category_name":"餐饮美食","address":null},{"poiid":"B2094655D36DA6FE409D","title":"马当路","lon":"121.4763","lat":"31.20994","category":"38","category_name":"公交车站","address":""},{"poiid":"B2094750DA69A0F54699","title":"澳大利亚签中中心","lon":"121.472793","lat":"31.208116","category":"252","category_name":"楼宇机构","address":"徐家汇路555号广发大厦"},{"poiid":"B2094753D569AAFA459D","title":"上海日月光City Shop城市超市","lon":"121.473762","lat":"31.209482","category":"500","category_name":"未知分类","address":"上海市 卢湾区"},{"poiid":"B2094757D664A4FE489F","title":"YOYO","lon":"121.47603","lat":"31.21052","category":"67","category_name":"甜品店","address":"黄浦区南京西路19-169号华盛街A126号(近西藏中路)"},{"poiid":"B2094654DB65A3FE4299","title":"上海第三机动车安全检测站","lon":"121.47337","lat":"31.20924","category":"250","category_name":"公园户外","address":"重庆南路275号"},{"poiid":"B2094654DA6EA3FA4692","title":"海丽花园","lon":"121.477","lat":"31.2095","category":"47","category_name":"住宅区","address":"打浦路80弄1-3"},{"poiid":"B2094654DA6FA3FF4492","title":"上海市兴业中学","lon":"121.47257","lat":"31.21138","category":"55","category_name":"中学","address":"卢湾区建国东路518号"},{"poiid":"B2094757D16DAAF44292","title":"上海市第三机动车检测站","lon":"121.474249","lat":"31.210696","category":"500","category_name":"未知分类","address":"上海重庆南路275号"},{"poiid":"B2094654DB69A4F5439A","title":"可颂坊 蒙自店 Croissants de France","lon":"121.476530054","lat":"31.207481793","category":"112","category_name":"糕饼店","address":"卢湾区蒙自路116号(近丽园路)"},{"poiid":"B2094750D26EA7F8489D","title":"蚝皇创意四层火锅","lon":"121.473885","lat":"31.209268","category":"86","category_name":"火锅店","address":"卢湾区徐家汇路396号(近重庆南路)"},{"poiid":"B2094757D06FA0FB439B","title":"白玉兰剧场","lon":"121.47266","lat":"31.20947","category":"179","category_name":"音乐厅","address":"卢湾区重庆南路308号(近建国中路)"},{"poiid":"B2094757D06FA0F44898","title":"英国签证申请中心","lon":"121.47317","lat":"31.2076","category":"500","category_name":"未知分类","address":"卢湾区徐家汇路555弄广东发展银行大厦1楼(重庆南路口)"},{"poiid":"B2094753D76FAAFA449C","title":"上海滩国泰旗舰店","lon":"121.466011","lat":"31.216125","category":"249","category_name":"购物服务","address":"淮海中路868号"},{"poiid":"B209475CD564A7F84292","title":"上海滩新天地店","lon":"121.47463","lat":"31.22164","category":"119","category_name":"商场","address":"\"太仓路181弄新天地北里15号\r\n\""},{"poiid":"B209475CD564A7F8439E","title":"上海滩中信泰富店","lon":"121.45602","lat":"31.22851","category":"119","category_name":"商场","address":"\"南京西路1168号中信泰富广场，店铺号221.\r\n\""},{"poiid":"B2094654DA6EA3F8499E","title":"海兴广场","lon":"121.474","lat":"31.2106","category":"119","category_name":"商场","address":"卢湾区瑞金南路1号(近徐家汇路)"},{"poiid":"B2094757D66FA6FA479A","title":"马当路地铁站","lon":"121.4764454","lat":"31.209112977","category":"36","category_name":"地铁站","address":"上海轨道交通 九号线 轨交马当路站 9"},{"poiid":"B2094654DB6AA3FC4398","title":"广发银行大厦","lon":"121.47289","lat":"31.20779","category":"46","category_name":"楼宇","address":"卢湾区徐家汇路555号"},{"poiid":"B2094757D06AA4FD439B","title":"COSTA COFFEE(徐家汇路店)","lon":"121.477546","lat":"31.209448","category":"65","category_name":"咖啡厅","address":"卢湾区徐家汇路203号(近马当路地铁3号出口)"},{"poiid":"B2094655D26AA0FF4398","title":"卢湾区工人俱乐部","lon":"121.47475","lat":"31.20917","category":"173","category_name":"游戏厅","address":"卢湾区徐家汇路358号卢湾区工人俱乐部3楼(近马当路)"},{"poiid":"B2094757DB6AA3FE499F","title":"台北纯k party 日月光店","lon":"121.4770580388095","lat":"31.20919920601938","category":"248","category_name":"生活娱乐","address":"打浦桥"},{"poiid":"B2094757D06FA0FA429B","title":"南北高架徐家汇路轧道","lon":"121.47258517","lat":"31.209395591","category":"500","category_name":"未知分类","address":"上海南北高架徐家汇路轧道"},{"poiid":"B2094757D06FA5F5459D","title":"金仕堡健身会所(卢湾店)","lon":"121.476024","lat":"31.209723","category":"221","category_name":"健身中心","address":"卢湾区马当路616号3-4楼(近徐家汇路)"},{"poiid":"B2094654DB6BABF9449F","title":"汇龙新城","lon":"121.47519","lat":"31.208281","category":"47","category_name":"住宅区","address":"卢湾区徐家汇路515号(马当路徐家汇路)"},{"poiid":"B2094757D06FA2F4409F","title":"巴士大厦","lon":"121.47304474","lat":"31.210916296","category":"46","category_name":"楼宇","address":"上海卢湾区建国东路525号(近重庆南路)"},{"poiid":"B2094757D06FA7FC499E","title":"上海壹号美术馆","lon":"121.47197","lat":"31.20997","category":"179","category_name":"音乐厅","address":"卢湾区建国中路1号(近重庆南路)"},{"poiid":"B2094757D06FA5F5499E","title":"肯德基 KFC (永业店)","lon":"121.47676864","lat":"31.208722686","category":"68","category_name":"快餐厅","address":"上海市蒙自路25--27号1层及29-31号部分商铺"},{"poiid":"B2094757D068A2F4499E","title":"艺林盲人按摩院(卢湾店)","lon":"121.47425","lat":"31.2081","category":"149","category_name":"洗浴推拿场所","address":"卢湾区徐家汇路521号(近鲁班路)"},{"poiid":"B2094757D06AABFE499B","title":"汉庭海友客栈新天地店","lon":"121.47331237","lat":"31.209251403","category":"216","category_name":"经济型连锁酒店","address":"卢湾区重庆南路283号(近徐家汇路)"},{"poiid":"B2094757D069A1F84093","title":"淡水湾花园","lon":"121.4753","lat":"31.210466","category":"252","category_name":"楼宇机构","address":"上海市卢湾区马当路588弄"},{"poiid":"B2094757D569A0FD439A","title":"汉庭全季酒店(上海新天地店)","lon":"121.47338325","lat":"31.20904243","category":"216","category_name":"经济型连锁酒店","address":"上海市黄浦区重庆南路283号(徐家汇路)"},{"poiid":"B2094752D468A0F9439D","title":"香港龍鳳樓","lon":"121.472769","lat":"31.209387","category":"247","category_name":"餐饮美食","address":null},{"poiid":"B2094750D36BA2F5489B","title":"Scarpetta","lon":"121.476409","lat":"31.208549","category":"94","category_name":"西餐厅","address":"卢湾区蒙自路33号(近地铁9号线马当路站)"},{"poiid":"B2094751D264A1F4409B","title":"上海第九人民醫院","lon":"121.4759313320953","lat":"31.20993031848828","category":"162","category_name":"医院","address":"製造局路"},{"poiid":"B2094757D06BA4F9429A","title":"鲁班路徐家汇路","lon":"121.472943962","lat":"31.2082465125","category":"500","category_name":"未知分类","address":"上海鲁班路徐家汇路"},{"poiid":"B2094757D769A4FC409D","title":"C多多 日月光中心广场店","lon":"121.47467","lat":"31.20865","category":"67","category_name":"甜品店","address":"卢湾区徐家汇路618号日月光中心广场B2楼(近瑞金二路)"},{"poiid":"B2094751D26CA6FA439A","title":"地铁7号线后滩站","lon":"121.474853","lat":"31.209953","category":"250","category_name":"公园户外","address":null},{"poiid":"B2094757D06BA4FF4299","title":"卢湾区第一中心小学","lon":"121.47419","lat":"31.21231","category":"56","category_name":"小学","address":"卢湾区淡水路416号(淡水路建国东路)"},{"poiid":"B2094757D46AA1FD489E","title":"咖世家咖啡 蒙自路店 COSTA COFFEE","lon":"121.476903","lat":"31.209101","category":"67","category_name":"甜品店","address":"卢湾区蒙自路(近徐家汇路)"},{"poiid":"B209475CD365A4F94193","title":"Dazzling Cafe","lon":"121.474758","lat":"31.209177","category":"111","category_name":"休闲餐饮场所","address":"徐家汇路618号日月光百货一楼中庭"},{"poiid":"B2094757D66DA3FB429B","title":"肇嘉浜路地铁站","lon":"121.472531","lat":"31.210758","category":"36","category_name":"地铁站","address":"上海轨道交通7/9号线 肇嘉浜路站"},{"poiid":"B2094655D26AA0F4489C","title":"MASTERCOOL舞蹈工作室","lon":"121.47475","lat":"31.20917","category":"247","category_name":"餐饮美食","address":"徐汇区华山路2088号汇银广场南楼13楼01室(近虹桥路)"},{"poiid":"B2094655D26BA1FA4998","title":"马当路徐家汇路","lon":"121.47614","lat":"31.2101","category":"38","category_name":"公交车站","address":""},{"poiid":"B2094655D26EA7FD4498","title":"上海电力大楼","lon":"121.47249","lat":"31.2087","category":"46","category_name":"楼宇","address":"广益路与江海东路交汇处(五洲·中华美食城)"},{"poiid":"B2094750D26CA0F44998","title":"丽园路局门路柴排馄饨","lon":"121.474685","lat":"31.209176","category":"500","category_name":"未知分类","address":null},{"poiid":"B2094757D66DA3FB479D","title":"拜尔齿科(新天地旗舰门诊部)","lon":"121.474041838","lat":"31.2073237121","category":"162","category_name":"医院","address":"卢湾区徐家汇路338号4楼(近蒙自路)"},{"poiid":"B2094654DB6BA4FB489F","title":"瑞金新苑(徐家汇路)","lon":"121.47405","lat":"31.20907","category":"47","category_name":"住宅区","address":"徐家汇路378-388号"},{"poiid":"B2094751D06CAAF8419C","title":"ifc国金","lon":"121.47593128","lat":"31.20993033999999","category":"500","category_name":"未知分类","address":null},{"poiid":"B2094750DB6CA0FB4193","title":"柴片馄饨","lon":"121.474851","lat":"31.208349","category":"247","category_name":"餐饮美食","address":null},{"poiid":"B2094655D36DA6FE409D","title":"马当路","lon":"121.4763","lat":"31.20994","category":"38","category_name":"公交车站","address":""},{"poiid":"B2094750DA69A0F54699","title":"澳大利亚签中中心","lon":"121.472793","lat":"31.208116","category":"252","category_name":"楼宇机构","address":"徐家汇路555号广发大厦"},{"poiid":"B2094753D569AAFA459D","title":"上海日月光City Shop城市超市","lon":"121.473762","lat":"31.209482","category":"500","category_name":"未知分类","address":"上海市 卢湾区"},{"poiid":"B2094757D664A4FE489F","title":"YOYO","lon":"121.47603","lat":"31.21052","category":"67","category_name":"甜品店","address":"黄浦区南京西路19-169号华盛街A126号(近西藏中路)"},{"poiid":"B2094654DB65A3FE4299","title":"上海第三机动车安全检测站","lon":"121.47337","lat":"31.20924","category":"250","category_name":"公园户外","address":"重庆南路275号"},{"poiid":"B2094654DA6EA3FA4692","title":"海丽花园","lon":"121.477","lat":"31.2095","category":"47","category_name":"住宅区","address":"打浦路80弄1-3"},{"poiid":"B2094654DA6FA3FF4492","title":"上海市兴业中学","lon":"121.47257","lat":"31.21138","category":"55","category_name":"中学","address":"卢湾区建国东路518号"},{"poiid":"B2094757D16DAAF44292","title":"上海市第三机动车检测站","lon":"121.474249","lat":"31.210696","category":"500","category_name":"未知分类","address":"上海重庆南路275号"},{"poiid":"B2094654DB69A4F5439A","title":"可颂坊 蒙自店 Croissants de France","lon":"121.476530054","lat":"31.207481793","category":"112","category_name":"糕饼店","address":"卢湾区蒙自路116号(近丽园路)"},{"poiid":"B2094750D26EA7F8489D","title":"蚝皇创意四层火锅","lon":"121.473885","lat":"31.209268","category":"86","category_name":"火锅店","address":"卢湾区徐家汇路396号(近重庆南路)"},{"poiid":"B2094757D06FA0FB439B","title":"白玉兰剧场","lon":"121.47266","lat":"31.20947","category":"179","category_name":"音乐厅","address":"卢湾区重庆南路308号(近建国中路)"},{"poiid":"B2094757D06FA0F44898","title":"英国签证申请中心","lon":"121.47317","lat":"31.2076","category":"500","category_name":"未知分类","address":"卢湾区徐家汇路555弄广东发展银行大厦1楼(重庆南路口)"},{"poiid":"B2094753D76FAAFA449C","title":"上海滩国泰旗舰店","lon":"121.466011","lat":"31.216125","category":"249","category_name":"购物服务","address":"淮海中路868号"},{"poiid":"B209475CD564A7F84292","title":"上海滩新天地店","lon":"121.47463","lat":"31.22164","category":"119","category_name":"商场","address":"\"太仓路181弄新天地北里15号\r\n\""},{"poiid":"B209475CD564A7F8439E","title":"上海滩中信泰富店","lon":"121.45602","lat":"31.22851","category":"119","category_name":"商场","address":"\"南京西路1168号中信泰富广场，店铺号221.\r\n\""},{"poiid":"B2094654DA6EA3F8499E","title":"海兴广场","lon":"121.474","lat":"31.2106","category":"119","category_name":"商场","address":"卢湾区瑞金南路1号(近徐家汇路)"},{"poiid":"B2094757D66FA6FA479A","title":"马当路地铁站","lon":"121.4764454","lat":"31.209112977","category":"36","category_name":"地铁站","address":"上海轨道交通 九号线 轨交马当路站 9"},{"poiid":"B2094654DB6AA3FC4398","title":"广发银行大厦","lon":"121.47289","lat":"31.20779","category":"46","category_name":"楼宇","address":"卢湾区徐家汇路555号"},{"poiid":"B2094757D06AA4FD439B","title":"COSTA COFFEE(徐家汇路店)","lon":"121.477546","lat":"31.209448","category":"65","category_name":"咖啡厅","address":"卢湾区徐家汇路203号(近马当路地铁3号出口)"},{"poiid":"B2094655D26AA0FF4398","title":"卢湾区工人俱乐部","lon":"121.47475","lat":"31.20917","category":"173","category_name":"游戏厅","address":"卢湾区徐家汇路358号卢湾区工人俱乐部3楼(近马当路)"},{"poiid":"B2094757DB6AA3FE499F","title":"台北纯k party 日月光店","lon":"121.4770580388095","lat":"31.20919920601938","category":"248","category_name":"生活娱乐","address":"打浦桥"},{"poiid":"B2094757D06FA0FA429B","title":"南北高架徐家汇路轧道","lon":"121.47258517","lat":"31.209395591","category":"500","category_name":"未知分类","address":"上海南北高架徐家汇路轧道"},{"poiid":"B2094757D06FA5F5459D","title":"金仕堡健身会所(卢湾店)","lon":"121.476024","lat":"31.209723","category":"221","category_name":"健身中心","address":"卢湾区马当路616号3-4楼(近徐家汇路)"},{"poiid":"B2094654DB6BABF9449F","title":"汇龙新城","lon":"121.47519","lat":"31.208281","category":"47","category_name":"住宅区","address":"卢湾区徐家汇路515号(马当路徐家汇路)"},{"poiid":"B2094757D06FA2F4409F","title":"巴士大厦","lon":"121.47304474","lat":"31.210916296","category":"46","category_name":"楼宇","address":"上海卢湾区建国东路525号(近重庆南路)"},{"poiid":"B2094757D06FA7FC499E","title":"上海壹号美术馆","lon":"121.47197","lat":"31.20997","category":"179","category_name":"音乐厅","address":"卢湾区建国中路1号(近重庆南路)"},{"poiid":"B2094757D06FA5F5499E","title":"肯德基 KFC (永业店)","lon":"121.47676864","lat":"31.208722686","category":"68","category_name":"快餐厅","address":"上海市蒙自路25--27号1层及29-31号部分商铺"},{"poiid":"B2094757D068A2F4499E","title":"艺林盲人按摩院(卢湾店)","lon":"121.47425","lat":"31.2081","category":"149","category_name":"洗浴推拿场所","address":"卢湾区徐家汇路521号(近鲁班路)"},{"poiid":"B2094757D06AABFE499B","title":"汉庭海友客栈新天地店","lon":"121.47331237","lat":"31.209251403","category":"216","category_name":"经济型连锁酒店","address":"卢湾区重庆南路283号(近徐家汇路)"},{"poiid":"B2094757D069A1F84093","title":"淡水湾花园","lon":"121.4753","lat":"31.210466","category":"252","category_name":"楼宇机构","address":"上海市卢湾区马当路588弄"},{"poiid":"B2094757D569A0FD439A","title":"汉庭全季酒店(上海新天地店)","lon":"121.47338325","lat":"31.20904243","category":"216","category_name":"经济型连锁酒店","address":"上海市黄浦区重庆南路283号(徐家汇路)"},{"poiid":"B2094752D468A0F9439D","title":"香港龍鳳樓","lon":"121.472769","lat":"31.209387","category":"247","category_name":"餐饮美食","address":null},{"poiid":"B2094750D36BA2F5489B","title":"Scarpetta","lon":"121.476409","lat":"31.208549","category":"94","category_name":"西餐厅","address":"卢湾区蒙自路33号(近地铁9号线马当路站)"},{"poiid":"B2094751D264A1F4409B","title":"上海第九人民醫院","lon":"121.4759313320953","lat":"31.20993031848828","category":"162","category_name":"医院","address":"製造局路"},{"poiid":"B2094757D06BA4F9429A","title":"鲁班路徐家汇路","lon":"121.472943962","lat":"31.2082465125","category":"500","category_name":"未知分类","address":"上海鲁班路徐家汇路"},{"poiid":"B2094757D769A4FC409D","title":"C多多 日月光中心广场店","lon":"121.47467","lat":"31.20865","category":"67","category_name":"甜品店","address":"卢湾区徐家汇路618号日月光中心广场B2楼(近瑞金二路)"},{"poiid":"B2094751D26CA6FA439A","title":"地铁7号线后滩站","lon":"121.474853","lat":"31.209953","category":"250","category_name":"公园户外","address":null},{"poiid":"B2094757D06BA4FF4299","title":"卢湾区第一中心小学","lon":"121.47419","lat":"31.21231","category":"56","category_name":"小学","address":"卢湾区淡水路416号(淡水路建国东路)"},{"poiid":"B2094757D46AA1FD489E","title":"咖世家咖啡 蒙自路店 COSTA COFFEE","lon":"121.476903","lat":"31.209101","category":"67","category_name":"甜品店","address":"卢湾区蒙自路(近徐家汇路)"},{"poiid":"B209475CD365A4F94193","title":"Dazzling Cafe","lon":"121.474758","lat":"31.209177","category":"111","category_name":"休闲餐饮场所","address":"徐家汇路618号日月光百货一楼中庭"},{"poiid":"B2094757D66DA3FB429B","title":"肇嘉浜路地铁站","lon":"121.472531","lat":"31.210758","category":"36","category_name":"地铁站","address":"上海轨道交通7/9号线 肇嘉浜路站"},{"poiid":"B2094655D26AA0F4489C","title":"MASTERCOOL舞蹈工作室","lon":"121.47475","lat":"31.20917","category":"247","category_name":"餐饮美食","address":"徐汇区华山路2088号汇银广场南楼13楼01室(近虹桥路)"},{"poiid":"B2094655D26BA1FA4998","title":"马当路徐家汇路","lon":"121.47614","lat":"31.2101","category":"38","category_name":"公交车站","address":""},{"poiid":"B2094655D26EA7FD4498","title":"上海电力大楼","lon":"121.47249","lat":"31.2087","category":"46","category_name":"楼宇","address":"广益路与江海东路交汇处(五洲·中华美食城)"},{"poiid":"B2094750D26CA0F44998","title":"丽园路局门路柴排馄饨","lon":"121.474685","lat":"31.209176","category":"500","category_name":"未知分类","address":null},{"poiid":"B2094757D66DA3FB479D","title":"拜尔齿科(新天地旗舰门诊部)","lon":"121.474041838","lat":"31.2073237121","category":"162","category_name":"医院","address":"卢湾区徐家汇路338号4楼(近蒙自路)"},{"poiid":"B2094654DB6BA4FB489F","title":"瑞金新苑(徐家汇路)","lon":"121.47405","lat":"31.20907","category":"47","category_name":"住宅区","address":"徐家汇路378-388号"},{"poiid":"B2094751D06CAAF8419C","title":"ifc国金","lon":"121.47593128","lat":"31.20993033999999","category":"500","category_name":"未知分类","address":null},{"poiid":"B2094750DB6CA0FB4193","title":"柴片馄饨","lon":"121.474851","lat":"31.208349","category":"247","category_name":"餐饮美食","address":null},{"poiid":"B2094655D36DA6FE409D","title":"马当路","lon":"121.4763","lat":"31.20994","category":"38","category_name":"公交车站","address":""},{"poiid":"B2094750DA69A0F54699","title":"澳大利亚签中中心","lon":"121.472793","lat":"31.208116","category":"252","category_name":"楼宇机构","address":"徐家汇路555号广发大厦"},{"poiid":"B2094753D569AAFA459D","title":"上海日月光City Shop城市超市","lon":"121.473762","lat":"31.209482","category":"500","category_name":"未知分类","address":"上海市 卢湾区"},{"poiid":"B2094757D664A4FE489F","title":"YOYO","lon":"121.47603","lat":"31.21052","category":"67","category_name":"甜品店","address":"黄浦区南京西路19-169号华盛街A126号(近西藏中路)"},{"poiid":"B2094654DB65A3FE4299","title":"上海第三机动车安全检测站","lon":"121.47337","lat":"31.20924","category":"250","category_name":"公园户外","address":"重庆南路275号"},{"poiid":"B2094654DA6EA3FA4692","title":"海丽花园","lon":"121.477","lat":"31.2095","category":"47","category_name":"住宅区","address":"打浦路80弄1-3"},{"poiid":"B2094654DA6FA3FF4492","title":"上海市兴业中学","lon":"121.47257","lat":"31.21138","category":"55","category_name":"中学","address":"卢湾区建国东路518号"},{"poiid":"B2094757D16DAAF44292","title":"上海市第三机动车检测站","lon":"121.474249","lat":"31.210696","category":"500","category_name":"未知分类","address":"上海重庆南路275号"},{"poiid":"B2094654DB69A4F5439A","title":"可颂坊 蒙自店 Croissants de France","lon":"121.476530054","lat":"31.207481793","category":"112","category_name":"糕饼店","address":"卢湾区蒙自路116号(近丽园路)"}]