[{"poiid":"B2094757D468A4FF419B","title":"百合福海鲜膳食总汇","lon":"121.46881","lat":"31.20575","category":"268","category_name":"自助","address":"卢湾区徐家汇路618号日月光中心广场5楼(近瑞金二路)"},{"poiid":"B2094757D06EAAFC449A","title":"玲珑小镇","lon":"121.47061852","lat":"31.203782139","category":"91","category_name":"台湾菜","address":"卢湾区打浦路78号(近徐家汇路)"},{"poiid":"B2094757D06EAAF9469C","title":"蔡嘉法式甜品","lon":"121.46799","lat":"31.206356","category":"67","category_name":"甜品店","address":"卢湾区徐家汇路618号日月光中心广场1楼F05室(近瑞金二路)"},{"poiid":"B2094753D76FAAFA449C","title":"上海滩国泰旗舰店","lon":"121.466011","lat":"31.216125","category":"249","category_name":"购物服务","address":"淮海中路868号"},{"poiid":"B209475CD564A7F84292","title":"上海滩新天地店","lon":"121.47463","lat":"31.22164","category":"119","category_name":"商场","address":"\"太仓路181弄新天地北里15号\r\n\""},{"poiid":"B2094757D06AA7F5409B","title":"百合福自助餐厅","lon":"121.469073738","lat":"31.2056607767","category":"500","category_name":"未知分类","address":"上海打浦桥日月光5楼"},{"poiid":"B2094757D06EAAFF469D","title":"合点寿司 日月光广场店","lon":"121.46812","lat":"31.20555","category":"95","category_name":"日本料理","address":"卢湾区徐家汇路618号日月光中心广场4楼4F-2号商铺(近瑞金二路)"},{"poiid":"B2094750D26AA2FD4692","title":"小滨楼","lon":"121.4681219","lat":"31.2055526","category":"71","category_name":"四川菜","address":"卢湾区徐家汇路618号日月光中心3楼B区(近瑞金二路)"},{"poiid":"B2094757DB6CA7FD419C","title":"宝燕海鲜自助火锅","lon":"121.46812","lat":"31.20555","category":"86","category_name":"火锅店","address":"卢湾区徐家汇路618号日月光中心广场4楼F27号铺(近瑞金二路)"},{"poiid":"B2094757D06EAAFA469B","title":"芋贵人甜品店(日月光广场店)","lon":"121.46858","lat":"31.205689","category":"67","category_name":"甜品店","address":"卢湾区徐家汇路618号日月光中心广场B2楼C08号商铺(近瑞金二路)"},{"poiid":"B2094654DB6BA4FC4899","title":"一哥肥牛火锅海鲜酒家(打浦路店)","lon":"121.4704","lat":"31.20316","category":"86","category_name":"火锅店","address":"上海卢湾区打浦路86号海丽花园(近斜土路)"},{"poiid":"B2094750D76FA0FA4693","title":"居食屋和民(日月光广场店)","lon":"121.468","lat":"31.2055","category":"95","category_name":"日本料理","address":"卢湾区徐家汇路618号日月光中心广场4楼(近瑞金二路)"},{"poiid":"B2094750D26CA6FD439D","title":"千秋膳房 日月光店","lon":"121.4681219","lat":"31.2055526","category":"91","category_name":"台湾菜","address":"卢湾区徐家汇路618号日月光中心广场B2楼台湾美食馆BT09室(近瑞金二路)"},{"poiid":"B2094654DA6EA3FB409B","title":"金玉兰广场","lon":"121.47017","lat":"31.20476","category":"119","category_name":"商场","address":"卢湾区打浦路1号(徐家汇路口)"},{"poiid":"B2094751D464A6F84799","title":"Outback澳派牛排馆","lon":"121.468201","lat":"31.205765","category":"247","category_name":"餐饮美食","address":"卢湾区徐家汇路618号日月光中心1F-F-15单元(近田子坊)"},{"poiid":"B2094654DB6BA4FC479F","title":"厚味香辣馆 打浦店","lon":"121.467372054","lat":"31.204689793","category":"71","category_name":"四川菜","address":"卢湾区瑞金南路1号海兴广场3楼(近徐家汇路)"},{"poiid":"B2094757D06FA2FB4299","title":"一哥肥牛火锅海鲜酒家(瑞金南路店)","lon":"121.46747","lat":"31.20419","category":"86","category_name":"火锅店","address":"卢湾区瑞金南路1号海兴广场1楼(徐家汇路口)"},{"poiid":"B2094750D669A3F5429F","title":"鼎鼎有鸣铁板烧•日本料理","lon":"121.47002","lat":"31.20469","category":"95","category_name":"日本料理","address":"卢湾区打浦路1号金玉兰广场2楼(徐家汇路口)"},{"poiid":"B2094750D56FAAF54698","title":"星巴克(日月光广场店)","lon":"121.468","lat":"31.2055","category":"260","category_name":"其他","address":"卢湾区徐家汇路618号日月光中心广场1楼(近泰康路)"},{"poiid":"B2094757D06FA7F84899","title":"卢湾高级中学","lon":"121.46922","lat":"31.2016","category":"55","category_name":"中学","address":"上海卢湾区斜土路885号(近瑞金南路)"},{"poiid":"B2094757D068A7FF489A","title":"上海一号","lon":"121.467156738","lat":"31.2050147629","category":"500","category_name":"未知分类","address":"上海打浦桥"},{"poiid":"B2094757D069A5F5499D","title":"日月光百货","lon":"121.467779738","lat":"31.2054737727","category":"500","category_name":"未知分类","address":"上海徐汇区打浦桥"},{"poiid":"B2094655D36CA5FD409A","title":"打浦桥","lon":"121.46726","lat":"31.20405","category":"38","category_name":"公交车站","address":""},{"poiid":"B2094655D26AABFD439A","title":"上海1号私藏菜卢湾店","lon":"121.46779","lat":"31.20443","category":"76","category_name":"上海菜","address":"卢湾区瑞金南路1号海兴广场3楼(近徐家汇路)"},{"poiid":"B2094757DB69A6FE479B","title":"新贝乐意式休闲餐厅 日月光店","lon":"121.4681219","lat":"31.2055526","category":"94","category_name":"西餐厅","address":"卢湾区徐家汇路618号日月光中心广场B2楼(近瑞金二路)"},{"poiid":"B2094757D06FA0F84292","title":"必胜客(海兴店)","lon":"121.467218","lat":"31.203992","category":"68","category_name":"快餐厅","address":"卢湾区徐家汇路618号日月光中心广场B2楼(近瑞金二路)"},{"poiid":"B2094757D06FA5FA499B","title":"馔巴黎海鲜百汇餐厅","lon":"121.47101","lat":"31.20384","category":"268","category_name":"自助","address":"卢湾区打浦路15号斯格威铂尔曼大酒店B1楼(南塘浜路与徐家汇路之间)"},{"poiid":"B2094757D06FA3FB4699","title":"麦当劳(打浦桥店)","lon":"121.46800833","lat":"31.204932712","category":"68","category_name":"快餐厅","address":"卢湾区瑞金南路1号海兴广场内(近徐家汇路)"},{"poiid":"B2094757D664A2FD409D","title":"澳明鲜海鲜火锅","lon":"121.4681219","lat":"31.2055526","category":"86","category_name":"火锅店","address":"卢湾区徐家汇路618号日月光中心广场B2楼F-28号(近瑞金二路)"},{"poiid":"B2094757DA6EA7F84892","title":"老妈米线(日月光广场店)","lon":"121.468277","lat":"31.2056439999998","category":"86","category_name":"火锅店","address":"卢湾区徐家汇路618号日月光中心广场B2楼(近瑞金二路)"},{"poiid":"B2094757D069A7F84098","title":"玲瓏小鎮","lon":"121.47081936","lat":"31.20350292","category":"500","category_name":"未知分类","address":"上海打浦路78号"},{"poiid":"B2094757DB69A1FB439C","title":"意国度普丁披萨 日月光店","lon":"121.4681219","lat":"31.2055526","category":"94","category_name":"西餐厅","address":"卢湾区徐家汇路618号日月光中心广场B2楼台湾美食馆BT14室(近瑞金二路)"},{"poiid":"B2094757DA6FA3FC439A","title":"卡乐星(日月光店)","lon":"121.468121899998","lat":"31.2055526000002","category":"94","category_name":"西餐厅","address":"卢湾区徐家汇路618号日月光B2楼B21室(近瑞金二路)"},{"poiid":"B2094750D76EA3F4409F","title":"寿司王子(海兴店)","lon":"121.468","lat":"31.2047","category":"95","category_name":"日本料理","address":"卢湾区瑞金南路1号海兴广场2楼(近徐家汇路)"},{"poiid":"B2094757D068A5F84993","title":"翠蜓轩中国餐厅(打浦路店)","lon":"121.47046","lat":"31.20318","category":"76","category_name":"上海菜","address":"卢湾区打浦路88号海丽大厦2楼(斜土路口)"},{"poiid":"B2094751D36AAAFB4598","title":"喜多屋国际海鲜皇品(日月光店)","lon":"121.46812","lat":"31.20555","category":"268","category_name":"自助","address":"卢湾区徐家汇路618号日月光中心广场4楼(近打浦路)"},{"poiid":"B2094757D16DA4FE429E","title":"米斯特缤Mr.bean","lon":"121.467888438","lat":"31.2053967711","category":"113","category_name":"冷饮店","address":"卢湾区徐家汇路618号日月光中心广场B2楼F-10号铺(近满记)"},{"poiid":"B2094751D36EA2FD4298","title":"炉火唇情巴山烤全鱼","lon":"121.46789","lat":"31.20467","category":"71","category_name":"四川菜","address":"卢湾区瑞金南路1号海兴广场2楼(日月光对面)"},{"poiid":"B2094757D06FA6F9429F","title":"楚楚园馅饼粥(日月光广场店)","lon":"121.46782013","lat":"31.205556274","category":"68","category_name":"快餐厅","address":"卢湾区徐家汇路618号日月光中心广场B2楼(近瑞金二路)"},{"poiid":"B2094757D06FA5F8449C","title":"小木马西班牙餐厅 PONY KITCHEN","lon":"121.46812","lat":"31.20555","category":"94","category_name":"西餐厅","address":"卢湾区徐家汇路618号日月光中心广场5楼(近瑞金二路)"},{"poiid":"B209475CD46EA0FB469C","title":"年代秀（日月光店）","lon":"121.466468","lat":"31.204427","category":"249","category_name":"购物服务","address":"上海市 打浦橋日月光廣場五樓"},{"poiid":"B2094750D76CA4FC4398","title":"妈咪厨房(日月光广场店)","lon":"121.468","lat":"31.2055","category":"76","category_name":"上海菜","address":"卢湾区徐家汇路618号日月光中心广场B2楼(近瑞金二路)"},{"poiid":"B2094757D06FA7FB4193","title":"肯德基 KFC (打浦桥店)","lon":"121.468318","lat":"31.204928","category":"68","category_name":"快餐厅","address":"卢湾区徐家汇路679号(近打浦路)"},{"poiid":"B2094750D16BA6FB469B","title":"太平洋咖啡（日月光店）","lon":"121.469154","lat":"31.205379","category":"247","category_name":"餐饮美食","address":"卢湾区徐家汇路618号日月光中心广场1楼F1615-B室、F1618-B室、F1617室(近9号线打浦桥站2号口)"},{"poiid":"B2094654DA6EA3FA4693","title":"海丽大厦","lon":"121.47023","lat":"31.20312","category":"46","category_name":"楼宇","address":"宣武区南横街东口"},{"poiid":"B2094757D168A6FD469B","title":"鼎好乐园","lon":"121.468959838","lat":"31.2053088692","category":"500","category_name":"未知分类","address":"卢湾区徐家汇路618号日月光中心B1楼(瑞金二路口)"},{"poiid":"B2094750D565A1F4419B","title":"鼎鼎有鸣日式烧烤金玉兰广场店","lon":"121.470382","lat":"31.205125","category":"247","category_name":"餐饮美食","address":null},{"poiid":"B2094757D465ABFD4399","title":"蓝葆德-誉诺婚礼会馆","lon":"121.46858","lat":"31.205689","category":"247","category_name":"餐饮美食","address":"徐家汇路618号日月光中心广场5-6楼近瑞金二路"},{"poiid":"B2094757D069A5FA4198","title":"徐家汇路打浦路","lon":"121.468703","lat":"31.204958","category":"500","category_name":"未知分类","address":"上海徐家汇路打浦路"},{"poiid":"B2094655D26AA0FF4992","title":"新新桌球瑞金南路店","lon":"121.46779","lat":"31.20443","category":"247","category_name":"餐饮美食","address":"卢湾区瑞金南路1号海兴广场4楼(近徐家汇路)"},{"poiid":"B2094757D468A4FF419B","title":"百合福海鲜膳食总汇","lon":"121.46881","lat":"31.20575","category":"268","category_name":"自助","address":"卢湾区徐家汇路618号日月光中心广场5楼(近瑞金二路)"},{"poiid":"B2094757D06EAAFC449A","title":"玲珑小镇","lon":"121.47061852","lat":"31.203782139","category":"91","category_name":"台湾菜","address":"卢湾区打浦路78号(近徐家汇路)"},{"poiid":"B2094757D06EAAF9469C","title":"蔡嘉法式甜品","lon":"121.46799","lat":"31.206356","category":"67","category_name":"甜品店","address":"卢湾区徐家汇路618号日月光中心广场1楼F05室(近瑞金二路)"},{"poiid":"B2094753D76FAAFA449C","title":"上海滩国泰旗舰店","lon":"121.466011","lat":"31.216125","category":"249","category_name":"购物服务","address":"淮海中路868号"},{"poiid":"B209475CD564A7F84292","title":"上海滩新天地店","lon":"121.47463","lat":"31.22164","category":"119","category_name":"商场","address":"\"太仓路181弄新天地北里15号\r\n\""},{"poiid":"B2094757D06AA7F5409B","title":"百合福自助餐厅","lon":"121.469073738","lat":"31.2056607767","category":"500","category_name":"未知分类","address":"上海打浦桥日月光5楼"},{"poiid":"B2094757D06EAAFF469D","title":"合点寿司 日月光广场店","lon":"121.46812","lat":"31.20555","category":"95","category_name":"日本料理","address":"卢湾区徐家汇路618号日月光中心广场4楼4F-2号商铺(近瑞金二路)"},{"poiid":"B2094750D26AA2FD4692","title":"小滨楼","lon":"121.4681219","lat":"31.2055526","category":"71","category_name":"四川菜","address":"卢湾区徐家汇路618号日月光中心3楼B区(近瑞金二路)"},{"poiid":"B2094757DB6CA7FD419C","title":"宝燕海鲜自助火锅","lon":"121.46812","lat":"31.20555","category":"86","category_name":"火锅店","address":"卢湾区徐家汇路618号日月光中心广场4楼F27号铺(近瑞金二路)"},{"poiid":"B2094757D06EAAFA469B","title":"芋贵人甜品店(日月光广场店)","lon":"121.46858","lat":"31.205689","category":"67","category_name":"甜品店","address":"卢湾区徐家汇路618号日月光中心广场B2楼C08号商铺(近瑞金二路)"},{"poiid":"B2094654DB6BA4FC4899","title":"一哥肥牛火锅海鲜酒家(打浦路店)","lon":"121.4704","lat":"31.20316","category":"86","category_name":"火锅店","address":"上海卢湾区打浦路86号海丽花园(近斜土路)"},{"poiid":"B2094750D76FA0FA4693","title":"居食屋和民(日月光广场店)","lon":"121.468","lat":"31.2055","category":"95","category_name":"日本料理","address":"卢湾区徐家汇路618号日月光中心广场4楼(近瑞金二路)"},{"poiid":"B2094750D26CA6FD439D","title":"千秋膳房 日月光店","lon":"121.4681219","lat":"31.2055526","category":"91","category_name":"台湾菜","address":"卢湾区徐家汇路618号日月光中心广场B2楼台湾美食馆BT09室(近瑞金二路)"},{"poiid":"B2094654DA6EA3FB409B","title":"金玉兰广场","lon":"121.47017","lat":"31.20476","category":"119","category_name":"商场","address":"卢湾区打浦路1号(徐家汇路口)"},{"poiid":"B2094751D464A6F84799","title":"Outback澳派牛排馆","lon":"121.468201","lat":"31.205765","category":"247","category_name":"餐饮美食","address":"卢湾区徐家汇路618号日月光中心1F-F-15单元(近田子坊)"},{"poiid":"B2094654DB6BA4FC479F","title":"厚味香辣馆 打浦店","lon":"121.467372054","lat":"31.204689793","category":"71","category_name":"四川菜","address":"卢湾区瑞金南路1号海兴广场3楼(近徐家汇路)"},{"poiid":"B2094757D06FA2FB4299","title":"一哥肥牛火锅海鲜酒家(瑞金南路店)","lon":"121.46747","lat":"31.20419","category":"86","category_name":"火锅店","address":"卢湾区瑞金南路1号海兴广场1楼(徐家汇路口)"},{"poiid":"B2094750D669A3F5429F","title":"鼎鼎有鸣铁板烧•日本料理","lon":"121.47002","lat":"31.20469","category":"95","category_name":"日本料理","address":"卢湾区打浦路1号金玉兰广场2楼(徐家汇路口)"},{"poiid":"B2094750D56FAAF54698","title":"星巴克(日月光广场店)","lon":"121.468","lat":"31.2055","category":"260","category_name":"其他","address":"卢湾区徐家汇路618号日月光中心广场1楼(近泰康路)"},{"poiid":"B2094757D06FA7F84899","title":"卢湾高级中学","lon":"121.46922","lat":"31.2016","category":"55","category_name":"中学","address":"上海卢湾区斜土路885号(近瑞金南路)"},{"poiid":"B2094757D068A7FF489A","title":"上海一号","lon":"121.467156738","lat":"31.2050147629","category":"500","category_name":"未知分类","address":"上海打浦桥"},{"poiid":"B2094757D069A5F5499D","title":"日月光百货","lon":"121.467779738","lat":"31.2054737727","category":"500","category_name":"未知分类","address":"上海徐汇区打浦桥"},{"poiid":"B2094655D36CA5FD409A","title":"打浦桥","lon":"121.46726","lat":"31.20405","category":"38","category_name":"公交车站","address":""},{"poiid":"B2094655D26AABFD439A","title":"上海1号私藏菜卢湾店","lon":"121.46779","lat":"31.20443","category":"76","category_name":"上海菜","address":"卢湾区瑞金南路1号海兴广场3楼(近徐家汇路)"},{"poiid":"B2094757DB69A6FE479B","title":"新贝乐意式休闲餐厅 日月光店","lon":"121.4681219","lat":"31.2055526","category":"94","category_name":"西餐厅","address":"卢湾区徐家汇路618号日月光中心广场B2楼(近瑞金二路)"},{"poiid":"B2094757D06FA0F84292","title":"必胜客(海兴店)","lon":"121.467218","lat":"31.203992","category":"68","category_name":"快餐厅","address":"卢湾区徐家汇路618号日月光中心广场B2楼(近瑞金二路)"},{"poiid":"B2094757D06FA5FA499B","title":"馔巴黎海鲜百汇餐厅","lon":"121.47101","lat":"31.20384","category":"268","category_name":"自助","address":"卢湾区打浦路15号斯格威铂尔曼大酒店B1楼(南塘浜路与徐家汇路之间)"},{"poiid":"B2094757D06FA3FB4699","title":"麦当劳(打浦桥店)","lon":"121.46800833","lat":"31.204932712","category":"68","category_name":"快餐厅","address":"卢湾区瑞金南路1号海兴广场内(近徐家汇路)"},{"poiid":"B2094757D664A2FD409D","title":"澳明鲜海鲜火锅","lon":"121.4681219","lat":"31.2055526","category":"86","category_name":"火锅店","address":"卢湾区徐家汇路618号日月光中心广场B2楼F-28号(近瑞金二路)"},{"poiid":"B2094757DA6EA7F84892","title":"老妈米线(日月光广场店)","lon":"121.468277","lat":"31.2056439999998","category":"86","category_name":"火锅店","address":"卢湾区徐家汇路618号日月光中心广场B2楼(近瑞金二路)"},{"poiid":"B2094757D069A7F84098","title":"玲瓏小鎮","lon":"121.47081936","lat":"31.20350292","category":"500","category_name":"未知分类","address":"上海打浦路78号"},{"poiid":"B2094757DB69A1FB439C","title":"意国度普丁披萨 日月光店","lon":"121.4681219","lat":"31.2055526","category":"94","category_name":"西餐厅","address":"卢湾区徐家汇路618号日月光中心广场B2楼台湾美食馆BT14室(近瑞金二路)"},{"poiid":"B2094757DA6FA3FC439A","title":"卡乐星(日月光店)","lon":"121.468121899998","lat":"31.2055526000002","category":"94","category_name":"西餐厅","address":"卢湾区徐家汇路618号日月光B2楼B21室(近瑞金二路)"},{"poiid":"B2094750D76EA3F4409F","title":"寿司王子(海兴店)","lon":"121.468","lat":"31.2047","category":"95","category_name":"日本料理","address":"卢湾区瑞金南路1号海兴广场2楼(近徐家汇路)"},{"poiid":"B2094757D068A5F84993","title":"翠蜓轩中国餐厅(打浦路店)","lon":"121.47046","lat":"31.20318","category":"76","category_name":"上海菜","address":"卢湾区打浦路88号海丽大厦2楼(斜土路口)"},{"poiid":"B2094751D36AAAFB4598","title":"喜多屋国际海鲜皇品(日月光店)","lon":"121.46812","lat":"31.20555","category":"268","category_name":"自助","address":"卢湾区徐家汇路618号日月光中心广场4楼(近打浦路)"},{"poiid":"B2094757D16DA4FE429E","title":"米斯特缤Mr.bean","lon":"121.467888438","lat":"31.2053967711","category":"113","category_name":"冷饮店","address":"卢湾区徐家汇路618号日月光中心广场B2楼F-10号铺(近满记)"},{"poiid":"B2094751D36EA2FD4298","title":"炉火唇情巴山烤全鱼","lon":"121.46789","lat":"31.20467","category":"71","category_name":"四川菜","address":"卢湾区瑞金南路1号海兴广场2楼(日月光对面)"},{"poiid":"B2094757D06FA6F9429F","title":"楚楚园馅饼粥(日月光广场店)","lon":"121.46782013","lat":"31.205556274","category":"68","category_name":"快餐厅","address":"卢湾区徐家汇路618号日月光中心广场B2楼(近瑞金二路)"},{"poiid":"B2094757D06FA5F8449C","title":"小木马西班牙餐厅 PONY KITCHEN","lon":"121.46812","lat":"31.20555","category":"94","category_name":"西餐厅","address":"卢湾区徐家汇路618号日月光中心广场5楼(近瑞金二路)"},{"poiid":"B209475CD46EA0FB469C","title":"年代秀（日月光店）","lon":"121.466468","lat":"31.204427","category":"249","category_name":"购物服务","address":"上海市 打浦橋日月光廣場五樓"},{"poiid":"B2094750D76CA4FC4398","title":"妈咪厨房(日月光广场店)","lon":"121.468","lat":"31.2055","category":"76","category_name":"上海菜","address":"卢湾区徐家汇路618号日月光中心广场B2楼(近瑞金二路)"},{"poiid":"B2094757D06FA7FB4193","title":"肯德基 KFC (打浦桥店)","lon":"121.468318","lat":"31.204928","category":"68","category_name":"快餐厅","address":"卢湾区徐家汇路679号(近打浦路)"},{"poiid":"B2094750D16BA6FB469B","title":"太平洋咖啡（日月光店）","lon":"121.469154","lat":"31.205379","category":"247","category_name":"餐饮美食","address":"卢湾区徐家汇路618号日月光中心广场1楼F1615-B室、F1618-B室、F1617室(近9号线打浦桥站2号口)"},{"poiid":"B2094654DA6EA3FA4693","title":"海丽大厦","lon":"121.47023","lat":"31.20312","category":"46","category_name":"楼宇","address":"宣武区南横街东口"},{"poiid":"B2094757D168A6FD469B","title":"鼎好乐园","lon":"121.468959838","lat":"31.2053088692","category":"500","category_name":"未知分类","address":"卢湾区徐家汇路618号日月光中心B1楼(瑞金二路口)"},{"poiid":"B2094750D565A1F4419B","title":"鼎鼎有鸣日式烧烤金玉兰广场店","lon":"121.470382","lat":"31.205125","category":"247","category_name":"餐饮美食","address":null},{"poiid":"B2094757D465ABFD4399","title":"蓝葆德-誉诺婚礼会馆","lon":"121.46858","lat":"31.205689","category":"247","category_name":"餐饮美食","address":"徐家汇路618号日月光中心广场5-6楼近瑞金二路"},{"poiid":"B2094757D069A5FA4198","title":"徐家汇路打浦路","lon":"121.468703","lat":"31.204958","category":"500","category_name":"未知分类","address":"上海徐家汇路打浦路"},{"poiid":"B2094655D26AA0FF4992","title":"新新桌球瑞金南路店","lon":"121.46779","lat":"31.20443","category":"247","category_name":"餐饮美食","address":"卢湾区瑞金南路1号海兴广场4楼(近徐家汇路)"},{"poiid":"B2094757D468A4FF419B","title":"百合福海鲜膳食总汇","lon":"121.46881","lat":"31.20575","category":"268","category_name":"自助","address":"卢湾区徐家汇路618号日月光中心广场5楼(近瑞金二路)"},{"poiid":"B2094757D06EAAFC449A","title":"玲珑小镇","lon":"121.47061852","lat":"31.203782139","category":"91","category_name":"台湾菜","address":"卢湾区打浦路78号(近徐家汇路)"},{"poiid":"B2094757D06EAAF9469C","title":"蔡嘉法式甜品","lon":"121.46799","lat":"31.206356","category":"67","category_name":"甜品店","address":"卢湾区徐家汇路618号日月光中心广场1楼F05室(近瑞金二路)"},{"poiid":"B2094753D76FAAFA449C","title":"上海滩国泰旗舰店","lon":"121.466011","lat":"31.216125","category":"249","category_name":"购物服务","address":"淮海中路868号"},{"poiid":"B209475CD564A7F84292","title":"上海滩新天地店","lon":"121.47463","lat":"31.22164","category":"119","category_name":"商场","address":"\"太仓路181弄新天地北里15号\r\n\""},{"poiid":"B2094757D06AA7F5409B","title":"百合福自助餐厅","lon":"121.469073738","lat":"31.2056607767","category":"500","category_name":"未知分类","address":"上海打浦桥日月光5楼"},{"poiid":"B2094757D06EAAFF469D","title":"合点寿司 日月光广场店","lon":"121.46812","lat":"31.20555","category":"95","category_name":"日本料理","address":"卢湾区徐家汇路618号日月光中心广场4楼4F-2号商铺(近瑞金二路)"},{"poiid":"B2094750D26AA2FD4692","title":"小滨楼","lon":"121.4681219","lat":"31.2055526","category":"71","category_name":"四川菜","address":"卢湾区徐家汇路618号日月光中心3楼B区(近瑞金二路)"},{"poiid":"B2094757DB6CA7FD419C","title":"宝燕海鲜自助火锅","lon":"121.46812","lat":"31.20555","category":"86","category_name":"火锅店","address":"卢湾区徐家汇路618号日月光中心广场4楼F27号铺(近瑞金二路)"},{"poiid":"B2094757D06EAAFA469B","title":"芋贵人甜品店(日月光广场店)","lon":"121.46858","lat":"31.205689","category":"67","category_name":"甜品店","address":"卢湾区徐家汇路618号日月光中心广场B2楼C08号商铺(近瑞金二路)"},{"poiid":"B2094654DB6BA4FC4899","title":"一哥肥牛火锅海鲜酒家(打浦路店)","lon":"121.4704","lat":"31.20316","category":"86","category_name":"火锅店","address":"上海卢湾区打浦路86号海丽花园(近斜土路)"},{"poiid":"B2094750D76FA0FA4693","title":"居食屋和民(日月光广场店)","lon":"121.468","lat":"31.2055","category":"95","category_name":"日本料理","address":"卢湾区徐家汇路618号日月光中心广场4楼(近瑞金二路)"},{"poiid":"B2094750D26CA6FD439D","title":"千秋膳房 日月光店","lon":"121.4681219","lat":"31.2055526","category":"91","category_name":"台湾菜","address":"卢湾区徐家汇路618号日月光中心广场B2楼台湾美食馆BT09室(近瑞金二路)"},{"poiid":"B2094654DA6EA3FB409B","title":"金玉兰广场","lon":"121.47017","lat":"31.20476","category":"119","category_name":"商场","address":"卢湾区打浦路1号(徐家汇路口)"},{"poiid":"B2094751D464A6F84799","title":"Outback澳派牛排馆","lon":"121.468201","lat":"31.205765","category":"247","category_name":"餐饮美食","address":"卢湾区徐家汇路618号日月光中心1F-F-15单元(近田子坊)"},{"poiid":"B2094654DB6BA4FC479F","title":"厚味香辣馆 打浦店","lon":"121.467372054","lat":"31.204689793","category":"71","category_name":"四川菜","address":"卢湾区瑞金南路1号海兴广场3楼(近徐家汇路)"},{"poiid":"B2094757D06FA2FB4299","title":"一哥肥牛火锅海鲜酒家(瑞金南路店)","lon":"121.46747","lat":"31.20419","category":"86","category_name":"火锅店","address":"卢湾区瑞金南路1号海兴广场1楼(徐家汇路口)"},{"poiid":"B2094750D669A3F5429F","title":"鼎鼎有鸣铁板烧•日本料理","lon":"121.47002","lat":"31.20469","category":"95","category_name":"日本料理","address":"卢湾区打浦路1号金玉兰广场2楼(徐家汇路口)"},{"poiid":"B2094750D56FAAF54698","title":"星巴克(日月光广场店)","lon":"121.468","lat":"31.2055","category":"260","category_name":"其他","address":"卢湾区徐家汇路618号日月光中心广场1楼(近泰康路)"},{"poiid":"B2094757D06FA7F84899","title":"卢湾高级中学","lon":"121.46922","lat":"31.2016","category":"55","category_name":"中学","address":"上海卢湾区斜土路885号(近瑞金南路)"},{"poiid":"B2094757D068A7FF489A","title":"上海一号","lon":"121.467156738","lat":"31.2050147629","category":"500","category_name":"未知分类","address":"上海打浦桥"},{"poiid":"B2094757D069A5F5499D","title":"日月光百货","lon":"121.467779738","lat":"31.2054737727","category":"500","category_name":"未知分类","address":"上海徐汇区打浦桥"},{"poiid":"B2094655D36CA5FD409A","title":"打浦桥","lon":"121.46726","lat":"31.20405","category":"38","category_name":"公交车站","address":""},{"poiid":"B2094655D26AABFD439A","title":"上海1号私藏菜卢湾店","lon":"121.46779","lat":"31.20443","category":"76","category_name":"上海菜","address":"卢湾区瑞金南路1号海兴广场3楼(近徐家汇路)"},{"poiid":"B2094757DB69A6FE479B","title":"新贝乐意式休闲餐厅 日月光店","lon":"121.4681219","lat":"31.2055526","category":"94","category_name":"西餐厅","address":"卢湾区徐家汇路618号日月光中心广场B2楼(近瑞金二路)"},{"poiid":"B2094757D06FA0F84292","title":"必胜客(海兴店)","lon":"121.467218","lat":"31.203992","category":"68","category_name":"快餐厅","address":"卢湾区徐家汇路618号日月光中心广场B2楼(近瑞金二路)"},{"poiid":"B2094757D06FA5FA499B","title":"馔巴黎海鲜百汇餐厅","lon":"121.47101","lat":"31.20384","category":"268","category_name":"自助","address":"卢湾区打浦路15号斯格威铂尔曼大酒店B1楼(南塘浜路与徐家汇路之间)"},{"poiid":"B2094757D06FA3FB4699","title":"麦当劳(打浦桥店)","lon":"121.46800833","lat":"31.204932712","category":"68","category_name":"快餐厅","address":"卢湾区瑞金南路1号海兴广场内(近徐家汇路)"},{"poiid":"B2094757D664A2FD409D","title":"澳明鲜海鲜火锅","lon":"121.4681219","lat":"31.2055526","category":"86","category_name":"火锅店","address":"卢湾区徐家汇路618号日月光中心广场B2楼F-28号(近瑞金二路)"},{"poiid":"B2094757DA6EA7F84892","title":"老妈米线(日月光广场店)","lon":"121.468277","lat":"31.2056439999998","category":"86","category_name":"火锅店","address":"卢湾区徐家汇路618号日月光中心广场B2楼(近瑞金二路)"},{"poiid":"B2094757D069A7F84098","title":"玲瓏小鎮","lon":"121.47081936","lat":"31.20350292","category":"500","category_name":"未知分类","address":"上海打浦路78号"},{"poiid":"B2094757DB69A1FB439C","title":"意国度普丁披萨 日月光店","lon":"121.4681219","lat":"31.2055526","category":"94","category_name":"西餐厅","address":"卢湾区徐家汇路618号日月光中心广场B2楼台湾美食馆BT14室(近瑞金二路)"},{"poiid":"B2094757DA6FA3FC439A","title":"卡乐星(日月光店)","lon":"121.468121899998","lat":"31.2055526000002","category":"94","category_name":"西餐厅","address":"卢湾区徐家汇路618号日月光B2楼B21室(近瑞金二路)"},{"poiid":"B2094750D76EA3F4409F","title":"寿司王子(海兴店)","lon":"121.468","lat":"31.2047","category":"95","category_name":"日本料理","address":"卢湾区瑞金南路1号海兴广场2楼(近徐家汇路)"},{"poiid":"B2094757D068A5F84993","title":"翠蜓轩中国餐厅(打浦路店)","lon":"121.47046","lat":"31.20318","category":"76","category_name":"上海菜","address":"卢湾区打浦路88号海丽大厦2楼(斜土路口)"},{"poiid":"B2094751D36AAAFB4598","title":"喜多屋国际海鲜皇品(日月光店)","lon":"121.46812","lat":"31.20555","category":"268","category_name":"自助","address":"卢湾区徐家汇路618号日月光中心广场4楼(近打浦路)"},{"poiid":"B2094757D16DA4FE429E","title":"米斯特缤Mr.bean","lon":"121.467888438","lat":"31.2053967711","category":"113","category_name":"冷饮店","address":"卢湾区徐家汇路618号日月光中心广场B2楼F-10号铺(近满记)"},{"poiid":"B2094751D36EA2FD4298","title":"炉火唇情巴山烤全鱼","lon":"121.46789","lat":"31.20467","category":"71","category_name":"四川菜","address":"卢湾区瑞金南路1号海兴广场2楼(日月光对面)"},{"poiid":"B2094757D06FA6F9429F","title":"楚楚园馅饼粥(日月光广场店)","lon":"121.46782013","lat":"31.205556274","category":"68","category_name":"快餐厅","address":"卢湾区徐家汇路618号日月光中心广场B2楼(近瑞金二路)"},{"poiid":"B2094757D06FA5F8449C","title":"小木马西班牙餐厅 PONY KITCHEN","lon":"121.46812","lat":"31.20555","category":"94","category_name":"西餐厅","address":"卢湾区徐家汇路618号日月光中心广场5楼(近瑞金二路)"},{"poiid":"B209475CD46EA0FB469C","title":"年代秀（日月光店）","lon":"121.466468","lat":"31.204427","category":"249","category_name":"购物服务","address":"上海市 打浦橋日月光廣場五樓"},{"poiid":"B2094750D76CA4FC4398","title":"妈咪厨房(日月光广场店)","lon":"121.468","lat":"31.2055","category":"76","category_name":"上海菜","address":"卢湾区徐家汇路618号日月光中心广场B2楼(近瑞金二路)"},{"poiid":"B2094757D06FA7FB4193","title":"肯德基 KFC (打浦桥店)","lon":"121.468318","lat":"31.204928","category":"68","category_name":"快餐厅","address":"卢湾区徐家汇路679号(近打浦路)"},{"poiid":"B2094750D16BA6FB469B","title":"太平洋咖啡（日月光店）","lon":"121.469154","lat":"31.205379","category":"247","category_name":"餐饮美食","address":"卢湾区徐家汇路618号日月光中心广场1楼F1615-B室、F1618-B室、F1617室(近9号线打浦桥站2号口)"},{"poiid":"B2094654DA6EA3FA4693","title":"海丽大厦","lon":"121.47023","lat":"31.20312","category":"46","category_name":"楼宇","address":"宣武区南横街东口"},{"poiid":"B2094757D168A6FD469B","title":"鼎好乐园","lon":"121.468959838","lat":"31.2053088692","category":"500","category_name":"未知分类","address":"卢湾区徐家汇路618号日月光中心B1楼(瑞金二路口)"},{"poiid":"B2094750D565A1F4419B","title":"鼎鼎有鸣日式烧烤金玉兰广场店","lon":"121.470382","lat":"31.205125","category":"247","category_name":"餐饮美食","address":null},{"poiid":"B2094757D465ABFD4399","title":"蓝葆德-誉诺婚礼会馆","lon":"121.46858","lat":"31.205689","category":"247","category_name":"餐饮美食","address":"徐家汇路618号日月光中心广场5-6楼近瑞金二路"},{"poiid":"B2094757D069A5FA4198","title":"徐家汇路打浦路","lon":"121.468703","lat":"31.204958","category":"500","category_name":"未知分类","address":"上海徐家汇路打浦路"},{"poiid":"B2094655D26AA0FF4992","title":"新新桌球瑞金南路店","lon":"121.46779","lat":"31.20443","category":"247","category_name":"餐饮美食","address":"卢湾区瑞金南路1号海兴广场4楼(近徐家汇路)"},{"poiid":"B2094757D468A4FF419B","title":"百合福海鲜膳食总汇","lon":"121.46881","lat":"31.20575","category":"268","category_name":"自助","address":"卢湾区徐家汇路618号日月光中心广场5楼(近瑞金二路)"},{"poiid":"B2094757D06EAAFC449A","title":"玲珑小镇","lon":"121.47061852","lat":"31.203782139","category":"91","category_name":"台湾菜","address":"卢湾区打浦路78号(近徐家汇路)"},{"poiid":"B2094757D06EAAF9469C","title":"蔡嘉法式甜品","lon":"121.46799","lat":"31.206356","category":"67","category_name":"甜品店","address":"卢湾区徐家汇路618号日月光中心广场1楼F05室(近瑞金二路)"},{"poiid":"B2094753D76FAAFA449C","title":"上海滩国泰旗舰店","lon":"121.466011","lat":"31.216125","category":"249","category_name":"购物服务","address":"淮海中路868号"},{"poiid":"B209475CD564A7F84292","title":"上海滩新天地店","lon":"121.47463","lat":"31.22164","category":"119","category_name":"商场","address":"\"太仓路181弄新天地北里15号\r\n\""},{"poiid":"B2094757D06AA7F5409B","title":"百合福自助餐厅","lon":"121.469073738","lat":"31.2056607767","category":"500","category_name":"未知分类","address":"上海打浦桥日月光5楼"},{"poiid":"B2094757D06EAAFF469D","title":"合点寿司 日月光广场店","lon":"121.46812","lat":"31.20555","category":"95","category_name":"日本料理","address":"卢湾区徐家汇路618号日月光中心广场4楼4F-2号商铺(近瑞金二路)"},{"poiid":"B2094750D26AA2FD4692","title":"小滨楼","lon":"121.4681219","lat":"31.2055526","category":"71","category_name":"四川菜","address":"卢湾区徐家汇路618号日月光中心3楼B区(近瑞金二路)"},{"poiid":"B2094757DB6CA7FD419C","title":"宝燕海鲜自助火锅","lon":"121.46812","lat":"31.20555","category":"86","category_name":"火锅店","address":"卢湾区徐家汇路618号日月光中心广场4楼F27号铺(近瑞金二路)"},{"poiid":"B2094757D06EAAFA469B","title":"芋贵人甜品店(日月光广场店)","lon":"121.46858","lat":"31.205689","category":"67","category_name":"甜品店","address":"卢湾区徐家汇路618号日月光中心广场B2楼C08号商铺(近瑞金二路)"},{"poiid":"B2094654DB6BA4FC4899","title":"一哥肥牛火锅海鲜酒家(打浦路店)","lon":"121.4704","lat":"31.20316","category":"86","category_name":"火锅店","address":"上海卢湾区打浦路86号海丽花园(近斜土路)"},{"poiid":"B2094750D76FA0FA4693","title":"居食屋和民(日月光广场店)","lon":"121.468","lat":"31.2055","category":"95","category_name":"日本料理","address":"卢湾区徐家汇路618号日月光中心广场4楼(近瑞金二路)"},{"poiid":"B2094750D26CA6FD439D","title":"千秋膳房 日月光店","lon":"121.4681219","lat":"31.2055526","category":"91","category_name":"台湾菜","address":"卢湾区徐家汇路618号日月光中心广场B2楼台湾美食馆BT09室(近瑞金二路)"},{"poiid":"B2094654DA6EA3FB409B","title":"金玉兰广场","lon":"121.47017","lat":"31.20476","category":"119","category_name":"商场","address":"卢湾区打浦路1号(徐家汇路口)"},{"poiid":"B2094751D464A6F84799","title":"Outback澳派牛排馆","lon":"121.468201","lat":"31.205765","category":"247","category_name":"餐饮美食","address":"卢湾区徐家汇路618号日月光中心1F-F-15单元(近田子坊)"},{"poiid":"B2094654DB6BA4FC479F","title":"厚味香辣馆 打浦店","lon":"121.467372054","lat":"31.204689793","category":"71","category_name":"四川菜","address":"卢湾区瑞金南路1号海兴广场3楼(近徐家汇路)"},{"poiid":"B2094757D06FA2FB4299","title":"一哥肥牛火锅海鲜酒家(瑞金南路店)","lon":"121.46747","lat":"31.20419","category":"86","category_name":"火锅店","address":"卢湾区瑞金南路1号海兴广场1楼(徐家汇路口)"},{"poiid":"B2094750D669A3F5429F","title":"鼎鼎有鸣铁板烧•日本料理","lon":"121.47002","lat":"31.20469","category":"95","category_name":"日本料理","address":"卢湾区打浦路1号金玉兰广场2楼(徐家汇路口)"},{"poiid":"B2094750D56FAAF54698","title":"星巴克(日月光广场店)","lon":"121.468","lat":"31.2055","category":"260","category_name":"其他","address":"卢湾区徐家汇路618号日月光中心广场1楼(近泰康路)"},{"poiid":"B2094757D06FA7F84899","title":"卢湾高级中学","lon":"121.46922","lat":"31.2016","category":"55","category_name":"中学","address":"上海卢湾区斜土路885号(近瑞金南路)"},{"poiid":"B2094757D068A7FF489A","title":"上海一号","lon":"121.467156738","lat":"31.2050147629","category":"500","category_name":"未知分类","address":"上海打浦桥"},{"poiid":"B2094757D069A5F5499D","title":"日月光百货","lon":"121.467779738","lat":"31.2054737727","category":"500","category_name":"未知分类","address":"上海徐汇区打浦桥"},{"poiid":"B2094655D36CA5FD409A","title":"打浦桥","lon":"121.46726","lat":"31.20405","category":"38","category_name":"公交车站","address":""},{"poiid":"B2094655D26AABFD439A","title":"上海1号私藏菜卢湾店","lon":"121.46779","lat":"31.20443","category":"76","category_name":"上海菜","address":"卢湾区瑞金南路1号海兴广场3楼(近徐家汇路)"},{"poiid":"B2094757DB69A6FE479B","title":"新贝乐意式休闲餐厅 日月光店","lon":"121.4681219","lat":"31.2055526","category":"94","category_name":"西餐厅","address":"卢湾区徐家汇路618号日月光中心广场B2楼(近瑞金二路)"},{"poiid":"B2094757D06FA0F84292","title":"必胜客(海兴店)","lon":"121.467218","lat":"31.203992","category":"68","category_name":"快餐厅","address":"卢湾区徐家汇路618号日月光中心广场B2楼(近瑞金二路)"},{"poiid":"B2094757D06FA5FA499B","title":"馔巴黎海鲜百汇餐厅","lon":"121.47101","lat":"31.20384","category":"268","category_name":"自助","address":"卢湾区打浦路15号斯格威铂尔曼大酒店B1楼(南塘浜路与徐家汇路之间)"},{"poiid":"B2094757D06FA3FB4699","title":"麦当劳(打浦桥店)","lon":"121.46800833","lat":"31.204932712","category":"68","category_name":"快餐厅","address":"卢湾区瑞金南路1号海兴广场内(近徐家汇路)"},{"poiid":"B2094757D664A2FD409D","title":"澳明鲜海鲜火锅","lon":"121.4681219","lat":"31.2055526","category":"86","category_name":"火锅店","address":"卢湾区徐家汇路618号日月光中心广场B2楼F-28号(近瑞金二路)"},{"poiid":"B2094757DA6EA7F84892","title":"老妈米线(日月光广场店)","lon":"121.468277","lat":"31.2056439999998","category":"86","category_name":"火锅店","address":"卢湾区徐家汇路618号日月光中心广场B2楼(近瑞金二路)"},{"poiid":"B2094757D069A7F84098","title":"玲瓏小鎮","lon":"121.47081936","lat":"31.20350292","category":"500","category_name":"未知分类","address":"上海打浦路78号"},{"poiid":"B2094757DB69A1FB439C","title":"意国度普丁披萨 日月光店","lon":"121.4681219","lat":"31.2055526","category":"94","category_name":"西餐厅","address":"卢湾区徐家汇路618号日月光中心广场B2楼台湾美食馆BT14室(近瑞金二路)"},{"poiid":"B2094757DA6FA3FC439A","title":"卡乐星(日月光店)","lon":"121.468121899998","lat":"31.2055526000002","category":"94","category_name":"西餐厅","address":"卢湾区徐家汇路618号日月光B2楼B21室(近瑞金二路)"},{"poiid":"B2094750D76EA3F4409F","title":"寿司王子(海兴店)","lon":"121.468","lat":"31.2047","category":"95","category_name":"日本料理","address":"卢湾区瑞金南路1号海兴广场2楼(近徐家汇路)"},{"poiid":"B2094757D068A5F84993","title":"翠蜓轩中国餐厅(打浦路店)","lon":"121.47046","lat":"31.20318","category":"76","category_name":"上海菜","address":"卢湾区打浦路88号海丽大厦2楼(斜土路口)"},{"poiid":"B2094751D36AAAFB4598","title":"喜多屋国际海鲜皇品(日月光店)","lon":"121.46812","lat":"31.20555","category":"268","category_name":"自助","address":"卢湾区徐家汇路618号日月光中心广场4楼(近打浦路)"},{"poiid":"B2094757D16DA4FE429E","title":"米斯特缤Mr.bean","lon":"121.467888438","lat":"31.2053967711","category":"113","category_name":"冷饮店","address":"卢湾区徐家汇路618号日月光中心广场B2楼F-10号铺(近满记)"},{"poiid":"B2094751D36EA2FD4298","title":"炉火唇情巴山烤全鱼","lon":"121.46789","lat":"31.20467","category":"71","category_name":"四川菜","address":"卢湾区瑞金南路1号海兴广场2楼(日月光对面)"},{"poiid":"B2094757D06FA6F9429F","title":"楚楚园馅饼粥(日月光广场店)","lon":"121.46782013","lat":"31.205556274","category":"68","category_name":"快餐厅","address":"卢湾区徐家汇路618号日月光中心广场B2楼(近瑞金二路)"},{"poiid":"B2094757D06FA5F8449C","title":"小木马西班牙餐厅 PONY KITCHEN","lon":"121.46812","lat":"31.20555","category":"94","category_name":"西餐厅","address":"卢湾区徐家汇路618号日月光中心广场5楼(近瑞金二路)"},{"poiid":"B209475CD46EA0FB469C","title":"年代秀（日月光店）","lon":"121.466468","lat":"31.204427","category":"249","category_name":"购物服务","address":"上海市 打浦橋日月光廣場五樓"},{"poiid":"B2094750D76CA4FC4398","title":"妈咪厨房(日月光广场店)","lon":"121.468","lat":"31.2055","category":"76","category_name":"上海菜","address":"卢湾区徐家汇路618号日月光中心广场B2楼(近瑞金二路)"},{"poiid":"B2094757D06FA7FB4193","title":"肯德基 KFC (打浦桥店)","lon":"121.468318","lat":"31.204928","category":"68","category_name":"快餐厅","address":"卢湾区徐家汇路679号(近打浦路)"},{"poiid":"B2094750D16BA6FB469B","title":"太平洋咖啡（日月光店）","lon":"121.469154","lat":"31.205379","category":"247","category_name":"餐饮美食","address":"卢湾区徐家汇路618号日月光中心广场1楼F1615-B室、F1618-B室、F1617室(近9号线打浦桥站2号口)"},{"poiid":"B2094654DA6EA3FA4693","title":"海丽大厦","lon":"121.47023","lat":"31.20312","category":"46","category_name":"楼宇","address":"宣武区南横街东口"},{"poiid":"B2094757D168A6FD469B","title":"鼎好乐园","lon":"121.468959838","lat":"31.2053088692","category":"500","category_name":"未知分类","address":"卢湾区徐家汇路618号日月光中心B1楼(瑞金二路口)"},{"poiid":"B2094750D565A1F4419B","title":"鼎鼎有鸣日式烧烤金玉兰广场店","lon":"121.470382","lat":"31.205125","category":"247","category_name":"餐饮美食","address":null},{"poiid":"B2094757D465ABFD4399","title":"蓝葆德-誉诺婚礼会馆","lon":"121.46858","lat":"31.205689","category":"247","category_name":"餐饮美食","address":"徐家汇路618号日月光中心广场5-6楼近瑞金二路"},{"poiid":"B2094757D069A5FA4198","title":"徐家汇路打浦路","lon":"121.468703","lat":"31.204958","category":"500","category_name":"未知分类","address":"上海徐家汇路打浦路"},{"poiid":"B2094655D26AA0FF4992","title":"新新桌球瑞金南路店","lon":"121.46779","lat":"31.20443","category":"247","category_name":"餐饮美食","address":"卢湾区瑞金南路1号海兴广场4楼(近徐家汇路)"},{"poiid":"B2094757D468A4FF419B","title":"百合福海鲜膳食总汇","lon":"121.46881","lat":"31.20575","category":"268","category_name":"自助","address":"卢湾区徐家汇路618号日月光中心广场5楼(近瑞金二路)"},{"poiid":"B2094757D06EAAFC449A","title":"玲珑小镇","lon":"121.47061852","lat":"31.203782139","category":"91","category_name":"台湾菜","address":"卢湾区打浦路78号(近徐家汇路)"},{"poiid":"B2094757D06EAAF9469C","title":"蔡嘉法式甜品","lon":"121.46799","lat":"31.206356","category":"67","category_name":"甜品店","address":"卢湾区徐家汇路618号日月光中心广场1楼F05室(近瑞金二路)"},{"poiid":"B2094753D76FAAFA449C","title":"上海滩国泰旗舰店","lon":"121.466011","lat":"31.216125","category":"249","category_name":"购物服务","address":"淮海中路868号"},{"poiid":"B209475CD564A7F84292","title":"上海滩新天地店","lon":"121.47463","lat":"31.22164","category":"119","category_name":"商场","address":"\"太仓路181弄新天地北里15号\r\n\""},{"poiid":"B2094757D06AA7F5409B","title":"百合福自助餐厅","lon":"121.469073738","lat":"31.2056607767","category":"500","category_name":"未知分类","address":"上海打浦桥日月光5楼"},{"poiid":"B2094757D06EAAFF469D","title":"合点寿司 日月光广场店","lon":"121.46812","lat":"31.20555","category":"95","category_name":"日本料理","address":"卢湾区徐家汇路618号日月光中心广场4楼4F-2号商铺(近瑞金二路)"},{"poiid":"B2094750D26AA2FD4692","title":"小滨楼","lon":"121.4681219","lat":"31.2055526","category":"71","category_name":"四川菜","address":"卢湾区徐家汇路618号日月光中心3楼B区(近瑞金二路)"},{"poiid":"B2094757DB6CA7FD419C","title":"宝燕海鲜自助火锅","lon":"121.46812","lat":"31.20555","category":"86","category_name":"火锅店","address":"卢湾区徐家汇路618号日月光中心广场4楼F27号铺(近瑞金二路)"},{"poiid":"B2094757D06EAAFA469B","title":"芋贵人甜品店(日月光广场店)","lon":"121.46858","lat":"31.205689","category":"67","category_name":"甜品店","address":"卢湾区徐家汇路618号日月光中心广场B2楼C08号商铺(近瑞金二路)"},{"poiid":"B2094654DB6BA4FC4899","title":"一哥肥牛火锅海鲜酒家(打浦路店)","lon":"121.4704","lat":"31.20316","category":"86","category_name":"火锅店","address":"上海卢湾区打浦路86号海丽花园(近斜土路)"},{"poiid":"B2094750D76FA0FA4693","title":"居食屋和民(日月光广场店)","lon":"121.468","lat":"31.2055","category":"95","category_name":"日本料理","address":"卢湾区徐家汇路618号日月光中心广场4楼(近瑞金二路)"},{"poiid":"B2094750D26CA6FD439D","title":"千秋膳房 日月光店","lon":"121.4681219","lat":"31.2055526","category":"91","category_name":"台湾菜","address":"卢湾区徐家汇路618号日月光中心广场B2楼台湾美食馆BT09室(近瑞金二路)"},{"poiid":"B2094654DA6EA3FB409B","title":"金玉兰广场","lon":"121.47017","lat":"31.20476","category":"119","category_name":"商场","address":"卢湾区打浦路1号(徐家汇路口)"},{"poiid":"B2094751D464A6F84799","title":"Outback澳派牛排馆","lon":"121.468201","lat":"31.205765","category":"247","category_name":"餐饮美食","address":"卢湾区徐家汇路618号日月光中心1F-F-15单元(近田子坊)"},{"poiid":"B2094654DB6BA4FC479F","title":"厚味香辣馆 打浦店","lon":"121.467372054","lat":"31.204689793","category":"71","category_name":"四川菜","address":"卢湾区瑞金南路1号海兴广场3楼(近徐家汇路)"},{"poiid":"B2094757D06FA2FB4299","title":"一哥肥牛火锅海鲜酒家(瑞金南路店)","lon":"121.46747","lat":"31.20419","category":"86","category_name":"火锅店","address":"卢湾区瑞金南路1号海兴广场1楼(徐家汇路口)"},{"poiid":"B2094750D669A3F5429F","title":"鼎鼎有鸣铁板烧•日本料理","lon":"121.47002","lat":"31.20469","category":"95","category_name":"日本料理","address":"卢湾区打浦路1号金玉兰广场2楼(徐家汇路口)"},{"poiid":"B2094750D56FAAF54698","title":"星巴克(日月光广场店)","lon":"121.468","lat":"31.2055","category":"260","category_name":"其他","address":"卢湾区徐家汇路618号日月光中心广场1楼(近泰康路)"},{"poiid":"B2094757D06FA7F84899","title":"卢湾高级中学","lon":"121.46922","lat":"31.2016","category":"55","category_name":"中学","address":"上海卢湾区斜土路885号(近瑞金南路)"},{"poiid":"B2094757D068A7FF489A","title":"上海一号","lon":"121.467156738","lat":"31.2050147629","category":"500","category_name":"未知分类","address":"上海打浦桥"},{"poiid":"B2094757D069A5F5499D","title":"日月光百货","lon":"121.467779738","lat":"31.2054737727","category":"500","category_name":"未知分类","address":"上海徐汇区打浦桥"},{"poiid":"B2094655D36CA5FD409A","title":"打浦桥","lon":"121.46726","lat":"31.20405","category":"38","category_name":"公交车站","address":""},{"poiid":"B2094655D26AABFD439A","title":"上海1号私藏菜卢湾店","lon":"121.46779","lat":"31.20443","category":"76","category_name":"上海菜","address":"卢湾区瑞金南路1号海兴广场3楼(近徐家汇路)"},{"poiid":"B2094757DB69A6FE479B","title":"新贝乐意式休闲餐厅 日月光店","lon":"121.4681219","lat":"31.2055526","category":"94","category_name":"西餐厅","address":"卢湾区徐家汇路618号日月光中心广场B2楼(近瑞金二路)"},{"poiid":"B2094757D06FA0F84292","title":"必胜客(海兴店)","lon":"121.467218","lat":"31.203992","category":"68","category_name":"快餐厅","address":"卢湾区徐家汇路618号日月光中心广场B2楼(近瑞金二路)"},{"poiid":"B2094757D06FA5FA499B","title":"馔巴黎海鲜百汇餐厅","lon":"121.47101","lat":"31.20384","category":"268","category_name":"自助","address":"卢湾区打浦路15号斯格威铂尔曼大酒店B1楼(南塘浜路与徐家汇路之间)"},{"poiid":"B2094757D06FA3FB4699","title":"麦当劳(打浦桥店)","lon":"121.46800833","lat":"31.204932712","category":"68","category_name":"快餐厅","address":"卢湾区瑞金南路1号海兴广场内(近徐家汇路)"},{"poiid":"B2094757D664A2FD409D","title":"澳明鲜海鲜火锅","lon":"121.4681219","lat":"31.2055526","category":"86","category_name":"火锅店","address":"卢湾区徐家汇路618号日月光中心广场B2楼F-28号(近瑞金二路)"},{"poiid":"B2094757DA6EA7F84892","title":"老妈米线(日月光广场店)","lon":"121.468277","lat":"31.2056439999998","category":"86","category_name":"火锅店","address":"卢湾区徐家汇路618号日月光中心广场B2楼(近瑞金二路)"},{"poiid":"B2094757D069A7F84098","title":"玲瓏小鎮","lon":"121.47081936","lat":"31.20350292","category":"500","category_name":"未知分类","address":"上海打浦路78号"},{"poiid":"B2094757DB69A1FB439C","title":"意国度普丁披萨 日月光店","lon":"121.4681219","lat":"31.2055526","category":"94","category_name":"西餐厅","address":"卢湾区徐家汇路618号日月光中心广场B2楼台湾美食馆BT14室(近瑞金二路)"},{"poiid":"B2094757DA6FA3FC439A","title":"卡乐星(日月光店)","lon":"121.468121899998","lat":"31.2055526000002","category":"94","category_name":"西餐厅","address":"卢湾区徐家汇路618号日月光B2楼B21室(近瑞金二路)"},{"poiid":"B2094750D76EA3F4409F","title":"寿司王子(海兴店)","lon":"121.468","lat":"31.2047","category":"95","category_name":"日本料理","address":"卢湾区瑞金南路1号海兴广场2楼(近徐家汇路)"},{"poiid":"B2094757D068A5F84993","title":"翠蜓轩中国餐厅(打浦路店)","lon":"121.47046","lat":"31.20318","category":"76","category_name":"上海菜","address":"卢湾区打浦路88号海丽大厦2楼(斜土路口)"},{"poiid":"B2094751D36AAAFB4598","title":"喜多屋国际海鲜皇品(日月光店)","lon":"121.46812","lat":"31.20555","category":"268","category_name":"自助","address":"卢湾区徐家汇路618号日月光中心广场4楼(近打浦路)"},{"poiid":"B2094757D16DA4FE429E","title":"米斯特缤Mr.bean","lon":"121.467888438","lat":"31.2053967711","category":"113","category_name":"冷饮店","address":"卢湾区徐家汇路618号日月光中心广场B2楼F-10号铺(近满记)"},{"poiid":"B2094751D36EA2FD4298","title":"炉火唇情巴山烤全鱼","lon":"121.46789","lat":"31.20467","category":"71","category_name":"四川菜","address":"卢湾区瑞金南路1号海兴广场2楼(日月光对面)"},{"poiid":"B2094757D06FA6F9429F","title":"楚楚园馅饼粥(日月光广场店)","lon":"121.46782013","lat":"31.205556274","category":"68","category_name":"快餐厅","address":"卢湾区徐家汇路618号日月光中心广场B2楼(近瑞金二路)"},{"poiid":"B2094757D06FA5F8449C","title":"小木马西班牙餐厅 PONY KITCHEN","lon":"121.46812","lat":"31.20555","category":"94","category_name":"西餐厅","address":"卢湾区徐家汇路618号日月光中心广场5楼(近瑞金二路)"},{"poiid":"B209475CD46EA0FB469C","title":"年代秀（日月光店）","lon":"121.466468","lat":"31.204427","category":"249","category_name":"购物服务","address":"上海市 打浦橋日月光廣場五樓"},{"poiid":"B2094750D76CA4FC4398","title":"妈咪厨房(日月光广场店)","lon":"121.468","lat":"31.2055","category":"76","category_name":"上海菜","address":"卢湾区徐家汇路618号日月光中心广场B2楼(近瑞金二路)"},{"poiid":"B2094757D06FA7FB4193","title":"肯德基 KFC (打浦桥店)","lon":"121.468318","lat":"31.204928","category":"68","category_name":"快餐厅","address":"卢湾区徐家汇路679号(近打浦路)"},{"poiid":"B2094750D16BA6FB469B","title":"太平洋咖啡（日月光店）","lon":"121.469154","lat":"31.205379","category":"247","category_name":"餐饮美食","address":"卢湾区徐家汇路618号日月光中心广场1楼F1615-B室、F1618-B室、F1617室(近9号线打浦桥站2号口)"},{"poiid":"B2094654DA6EA3FA4693","title":"海丽大厦","lon":"121.47023","lat":"31.20312","category":"46","category_name":"楼宇","address":"宣武区南横街东口"},{"poiid":"B2094757D168A6FD469B","title":"鼎好乐园","lon":"121.468959838","lat":"31.2053088692","category":"500","category_name":"未知分类","address":"卢湾区徐家汇路618号日月光中心B1楼(瑞金二路口)"},{"poiid":"B2094750D565A1F4419B","title":"鼎鼎有鸣日式烧烤金玉兰广场店","lon":"121.470382","lat":"31.205125","category":"247","category_name":"餐饮美食","address":null},{"poiid":"B2094757D465ABFD4399","title":"蓝葆德-誉诺婚礼会馆","lon":"121.46858","lat":"31.205689","category":"247","category_name":"餐饮美食","address":"徐家汇路618号日月光中心广场5-6楼近瑞金二路"},{"poiid":"B2094757D069A5FA4198","title":"徐家汇路打浦路","lon":"121.468703","lat":"31.204958","category":"500","category_name":"未知分类","address":"上海徐家汇路打浦路"},{"poiid":"B2094655D26AA0FF4992","title":"新新桌球瑞金南路店","lon":"121.46779","lat":"31.20443","category":"247","category_name":"餐饮美食","address":"卢湾区瑞金南路1号海兴广场4楼(近徐家汇路)"}]