[{"poiid":"B2094655D268A3FF449E","title":"世博演艺中心","lon":"121.494","lat":"31.18899","category":"180","category_name":"剧场","address":"上海市浦东新区世博大道"},{"poiid":"B2094655D268A3FF4498","title":"世博园区中国馆","lon":"121.49475","lat":"31.18453","category":"183","category_name":"展览馆","address":""},{"poiid":"B2094757D06EAAF4409D","title":"世博公园","lon":"121.48693171","lat":"31.18741865","category":"196","category_name":"公园","address":"浦东新区浦东世博园B片区世博大道北侧"},{"poiid":"B2094655D36DA6FF499E","title":"上海影城--世博国际影城","lon":"121.48736","lat":"31.18564","category":"178","category_name":"电影院","address":"上海市浦东新区世博大道1200号世博文化中心6楼(梅赛德斯-奔驰文化中心)"},{"poiid":"B2094757D064ABFB4392","title":"梅赛德斯奔驰文化中心音乐俱乐部","lon":"121.495735738","lat":"31.1882344057","category":"500","category_name":"未知分类","address":"上海世博大道1200号西门一层"},{"poiid":"B2094750D36BA7FC409B","title":"梅赛德斯-奔驰文化中心 Mercedes-Benz Arena","lon":"121.493168","lat":"31.190006","category":"646","category_name":"文化体育类公司","address":"浦东新区世博大道1200号(近上南路)"},{"poiid":"B2094757D06FA3FE4493","title":"上海世博中心","lon":"121.489342559","lat":"31.1860505323","category":"260","category_name":"其他","address":"上海浦东新区世博大道1500号"},{"poiid":"B2094757D06FA3FB4393","title":"上海世博展览馆 Shanghai World EXPO Exhibition & Convention Center","lon":"121.489975548","lat":"31.1822755304","category":"260","category_name":"其他","address":"上海浦东新区国展路1099号"},{"poiid":"B2094750D365A4F5489C","title":"中华艺术宫","lon":"121.494338","lat":"31.183723","category":"248","category_name":"生活娱乐","address":"国展路云台路口（原中国国家馆）"},{"poiid":"B2094757D06EABF54893","title":"星巴克 STARBUCKS (世博演艺中心店)","lon":"121.4896985","lat":"31.1858498","category":"260","category_name":"其他","address":"浦东新区世博大道1200号世博演艺中心L111商铺"},{"poiid":"B2094757DA6EA6FE489C","title":"望湘园(世博店)","lon":"121.4943","lat":"31.18886","category":"77","category_name":"湖南菜","address":"浦东新区世博大道1200号梅赛德斯奔驰文化中心6楼603号(近上南路)"},{"poiid":"B2094757D06FA2FE4092","title":"世纪星滑冰俱乐部(Century Star Rink)","lon":"121.49329056","lat":"31.18833552","category":"260","category_name":"其他","address":"浦东新区世博大道1200号梅赛德斯奔驰文化中心B1楼"},{"poiid":"B2094757D06EAAF9409C","title":"世博会中国国家馆","lon":"121.494923671","lat":"31.184639805","category":"260","category_name":"其他","address":"上海浦东新区国展路云台路口(原上海世博会A片区)"},{"poiid":"B2094751D564A0FF429F","title":"王鼎铁板烧精致店","lon":"121.48745","lat":"31.190852","category":"500","category_name":"未知分类","address":"世博大道1368号1LM0304"},{"poiid":"B2094750D66CA7F9449E","title":"月亮船","lon":"121.496009","lat":"31.188825","category":"500","category_name":"未知分类","address":null},{"poiid":"B2094757DA6EA4F8459F","title":"世博场馆沙特阿拉伯馆","lon":"121.4958","lat":"31.188443","category":"252","category_name":"楼宇机构","address":"浦东新区博成路1221号(近高科西路口)"},{"poiid":"B2094751D56BA1F5479A","title":"世博源(The River Mall)","lon":"121.491795","lat":"31.187409","category":"247","category_name":"餐饮美食","address":"浦东新区世博大道1368号(近中华艺术宫)"},{"poiid":"B2094757D06EABF4499A","title":"The Mixing Room&amp;MUSE","lon":"121.4909603","lat":"31.1862715","category":"179","category_name":"音乐厅","address":"上海浦东新区世博大道1200号(梅赛德斯-奔驰文化中心B1层)"},{"poiid":"B2094752DB6AA3FB489A","title":"银乐迪","lon":"121.492111","lat":"31.187576","category":"500","category_name":"未知分类","address":"上海市 世博大道1368号1G13(近上南路)"},{"poiid":"B2094751DA68ABFA459D","title":"世博源王鼎日本料理","lon":"121.491779","lat":"31.187822","category":"247","category_name":"餐饮美食","address":"世博源"},{"poiid":"B2094750D26FA0FE4993","title":"上海世博展览馆","lon":"121.490014","lat":"31.182562","category":"183","category_name":"展览馆","address":"浦东新区国展路1099号(近世博轴西侧)"},{"poiid":"B2094751D464A7F9499C","title":"梅赛德斯文化中心","lon":"121.492462","lat":"31.188721","category":"500","category_name":"未知分类","address":"上海浦东"},{"poiid":"B2094757D06FA1F54292","title":"世博会世博轴","lon":"121.49265997","lat":"31.183181722","category":"260","category_name":"其他","address":"上海浦东新区上南路周家渡路间(原上海世博会A/B片区交汇处)"},{"poiid":"B2094757D069A0FF4298","title":"乐町Rakumachi 日本料理","lon":"121.49200542","lat":"31.187594186","category":"500","category_name":"未知分类","address":"上海浦东世博大道1200号世博文化中心6楼605"},{"poiid":"B2094757D06BA1FA409A","title":"绍兴饭店(世博店)","lon":"121.48555","lat":"31.18079","category":"75","category_name":"浙江菜","address":"浦东新区国展路1099号上海世博展览馆2楼"},{"poiid":"B2094751DA6FA7F44093","title":"麝香猫咖啡世博店","lon":"121.49202","lat":"31.18782","category":"247","category_name":"餐饮美食","address":"浦东新区浦东南路3588号世博源购物中心LM楼1LM06室"},{"poiid":"B2094757D06FA4FE4698","title":"味千拉面(世博文化中心店)","lon":"121.49320902","lat":"31.188971979","category":"68","category_name":"快餐厅","address":"浦东新区世博大道1200号B1层B101-103号"},{"poiid":"B2094757D068ABF84899","title":"世博庆典广场","lon":"121.49148323","lat":"31.188546226","category":"201","category_name":"城市广场","address":"原上海世博会世博园世博轴北面(近黄浦江畔)"},{"poiid":"B2094752DB6DA3FC4393","title":"银乐迪（世博源店）","lon":"121.490905","lat":"31.187173","category":"500","category_name":"未知分类","address":"上海市 世博大道1368号1G11"},{"poiid":"B2094752D065A0FE449B","title":"王鼎日本料理铁板烧","lon":"121.492686","lat":"31.189287","category":"247","category_name":"餐饮美食","address":"世博大道1368号世博源1LM03-04号铺(近梅赛德斯奔驰文化中心西门)"},{"poiid":"B2094757D66FA2F94798","title":"世博展览馆1馆","lon":"121.490898738","lat":"31.1825972857","category":"500","category_name":"未知分类","address":"上海国展路1099号"},{"poiid":"B2094751D26FA2F54699","title":"上海地铁8号线中华艺术宫站","lon":"121.49370496826168","lat":"31.184915300620595","category":"36","category_name":"地铁站","address":"浦东新区上南路近博成路"},{"poiid":"B209475DDB6DABF5439B","title":"世博源","lon":"121.492805","lat":"31.182491","category":"249","category_name":"购物服务","address":"上海市 博成路"},{"poiid":"B2094751DA69A7F44992","title":"王鼎","lon":"121.492645","lat":"31.189255","category":"247","category_name":"餐饮美食","address":"浦东新区世博大道1368号世博源1LM03-04号铺(近梅赛德斯奔驰文化中心西门)"},{"poiid":"B2094751DA6BA0F44893","title":"斗牛士（世博轴店）","lon":"121.487263","lat":"31.189611","category":"247","category_name":"餐饮美食","address":"浦东新区世博大道1368号世博源B1楼G09-10号铺(近上南路)"},{"poiid":"B2094757D068A3F94492","title":"世博会阿联酋馆","lon":"121.49784","lat":"31.18622","category":"260","category_name":"其他","address":"上海浦东新区国展路近云台路(原上海世博会A片区)"},{"poiid":"B2094757D069A7F9429B","title":"世博大道","lon":"121.49357258","lat":"31.183651909","category":"260","category_name":"其他","address":"上海世博园"},{"poiid":"B2094757D469A3F94193","title":"心乐蝶舞灵性舞蹈养生餐厅","lon":"121.4909603","lat":"31.1862715","category":"76","category_name":"上海菜","address":"世博大道1515号梅赛德斯奔驰文化中心L601近雪野路"},{"poiid":"B2094752D664A4F9449A","title":"广潮味","lon":"121.491635","lat":"31.187727","category":"247","category_name":"餐饮美食","address":"世博源"},{"poiid":"B2094752D465A0F8449E","title":"鱻道","lon":"121.49171","lat":"31.187348","category":"247","category_name":"餐饮美食","address":"世博大道1368号世博源1G08号铺(近上南路)"},{"poiid":"B2094752D36DA4F4469B","title":"奔驰梅赛德斯文化中心","lon":"121.491959","lat":"31.187866","category":"500","category_name":"未知分类","address":"世博源公馆"},{"poiid":"B2094750DB6AA7F5439D","title":"上海新国际博览中心","lon":"121.493598","lat":"31.189872","category":"500","category_name":"未知分类","address":"浦东新区龙阳路2345号"},{"poiid":"B2094753D76AA1FB499B","title":"BES,CLUB","lon":"121.491666","lat":"31.188207","category":"256","category_name":"外国餐厅","address":"上海市浦东新区世博大道1368号世博源LM02号商铺(上南路口)"},{"poiid":"B2094751DA64A2FE439C","title":"North北纬30度创意料理店","lon":"121.487203","lat":"31.190138","category":"247","category_name":"餐饮美食","address":"浦东新区世博大道"},{"poiid":"B2094750D66CAAFD4792","title":"上海东方体育中心","lon":"121.494178","lat":"31.185503","category":"500","category_name":"未知分类","address":null},{"poiid":"B2094752D265A6FB429E","title":"世博源","lon":"121.487263","lat":"31.189585","category":"247","category_name":"餐饮美食","address":"世博大道1368号"},{"poiid":"B2094753D16EAAFD499D","title":"巴国布衣(世博店)","lon":"121.49274","lat":"31.18397","category":"71","category_name":"四川菜","address":"浦东新区世博大道1368号世博源1楼110号铺(近上南路)"},{"poiid":"B2094757D06FA5F44998","title":"世博会主题馆","lon":"121.4902454","lat":"31.182306354","category":"260","category_name":"其他","address":"上海世博会B片区 世博馆路"},{"poiid":"B2094752DB6DA3FB429B","title":"梅德赛斯奔驰文化中心","lon":"121.493049","lat":"31.188869","category":"500","category_name":"未知分类","address":"上海市 世博大道"},{"poiid":"B2094753D564ABF8449F","title":"鼎味源融合菜","lon":"121.490716","lat":"31.187739","category":"76","category_name":"上海菜","address":"浦东新区世博大道1368号世博源1LM(奔驰文化中心,西门进入,左转直行))"},{"poiid":"B2094655D268A3FF449E","title":"世博演艺中心","lon":"121.494","lat":"31.18899","category":"180","category_name":"剧场","address":"上海市浦东新区世博大道"},{"poiid":"B2094655D268A3FF4498","title":"世博园区中国馆","lon":"121.49475","lat":"31.18453","category":"183","category_name":"展览馆","address":""},{"poiid":"B2094757D06EAAF4409D","title":"世博公园","lon":"121.48693171","lat":"31.18741865","category":"196","category_name":"公园","address":"浦东新区浦东世博园B片区世博大道北侧"},{"poiid":"B2094655D36DA6FF499E","title":"上海影城--世博国际影城","lon":"121.48736","lat":"31.18564","category":"178","category_name":"电影院","address":"上海市浦东新区世博大道1200号世博文化中心6楼(梅赛德斯-奔驰文化中心)"},{"poiid":"B2094757D064ABFB4392","title":"梅赛德斯奔驰文化中心音乐俱乐部","lon":"121.495735738","lat":"31.1882344057","category":"500","category_name":"未知分类","address":"上海世博大道1200号西门一层"},{"poiid":"B2094750D36BA7FC409B","title":"梅赛德斯-奔驰文化中心 Mercedes-Benz Arena","lon":"121.493168","lat":"31.190006","category":"646","category_name":"文化体育类公司","address":"浦东新区世博大道1200号(近上南路)"},{"poiid":"B2094757D06FA3FE4493","title":"上海世博中心","lon":"121.489342559","lat":"31.1860505323","category":"260","category_name":"其他","address":"上海浦东新区世博大道1500号"},{"poiid":"B2094757D06FA3FB4393","title":"上海世博展览馆 Shanghai World EXPO Exhibition & Convention Center","lon":"121.489975548","lat":"31.1822755304","category":"260","category_name":"其他","address":"上海浦东新区国展路1099号"},{"poiid":"B2094750D365A4F5489C","title":"中华艺术宫","lon":"121.494338","lat":"31.183723","category":"248","category_name":"生活娱乐","address":"国展路云台路口（原中国国家馆）"},{"poiid":"B2094757D06EABF54893","title":"星巴克 STARBUCKS (世博演艺中心店)","lon":"121.4896985","lat":"31.1858498","category":"260","category_name":"其他","address":"浦东新区世博大道1200号世博演艺中心L111商铺"},{"poiid":"B2094757DA6EA6FE489C","title":"望湘园(世博店)","lon":"121.4943","lat":"31.18886","category":"77","category_name":"湖南菜","address":"浦东新区世博大道1200号梅赛德斯奔驰文化中心6楼603号(近上南路)"},{"poiid":"B2094757D06FA2FE4092","title":"世纪星滑冰俱乐部(Century Star Rink)","lon":"121.49329056","lat":"31.18833552","category":"260","category_name":"其他","address":"浦东新区世博大道1200号梅赛德斯奔驰文化中心B1楼"},{"poiid":"B2094757D06EAAF9409C","title":"世博会中国国家馆","lon":"121.494923671","lat":"31.184639805","category":"260","category_name":"其他","address":"上海浦东新区国展路云台路口(原上海世博会A片区)"},{"poiid":"B2094751D564A0FF429F","title":"王鼎铁板烧精致店","lon":"121.48745","lat":"31.190852","category":"500","category_name":"未知分类","address":"世博大道1368号1LM0304"},{"poiid":"B2094750D66CA7F9449E","title":"月亮船","lon":"121.496009","lat":"31.188825","category":"500","category_name":"未知分类","address":null},{"poiid":"B2094757DA6EA4F8459F","title":"世博场馆沙特阿拉伯馆","lon":"121.4958","lat":"31.188443","category":"252","category_name":"楼宇机构","address":"浦东新区博成路1221号(近高科西路口)"},{"poiid":"B2094751D56BA1F5479A","title":"世博源(The River Mall)","lon":"121.491795","lat":"31.187409","category":"247","category_name":"餐饮美食","address":"浦东新区世博大道1368号(近中华艺术宫)"},{"poiid":"B2094757D06EABF4499A","title":"The Mixing Room&amp;MUSE","lon":"121.4909603","lat":"31.1862715","category":"179","category_name":"音乐厅","address":"上海浦东新区世博大道1200号(梅赛德斯-奔驰文化中心B1层)"},{"poiid":"B2094752DB6AA3FB489A","title":"银乐迪","lon":"121.492111","lat":"31.187576","category":"500","category_name":"未知分类","address":"上海市 世博大道1368号1G13(近上南路)"},{"poiid":"B2094751DA68ABFA459D","title":"世博源王鼎日本料理","lon":"121.491779","lat":"31.187822","category":"247","category_name":"餐饮美食","address":"世博源"},{"poiid":"B2094750D26FA0FE4993","title":"上海世博展览馆","lon":"121.490014","lat":"31.182562","category":"183","category_name":"展览馆","address":"浦东新区国展路1099号(近世博轴西侧)"},{"poiid":"B2094751D464A7F9499C","title":"梅赛德斯文化中心","lon":"121.492462","lat":"31.188721","category":"500","category_name":"未知分类","address":"上海浦东"},{"poiid":"B2094757D06FA1F54292","title":"世博会世博轴","lon":"121.49265997","lat":"31.183181722","category":"260","category_name":"其他","address":"上海浦东新区上南路周家渡路间(原上海世博会A/B片区交汇处)"},{"poiid":"B2094757D069A0FF4298","title":"乐町Rakumachi 日本料理","lon":"121.49200542","lat":"31.187594186","category":"500","category_name":"未知分类","address":"上海浦东世博大道1200号世博文化中心6楼605"},{"poiid":"B2094757D06BA1FA409A","title":"绍兴饭店(世博店)","lon":"121.48555","lat":"31.18079","category":"75","category_name":"浙江菜","address":"浦东新区国展路1099号上海世博展览馆2楼"},{"poiid":"B2094751DA6FA7F44093","title":"麝香猫咖啡世博店","lon":"121.49202","lat":"31.18782","category":"247","category_name":"餐饮美食","address":"浦东新区浦东南路3588号世博源购物中心LM楼1LM06室"},{"poiid":"B2094757D06FA4FE4698","title":"味千拉面(世博文化中心店)","lon":"121.49320902","lat":"31.188971979","category":"68","category_name":"快餐厅","address":"浦东新区世博大道1200号B1层B101-103号"},{"poiid":"B2094757D068ABF84899","title":"世博庆典广场","lon":"121.49148323","lat":"31.188546226","category":"201","category_name":"城市广场","address":"原上海世博会世博园世博轴北面(近黄浦江畔)"},{"poiid":"B2094752DB6DA3FC4393","title":"银乐迪（世博源店）","lon":"121.490905","lat":"31.187173","category":"500","category_name":"未知分类","address":"上海市 世博大道1368号1G11"},{"poiid":"B2094752D065A0FE449B","title":"王鼎日本料理铁板烧","lon":"121.492686","lat":"31.189287","category":"247","category_name":"餐饮美食","address":"世博大道1368号世博源1LM03-04号铺(近梅赛德斯奔驰文化中心西门)"},{"poiid":"B2094757D66FA2F94798","title":"世博展览馆1馆","lon":"121.490898738","lat":"31.1825972857","category":"500","category_name":"未知分类","address":"上海国展路1099号"},{"poiid":"B2094751D26FA2F54699","title":"上海地铁8号线中华艺术宫站","lon":"121.49370496826168","lat":"31.184915300620595","category":"36","category_name":"地铁站","address":"浦东新区上南路近博成路"},{"poiid":"B209475DDB6DABF5439B","title":"世博源","lon":"121.492805","lat":"31.182491","category":"249","category_name":"购物服务","address":"上海市 博成路"},{"poiid":"B2094751DA69A7F44992","title":"王鼎","lon":"121.492645","lat":"31.189255","category":"247","category_name":"餐饮美食","address":"浦东新区世博大道1368号世博源1LM03-04号铺(近梅赛德斯奔驰文化中心西门)"},{"poiid":"B2094751DA6BA0F44893","title":"斗牛士（世博轴店）","lon":"121.487263","lat":"31.189611","category":"247","category_name":"餐饮美食","address":"浦东新区世博大道1368号世博源B1楼G09-10号铺(近上南路)"},{"poiid":"B2094757D068A3F94492","title":"世博会阿联酋馆","lon":"121.49784","lat":"31.18622","category":"260","category_name":"其他","address":"上海浦东新区国展路近云台路(原上海世博会A片区)"},{"poiid":"B2094757D069A7F9429B","title":"世博大道","lon":"121.49357258","lat":"31.183651909","category":"260","category_name":"其他","address":"上海世博园"},{"poiid":"B2094757D469A3F94193","title":"心乐蝶舞灵性舞蹈养生餐厅","lon":"121.4909603","lat":"31.1862715","category":"76","category_name":"上海菜","address":"世博大道1515号梅赛德斯奔驰文化中心L601近雪野路"},{"poiid":"B2094752D664A4F9449A","title":"广潮味","lon":"121.491635","lat":"31.187727","category":"247","category_name":"餐饮美食","address":"世博源"},{"poiid":"B2094752D465A0F8449E","title":"鱻道","lon":"121.49171","lat":"31.187348","category":"247","category_name":"餐饮美食","address":"世博大道1368号世博源1G08号铺(近上南路)"},{"poiid":"B2094752D36DA4F4469B","title":"奔驰梅赛德斯文化中心","lon":"121.491959","lat":"31.187866","category":"500","category_name":"未知分类","address":"世博源公馆"},{"poiid":"B2094750DB6AA7F5439D","title":"上海新国际博览中心","lon":"121.493598","lat":"31.189872","category":"500","category_name":"未知分类","address":"浦东新区龙阳路2345号"},{"poiid":"B2094753D76AA1FB499B","title":"BES,CLUB","lon":"121.491666","lat":"31.188207","category":"256","category_name":"外国餐厅","address":"上海市浦东新区世博大道1368号世博源LM02号商铺(上南路口)"},{"poiid":"B2094751DA64A2FE439C","title":"North北纬30度创意料理店","lon":"121.487203","lat":"31.190138","category":"247","category_name":"餐饮美食","address":"浦东新区世博大道"},{"poiid":"B2094750D66CAAFD4792","title":"上海东方体育中心","lon":"121.494178","lat":"31.185503","category":"500","category_name":"未知分类","address":null},{"poiid":"B2094752D265A6FB429E","title":"世博源","lon":"121.487263","lat":"31.189585","category":"247","category_name":"餐饮美食","address":"世博大道1368号"},{"poiid":"B2094753D16EAAFD499D","title":"巴国布衣(世博店)","lon":"121.49274","lat":"31.18397","category":"71","category_name":"四川菜","address":"浦东新区世博大道1368号世博源1楼110号铺(近上南路)"},{"poiid":"B2094757D06FA5F44998","title":"世博会主题馆","lon":"121.4902454","lat":"31.182306354","category":"260","category_name":"其他","address":"上海世博会B片区 世博馆路"},{"poiid":"B2094752DB6DA3FB429B","title":"梅德赛斯奔驰文化中心","lon":"121.493049","lat":"31.188869","category":"500","category_name":"未知分类","address":"上海市 世博大道"},{"poiid":"B2094753D564ABF8449F","title":"鼎味源融合菜","lon":"121.490716","lat":"31.187739","category":"76","category_name":"上海菜","address":"浦东新区世博大道1368号世博源1LM(奔驰文化中心,西门进入,左转直行))"},{"poiid":"B2094655D268A3FF449E","title":"世博演艺中心","lon":"121.494","lat":"31.18899","category":"180","category_name":"剧场","address":"上海市浦东新区世博大道"},{"poiid":"B2094655D268A3FF4498","title":"世博园区中国馆","lon":"121.49475","lat":"31.18453","category":"183","category_name":"展览馆","address":""},{"poiid":"B2094757D06EAAF4409D","title":"世博公园","lon":"121.48693171","lat":"31.18741865","category":"196","category_name":"公园","address":"浦东新区浦东世博园B片区世博大道北侧"},{"poiid":"B2094655D36DA6FF499E","title":"上海影城--世博国际影城","lon":"121.48736","lat":"31.18564","category":"178","category_name":"电影院","address":"上海市浦东新区世博大道1200号世博文化中心6楼(梅赛德斯-奔驰文化中心)"},{"poiid":"B2094757D064ABFB4392","title":"梅赛德斯奔驰文化中心音乐俱乐部","lon":"121.495735738","lat":"31.1882344057","category":"500","category_name":"未知分类","address":"上海世博大道1200号西门一层"},{"poiid":"B2094750D36BA7FC409B","title":"梅赛德斯-奔驰文化中心 Mercedes-Benz Arena","lon":"121.493168","lat":"31.190006","category":"646","category_name":"文化体育类公司","address":"浦东新区世博大道1200号(近上南路)"},{"poiid":"B2094757D06FA3FE4493","title":"上海世博中心","lon":"121.489342559","lat":"31.1860505323","category":"260","category_name":"其他","address":"上海浦东新区世博大道1500号"},{"poiid":"B2094757D06FA3FB4393","title":"上海世博展览馆 Shanghai World EXPO Exhibition & Convention Center","lon":"121.489975548","lat":"31.1822755304","category":"260","category_name":"其他","address":"上海浦东新区国展路1099号"},{"poiid":"B2094750D365A4F5489C","title":"中华艺术宫","lon":"121.494338","lat":"31.183723","category":"248","category_name":"生活娱乐","address":"国展路云台路口（原中国国家馆）"},{"poiid":"B2094757D06EABF54893","title":"星巴克 STARBUCKS (世博演艺中心店)","lon":"121.4896985","lat":"31.1858498","category":"260","category_name":"其他","address":"浦东新区世博大道1200号世博演艺中心L111商铺"},{"poiid":"B2094757DA6EA6FE489C","title":"望湘园(世博店)","lon":"121.4943","lat":"31.18886","category":"77","category_name":"湖南菜","address":"浦东新区世博大道1200号梅赛德斯奔驰文化中心6楼603号(近上南路)"},{"poiid":"B2094757D06FA2FE4092","title":"世纪星滑冰俱乐部(Century Star Rink)","lon":"121.49329056","lat":"31.18833552","category":"260","category_name":"其他","address":"浦东新区世博大道1200号梅赛德斯奔驰文化中心B1楼"},{"poiid":"B2094757D06EAAF9409C","title":"世博会中国国家馆","lon":"121.494923671","lat":"31.184639805","category":"260","category_name":"其他","address":"上海浦东新区国展路云台路口(原上海世博会A片区)"},{"poiid":"B2094751D564A0FF429F","title":"王鼎铁板烧精致店","lon":"121.48745","lat":"31.190852","category":"500","category_name":"未知分类","address":"世博大道1368号1LM0304"},{"poiid":"B2094750D66CA7F9449E","title":"月亮船","lon":"121.496009","lat":"31.188825","category":"500","category_name":"未知分类","address":null},{"poiid":"B2094757DA6EA4F8459F","title":"世博场馆沙特阿拉伯馆","lon":"121.4958","lat":"31.188443","category":"252","category_name":"楼宇机构","address":"浦东新区博成路1221号(近高科西路口)"},{"poiid":"B2094751D56BA1F5479A","title":"世博源(The River Mall)","lon":"121.491795","lat":"31.187409","category":"247","category_name":"餐饮美食","address":"浦东新区世博大道1368号(近中华艺术宫)"},{"poiid":"B2094757D06EABF4499A","title":"The Mixing Room&amp;MUSE","lon":"121.4909603","lat":"31.1862715","category":"179","category_name":"音乐厅","address":"上海浦东新区世博大道1200号(梅赛德斯-奔驰文化中心B1层)"},{"poiid":"B2094752DB6AA3FB489A","title":"银乐迪","lon":"121.492111","lat":"31.187576","category":"500","category_name":"未知分类","address":"上海市 世博大道1368号1G13(近上南路)"},{"poiid":"B2094751DA68ABFA459D","title":"世博源王鼎日本料理","lon":"121.491779","lat":"31.187822","category":"247","category_name":"餐饮美食","address":"世博源"},{"poiid":"B2094750D26FA0FE4993","title":"上海世博展览馆","lon":"121.490014","lat":"31.182562","category":"183","category_name":"展览馆","address":"浦东新区国展路1099号(近世博轴西侧)"},{"poiid":"B2094751D464A7F9499C","title":"梅赛德斯文化中心","lon":"121.492462","lat":"31.188721","category":"500","category_name":"未知分类","address":"上海浦东"},{"poiid":"B2094757D06FA1F54292","title":"世博会世博轴","lon":"121.49265997","lat":"31.183181722","category":"260","category_name":"其他","address":"上海浦东新区上南路周家渡路间(原上海世博会A/B片区交汇处)"},{"poiid":"B2094757D069A0FF4298","title":"乐町Rakumachi 日本料理","lon":"121.49200542","lat":"31.187594186","category":"500","category_name":"未知分类","address":"上海浦东世博大道1200号世博文化中心6楼605"},{"poiid":"B2094757D06BA1FA409A","title":"绍兴饭店(世博店)","lon":"121.48555","lat":"31.18079","category":"75","category_name":"浙江菜","address":"浦东新区国展路1099号上海世博展览馆2楼"},{"poiid":"B2094751DA6FA7F44093","title":"麝香猫咖啡世博店","lon":"121.49202","lat":"31.18782","category":"247","category_name":"餐饮美食","address":"浦东新区浦东南路3588号世博源购物中心LM楼1LM06室"},{"poiid":"B2094757D06FA4FE4698","title":"味千拉面(世博文化中心店)","lon":"121.49320902","lat":"31.188971979","category":"68","category_name":"快餐厅","address":"浦东新区世博大道1200号B1层B101-103号"},{"poiid":"B2094757D068ABF84899","title":"世博庆典广场","lon":"121.49148323","lat":"31.188546226","category":"201","category_name":"城市广场","address":"原上海世博会世博园世博轴北面(近黄浦江畔)"},{"poiid":"B2094752DB6DA3FC4393","title":"银乐迪（世博源店）","lon":"121.490905","lat":"31.187173","category":"500","category_name":"未知分类","address":"上海市 世博大道1368号1G11"},{"poiid":"B2094752D065A0FE449B","title":"王鼎日本料理铁板烧","lon":"121.492686","lat":"31.189287","category":"247","category_name":"餐饮美食","address":"世博大道1368号世博源1LM03-04号铺(近梅赛德斯奔驰文化中心西门)"},{"poiid":"B2094757D66FA2F94798","title":"世博展览馆1馆","lon":"121.490898738","lat":"31.1825972857","category":"500","category_name":"未知分类","address":"上海国展路1099号"},{"poiid":"B2094751D26FA2F54699","title":"上海地铁8号线中华艺术宫站","lon":"121.49370496826168","lat":"31.184915300620595","category":"36","category_name":"地铁站","address":"浦东新区上南路近博成路"},{"poiid":"B209475DDB6DABF5439B","title":"世博源","lon":"121.492805","lat":"31.182491","category":"249","category_name":"购物服务","address":"上海市 博成路"},{"poiid":"B2094751DA69A7F44992","title":"王鼎","lon":"121.492645","lat":"31.189255","category":"247","category_name":"餐饮美食","address":"浦东新区世博大道1368号世博源1LM03-04号铺(近梅赛德斯奔驰文化中心西门)"},{"poiid":"B2094751DA6BA0F44893","title":"斗牛士（世博轴店）","lon":"121.487263","lat":"31.189611","category":"247","category_name":"餐饮美食","address":"浦东新区世博大道1368号世博源B1楼G09-10号铺(近上南路)"},{"poiid":"B2094757D068A3F94492","title":"世博会阿联酋馆","lon":"121.49784","lat":"31.18622","category":"260","category_name":"其他","address":"上海浦东新区国展路近云台路(原上海世博会A片区)"},{"poiid":"B2094757D069A7F9429B","title":"世博大道","lon":"121.49357258","lat":"31.183651909","category":"260","category_name":"其他","address":"上海世博园"},{"poiid":"B2094757D469A3F94193","title":"心乐蝶舞灵性舞蹈养生餐厅","lon":"121.4909603","lat":"31.1862715","category":"76","category_name":"上海菜","address":"世博大道1515号梅赛德斯奔驰文化中心L601近雪野路"},{"poiid":"B2094752D664A4F9449A","title":"广潮味","lon":"121.491635","lat":"31.187727","category":"247","category_name":"餐饮美食","address":"世博源"},{"poiid":"B2094752D465A0F8449E","title":"鱻道","lon":"121.49171","lat":"31.187348","category":"247","category_name":"餐饮美食","address":"世博大道1368号世博源1G08号铺(近上南路)"},{"poiid":"B2094752D36DA4F4469B","title":"奔驰梅赛德斯文化中心","lon":"121.491959","lat":"31.187866","category":"500","category_name":"未知分类","address":"世博源公馆"},{"poiid":"B2094750DB6AA7F5439D","title":"上海新国际博览中心","lon":"121.493598","lat":"31.189872","category":"500","category_name":"未知分类","address":"浦东新区龙阳路2345号"},{"poiid":"B2094753D76AA1FB499B","title":"BES,CLUB","lon":"121.491666","lat":"31.188207","category":"256","category_name":"外国餐厅","address":"上海市浦东新区世博大道1368号世博源LM02号商铺(上南路口)"},{"poiid":"B2094751DA64A2FE439C","title":"North北纬30度创意料理店","lon":"121.487203","lat":"31.190138","category":"247","category_name":"餐饮美食","address":"浦东新区世博大道"},{"poiid":"B2094750D66CAAFD4792","title":"上海东方体育中心","lon":"121.494178","lat":"31.185503","category":"500","category_name":"未知分类","address":null},{"poiid":"B2094752D265A6FB429E","title":"世博源","lon":"121.487263","lat":"31.189585","category":"247","category_name":"餐饮美食","address":"世博大道1368号"},{"poiid":"B2094753D16EAAFD499D","title":"巴国布衣(世博店)","lon":"121.49274","lat":"31.18397","category":"71","category_name":"四川菜","address":"浦东新区世博大道1368号世博源1楼110号铺(近上南路)"},{"poiid":"B2094757D06FA5F44998","title":"世博会主题馆","lon":"121.4902454","lat":"31.182306354","category":"260","category_name":"其他","address":"上海世博会B片区 世博馆路"},{"poiid":"B2094752DB6DA3FB429B","title":"梅德赛斯奔驰文化中心","lon":"121.493049","lat":"31.188869","category":"500","category_name":"未知分类","address":"上海市 世博大道"},{"poiid":"B2094753D564ABF8449F","title":"鼎味源融合菜","lon":"121.490716","lat":"31.187739","category":"76","category_name":"上海菜","address":"浦东新区世博大道1368号世博源1LM(奔驰文化中心,西门进入,左转直行))"},{"poiid":"B2094655D268A3FF449E","title":"世博演艺中心","lon":"121.494","lat":"31.18899","category":"180","category_name":"剧场","address":"上海市浦东新区世博大道"},{"poiid":"B2094655D268A3FF4498","title":"世博园区中国馆","lon":"121.49475","lat":"31.18453","category":"183","category_name":"展览馆","address":""},{"poiid":"B2094757D06EAAF4409D","title":"世博公园","lon":"121.48693171","lat":"31.18741865","category":"196","category_name":"公园","address":"浦东新区浦东世博园B片区世博大道北侧"},{"poiid":"B2094655D36DA6FF499E","title":"上海影城--世博国际影城","lon":"121.48736","lat":"31.18564","category":"178","category_name":"电影院","address":"上海市浦东新区世博大道1200号世博文化中心6楼(梅赛德斯-奔驰文化中心)"},{"poiid":"B2094757D064ABFB4392","title":"梅赛德斯奔驰文化中心音乐俱乐部","lon":"121.495735738","lat":"31.1882344057","category":"500","category_name":"未知分类","address":"上海世博大道1200号西门一层"},{"poiid":"B2094750D36BA7FC409B","title":"梅赛德斯-奔驰文化中心 Mercedes-Benz Arena","lon":"121.493168","lat":"31.190006","category":"646","category_name":"文化体育类公司","address":"浦东新区世博大道1200号(近上南路)"},{"poiid":"B2094757D06FA3FE4493","title":"上海世博中心","lon":"121.489342559","lat":"31.1860505323","category":"260","category_name":"其他","address":"上海浦东新区世博大道1500号"},{"poiid":"B2094757D06FA3FB4393","title":"上海世博展览馆 Shanghai World EXPO Exhibition & Convention Center","lon":"121.489975548","lat":"31.1822755304","category":"260","category_name":"其他","address":"上海浦东新区国展路1099号"},{"poiid":"B2094750D365A4F5489C","title":"中华艺术宫","lon":"121.494338","lat":"31.183723","category":"248","category_name":"生活娱乐","address":"国展路云台路口（原中国国家馆）"},{"poiid":"B2094757D06EABF54893","title":"星巴克 STARBUCKS (世博演艺中心店)","lon":"121.4896985","lat":"31.1858498","category":"260","category_name":"其他","address":"浦东新区世博大道1200号世博演艺中心L111商铺"},{"poiid":"B2094757DA6EA6FE489C","title":"望湘园(世博店)","lon":"121.4943","lat":"31.18886","category":"77","category_name":"湖南菜","address":"浦东新区世博大道1200号梅赛德斯奔驰文化中心6楼603号(近上南路)"},{"poiid":"B2094757D06FA2FE4092","title":"世纪星滑冰俱乐部(Century Star Rink)","lon":"121.49329056","lat":"31.18833552","category":"260","category_name":"其他","address":"浦东新区世博大道1200号梅赛德斯奔驰文化中心B1楼"},{"poiid":"B2094757D06EAAF9409C","title":"世博会中国国家馆","lon":"121.494923671","lat":"31.184639805","category":"260","category_name":"其他","address":"上海浦东新区国展路云台路口(原上海世博会A片区)"},{"poiid":"B2094751D564A0FF429F","title":"王鼎铁板烧精致店","lon":"121.48745","lat":"31.190852","category":"500","category_name":"未知分类","address":"世博大道1368号1LM0304"},{"poiid":"B2094750D66CA7F9449E","title":"月亮船","lon":"121.496009","lat":"31.188825","category":"500","category_name":"未知分类","address":null},{"poiid":"B2094757DA6EA4F8459F","title":"世博场馆沙特阿拉伯馆","lon":"121.4958","lat":"31.188443","category":"252","category_name":"楼宇机构","address":"浦东新区博成路1221号(近高科西路口)"},{"poiid":"B2094751D56BA1F5479A","title":"世博源(The River Mall)","lon":"121.491795","lat":"31.187409","category":"247","category_name":"餐饮美食","address":"浦东新区世博大道1368号(近中华艺术宫)"},{"poiid":"B2094757D06EABF4499A","title":"The Mixing Room&amp;MUSE","lon":"121.4909603","lat":"31.1862715","category":"179","category_name":"音乐厅","address":"上海浦东新区世博大道1200号(梅赛德斯-奔驰文化中心B1层)"},{"poiid":"B2094752DB6AA3FB489A","title":"银乐迪","lon":"121.492111","lat":"31.187576","category":"500","category_name":"未知分类","address":"上海市 世博大道1368号1G13(近上南路)"},{"poiid":"B2094751DA68ABFA459D","title":"世博源王鼎日本料理","lon":"121.491779","lat":"31.187822","category":"247","category_name":"餐饮美食","address":"世博源"},{"poiid":"B2094750D26FA0FE4993","title":"上海世博展览馆","lon":"121.490014","lat":"31.182562","category":"183","category_name":"展览馆","address":"浦东新区国展路1099号(近世博轴西侧)"},{"poiid":"B2094751D464A7F9499C","title":"梅赛德斯文化中心","lon":"121.492462","lat":"31.188721","category":"500","category_name":"未知分类","address":"上海浦东"},{"poiid":"B2094757D06FA1F54292","title":"世博会世博轴","lon":"121.49265997","lat":"31.183181722","category":"260","category_name":"其他","address":"上海浦东新区上南路周家渡路间(原上海世博会A/B片区交汇处)"},{"poiid":"B2094757D069A0FF4298","title":"乐町Rakumachi 日本料理","lon":"121.49200542","lat":"31.187594186","category":"500","category_name":"未知分类","address":"上海浦东世博大道1200号世博文化中心6楼605"},{"poiid":"B2094757D06BA1FA409A","title":"绍兴饭店(世博店)","lon":"121.48555","lat":"31.18079","category":"75","category_name":"浙江菜","address":"浦东新区国展路1099号上海世博展览馆2楼"},{"poiid":"B2094751DA6FA7F44093","title":"麝香猫咖啡世博店","lon":"121.49202","lat":"31.18782","category":"247","category_name":"餐饮美食","address":"浦东新区浦东南路3588号世博源购物中心LM楼1LM06室"},{"poiid":"B2094757D06FA4FE4698","title":"味千拉面(世博文化中心店)","lon":"121.49320902","lat":"31.188971979","category":"68","category_name":"快餐厅","address":"浦东新区世博大道1200号B1层B101-103号"},{"poiid":"B2094757D068ABF84899","title":"世博庆典广场","lon":"121.49148323","lat":"31.188546226","category":"201","category_name":"城市广场","address":"原上海世博会世博园世博轴北面(近黄浦江畔)"},{"poiid":"B2094752DB6DA3FC4393","title":"银乐迪（世博源店）","lon":"121.490905","lat":"31.187173","category":"500","category_name":"未知分类","address":"上海市 世博大道1368号1G11"},{"poiid":"B2094752D065A0FE449B","title":"王鼎日本料理铁板烧","lon":"121.492686","lat":"31.189287","category":"247","category_name":"餐饮美食","address":"世博大道1368号世博源1LM03-04号铺(近梅赛德斯奔驰文化中心西门)"},{"poiid":"B2094757D66FA2F94798","title":"世博展览馆1馆","lon":"121.490898738","lat":"31.1825972857","category":"500","category_name":"未知分类","address":"上海国展路1099号"},{"poiid":"B2094751D26FA2F54699","title":"上海地铁8号线中华艺术宫站","lon":"121.49370496826168","lat":"31.184915300620595","category":"36","category_name":"地铁站","address":"浦东新区上南路近博成路"},{"poiid":"B209475DDB6DABF5439B","title":"世博源","lon":"121.492805","lat":"31.182491","category":"249","category_name":"购物服务","address":"上海市 博成路"},{"poiid":"B2094751DA69A7F44992","title":"王鼎","lon":"121.492645","lat":"31.189255","category":"247","category_name":"餐饮美食","address":"浦东新区世博大道1368号世博源1LM03-04号铺(近梅赛德斯奔驰文化中心西门)"},{"poiid":"B2094751DA6BA0F44893","title":"斗牛士（世博轴店）","lon":"121.487263","lat":"31.189611","category":"247","category_name":"餐饮美食","address":"浦东新区世博大道1368号世博源B1楼G09-10号铺(近上南路)"},{"poiid":"B2094757D068A3F94492","title":"世博会阿联酋馆","lon":"121.49784","lat":"31.18622","category":"260","category_name":"其他","address":"上海浦东新区国展路近云台路(原上海世博会A片区)"},{"poiid":"B2094757D069A7F9429B","title":"世博大道","lon":"121.49357258","lat":"31.183651909","category":"260","category_name":"其他","address":"上海世博园"},{"poiid":"B2094757D469A3F94193","title":"心乐蝶舞灵性舞蹈养生餐厅","lon":"121.4909603","lat":"31.1862715","category":"76","category_name":"上海菜","address":"世博大道1515号梅赛德斯奔驰文化中心L601近雪野路"},{"poiid":"B2094752D664A4F9449A","title":"广潮味","lon":"121.491635","lat":"31.187727","category":"247","category_name":"餐饮美食","address":"世博源"},{"poiid":"B2094752D465A0F8449E","title":"鱻道","lon":"121.49171","lat":"31.187348","category":"247","category_name":"餐饮美食","address":"世博大道1368号世博源1G08号铺(近上南路)"},{"poiid":"B2094752D36DA4F4469B","title":"奔驰梅赛德斯文化中心","lon":"121.491959","lat":"31.187866","category":"500","category_name":"未知分类","address":"世博源公馆"},{"poiid":"B2094750DB6AA7F5439D","title":"上海新国际博览中心","lon":"121.493598","lat":"31.189872","category":"500","category_name":"未知分类","address":"浦东新区龙阳路2345号"},{"poiid":"B2094753D76AA1FB499B","title":"BES,CLUB","lon":"121.491666","lat":"31.188207","category":"256","category_name":"外国餐厅","address":"上海市浦东新区世博大道1368号世博源LM02号商铺(上南路口)"},{"poiid":"B2094751DA64A2FE439C","title":"North北纬30度创意料理店","lon":"121.487203","lat":"31.190138","category":"247","category_name":"餐饮美食","address":"浦东新区世博大道"},{"poiid":"B2094750D66CAAFD4792","title":"上海东方体育中心","lon":"121.494178","lat":"31.185503","category":"500","category_name":"未知分类","address":null},{"poiid":"B2094752D265A6FB429E","title":"世博源","lon":"121.487263","lat":"31.189585","category":"247","category_name":"餐饮美食","address":"世博大道1368号"},{"poiid":"B2094753D16EAAFD499D","title":"巴国布衣(世博店)","lon":"121.49274","lat":"31.18397","category":"71","category_name":"四川菜","address":"浦东新区世博大道1368号世博源1楼110号铺(近上南路)"},{"poiid":"B2094757D06FA5F44998","title":"世博会主题馆","lon":"121.4902454","lat":"31.182306354","category":"260","category_name":"其他","address":"上海世博会B片区 世博馆路"},{"poiid":"B2094752DB6DA3FB429B","title":"梅德赛斯奔驰文化中心","lon":"121.493049","lat":"31.188869","category":"500","category_name":"未知分类","address":"上海市 世博大道"},{"poiid":"B2094753D564ABF8449F","title":"鼎味源融合菜","lon":"121.490716","lat":"31.187739","category":"76","category_name":"上海菜","address":"浦东新区世博大道1368号世博源1LM(奔驰文化中心,西门进入,左转直行))"}]