[{"poiid":"B2094654D568A2F84298","title":"上海理工大学(军工路)","lon":"121.55195","lat":"31.29042","category":"671","category_name":"高校中心点","address":"杨浦区军工路516号"},{"poiid":"B2094757D06FA1FB409F","title":"上海理工大学第一教学楼","lon":"121.55567376","lat":"31.291738311","category":"253","category_name":"校园生活","address":"杨浦区军工路516号上海理工大学校园内湛恩大道"},{"poiid":"B2094654D568A2FF499A","title":"沪江大学","lon":"121.55358","lat":"31.28951","category":"52","category_name":"高等院校","address":"海安路"},{"poiid":"B2094757D06FA5F4479B","title":"白洋淀足球场","lon":"121.5528030307579","lat":"31.28180025940597","category":"220","category_name":"运动场所","address":"杨浦区周家嘴路4214弄22号(靠近爱国路)"},{"poiid":"B2094757D06BABFA4998","title":"上海理工大学综合楼B区","lon":"121.5543021","lat":"31.290369839","category":"500","category_name":"未知分类","address":"上海市杨浦区军工路516号"},{"poiid":"B2094757D06FA6FC409C","title":"上海海洋大学(军工路校区)","lon":"121.55672","lat":"31.28648","category":"52","category_name":"高等院校","address":"上海杨浦区军工路334号(近易初莲花)  "},{"poiid":"B2094757D06FA1FF4792","title":"卜蜂莲花(周家嘴路店)","lon":"121.55321","lat":"31.28439","category":"118","category_name":"超级市场","address":"杨浦区周家嘴路4295号(近军工路)"},{"poiid":"B2094757D06FAAFF4798","title":"肯德基 KFC (周家嘴店)","lon":"121.554073","lat":"31.285973","category":"68","category_name":"快餐厅","address":"杨浦区周家嘴路4295号(近军工路)"},{"poiid":"B2094757D069A5F8459E","title":"上海理工大学大礼堂","lon":"121.55650302","lat":"31.292073276","category":"179","category_name":"音乐厅","address":"上海市杨浦区军工路516号"},{"poiid":"B2094757D168A7FC4498","title":"1906咖啡吧(北)","lon":"121.55283888","lat":"31.292973341","category":"65","category_name":"咖啡厅","address":"杨浦区军工路516号上海理工大学内(近控江路)"},{"poiid":"B2094757D16FA2F8489F","title":"活着就是最牛逼的信仰","lon":"121.557584339","lat":"31.2909997399","category":"500","category_name":"未知分类","address":"上海市杨浦区民治路"},{"poiid":"B2094757D16EA2F84398","title":"上海理工大学北校区操场","lon":"121.55577533","lat":"31.288551683","category":"500","category_name":"未知分类","address":"上海市杨浦区军工路"},{"poiid":"B2094757D068A2F44398","title":"白洋淀羽毛球馆","lon":"121.5524","lat":"31.28138","category":"220","category_name":"运动场所","address":"杨浦区周家嘴路4214弄22号白洋淀足球场内(近内江路)"},{"poiid":"B2094757D16DA1F9479E","title":"上海理工大学新体育馆","lon":"121.551655","lat":"31.289982","category":"253","category_name":"校园生活","address":"上海军工路580号"},{"poiid":"B2094757D065A7F4459F","title":"上海理工大学第四教学楼","lon":"121.557355858","lat":"31.2865823801","category":"253","category_name":"校园生活","address":"杨浦区军工路334号上海理工大学(南校区)校园内诚信大道"},{"poiid":"B2094757D065A1F54298","title":"上海理工大学运动场","lon":"121.556309874","lat":"31.2910243314","category":"253","category_name":"校园生活","address":"杨浦区军工路470号上海理工大学校园内"},{"poiid":"B2094654D568A2F84093","title":"时运苑","lon":"121.55441","lat":"31.288563","category":"47","category_name":"住宅区","address":"上海市杨浦区军工路"},{"poiid":"B2094654DB6BA2FB4898","title":"广远新村小区","lon":"121.54889","lat":"31.28804","category":"47","category_name":"住宅区","address":"上海控江路121弄附近"},{"poiid":"B2094655D36DA7F9499F","title":"周家嘴路军工路","lon":"121.55425","lat":"31.28593","category":"38","category_name":"公交车站","address":"上海周家嘴路军工路"},{"poiid":"B2094757D068A5F84293","title":"内江二村","lon":"121.551","lat":"31.2909","category":"47","category_name":"住宅区","address":"上海市杨浦区内江路"},{"poiid":"B2094757D06AA1FB429B","title":"上海体育学院附属中学","lon":"121.551468","lat":"31.283566","category":"253","category_name":"校园生活","address":"上海杨浦区周家嘴路4220号"},{"poiid":"B2094757D66CA4FA479D","title":"上海理工大学二公寓二号楼","lon":"121.553457103","lat":"31.2852857329","category":"500","category_name":"未知分类","address":"上海理工大学"},{"poiid":"B2094654D56FAAF54699","title":"韵都城","lon":"121.54703","lat":"31.28971","category":"47","category_name":"住宅区","address":"长白路37"},{"poiid":"B2094757D16AA7FF4798","title":"上海理工大学综合楼C区","lon":"121.552987203","lat":"31.2893248174","category":"500","category_name":"未知分类","address":"上海市杨浦区军工路516号上海理工大学"},{"poiid":"B2094757D069A4FC4998","title":"吉祥馄饨(控江路店)","lon":"121.55038","lat":"31.28928","category":"68","category_name":"快餐厅","address":"杨浦区控江路51号(近上海理工大学)"},{"poiid":"B2094757D16FA1F94693","title":"上海理工大学580号","lon":"121.5517131","lat":"31.29089785","category":"500","category_name":"未知分类","address":"上海市杨浦区军工路"},{"poiid":"B2094757D06BA3F4479B","title":"杨浦区精神卫生中心","lon":"121.552021831","lat":"31.2821974532","category":"162","category_name":"医院","address":"上海市杨浦区周家嘴路4214弄16号"},{"poiid":"B2094655D26CA6F8419F","title":"周家嘴路沈家桥小区","lon":"121.55409","lat":"31.28524","category":"47","category_name":"住宅区","address":"周家嘴路1-15号、4430-4460号"},{"poiid":"B2094757D06BA1FC419E","title":"恬乐酒家","lon":"121.54936366531","lat":"31.289596636997","category":"76","category_name":"上海菜","address":"杨浦区控江路57号(近军工路)"},{"poiid":"B2094757D568A6FE4099","title":"博懿比萨屋","lon":"121.5540511","lat":"31.28797639","category":"94","category_name":"西餐厅","address":"杨浦区军工路386号(近上海理工大学南校区)"},{"poiid":"B2094654D568A3FC4092","title":"控江路121弄129弄小区","lon":"121.54635","lat":"31.28739","category":"47","category_name":"住宅区","address":"控江路129弄1-18号"},{"poiid":"B2094751D369A5F4459C","title":"Times Cafe(上理军工店)","lon":"121.55195","lat":"31.29042","category":"247","category_name":"餐饮美食","address":"杨浦区军工路516号上海理工大学新专家楼(近控江路)"},{"poiid":"B2094655D265A6FB4293","title":"老天母","lon":"121.55354","lat":"31.28672","category":"257","category_name":"中餐厅","address":""},{"poiid":"B2094655D26EA4F54798","title":"小四川美食苑(周家嘴店)","lon":"121.55425","lat":"31.28568","category":"71","category_name":"四川菜","address":"周家嘴路4370号近农业银行近军工路"},{"poiid":"B2094757D76CA3FF4998","title":"豪大大台湾大鸡排 周家嘴店","lon":"121.55499","lat":"31.28637","category":"68","category_name":"快餐厅","address":"杨浦区周家嘴路4470号(近军工路)"},{"poiid":"B2094757D065A5FF489E","title":"梅林公寓","lon":"121.55535","lat":"31.286303","category":"47","category_name":"住宅区","address":"上海市杨浦区周家嘴路4500号"},{"poiid":"B2094757D465A7FF489C","title":"时代咖啡 上理军工店 TimesCafe","lon":"121.55195","lat":"31.29042","category":"65","category_name":"咖啡厅","address":"军工路516号上海理工大学新专家楼近控江路"},{"poiid":"B2094757D16AAAF94399","title":"沈家桥小区","lon":"121.55409","lat":"31.285246","category":"47","category_name":"住宅区","address":"上海杨浦区沈家桥"},{"poiid":"B2094655D26CA5F4459B","title":"控江路59弄小区","lon":"121.54997","lat":"31.2889","category":"47","category_name":"住宅区","address":""},{"poiid":"B2094654D568A3FD459D","title":"市政家园(北门)","lon":"121.55479","lat":"31.2856","category":"47","category_name":"住宅区","address":"周家嘴路4468弄"},{"poiid":"B2094757D06AABFC4792","title":"长白路图们路站(公交6终,22终)","lon":"121.547733","lat":"31.290544","category":"38","category_name":"公交车站","address":"上海市杨浦区长白路138号"},{"poiid":"B2094757D065A1F84799","title":"图们路排档","lon":"121.54856","lat":"31.28908","category":"68","category_name":"快餐厅","address":"杨浦区图们路(近控江路)"},{"poiid":"B2094654D568A3FE409C","title":"白洋淀绿苑","lon":"121.55189","lat":"31.281256","category":"47","category_name":"住宅区","address":"上海周家嘴路4214弄"},{"poiid":"B2094654D568A2F44798","title":"上海水产大学综合楼","lon":"121.5559","lat":"31.28726","category":"46","category_name":"楼宇","address":""},{"poiid":"B2094654D568A3FC469A","title":"杨浦站","lon":"121.55007","lat":"31.2843","category":"22","category_name":"火车站","address":"周家嘴路4041"},{"poiid":"B2094654D568A2FF499E","title":"可的好便利(军工路)","lon":"121.55489","lat":"31.28776","category":"117","category_name":"便民商店/便利店","address":"军工路352号"},{"poiid":"B2094654D568A3FF4192","title":"樟树缘公寓","lon":"121.55685","lat":"31.281164","category":"47","category_name":"住宅区","address":"上海市杨浦区军工路89号"},{"poiid":"B2094750DA69A0FD469A","title":"上海理工大学综合楼D区","lon":"121.55371","lat":"31.290208","category":"52","category_name":"高等院校","address":"杨浦区军工路516号上海理工大学内(近控江路)"},{"poiid":"B2094757D06BA5FB479D","title":"绿云轩 控江路店","lon":"121.549705054","lat":"31.289494793","category":"76","category_name":"上海菜","address":"杨浦区控江路67号(近图们路)"},{"poiid":"B2094654D568A2F8409D","title":"上海水产大学","lon":"121.55646","lat":"31.28675","category":"671","category_name":"高校中心点","address":"杨浦区军工路334"},{"poiid":"B2094654D568A2F84298","title":"上海理工大学(军工路)","lon":"121.55195","lat":"31.29042","category":"671","category_name":"高校中心点","address":"杨浦区军工路516号"},{"poiid":"B2094757D06FA1FB409F","title":"上海理工大学第一教学楼","lon":"121.55567376","lat":"31.291738311","category":"253","category_name":"校园生活","address":"杨浦区军工路516号上海理工大学校园内湛恩大道"},{"poiid":"B2094654D568A2FF499A","title":"沪江大学","lon":"121.55358","lat":"31.28951","category":"52","category_name":"高等院校","address":"海安路"},{"poiid":"B2094757D06FA5F4479B","title":"白洋淀足球场","lon":"121.5528030307579","lat":"31.28180025940597","category":"220","category_name":"运动场所","address":"杨浦区周家嘴路4214弄22号(靠近爱国路)"},{"poiid":"B2094757D06BABFA4998","title":"上海理工大学综合楼B区","lon":"121.5543021","lat":"31.290369839","category":"500","category_name":"未知分类","address":"上海市杨浦区军工路516号"},{"poiid":"B2094757D06FA6FC409C","title":"上海海洋大学(军工路校区)","lon":"121.55672","lat":"31.28648","category":"52","category_name":"高等院校","address":"上海杨浦区军工路334号(近易初莲花)  "},{"poiid":"B2094757D06FA1FF4792","title":"卜蜂莲花(周家嘴路店)","lon":"121.55321","lat":"31.28439","category":"118","category_name":"超级市场","address":"杨浦区周家嘴路4295号(近军工路)"},{"poiid":"B2094757D06FAAFF4798","title":"肯德基 KFC (周家嘴店)","lon":"121.554073","lat":"31.285973","category":"68","category_name":"快餐厅","address":"杨浦区周家嘴路4295号(近军工路)"},{"poiid":"B2094757D069A5F8459E","title":"上海理工大学大礼堂","lon":"121.55650302","lat":"31.292073276","category":"179","category_name":"音乐厅","address":"上海市杨浦区军工路516号"},{"poiid":"B2094757D168A7FC4498","title":"1906咖啡吧(北)","lon":"121.55283888","lat":"31.292973341","category":"65","category_name":"咖啡厅","address":"杨浦区军工路516号上海理工大学内(近控江路)"},{"poiid":"B2094757D16FA2F8489F","title":"活着就是最牛逼的信仰","lon":"121.557584339","lat":"31.2909997399","category":"500","category_name":"未知分类","address":"上海市杨浦区民治路"},{"poiid":"B2094757D16EA2F84398","title":"上海理工大学北校区操场","lon":"121.55577533","lat":"31.288551683","category":"500","category_name":"未知分类","address":"上海市杨浦区军工路"},{"poiid":"B2094757D068A2F44398","title":"白洋淀羽毛球馆","lon":"121.5524","lat":"31.28138","category":"220","category_name":"运动场所","address":"杨浦区周家嘴路4214弄22号白洋淀足球场内(近内江路)"},{"poiid":"B2094757D16DA1F9479E","title":"上海理工大学新体育馆","lon":"121.551655","lat":"31.289982","category":"253","category_name":"校园生活","address":"上海军工路580号"},{"poiid":"B2094757D065A7F4459F","title":"上海理工大学第四教学楼","lon":"121.557355858","lat":"31.2865823801","category":"253","category_name":"校园生活","address":"杨浦区军工路334号上海理工大学(南校区)校园内诚信大道"},{"poiid":"B2094757D065A1F54298","title":"上海理工大学运动场","lon":"121.556309874","lat":"31.2910243314","category":"253","category_name":"校园生活","address":"杨浦区军工路470号上海理工大学校园内"},{"poiid":"B2094654D568A2F84093","title":"时运苑","lon":"121.55441","lat":"31.288563","category":"47","category_name":"住宅区","address":"上海市杨浦区军工路"},{"poiid":"B2094654DB6BA2FB4898","title":"广远新村小区","lon":"121.54889","lat":"31.28804","category":"47","category_name":"住宅区","address":"上海控江路121弄附近"},{"poiid":"B2094655D36DA7F9499F","title":"周家嘴路军工路","lon":"121.55425","lat":"31.28593","category":"38","category_name":"公交车站","address":"上海周家嘴路军工路"},{"poiid":"B2094757D068A5F84293","title":"内江二村","lon":"121.551","lat":"31.2909","category":"47","category_name":"住宅区","address":"上海市杨浦区内江路"},{"poiid":"B2094757D06AA1FB429B","title":"上海体育学院附属中学","lon":"121.551468","lat":"31.283566","category":"253","category_name":"校园生活","address":"上海杨浦区周家嘴路4220号"},{"poiid":"B2094757D66CA4FA479D","title":"上海理工大学二公寓二号楼","lon":"121.553457103","lat":"31.2852857329","category":"500","category_name":"未知分类","address":"上海理工大学"},{"poiid":"B2094654D56FAAF54699","title":"韵都城","lon":"121.54703","lat":"31.28971","category":"47","category_name":"住宅区","address":"长白路37"},{"poiid":"B2094757D16AA7FF4798","title":"上海理工大学综合楼C区","lon":"121.552987203","lat":"31.2893248174","category":"500","category_name":"未知分类","address":"上海市杨浦区军工路516号上海理工大学"},{"poiid":"B2094757D069A4FC4998","title":"吉祥馄饨(控江路店)","lon":"121.55038","lat":"31.28928","category":"68","category_name":"快餐厅","address":"杨浦区控江路51号(近上海理工大学)"},{"poiid":"B2094757D16FA1F94693","title":"上海理工大学580号","lon":"121.5517131","lat":"31.29089785","category":"500","category_name":"未知分类","address":"上海市杨浦区军工路"},{"poiid":"B2094757D06BA3F4479B","title":"杨浦区精神卫生中心","lon":"121.552021831","lat":"31.2821974532","category":"162","category_name":"医院","address":"上海市杨浦区周家嘴路4214弄16号"},{"poiid":"B2094655D26CA6F8419F","title":"周家嘴路沈家桥小区","lon":"121.55409","lat":"31.28524","category":"47","category_name":"住宅区","address":"周家嘴路1-15号、4430-4460号"},{"poiid":"B2094757D06BA1FC419E","title":"恬乐酒家","lon":"121.54936366531","lat":"31.289596636997","category":"76","category_name":"上海菜","address":"杨浦区控江路57号(近军工路)"},{"poiid":"B2094757D568A6FE4099","title":"博懿比萨屋","lon":"121.5540511","lat":"31.28797639","category":"94","category_name":"西餐厅","address":"杨浦区军工路386号(近上海理工大学南校区)"},{"poiid":"B2094654D568A3FC4092","title":"控江路121弄129弄小区","lon":"121.54635","lat":"31.28739","category":"47","category_name":"住宅区","address":"控江路129弄1-18号"},{"poiid":"B2094751D369A5F4459C","title":"Times Cafe(上理军工店)","lon":"121.55195","lat":"31.29042","category":"247","category_name":"餐饮美食","address":"杨浦区军工路516号上海理工大学新专家楼(近控江路)"},{"poiid":"B2094655D265A6FB4293","title":"老天母","lon":"121.55354","lat":"31.28672","category":"257","category_name":"中餐厅","address":""},{"poiid":"B2094655D26EA4F54798","title":"小四川美食苑(周家嘴店)","lon":"121.55425","lat":"31.28568","category":"71","category_name":"四川菜","address":"周家嘴路4370号近农业银行近军工路"},{"poiid":"B2094757D76CA3FF4998","title":"豪大大台湾大鸡排 周家嘴店","lon":"121.55499","lat":"31.28637","category":"68","category_name":"快餐厅","address":"杨浦区周家嘴路4470号(近军工路)"},{"poiid":"B2094757D065A5FF489E","title":"梅林公寓","lon":"121.55535","lat":"31.286303","category":"47","category_name":"住宅区","address":"上海市杨浦区周家嘴路4500号"},{"poiid":"B2094757D465A7FF489C","title":"时代咖啡 上理军工店 TimesCafe","lon":"121.55195","lat":"31.29042","category":"65","category_name":"咖啡厅","address":"军工路516号上海理工大学新专家楼近控江路"},{"poiid":"B2094757D16AAAF94399","title":"沈家桥小区","lon":"121.55409","lat":"31.285246","category":"47","category_name":"住宅区","address":"上海杨浦区沈家桥"},{"poiid":"B2094655D26CA5F4459B","title":"控江路59弄小区","lon":"121.54997","lat":"31.2889","category":"47","category_name":"住宅区","address":""},{"poiid":"B2094654D568A3FD459D","title":"市政家园(北门)","lon":"121.55479","lat":"31.2856","category":"47","category_name":"住宅区","address":"周家嘴路4468弄"},{"poiid":"B2094757D06AABFC4792","title":"长白路图们路站(公交6终,22终)","lon":"121.547733","lat":"31.290544","category":"38","category_name":"公交车站","address":"上海市杨浦区长白路138号"},{"poiid":"B2094757D065A1F84799","title":"图们路排档","lon":"121.54856","lat":"31.28908","category":"68","category_name":"快餐厅","address":"杨浦区图们路(近控江路)"},{"poiid":"B2094654D568A3FE409C","title":"白洋淀绿苑","lon":"121.55189","lat":"31.281256","category":"47","category_name":"住宅区","address":"上海周家嘴路4214弄"},{"poiid":"B2094654D568A2F44798","title":"上海水产大学综合楼","lon":"121.5559","lat":"31.28726","category":"46","category_name":"楼宇","address":""},{"poiid":"B2094654D568A3FC469A","title":"杨浦站","lon":"121.55007","lat":"31.2843","category":"22","category_name":"火车站","address":"周家嘴路4041"},{"poiid":"B2094654D568A2FF499E","title":"可的好便利(军工路)","lon":"121.55489","lat":"31.28776","category":"117","category_name":"便民商店/便利店","address":"军工路352号"},{"poiid":"B2094654D568A3FF4192","title":"樟树缘公寓","lon":"121.55685","lat":"31.281164","category":"47","category_name":"住宅区","address":"上海市杨浦区军工路89号"},{"poiid":"B2094750DA69A0FD469A","title":"上海理工大学综合楼D区","lon":"121.55371","lat":"31.290208","category":"52","category_name":"高等院校","address":"杨浦区军工路516号上海理工大学内(近控江路)"},{"poiid":"B2094757D06BA5FB479D","title":"绿云轩 控江路店","lon":"121.549705054","lat":"31.289494793","category":"76","category_name":"上海菜","address":"杨浦区控江路67号(近图们路)"},{"poiid":"B2094654D568A2F8409D","title":"上海水产大学","lon":"121.55646","lat":"31.28675","category":"671","category_name":"高校中心点","address":"杨浦区军工路334"},{"poiid":"B2094654D568A2F84298","title":"上海理工大学(军工路)","lon":"121.55195","lat":"31.29042","category":"671","category_name":"高校中心点","address":"杨浦区军工路516号"},{"poiid":"B2094757D06FA1FB409F","title":"上海理工大学第一教学楼","lon":"121.55567376","lat":"31.291738311","category":"253","category_name":"校园生活","address":"杨浦区军工路516号上海理工大学校园内湛恩大道"},{"poiid":"B2094654D568A2FF499A","title":"沪江大学","lon":"121.55358","lat":"31.28951","category":"52","category_name":"高等院校","address":"海安路"},{"poiid":"B2094757D06FA5F4479B","title":"白洋淀足球场","lon":"121.5528030307579","lat":"31.28180025940597","category":"220","category_name":"运动场所","address":"杨浦区周家嘴路4214弄22号(靠近爱国路)"},{"poiid":"B2094757D06BABFA4998","title":"上海理工大学综合楼B区","lon":"121.5543021","lat":"31.290369839","category":"500","category_name":"未知分类","address":"上海市杨浦区军工路516号"},{"poiid":"B2094757D06FA6FC409C","title":"上海海洋大学(军工路校区)","lon":"121.55672","lat":"31.28648","category":"52","category_name":"高等院校","address":"上海杨浦区军工路334号(近易初莲花)  "},{"poiid":"B2094757D06FA1FF4792","title":"卜蜂莲花(周家嘴路店)","lon":"121.55321","lat":"31.28439","category":"118","category_name":"超级市场","address":"杨浦区周家嘴路4295号(近军工路)"},{"poiid":"B2094757D06FAAFF4798","title":"肯德基 KFC (周家嘴店)","lon":"121.554073","lat":"31.285973","category":"68","category_name":"快餐厅","address":"杨浦区周家嘴路4295号(近军工路)"},{"poiid":"B2094757D069A5F8459E","title":"上海理工大学大礼堂","lon":"121.55650302","lat":"31.292073276","category":"179","category_name":"音乐厅","address":"上海市杨浦区军工路516号"},{"poiid":"B2094757D168A7FC4498","title":"1906咖啡吧(北)","lon":"121.55283888","lat":"31.292973341","category":"65","category_name":"咖啡厅","address":"杨浦区军工路516号上海理工大学内(近控江路)"},{"poiid":"B2094757D16FA2F8489F","title":"活着就是最牛逼的信仰","lon":"121.557584339","lat":"31.2909997399","category":"500","category_name":"未知分类","address":"上海市杨浦区民治路"},{"poiid":"B2094757D16EA2F84398","title":"上海理工大学北校区操场","lon":"121.55577533","lat":"31.288551683","category":"500","category_name":"未知分类","address":"上海市杨浦区军工路"},{"poiid":"B2094757D068A2F44398","title":"白洋淀羽毛球馆","lon":"121.5524","lat":"31.28138","category":"220","category_name":"运动场所","address":"杨浦区周家嘴路4214弄22号白洋淀足球场内(近内江路)"},{"poiid":"B2094757D16DA1F9479E","title":"上海理工大学新体育馆","lon":"121.551655","lat":"31.289982","category":"253","category_name":"校园生活","address":"上海军工路580号"},{"poiid":"B2094757D065A7F4459F","title":"上海理工大学第四教学楼","lon":"121.557355858","lat":"31.2865823801","category":"253","category_name":"校园生活","address":"杨浦区军工路334号上海理工大学(南校区)校园内诚信大道"},{"poiid":"B2094757D065A1F54298","title":"上海理工大学运动场","lon":"121.556309874","lat":"31.2910243314","category":"253","category_name":"校园生活","address":"杨浦区军工路470号上海理工大学校园内"},{"poiid":"B2094654D568A2F84093","title":"时运苑","lon":"121.55441","lat":"31.288563","category":"47","category_name":"住宅区","address":"上海市杨浦区军工路"},{"poiid":"B2094654DB6BA2FB4898","title":"广远新村小区","lon":"121.54889","lat":"31.28804","category":"47","category_name":"住宅区","address":"上海控江路121弄附近"},{"poiid":"B2094655D36DA7F9499F","title":"周家嘴路军工路","lon":"121.55425","lat":"31.28593","category":"38","category_name":"公交车站","address":"上海周家嘴路军工路"},{"poiid":"B2094757D068A5F84293","title":"内江二村","lon":"121.551","lat":"31.2909","category":"47","category_name":"住宅区","address":"上海市杨浦区内江路"},{"poiid":"B2094757D06AA1FB429B","title":"上海体育学院附属中学","lon":"121.551468","lat":"31.283566","category":"253","category_name":"校园生活","address":"上海杨浦区周家嘴路4220号"},{"poiid":"B2094757D66CA4FA479D","title":"上海理工大学二公寓二号楼","lon":"121.553457103","lat":"31.2852857329","category":"500","category_name":"未知分类","address":"上海理工大学"},{"poiid":"B2094654D56FAAF54699","title":"韵都城","lon":"121.54703","lat":"31.28971","category":"47","category_name":"住宅区","address":"长白路37"},{"poiid":"B2094757D16AA7FF4798","title":"上海理工大学综合楼C区","lon":"121.552987203","lat":"31.2893248174","category":"500","category_name":"未知分类","address":"上海市杨浦区军工路516号上海理工大学"},{"poiid":"B2094757D069A4FC4998","title":"吉祥馄饨(控江路店)","lon":"121.55038","lat":"31.28928","category":"68","category_name":"快餐厅","address":"杨浦区控江路51号(近上海理工大学)"},{"poiid":"B2094757D16FA1F94693","title":"上海理工大学580号","lon":"121.5517131","lat":"31.29089785","category":"500","category_name":"未知分类","address":"上海市杨浦区军工路"},{"poiid":"B2094757D06BA3F4479B","title":"杨浦区精神卫生中心","lon":"121.552021831","lat":"31.2821974532","category":"162","category_name":"医院","address":"上海市杨浦区周家嘴路4214弄16号"},{"poiid":"B2094655D26CA6F8419F","title":"周家嘴路沈家桥小区","lon":"121.55409","lat":"31.28524","category":"47","category_name":"住宅区","address":"周家嘴路1-15号、4430-4460号"},{"poiid":"B2094757D06BA1FC419E","title":"恬乐酒家","lon":"121.54936366531","lat":"31.289596636997","category":"76","category_name":"上海菜","address":"杨浦区控江路57号(近军工路)"},{"poiid":"B2094757D568A6FE4099","title":"博懿比萨屋","lon":"121.5540511","lat":"31.28797639","category":"94","category_name":"西餐厅","address":"杨浦区军工路386号(近上海理工大学南校区)"},{"poiid":"B2094654D568A3FC4092","title":"控江路121弄129弄小区","lon":"121.54635","lat":"31.28739","category":"47","category_name":"住宅区","address":"控江路129弄1-18号"},{"poiid":"B2094751D369A5F4459C","title":"Times Cafe(上理军工店)","lon":"121.55195","lat":"31.29042","category":"247","category_name":"餐饮美食","address":"杨浦区军工路516号上海理工大学新专家楼(近控江路)"},{"poiid":"B2094655D265A6FB4293","title":"老天母","lon":"121.55354","lat":"31.28672","category":"257","category_name":"中餐厅","address":""},{"poiid":"B2094655D26EA4F54798","title":"小四川美食苑(周家嘴店)","lon":"121.55425","lat":"31.28568","category":"71","category_name":"四川菜","address":"周家嘴路4370号近农业银行近军工路"},{"poiid":"B2094757D76CA3FF4998","title":"豪大大台湾大鸡排 周家嘴店","lon":"121.55499","lat":"31.28637","category":"68","category_name":"快餐厅","address":"杨浦区周家嘴路4470号(近军工路)"},{"poiid":"B2094757D065A5FF489E","title":"梅林公寓","lon":"121.55535","lat":"31.286303","category":"47","category_name":"住宅区","address":"上海市杨浦区周家嘴路4500号"},{"poiid":"B2094757D465A7FF489C","title":"时代咖啡 上理军工店 TimesCafe","lon":"121.55195","lat":"31.29042","category":"65","category_name":"咖啡厅","address":"军工路516号上海理工大学新专家楼近控江路"},{"poiid":"B2094757D16AAAF94399","title":"沈家桥小区","lon":"121.55409","lat":"31.285246","category":"47","category_name":"住宅区","address":"上海杨浦区沈家桥"},{"poiid":"B2094655D26CA5F4459B","title":"控江路59弄小区","lon":"121.54997","lat":"31.2889","category":"47","category_name":"住宅区","address":""},{"poiid":"B2094654D568A3FD459D","title":"市政家园(北门)","lon":"121.55479","lat":"31.2856","category":"47","category_name":"住宅区","address":"周家嘴路4468弄"},{"poiid":"B2094757D06AABFC4792","title":"长白路图们路站(公交6终,22终)","lon":"121.547733","lat":"31.290544","category":"38","category_name":"公交车站","address":"上海市杨浦区长白路138号"},{"poiid":"B2094757D065A1F84799","title":"图们路排档","lon":"121.54856","lat":"31.28908","category":"68","category_name":"快餐厅","address":"杨浦区图们路(近控江路)"},{"poiid":"B2094654D568A3FE409C","title":"白洋淀绿苑","lon":"121.55189","lat":"31.281256","category":"47","category_name":"住宅区","address":"上海周家嘴路4214弄"},{"poiid":"B2094654D568A2F44798","title":"上海水产大学综合楼","lon":"121.5559","lat":"31.28726","category":"46","category_name":"楼宇","address":""},{"poiid":"B2094654D568A3FC469A","title":"杨浦站","lon":"121.55007","lat":"31.2843","category":"22","category_name":"火车站","address":"周家嘴路4041"},{"poiid":"B2094654D568A2FF499E","title":"可的好便利(军工路)","lon":"121.55489","lat":"31.28776","category":"117","category_name":"便民商店/便利店","address":"军工路352号"},{"poiid":"B2094654D568A3FF4192","title":"樟树缘公寓","lon":"121.55685","lat":"31.281164","category":"47","category_name":"住宅区","address":"上海市杨浦区军工路89号"},{"poiid":"B2094750DA69A0FD469A","title":"上海理工大学综合楼D区","lon":"121.55371","lat":"31.290208","category":"52","category_name":"高等院校","address":"杨浦区军工路516号上海理工大学内(近控江路)"},{"poiid":"B2094757D06BA5FB479D","title":"绿云轩 控江路店","lon":"121.549705054","lat":"31.289494793","category":"76","category_name":"上海菜","address":"杨浦区控江路67号(近图们路)"},{"poiid":"B2094654D568A2F8409D","title":"上海水产大学","lon":"121.55646","lat":"31.28675","category":"671","category_name":"高校中心点","address":"杨浦区军工路334"},{"poiid":"B2094654D568A2F84298","title":"上海理工大学(军工路)","lon":"121.55195","lat":"31.29042","category":"671","category_name":"高校中心点","address":"杨浦区军工路516号"},{"poiid":"B2094757D06FA1FB409F","title":"上海理工大学第一教学楼","lon":"121.55567376","lat":"31.291738311","category":"253","category_name":"校园生活","address":"杨浦区军工路516号上海理工大学校园内湛恩大道"},{"poiid":"B2094654D568A2FF499A","title":"沪江大学","lon":"121.55358","lat":"31.28951","category":"52","category_name":"高等院校","address":"海安路"},{"poiid":"B2094757D06FA5F4479B","title":"白洋淀足球场","lon":"121.5528030307579","lat":"31.28180025940597","category":"220","category_name":"运动场所","address":"杨浦区周家嘴路4214弄22号(靠近爱国路)"},{"poiid":"B2094757D06BABFA4998","title":"上海理工大学综合楼B区","lon":"121.5543021","lat":"31.290369839","category":"500","category_name":"未知分类","address":"上海市杨浦区军工路516号"},{"poiid":"B2094757D06FA6FC409C","title":"上海海洋大学(军工路校区)","lon":"121.55672","lat":"31.28648","category":"52","category_name":"高等院校","address":"上海杨浦区军工路334号(近易初莲花)  "},{"poiid":"B2094757D06FA1FF4792","title":"卜蜂莲花(周家嘴路店)","lon":"121.55321","lat":"31.28439","category":"118","category_name":"超级市场","address":"杨浦区周家嘴路4295号(近军工路)"},{"poiid":"B2094757D06FAAFF4798","title":"肯德基 KFC (周家嘴店)","lon":"121.554073","lat":"31.285973","category":"68","category_name":"快餐厅","address":"杨浦区周家嘴路4295号(近军工路)"},{"poiid":"B2094757D069A5F8459E","title":"上海理工大学大礼堂","lon":"121.55650302","lat":"31.292073276","category":"179","category_name":"音乐厅","address":"上海市杨浦区军工路516号"},{"poiid":"B2094757D168A7FC4498","title":"1906咖啡吧(北)","lon":"121.55283888","lat":"31.292973341","category":"65","category_name":"咖啡厅","address":"杨浦区军工路516号上海理工大学内(近控江路)"},{"poiid":"B2094757D16FA2F8489F","title":"活着就是最牛逼的信仰","lon":"121.557584339","lat":"31.2909997399","category":"500","category_name":"未知分类","address":"上海市杨浦区民治路"},{"poiid":"B2094757D16EA2F84398","title":"上海理工大学北校区操场","lon":"121.55577533","lat":"31.288551683","category":"500","category_name":"未知分类","address":"上海市杨浦区军工路"},{"poiid":"B2094757D068A2F44398","title":"白洋淀羽毛球馆","lon":"121.5524","lat":"31.28138","category":"220","category_name":"运动场所","address":"杨浦区周家嘴路4214弄22号白洋淀足球场内(近内江路)"},{"poiid":"B2094757D16DA1F9479E","title":"上海理工大学新体育馆","lon":"121.551655","lat":"31.289982","category":"253","category_name":"校园生活","address":"上海军工路580号"},{"poiid":"B2094757D065A7F4459F","title":"上海理工大学第四教学楼","lon":"121.557355858","lat":"31.2865823801","category":"253","category_name":"校园生活","address":"杨浦区军工路334号上海理工大学(南校区)校园内诚信大道"},{"poiid":"B2094757D065A1F54298","title":"上海理工大学运动场","lon":"121.556309874","lat":"31.2910243314","category":"253","category_name":"校园生活","address":"杨浦区军工路470号上海理工大学校园内"},{"poiid":"B2094654D568A2F84093","title":"时运苑","lon":"121.55441","lat":"31.288563","category":"47","category_name":"住宅区","address":"上海市杨浦区军工路"},{"poiid":"B2094654DB6BA2FB4898","title":"广远新村小区","lon":"121.54889","lat":"31.28804","category":"47","category_name":"住宅区","address":"上海控江路121弄附近"},{"poiid":"B2094655D36DA7F9499F","title":"周家嘴路军工路","lon":"121.55425","lat":"31.28593","category":"38","category_name":"公交车站","address":"上海周家嘴路军工路"},{"poiid":"B2094757D068A5F84293","title":"内江二村","lon":"121.551","lat":"31.2909","category":"47","category_name":"住宅区","address":"上海市杨浦区内江路"},{"poiid":"B2094757D06AA1FB429B","title":"上海体育学院附属中学","lon":"121.551468","lat":"31.283566","category":"253","category_name":"校园生活","address":"上海杨浦区周家嘴路4220号"},{"poiid":"B2094757D66CA4FA479D","title":"上海理工大学二公寓二号楼","lon":"121.553457103","lat":"31.2852857329","category":"500","category_name":"未知分类","address":"上海理工大学"},{"poiid":"B2094654D56FAAF54699","title":"韵都城","lon":"121.54703","lat":"31.28971","category":"47","category_name":"住宅区","address":"长白路37"},{"poiid":"B2094757D16AA7FF4798","title":"上海理工大学综合楼C区","lon":"121.552987203","lat":"31.2893248174","category":"500","category_name":"未知分类","address":"上海市杨浦区军工路516号上海理工大学"},{"poiid":"B2094757D069A4FC4998","title":"吉祥馄饨(控江路店)","lon":"121.55038","lat":"31.28928","category":"68","category_name":"快餐厅","address":"杨浦区控江路51号(近上海理工大学)"},{"poiid":"B2094757D16FA1F94693","title":"上海理工大学580号","lon":"121.5517131","lat":"31.29089785","category":"500","category_name":"未知分类","address":"上海市杨浦区军工路"},{"poiid":"B2094757D06BA3F4479B","title":"杨浦区精神卫生中心","lon":"121.552021831","lat":"31.2821974532","category":"162","category_name":"医院","address":"上海市杨浦区周家嘴路4214弄16号"},{"poiid":"B2094655D26CA6F8419F","title":"周家嘴路沈家桥小区","lon":"121.55409","lat":"31.28524","category":"47","category_name":"住宅区","address":"周家嘴路1-15号、4430-4460号"},{"poiid":"B2094757D06BA1FC419E","title":"恬乐酒家","lon":"121.54936366531","lat":"31.289596636997","category":"76","category_name":"上海菜","address":"杨浦区控江路57号(近军工路)"},{"poiid":"B2094757D568A6FE4099","title":"博懿比萨屋","lon":"121.5540511","lat":"31.28797639","category":"94","category_name":"西餐厅","address":"杨浦区军工路386号(近上海理工大学南校区)"},{"poiid":"B2094654D568A3FC4092","title":"控江路121弄129弄小区","lon":"121.54635","lat":"31.28739","category":"47","category_name":"住宅区","address":"控江路129弄1-18号"},{"poiid":"B2094751D369A5F4459C","title":"Times Cafe(上理军工店)","lon":"121.55195","lat":"31.29042","category":"247","category_name":"餐饮美食","address":"杨浦区军工路516号上海理工大学新专家楼(近控江路)"},{"poiid":"B2094655D265A6FB4293","title":"老天母","lon":"121.55354","lat":"31.28672","category":"257","category_name":"中餐厅","address":""},{"poiid":"B2094655D26EA4F54798","title":"小四川美食苑(周家嘴店)","lon":"121.55425","lat":"31.28568","category":"71","category_name":"四川菜","address":"周家嘴路4370号近农业银行近军工路"},{"poiid":"B2094757D76CA3FF4998","title":"豪大大台湾大鸡排 周家嘴店","lon":"121.55499","lat":"31.28637","category":"68","category_name":"快餐厅","address":"杨浦区周家嘴路4470号(近军工路)"},{"poiid":"B2094757D065A5FF489E","title":"梅林公寓","lon":"121.55535","lat":"31.286303","category":"47","category_name":"住宅区","address":"上海市杨浦区周家嘴路4500号"},{"poiid":"B2094757D465A7FF489C","title":"时代咖啡 上理军工店 TimesCafe","lon":"121.55195","lat":"31.29042","category":"65","category_name":"咖啡厅","address":"军工路516号上海理工大学新专家楼近控江路"},{"poiid":"B2094757D16AAAF94399","title":"沈家桥小区","lon":"121.55409","lat":"31.285246","category":"47","category_name":"住宅区","address":"上海杨浦区沈家桥"},{"poiid":"B2094655D26CA5F4459B","title":"控江路59弄小区","lon":"121.54997","lat":"31.2889","category":"47","category_name":"住宅区","address":""},{"poiid":"B2094654D568A3FD459D","title":"市政家园(北门)","lon":"121.55479","lat":"31.2856","category":"47","category_name":"住宅区","address":"周家嘴路4468弄"},{"poiid":"B2094757D06AABFC4792","title":"长白路图们路站(公交6终,22终)","lon":"121.547733","lat":"31.290544","category":"38","category_name":"公交车站","address":"上海市杨浦区长白路138号"},{"poiid":"B2094757D065A1F84799","title":"图们路排档","lon":"121.54856","lat":"31.28908","category":"68","category_name":"快餐厅","address":"杨浦区图们路(近控江路)"},{"poiid":"B2094654D568A3FE409C","title":"白洋淀绿苑","lon":"121.55189","lat":"31.281256","category":"47","category_name":"住宅区","address":"上海周家嘴路4214弄"},{"poiid":"B2094654D568A2F44798","title":"上海水产大学综合楼","lon":"121.5559","lat":"31.28726","category":"46","category_name":"楼宇","address":""},{"poiid":"B2094654D568A3FC469A","title":"杨浦站","lon":"121.55007","lat":"31.2843","category":"22","category_name":"火车站","address":"周家嘴路4041"},{"poiid":"B2094654D568A2FF499E","title":"可的好便利(军工路)","lon":"121.55489","lat":"31.28776","category":"117","category_name":"便民商店/便利店","address":"军工路352号"},{"poiid":"B2094654D568A3FF4192","title":"樟树缘公寓","lon":"121.55685","lat":"31.281164","category":"47","category_name":"住宅区","address":"上海市杨浦区军工路89号"},{"poiid":"B2094750DA69A0FD469A","title":"上海理工大学综合楼D区","lon":"121.55371","lat":"31.290208","category":"52","category_name":"高等院校","address":"杨浦区军工路516号上海理工大学内(近控江路)"},{"poiid":"B2094757D06BA5FB479D","title":"绿云轩 控江路店","lon":"121.549705054","lat":"31.289494793","category":"76","category_name":"上海菜","address":"杨浦区控江路67号(近图们路)"},{"poiid":"B2094654D568A2F8409D","title":"上海水产大学","lon":"121.55646","lat":"31.28675","category":"671","category_name":"高校中心点","address":"杨浦区军工路334"}]