[{"poiid":"B2094654DA69AAFB4799","title":"裕景大饭店","lon":"121.52018","lat":"31.2409","category":"213","category_name":"五星级宾馆","address":"上海市浦东新区浦东大道535号(近东方路)"},{"poiid":"B2094655D26FA5F9439B","title":"上海证券大厦","lon":"121.517707","lat":"31.241749","category":"46","category_name":"楼宇","address":"浦东新区浦东南路528号"},{"poiid":"B2094654DA69A7FB489A","title":"渣打银行大厦","lon":"121.516","lat":"31.2415","category":"46","category_name":"楼宇","address":"浦东区金融贸易区D3-5"},{"poiid":"B209475CD564A7F84392","title":"上海滩浦东香格里拉店","lon":"121.50058","lat":"31.23634","category":"119","category_name":"商场","address":"浦东富成路33号香格里拉酒店内大堂层"},{"poiid":"B2094655D36DA6FE429A","title":"浦东大道","lon":"121.51984","lat":"31.24032","category":"38","category_name":"公交车站","address":""},{"poiid":"B2094757D06FA1FA4498","title":"招商局大厦","lon":"121.515135","lat":"31.242879","category":"46","category_name":"楼宇","address":"浦东新区陆家嘴东路161号"},{"poiid":"B2094757D06FA5FA479F","title":"华夏银行大厦","lon":"121.5152","lat":"31.245346","category":"46","category_name":"楼宇","address":"上海浦东新区浦东南路256号"},{"poiid":"B2094655D26AA0F9409A","title":"地铁浦东大道站","lon":"121.51984","lat":"31.24032","category":"36","category_name":"地铁站","address":""},{"poiid":"B2094757D068A1FA489C","title":"其昌栈渡口","lon":"121.51963307","lat":"31.242515608","category":"500","category_name":"未知分类","address":"上海东方路滨江大道"},{"poiid":"B2094757D068A6F8419F","title":"华检医疗体检中心","lon":"121.521036652","lat":"31.2400068656","category":"902","category_name":"楼宇机构","address":"浦东新区浦东大道545号裕景坊2楼(东方路口)"},{"poiid":"B2094757D06FA2FF4099","title":"中国保险大厦","lon":"121.516","lat":"31.2421","category":"46","category_name":"楼宇","address":"浦东临港新城主城区申港大道200号"},{"poiid":"B2094757D16CABFF429D","title":"雅典皇宫","lon":"121.51895673","lat":"31.242752567","category":"500","category_name":"未知分类","address":"上海浦东新区东方路8号(近浦东大道)  "},{"poiid":"B2094655D26FA5FF479B","title":"华能联合大厦","lon":"121.515","lat":"31.245","category":"46","category_name":"楼宇","address":"朝阳华威桥东北角"},{"poiid":"B2094757D068AAFC469B","title":"保利广场","lon":"121.514956916","lat":"31.2433600232","category":"500","category_name":"未知分类","address":"闸北区共和新路3703,3737号"},{"poiid":"B2094655D36DA2FB459B","title":"大连路隧道","lon":"121.51973","lat":"31.2428","category":"250","category_name":"公园户外","address":"上海市杨浦区大连路-浦东新区东方路"},{"poiid":"B2094757DB69A3F44599","title":"富淳饭店 保利店","lon":"121.5189019","lat":"31.242405","category":"72","category_name":"广东菜","address":"浦东新区东方路18号保利广场E座G楼"},{"poiid":"B2094750D66CABFB4693","title":"Mio Ita","lon":"121.517906","lat":"31.243383","category":"94","category_name":"西餐厅","address":"浦东新区东方路18号保利大厦E栋2楼"},{"poiid":"B2094757D069A2FE4098","title":"慈铭健康体检(浦东大道门诊部)","lon":"121.52276","lat":"31.24064","category":"162","category_name":"医院","address":"浦东新区浦东大道637号同科公寓2楼"},{"poiid":"B2094757D064AAF5409A","title":"浦东陆家嘴图书馆","lon":"121.518913","lat":"31.241753","category":"181","category_name":"图书馆","address":"上海浦东新区东方路38号"},{"poiid":"B2094654DA69A1F54992","title":"金穗大厦","lon":"121.517","lat":"31.245","category":"46","category_name":"楼宇","address":"上海市奉贤区环城东路455,465弄"},{"poiid":"B2094757D06AA3FC409B","title":"浦东大道钱仓路","lon":"121.520092738","lat":"31.2396905017","category":"500","category_name":"未知分类","address":"上海浦东大道"},{"poiid":"B2094757D469A5F9409A","title":"松临日本料理 保利广场店","lon":"121.5189019","lat":"31.242405","category":"95","category_name":"日本料理","address":"浦东新区东方路18号保利广场E座2楼(近地铁四号线浦东大道站)"},{"poiid":"B2094757D06AA4F9459C","title":"豪德万源大酒店","lon":"121.52222823","lat":"31.24150209","category":"217","category_name":"旅馆招待所","address":"浦东新区浦东大道599号(近东方路)"},{"poiid":"B2094757D068A5F44392","title":"裕景咖啡厅","lon":"121.52051","lat":"31.2408","category":"268","category_name":"自助","address":"浦东新区浦东大道535号裕景大饭店3楼(近东方路)"},{"poiid":"B2094757D06EAAFF4993","title":"浦电路地铁站(四号线)","lon":"121.519854","lat":"31.240301","category":"36","category_name":"地铁站","address":"上海轨道交通 四号线 轨交浦东大道站 轻轨 4"},{"poiid":"B2094753D76DA4F8439D","title":"上海电影博物馆","lon":"121.520019","lat":"31.240804","category":"500","category_name":"未知分类","address":"上海市 上海电影制片厂漕溪北路595号"},{"poiid":"B2094753D76BA0FF4898","title":"伊秀手握寿司","lon":"121.520011","lat":"31.240814","category":"247","category_name":"餐饮美食","address":"上海市 上海市第一食品商店"},{"poiid":"B2094654DA69A0FC499D","title":"荣城花苑","lon":"121.51794","lat":"31.242142","category":"47","category_name":"住宅区","address":"荣城路9弄"},{"poiid":"B2094757D464A7FD4298","title":"御庭","lon":"121.519856064","lat":"31.242143345783","category":"72","category_name":"广东菜","address":"浦东新区浦东大道535号裕景大饭店5楼(近东方路)"},{"poiid":"B2094750DB6EAAF5489D","title":"滨江大道","lon":"121.518669","lat":"31.245016","category":"250","category_name":"公园户外","address":"东方路"},{"poiid":"B2094757D16EA2FB4999","title":"美诗美芙 浦东店","lon":"121.518914","lat":"31.243195","category":"500","category_name":"未知分类","address":"上海良丰大厦22F"},{"poiid":"B2094757D16EA4F44799","title":"秦皇岛路水门码头","lon":"121.518441738","lat":"31.2456866296","category":"260","category_name":"其他","address":"杨浦区秦皇岛路32号(近杨树浦路)"},{"poiid":"B2094757D069A3F54193","title":"会元馆","lon":"121.52176","lat":"31.2405","category":"72","category_name":"广东菜","address":"浦东新区浦东大道599号豪德万源大酒店2楼(近东方路)"},{"poiid":"B2094654DB64A6F44092","title":"如家快捷酒店(上海陆家嘴店)","lon":"121.52216","lat":"31.24182","category":"216","category_name":"经济型连锁酒店","address":"上海市浦东新区昌邑路569号(近东方路)"},{"poiid":"B2094757D464A7F94193","title":"豪碗福","lon":"121.519856064","lat":"31.242143345783","category":"68","category_name":"快餐厅","address":"浦东新区浦东大道535号裕景大饭店大堂(近东方路)"},{"poiid":"B2094757D66AA0F8499D","title":"腾格里乡村酒家 陆家嘴店","lon":"121.51971082221","lat":"31.242546742313","category":"84","category_name":"西北菜","address":"东方路43号近昌邑路"},{"poiid":"B2094757D069A6F8419A","title":"沁源茶楼","lon":"121.52162933","lat":"31.240867614","category":"260","category_name":"其他","address":"浦东新区浦东大道569号(近东方路)"},{"poiid":"B2094654DB69A0F9499C","title":"泰和茶馆","lon":"121.52159","lat":"31.24083","category":"66","category_name":"茶艺馆","address":"浦东新区浦东大道569号"},{"poiid":"B2094655D26AA0FF429D","title":"陆家嘴图书馆东方路店","lon":"121.51887","lat":"31.24191","category":"247","category_name":"餐饮美食","address":"浦东新区东方路38号"},{"poiid":"B2094757D66FA1F94699","title":"赣江村","lon":"121.520063738","lat":"31.2410805314","category":"260","category_name":"其他","address":"浦东新区东方路41号(近昌邑路)"},{"poiid":"B2094757D569A1F5429F","title":"浦东第一图书馆","lon":"121.518875","lat":"31.24191806","category":"181","category_name":"图书馆","address":"东方路38号"},{"poiid":"B2094654DA69A0FC499F","title":"荣成大厦","lon":"121.51813","lat":"31.24095","category":"47","category_name":"住宅区","address":"荣成路85弄1-2号"},{"poiid":"B2094752DB69A3FB4999","title":"东方私宴","lon":"121.520776","lat":"31.243821","category":"500","category_name":"未知分类","address":"上海市 上海市滨江大道1658号"},{"poiid":"B2094655D26AABFF4793","title":"上海雅客滨江酒店式服务公寓","lon":"121.52151","lat":"31.2412","category":"250","category_name":"公园户外","address":"浦东新区昌邑路588弄金隆置地大厦内(近东方路)"},{"poiid":"B2094757D165A2FA4492","title":"世纪大道东方路","lon":"121.52246773","lat":"31.239912506","category":"500","category_name":"未知分类","address":"上海浦东"},{"poiid":"B2094654DB64A3FF4192","title":"COSTA COFFEE(裕景大饭店东)","lon":"121.52033","lat":"31.24088","category":"65","category_name":"咖啡厅","address":""},{"poiid":"B2094757D16CA1FE449B","title":"滨江茗园","lon":"121.52151","lat":"31.242653","category":"247","category_name":"餐饮美食","address":"上海市长宁区延安西路1235弄"},{"poiid":"B2094654DA69AAFB449F","title":"海悦滨江酒店公寓","lon":"121.52151","lat":"31.24121","category":"250","category_name":"公园户外","address":"上海市浦东新区昌邑路588号(近东方路,金隆置地大厦内,)"},{"poiid":"B2094757D068A1FC479B","title":"85路浦东大道钱仓路站","lon":"121.52097925","lat":"31.240430077","category":"38","category_name":"公交车站","address":"上海市浦东新区浦东大道近钱仓路东侧"},{"poiid":"B2094757D16DA7FD4192","title":"荣成小区","lon":"121.51881","lat":"31.240702","category":"47","category_name":"住宅区","address":"上海浦东新区浦东大道501弄"},{"poiid":"B2094654DA69AAFB4799","title":"裕景大饭店","lon":"121.52018","lat":"31.2409","category":"213","category_name":"五星级宾馆","address":"上海市浦东新区浦东大道535号(近东方路)"},{"poiid":"B2094655D26FA5F9439B","title":"上海证券大厦","lon":"121.517707","lat":"31.241749","category":"46","category_name":"楼宇","address":"浦东新区浦东南路528号"},{"poiid":"B2094654DA69A7FB489A","title":"渣打银行大厦","lon":"121.516","lat":"31.2415","category":"46","category_name":"楼宇","address":"浦东区金融贸易区D3-5"},{"poiid":"B209475CD564A7F84392","title":"上海滩浦东香格里拉店","lon":"121.50058","lat":"31.23634","category":"119","category_name":"商场","address":"浦东富成路33号香格里拉酒店内大堂层"},{"poiid":"B2094655D36DA6FE429A","title":"浦东大道","lon":"121.51984","lat":"31.24032","category":"38","category_name":"公交车站","address":""},{"poiid":"B2094757D06FA1FA4498","title":"招商局大厦","lon":"121.515135","lat":"31.242879","category":"46","category_name":"楼宇","address":"浦东新区陆家嘴东路161号"},{"poiid":"B2094757D06FA5FA479F","title":"华夏银行大厦","lon":"121.5152","lat":"31.245346","category":"46","category_name":"楼宇","address":"上海浦东新区浦东南路256号"},{"poiid":"B2094655D26AA0F9409A","title":"地铁浦东大道站","lon":"121.51984","lat":"31.24032","category":"36","category_name":"地铁站","address":""},{"poiid":"B2094757D068A1FA489C","title":"其昌栈渡口","lon":"121.51963307","lat":"31.242515608","category":"500","category_name":"未知分类","address":"上海东方路滨江大道"},{"poiid":"B2094757D068A6F8419F","title":"华检医疗体检中心","lon":"121.521036652","lat":"31.2400068656","category":"902","category_name":"楼宇机构","address":"浦东新区浦东大道545号裕景坊2楼(东方路口)"},{"poiid":"B2094757D06FA2FF4099","title":"中国保险大厦","lon":"121.516","lat":"31.2421","category":"46","category_name":"楼宇","address":"浦东临港新城主城区申港大道200号"},{"poiid":"B2094757D16CABFF429D","title":"雅典皇宫","lon":"121.51895673","lat":"31.242752567","category":"500","category_name":"未知分类","address":"上海浦东新区东方路8号(近浦东大道)  "},{"poiid":"B2094655D26FA5FF479B","title":"华能联合大厦","lon":"121.515","lat":"31.245","category":"46","category_name":"楼宇","address":"朝阳华威桥东北角"},{"poiid":"B2094757D068AAFC469B","title":"保利广场","lon":"121.514956916","lat":"31.2433600232","category":"500","category_name":"未知分类","address":"闸北区共和新路3703,3737号"},{"poiid":"B2094655D36DA2FB459B","title":"大连路隧道","lon":"121.51973","lat":"31.2428","category":"250","category_name":"公园户外","address":"上海市杨浦区大连路-浦东新区东方路"},{"poiid":"B2094757DB69A3F44599","title":"富淳饭店 保利店","lon":"121.5189019","lat":"31.242405","category":"72","category_name":"广东菜","address":"浦东新区东方路18号保利广场E座G楼"},{"poiid":"B2094750D66CABFB4693","title":"Mio Ita","lon":"121.517906","lat":"31.243383","category":"94","category_name":"西餐厅","address":"浦东新区东方路18号保利大厦E栋2楼"},{"poiid":"B2094757D069A2FE4098","title":"慈铭健康体检(浦东大道门诊部)","lon":"121.52276","lat":"31.24064","category":"162","category_name":"医院","address":"浦东新区浦东大道637号同科公寓2楼"},{"poiid":"B2094757D064AAF5409A","title":"浦东陆家嘴图书馆","lon":"121.518913","lat":"31.241753","category":"181","category_name":"图书馆","address":"上海浦东新区东方路38号"},{"poiid":"B2094654DA69A1F54992","title":"金穗大厦","lon":"121.517","lat":"31.245","category":"46","category_name":"楼宇","address":"上海市奉贤区环城东路455,465弄"},{"poiid":"B2094757D06AA3FC409B","title":"浦东大道钱仓路","lon":"121.520092738","lat":"31.2396905017","category":"500","category_name":"未知分类","address":"上海浦东大道"},{"poiid":"B2094757D469A5F9409A","title":"松临日本料理 保利广场店","lon":"121.5189019","lat":"31.242405","category":"95","category_name":"日本料理","address":"浦东新区东方路18号保利广场E座2楼(近地铁四号线浦东大道站)"},{"poiid":"B2094757D06AA4F9459C","title":"豪德万源大酒店","lon":"121.52222823","lat":"31.24150209","category":"217","category_name":"旅馆招待所","address":"浦东新区浦东大道599号(近东方路)"},{"poiid":"B2094757D068A5F44392","title":"裕景咖啡厅","lon":"121.52051","lat":"31.2408","category":"268","category_name":"自助","address":"浦东新区浦东大道535号裕景大饭店3楼(近东方路)"},{"poiid":"B2094757D06EAAFF4993","title":"浦电路地铁站(四号线)","lon":"121.519854","lat":"31.240301","category":"36","category_name":"地铁站","address":"上海轨道交通 四号线 轨交浦东大道站 轻轨 4"},{"poiid":"B2094753D76DA4F8439D","title":"上海电影博物馆","lon":"121.520019","lat":"31.240804","category":"500","category_name":"未知分类","address":"上海市 上海电影制片厂漕溪北路595号"},{"poiid":"B2094753D76BA0FF4898","title":"伊秀手握寿司","lon":"121.520011","lat":"31.240814","category":"247","category_name":"餐饮美食","address":"上海市 上海市第一食品商店"},{"poiid":"B2094654DA69A0FC499D","title":"荣城花苑","lon":"121.51794","lat":"31.242142","category":"47","category_name":"住宅区","address":"荣城路9弄"},{"poiid":"B2094757D464A7FD4298","title":"御庭","lon":"121.519856064","lat":"31.242143345783","category":"72","category_name":"广东菜","address":"浦东新区浦东大道535号裕景大饭店5楼(近东方路)"},{"poiid":"B2094750DB6EAAF5489D","title":"滨江大道","lon":"121.518669","lat":"31.245016","category":"250","category_name":"公园户外","address":"东方路"},{"poiid":"B2094757D16EA2FB4999","title":"美诗美芙 浦东店","lon":"121.518914","lat":"31.243195","category":"500","category_name":"未知分类","address":"上海良丰大厦22F"},{"poiid":"B2094757D16EA4F44799","title":"秦皇岛路水门码头","lon":"121.518441738","lat":"31.2456866296","category":"260","category_name":"其他","address":"杨浦区秦皇岛路32号(近杨树浦路)"},{"poiid":"B2094757D069A3F54193","title":"会元馆","lon":"121.52176","lat":"31.2405","category":"72","category_name":"广东菜","address":"浦东新区浦东大道599号豪德万源大酒店2楼(近东方路)"},{"poiid":"B2094654DB64A6F44092","title":"如家快捷酒店(上海陆家嘴店)","lon":"121.52216","lat":"31.24182","category":"216","category_name":"经济型连锁酒店","address":"上海市浦东新区昌邑路569号(近东方路)"},{"poiid":"B2094757D464A7F94193","title":"豪碗福","lon":"121.519856064","lat":"31.242143345783","category":"68","category_name":"快餐厅","address":"浦东新区浦东大道535号裕景大饭店大堂(近东方路)"},{"poiid":"B2094757D66AA0F8499D","title":"腾格里乡村酒家 陆家嘴店","lon":"121.51971082221","lat":"31.242546742313","category":"84","category_name":"西北菜","address":"东方路43号近昌邑路"},{"poiid":"B2094757D069A6F8419A","title":"沁源茶楼","lon":"121.52162933","lat":"31.240867614","category":"260","category_name":"其他","address":"浦东新区浦东大道569号(近东方路)"},{"poiid":"B2094654DB69A0F9499C","title":"泰和茶馆","lon":"121.52159","lat":"31.24083","category":"66","category_name":"茶艺馆","address":"浦东新区浦东大道569号"},{"poiid":"B2094655D26AA0FF429D","title":"陆家嘴图书馆东方路店","lon":"121.51887","lat":"31.24191","category":"247","category_name":"餐饮美食","address":"浦东新区东方路38号"},{"poiid":"B2094757D66FA1F94699","title":"赣江村","lon":"121.520063738","lat":"31.2410805314","category":"260","category_name":"其他","address":"浦东新区东方路41号(近昌邑路)"},{"poiid":"B2094757D569A1F5429F","title":"浦东第一图书馆","lon":"121.518875","lat":"31.24191806","category":"181","category_name":"图书馆","address":"东方路38号"},{"poiid":"B2094654DA69A0FC499F","title":"荣成大厦","lon":"121.51813","lat":"31.24095","category":"47","category_name":"住宅区","address":"荣成路85弄1-2号"},{"poiid":"B2094752DB69A3FB4999","title":"东方私宴","lon":"121.520776","lat":"31.243821","category":"500","category_name":"未知分类","address":"上海市 上海市滨江大道1658号"},{"poiid":"B2094655D26AABFF4793","title":"上海雅客滨江酒店式服务公寓","lon":"121.52151","lat":"31.2412","category":"250","category_name":"公园户外","address":"浦东新区昌邑路588弄金隆置地大厦内(近东方路)"},{"poiid":"B2094757D165A2FA4492","title":"世纪大道东方路","lon":"121.52246773","lat":"31.239912506","category":"500","category_name":"未知分类","address":"上海浦东"},{"poiid":"B2094654DB64A3FF4192","title":"COSTA COFFEE(裕景大饭店东)","lon":"121.52033","lat":"31.24088","category":"65","category_name":"咖啡厅","address":""},{"poiid":"B2094757D16CA1FE449B","title":"滨江茗园","lon":"121.52151","lat":"31.242653","category":"247","category_name":"餐饮美食","address":"上海市长宁区延安西路1235弄"},{"poiid":"B2094654DA69AAFB449F","title":"海悦滨江酒店公寓","lon":"121.52151","lat":"31.24121","category":"250","category_name":"公园户外","address":"上海市浦东新区昌邑路588号(近东方路,金隆置地大厦内,)"},{"poiid":"B2094757D068A1FC479B","title":"85路浦东大道钱仓路站","lon":"121.52097925","lat":"31.240430077","category":"38","category_name":"公交车站","address":"上海市浦东新区浦东大道近钱仓路东侧"},{"poiid":"B2094757D16DA7FD4192","title":"荣成小区","lon":"121.51881","lat":"31.240702","category":"47","category_name":"住宅区","address":"上海浦东新区浦东大道501弄"},{"poiid":"B2094654DA69AAFB4799","title":"裕景大饭店","lon":"121.52018","lat":"31.2409","category":"213","category_name":"五星级宾馆","address":"上海市浦东新区浦东大道535号(近东方路)"},{"poiid":"B2094655D26FA5F9439B","title":"上海证券大厦","lon":"121.517707","lat":"31.241749","category":"46","category_name":"楼宇","address":"浦东新区浦东南路528号"},{"poiid":"B2094654DA69A7FB489A","title":"渣打银行大厦","lon":"121.516","lat":"31.2415","category":"46","category_name":"楼宇","address":"浦东区金融贸易区D3-5"},{"poiid":"B209475CD564A7F84392","title":"上海滩浦东香格里拉店","lon":"121.50058","lat":"31.23634","category":"119","category_name":"商场","address":"浦东富成路33号香格里拉酒店内大堂层"},{"poiid":"B2094655D36DA6FE429A","title":"浦东大道","lon":"121.51984","lat":"31.24032","category":"38","category_name":"公交车站","address":""},{"poiid":"B2094757D06FA1FA4498","title":"招商局大厦","lon":"121.515135","lat":"31.242879","category":"46","category_name":"楼宇","address":"浦东新区陆家嘴东路161号"},{"poiid":"B2094757D06FA5FA479F","title":"华夏银行大厦","lon":"121.5152","lat":"31.245346","category":"46","category_name":"楼宇","address":"上海浦东新区浦东南路256号"},{"poiid":"B2094655D26AA0F9409A","title":"地铁浦东大道站","lon":"121.51984","lat":"31.24032","category":"36","category_name":"地铁站","address":""},{"poiid":"B2094757D068A1FA489C","title":"其昌栈渡口","lon":"121.51963307","lat":"31.242515608","category":"500","category_name":"未知分类","address":"上海东方路滨江大道"},{"poiid":"B2094757D068A6F8419F","title":"华检医疗体检中心","lon":"121.521036652","lat":"31.2400068656","category":"902","category_name":"楼宇机构","address":"浦东新区浦东大道545号裕景坊2楼(东方路口)"},{"poiid":"B2094757D06FA2FF4099","title":"中国保险大厦","lon":"121.516","lat":"31.2421","category":"46","category_name":"楼宇","address":"浦东临港新城主城区申港大道200号"},{"poiid":"B2094757D16CABFF429D","title":"雅典皇宫","lon":"121.51895673","lat":"31.242752567","category":"500","category_name":"未知分类","address":"上海浦东新区东方路8号(近浦东大道)  "},{"poiid":"B2094655D26FA5FF479B","title":"华能联合大厦","lon":"121.515","lat":"31.245","category":"46","category_name":"楼宇","address":"朝阳华威桥东北角"},{"poiid":"B2094757D068AAFC469B","title":"保利广场","lon":"121.514956916","lat":"31.2433600232","category":"500","category_name":"未知分类","address":"闸北区共和新路3703,3737号"},{"poiid":"B2094655D36DA2FB459B","title":"大连路隧道","lon":"121.51973","lat":"31.2428","category":"250","category_name":"公园户外","address":"上海市杨浦区大连路-浦东新区东方路"},{"poiid":"B2094757DB69A3F44599","title":"富淳饭店 保利店","lon":"121.5189019","lat":"31.242405","category":"72","category_name":"广东菜","address":"浦东新区东方路18号保利广场E座G楼"},{"poiid":"B2094750D66CABFB4693","title":"Mio Ita","lon":"121.517906","lat":"31.243383","category":"94","category_name":"西餐厅","address":"浦东新区东方路18号保利大厦E栋2楼"},{"poiid":"B2094757D069A2FE4098","title":"慈铭健康体检(浦东大道门诊部)","lon":"121.52276","lat":"31.24064","category":"162","category_name":"医院","address":"浦东新区浦东大道637号同科公寓2楼"},{"poiid":"B2094757D064AAF5409A","title":"浦东陆家嘴图书馆","lon":"121.518913","lat":"31.241753","category":"181","category_name":"图书馆","address":"上海浦东新区东方路38号"},{"poiid":"B2094654DA69A1F54992","title":"金穗大厦","lon":"121.517","lat":"31.245","category":"46","category_name":"楼宇","address":"上海市奉贤区环城东路455,465弄"},{"poiid":"B2094757D06AA3FC409B","title":"浦东大道钱仓路","lon":"121.520092738","lat":"31.2396905017","category":"500","category_name":"未知分类","address":"上海浦东大道"},{"poiid":"B2094757D469A5F9409A","title":"松临日本料理 保利广场店","lon":"121.5189019","lat":"31.242405","category":"95","category_name":"日本料理","address":"浦东新区东方路18号保利广场E座2楼(近地铁四号线浦东大道站)"},{"poiid":"B2094757D06AA4F9459C","title":"豪德万源大酒店","lon":"121.52222823","lat":"31.24150209","category":"217","category_name":"旅馆招待所","address":"浦东新区浦东大道599号(近东方路)"},{"poiid":"B2094757D068A5F44392","title":"裕景咖啡厅","lon":"121.52051","lat":"31.2408","category":"268","category_name":"自助","address":"浦东新区浦东大道535号裕景大饭店3楼(近东方路)"},{"poiid":"B2094757D06EAAFF4993","title":"浦电路地铁站(四号线)","lon":"121.519854","lat":"31.240301","category":"36","category_name":"地铁站","address":"上海轨道交通 四号线 轨交浦东大道站 轻轨 4"},{"poiid":"B2094753D76DA4F8439D","title":"上海电影博物馆","lon":"121.520019","lat":"31.240804","category":"500","category_name":"未知分类","address":"上海市 上海电影制片厂漕溪北路595号"},{"poiid":"B2094753D76BA0FF4898","title":"伊秀手握寿司","lon":"121.520011","lat":"31.240814","category":"247","category_name":"餐饮美食","address":"上海市 上海市第一食品商店"},{"poiid":"B2094654DA69A0FC499D","title":"荣城花苑","lon":"121.51794","lat":"31.242142","category":"47","category_name":"住宅区","address":"荣城路9弄"},{"poiid":"B2094757D464A7FD4298","title":"御庭","lon":"121.519856064","lat":"31.242143345783","category":"72","category_name":"广东菜","address":"浦东新区浦东大道535号裕景大饭店5楼(近东方路)"},{"poiid":"B2094750DB6EAAF5489D","title":"滨江大道","lon":"121.518669","lat":"31.245016","category":"250","category_name":"公园户外","address":"东方路"},{"poiid":"B2094757D16EA2FB4999","title":"美诗美芙 浦东店","lon":"121.518914","lat":"31.243195","category":"500","category_name":"未知分类","address":"上海良丰大厦22F"},{"poiid":"B2094757D16EA4F44799","title":"秦皇岛路水门码头","lon":"121.518441738","lat":"31.2456866296","category":"260","category_name":"其他","address":"杨浦区秦皇岛路32号(近杨树浦路)"},{"poiid":"B2094757D069A3F54193","title":"会元馆","lon":"121.52176","lat":"31.2405","category":"72","category_name":"广东菜","address":"浦东新区浦东大道599号豪德万源大酒店2楼(近东方路)"},{"poiid":"B2094654DB64A6F44092","title":"如家快捷酒店(上海陆家嘴店)","lon":"121.52216","lat":"31.24182","category":"216","category_name":"经济型连锁酒店","address":"上海市浦东新区昌邑路569号(近东方路)"},{"poiid":"B2094757D464A7F94193","title":"豪碗福","lon":"121.519856064","lat":"31.242143345783","category":"68","category_name":"快餐厅","address":"浦东新区浦东大道535号裕景大饭店大堂(近东方路)"},{"poiid":"B2094757D66AA0F8499D","title":"腾格里乡村酒家 陆家嘴店","lon":"121.51971082221","lat":"31.242546742313","category":"84","category_name":"西北菜","address":"东方路43号近昌邑路"},{"poiid":"B2094757D069A6F8419A","title":"沁源茶楼","lon":"121.52162933","lat":"31.240867614","category":"260","category_name":"其他","address":"浦东新区浦东大道569号(近东方路)"},{"poiid":"B2094654DB69A0F9499C","title":"泰和茶馆","lon":"121.52159","lat":"31.24083","category":"66","category_name":"茶艺馆","address":"浦东新区浦东大道569号"},{"poiid":"B2094655D26AA0FF429D","title":"陆家嘴图书馆东方路店","lon":"121.51887","lat":"31.24191","category":"247","category_name":"餐饮美食","address":"浦东新区东方路38号"},{"poiid":"B2094757D66FA1F94699","title":"赣江村","lon":"121.520063738","lat":"31.2410805314","category":"260","category_name":"其他","address":"浦东新区东方路41号(近昌邑路)"},{"poiid":"B2094757D569A1F5429F","title":"浦东第一图书馆","lon":"121.518875","lat":"31.24191806","category":"181","category_name":"图书馆","address":"东方路38号"},{"poiid":"B2094654DA69A0FC499F","title":"荣成大厦","lon":"121.51813","lat":"31.24095","category":"47","category_name":"住宅区","address":"荣成路85弄1-2号"},{"poiid":"B2094752DB69A3FB4999","title":"东方私宴","lon":"121.520776","lat":"31.243821","category":"500","category_name":"未知分类","address":"上海市 上海市滨江大道1658号"},{"poiid":"B2094655D26AABFF4793","title":"上海雅客滨江酒店式服务公寓","lon":"121.52151","lat":"31.2412","category":"250","category_name":"公园户外","address":"浦东新区昌邑路588弄金隆置地大厦内(近东方路)"},{"poiid":"B2094757D165A2FA4492","title":"世纪大道东方路","lon":"121.52246773","lat":"31.239912506","category":"500","category_name":"未知分类","address":"上海浦东"},{"poiid":"B2094654DB64A3FF4192","title":"COSTA COFFEE(裕景大饭店东)","lon":"121.52033","lat":"31.24088","category":"65","category_name":"咖啡厅","address":""},{"poiid":"B2094757D16CA1FE449B","title":"滨江茗园","lon":"121.52151","lat":"31.242653","category":"247","category_name":"餐饮美食","address":"上海市长宁区延安西路1235弄"},{"poiid":"B2094654DA69AAFB449F","title":"海悦滨江酒店公寓","lon":"121.52151","lat":"31.24121","category":"250","category_name":"公园户外","address":"上海市浦东新区昌邑路588号(近东方路,金隆置地大厦内,)"},{"poiid":"B2094757D068A1FC479B","title":"85路浦东大道钱仓路站","lon":"121.52097925","lat":"31.240430077","category":"38","category_name":"公交车站","address":"上海市浦东新区浦东大道近钱仓路东侧"},{"poiid":"B2094757D16DA7FD4192","title":"荣成小区","lon":"121.51881","lat":"31.240702","category":"47","category_name":"住宅区","address":"上海浦东新区浦东大道501弄"},{"poiid":"B2094654DA69AAFB4799","title":"裕景大饭店","lon":"121.52018","lat":"31.2409","category":"213","category_name":"五星级宾馆","address":"上海市浦东新区浦东大道535号(近东方路)"},{"poiid":"B2094655D26FA5F9439B","title":"上海证券大厦","lon":"121.517707","lat":"31.241749","category":"46","category_name":"楼宇","address":"浦东新区浦东南路528号"},{"poiid":"B2094654DA69A7FB489A","title":"渣打银行大厦","lon":"121.516","lat":"31.2415","category":"46","category_name":"楼宇","address":"浦东区金融贸易区D3-5"},{"poiid":"B209475CD564A7F84392","title":"上海滩浦东香格里拉店","lon":"121.50058","lat":"31.23634","category":"119","category_name":"商场","address":"浦东富成路33号香格里拉酒店内大堂层"},{"poiid":"B2094655D36DA6FE429A","title":"浦东大道","lon":"121.51984","lat":"31.24032","category":"38","category_name":"公交车站","address":""},{"poiid":"B2094757D06FA1FA4498","title":"招商局大厦","lon":"121.515135","lat":"31.242879","category":"46","category_name":"楼宇","address":"浦东新区陆家嘴东路161号"},{"poiid":"B2094757D06FA5FA479F","title":"华夏银行大厦","lon":"121.5152","lat":"31.245346","category":"46","category_name":"楼宇","address":"上海浦东新区浦东南路256号"},{"poiid":"B2094655D26AA0F9409A","title":"地铁浦东大道站","lon":"121.51984","lat":"31.24032","category":"36","category_name":"地铁站","address":""},{"poiid":"B2094757D068A1FA489C","title":"其昌栈渡口","lon":"121.51963307","lat":"31.242515608","category":"500","category_name":"未知分类","address":"上海东方路滨江大道"},{"poiid":"B2094757D068A6F8419F","title":"华检医疗体检中心","lon":"121.521036652","lat":"31.2400068656","category":"902","category_name":"楼宇机构","address":"浦东新区浦东大道545号裕景坊2楼(东方路口)"},{"poiid":"B2094757D06FA2FF4099","title":"中国保险大厦","lon":"121.516","lat":"31.2421","category":"46","category_name":"楼宇","address":"浦东临港新城主城区申港大道200号"},{"poiid":"B2094757D16CABFF429D","title":"雅典皇宫","lon":"121.51895673","lat":"31.242752567","category":"500","category_name":"未知分类","address":"上海浦东新区东方路8号(近浦东大道)  "},{"poiid":"B2094655D26FA5FF479B","title":"华能联合大厦","lon":"121.515","lat":"31.245","category":"46","category_name":"楼宇","address":"朝阳华威桥东北角"},{"poiid":"B2094757D068AAFC469B","title":"保利广场","lon":"121.514956916","lat":"31.2433600232","category":"500","category_name":"未知分类","address":"闸北区共和新路3703,3737号"},{"poiid":"B2094655D36DA2FB459B","title":"大连路隧道","lon":"121.51973","lat":"31.2428","category":"250","category_name":"公园户外","address":"上海市杨浦区大连路-浦东新区东方路"},{"poiid":"B2094757DB69A3F44599","title":"富淳饭店 保利店","lon":"121.5189019","lat":"31.242405","category":"72","category_name":"广东菜","address":"浦东新区东方路18号保利广场E座G楼"},{"poiid":"B2094750D66CABFB4693","title":"Mio Ita","lon":"121.517906","lat":"31.243383","category":"94","category_name":"西餐厅","address":"浦东新区东方路18号保利大厦E栋2楼"},{"poiid":"B2094757D069A2FE4098","title":"慈铭健康体检(浦东大道门诊部)","lon":"121.52276","lat":"31.24064","category":"162","category_name":"医院","address":"浦东新区浦东大道637号同科公寓2楼"},{"poiid":"B2094757D064AAF5409A","title":"浦东陆家嘴图书馆","lon":"121.518913","lat":"31.241753","category":"181","category_name":"图书馆","address":"上海浦东新区东方路38号"},{"poiid":"B2094654DA69A1F54992","title":"金穗大厦","lon":"121.517","lat":"31.245","category":"46","category_name":"楼宇","address":"上海市奉贤区环城东路455,465弄"},{"poiid":"B2094757D06AA3FC409B","title":"浦东大道钱仓路","lon":"121.520092738","lat":"31.2396905017","category":"500","category_name":"未知分类","address":"上海浦东大道"},{"poiid":"B2094757D469A5F9409A","title":"松临日本料理 保利广场店","lon":"121.5189019","lat":"31.242405","category":"95","category_name":"日本料理","address":"浦东新区东方路18号保利广场E座2楼(近地铁四号线浦东大道站)"},{"poiid":"B2094757D06AA4F9459C","title":"豪德万源大酒店","lon":"121.52222823","lat":"31.24150209","category":"217","category_name":"旅馆招待所","address":"浦东新区浦东大道599号(近东方路)"},{"poiid":"B2094757D068A5F44392","title":"裕景咖啡厅","lon":"121.52051","lat":"31.2408","category":"268","category_name":"自助","address":"浦东新区浦东大道535号裕景大饭店3楼(近东方路)"},{"poiid":"B2094757D06EAAFF4993","title":"浦电路地铁站(四号线)","lon":"121.519854","lat":"31.240301","category":"36","category_name":"地铁站","address":"上海轨道交通 四号线 轨交浦东大道站 轻轨 4"},{"poiid":"B2094753D76DA4F8439D","title":"上海电影博物馆","lon":"121.520019","lat":"31.240804","category":"500","category_name":"未知分类","address":"上海市 上海电影制片厂漕溪北路595号"},{"poiid":"B2094753D76BA0FF4898","title":"伊秀手握寿司","lon":"121.520011","lat":"31.240814","category":"247","category_name":"餐饮美食","address":"上海市 上海市第一食品商店"},{"poiid":"B2094654DA69A0FC499D","title":"荣城花苑","lon":"121.51794","lat":"31.242142","category":"47","category_name":"住宅区","address":"荣城路9弄"},{"poiid":"B2094757D464A7FD4298","title":"御庭","lon":"121.519856064","lat":"31.242143345783","category":"72","category_name":"广东菜","address":"浦东新区浦东大道535号裕景大饭店5楼(近东方路)"},{"poiid":"B2094750DB6EAAF5489D","title":"滨江大道","lon":"121.518669","lat":"31.245016","category":"250","category_name":"公园户外","address":"东方路"},{"poiid":"B2094757D16EA2FB4999","title":"美诗美芙 浦东店","lon":"121.518914","lat":"31.243195","category":"500","category_name":"未知分类","address":"上海良丰大厦22F"},{"poiid":"B2094757D16EA4F44799","title":"秦皇岛路水门码头","lon":"121.518441738","lat":"31.2456866296","category":"260","category_name":"其他","address":"杨浦区秦皇岛路32号(近杨树浦路)"},{"poiid":"B2094757D069A3F54193","title":"会元馆","lon":"121.52176","lat":"31.2405","category":"72","category_name":"广东菜","address":"浦东新区浦东大道599号豪德万源大酒店2楼(近东方路)"},{"poiid":"B2094654DB64A6F44092","title":"如家快捷酒店(上海陆家嘴店)","lon":"121.52216","lat":"31.24182","category":"216","category_name":"经济型连锁酒店","address":"上海市浦东新区昌邑路569号(近东方路)"},{"poiid":"B2094757D464A7F94193","title":"豪碗福","lon":"121.519856064","lat":"31.242143345783","category":"68","category_name":"快餐厅","address":"浦东新区浦东大道535号裕景大饭店大堂(近东方路)"},{"poiid":"B2094757D66AA0F8499D","title":"腾格里乡村酒家 陆家嘴店","lon":"121.51971082221","lat":"31.242546742313","category":"84","category_name":"西北菜","address":"东方路43号近昌邑路"},{"poiid":"B2094757D069A6F8419A","title":"沁源茶楼","lon":"121.52162933","lat":"31.240867614","category":"260","category_name":"其他","address":"浦东新区浦东大道569号(近东方路)"},{"poiid":"B2094654DB69A0F9499C","title":"泰和茶馆","lon":"121.52159","lat":"31.24083","category":"66","category_name":"茶艺馆","address":"浦东新区浦东大道569号"},{"poiid":"B2094655D26AA0FF429D","title":"陆家嘴图书馆东方路店","lon":"121.51887","lat":"31.24191","category":"247","category_name":"餐饮美食","address":"浦东新区东方路38号"},{"poiid":"B2094757D66FA1F94699","title":"赣江村","lon":"121.520063738","lat":"31.2410805314","category":"260","category_name":"其他","address":"浦东新区东方路41号(近昌邑路)"},{"poiid":"B2094757D569A1F5429F","title":"浦东第一图书馆","lon":"121.518875","lat":"31.24191806","category":"181","category_name":"图书馆","address":"东方路38号"},{"poiid":"B2094654DA69A0FC499F","title":"荣成大厦","lon":"121.51813","lat":"31.24095","category":"47","category_name":"住宅区","address":"荣成路85弄1-2号"},{"poiid":"B2094752DB69A3FB4999","title":"东方私宴","lon":"121.520776","lat":"31.243821","category":"500","category_name":"未知分类","address":"上海市 上海市滨江大道1658号"},{"poiid":"B2094655D26AABFF4793","title":"上海雅客滨江酒店式服务公寓","lon":"121.52151","lat":"31.2412","category":"250","category_name":"公园户外","address":"浦东新区昌邑路588弄金隆置地大厦内(近东方路)"},{"poiid":"B2094757D165A2FA4492","title":"世纪大道东方路","lon":"121.52246773","lat":"31.239912506","category":"500","category_name":"未知分类","address":"上海浦东"},{"poiid":"B2094654DB64A3FF4192","title":"COSTA COFFEE(裕景大饭店东)","lon":"121.52033","lat":"31.24088","category":"65","category_name":"咖啡厅","address":""},{"poiid":"B2094757D16CA1FE449B","title":"滨江茗园","lon":"121.52151","lat":"31.242653","category":"247","category_name":"餐饮美食","address":"上海市长宁区延安西路1235弄"},{"poiid":"B2094654DA69AAFB449F","title":"海悦滨江酒店公寓","lon":"121.52151","lat":"31.24121","category":"250","category_name":"公园户外","address":"上海市浦东新区昌邑路588号(近东方路,金隆置地大厦内,)"},{"poiid":"B2094757D068A1FC479B","title":"85路浦东大道钱仓路站","lon":"121.52097925","lat":"31.240430077","category":"38","category_name":"公交车站","address":"上海市浦东新区浦东大道近钱仓路东侧"},{"poiid":"B2094757D16DA7FD4192","title":"荣成小区","lon":"121.51881","lat":"31.240702","category":"47","category_name":"住宅区","address":"上海浦东新区浦东大道501弄"}]