[{"poiid":"B2094757D068A0F5479C","title":"宝山区人民政府","lon":"121.48960876","lat":"31.405456543","category":"500","category_name":"未知分类","address":"上海密山路5号"},{"poiid":"B2094654DB6AA5FA409B","title":"上海红露圆宁江大酒店","lon":"121.48928","lat":"31.40715","category":"250","category_name":"公园户外","address":"上海宝山区友谊路40号"},{"poiid":"B2094757D66BA3FB4192","title":"上海郊外","lon":"121.489279","lat":"31.402466","category":"76","category_name":"上海菜","address":"宝山区宝林路251号(近友谊支路)"},{"poiid":"B2094757D06AA1FA4199","title":"小绍兴(东林路店)","lon":"121.49421","lat":"31.40477","category":"68","category_name":"快餐厅","address":"宝山区东林路227号(近密山路)"},{"poiid":"B2094757D068ABFA429C","title":"952b终点站","lon":"121.4911209","lat":"31.404288142","category":"38","category_name":"公交车站","address":"上海友谊路宝钢一村门口"},{"poiid":"B2094757D068ABFD4099","title":"宝山影剧院","lon":"121.48856","lat":"31.40609","category":"178","category_name":"电影院","address":"上海宝山区友谊支路181号2楼(近友谊路)"},{"poiid":"B2094654DB6AA5FA459E","title":"宝林一村","lon":"121.490574","lat":"31.403962","category":"47","category_name":"住宅区","address":"宝杨路853号"},{"poiid":"B2094655D268A0F54092","title":"锦江之星旅馆宝杨码头店","lon":"121.49147","lat":"31.39991","category":"216","category_name":"经济型连锁酒店","address":"上海市宝山区宝杨路580号"},{"poiid":"B2094654D46AA6FB4599","title":"宝房集团宝林四村小区","lon":"121.49162","lat":"31.40484","category":"47","category_name":"住宅区","address":"友谊路"},{"poiid":"B2094757D064A4F8439E","title":"宝山区机关幼儿园","lon":"121.49079","lat":"31.40377","category":"57","category_name":"幼儿园","address":"宝山区密山路4号"},{"poiid":"B2094757D169A1FF4198","title":"上岛咖啡 友谊支路店","lon":"121.489616","lat":"31.401314","category":"260","category_name":"其他","address":"宝山区友谊支路16号(近宝林路)"},{"poiid":"B2094654D46AA4FB4493","title":"江源酒家","lon":"121.49003445031","lat":"31.400508986709","category":"96","category_name":"韩国料理","address":"宝山区友谊支路30号(宝林路口)"},{"poiid":"B2094757D16BA3F94399","title":"江源韩式料理","lon":"121.48938403","lat":"31.402309433","category":"247","category_name":"餐饮美食","address":"上海市宝山区友谊支路30号"},{"poiid":"B2094654DB69AAF4459B","title":"红露园","lon":"121.49168230383","lat":"31.408288477598","category":"247","category_name":"餐饮美食","address":"宝山区友谊路40号(近友谊支路)"},{"poiid":"B2094752DA69A7FC499E","title":"夏加儿美术教育（友谊校区）","lon":"121.489395","lat":"31.401076","category":"190","category_name":"培训机构","address":"宝山区友谊支路16号3楼"},{"poiid":"B2094654D46AA6FA449F","title":"宝林新苑","lon":"121.49207","lat":"31.401365","category":"47","category_name":"住宅区","address":"宝杨路555弄"},{"poiid":"B2094757D069A3FC4592","title":"宝林二村","lon":"121.48833","lat":"31.400705","category":"47","category_name":"住宅区","address":"宝杨路13号"},{"poiid":"B2094654D46AA6FB4898","title":"上海市宝山区国家税务局","lon":"121.49108","lat":"31.40298","category":"250","category_name":"公园户外","address":"宝林路43"},{"poiid":"B2094654D46AA5F5459C","title":"宝钢宝林五村","lon":"121.49103","lat":"31.40608","category":"47","category_name":"住宅区","address":"友谊路"},{"poiid":"B2094757D064A4F44293","title":"南翔馒头","lon":"121.48894","lat":"31.40663","category":"68","category_name":"快餐厅","address":"宝山区友谊路46号(近友谊支路)"},{"poiid":"B2094655D26AA4FA429C","title":"新亚大包 友谊路店","lon":"121.488905054","lat":"31.406947793","category":"68","category_name":"快餐厅","address":"宝山区友谊路48号(近友谊支路)"},{"poiid":"B2094757D568A6FC479F","title":"家里来饭庄","lon":"121.49000488","lat":"31.40190972","category":"76","category_name":"上海菜","address":"宝山区宝林路60号(近宝隆加油站)"},{"poiid":"B2094654D46AA4FB459A","title":"聚银大酒店","lon":"121.48933","lat":"31.40159","category":"76","category_name":"上海菜","address":"宝山区友谊支路28号(近宝林路)"},{"poiid":"B2094757D168A3FB4599","title":"友誼支路","lon":"121.487769831","lat":"31.4057263044","category":"500","category_name":"未知分类","address":"上海友誼支路"},{"poiid":"B2094654D46AA6FB4693","title":"宝山区城市交通行政执法大队","lon":"121.48993","lat":"31.4031","category":"250","category_name":"公园户外","address":"友谊支路81号"},{"poiid":"B2094750D76EA2FB449D","title":"新青年羊蝎子火锅","lon":"121.494","lat":"31.4042","category":"86","category_name":"火锅店","address":"宝山区东林路197号(近宝杨路)"},{"poiid":"B2094757D56DA3FE439E","title":"粥鲜粥活 友谊支路店","lon":"121.48879632609","lat":"31.404780050715","category":"247","category_name":"餐饮美食","address":"友谊支路214号近密山路"},{"poiid":"B2094654D46AA6FB419A","title":"晓刚面亭","lon":"121.49426744298","lat":"31.404081705949","category":"68","category_name":"快餐厅","address":"宝山区东林路69号(近宝杨路)"},{"poiid":"B2094757D16DA2F94893","title":"尊爵台球馆(淞南店)","lon":"121.48991","lat":"31.40449","category":"171","category_name":"台球厅","address":"上海宝山区淞发路901弄祥腾生活广场5号楼210室(长江南路口)  "},{"poiid":"B2094654D46AA6FB489F","title":"宝钢宝林三村","lon":"121.49287","lat":"31.40225","category":"47","category_name":"住宅区","address":"友谊路"},{"poiid":"B2094757D165ABF8439A","title":"湘村人家 宝山店","lon":"121.493932","lat":"31.404509","category":"77","category_name":"湖南菜","address":"宝山区东林路168号(近密山路)"},{"poiid":"B2094654DB65AAFA4698","title":"宝山区第十九税务所","lon":"121.48939","lat":"31.40288","category":"250","category_name":"公园户外","address":"宝山区友谊支路87号"},{"poiid":"B2094654DB6AA5F94493","title":"宝钢集团宝林四村小区(南门)","lon":"121.49249","lat":"31.40314","category":"47","category_name":"住宅区","address":"友谊路"},{"poiid":"B2094757D069A5FE4692","title":"宝山区人民法院","lon":"121.49107","lat":"31.408154","category":"608","category_name":"法院","address":"上海友谊路15号"},{"poiid":"B2094750D665A3F84899","title":"段氏龙虾(东林路店)","lon":"121.494","lat":"31.4051","category":"68","category_name":"快餐厅","address":"宝山区东林路"},{"poiid":"B2094757D164A6F5489B","title":"潮州汤骨煲 东林路店","lon":"121.494951054","lat":"31.401899793","category":"86","category_name":"火锅店","address":"宝山区东林路69号(近宝杨路)"},{"poiid":"B2094654D46AA4FB409F","title":"上海市宝山实验学校(友谊路)","lon":"121.48622","lat":"31.40576","category":"55","category_name":"中学","address":"友谊路120"},{"poiid":"B2094757D064A7F9429F","title":"憬怡撞球俱乐部","lon":"121.488493","lat":"31.403022","category":"500","category_name":"未知分类","address":"上海友谊支路70号"},{"poiid":"B2094654DB65A6FF419C","title":"好德No.049","lon":"121.48979","lat":"31.40185","category":"117","category_name":"便民商店/便利店","address":"友谊支路57"},{"poiid":"B2094757D465ABF4419F","title":"和众堡","lon":"121.493725054","lat":"31.405320793","category":"68","category_name":"快餐厅","address":"宝山区东林路230号(近密山路)"},{"poiid":"B2094757D164A5FF449D","title":"宝山区税务局","lon":"121.48918583","lat":"31.403781264","category":"500","category_name":"未知分类","address":"上海市宝山区宝林路43号"},{"poiid":"B2094757D66FA3FE4799","title":"诺可可婚庆","lon":"121.489275","lat":"31.40386","category":"500","category_name":"未知分类","address":"上海密山路16号"},{"poiid":"B2094654D46AA4F9449C","title":"牡丹锦苑","lon":"121.491","lat":"31.4066","category":"47","category_name":"住宅区","address":"牡丹锦苑位于宝山宝林路481"},{"poiid":"B2094757D16AABFC4599","title":"北翼一条街","lon":"121.489339831","lat":"31.4023372344","category":"500","category_name":"未知分类","address":"上海牡丹江路1599号"},{"poiid":"B2094654D46AA4F9489D","title":"密山二村","lon":"121.48689","lat":"31.402977","category":"47","category_name":"住宅区","address":"牡丹江路1258号"},{"poiid":"B2094757D16EA1F8439F","title":"上海郊外菜","lon":"121.489073831","lat":"31.4021182299","category":"500","category_name":"未知分类","address":"上海市宝山区密山路"},{"poiid":"B2094757D064A7FB4098","title":"迪欧咖啡 宝山店 DIO CAFE","lon":"121.48941166259","lat":"31.407595687416","category":"260","category_name":"其他","address":"宝山区友谊路45号(近友谊支路)"},{"poiid":"B2094654D46AA5FB409F","title":"宝山大酒店","lon":"121.48822","lat":"31.40671","category":"70","category_name":"综合酒楼","address":"宝山区友谊路48号"},{"poiid":"B2094655D36CA6FB4298","title":"东林路密山东路","lon":"121.49381","lat":"31.4048","category":"38","category_name":"公交车站","address":""},{"poiid":"B2094757D06AABFC4299","title":"大永和","lon":"121.485453054","lat":"31.406159793","category":"68","category_name":"快餐厅","address":"宝山区友谊路120号(近团结路)"},{"poiid":"B2094757D068A0F5479C","title":"宝山区人民政府","lon":"121.48960876","lat":"31.405456543","category":"500","category_name":"未知分类","address":"上海密山路5号"},{"poiid":"B2094654DB6AA5FA409B","title":"上海红露圆宁江大酒店","lon":"121.48928","lat":"31.40715","category":"250","category_name":"公园户外","address":"上海宝山区友谊路40号"},{"poiid":"B2094757D66BA3FB4192","title":"上海郊外","lon":"121.489279","lat":"31.402466","category":"76","category_name":"上海菜","address":"宝山区宝林路251号(近友谊支路)"},{"poiid":"B2094757D06AA1FA4199","title":"小绍兴(东林路店)","lon":"121.49421","lat":"31.40477","category":"68","category_name":"快餐厅","address":"宝山区东林路227号(近密山路)"},{"poiid":"B2094757D068ABFA429C","title":"952b终点站","lon":"121.4911209","lat":"31.404288142","category":"38","category_name":"公交车站","address":"上海友谊路宝钢一村门口"},{"poiid":"B2094757D068ABFD4099","title":"宝山影剧院","lon":"121.48856","lat":"31.40609","category":"178","category_name":"电影院","address":"上海宝山区友谊支路181号2楼(近友谊路)"},{"poiid":"B2094654DB6AA5FA459E","title":"宝林一村","lon":"121.490574","lat":"31.403962","category":"47","category_name":"住宅区","address":"宝杨路853号"},{"poiid":"B2094655D268A0F54092","title":"锦江之星旅馆宝杨码头店","lon":"121.49147","lat":"31.39991","category":"216","category_name":"经济型连锁酒店","address":"上海市宝山区宝杨路580号"},{"poiid":"B2094654D46AA6FB4599","title":"宝房集团宝林四村小区","lon":"121.49162","lat":"31.40484","category":"47","category_name":"住宅区","address":"友谊路"},{"poiid":"B2094757D064A4F8439E","title":"宝山区机关幼儿园","lon":"121.49079","lat":"31.40377","category":"57","category_name":"幼儿园","address":"宝山区密山路4号"},{"poiid":"B2094757D169A1FF4198","title":"上岛咖啡 友谊支路店","lon":"121.489616","lat":"31.401314","category":"260","category_name":"其他","address":"宝山区友谊支路16号(近宝林路)"},{"poiid":"B2094654D46AA4FB4493","title":"江源酒家","lon":"121.49003445031","lat":"31.400508986709","category":"96","category_name":"韩国料理","address":"宝山区友谊支路30号(宝林路口)"},{"poiid":"B2094757D16BA3F94399","title":"江源韩式料理","lon":"121.48938403","lat":"31.402309433","category":"247","category_name":"餐饮美食","address":"上海市宝山区友谊支路30号"},{"poiid":"B2094654DB69AAF4459B","title":"红露园","lon":"121.49168230383","lat":"31.408288477598","category":"247","category_name":"餐饮美食","address":"宝山区友谊路40号(近友谊支路)"},{"poiid":"B2094752DA69A7FC499E","title":"夏加儿美术教育（友谊校区）","lon":"121.489395","lat":"31.401076","category":"190","category_name":"培训机构","address":"宝山区友谊支路16号3楼"},{"poiid":"B2094654D46AA6FA449F","title":"宝林新苑","lon":"121.49207","lat":"31.401365","category":"47","category_name":"住宅区","address":"宝杨路555弄"},{"poiid":"B2094757D069A3FC4592","title":"宝林二村","lon":"121.48833","lat":"31.400705","category":"47","category_name":"住宅区","address":"宝杨路13号"},{"poiid":"B2094654D46AA6FB4898","title":"上海市宝山区国家税务局","lon":"121.49108","lat":"31.40298","category":"250","category_name":"公园户外","address":"宝林路43"},{"poiid":"B2094654D46AA5F5459C","title":"宝钢宝林五村","lon":"121.49103","lat":"31.40608","category":"47","category_name":"住宅区","address":"友谊路"},{"poiid":"B2094757D064A4F44293","title":"南翔馒头","lon":"121.48894","lat":"31.40663","category":"68","category_name":"快餐厅","address":"宝山区友谊路46号(近友谊支路)"},{"poiid":"B2094655D26AA4FA429C","title":"新亚大包 友谊路店","lon":"121.488905054","lat":"31.406947793","category":"68","category_name":"快餐厅","address":"宝山区友谊路48号(近友谊支路)"},{"poiid":"B2094757D568A6FC479F","title":"家里来饭庄","lon":"121.49000488","lat":"31.40190972","category":"76","category_name":"上海菜","address":"宝山区宝林路60号(近宝隆加油站)"},{"poiid":"B2094654D46AA4FB459A","title":"聚银大酒店","lon":"121.48933","lat":"31.40159","category":"76","category_name":"上海菜","address":"宝山区友谊支路28号(近宝林路)"},{"poiid":"B2094757D168A3FB4599","title":"友誼支路","lon":"121.487769831","lat":"31.4057263044","category":"500","category_name":"未知分类","address":"上海友誼支路"},{"poiid":"B2094654D46AA6FB4693","title":"宝山区城市交通行政执法大队","lon":"121.48993","lat":"31.4031","category":"250","category_name":"公园户外","address":"友谊支路81号"},{"poiid":"B2094750D76EA2FB449D","title":"新青年羊蝎子火锅","lon":"121.494","lat":"31.4042","category":"86","category_name":"火锅店","address":"宝山区东林路197号(近宝杨路)"},{"poiid":"B2094757D56DA3FE439E","title":"粥鲜粥活 友谊支路店","lon":"121.48879632609","lat":"31.404780050715","category":"247","category_name":"餐饮美食","address":"友谊支路214号近密山路"},{"poiid":"B2094654D46AA6FB419A","title":"晓刚面亭","lon":"121.49426744298","lat":"31.404081705949","category":"68","category_name":"快餐厅","address":"宝山区东林路69号(近宝杨路)"},{"poiid":"B2094757D16DA2F94893","title":"尊爵台球馆(淞南店)","lon":"121.48991","lat":"31.40449","category":"171","category_name":"台球厅","address":"上海宝山区淞发路901弄祥腾生活广场5号楼210室(长江南路口)  "},{"poiid":"B2094654D46AA6FB489F","title":"宝钢宝林三村","lon":"121.49287","lat":"31.40225","category":"47","category_name":"住宅区","address":"友谊路"},{"poiid":"B2094757D165ABF8439A","title":"湘村人家 宝山店","lon":"121.493932","lat":"31.404509","category":"77","category_name":"湖南菜","address":"宝山区东林路168号(近密山路)"},{"poiid":"B2094654DB65AAFA4698","title":"宝山区第十九税务所","lon":"121.48939","lat":"31.40288","category":"250","category_name":"公园户外","address":"宝山区友谊支路87号"},{"poiid":"B2094654DB6AA5F94493","title":"宝钢集团宝林四村小区(南门)","lon":"121.49249","lat":"31.40314","category":"47","category_name":"住宅区","address":"友谊路"},{"poiid":"B2094757D069A5FE4692","title":"宝山区人民法院","lon":"121.49107","lat":"31.408154","category":"608","category_name":"法院","address":"上海友谊路15号"},{"poiid":"B2094750D665A3F84899","title":"段氏龙虾(东林路店)","lon":"121.494","lat":"31.4051","category":"68","category_name":"快餐厅","address":"宝山区东林路"},{"poiid":"B2094757D164A6F5489B","title":"潮州汤骨煲 东林路店","lon":"121.494951054","lat":"31.401899793","category":"86","category_name":"火锅店","address":"宝山区东林路69号(近宝杨路)"},{"poiid":"B2094654D46AA4FB409F","title":"上海市宝山实验学校(友谊路)","lon":"121.48622","lat":"31.40576","category":"55","category_name":"中学","address":"友谊路120"},{"poiid":"B2094757D064A7F9429F","title":"憬怡撞球俱乐部","lon":"121.488493","lat":"31.403022","category":"500","category_name":"未知分类","address":"上海友谊支路70号"},{"poiid":"B2094654DB65A6FF419C","title":"好德No.049","lon":"121.48979","lat":"31.40185","category":"117","category_name":"便民商店/便利店","address":"友谊支路57"},{"poiid":"B2094757D465ABF4419F","title":"和众堡","lon":"121.493725054","lat":"31.405320793","category":"68","category_name":"快餐厅","address":"宝山区东林路230号(近密山路)"},{"poiid":"B2094757D164A5FF449D","title":"宝山区税务局","lon":"121.48918583","lat":"31.403781264","category":"500","category_name":"未知分类","address":"上海市宝山区宝林路43号"},{"poiid":"B2094757D66FA3FE4799","title":"诺可可婚庆","lon":"121.489275","lat":"31.40386","category":"500","category_name":"未知分类","address":"上海密山路16号"},{"poiid":"B2094654D46AA4F9449C","title":"牡丹锦苑","lon":"121.491","lat":"31.4066","category":"47","category_name":"住宅区","address":"牡丹锦苑位于宝山宝林路481"},{"poiid":"B2094757D16AABFC4599","title":"北翼一条街","lon":"121.489339831","lat":"31.4023372344","category":"500","category_name":"未知分类","address":"上海牡丹江路1599号"},{"poiid":"B2094654D46AA4F9489D","title":"密山二村","lon":"121.48689","lat":"31.402977","category":"47","category_name":"住宅区","address":"牡丹江路1258号"},{"poiid":"B2094757D16EA1F8439F","title":"上海郊外菜","lon":"121.489073831","lat":"31.4021182299","category":"500","category_name":"未知分类","address":"上海市宝山区密山路"},{"poiid":"B2094757D064A7FB4098","title":"迪欧咖啡 宝山店 DIO CAFE","lon":"121.48941166259","lat":"31.407595687416","category":"260","category_name":"其他","address":"宝山区友谊路45号(近友谊支路)"},{"poiid":"B2094654D46AA5FB409F","title":"宝山大酒店","lon":"121.48822","lat":"31.40671","category":"70","category_name":"综合酒楼","address":"宝山区友谊路48号"},{"poiid":"B2094655D36CA6FB4298","title":"东林路密山东路","lon":"121.49381","lat":"31.4048","category":"38","category_name":"公交车站","address":""},{"poiid":"B2094757D06AABFC4299","title":"大永和","lon":"121.485453054","lat":"31.406159793","category":"68","category_name":"快餐厅","address":"宝山区友谊路120号(近团结路)"},{"poiid":"B2094757D068A0F5479C","title":"宝山区人民政府","lon":"121.48960876","lat":"31.405456543","category":"500","category_name":"未知分类","address":"上海密山路5号"},{"poiid":"B2094654DB6AA5FA409B","title":"上海红露圆宁江大酒店","lon":"121.48928","lat":"31.40715","category":"250","category_name":"公园户外","address":"上海宝山区友谊路40号"},{"poiid":"B2094757D66BA3FB4192","title":"上海郊外","lon":"121.489279","lat":"31.402466","category":"76","category_name":"上海菜","address":"宝山区宝林路251号(近友谊支路)"},{"poiid":"B2094757D06AA1FA4199","title":"小绍兴(东林路店)","lon":"121.49421","lat":"31.40477","category":"68","category_name":"快餐厅","address":"宝山区东林路227号(近密山路)"},{"poiid":"B2094757D068ABFA429C","title":"952b终点站","lon":"121.4911209","lat":"31.404288142","category":"38","category_name":"公交车站","address":"上海友谊路宝钢一村门口"},{"poiid":"B2094757D068ABFD4099","title":"宝山影剧院","lon":"121.48856","lat":"31.40609","category":"178","category_name":"电影院","address":"上海宝山区友谊支路181号2楼(近友谊路)"},{"poiid":"B2094654DB6AA5FA459E","title":"宝林一村","lon":"121.490574","lat":"31.403962","category":"47","category_name":"住宅区","address":"宝杨路853号"},{"poiid":"B2094655D268A0F54092","title":"锦江之星旅馆宝杨码头店","lon":"121.49147","lat":"31.39991","category":"216","category_name":"经济型连锁酒店","address":"上海市宝山区宝杨路580号"},{"poiid":"B2094654D46AA6FB4599","title":"宝房集团宝林四村小区","lon":"121.49162","lat":"31.40484","category":"47","category_name":"住宅区","address":"友谊路"},{"poiid":"B2094757D064A4F8439E","title":"宝山区机关幼儿园","lon":"121.49079","lat":"31.40377","category":"57","category_name":"幼儿园","address":"宝山区密山路4号"},{"poiid":"B2094757D169A1FF4198","title":"上岛咖啡 友谊支路店","lon":"121.489616","lat":"31.401314","category":"260","category_name":"其他","address":"宝山区友谊支路16号(近宝林路)"},{"poiid":"B2094654D46AA4FB4493","title":"江源酒家","lon":"121.49003445031","lat":"31.400508986709","category":"96","category_name":"韩国料理","address":"宝山区友谊支路30号(宝林路口)"},{"poiid":"B2094757D16BA3F94399","title":"江源韩式料理","lon":"121.48938403","lat":"31.402309433","category":"247","category_name":"餐饮美食","address":"上海市宝山区友谊支路30号"},{"poiid":"B2094654DB69AAF4459B","title":"红露园","lon":"121.49168230383","lat":"31.408288477598","category":"247","category_name":"餐饮美食","address":"宝山区友谊路40号(近友谊支路)"},{"poiid":"B2094752DA69A7FC499E","title":"夏加儿美术教育（友谊校区）","lon":"121.489395","lat":"31.401076","category":"190","category_name":"培训机构","address":"宝山区友谊支路16号3楼"},{"poiid":"B2094654D46AA6FA449F","title":"宝林新苑","lon":"121.49207","lat":"31.401365","category":"47","category_name":"住宅区","address":"宝杨路555弄"},{"poiid":"B2094757D069A3FC4592","title":"宝林二村","lon":"121.48833","lat":"31.400705","category":"47","category_name":"住宅区","address":"宝杨路13号"},{"poiid":"B2094654D46AA6FB4898","title":"上海市宝山区国家税务局","lon":"121.49108","lat":"31.40298","category":"250","category_name":"公园户外","address":"宝林路43"},{"poiid":"B2094654D46AA5F5459C","title":"宝钢宝林五村","lon":"121.49103","lat":"31.40608","category":"47","category_name":"住宅区","address":"友谊路"},{"poiid":"B2094757D064A4F44293","title":"南翔馒头","lon":"121.48894","lat":"31.40663","category":"68","category_name":"快餐厅","address":"宝山区友谊路46号(近友谊支路)"},{"poiid":"B2094655D26AA4FA429C","title":"新亚大包 友谊路店","lon":"121.488905054","lat":"31.406947793","category":"68","category_name":"快餐厅","address":"宝山区友谊路48号(近友谊支路)"},{"poiid":"B2094757D568A6FC479F","title":"家里来饭庄","lon":"121.49000488","lat":"31.40190972","category":"76","category_name":"上海菜","address":"宝山区宝林路60号(近宝隆加油站)"},{"poiid":"B2094654D46AA4FB459A","title":"聚银大酒店","lon":"121.48933","lat":"31.40159","category":"76","category_name":"上海菜","address":"宝山区友谊支路28号(近宝林路)"},{"poiid":"B2094757D168A3FB4599","title":"友誼支路","lon":"121.487769831","lat":"31.4057263044","category":"500","category_name":"未知分类","address":"上海友誼支路"},{"poiid":"B2094654D46AA6FB4693","title":"宝山区城市交通行政执法大队","lon":"121.48993","lat":"31.4031","category":"250","category_name":"公园户外","address":"友谊支路81号"},{"poiid":"B2094750D76EA2FB449D","title":"新青年羊蝎子火锅","lon":"121.494","lat":"31.4042","category":"86","category_name":"火锅店","address":"宝山区东林路197号(近宝杨路)"},{"poiid":"B2094757D56DA3FE439E","title":"粥鲜粥活 友谊支路店","lon":"121.48879632609","lat":"31.404780050715","category":"247","category_name":"餐饮美食","address":"友谊支路214号近密山路"},{"poiid":"B2094654D46AA6FB419A","title":"晓刚面亭","lon":"121.49426744298","lat":"31.404081705949","category":"68","category_name":"快餐厅","address":"宝山区东林路69号(近宝杨路)"},{"poiid":"B2094757D16DA2F94893","title":"尊爵台球馆(淞南店)","lon":"121.48991","lat":"31.40449","category":"171","category_name":"台球厅","address":"上海宝山区淞发路901弄祥腾生活广场5号楼210室(长江南路口)  "},{"poiid":"B2094654D46AA6FB489F","title":"宝钢宝林三村","lon":"121.49287","lat":"31.40225","category":"47","category_name":"住宅区","address":"友谊路"},{"poiid":"B2094757D165ABF8439A","title":"湘村人家 宝山店","lon":"121.493932","lat":"31.404509","category":"77","category_name":"湖南菜","address":"宝山区东林路168号(近密山路)"},{"poiid":"B2094654DB65AAFA4698","title":"宝山区第十九税务所","lon":"121.48939","lat":"31.40288","category":"250","category_name":"公园户外","address":"宝山区友谊支路87号"},{"poiid":"B2094654DB6AA5F94493","title":"宝钢集团宝林四村小区(南门)","lon":"121.49249","lat":"31.40314","category":"47","category_name":"住宅区","address":"友谊路"},{"poiid":"B2094757D069A5FE4692","title":"宝山区人民法院","lon":"121.49107","lat":"31.408154","category":"608","category_name":"法院","address":"上海友谊路15号"},{"poiid":"B2094750D665A3F84899","title":"段氏龙虾(东林路店)","lon":"121.494","lat":"31.4051","category":"68","category_name":"快餐厅","address":"宝山区东林路"},{"poiid":"B2094757D164A6F5489B","title":"潮州汤骨煲 东林路店","lon":"121.494951054","lat":"31.401899793","category":"86","category_name":"火锅店","address":"宝山区东林路69号(近宝杨路)"},{"poiid":"B2094654D46AA4FB409F","title":"上海市宝山实验学校(友谊路)","lon":"121.48622","lat":"31.40576","category":"55","category_name":"中学","address":"友谊路120"},{"poiid":"B2094757D064A7F9429F","title":"憬怡撞球俱乐部","lon":"121.488493","lat":"31.403022","category":"500","category_name":"未知分类","address":"上海友谊支路70号"},{"poiid":"B2094654DB65A6FF419C","title":"好德No.049","lon":"121.48979","lat":"31.40185","category":"117","category_name":"便民商店/便利店","address":"友谊支路57"},{"poiid":"B2094757D465ABF4419F","title":"和众堡","lon":"121.493725054","lat":"31.405320793","category":"68","category_name":"快餐厅","address":"宝山区东林路230号(近密山路)"},{"poiid":"B2094757D164A5FF449D","title":"宝山区税务局","lon":"121.48918583","lat":"31.403781264","category":"500","category_name":"未知分类","address":"上海市宝山区宝林路43号"},{"poiid":"B2094757D66FA3FE4799","title":"诺可可婚庆","lon":"121.489275","lat":"31.40386","category":"500","category_name":"未知分类","address":"上海密山路16号"},{"poiid":"B2094654D46AA4F9449C","title":"牡丹锦苑","lon":"121.491","lat":"31.4066","category":"47","category_name":"住宅区","address":"牡丹锦苑位于宝山宝林路481"},{"poiid":"B2094757D16AABFC4599","title":"北翼一条街","lon":"121.489339831","lat":"31.4023372344","category":"500","category_name":"未知分类","address":"上海牡丹江路1599号"},{"poiid":"B2094654D46AA4F9489D","title":"密山二村","lon":"121.48689","lat":"31.402977","category":"47","category_name":"住宅区","address":"牡丹江路1258号"},{"poiid":"B2094757D16EA1F8439F","title":"上海郊外菜","lon":"121.489073831","lat":"31.4021182299","category":"500","category_name":"未知分类","address":"上海市宝山区密山路"},{"poiid":"B2094757D064A7FB4098","title":"迪欧咖啡 宝山店 DIO CAFE","lon":"121.48941166259","lat":"31.407595687416","category":"260","category_name":"其他","address":"宝山区友谊路45号(近友谊支路)"},{"poiid":"B2094654D46AA5FB409F","title":"宝山大酒店","lon":"121.48822","lat":"31.40671","category":"70","category_name":"综合酒楼","address":"宝山区友谊路48号"},{"poiid":"B2094655D36CA6FB4298","title":"东林路密山东路","lon":"121.49381","lat":"31.4048","category":"38","category_name":"公交车站","address":""},{"poiid":"B2094757D06AABFC4299","title":"大永和","lon":"121.485453054","lat":"31.406159793","category":"68","category_name":"快餐厅","address":"宝山区友谊路120号(近团结路)"},{"poiid":"B2094757D068A0F5479C","title":"宝山区人民政府","lon":"121.48960876","lat":"31.405456543","category":"500","category_name":"未知分类","address":"上海密山路5号"},{"poiid":"B2094654DB6AA5FA409B","title":"上海红露圆宁江大酒店","lon":"121.48928","lat":"31.40715","category":"250","category_name":"公园户外","address":"上海宝山区友谊路40号"},{"poiid":"B2094757D66BA3FB4192","title":"上海郊外","lon":"121.489279","lat":"31.402466","category":"76","category_name":"上海菜","address":"宝山区宝林路251号(近友谊支路)"},{"poiid":"B2094757D06AA1FA4199","title":"小绍兴(东林路店)","lon":"121.49421","lat":"31.40477","category":"68","category_name":"快餐厅","address":"宝山区东林路227号(近密山路)"},{"poiid":"B2094757D068ABFA429C","title":"952b终点站","lon":"121.4911209","lat":"31.404288142","category":"38","category_name":"公交车站","address":"上海友谊路宝钢一村门口"},{"poiid":"B2094757D068ABFD4099","title":"宝山影剧院","lon":"121.48856","lat":"31.40609","category":"178","category_name":"电影院","address":"上海宝山区友谊支路181号2楼(近友谊路)"},{"poiid":"B2094654DB6AA5FA459E","title":"宝林一村","lon":"121.490574","lat":"31.403962","category":"47","category_name":"住宅区","address":"宝杨路853号"},{"poiid":"B2094655D268A0F54092","title":"锦江之星旅馆宝杨码头店","lon":"121.49147","lat":"31.39991","category":"216","category_name":"经济型连锁酒店","address":"上海市宝山区宝杨路580号"},{"poiid":"B2094654D46AA6FB4599","title":"宝房集团宝林四村小区","lon":"121.49162","lat":"31.40484","category":"47","category_name":"住宅区","address":"友谊路"},{"poiid":"B2094757D064A4F8439E","title":"宝山区机关幼儿园","lon":"121.49079","lat":"31.40377","category":"57","category_name":"幼儿园","address":"宝山区密山路4号"},{"poiid":"B2094757D169A1FF4198","title":"上岛咖啡 友谊支路店","lon":"121.489616","lat":"31.401314","category":"260","category_name":"其他","address":"宝山区友谊支路16号(近宝林路)"},{"poiid":"B2094654D46AA4FB4493","title":"江源酒家","lon":"121.49003445031","lat":"31.400508986709","category":"96","category_name":"韩国料理","address":"宝山区友谊支路30号(宝林路口)"},{"poiid":"B2094757D16BA3F94399","title":"江源韩式料理","lon":"121.48938403","lat":"31.402309433","category":"247","category_name":"餐饮美食","address":"上海市宝山区友谊支路30号"},{"poiid":"B2094654DB69AAF4459B","title":"红露园","lon":"121.49168230383","lat":"31.408288477598","category":"247","category_name":"餐饮美食","address":"宝山区友谊路40号(近友谊支路)"},{"poiid":"B2094752DA69A7FC499E","title":"夏加儿美术教育（友谊校区）","lon":"121.489395","lat":"31.401076","category":"190","category_name":"培训机构","address":"宝山区友谊支路16号3楼"},{"poiid":"B2094654D46AA6FA449F","title":"宝林新苑","lon":"121.49207","lat":"31.401365","category":"47","category_name":"住宅区","address":"宝杨路555弄"},{"poiid":"B2094757D069A3FC4592","title":"宝林二村","lon":"121.48833","lat":"31.400705","category":"47","category_name":"住宅区","address":"宝杨路13号"},{"poiid":"B2094654D46AA6FB4898","title":"上海市宝山区国家税务局","lon":"121.49108","lat":"31.40298","category":"250","category_name":"公园户外","address":"宝林路43"},{"poiid":"B2094654D46AA5F5459C","title":"宝钢宝林五村","lon":"121.49103","lat":"31.40608","category":"47","category_name":"住宅区","address":"友谊路"},{"poiid":"B2094757D064A4F44293","title":"南翔馒头","lon":"121.48894","lat":"31.40663","category":"68","category_name":"快餐厅","address":"宝山区友谊路46号(近友谊支路)"},{"poiid":"B2094655D26AA4FA429C","title":"新亚大包 友谊路店","lon":"121.488905054","lat":"31.406947793","category":"68","category_name":"快餐厅","address":"宝山区友谊路48号(近友谊支路)"},{"poiid":"B2094757D568A6FC479F","title":"家里来饭庄","lon":"121.49000488","lat":"31.40190972","category":"76","category_name":"上海菜","address":"宝山区宝林路60号(近宝隆加油站)"},{"poiid":"B2094654D46AA4FB459A","title":"聚银大酒店","lon":"121.48933","lat":"31.40159","category":"76","category_name":"上海菜","address":"宝山区友谊支路28号(近宝林路)"},{"poiid":"B2094757D168A3FB4599","title":"友誼支路","lon":"121.487769831","lat":"31.4057263044","category":"500","category_name":"未知分类","address":"上海友誼支路"},{"poiid":"B2094654D46AA6FB4693","title":"宝山区城市交通行政执法大队","lon":"121.48993","lat":"31.4031","category":"250","category_name":"公园户外","address":"友谊支路81号"},{"poiid":"B2094750D76EA2FB449D","title":"新青年羊蝎子火锅","lon":"121.494","lat":"31.4042","category":"86","category_name":"火锅店","address":"宝山区东林路197号(近宝杨路)"},{"poiid":"B2094757D56DA3FE439E","title":"粥鲜粥活 友谊支路店","lon":"121.48879632609","lat":"31.404780050715","category":"247","category_name":"餐饮美食","address":"友谊支路214号近密山路"},{"poiid":"B2094654D46AA6FB419A","title":"晓刚面亭","lon":"121.49426744298","lat":"31.404081705949","category":"68","category_name":"快餐厅","address":"宝山区东林路69号(近宝杨路)"},{"poiid":"B2094757D16DA2F94893","title":"尊爵台球馆(淞南店)","lon":"121.48991","lat":"31.40449","category":"171","category_name":"台球厅","address":"上海宝山区淞发路901弄祥腾生活广场5号楼210室(长江南路口)  "},{"poiid":"B2094654D46AA6FB489F","title":"宝钢宝林三村","lon":"121.49287","lat":"31.40225","category":"47","category_name":"住宅区","address":"友谊路"},{"poiid":"B2094757D165ABF8439A","title":"湘村人家 宝山店","lon":"121.493932","lat":"31.404509","category":"77","category_name":"湖南菜","address":"宝山区东林路168号(近密山路)"},{"poiid":"B2094654DB65AAFA4698","title":"宝山区第十九税务所","lon":"121.48939","lat":"31.40288","category":"250","category_name":"公园户外","address":"宝山区友谊支路87号"},{"poiid":"B2094654DB6AA5F94493","title":"宝钢集团宝林四村小区(南门)","lon":"121.49249","lat":"31.40314","category":"47","category_name":"住宅区","address":"友谊路"},{"poiid":"B2094757D069A5FE4692","title":"宝山区人民法院","lon":"121.49107","lat":"31.408154","category":"608","category_name":"法院","address":"上海友谊路15号"},{"poiid":"B2094750D665A3F84899","title":"段氏龙虾(东林路店)","lon":"121.494","lat":"31.4051","category":"68","category_name":"快餐厅","address":"宝山区东林路"},{"poiid":"B2094757D164A6F5489B","title":"潮州汤骨煲 东林路店","lon":"121.494951054","lat":"31.401899793","category":"86","category_name":"火锅店","address":"宝山区东林路69号(近宝杨路)"},{"poiid":"B2094654D46AA4FB409F","title":"上海市宝山实验学校(友谊路)","lon":"121.48622","lat":"31.40576","category":"55","category_name":"中学","address":"友谊路120"},{"poiid":"B2094757D064A7F9429F","title":"憬怡撞球俱乐部","lon":"121.488493","lat":"31.403022","category":"500","category_name":"未知分类","address":"上海友谊支路70号"},{"poiid":"B2094654DB65A6FF419C","title":"好德No.049","lon":"121.48979","lat":"31.40185","category":"117","category_name":"便民商店/便利店","address":"友谊支路57"},{"poiid":"B2094757D465ABF4419F","title":"和众堡","lon":"121.493725054","lat":"31.405320793","category":"68","category_name":"快餐厅","address":"宝山区东林路230号(近密山路)"},{"poiid":"B2094757D164A5FF449D","title":"宝山区税务局","lon":"121.48918583","lat":"31.403781264","category":"500","category_name":"未知分类","address":"上海市宝山区宝林路43号"},{"poiid":"B2094757D66FA3FE4799","title":"诺可可婚庆","lon":"121.489275","lat":"31.40386","category":"500","category_name":"未知分类","address":"上海密山路16号"},{"poiid":"B2094654D46AA4F9449C","title":"牡丹锦苑","lon":"121.491","lat":"31.4066","category":"47","category_name":"住宅区","address":"牡丹锦苑位于宝山宝林路481"},{"poiid":"B2094757D16AABFC4599","title":"北翼一条街","lon":"121.489339831","lat":"31.4023372344","category":"500","category_name":"未知分类","address":"上海牡丹江路1599号"},{"poiid":"B2094654D46AA4F9489D","title":"密山二村","lon":"121.48689","lat":"31.402977","category":"47","category_name":"住宅区","address":"牡丹江路1258号"},{"poiid":"B2094757D16EA1F8439F","title":"上海郊外菜","lon":"121.489073831","lat":"31.4021182299","category":"500","category_name":"未知分类","address":"上海市宝山区密山路"},{"poiid":"B2094757D064A7FB4098","title":"迪欧咖啡 宝山店 DIO CAFE","lon":"121.48941166259","lat":"31.407595687416","category":"260","category_name":"其他","address":"宝山区友谊路45号(近友谊支路)"},{"poiid":"B2094654D46AA5FB409F","title":"宝山大酒店","lon":"121.48822","lat":"31.40671","category":"70","category_name":"综合酒楼","address":"宝山区友谊路48号"},{"poiid":"B2094655D36CA6FB4298","title":"东林路密山东路","lon":"121.49381","lat":"31.4048","category":"38","category_name":"公交车站","address":""},{"poiid":"B2094757D06AABFC4299","title":"大永和","lon":"121.485453054","lat":"31.406159793","category":"68","category_name":"快餐厅","address":"宝山区友谊路120号(近团结路)"}]