[{"poiid":"B2094655D36DA6FF499F","title":"海上国际影城(南桥百联店)","lon":"121.48177","lat":"30.91604","category":"178","category_name":"电影院","address":"近郊奉贤区南桥镇百齐路588号百联南桥购物中心4楼(近南桥汽车站)"},{"poiid":"B2094757D06FA3F8469D","title":"南桥汽车站","lon":"121.47966003","lat":"30.915561676","category":"35","category_name":"长途汽车站","address":"上海市奉贤区南奉公路(近沪金高速)"},{"poiid":"B2094757D068AAF9439F","title":"奉贤图书馆","lon":"121.475452781","lat":"30.9170988553","category":"181","category_name":"图书馆","address":"上海奉贤区解放东路889号"},{"poiid":"B2094654DB68A2F9499B","title":"老街绿地南桥新苑","lon":"121.47113","lat":"30.92874","category":"47","category_name":"住宅区","address":"上海市奉贤区环城东路885弄"},{"poiid":"B2094757D068A5FD469F","title":"易买得(南桥店)","lon":"121.467010321","lat":"30.9226883296","category":"118","category_name":"超级市场","address":"上海近郊奉贤区南桥镇环城东路891-921号"},{"poiid":"B2094757DA6AABFE4598","title":"好乐迪","lon":"121.479519","lat":"30.917919","category":"248","category_name":"生活娱乐","address":"南桥镇百齐路558号4F"},{"poiid":"B2094757D064A5FE459D","title":"翡翠国际广场","lon":"121.474159","lat":"30.918167","category":"500","category_name":"未知分类","address":"上海奉贤区解放东路1088号"},{"poiid":"B2094757D06AA2FF4699","title":"奉贤区会议中心","lon":"121.474132","lat":"30.918472","category":"500","category_name":"未知分类","address":"上海奉贤区南桥镇解放东路928号"},{"poiid":"B2094757D069A0FA489E","title":"乐购(奉贤金叶店)","lon":"121.469456535","lat":"30.912322381","category":"118","category_name":"超级市场","address":"近郊奉贤区环城东路1454-1468号(南奉公路口)"},{"poiid":"B2094757D069A1FA4093","title":"卜蜂莲花(南桥店)","lon":"121.47638","lat":"30.9145","category":"118","category_name":"超级市场","address":"近郊奉贤区南桥镇南奉公路8891号"},{"poiid":"B2094757D664AAFB469C","title":"上海美都大酒店 MEIDU HOTEL","lon":"121.46965836441802","lat":"30.92584379644889","category":"76","category_name":"上海菜","address":"近郊奉贤区南桥镇运河北路155号(近环城东路、高洲路、S4高速南桥出口)"},{"poiid":"B2094757D76BA1FA439D","title":"爱茜茜里 南郊百联店 ICEASON","lon":"121.473639054","lat":"30.914233793","category":"67","category_name":"甜品店","address":"近郊奉贤区南桥镇百齐路588号百联南郊购物中心1楼"},{"poiid":"B2094757D064A6FD419C","title":"呷哺呷哺(奉贤乐购南桥店)","lon":"121.4699019","lat":"30.9126736","category":"86","category_name":"火锅店","address":"近郊奉贤区环城东路1454-1468号S21铺位(近莘庄地铁站)"},{"poiid":"B2094655D36CA0F4499D","title":"环城东路解放路","lon":"121.46882","lat":"30.91589","category":"38","category_name":"公交车站","address":""},{"poiid":"B2094750DB65A1FF449B","title":"韩果汗蒸","lon":"121.478309","lat":"30.911874","category":"148","category_name":"美容美发店","address":null},{"poiid":"B2094654DB68A5FA429C","title":"豪享来上海南桥店","lon":"121.469","lat":"30.917","category":"247","category_name":"餐饮美食","address":"奉贤区南奉路9269号苏宁电器南桥店"},{"poiid":"B2094757DA69A2FF4293","title":"添麗私房菜","lon":"121.47259456398","lat":"30.917800115575","category":"95","category_name":"日本料理","address":"近郊奉贤解放东路1018弄绿地翡翠国际广场2号楼19号(近翡翠公馆)"},{"poiid":"B2094757D465A4FA479D","title":"韩林炭烤 （百联南桥店）","lon":"121.473706","lat":"30.914175","category":"247","category_name":"餐饮美食","address":"百齐路288号百联南桥购物中心二期4楼近南奉公路"},{"poiid":"B2094757D16CA1FA489F","title":"奉贤广播电视台","lon":"121.47657775","lat":"30.918563842","category":"59","category_name":"电视台","address":"上海奉贤区解放东路666号"},{"poiid":"B2094654DB68A2FC429B","title":"万龙新村","lon":"121.47294","lat":"30.9208","category":"47","category_name":"住宅区","address":"上海市 上海市奉贤区南桥新建东路"},{"poiid":"B2094654DB68A2FC4299","title":"上海市奉贤区华亭学校","lon":"121.47238","lat":"30.91956","category":"56","category_name":"小学","address":""},{"poiid":"B2094757D469A7F54892","title":"郭记小厨","lon":"121.47767","lat":"30.91726","category":"76","category_name":"上海菜","address":"近郊奉贤区南桥镇南奉公路8889弄61-75号(近易初莲花)"},{"poiid":"B2094757D065AAFA4999","title":"甜蜜蜜(南桥二店)","lon":"121.47451476","lat":"30.91413988","category":"67","category_name":"甜品店","address":"近郊南奉公路8891号(近易初莲花)"},{"poiid":"B2094750D568A3FA4492","title":"肯德基(南奉公路店)","lon":"121.476","lat":"30.9147","category":"68","category_name":"快餐厅","address":"近郊奉贤区南奉公路8889号"},{"poiid":"B2094757D568A1F8449C","title":"绿地智尊","lon":"121.471085129","lat":"30.929179517027","category":"46","category_name":"楼宇","address":"上海市奉贤区环城东路455,465弄"},{"poiid":"B2094751DA6FA0FF469B","title":"星巴克","lon":"121.48062","lat":"30.916847","category":"247","category_name":"餐饮美食","address":"南桥百联内"},{"poiid":"B2094654DB68A2FC429E","title":"上海市奉贤行政学院","lon":"121.47364","lat":"30.91913","category":"52","category_name":"高等院校","address":""},{"poiid":"B2094655D26FA4FB439C","title":"上海市奉贤行政学院(南门)","lon":"121.47427","lat":"30.9192","category":"52","category_name":"高等院校","address":""},{"poiid":"B2094655D26FA4FB4398","title":"万龙新村(南门)","lon":"121.4729","lat":"30.92044","category":"47","category_name":"住宅区","address":"新建东路388"},{"poiid":"B2094757D568A4F8469B","title":"奉贤汽车站","lon":"121.47398","lat":"30.91775","category":"35","category_name":"长途汽车站","address":"南奉公路8771号"},{"poiid":"B2094654DB68A2FD419D","title":"福建沙县小吃(新建东路)","lon":"121.47233","lat":"30.92034","category":"68","category_name":"快餐厅","address":"新建东路412"},{"poiid":"B2094654DB6FAAF4459C","title":"信息大楼","lon":"121.47415","lat":"30.9171","category":"46","category_name":"楼宇","address":"解放东路169号"},{"poiid":"B209475DD269A1FD489C","title":"星巴克（南桥新都汇店）","lon":"121.470985","lat":"30.921203","category":"500","category_name":"未知分类","address":"上海市 上海市奉贤区南桥镇环城东路新都汇东侧"},{"poiid":"B2094654DB6FAAF4499B","title":"南桥车站","lon":"121.47953","lat":"30.91489","category":"35","category_name":"长途汽车站","address":"南奉公路"},{"poiid":"B2094750DA6CABFF429C","title":"欧玫亚健身中心","lon":"121.473739","lat":"30.918731","category":"220","category_name":"运动场所","address":null},{"poiid":"B2094655D36CA6FF499D","title":"奉贤电视台","lon":"121.47654","lat":"30.91796","category":"38","category_name":"公交车站","address":""},{"poiid":"B2094654DB64A7FE4798","title":"肯德基(南桥·环城东路)","lon":"121.46951","lat":"30.91241","category":"68","category_name":"快餐厅","address":""},{"poiid":"B2094655D268A6FD4492","title":"科技大楼","lon":"121.47649","lat":"30.91747","category":"46","category_name":"楼宇","address":"解放东路871"},{"poiid":"B2094757DA6BAAFA4099","title":"奉贤绿地翡翠国际广场","lon":"121.47068","lat":"30.918168","category":"252","category_name":"楼宇机构","address":"上海市奉贤区南桥镇南桥新城"},{"poiid":"B2094655D26DA6FD479A","title":"华龙公寓(解放东路)","lon":"121.47874","lat":"30.91744","category":"47","category_name":"住宅区","address":"解放东路9号"},{"poiid":"B2094757D06AA2F84698","title":"驾驶员体检中心","lon":"121.47274625","lat":"30.917119583","category":"46","category_name":"楼宇","address":"上海解放东路181号"},{"poiid":"B2094654DB68A2FC4292","title":"奉贤有线电视中心","lon":"121.47657","lat":"30.91855","category":"59","category_name":"电视台","address":"解放东路116"},{"poiid":"B2094757D16DA2F8429E","title":"奉贤区牙病防治所","lon":"121.468368","lat":"30.913527","category":"500","category_name":"未知分类","address":"上海南奉公路9198号"},{"poiid":"B2094654DB64A6F5449D","title":"集集小镇(奉贤二店)","lon":"121.4761","lat":"30.91481","category":"87","category_name":"特色／地方风味餐厅","address":"近郊奉贤区南奉公路8891号卜蜂莲花(近克莉丝汀)"},{"poiid":"B2094655D36CA2FC4298","title":"南郊名墅","lon":"121.478","lat":"30.925","category":"47","category_name":"住宅区","address":"奉贤展园路300弄"},{"poiid":"B2094654DB68A2FC4593","title":"良友古华区","lon":"121.475","lat":"30.9246","category":"47","category_name":"住宅区","address":"南桥环城东路"},{"poiid":"B2094655D265A7F8469B","title":"海湾渔人码头","lon":"121.47414","lat":"30.91848","category":"208","category_name":"休闲场所","address":"南桥镇解放东路168号"},{"poiid":"B2094654DB6FAAF44592","title":"奉贤区疾病预防控制中心","lon":"121.47321","lat":"30.91695","category":"162","category_name":"医院","address":"近郊奉贤南桥镇解放东路181号奉贤区疾病预防控制中心内(建贤路解放东路)"},{"poiid":"B2094757D16EA6F5449C","title":"利都新概念桌球","lon":"121.481499216","lat":"30.9185366145","category":"500","category_name":"未知分类","address":"上海南桥好乐迪旁"},{"poiid":"B2094655D268A7FA4893","title":"绿地方舟商务楼","lon":"121.4662","lat":"30.92573","category":"46","category_name":"楼宇","address":"运河北路258"},{"poiid":"B2094655D36DA6FF499F","title":"海上国际影城(南桥百联店)","lon":"121.48177","lat":"30.91604","category":"178","category_name":"电影院","address":"近郊奉贤区南桥镇百齐路588号百联南桥购物中心4楼(近南桥汽车站)"},{"poiid":"B2094757D06FA3F8469D","title":"南桥汽车站","lon":"121.47966003","lat":"30.915561676","category":"35","category_name":"长途汽车站","address":"上海市奉贤区南奉公路(近沪金高速)"},{"poiid":"B2094757D068AAF9439F","title":"奉贤图书馆","lon":"121.475452781","lat":"30.9170988553","category":"181","category_name":"图书馆","address":"上海奉贤区解放东路889号"},{"poiid":"B2094654DB68A2F9499B","title":"老街绿地南桥新苑","lon":"121.47113","lat":"30.92874","category":"47","category_name":"住宅区","address":"上海市奉贤区环城东路885弄"},{"poiid":"B2094757D068A5FD469F","title":"易买得(南桥店)","lon":"121.467010321","lat":"30.9226883296","category":"118","category_name":"超级市场","address":"上海近郊奉贤区南桥镇环城东路891-921号"},{"poiid":"B2094757DA6AABFE4598","title":"好乐迪","lon":"121.479519","lat":"30.917919","category":"248","category_name":"生活娱乐","address":"南桥镇百齐路558号4F"},{"poiid":"B2094757D064A5FE459D","title":"翡翠国际广场","lon":"121.474159","lat":"30.918167","category":"500","category_name":"未知分类","address":"上海奉贤区解放东路1088号"},{"poiid":"B2094757D06AA2FF4699","title":"奉贤区会议中心","lon":"121.474132","lat":"30.918472","category":"500","category_name":"未知分类","address":"上海奉贤区南桥镇解放东路928号"},{"poiid":"B2094757D069A0FA489E","title":"乐购(奉贤金叶店)","lon":"121.469456535","lat":"30.912322381","category":"118","category_name":"超级市场","address":"近郊奉贤区环城东路1454-1468号(南奉公路口)"},{"poiid":"B2094757D069A1FA4093","title":"卜蜂莲花(南桥店)","lon":"121.47638","lat":"30.9145","category":"118","category_name":"超级市场","address":"近郊奉贤区南桥镇南奉公路8891号"},{"poiid":"B2094757D664AAFB469C","title":"上海美都大酒店 MEIDU HOTEL","lon":"121.46965836441802","lat":"30.92584379644889","category":"76","category_name":"上海菜","address":"近郊奉贤区南桥镇运河北路155号(近环城东路、高洲路、S4高速南桥出口)"},{"poiid":"B2094757D76BA1FA439D","title":"爱茜茜里 南郊百联店 ICEASON","lon":"121.473639054","lat":"30.914233793","category":"67","category_name":"甜品店","address":"近郊奉贤区南桥镇百齐路588号百联南郊购物中心1楼"},{"poiid":"B2094757D064A6FD419C","title":"呷哺呷哺(奉贤乐购南桥店)","lon":"121.4699019","lat":"30.9126736","category":"86","category_name":"火锅店","address":"近郊奉贤区环城东路1454-1468号S21铺位(近莘庄地铁站)"},{"poiid":"B2094655D36CA0F4499D","title":"环城东路解放路","lon":"121.46882","lat":"30.91589","category":"38","category_name":"公交车站","address":""},{"poiid":"B2094750DB65A1FF449B","title":"韩果汗蒸","lon":"121.478309","lat":"30.911874","category":"148","category_name":"美容美发店","address":null},{"poiid":"B2094654DB68A5FA429C","title":"豪享来上海南桥店","lon":"121.469","lat":"30.917","category":"247","category_name":"餐饮美食","address":"奉贤区南奉路9269号苏宁电器南桥店"},{"poiid":"B2094757DA69A2FF4293","title":"添麗私房菜","lon":"121.47259456398","lat":"30.917800115575","category":"95","category_name":"日本料理","address":"近郊奉贤解放东路1018弄绿地翡翠国际广场2号楼19号(近翡翠公馆)"},{"poiid":"B2094757D465A4FA479D","title":"韩林炭烤 （百联南桥店）","lon":"121.473706","lat":"30.914175","category":"247","category_name":"餐饮美食","address":"百齐路288号百联南桥购物中心二期4楼近南奉公路"},{"poiid":"B2094757D16CA1FA489F","title":"奉贤广播电视台","lon":"121.47657775","lat":"30.918563842","category":"59","category_name":"电视台","address":"上海奉贤区解放东路666号"},{"poiid":"B2094654DB68A2FC429B","title":"万龙新村","lon":"121.47294","lat":"30.9208","category":"47","category_name":"住宅区","address":"上海市 上海市奉贤区南桥新建东路"},{"poiid":"B2094654DB68A2FC4299","title":"上海市奉贤区华亭学校","lon":"121.47238","lat":"30.91956","category":"56","category_name":"小学","address":""},{"poiid":"B2094757D469A7F54892","title":"郭记小厨","lon":"121.47767","lat":"30.91726","category":"76","category_name":"上海菜","address":"近郊奉贤区南桥镇南奉公路8889弄61-75号(近易初莲花)"},{"poiid":"B2094757D065AAFA4999","title":"甜蜜蜜(南桥二店)","lon":"121.47451476","lat":"30.91413988","category":"67","category_name":"甜品店","address":"近郊南奉公路8891号(近易初莲花)"},{"poiid":"B2094750D568A3FA4492","title":"肯德基(南奉公路店)","lon":"121.476","lat":"30.9147","category":"68","category_name":"快餐厅","address":"近郊奉贤区南奉公路8889号"},{"poiid":"B2094757D568A1F8449C","title":"绿地智尊","lon":"121.471085129","lat":"30.929179517027","category":"46","category_name":"楼宇","address":"上海市奉贤区环城东路455,465弄"},{"poiid":"B2094751DA6FA0FF469B","title":"星巴克","lon":"121.48062","lat":"30.916847","category":"247","category_name":"餐饮美食","address":"南桥百联内"},{"poiid":"B2094654DB68A2FC429E","title":"上海市奉贤行政学院","lon":"121.47364","lat":"30.91913","category":"52","category_name":"高等院校","address":""},{"poiid":"B2094655D26FA4FB439C","title":"上海市奉贤行政学院(南门)","lon":"121.47427","lat":"30.9192","category":"52","category_name":"高等院校","address":""},{"poiid":"B2094655D26FA4FB4398","title":"万龙新村(南门)","lon":"121.4729","lat":"30.92044","category":"47","category_name":"住宅区","address":"新建东路388"},{"poiid":"B2094757D568A4F8469B","title":"奉贤汽车站","lon":"121.47398","lat":"30.91775","category":"35","category_name":"长途汽车站","address":"南奉公路8771号"},{"poiid":"B2094654DB68A2FD419D","title":"福建沙县小吃(新建东路)","lon":"121.47233","lat":"30.92034","category":"68","category_name":"快餐厅","address":"新建东路412"},{"poiid":"B2094654DB6FAAF4459C","title":"信息大楼","lon":"121.47415","lat":"30.9171","category":"46","category_name":"楼宇","address":"解放东路169号"},{"poiid":"B209475DD269A1FD489C","title":"星巴克（南桥新都汇店）","lon":"121.470985","lat":"30.921203","category":"500","category_name":"未知分类","address":"上海市 上海市奉贤区南桥镇环城东路新都汇东侧"},{"poiid":"B2094654DB6FAAF4499B","title":"南桥车站","lon":"121.47953","lat":"30.91489","category":"35","category_name":"长途汽车站","address":"南奉公路"},{"poiid":"B2094750DA6CABFF429C","title":"欧玫亚健身中心","lon":"121.473739","lat":"30.918731","category":"220","category_name":"运动场所","address":null},{"poiid":"B2094655D36CA6FF499D","title":"奉贤电视台","lon":"121.47654","lat":"30.91796","category":"38","category_name":"公交车站","address":""},{"poiid":"B2094654DB64A7FE4798","title":"肯德基(南桥·环城东路)","lon":"121.46951","lat":"30.91241","category":"68","category_name":"快餐厅","address":""},{"poiid":"B2094655D268A6FD4492","title":"科技大楼","lon":"121.47649","lat":"30.91747","category":"46","category_name":"楼宇","address":"解放东路871"},{"poiid":"B2094757DA6BAAFA4099","title":"奉贤绿地翡翠国际广场","lon":"121.47068","lat":"30.918168","category":"252","category_name":"楼宇机构","address":"上海市奉贤区南桥镇南桥新城"},{"poiid":"B2094655D26DA6FD479A","title":"华龙公寓(解放东路)","lon":"121.47874","lat":"30.91744","category":"47","category_name":"住宅区","address":"解放东路9号"},{"poiid":"B2094757D06AA2F84698","title":"驾驶员体检中心","lon":"121.47274625","lat":"30.917119583","category":"46","category_name":"楼宇","address":"上海解放东路181号"},{"poiid":"B2094654DB68A2FC4292","title":"奉贤有线电视中心","lon":"121.47657","lat":"30.91855","category":"59","category_name":"电视台","address":"解放东路116"},{"poiid":"B2094757D16DA2F8429E","title":"奉贤区牙病防治所","lon":"121.468368","lat":"30.913527","category":"500","category_name":"未知分类","address":"上海南奉公路9198号"},{"poiid":"B2094654DB64A6F5449D","title":"集集小镇(奉贤二店)","lon":"121.4761","lat":"30.91481","category":"87","category_name":"特色／地方风味餐厅","address":"近郊奉贤区南奉公路8891号卜蜂莲花(近克莉丝汀)"},{"poiid":"B2094655D36CA2FC4298","title":"南郊名墅","lon":"121.478","lat":"30.925","category":"47","category_name":"住宅区","address":"奉贤展园路300弄"},{"poiid":"B2094654DB68A2FC4593","title":"良友古华区","lon":"121.475","lat":"30.9246","category":"47","category_name":"住宅区","address":"南桥环城东路"},{"poiid":"B2094655D265A7F8469B","title":"海湾渔人码头","lon":"121.47414","lat":"30.91848","category":"208","category_name":"休闲场所","address":"南桥镇解放东路168号"},{"poiid":"B2094654DB6FAAF44592","title":"奉贤区疾病预防控制中心","lon":"121.47321","lat":"30.91695","category":"162","category_name":"医院","address":"近郊奉贤南桥镇解放东路181号奉贤区疾病预防控制中心内(建贤路解放东路)"},{"poiid":"B2094757D16EA6F5449C","title":"利都新概念桌球","lon":"121.481499216","lat":"30.9185366145","category":"500","category_name":"未知分类","address":"上海南桥好乐迪旁"},{"poiid":"B2094655D268A7FA4893","title":"绿地方舟商务楼","lon":"121.4662","lat":"30.92573","category":"46","category_name":"楼宇","address":"运河北路258"},{"poiid":"B2094655D36DA6FF499F","title":"海上国际影城(南桥百联店)","lon":"121.48177","lat":"30.91604","category":"178","category_name":"电影院","address":"近郊奉贤区南桥镇百齐路588号百联南桥购物中心4楼(近南桥汽车站)"},{"poiid":"B2094757D06FA3F8469D","title":"南桥汽车站","lon":"121.47966003","lat":"30.915561676","category":"35","category_name":"长途汽车站","address":"上海市奉贤区南奉公路(近沪金高速)"},{"poiid":"B2094757D068AAF9439F","title":"奉贤图书馆","lon":"121.475452781","lat":"30.9170988553","category":"181","category_name":"图书馆","address":"上海奉贤区解放东路889号"},{"poiid":"B2094654DB68A2F9499B","title":"老街绿地南桥新苑","lon":"121.47113","lat":"30.92874","category":"47","category_name":"住宅区","address":"上海市奉贤区环城东路885弄"},{"poiid":"B2094757D068A5FD469F","title":"易买得(南桥店)","lon":"121.467010321","lat":"30.9226883296","category":"118","category_name":"超级市场","address":"上海近郊奉贤区南桥镇环城东路891-921号"},{"poiid":"B2094757DA6AABFE4598","title":"好乐迪","lon":"121.479519","lat":"30.917919","category":"248","category_name":"生活娱乐","address":"南桥镇百齐路558号4F"},{"poiid":"B2094757D064A5FE459D","title":"翡翠国际广场","lon":"121.474159","lat":"30.918167","category":"500","category_name":"未知分类","address":"上海奉贤区解放东路1088号"},{"poiid":"B2094757D06AA2FF4699","title":"奉贤区会议中心","lon":"121.474132","lat":"30.918472","category":"500","category_name":"未知分类","address":"上海奉贤区南桥镇解放东路928号"},{"poiid":"B2094757D069A0FA489E","title":"乐购(奉贤金叶店)","lon":"121.469456535","lat":"30.912322381","category":"118","category_name":"超级市场","address":"近郊奉贤区环城东路1454-1468号(南奉公路口)"},{"poiid":"B2094757D069A1FA4093","title":"卜蜂莲花(南桥店)","lon":"121.47638","lat":"30.9145","category":"118","category_name":"超级市场","address":"近郊奉贤区南桥镇南奉公路8891号"},{"poiid":"B2094757D664AAFB469C","title":"上海美都大酒店 MEIDU HOTEL","lon":"121.46965836441802","lat":"30.92584379644889","category":"76","category_name":"上海菜","address":"近郊奉贤区南桥镇运河北路155号(近环城东路、高洲路、S4高速南桥出口)"},{"poiid":"B2094757D76BA1FA439D","title":"爱茜茜里 南郊百联店 ICEASON","lon":"121.473639054","lat":"30.914233793","category":"67","category_name":"甜品店","address":"近郊奉贤区南桥镇百齐路588号百联南郊购物中心1楼"},{"poiid":"B2094757D064A6FD419C","title":"呷哺呷哺(奉贤乐购南桥店)","lon":"121.4699019","lat":"30.9126736","category":"86","category_name":"火锅店","address":"近郊奉贤区环城东路1454-1468号S21铺位(近莘庄地铁站)"},{"poiid":"B2094655D36CA0F4499D","title":"环城东路解放路","lon":"121.46882","lat":"30.91589","category":"38","category_name":"公交车站","address":""},{"poiid":"B2094750DB65A1FF449B","title":"韩果汗蒸","lon":"121.478309","lat":"30.911874","category":"148","category_name":"美容美发店","address":null},{"poiid":"B2094654DB68A5FA429C","title":"豪享来上海南桥店","lon":"121.469","lat":"30.917","category":"247","category_name":"餐饮美食","address":"奉贤区南奉路9269号苏宁电器南桥店"},{"poiid":"B2094757DA69A2FF4293","title":"添麗私房菜","lon":"121.47259456398","lat":"30.917800115575","category":"95","category_name":"日本料理","address":"近郊奉贤解放东路1018弄绿地翡翠国际广场2号楼19号(近翡翠公馆)"},{"poiid":"B2094757D465A4FA479D","title":"韩林炭烤 （百联南桥店）","lon":"121.473706","lat":"30.914175","category":"247","category_name":"餐饮美食","address":"百齐路288号百联南桥购物中心二期4楼近南奉公路"},{"poiid":"B2094757D16CA1FA489F","title":"奉贤广播电视台","lon":"121.47657775","lat":"30.918563842","category":"59","category_name":"电视台","address":"上海奉贤区解放东路666号"},{"poiid":"B2094654DB68A2FC429B","title":"万龙新村","lon":"121.47294","lat":"30.9208","category":"47","category_name":"住宅区","address":"上海市 上海市奉贤区南桥新建东路"},{"poiid":"B2094654DB68A2FC4299","title":"上海市奉贤区华亭学校","lon":"121.47238","lat":"30.91956","category":"56","category_name":"小学","address":""},{"poiid":"B2094757D469A7F54892","title":"郭记小厨","lon":"121.47767","lat":"30.91726","category":"76","category_name":"上海菜","address":"近郊奉贤区南桥镇南奉公路8889弄61-75号(近易初莲花)"},{"poiid":"B2094757D065AAFA4999","title":"甜蜜蜜(南桥二店)","lon":"121.47451476","lat":"30.91413988","category":"67","category_name":"甜品店","address":"近郊南奉公路8891号(近易初莲花)"},{"poiid":"B2094750D568A3FA4492","title":"肯德基(南奉公路店)","lon":"121.476","lat":"30.9147","category":"68","category_name":"快餐厅","address":"近郊奉贤区南奉公路8889号"},{"poiid":"B2094757D568A1F8449C","title":"绿地智尊","lon":"121.471085129","lat":"30.929179517027","category":"46","category_name":"楼宇","address":"上海市奉贤区环城东路455,465弄"},{"poiid":"B2094751DA6FA0FF469B","title":"星巴克","lon":"121.48062","lat":"30.916847","category":"247","category_name":"餐饮美食","address":"南桥百联内"},{"poiid":"B2094654DB68A2FC429E","title":"上海市奉贤行政学院","lon":"121.47364","lat":"30.91913","category":"52","category_name":"高等院校","address":""},{"poiid":"B2094655D26FA4FB439C","title":"上海市奉贤行政学院(南门)","lon":"121.47427","lat":"30.9192","category":"52","category_name":"高等院校","address":""},{"poiid":"B2094655D26FA4FB4398","title":"万龙新村(南门)","lon":"121.4729","lat":"30.92044","category":"47","category_name":"住宅区","address":"新建东路388"},{"poiid":"B2094757D568A4F8469B","title":"奉贤汽车站","lon":"121.47398","lat":"30.91775","category":"35","category_name":"长途汽车站","address":"南奉公路8771号"},{"poiid":"B2094654DB68A2FD419D","title":"福建沙县小吃(新建东路)","lon":"121.47233","lat":"30.92034","category":"68","category_name":"快餐厅","address":"新建东路412"},{"poiid":"B2094654DB6FAAF4459C","title":"信息大楼","lon":"121.47415","lat":"30.9171","category":"46","category_name":"楼宇","address":"解放东路169号"},{"poiid":"B209475DD269A1FD489C","title":"星巴克（南桥新都汇店）","lon":"121.470985","lat":"30.921203","category":"500","category_name":"未知分类","address":"上海市 上海市奉贤区南桥镇环城东路新都汇东侧"},{"poiid":"B2094654DB6FAAF4499B","title":"南桥车站","lon":"121.47953","lat":"30.91489","category":"35","category_name":"长途汽车站","address":"南奉公路"},{"poiid":"B2094750DA6CABFF429C","title":"欧玫亚健身中心","lon":"121.473739","lat":"30.918731","category":"220","category_name":"运动场所","address":null},{"poiid":"B2094655D36CA6FF499D","title":"奉贤电视台","lon":"121.47654","lat":"30.91796","category":"38","category_name":"公交车站","address":""},{"poiid":"B2094654DB64A7FE4798","title":"肯德基(南桥·环城东路)","lon":"121.46951","lat":"30.91241","category":"68","category_name":"快餐厅","address":""},{"poiid":"B2094655D268A6FD4492","title":"科技大楼","lon":"121.47649","lat":"30.91747","category":"46","category_name":"楼宇","address":"解放东路871"},{"poiid":"B2094757DA6BAAFA4099","title":"奉贤绿地翡翠国际广场","lon":"121.47068","lat":"30.918168","category":"252","category_name":"楼宇机构","address":"上海市奉贤区南桥镇南桥新城"},{"poiid":"B2094655D26DA6FD479A","title":"华龙公寓(解放东路)","lon":"121.47874","lat":"30.91744","category":"47","category_name":"住宅区","address":"解放东路9号"},{"poiid":"B2094757D06AA2F84698","title":"驾驶员体检中心","lon":"121.47274625","lat":"30.917119583","category":"46","category_name":"楼宇","address":"上海解放东路181号"},{"poiid":"B2094654DB68A2FC4292","title":"奉贤有线电视中心","lon":"121.47657","lat":"30.91855","category":"59","category_name":"电视台","address":"解放东路116"},{"poiid":"B2094757D16DA2F8429E","title":"奉贤区牙病防治所","lon":"121.468368","lat":"30.913527","category":"500","category_name":"未知分类","address":"上海南奉公路9198号"},{"poiid":"B2094654DB64A6F5449D","title":"集集小镇(奉贤二店)","lon":"121.4761","lat":"30.91481","category":"87","category_name":"特色／地方风味餐厅","address":"近郊奉贤区南奉公路8891号卜蜂莲花(近克莉丝汀)"},{"poiid":"B2094655D36CA2FC4298","title":"南郊名墅","lon":"121.478","lat":"30.925","category":"47","category_name":"住宅区","address":"奉贤展园路300弄"},{"poiid":"B2094654DB68A2FC4593","title":"良友古华区","lon":"121.475","lat":"30.9246","category":"47","category_name":"住宅区","address":"南桥环城东路"},{"poiid":"B2094655D265A7F8469B","title":"海湾渔人码头","lon":"121.47414","lat":"30.91848","category":"208","category_name":"休闲场所","address":"南桥镇解放东路168号"},{"poiid":"B2094654DB6FAAF44592","title":"奉贤区疾病预防控制中心","lon":"121.47321","lat":"30.91695","category":"162","category_name":"医院","address":"近郊奉贤南桥镇解放东路181号奉贤区疾病预防控制中心内(建贤路解放东路)"},{"poiid":"B2094757D16EA6F5449C","title":"利都新概念桌球","lon":"121.481499216","lat":"30.9185366145","category":"500","category_name":"未知分类","address":"上海南桥好乐迪旁"},{"poiid":"B2094655D268A7FA4893","title":"绿地方舟商务楼","lon":"121.4662","lat":"30.92573","category":"46","category_name":"楼宇","address":"运河北路258"},{"poiid":"B2094655D36DA6FF499F","title":"海上国际影城(南桥百联店)","lon":"121.48177","lat":"30.91604","category":"178","category_name":"电影院","address":"近郊奉贤区南桥镇百齐路588号百联南桥购物中心4楼(近南桥汽车站)"},{"poiid":"B2094757D06FA3F8469D","title":"南桥汽车站","lon":"121.47966003","lat":"30.915561676","category":"35","category_name":"长途汽车站","address":"上海市奉贤区南奉公路(近沪金高速)"},{"poiid":"B2094757D068AAF9439F","title":"奉贤图书馆","lon":"121.475452781","lat":"30.9170988553","category":"181","category_name":"图书馆","address":"上海奉贤区解放东路889号"},{"poiid":"B2094654DB68A2F9499B","title":"老街绿地南桥新苑","lon":"121.47113","lat":"30.92874","category":"47","category_name":"住宅区","address":"上海市奉贤区环城东路885弄"},{"poiid":"B2094757D068A5FD469F","title":"易买得(南桥店)","lon":"121.467010321","lat":"30.9226883296","category":"118","category_name":"超级市场","address":"上海近郊奉贤区南桥镇环城东路891-921号"},{"poiid":"B2094757DA6AABFE4598","title":"好乐迪","lon":"121.479519","lat":"30.917919","category":"248","category_name":"生活娱乐","address":"南桥镇百齐路558号4F"},{"poiid":"B2094757D064A5FE459D","title":"翡翠国际广场","lon":"121.474159","lat":"30.918167","category":"500","category_name":"未知分类","address":"上海奉贤区解放东路1088号"},{"poiid":"B2094757D06AA2FF4699","title":"奉贤区会议中心","lon":"121.474132","lat":"30.918472","category":"500","category_name":"未知分类","address":"上海奉贤区南桥镇解放东路928号"},{"poiid":"B2094757D069A0FA489E","title":"乐购(奉贤金叶店)","lon":"121.469456535","lat":"30.912322381","category":"118","category_name":"超级市场","address":"近郊奉贤区环城东路1454-1468号(南奉公路口)"},{"poiid":"B2094757D069A1FA4093","title":"卜蜂莲花(南桥店)","lon":"121.47638","lat":"30.9145","category":"118","category_name":"超级市场","address":"近郊奉贤区南桥镇南奉公路8891号"},{"poiid":"B2094757D664AAFB469C","title":"上海美都大酒店 MEIDU HOTEL","lon":"121.46965836441802","lat":"30.92584379644889","category":"76","category_name":"上海菜","address":"近郊奉贤区南桥镇运河北路155号(近环城东路、高洲路、S4高速南桥出口)"},{"poiid":"B2094757D76BA1FA439D","title":"爱茜茜里 南郊百联店 ICEASON","lon":"121.473639054","lat":"30.914233793","category":"67","category_name":"甜品店","address":"近郊奉贤区南桥镇百齐路588号百联南郊购物中心1楼"},{"poiid":"B2094757D064A6FD419C","title":"呷哺呷哺(奉贤乐购南桥店)","lon":"121.4699019","lat":"30.9126736","category":"86","category_name":"火锅店","address":"近郊奉贤区环城东路1454-1468号S21铺位(近莘庄地铁站)"},{"poiid":"B2094655D36CA0F4499D","title":"环城东路解放路","lon":"121.46882","lat":"30.91589","category":"38","category_name":"公交车站","address":""},{"poiid":"B2094750DB65A1FF449B","title":"韩果汗蒸","lon":"121.478309","lat":"30.911874","category":"148","category_name":"美容美发店","address":null},{"poiid":"B2094654DB68A5FA429C","title":"豪享来上海南桥店","lon":"121.469","lat":"30.917","category":"247","category_name":"餐饮美食","address":"奉贤区南奉路9269号苏宁电器南桥店"},{"poiid":"B2094757DA69A2FF4293","title":"添麗私房菜","lon":"121.47259456398","lat":"30.917800115575","category":"95","category_name":"日本料理","address":"近郊奉贤解放东路1018弄绿地翡翠国际广场2号楼19号(近翡翠公馆)"},{"poiid":"B2094757D465A4FA479D","title":"韩林炭烤 （百联南桥店）","lon":"121.473706","lat":"30.914175","category":"247","category_name":"餐饮美食","address":"百齐路288号百联南桥购物中心二期4楼近南奉公路"},{"poiid":"B2094757D16CA1FA489F","title":"奉贤广播电视台","lon":"121.47657775","lat":"30.918563842","category":"59","category_name":"电视台","address":"上海奉贤区解放东路666号"},{"poiid":"B2094654DB68A2FC429B","title":"万龙新村","lon":"121.47294","lat":"30.9208","category":"47","category_name":"住宅区","address":"上海市 上海市奉贤区南桥新建东路"},{"poiid":"B2094654DB68A2FC4299","title":"上海市奉贤区华亭学校","lon":"121.47238","lat":"30.91956","category":"56","category_name":"小学","address":""},{"poiid":"B2094757D469A7F54892","title":"郭记小厨","lon":"121.47767","lat":"30.91726","category":"76","category_name":"上海菜","address":"近郊奉贤区南桥镇南奉公路8889弄61-75号(近易初莲花)"},{"poiid":"B2094757D065AAFA4999","title":"甜蜜蜜(南桥二店)","lon":"121.47451476","lat":"30.91413988","category":"67","category_name":"甜品店","address":"近郊南奉公路8891号(近易初莲花)"},{"poiid":"B2094750D568A3FA4492","title":"肯德基(南奉公路店)","lon":"121.476","lat":"30.9147","category":"68","category_name":"快餐厅","address":"近郊奉贤区南奉公路8889号"},{"poiid":"B2094757D568A1F8449C","title":"绿地智尊","lon":"121.471085129","lat":"30.929179517027","category":"46","category_name":"楼宇","address":"上海市奉贤区环城东路455,465弄"},{"poiid":"B2094751DA6FA0FF469B","title":"星巴克","lon":"121.48062","lat":"30.916847","category":"247","category_name":"餐饮美食","address":"南桥百联内"},{"poiid":"B2094654DB68A2FC429E","title":"上海市奉贤行政学院","lon":"121.47364","lat":"30.91913","category":"52","category_name":"高等院校","address":""},{"poiid":"B2094655D26FA4FB439C","title":"上海市奉贤行政学院(南门)","lon":"121.47427","lat":"30.9192","category":"52","category_name":"高等院校","address":""},{"poiid":"B2094655D26FA4FB4398","title":"万龙新村(南门)","lon":"121.4729","lat":"30.92044","category":"47","category_name":"住宅区","address":"新建东路388"},{"poiid":"B2094757D568A4F8469B","title":"奉贤汽车站","lon":"121.47398","lat":"30.91775","category":"35","category_name":"长途汽车站","address":"南奉公路8771号"},{"poiid":"B2094654DB68A2FD419D","title":"福建沙县小吃(新建东路)","lon":"121.47233","lat":"30.92034","category":"68","category_name":"快餐厅","address":"新建东路412"},{"poiid":"B2094654DB6FAAF4459C","title":"信息大楼","lon":"121.47415","lat":"30.9171","category":"46","category_name":"楼宇","address":"解放东路169号"},{"poiid":"B209475DD269A1FD489C","title":"星巴克（南桥新都汇店）","lon":"121.470985","lat":"30.921203","category":"500","category_name":"未知分类","address":"上海市 上海市奉贤区南桥镇环城东路新都汇东侧"},{"poiid":"B2094654DB6FAAF4499B","title":"南桥车站","lon":"121.47953","lat":"30.91489","category":"35","category_name":"长途汽车站","address":"南奉公路"},{"poiid":"B2094750DA6CABFF429C","title":"欧玫亚健身中心","lon":"121.473739","lat":"30.918731","category":"220","category_name":"运动场所","address":null},{"poiid":"B2094655D36CA6FF499D","title":"奉贤电视台","lon":"121.47654","lat":"30.91796","category":"38","category_name":"公交车站","address":""},{"poiid":"B2094654DB64A7FE4798","title":"肯德基(南桥·环城东路)","lon":"121.46951","lat":"30.91241","category":"68","category_name":"快餐厅","address":""},{"poiid":"B2094655D268A6FD4492","title":"科技大楼","lon":"121.47649","lat":"30.91747","category":"46","category_name":"楼宇","address":"解放东路871"},{"poiid":"B2094757DA6BAAFA4099","title":"奉贤绿地翡翠国际广场","lon":"121.47068","lat":"30.918168","category":"252","category_name":"楼宇机构","address":"上海市奉贤区南桥镇南桥新城"},{"poiid":"B2094655D26DA6FD479A","title":"华龙公寓(解放东路)","lon":"121.47874","lat":"30.91744","category":"47","category_name":"住宅区","address":"解放东路9号"},{"poiid":"B2094757D06AA2F84698","title":"驾驶员体检中心","lon":"121.47274625","lat":"30.917119583","category":"46","category_name":"楼宇","address":"上海解放东路181号"},{"poiid":"B2094654DB68A2FC4292","title":"奉贤有线电视中心","lon":"121.47657","lat":"30.91855","category":"59","category_name":"电视台","address":"解放东路116"},{"poiid":"B2094757D16DA2F8429E","title":"奉贤区牙病防治所","lon":"121.468368","lat":"30.913527","category":"500","category_name":"未知分类","address":"上海南奉公路9198号"},{"poiid":"B2094654DB64A6F5449D","title":"集集小镇(奉贤二店)","lon":"121.4761","lat":"30.91481","category":"87","category_name":"特色／地方风味餐厅","address":"近郊奉贤区南奉公路8891号卜蜂莲花(近克莉丝汀)"},{"poiid":"B2094655D36CA2FC4298","title":"南郊名墅","lon":"121.478","lat":"30.925","category":"47","category_name":"住宅区","address":"奉贤展园路300弄"},{"poiid":"B2094654DB68A2FC4593","title":"良友古华区","lon":"121.475","lat":"30.9246","category":"47","category_name":"住宅区","address":"南桥环城东路"},{"poiid":"B2094655D265A7F8469B","title":"海湾渔人码头","lon":"121.47414","lat":"30.91848","category":"208","category_name":"休闲场所","address":"南桥镇解放东路168号"},{"poiid":"B2094654DB6FAAF44592","title":"奉贤区疾病预防控制中心","lon":"121.47321","lat":"30.91695","category":"162","category_name":"医院","address":"近郊奉贤南桥镇解放东路181号奉贤区疾病预防控制中心内(建贤路解放东路)"},{"poiid":"B2094757D16EA6F5449C","title":"利都新概念桌球","lon":"121.481499216","lat":"30.9185366145","category":"500","category_name":"未知分类","address":"上海南桥好乐迪旁"},{"poiid":"B2094655D268A7FA4893","title":"绿地方舟商务楼","lon":"121.4662","lat":"30.92573","category":"46","category_name":"楼宇","address":"运河北路258"}]