[{"poiid":"B2094655D26FA5FE4299","title":"东华大学(延安西路校区)","lon":"121.41384","lat":"31.20653","category":"671","category_name":"高校中心点","address":"上海市长宁区延安西路1882号"},{"poiid":"B2094750D668A7FB439D","title":"纽斯桑拿会所","lon":"121.414176","lat":"31.209903","category":"248","category_name":"生活娱乐","address":"长宁区天山路1900号(近延安西路)"},{"poiid":"B2094654DB65A5F84793","title":"育音堂","lon":"121.41618","lat":"31.20858","category":"248","category_name":"生活娱乐","address":"长宁区凯旋路851号(凯旋路延安西路)"},{"poiid":"B2094750DB6BA2FA479E","title":"纽斯","lon":"121.414527","lat":"31.208843","category":"248","category_name":"生活娱乐","address":"天山路1900号"},{"poiid":"B2094750DB6CA0FE449A","title":"纽斯韩式汗蒸会所","lon":"121.411201","lat":"31.20803","category":"148","category_name":"美容美发店","address":null},{"poiid":"B2094752D76EA4F44698","title":"本家韩国料理","lon":"121.413605","lat":"31.209045","category":"247","category_name":"餐饮美食","address":"天山路1900号(近延安西路)"},{"poiid":"B2094757D06FA4FD489A","title":"天山公园","lon":"121.415716881","lat":"31.2089318765","category":"196","category_name":"公园","address":"长宁区延安西路1731号(近凯旋路)"},{"poiid":"B2094750D565A6FA459A","title":"New star","lon":"121.414184","lat":"31.209081","category":"248","category_name":"生活娱乐","address":"天山路延安西路"},{"poiid":"B2094757D06FA6FE419E","title":"延安路高架 凯旋路口","lon":"121.4167824","lat":"31.208085769","category":"500","category_name":"未知分类","address":"上海延安西路凯旋路"},{"poiid":"B2094757D068A5FF409C","title":"上海内环线高架路","lon":"121.412181378","lat":"31.2059787732","category":"260","category_name":"其他","address":"上海市内环线高架路"},{"poiid":"B2094655D36DA7F8489E","title":"中山西路天山路","lon":"121.41274","lat":"31.21002","category":"38","category_name":"公交车站","address":""},{"poiid":"B2094751D465A2F84193","title":"同一首歌KTV俱乐部（天山路店）","lon":"121.414139","lat":"31.208694","category":"248","category_name":"生活娱乐","address":"上海市长宁区天山路1900号"},{"poiid":"B2094757D068A6F44999","title":"佳佳母婴天地中山西路分部","lon":"121.41130058","lat":"31.208866013","category":"128","category_name":"儿童用品店","address":"上海市长宁区中山西路753号"},{"poiid":"B2094654DB65A3FC469F","title":"东华大学-莱佛士国际设计学院","lon":"121.4128","lat":"31.20497","category":"671","category_name":"高校中心点","address":"上海市长宁区延安西路1882号"},{"poiid":"B2094757D068A2FC409B","title":"东华大学图书馆(延安路校区)","lon":"121.414331897","lat":"31.2043352776","category":"253","category_name":"校园生活","address":"长宁区延安西路1882号东华大学内"},{"poiid":"B2094757D06FA0F9439B","title":"小城堡","lon":"121.414903","lat":"31.207477","category":"94","category_name":"西餐厅","address":"长宁区延安西路1794号(近天山路)"},{"poiid":"B2094750D565A6FB499D","title":"纽斯汗蒸","lon":"121.414192","lat":"31.209089","category":"249","category_name":"购物服务","address":"天山路77号"},{"poiid":"B2094757D069A5FD429F","title":"延安路高架西行长宁虹桥区","lon":"121.41423114","lat":"31.207561972","category":"500","category_name":"未知分类","address":"上海延安路高架"},{"poiid":"B2094757D068ABFB469F","title":"东华大学(延安路校区)二教","lon":"121.413879","lat":"31.206532","category":"253","category_name":"校园生活","address":"上海市长宁区延安西路1882号 东华大学 第二教学楼"},{"poiid":"B2094757D16EA4FD499F","title":"大风车私家菜馆(绿洲大厦店)","lon":"121.415989986","lat":"31.2079916961","category":"76","category_name":"上海菜","address":"上海长宁区中山西路555号绿洲大厦2楼，62861737，人均:60元"},{"poiid":"B2094757D06FA5F9429E","title":"中山西路立交","lon":"121.41245269","lat":"31.208242416","category":"500","category_name":"未知分类","address":"上海立交桥"},{"poiid":"B2094750D76DA6F4429D","title":"海福阁韩国料理","lon":"121.413","lat":"31.2069","category":"96","category_name":"韩国料理","address":"长宁区延安西路1750号(近天山路)"},{"poiid":"B2094752D769A2FE4092","title":"本家","lon":"121.412352","lat":"31.207938","category":"247","category_name":"餐饮美食","address":"天山路1900号(近延安西路)"},{"poiid":"B2094654DB65A4F44598","title":"上海东华大学(西门)","lon":"121.4137","lat":"31.20675","category":"52","category_name":"高等院校","address":"长宁区延安西路1882号"},{"poiid":"B2094757D568A5FA4999","title":"东华大学教学大楼","lon":"121.4138523","lat":"31.20652751","category":"52","category_name":"高等院校","address":"延安西路1882号"},{"poiid":"B2094757D068A7F44098","title":"东华大学一食堂","lon":"121.414841619","lat":"31.2058427558","category":"68","category_name":"快餐厅","address":"上海长宁区延安西路1882号"},{"poiid":"B2094750DA6FA2F94899","title":"纽斯（天山店）","lon":"121.414314","lat":"31.209098","category":"247","category_name":"餐饮美食","address":null},{"poiid":"B2094654DB69A0F44293","title":"东华大学旭日工商管理学院","lon":"121.41384","lat":"31.20653","category":"52","category_name":"高等院校","address":"长宁区延安西路1882号"},{"poiid":"B2094750DA69A3F44099","title":"纽斯spa会所","lon":"121.414466","lat":"31.209598","category":"148","category_name":"美容美发店","address":null},{"poiid":"B2094757D66CAAF4479F","title":"东华食府","lon":"121.414236586","lat":"31.2063949649","category":"247","category_name":"餐饮美食","address":"长宁区延安西路1882号东华大学食堂3楼"},{"poiid":"B2094654D564A7F8489A","title":"快客No.6753","lon":"121.41424","lat":"31.20716","category":"117","category_name":"便民商店/便利店","address":"天山路"},{"poiid":"B2094753D76BA6F4449D","title":"龙之梦","lon":"121.413009","lat":"31.207212","category":"500","category_name":"未知分类","address":"上海市 中山公园"},{"poiid":"B2094757D66FA3F8489D","title":"東華大學","lon":"121.41400658","lat":"31.205343944","category":"671","category_name":"高校中心点","address":"上海市长宁区紫云路"},{"poiid":"B2094655D268ABFF4092","title":"内环延安西路立交桥","lon":"121.41219","lat":"31.20563","category":"250","category_name":"公园户外","address":""},{"poiid":"B2094750DA6AA2F9489B","title":"newstar","lon":"121.414466","lat":"31.209535","category":"248","category_name":"生活娱乐","address":"天山路1900号"},{"poiid":"B2094753D56EAAFE459A","title":"上海虹桥机场","lon":"121.413261","lat":"31.207372","category":"500","category_name":"未知分类","address":"上海市 海宁区紫云路"},{"poiid":"B209475DD46EAAFB419E","title":"PETIT GEORGE CAFE","lon":"121.415","lat":"31.207813","category":"247","category_name":"餐饮美食","address":"上海市 延安西路1794号"},{"poiid":"B2094757D169ABFD469F","title":"东华大学6宿","lon":"121.413458886","lat":"31.206909575","category":"500","category_name":"未知分类","address":null},{"poiid":"B2094751D26BA7FB499A","title":"v2 club","lon":"121.4135524","lat":"31.2061227","category":"248","category_name":"生活娱乐","address":"长宁区凯旋路1140号2楼(近杨宅路)"},{"poiid":"B2094757D169A4FB419E","title":"coco(东华大学店)","lon":"121.412034586","lat":"31.2073999846","category":"87","category_name":"特色／地方风味餐厅","address":"浦东新区天山路东华大学附近(近延安西路)"},{"poiid":"B2094751D56FA5FD4798","title":"New star纽斯","lon":"121.413927","lat":"31.20865","category":"500","category_name":"未知分类","address":null},{"poiid":"B2094757D66CA1F5499B","title":"东华大学第一食堂","lon":"121.41389753","lat":"31.206369619","category":"500","category_name":"未知分类","address":"上海长宁区延安西路1882号东华大学延安路校区"},{"poiid":"B2094757D06FAAF4409E","title":"延安路高架外灘方向","lon":"121.413614","lat":"31.20365","category":"500","category_name":"未知分类","address":"上海延安路"},{"poiid":"B2094757D06BA7FD4592","title":"莱佛士国际设计学院D楼","lon":"121.413847","lat":"31.206528","category":"500","category_name":"未知分类","address":"上海市延安西路1882号东华大学内"},{"poiid":"B2094753D46BA4F5439A","title":"南小馆","lon":"121.413879","lat":"31.205633","category":"247","category_name":"餐饮美食","address":"上海市 尚嘉中心地下2层A-003"},{"poiid":"B2094757D16BA3FE419A","title":"天山路1800号","lon":"121.414791586","lat":"31.207729991","category":"500","category_name":"未知分类","address":"上海天山路1800号"},{"poiid":"B2094753D464A7FD4098","title":"南小馆","lon":"121.412155","lat":"31.205631","category":"247","category_name":"餐饮美食","address":"上海市 尚嘉中心"},{"poiid":"B2094753D569ABFD439C","title":"鸟心","lon":"121.411972","lat":"31.205631","category":"500","category_name":"未知分类","address":"上海市 仙霞路99号尚嘉中心B2楼"},{"poiid":"B2094750DA6EA6FF4798","title":"纽斯汗蒸馆","lon":"121.415504","lat":"31.208059","category":"248","category_name":"生活娱乐","address":"长宁路1900号"},{"poiid":"B2094655D26FA6FA429C","title":"延西小区","lon":"121.41643","lat":"31.207539","category":"47","category_name":"住宅区","address":"上海延安西路1740弄"},{"poiid":"B2094655D26FA5FE4299","title":"东华大学(延安西路校区)","lon":"121.41384","lat":"31.20653","category":"671","category_name":"高校中心点","address":"上海市长宁区延安西路1882号"},{"poiid":"B2094750D668A7FB439D","title":"纽斯桑拿会所","lon":"121.414176","lat":"31.209903","category":"248","category_name":"生活娱乐","address":"长宁区天山路1900号(近延安西路)"},{"poiid":"B2094654DB65A5F84793","title":"育音堂","lon":"121.41618","lat":"31.20858","category":"248","category_name":"生活娱乐","address":"长宁区凯旋路851号(凯旋路延安西路)"},{"poiid":"B2094750DB6BA2FA479E","title":"纽斯","lon":"121.414527","lat":"31.208843","category":"248","category_name":"生活娱乐","address":"天山路1900号"},{"poiid":"B2094750DB6CA0FE449A","title":"纽斯韩式汗蒸会所","lon":"121.411201","lat":"31.20803","category":"148","category_name":"美容美发店","address":null},{"poiid":"B2094752D76EA4F44698","title":"本家韩国料理","lon":"121.413605","lat":"31.209045","category":"247","category_name":"餐饮美食","address":"天山路1900号(近延安西路)"},{"poiid":"B2094757D06FA4FD489A","title":"天山公园","lon":"121.415716881","lat":"31.2089318765","category":"196","category_name":"公园","address":"长宁区延安西路1731号(近凯旋路)"},{"poiid":"B2094750D565A6FA459A","title":"New star","lon":"121.414184","lat":"31.209081","category":"248","category_name":"生活娱乐","address":"天山路延安西路"},{"poiid":"B2094757D06FA6FE419E","title":"延安路高架 凯旋路口","lon":"121.4167824","lat":"31.208085769","category":"500","category_name":"未知分类","address":"上海延安西路凯旋路"},{"poiid":"B2094757D068A5FF409C","title":"上海内环线高架路","lon":"121.412181378","lat":"31.2059787732","category":"260","category_name":"其他","address":"上海市内环线高架路"},{"poiid":"B2094655D36DA7F8489E","title":"中山西路天山路","lon":"121.41274","lat":"31.21002","category":"38","category_name":"公交车站","address":""},{"poiid":"B2094751D465A2F84193","title":"同一首歌KTV俱乐部（天山路店）","lon":"121.414139","lat":"31.208694","category":"248","category_name":"生活娱乐","address":"上海市长宁区天山路1900号"},{"poiid":"B2094757D068A6F44999","title":"佳佳母婴天地中山西路分部","lon":"121.41130058","lat":"31.208866013","category":"128","category_name":"儿童用品店","address":"上海市长宁区中山西路753号"},{"poiid":"B2094654DB65A3FC469F","title":"东华大学-莱佛士国际设计学院","lon":"121.4128","lat":"31.20497","category":"671","category_name":"高校中心点","address":"上海市长宁区延安西路1882号"},{"poiid":"B2094757D068A2FC409B","title":"东华大学图书馆(延安路校区)","lon":"121.414331897","lat":"31.2043352776","category":"253","category_name":"校园生活","address":"长宁区延安西路1882号东华大学内"},{"poiid":"B2094757D06FA0F9439B","title":"小城堡","lon":"121.414903","lat":"31.207477","category":"94","category_name":"西餐厅","address":"长宁区延安西路1794号(近天山路)"},{"poiid":"B2094750D565A6FB499D","title":"纽斯汗蒸","lon":"121.414192","lat":"31.209089","category":"249","category_name":"购物服务","address":"天山路77号"},{"poiid":"B2094757D069A5FD429F","title":"延安路高架西行长宁虹桥区","lon":"121.41423114","lat":"31.207561972","category":"500","category_name":"未知分类","address":"上海延安路高架"},{"poiid":"B2094757D068ABFB469F","title":"东华大学(延安路校区)二教","lon":"121.413879","lat":"31.206532","category":"253","category_name":"校园生活","address":"上海市长宁区延安西路1882号 东华大学 第二教学楼"},{"poiid":"B2094757D16EA4FD499F","title":"大风车私家菜馆(绿洲大厦店)","lon":"121.415989986","lat":"31.2079916961","category":"76","category_name":"上海菜","address":"上海长宁区中山西路555号绿洲大厦2楼，62861737，人均:60元"},{"poiid":"B2094757D06FA5F9429E","title":"中山西路立交","lon":"121.41245269","lat":"31.208242416","category":"500","category_name":"未知分类","address":"上海立交桥"},{"poiid":"B2094750D76DA6F4429D","title":"海福阁韩国料理","lon":"121.413","lat":"31.2069","category":"96","category_name":"韩国料理","address":"长宁区延安西路1750号(近天山路)"},{"poiid":"B2094752D769A2FE4092","title":"本家","lon":"121.412352","lat":"31.207938","category":"247","category_name":"餐饮美食","address":"天山路1900号(近延安西路)"},{"poiid":"B2094654DB65A4F44598","title":"上海东华大学(西门)","lon":"121.4137","lat":"31.20675","category":"52","category_name":"高等院校","address":"长宁区延安西路1882号"},{"poiid":"B2094757D568A5FA4999","title":"东华大学教学大楼","lon":"121.4138523","lat":"31.20652751","category":"52","category_name":"高等院校","address":"延安西路1882号"},{"poiid":"B2094757D068A7F44098","title":"东华大学一食堂","lon":"121.414841619","lat":"31.2058427558","category":"68","category_name":"快餐厅","address":"上海长宁区延安西路1882号"},{"poiid":"B2094750DA6FA2F94899","title":"纽斯（天山店）","lon":"121.414314","lat":"31.209098","category":"247","category_name":"餐饮美食","address":null},{"poiid":"B2094654DB69A0F44293","title":"东华大学旭日工商管理学院","lon":"121.41384","lat":"31.20653","category":"52","category_name":"高等院校","address":"长宁区延安西路1882号"},{"poiid":"B2094750DA69A3F44099","title":"纽斯spa会所","lon":"121.414466","lat":"31.209598","category":"148","category_name":"美容美发店","address":null},{"poiid":"B2094757D66CAAF4479F","title":"东华食府","lon":"121.414236586","lat":"31.2063949649","category":"247","category_name":"餐饮美食","address":"长宁区延安西路1882号东华大学食堂3楼"},{"poiid":"B2094654D564A7F8489A","title":"快客No.6753","lon":"121.41424","lat":"31.20716","category":"117","category_name":"便民商店/便利店","address":"天山路"},{"poiid":"B2094753D76BA6F4449D","title":"龙之梦","lon":"121.413009","lat":"31.207212","category":"500","category_name":"未知分类","address":"上海市 中山公园"},{"poiid":"B2094757D66FA3F8489D","title":"東華大學","lon":"121.41400658","lat":"31.205343944","category":"671","category_name":"高校中心点","address":"上海市长宁区紫云路"},{"poiid":"B2094655D268ABFF4092","title":"内环延安西路立交桥","lon":"121.41219","lat":"31.20563","category":"250","category_name":"公园户外","address":""},{"poiid":"B2094750DA6AA2F9489B","title":"newstar","lon":"121.414466","lat":"31.209535","category":"248","category_name":"生活娱乐","address":"天山路1900号"},{"poiid":"B2094753D56EAAFE459A","title":"上海虹桥机场","lon":"121.413261","lat":"31.207372","category":"500","category_name":"未知分类","address":"上海市 海宁区紫云路"},{"poiid":"B209475DD46EAAFB419E","title":"PETIT GEORGE CAFE","lon":"121.415","lat":"31.207813","category":"247","category_name":"餐饮美食","address":"上海市 延安西路1794号"},{"poiid":"B2094757D169ABFD469F","title":"东华大学6宿","lon":"121.413458886","lat":"31.206909575","category":"500","category_name":"未知分类","address":null},{"poiid":"B2094751D26BA7FB499A","title":"v2 club","lon":"121.4135524","lat":"31.2061227","category":"248","category_name":"生活娱乐","address":"长宁区凯旋路1140号2楼(近杨宅路)"},{"poiid":"B2094757D169A4FB419E","title":"coco(东华大学店)","lon":"121.412034586","lat":"31.2073999846","category":"87","category_name":"特色／地方风味餐厅","address":"浦东新区天山路东华大学附近(近延安西路)"},{"poiid":"B2094751D56FA5FD4798","title":"New star纽斯","lon":"121.413927","lat":"31.20865","category":"500","category_name":"未知分类","address":null},{"poiid":"B2094757D66CA1F5499B","title":"东华大学第一食堂","lon":"121.41389753","lat":"31.206369619","category":"500","category_name":"未知分类","address":"上海长宁区延安西路1882号东华大学延安路校区"},{"poiid":"B2094757D06FAAF4409E","title":"延安路高架外灘方向","lon":"121.413614","lat":"31.20365","category":"500","category_name":"未知分类","address":"上海延安路"},{"poiid":"B2094757D06BA7FD4592","title":"莱佛士国际设计学院D楼","lon":"121.413847","lat":"31.206528","category":"500","category_name":"未知分类","address":"上海市延安西路1882号东华大学内"},{"poiid":"B2094753D46BA4F5439A","title":"南小馆","lon":"121.413879","lat":"31.205633","category":"247","category_name":"餐饮美食","address":"上海市 尚嘉中心地下2层A-003"},{"poiid":"B2094757D16BA3FE419A","title":"天山路1800号","lon":"121.414791586","lat":"31.207729991","category":"500","category_name":"未知分类","address":"上海天山路1800号"},{"poiid":"B2094753D464A7FD4098","title":"南小馆","lon":"121.412155","lat":"31.205631","category":"247","category_name":"餐饮美食","address":"上海市 尚嘉中心"},{"poiid":"B2094753D569ABFD439C","title":"鸟心","lon":"121.411972","lat":"31.205631","category":"500","category_name":"未知分类","address":"上海市 仙霞路99号尚嘉中心B2楼"},{"poiid":"B2094750DA6EA6FF4798","title":"纽斯汗蒸馆","lon":"121.415504","lat":"31.208059","category":"248","category_name":"生活娱乐","address":"长宁路1900号"},{"poiid":"B2094655D26FA6FA429C","title":"延西小区","lon":"121.41643","lat":"31.207539","category":"47","category_name":"住宅区","address":"上海延安西路1740弄"},{"poiid":"B2094655D26FA5FE4299","title":"东华大学(延安西路校区)","lon":"121.41384","lat":"31.20653","category":"671","category_name":"高校中心点","address":"上海市长宁区延安西路1882号"},{"poiid":"B2094750D668A7FB439D","title":"纽斯桑拿会所","lon":"121.414176","lat":"31.209903","category":"248","category_name":"生活娱乐","address":"长宁区天山路1900号(近延安西路)"},{"poiid":"B2094654DB65A5F84793","title":"育音堂","lon":"121.41618","lat":"31.20858","category":"248","category_name":"生活娱乐","address":"长宁区凯旋路851号(凯旋路延安西路)"},{"poiid":"B2094750DB6BA2FA479E","title":"纽斯","lon":"121.414527","lat":"31.208843","category":"248","category_name":"生活娱乐","address":"天山路1900号"},{"poiid":"B2094750DB6CA0FE449A","title":"纽斯韩式汗蒸会所","lon":"121.411201","lat":"31.20803","category":"148","category_name":"美容美发店","address":null},{"poiid":"B2094752D76EA4F44698","title":"本家韩国料理","lon":"121.413605","lat":"31.209045","category":"247","category_name":"餐饮美食","address":"天山路1900号(近延安西路)"},{"poiid":"B2094757D06FA4FD489A","title":"天山公园","lon":"121.415716881","lat":"31.2089318765","category":"196","category_name":"公园","address":"长宁区延安西路1731号(近凯旋路)"},{"poiid":"B2094750D565A6FA459A","title":"New star","lon":"121.414184","lat":"31.209081","category":"248","category_name":"生活娱乐","address":"天山路延安西路"},{"poiid":"B2094757D06FA6FE419E","title":"延安路高架 凯旋路口","lon":"121.4167824","lat":"31.208085769","category":"500","category_name":"未知分类","address":"上海延安西路凯旋路"},{"poiid":"B2094757D068A5FF409C","title":"上海内环线高架路","lon":"121.412181378","lat":"31.2059787732","category":"260","category_name":"其他","address":"上海市内环线高架路"},{"poiid":"B2094655D36DA7F8489E","title":"中山西路天山路","lon":"121.41274","lat":"31.21002","category":"38","category_name":"公交车站","address":""},{"poiid":"B2094751D465A2F84193","title":"同一首歌KTV俱乐部（天山路店）","lon":"121.414139","lat":"31.208694","category":"248","category_name":"生活娱乐","address":"上海市长宁区天山路1900号"},{"poiid":"B2094757D068A6F44999","title":"佳佳母婴天地中山西路分部","lon":"121.41130058","lat":"31.208866013","category":"128","category_name":"儿童用品店","address":"上海市长宁区中山西路753号"},{"poiid":"B2094654DB65A3FC469F","title":"东华大学-莱佛士国际设计学院","lon":"121.4128","lat":"31.20497","category":"671","category_name":"高校中心点","address":"上海市长宁区延安西路1882号"},{"poiid":"B2094757D068A2FC409B","title":"东华大学图书馆(延安路校区)","lon":"121.414331897","lat":"31.2043352776","category":"253","category_name":"校园生活","address":"长宁区延安西路1882号东华大学内"},{"poiid":"B2094757D06FA0F9439B","title":"小城堡","lon":"121.414903","lat":"31.207477","category":"94","category_name":"西餐厅","address":"长宁区延安西路1794号(近天山路)"},{"poiid":"B2094750D565A6FB499D","title":"纽斯汗蒸","lon":"121.414192","lat":"31.209089","category":"249","category_name":"购物服务","address":"天山路77号"},{"poiid":"B2094757D069A5FD429F","title":"延安路高架西行长宁虹桥区","lon":"121.41423114","lat":"31.207561972","category":"500","category_name":"未知分类","address":"上海延安路高架"},{"poiid":"B2094757D068ABFB469F","title":"东华大学(延安路校区)二教","lon":"121.413879","lat":"31.206532","category":"253","category_name":"校园生活","address":"上海市长宁区延安西路1882号 东华大学 第二教学楼"},{"poiid":"B2094757D16EA4FD499F","title":"大风车私家菜馆(绿洲大厦店)","lon":"121.415989986","lat":"31.2079916961","category":"76","category_name":"上海菜","address":"上海长宁区中山西路555号绿洲大厦2楼，62861737，人均:60元"},{"poiid":"B2094757D06FA5F9429E","title":"中山西路立交","lon":"121.41245269","lat":"31.208242416","category":"500","category_name":"未知分类","address":"上海立交桥"},{"poiid":"B2094750D76DA6F4429D","title":"海福阁韩国料理","lon":"121.413","lat":"31.2069","category":"96","category_name":"韩国料理","address":"长宁区延安西路1750号(近天山路)"},{"poiid":"B2094752D769A2FE4092","title":"本家","lon":"121.412352","lat":"31.207938","category":"247","category_name":"餐饮美食","address":"天山路1900号(近延安西路)"},{"poiid":"B2094654DB65A4F44598","title":"上海东华大学(西门)","lon":"121.4137","lat":"31.20675","category":"52","category_name":"高等院校","address":"长宁区延安西路1882号"},{"poiid":"B2094757D568A5FA4999","title":"东华大学教学大楼","lon":"121.4138523","lat":"31.20652751","category":"52","category_name":"高等院校","address":"延安西路1882号"},{"poiid":"B2094757D068A7F44098","title":"东华大学一食堂","lon":"121.414841619","lat":"31.2058427558","category":"68","category_name":"快餐厅","address":"上海长宁区延安西路1882号"},{"poiid":"B2094750DA6FA2F94899","title":"纽斯（天山店）","lon":"121.414314","lat":"31.209098","category":"247","category_name":"餐饮美食","address":null},{"poiid":"B2094654DB69A0F44293","title":"东华大学旭日工商管理学院","lon":"121.41384","lat":"31.20653","category":"52","category_name":"高等院校","address":"长宁区延安西路1882号"},{"poiid":"B2094750DA69A3F44099","title":"纽斯spa会所","lon":"121.414466","lat":"31.209598","category":"148","category_name":"美容美发店","address":null},{"poiid":"B2094757D66CAAF4479F","title":"东华食府","lon":"121.414236586","lat":"31.2063949649","category":"247","category_name":"餐饮美食","address":"长宁区延安西路1882号东华大学食堂3楼"},{"poiid":"B2094654D564A7F8489A","title":"快客No.6753","lon":"121.41424","lat":"31.20716","category":"117","category_name":"便民商店/便利店","address":"天山路"},{"poiid":"B2094753D76BA6F4449D","title":"龙之梦","lon":"121.413009","lat":"31.207212","category":"500","category_name":"未知分类","address":"上海市 中山公园"},{"poiid":"B2094757D66FA3F8489D","title":"東華大學","lon":"121.41400658","lat":"31.205343944","category":"671","category_name":"高校中心点","address":"上海市长宁区紫云路"},{"poiid":"B2094655D268ABFF4092","title":"内环延安西路立交桥","lon":"121.41219","lat":"31.20563","category":"250","category_name":"公园户外","address":""},{"poiid":"B2094750DA6AA2F9489B","title":"newstar","lon":"121.414466","lat":"31.209535","category":"248","category_name":"生活娱乐","address":"天山路1900号"},{"poiid":"B2094753D56EAAFE459A","title":"上海虹桥机场","lon":"121.413261","lat":"31.207372","category":"500","category_name":"未知分类","address":"上海市 海宁区紫云路"},{"poiid":"B209475DD46EAAFB419E","title":"PETIT GEORGE CAFE","lon":"121.415","lat":"31.207813","category":"247","category_name":"餐饮美食","address":"上海市 延安西路1794号"},{"poiid":"B2094757D169ABFD469F","title":"东华大学6宿","lon":"121.413458886","lat":"31.206909575","category":"500","category_name":"未知分类","address":null},{"poiid":"B2094751D26BA7FB499A","title":"v2 club","lon":"121.4135524","lat":"31.2061227","category":"248","category_name":"生活娱乐","address":"长宁区凯旋路1140号2楼(近杨宅路)"},{"poiid":"B2094757D169A4FB419E","title":"coco(东华大学店)","lon":"121.412034586","lat":"31.2073999846","category":"87","category_name":"特色／地方风味餐厅","address":"浦东新区天山路东华大学附近(近延安西路)"},{"poiid":"B2094751D56FA5FD4798","title":"New star纽斯","lon":"121.413927","lat":"31.20865","category":"500","category_name":"未知分类","address":null},{"poiid":"B2094757D66CA1F5499B","title":"东华大学第一食堂","lon":"121.41389753","lat":"31.206369619","category":"500","category_name":"未知分类","address":"上海长宁区延安西路1882号东华大学延安路校区"},{"poiid":"B2094757D06FAAF4409E","title":"延安路高架外灘方向","lon":"121.413614","lat":"31.20365","category":"500","category_name":"未知分类","address":"上海延安路"},{"poiid":"B2094757D06BA7FD4592","title":"莱佛士国际设计学院D楼","lon":"121.413847","lat":"31.206528","category":"500","category_name":"未知分类","address":"上海市延安西路1882号东华大学内"},{"poiid":"B2094753D46BA4F5439A","title":"南小馆","lon":"121.413879","lat":"31.205633","category":"247","category_name":"餐饮美食","address":"上海市 尚嘉中心地下2层A-003"},{"poiid":"B2094757D16BA3FE419A","title":"天山路1800号","lon":"121.414791586","lat":"31.207729991","category":"500","category_name":"未知分类","address":"上海天山路1800号"},{"poiid":"B2094753D464A7FD4098","title":"南小馆","lon":"121.412155","lat":"31.205631","category":"247","category_name":"餐饮美食","address":"上海市 尚嘉中心"},{"poiid":"B2094753D569ABFD439C","title":"鸟心","lon":"121.411972","lat":"31.205631","category":"500","category_name":"未知分类","address":"上海市 仙霞路99号尚嘉中心B2楼"},{"poiid":"B2094750DA6EA6FF4798","title":"纽斯汗蒸馆","lon":"121.415504","lat":"31.208059","category":"248","category_name":"生活娱乐","address":"长宁路1900号"},{"poiid":"B2094655D26FA6FA429C","title":"延西小区","lon":"121.41643","lat":"31.207539","category":"47","category_name":"住宅区","address":"上海延安西路1740弄"}]