[{"poiid":"B2094750DA65A5FA419C","title":"辣串门","lon":"121.419754","lat":"31.158313","category":"71","category_name":"四川菜","address":"徐汇区钦州南路607号(近桂林路)"},{"poiid":"B2094751D36FA0F5459D","title":"家在塔啦蒙古特色餐厅","lon":"121.42051","lat":"31.15728","category":"84","category_name":"西北菜","address":"徐汇区桂林路37号2楼(近钦州南路)"},{"poiid":"B2094757D66EA6FD489C","title":"浦北路桂林西街","lon":"121.418991586","lat":"31.153776937","category":"260","category_name":"其他","address":"上海徐汇区浦北路桂林西街"},{"poiid":"B2094757DB6DA5F94699","title":"维也纳酒店（上海南站光大店）","lon":"121.419868469","lat":"31.156417596","category":"216","category_name":"经济型连锁酒店","address":"徐汇区桂林路46号徐汇工人文化中心内(近桂林西街)"},{"poiid":"B2094757D06AABFC409D","title":"mayli's coffee","lon":"121.41984958","lat":"31.159027039","category":"260","category_name":"其他","address":"徐汇区桂林路64号(近钦州南路)"},{"poiid":"B2094757D06FA6F44293","title":"肯德基 KFC (钦州南路店)","lon":"121.420366474","lat":"31.1577847392","category":"68","category_name":"快餐厅","address":"徐汇区桂林路39号(近钦州南路)"},{"poiid":"B2094757D06FABFD439B","title":"康健社区体育场","lon":"121.4185","lat":"31.15231","category":"220","category_name":"运动场所","address":"徐汇区桂林西街168号康健社区体育场(桂林西街浦北路)"},{"poiid":"B2094757D464A7F4439E","title":"香乡村大龙虾 浦北路店","lon":"121.421373054","lat":"31.154949793","category":"68","category_name":"快餐厅","address":"徐汇区浦北路331号(桂林路口)"},{"poiid":"B2094757D068A2FA4993","title":"上海世界外国语小学","lon":"121.41878","lat":"31.15098","category":"55","category_name":"中学","address":"上海徐汇区浦北路380号"},{"poiid":"B2094655D26FA5F8419D","title":"长兴坊","lon":"121.41614","lat":"31.156137","category":"47","category_name":"住宅区","address":"桂林西街15弄1-85号"},{"poiid":"B2094757D065A6F44799","title":"上海市徐汇区委党校","lon":"121.42081353","lat":"31.158989613","category":"500","category_name":"未知分类","address":"上海钦州南路567号"},{"poiid":"B2094655D36CA7F8409A","title":"虹漕南路钦州南路","lon":"121.41361","lat":"31.15759","category":"38","category_name":"公交车站","address":""},{"poiid":"B2094757D06FA6FB4193","title":"西樱花园","lon":"121.419","lat":"31.1531","category":"500","category_name":"未知分类","address":"上海桂平支路35弄"},{"poiid":"B2094654DB65A3FE4092","title":"长顺坊","lon":"121.41912","lat":"31.155554","category":"47","category_name":"住宅区","address":"桂林西街14弄1-24号"},{"poiid":"B2094655D26AA6F4499D","title":"新亚大包 桂林路店","lon":"121.419540054","lat":"31.156233793","category":"68","category_name":"快餐厅","address":"徐汇区桂林西街2号(近桂林路)"},{"poiid":"B2094654DB6AA3FE429D","title":"康健街道","lon":"121.41683","lat":"31.15534","category":"116","category_name":"特色商业街","address":"徐汇区桂林西街23号"},{"poiid":"B2094757D068A4FE4899","title":"上海师大新村","lon":"121.4197685","lat":"31.1597457","category":"47","category_name":"住宅区","address":"上海市徐汇区桂林路70弄"},{"poiid":"B2094757D665A2F4429B","title":"巴麦隆烤肉 桂林路店","lon":"121.419963","lat":"31.157932","category":"68","category_name":"快餐厅","address":"徐汇区桂林路50号(钦州南路口)"},{"poiid":"B2094654DA65A6FC489D","title":"避风塘 上师大店","lon":"121.419446054","lat":"31.159835793","category":"111","category_name":"休闲餐饮场所","address":"徐汇区桂林路68号(近上海师范大学)"},{"poiid":"B2094655D26AA0F4459E","title":"五月苑健身俱乐部","lon":"121.42041","lat":"31.15607","category":"247","category_name":"餐饮美食","address":"徐汇区桂林路46号徐汇工人文化中心4楼(近桂林西街)"},{"poiid":"B2094654DB6CA7F44593","title":"湘轩湖南乡土风味桂林店","lon":"121.42044","lat":"31.15766","category":"77","category_name":"湖南菜","address":"徐汇区桂林路37号(近钦州南路)"},{"poiid":"B2094757D068A1FB4292","title":"长丰坊","lon":"121.41585","lat":"31.154173","category":"47","category_name":"住宅区","address":"桂林西街47弄1-94号"},{"poiid":"B2094757D168A3FA439A","title":"浦北路桂林路","lon":"121.42126578","lat":"31.154662754","category":"500","category_name":"未知分类","address":"上海浦北路桂林路"},{"poiid":"B2094655D26DA7F54799","title":"上海师大新村(南门)","lon":"121.41697","lat":"31.1578","category":"47","category_name":"住宅区","address":"钦州南路650"},{"poiid":"B2094757D06AA7F54998","title":"沧浪亭(桂林路店)","lon":"121.42065","lat":"31.15585","category":"87","category_name":"特色／地方风味餐厅","address":"徐汇区桂林路46号徐汇工人文化中心内(近桂林西街)"},{"poiid":"B2094654DB6CA6FA449A","title":"长顺坊(北门)","lon":"121.4184","lat":"31.1559","category":"47","category_name":"住宅区","address":"桂林西街14弄1-24号"},{"poiid":"B2094655D26FA7F8419A","title":"上海市徐汇区康健街道双拥院(北门)","lon":"121.41725","lat":"31.15544","category":"47","category_name":"住宅区","address":"桂林西街30弄28-40号"},{"poiid":"B2094757D16DA2FC4999","title":"田林三中","lon":"121.41812","lat":"31.15756","category":"55","category_name":"中学","address":"徐汇区钦州路600号"},{"poiid":"B2094655D26FAAFD469F","title":"紫竹园","lon":"121.421","lat":"31.1583","category":"47","category_name":"住宅区","address":"上海徐汇区浦北路948弄"},{"poiid":"B2094757D06AA0FA469C","title":"长海坊","lon":"121.41872","lat":"31.157032","category":"500","category_name":"未知分类","address":"上海徐汇区桂林东街9弄"},{"poiid":"B2094757D16AAAFA4199","title":"小杨烧烤","lon":"121.416864086","lat":"31.1549065591","category":"68","category_name":"快餐厅","address":"徐汇区桂林西街92号(近桂林路)"},{"poiid":"B2094757D169A2FD429E","title":"杜鹃园幼儿园","lon":"121.416565886","lat":"31.1558406773","category":"57","category_name":"幼儿园","address":"上海桂林西街9弄"},{"poiid":"B2094757D06BA6F54693","title":"乔家大院东北菜","lon":"121.42141","lat":"31.15727","category":"82","category_name":"东北菜","address":"徐汇区桂林东街217号康乐小区"},{"poiid":"B2094752D16BAAFD409E","title":"来福士广场","lon":"121.416332","lat":"31.155282","category":"500","category_name":"未知分类","address":null},{"poiid":"B2094757D064A4F4499D","title":"晶玉港粤时尚餐厅","lon":"121.420274","lat":"31.156005","category":"72","category_name":"广东菜","address":"徐汇区桂林路46号泓和宾馆3楼(近桂林西街)"},{"poiid":"B2094654DB6CA6FA4198","title":"长青坊","lon":"121.41781","lat":"31.154461","category":"47","category_name":"住宅区","address":"桂林西街30弄1-27号"},{"poiid":"B2094757D06FA2FB469D","title":"美丽咖啡馆","lon":"121.41975647","lat":"31.158919741","category":"217","category_name":"旅馆招待所","address":"上海徐汇区桂林路64-2号"},{"poiid":"B2094655D26FA7F4449D","title":"长青坊(西门)","lon":"121.41698","lat":"31.15452","category":"47","category_name":"住宅区","address":"桂林西街30弄1-27号"},{"poiid":"B2094655D265A3FC489A","title":"上海师范大学西部第十四学生宿舍","lon":"121.41456","lat":"31.1587","category":"47","category_name":"住宅区","address":""},{"poiid":"B2094757D16BAAFC419F","title":"康健星辰","lon":"121.41837","lat":"31.15374","category":"47","category_name":"住宅区","address":"上海浦北路388弄"},{"poiid":"B2094654DB6CA6FA449C","title":"快客No.5061","lon":"121.41965","lat":"31.1563","category":"117","category_name":"便民商店/便利店","address":""},{"poiid":"B2094654DB6CA6FA449B","title":"上海师范大学第一附属小学(北门)","lon":"121.41817","lat":"31.15551","category":"656","category_name":"大门","address":"桂林西街14弄25"},{"poiid":"B2094654DB6CA6FA449D","title":"徐汇区工人文化体育中心","lon":"121.42028","lat":"31.156","category":"224","category_name":"综合体育馆","address":"桂林路46"},{"poiid":"B2094757D06BAAF8409C","title":"巴麦隆自助烤肉","lon":"121.42039058","lat":"31.157493009","category":"247","category_name":"餐饮美食","address":"上海桂林路店"},{"poiid":"B2094757D664A7FF439F","title":"笑缘美食广场","lon":"121.41651","lat":"31.15976","category":"68","category_name":"快餐厅","address":"徐汇区桂林路100号上海师范大学内(近钦州南路)"},{"poiid":"B2094757D768AAFE499D","title":"黑胡椒印度餐厅","lon":"121.41694","lat":"31.15394","category":"99","category_name":"泰国／越南菜品餐厅","address":"西街阳光100D-108B"},{"poiid":"B2094654DB6CA7F44299","title":"上海市康东网球馆","lon":"121.42217","lat":"31.15607","category":"226","category_name":"网球场","address":"徐汇区浦北路270号(近桂林路)"},{"poiid":"B2094654DB64A1FE4792","title":"昂立教育师大学校","lon":"121.42027","lat":"31.156","category":"52","category_name":"高等院校","address":"桂林路46"},{"poiid":"B209475CD268A7F4479E","title":"上海师范大学","lon":"121.415992","lat":"31.154193","category":"500","category_name":"未知分类","address":"上海市 桂林路100号"},{"poiid":"B2094655D26EA6FA489B","title":"要得火锅城","lon":"121.41917288103","lat":"31.157817163129","category":"247","category_name":"餐饮美食","address":"钦州南路601号"},{"poiid":"B2094750DA65A5FA419C","title":"辣串门","lon":"121.419754","lat":"31.158313","category":"71","category_name":"四川菜","address":"徐汇区钦州南路607号(近桂林路)"},{"poiid":"B2094751D36FA0F5459D","title":"家在塔啦蒙古特色餐厅","lon":"121.42051","lat":"31.15728","category":"84","category_name":"西北菜","address":"徐汇区桂林路37号2楼(近钦州南路)"},{"poiid":"B2094757D66EA6FD489C","title":"浦北路桂林西街","lon":"121.418991586","lat":"31.153776937","category":"260","category_name":"其他","address":"上海徐汇区浦北路桂林西街"},{"poiid":"B2094757DB6DA5F94699","title":"维也纳酒店（上海南站光大店）","lon":"121.419868469","lat":"31.156417596","category":"216","category_name":"经济型连锁酒店","address":"徐汇区桂林路46号徐汇工人文化中心内(近桂林西街)"},{"poiid":"B2094757D06AABFC409D","title":"mayli's coffee","lon":"121.41984958","lat":"31.159027039","category":"260","category_name":"其他","address":"徐汇区桂林路64号(近钦州南路)"},{"poiid":"B2094757D06FA6F44293","title":"肯德基 KFC (钦州南路店)","lon":"121.420366474","lat":"31.1577847392","category":"68","category_name":"快餐厅","address":"徐汇区桂林路39号(近钦州南路)"},{"poiid":"B2094757D06FABFD439B","title":"康健社区体育场","lon":"121.4185","lat":"31.15231","category":"220","category_name":"运动场所","address":"徐汇区桂林西街168号康健社区体育场(桂林西街浦北路)"},{"poiid":"B2094757D464A7F4439E","title":"香乡村大龙虾 浦北路店","lon":"121.421373054","lat":"31.154949793","category":"68","category_name":"快餐厅","address":"徐汇区浦北路331号(桂林路口)"},{"poiid":"B2094757D068A2FA4993","title":"上海世界外国语小学","lon":"121.41878","lat":"31.15098","category":"55","category_name":"中学","address":"上海徐汇区浦北路380号"},{"poiid":"B2094655D26FA5F8419D","title":"长兴坊","lon":"121.41614","lat":"31.156137","category":"47","category_name":"住宅区","address":"桂林西街15弄1-85号"},{"poiid":"B2094757D065A6F44799","title":"上海市徐汇区委党校","lon":"121.42081353","lat":"31.158989613","category":"500","category_name":"未知分类","address":"上海钦州南路567号"},{"poiid":"B2094655D36CA7F8409A","title":"虹漕南路钦州南路","lon":"121.41361","lat":"31.15759","category":"38","category_name":"公交车站","address":""},{"poiid":"B2094757D06FA6FB4193","title":"西樱花园","lon":"121.419","lat":"31.1531","category":"500","category_name":"未知分类","address":"上海桂平支路35弄"},{"poiid":"B2094654DB65A3FE4092","title":"长顺坊","lon":"121.41912","lat":"31.155554","category":"47","category_name":"住宅区","address":"桂林西街14弄1-24号"},{"poiid":"B2094655D26AA6F4499D","title":"新亚大包 桂林路店","lon":"121.419540054","lat":"31.156233793","category":"68","category_name":"快餐厅","address":"徐汇区桂林西街2号(近桂林路)"},{"poiid":"B2094654DB6AA3FE429D","title":"康健街道","lon":"121.41683","lat":"31.15534","category":"116","category_name":"特色商业街","address":"徐汇区桂林西街23号"},{"poiid":"B2094757D068A4FE4899","title":"上海师大新村","lon":"121.4197685","lat":"31.1597457","category":"47","category_name":"住宅区","address":"上海市徐汇区桂林路70弄"},{"poiid":"B2094757D665A2F4429B","title":"巴麦隆烤肉 桂林路店","lon":"121.419963","lat":"31.157932","category":"68","category_name":"快餐厅","address":"徐汇区桂林路50号(钦州南路口)"},{"poiid":"B2094654DA65A6FC489D","title":"避风塘 上师大店","lon":"121.419446054","lat":"31.159835793","category":"111","category_name":"休闲餐饮场所","address":"徐汇区桂林路68号(近上海师范大学)"},{"poiid":"B2094655D26AA0F4459E","title":"五月苑健身俱乐部","lon":"121.42041","lat":"31.15607","category":"247","category_name":"餐饮美食","address":"徐汇区桂林路46号徐汇工人文化中心4楼(近桂林西街)"},{"poiid":"B2094654DB6CA7F44593","title":"湘轩湖南乡土风味桂林店","lon":"121.42044","lat":"31.15766","category":"77","category_name":"湖南菜","address":"徐汇区桂林路37号(近钦州南路)"},{"poiid":"B2094757D068A1FB4292","title":"长丰坊","lon":"121.41585","lat":"31.154173","category":"47","category_name":"住宅区","address":"桂林西街47弄1-94号"},{"poiid":"B2094757D168A3FA439A","title":"浦北路桂林路","lon":"121.42126578","lat":"31.154662754","category":"500","category_name":"未知分类","address":"上海浦北路桂林路"},{"poiid":"B2094655D26DA7F54799","title":"上海师大新村(南门)","lon":"121.41697","lat":"31.1578","category":"47","category_name":"住宅区","address":"钦州南路650"},{"poiid":"B2094757D06AA7F54998","title":"沧浪亭(桂林路店)","lon":"121.42065","lat":"31.15585","category":"87","category_name":"特色／地方风味餐厅","address":"徐汇区桂林路46号徐汇工人文化中心内(近桂林西街)"},{"poiid":"B2094654DB6CA6FA449A","title":"长顺坊(北门)","lon":"121.4184","lat":"31.1559","category":"47","category_name":"住宅区","address":"桂林西街14弄1-24号"},{"poiid":"B2094655D26FA7F8419A","title":"上海市徐汇区康健街道双拥院(北门)","lon":"121.41725","lat":"31.15544","category":"47","category_name":"住宅区","address":"桂林西街30弄28-40号"},{"poiid":"B2094757D16DA2FC4999","title":"田林三中","lon":"121.41812","lat":"31.15756","category":"55","category_name":"中学","address":"徐汇区钦州路600号"},{"poiid":"B2094655D26FAAFD469F","title":"紫竹园","lon":"121.421","lat":"31.1583","category":"47","category_name":"住宅区","address":"上海徐汇区浦北路948弄"},{"poiid":"B2094757D06AA0FA469C","title":"长海坊","lon":"121.41872","lat":"31.157032","category":"500","category_name":"未知分类","address":"上海徐汇区桂林东街9弄"},{"poiid":"B2094757D16AAAFA4199","title":"小杨烧烤","lon":"121.416864086","lat":"31.1549065591","category":"68","category_name":"快餐厅","address":"徐汇区桂林西街92号(近桂林路)"},{"poiid":"B2094757D169A2FD429E","title":"杜鹃园幼儿园","lon":"121.416565886","lat":"31.1558406773","category":"57","category_name":"幼儿园","address":"上海桂林西街9弄"},{"poiid":"B2094757D06BA6F54693","title":"乔家大院东北菜","lon":"121.42141","lat":"31.15727","category":"82","category_name":"东北菜","address":"徐汇区桂林东街217号康乐小区"},{"poiid":"B2094752D16BAAFD409E","title":"来福士广场","lon":"121.416332","lat":"31.155282","category":"500","category_name":"未知分类","address":null},{"poiid":"B2094757D064A4F4499D","title":"晶玉港粤时尚餐厅","lon":"121.420274","lat":"31.156005","category":"72","category_name":"广东菜","address":"徐汇区桂林路46号泓和宾馆3楼(近桂林西街)"},{"poiid":"B2094654DB6CA6FA4198","title":"长青坊","lon":"121.41781","lat":"31.154461","category":"47","category_name":"住宅区","address":"桂林西街30弄1-27号"},{"poiid":"B2094757D06FA2FB469D","title":"美丽咖啡馆","lon":"121.41975647","lat":"31.158919741","category":"217","category_name":"旅馆招待所","address":"上海徐汇区桂林路64-2号"},{"poiid":"B2094655D26FA7F4449D","title":"长青坊(西门)","lon":"121.41698","lat":"31.15452","category":"47","category_name":"住宅区","address":"桂林西街30弄1-27号"},{"poiid":"B2094655D265A3FC489A","title":"上海师范大学西部第十四学生宿舍","lon":"121.41456","lat":"31.1587","category":"47","category_name":"住宅区","address":""},{"poiid":"B2094757D16BAAFC419F","title":"康健星辰","lon":"121.41837","lat":"31.15374","category":"47","category_name":"住宅区","address":"上海浦北路388弄"},{"poiid":"B2094654DB6CA6FA449C","title":"快客No.5061","lon":"121.41965","lat":"31.1563","category":"117","category_name":"便民商店/便利店","address":""},{"poiid":"B2094654DB6CA6FA449B","title":"上海师范大学第一附属小学(北门)","lon":"121.41817","lat":"31.15551","category":"656","category_name":"大门","address":"桂林西街14弄25"},{"poiid":"B2094654DB6CA6FA449D","title":"徐汇区工人文化体育中心","lon":"121.42028","lat":"31.156","category":"224","category_name":"综合体育馆","address":"桂林路46"},{"poiid":"B2094757D06BAAF8409C","title":"巴麦隆自助烤肉","lon":"121.42039058","lat":"31.157493009","category":"247","category_name":"餐饮美食","address":"上海桂林路店"},{"poiid":"B2094757D664A7FF439F","title":"笑缘美食广场","lon":"121.41651","lat":"31.15976","category":"68","category_name":"快餐厅","address":"徐汇区桂林路100号上海师范大学内(近钦州南路)"},{"poiid":"B2094757D768AAFE499D","title":"黑胡椒印度餐厅","lon":"121.41694","lat":"31.15394","category":"99","category_name":"泰国／越南菜品餐厅","address":"西街阳光100D-108B"},{"poiid":"B2094654DB6CA7F44299","title":"上海市康东网球馆","lon":"121.42217","lat":"31.15607","category":"226","category_name":"网球场","address":"徐汇区浦北路270号(近桂林路)"},{"poiid":"B2094654DB64A1FE4792","title":"昂立教育师大学校","lon":"121.42027","lat":"31.156","category":"52","category_name":"高等院校","address":"桂林路46"},{"poiid":"B209475CD268A7F4479E","title":"上海师范大学","lon":"121.415992","lat":"31.154193","category":"500","category_name":"未知分类","address":"上海市 桂林路100号"},{"poiid":"B2094655D26EA6FA489B","title":"要得火锅城","lon":"121.41917288103","lat":"31.157817163129","category":"247","category_name":"餐饮美食","address":"钦州南路601号"},{"poiid":"B2094750DA65A5FA419C","title":"辣串门","lon":"121.419754","lat":"31.158313","category":"71","category_name":"四川菜","address":"徐汇区钦州南路607号(近桂林路)"},{"poiid":"B2094751D36FA0F5459D","title":"家在塔啦蒙古特色餐厅","lon":"121.42051","lat":"31.15728","category":"84","category_name":"西北菜","address":"徐汇区桂林路37号2楼(近钦州南路)"},{"poiid":"B2094757D66EA6FD489C","title":"浦北路桂林西街","lon":"121.418991586","lat":"31.153776937","category":"260","category_name":"其他","address":"上海徐汇区浦北路桂林西街"},{"poiid":"B2094757DB6DA5F94699","title":"维也纳酒店（上海南站光大店）","lon":"121.419868469","lat":"31.156417596","category":"216","category_name":"经济型连锁酒店","address":"徐汇区桂林路46号徐汇工人文化中心内(近桂林西街)"},{"poiid":"B2094757D06AABFC409D","title":"mayli's coffee","lon":"121.41984958","lat":"31.159027039","category":"260","category_name":"其他","address":"徐汇区桂林路64号(近钦州南路)"},{"poiid":"B2094757D06FA6F44293","title":"肯德基 KFC (钦州南路店)","lon":"121.420366474","lat":"31.1577847392","category":"68","category_name":"快餐厅","address":"徐汇区桂林路39号(近钦州南路)"},{"poiid":"B2094757D06FABFD439B","title":"康健社区体育场","lon":"121.4185","lat":"31.15231","category":"220","category_name":"运动场所","address":"徐汇区桂林西街168号康健社区体育场(桂林西街浦北路)"},{"poiid":"B2094757D464A7F4439E","title":"香乡村大龙虾 浦北路店","lon":"121.421373054","lat":"31.154949793","category":"68","category_name":"快餐厅","address":"徐汇区浦北路331号(桂林路口)"},{"poiid":"B2094757D068A2FA4993","title":"上海世界外国语小学","lon":"121.41878","lat":"31.15098","category":"55","category_name":"中学","address":"上海徐汇区浦北路380号"},{"poiid":"B2094655D26FA5F8419D","title":"长兴坊","lon":"121.41614","lat":"31.156137","category":"47","category_name":"住宅区","address":"桂林西街15弄1-85号"},{"poiid":"B2094757D065A6F44799","title":"上海市徐汇区委党校","lon":"121.42081353","lat":"31.158989613","category":"500","category_name":"未知分类","address":"上海钦州南路567号"},{"poiid":"B2094655D36CA7F8409A","title":"虹漕南路钦州南路","lon":"121.41361","lat":"31.15759","category":"38","category_name":"公交车站","address":""},{"poiid":"B2094757D06FA6FB4193","title":"西樱花园","lon":"121.419","lat":"31.1531","category":"500","category_name":"未知分类","address":"上海桂平支路35弄"},{"poiid":"B2094654DB65A3FE4092","title":"长顺坊","lon":"121.41912","lat":"31.155554","category":"47","category_name":"住宅区","address":"桂林西街14弄1-24号"},{"poiid":"B2094655D26AA6F4499D","title":"新亚大包 桂林路店","lon":"121.419540054","lat":"31.156233793","category":"68","category_name":"快餐厅","address":"徐汇区桂林西街2号(近桂林路)"},{"poiid":"B2094654DB6AA3FE429D","title":"康健街道","lon":"121.41683","lat":"31.15534","category":"116","category_name":"特色商业街","address":"徐汇区桂林西街23号"},{"poiid":"B2094757D068A4FE4899","title":"上海师大新村","lon":"121.4197685","lat":"31.1597457","category":"47","category_name":"住宅区","address":"上海市徐汇区桂林路70弄"},{"poiid":"B2094757D665A2F4429B","title":"巴麦隆烤肉 桂林路店","lon":"121.419963","lat":"31.157932","category":"68","category_name":"快餐厅","address":"徐汇区桂林路50号(钦州南路口)"},{"poiid":"B2094654DA65A6FC489D","title":"避风塘 上师大店","lon":"121.419446054","lat":"31.159835793","category":"111","category_name":"休闲餐饮场所","address":"徐汇区桂林路68号(近上海师范大学)"},{"poiid":"B2094655D26AA0F4459E","title":"五月苑健身俱乐部","lon":"121.42041","lat":"31.15607","category":"247","category_name":"餐饮美食","address":"徐汇区桂林路46号徐汇工人文化中心4楼(近桂林西街)"},{"poiid":"B2094654DB6CA7F44593","title":"湘轩湖南乡土风味桂林店","lon":"121.42044","lat":"31.15766","category":"77","category_name":"湖南菜","address":"徐汇区桂林路37号(近钦州南路)"},{"poiid":"B2094757D068A1FB4292","title":"长丰坊","lon":"121.41585","lat":"31.154173","category":"47","category_name":"住宅区","address":"桂林西街47弄1-94号"},{"poiid":"B2094757D168A3FA439A","title":"浦北路桂林路","lon":"121.42126578","lat":"31.154662754","category":"500","category_name":"未知分类","address":"上海浦北路桂林路"},{"poiid":"B2094655D26DA7F54799","title":"上海师大新村(南门)","lon":"121.41697","lat":"31.1578","category":"47","category_name":"住宅区","address":"钦州南路650"},{"poiid":"B2094757D06AA7F54998","title":"沧浪亭(桂林路店)","lon":"121.42065","lat":"31.15585","category":"87","category_name":"特色／地方风味餐厅","address":"徐汇区桂林路46号徐汇工人文化中心内(近桂林西街)"},{"poiid":"B2094654DB6CA6FA449A","title":"长顺坊(北门)","lon":"121.4184","lat":"31.1559","category":"47","category_name":"住宅区","address":"桂林西街14弄1-24号"},{"poiid":"B2094655D26FA7F8419A","title":"上海市徐汇区康健街道双拥院(北门)","lon":"121.41725","lat":"31.15544","category":"47","category_name":"住宅区","address":"桂林西街30弄28-40号"},{"poiid":"B2094757D16DA2FC4999","title":"田林三中","lon":"121.41812","lat":"31.15756","category":"55","category_name":"中学","address":"徐汇区钦州路600号"},{"poiid":"B2094655D26FAAFD469F","title":"紫竹园","lon":"121.421","lat":"31.1583","category":"47","category_name":"住宅区","address":"上海徐汇区浦北路948弄"},{"poiid":"B2094757D06AA0FA469C","title":"长海坊","lon":"121.41872","lat":"31.157032","category":"500","category_name":"未知分类","address":"上海徐汇区桂林东街9弄"},{"poiid":"B2094757D16AAAFA4199","title":"小杨烧烤","lon":"121.416864086","lat":"31.1549065591","category":"68","category_name":"快餐厅","address":"徐汇区桂林西街92号(近桂林路)"},{"poiid":"B2094757D169A2FD429E","title":"杜鹃园幼儿园","lon":"121.416565886","lat":"31.1558406773","category":"57","category_name":"幼儿园","address":"上海桂林西街9弄"},{"poiid":"B2094757D06BA6F54693","title":"乔家大院东北菜","lon":"121.42141","lat":"31.15727","category":"82","category_name":"东北菜","address":"徐汇区桂林东街217号康乐小区"},{"poiid":"B2094752D16BAAFD409E","title":"来福士广场","lon":"121.416332","lat":"31.155282","category":"500","category_name":"未知分类","address":null},{"poiid":"B2094757D064A4F4499D","title":"晶玉港粤时尚餐厅","lon":"121.420274","lat":"31.156005","category":"72","category_name":"广东菜","address":"徐汇区桂林路46号泓和宾馆3楼(近桂林西街)"},{"poiid":"B2094654DB6CA6FA4198","title":"长青坊","lon":"121.41781","lat":"31.154461","category":"47","category_name":"住宅区","address":"桂林西街30弄1-27号"},{"poiid":"B2094757D06FA2FB469D","title":"美丽咖啡馆","lon":"121.41975647","lat":"31.158919741","category":"217","category_name":"旅馆招待所","address":"上海徐汇区桂林路64-2号"},{"poiid":"B2094655D26FA7F4449D","title":"长青坊(西门)","lon":"121.41698","lat":"31.15452","category":"47","category_name":"住宅区","address":"桂林西街30弄1-27号"},{"poiid":"B2094655D265A3FC489A","title":"上海师范大学西部第十四学生宿舍","lon":"121.41456","lat":"31.1587","category":"47","category_name":"住宅区","address":""},{"poiid":"B2094757D16BAAFC419F","title":"康健星辰","lon":"121.41837","lat":"31.15374","category":"47","category_name":"住宅区","address":"上海浦北路388弄"},{"poiid":"B2094654DB6CA6FA449C","title":"快客No.5061","lon":"121.41965","lat":"31.1563","category":"117","category_name":"便民商店/便利店","address":""},{"poiid":"B2094654DB6CA6FA449B","title":"上海师范大学第一附属小学(北门)","lon":"121.41817","lat":"31.15551","category":"656","category_name":"大门","address":"桂林西街14弄25"},{"poiid":"B2094654DB6CA6FA449D","title":"徐汇区工人文化体育中心","lon":"121.42028","lat":"31.156","category":"224","category_name":"综合体育馆","address":"桂林路46"},{"poiid":"B2094757D06BAAF8409C","title":"巴麦隆自助烤肉","lon":"121.42039058","lat":"31.157493009","category":"247","category_name":"餐饮美食","address":"上海桂林路店"},{"poiid":"B2094757D664A7FF439F","title":"笑缘美食广场","lon":"121.41651","lat":"31.15976","category":"68","category_name":"快餐厅","address":"徐汇区桂林路100号上海师范大学内(近钦州南路)"},{"poiid":"B2094757D768AAFE499D","title":"黑胡椒印度餐厅","lon":"121.41694","lat":"31.15394","category":"99","category_name":"泰国／越南菜品餐厅","address":"西街阳光100D-108B"},{"poiid":"B2094654DB6CA7F44299","title":"上海市康东网球馆","lon":"121.42217","lat":"31.15607","category":"226","category_name":"网球场","address":"徐汇区浦北路270号(近桂林路)"},{"poiid":"B2094654DB64A1FE4792","title":"昂立教育师大学校","lon":"121.42027","lat":"31.156","category":"52","category_name":"高等院校","address":"桂林路46"},{"poiid":"B209475CD268A7F4479E","title":"上海师范大学","lon":"121.415992","lat":"31.154193","category":"500","category_name":"未知分类","address":"上海市 桂林路100号"},{"poiid":"B2094655D26EA6FA489B","title":"要得火锅城","lon":"121.41917288103","lat":"31.157817163129","category":"247","category_name":"餐饮美食","address":"钦州南路601号"},{"poiid":"B2094750DA65A5FA419C","title":"辣串门","lon":"121.419754","lat":"31.158313","category":"71","category_name":"四川菜","address":"徐汇区钦州南路607号(近桂林路)"},{"poiid":"B2094751D36FA0F5459D","title":"家在塔啦蒙古特色餐厅","lon":"121.42051","lat":"31.15728","category":"84","category_name":"西北菜","address":"徐汇区桂林路37号2楼(近钦州南路)"},{"poiid":"B2094757D66EA6FD489C","title":"浦北路桂林西街","lon":"121.418991586","lat":"31.153776937","category":"260","category_name":"其他","address":"上海徐汇区浦北路桂林西街"},{"poiid":"B2094757DB6DA5F94699","title":"维也纳酒店（上海南站光大店）","lon":"121.419868469","lat":"31.156417596","category":"216","category_name":"经济型连锁酒店","address":"徐汇区桂林路46号徐汇工人文化中心内(近桂林西街)"},{"poiid":"B2094757D06AABFC409D","title":"mayli's coffee","lon":"121.41984958","lat":"31.159027039","category":"260","category_name":"其他","address":"徐汇区桂林路64号(近钦州南路)"},{"poiid":"B2094757D06FA6F44293","title":"肯德基 KFC (钦州南路店)","lon":"121.420366474","lat":"31.1577847392","category":"68","category_name":"快餐厅","address":"徐汇区桂林路39号(近钦州南路)"},{"poiid":"B2094757D06FABFD439B","title":"康健社区体育场","lon":"121.4185","lat":"31.15231","category":"220","category_name":"运动场所","address":"徐汇区桂林西街168号康健社区体育场(桂林西街浦北路)"},{"poiid":"B2094757D464A7F4439E","title":"香乡村大龙虾 浦北路店","lon":"121.421373054","lat":"31.154949793","category":"68","category_name":"快餐厅","address":"徐汇区浦北路331号(桂林路口)"},{"poiid":"B2094757D068A2FA4993","title":"上海世界外国语小学","lon":"121.41878","lat":"31.15098","category":"55","category_name":"中学","address":"上海徐汇区浦北路380号"},{"poiid":"B2094655D26FA5F8419D","title":"长兴坊","lon":"121.41614","lat":"31.156137","category":"47","category_name":"住宅区","address":"桂林西街15弄1-85号"},{"poiid":"B2094757D065A6F44799","title":"上海市徐汇区委党校","lon":"121.42081353","lat":"31.158989613","category":"500","category_name":"未知分类","address":"上海钦州南路567号"},{"poiid":"B2094655D36CA7F8409A","title":"虹漕南路钦州南路","lon":"121.41361","lat":"31.15759","category":"38","category_name":"公交车站","address":""},{"poiid":"B2094757D06FA6FB4193","title":"西樱花园","lon":"121.419","lat":"31.1531","category":"500","category_name":"未知分类","address":"上海桂平支路35弄"},{"poiid":"B2094654DB65A3FE4092","title":"长顺坊","lon":"121.41912","lat":"31.155554","category":"47","category_name":"住宅区","address":"桂林西街14弄1-24号"},{"poiid":"B2094655D26AA6F4499D","title":"新亚大包 桂林路店","lon":"121.419540054","lat":"31.156233793","category":"68","category_name":"快餐厅","address":"徐汇区桂林西街2号(近桂林路)"},{"poiid":"B2094654DB6AA3FE429D","title":"康健街道","lon":"121.41683","lat":"31.15534","category":"116","category_name":"特色商业街","address":"徐汇区桂林西街23号"},{"poiid":"B2094757D068A4FE4899","title":"上海师大新村","lon":"121.4197685","lat":"31.1597457","category":"47","category_name":"住宅区","address":"上海市徐汇区桂林路70弄"},{"poiid":"B2094757D665A2F4429B","title":"巴麦隆烤肉 桂林路店","lon":"121.419963","lat":"31.157932","category":"68","category_name":"快餐厅","address":"徐汇区桂林路50号(钦州南路口)"},{"poiid":"B2094654DA65A6FC489D","title":"避风塘 上师大店","lon":"121.419446054","lat":"31.159835793","category":"111","category_name":"休闲餐饮场所","address":"徐汇区桂林路68号(近上海师范大学)"},{"poiid":"B2094655D26AA0F4459E","title":"五月苑健身俱乐部","lon":"121.42041","lat":"31.15607","category":"247","category_name":"餐饮美食","address":"徐汇区桂林路46号徐汇工人文化中心4楼(近桂林西街)"},{"poiid":"B2094654DB6CA7F44593","title":"湘轩湖南乡土风味桂林店","lon":"121.42044","lat":"31.15766","category":"77","category_name":"湖南菜","address":"徐汇区桂林路37号(近钦州南路)"},{"poiid":"B2094757D068A1FB4292","title":"长丰坊","lon":"121.41585","lat":"31.154173","category":"47","category_name":"住宅区","address":"桂林西街47弄1-94号"},{"poiid":"B2094757D168A3FA439A","title":"浦北路桂林路","lon":"121.42126578","lat":"31.154662754","category":"500","category_name":"未知分类","address":"上海浦北路桂林路"},{"poiid":"B2094655D26DA7F54799","title":"上海师大新村(南门)","lon":"121.41697","lat":"31.1578","category":"47","category_name":"住宅区","address":"钦州南路650"},{"poiid":"B2094757D06AA7F54998","title":"沧浪亭(桂林路店)","lon":"121.42065","lat":"31.15585","category":"87","category_name":"特色／地方风味餐厅","address":"徐汇区桂林路46号徐汇工人文化中心内(近桂林西街)"},{"poiid":"B2094654DB6CA6FA449A","title":"长顺坊(北门)","lon":"121.4184","lat":"31.1559","category":"47","category_name":"住宅区","address":"桂林西街14弄1-24号"},{"poiid":"B2094655D26FA7F8419A","title":"上海市徐汇区康健街道双拥院(北门)","lon":"121.41725","lat":"31.15544","category":"47","category_name":"住宅区","address":"桂林西街30弄28-40号"},{"poiid":"B2094757D16DA2FC4999","title":"田林三中","lon":"121.41812","lat":"31.15756","category":"55","category_name":"中学","address":"徐汇区钦州路600号"},{"poiid":"B2094655D26FAAFD469F","title":"紫竹园","lon":"121.421","lat":"31.1583","category":"47","category_name":"住宅区","address":"上海徐汇区浦北路948弄"},{"poiid":"B2094757D06AA0FA469C","title":"长海坊","lon":"121.41872","lat":"31.157032","category":"500","category_name":"未知分类","address":"上海徐汇区桂林东街9弄"},{"poiid":"B2094757D16AAAFA4199","title":"小杨烧烤","lon":"121.416864086","lat":"31.1549065591","category":"68","category_name":"快餐厅","address":"徐汇区桂林西街92号(近桂林路)"},{"poiid":"B2094757D169A2FD429E","title":"杜鹃园幼儿园","lon":"121.416565886","lat":"31.1558406773","category":"57","category_name":"幼儿园","address":"上海桂林西街9弄"},{"poiid":"B2094757D06BA6F54693","title":"乔家大院东北菜","lon":"121.42141","lat":"31.15727","category":"82","category_name":"东北菜","address":"徐汇区桂林东街217号康乐小区"},{"poiid":"B2094752D16BAAFD409E","title":"来福士广场","lon":"121.416332","lat":"31.155282","category":"500","category_name":"未知分类","address":null},{"poiid":"B2094757D064A4F4499D","title":"晶玉港粤时尚餐厅","lon":"121.420274","lat":"31.156005","category":"72","category_name":"广东菜","address":"徐汇区桂林路46号泓和宾馆3楼(近桂林西街)"},{"poiid":"B2094654DB6CA6FA4198","title":"长青坊","lon":"121.41781","lat":"31.154461","category":"47","category_name":"住宅区","address":"桂林西街30弄1-27号"},{"poiid":"B2094757D06FA2FB469D","title":"美丽咖啡馆","lon":"121.41975647","lat":"31.158919741","category":"217","category_name":"旅馆招待所","address":"上海徐汇区桂林路64-2号"},{"poiid":"B2094655D26FA7F4449D","title":"长青坊(西门)","lon":"121.41698","lat":"31.15452","category":"47","category_name":"住宅区","address":"桂林西街30弄1-27号"},{"poiid":"B2094655D265A3FC489A","title":"上海师范大学西部第十四学生宿舍","lon":"121.41456","lat":"31.1587","category":"47","category_name":"住宅区","address":""},{"poiid":"B2094757D16BAAFC419F","title":"康健星辰","lon":"121.41837","lat":"31.15374","category":"47","category_name":"住宅区","address":"上海浦北路388弄"},{"poiid":"B2094654DB6CA6FA449C","title":"快客No.5061","lon":"121.41965","lat":"31.1563","category":"117","category_name":"便民商店/便利店","address":""},{"poiid":"B2094654DB6CA6FA449B","title":"上海师范大学第一附属小学(北门)","lon":"121.41817","lat":"31.15551","category":"656","category_name":"大门","address":"桂林西街14弄25"},{"poiid":"B2094654DB6CA6FA449D","title":"徐汇区工人文化体育中心","lon":"121.42028","lat":"31.156","category":"224","category_name":"综合体育馆","address":"桂林路46"},{"poiid":"B2094757D06BAAF8409C","title":"巴麦隆自助烤肉","lon":"121.42039058","lat":"31.157493009","category":"247","category_name":"餐饮美食","address":"上海桂林路店"},{"poiid":"B2094757D664A7FF439F","title":"笑缘美食广场","lon":"121.41651","lat":"31.15976","category":"68","category_name":"快餐厅","address":"徐汇区桂林路100号上海师范大学内(近钦州南路)"},{"poiid":"B2094757D768AAFE499D","title":"黑胡椒印度餐厅","lon":"121.41694","lat":"31.15394","category":"99","category_name":"泰国／越南菜品餐厅","address":"西街阳光100D-108B"},{"poiid":"B2094654DB6CA7F44299","title":"上海市康东网球馆","lon":"121.42217","lat":"31.15607","category":"226","category_name":"网球场","address":"徐汇区浦北路270号(近桂林路)"},{"poiid":"B2094654DB64A1FE4792","title":"昂立教育师大学校","lon":"121.42027","lat":"31.156","category":"52","category_name":"高等院校","address":"桂林路46"},{"poiid":"B209475CD268A7F4479E","title":"上海师范大学","lon":"121.415992","lat":"31.154193","category":"500","category_name":"未知分类","address":"上海市 桂林路100号"},{"poiid":"B2094655D26EA6FA489B","title":"要得火锅城","lon":"121.41917288103","lat":"31.157817163129","category":"247","category_name":"餐饮美食","address":"钦州南路601号"}]