[{"poiid":"B2094757DB6AA1FA469C","title":"庖贰牛肉火锅","lon":"121.4024688","lat":"31.1517736","category":"86","category_name":"火锅店","address":"闵行区古美路986号"},{"poiid":"B2094757D068A5FB469C","title":"中环高架","lon":"121.40972417","lat":"31.154925955","category":"500","category_name":"未知分类","address":"上海吴中路段"},{"poiid":"B2094655D26FA6F9479C","title":"古美小区","lon":"121.407","lat":"31.1619","category":"47","category_name":"住宅区","address":"东兰路111弄1-19号；东兰路121弄1-36号；东兰路151弄1-20号；古美路1107弄；古美路1135弄"},{"poiid":"B2094757D069A2FF479D","title":"桂平小区","lon":"121.40861","lat":"31.158775","category":"47","category_name":"住宅区","address":"桂平路258弄、桂平路260弄、桂平路296弄"},{"poiid":"B2094655D36CA6FC4399","title":"古美路东兰路","lon":"121.40073","lat":"31.15588","category":"38","category_name":"公交车站","address":""},{"poiid":"B2094654DB65A6FF409F","title":"东苑古龙城","lon":"121.40402","lat":"31.15259","category":"47","category_name":"住宅区","address":"古龙路66弄"},{"poiid":"B2094757D068ABFC489E","title":"蔚蓝城市花园","lon":"121.40428358","lat":"31.15089688","category":"47","category_name":"住宅区","address":"闵行区古美路828号"},{"poiid":"B2094654DB64A2FA429D","title":"华梅花苑","lon":"121.40401","lat":"31.155571","category":"47","category_name":"住宅区","address":"上海虹梅路999弄"},{"poiid":"B2094757D16EAAF44698","title":"纽斯桑拿会所(70度房)","lon":"121.400744686","lat":"31.1556668239","category":"148","category_name":"美容美发店","address":"上海纽斯桑拿会所(70度房)"},{"poiid":"B2094654DA65A5FA4092","title":"欣园新邨","lon":"121.40738","lat":"31.15731","category":"47","category_name":"住宅区","address":"桂平路257弄1-52号"},{"poiid":"B2094757D16CA1FA4893","title":"桂梅别墅","lon":"121.40885323145108","lat":"31.156210351304168","category":"47","category_name":"住宅区","address":"上海市徐汇区 桂平路251弄4～41号"},{"poiid":"B2094654DA65A5FD4098","title":"蜀香村川菜(古美路店)","lon":"121.4014","lat":"31.15481","category":"71","category_name":"四川菜","address":"闵行区古美路1058号(近平南路)"},{"poiid":"B2094757D06BA0F9449E","title":"宏亮食艺坊","lon":"121.407021","lat":"31.159352","category":"76","category_name":"上海菜","address":"徐汇区桂平路295号(漕宝路钦州南路间)"},{"poiid":"B2094655D26FA6F9409C","title":"紫薇园","lon":"121.41022","lat":"31.151243","category":"47","category_name":"住宅区","address":"桂平路123弄1-22号"},{"poiid":"B2094654DB65A2FC499D","title":"玫瑰园","lon":"121.40876","lat":"31.15394","category":"47","category_name":"住宅区","address":"玫瑰园位于徐汇桂平路165弄"},{"poiid":"B2094654DB6AA6F8479D","title":"好家快捷酒店上海漕宝路店","lon":"121.40661","lat":"31.15832","category":"250","category_name":"公园户外","address":"上海市徐汇区桂平路275弄(近漕宝路)"},{"poiid":"B2094757D66CABF84598","title":"一品齿科","lon":"121.407405836","lat":"31.1554733701","category":"162","category_name":"医院","address":"上海真光路1288号中环百联四楼(8号观光电梯直达)"},{"poiid":"B2094654DA65A5FA409F","title":"桂平路277弄","lon":"121.40699","lat":"31.15843","category":"47","category_name":"住宅区","address":"桂平路277弄"},{"poiid":"B2094757D068A3FD4098","title":"攀宇健身中心(古龙路店)","lon":"121.40351","lat":"31.15195","category":"148","category_name":"美容美发店","address":"闵行区古龙路66弄11号105室(古美路口)"},{"poiid":"B2094655D26DA7F54993","title":"华梅花苑(东门)","lon":"121.40492","lat":"31.15579","category":"47","category_name":"住宅区","address":"虹梅路999弄"},{"poiid":"B2094654DB64A2FA459B","title":"上海艺流美容美发直营店(桂平路)","lon":"121.40778","lat":"31.15857","category":"148","category_name":"美容美发店","address":"桂平路268"},{"poiid":"B2094654DA65A5FF439F","title":"徐汇区牙病防治所康健分所","lon":"121.41106","lat":"31.15634","category":"162","category_name":"医院","address":"徐汇区钦州南路780号(近虹漕南路)"},{"poiid":"B2094757D66CA1F94692","title":"苗家酒楼","lon":"121.411375886","lat":"31.15239241","category":"83","category_name":"云贵菜","address":"徐汇区桂平路99-6号(近浦北路)"},{"poiid":"B2094654DA65A5FA4093","title":"欣园新邨(东门)","lon":"121.40801","lat":"31.15756","category":"47","category_name":"住宅区","address":"桂平路257弄1-52号"},{"poiid":"B2094655D268A4FF4792","title":"桂平路258弄小区(西门)","lon":"121.40818","lat":"31.158","category":"47","category_name":"住宅区","address":"桂平路258弄1-34号"},{"poiid":"B2094654DA65A5FF439B","title":"桃源清水居","lon":"121.40959","lat":"31.156363","category":"47","category_name":"住宅区","address":"桃源清水居位于徐汇桂平路258弄35-44号"},{"poiid":"B2094757DB68AAF5449E","title":"慕寿司","lon":"121.41195","lat":"31.15662","category":"95","category_name":"日本料理","address":"徐汇区钦州南路744号"},{"poiid":"B2094757D068A4FC4398","title":"东兰小区","lon":"121.40195","lat":"31.156895","category":"47","category_name":"住宅区","address":"虹梅路1035弄"},{"poiid":"B2094757D16AA7FF469E","title":"旺晖火锅城(古美路店)","lon":"121.40104258","lat":"31.154623953","category":"86","category_name":"火锅店","address":"闵行区古美路1168号(东兰路口)"},{"poiid":"B2094654DA65A7FF409A","title":"牡丹园(2号门)","lon":"121.40964","lat":"31.1551","category":"47","category_name":"住宅区","address":"桂平路218弄"},{"poiid":"B2094757D16BA6FB459D","title":"上海文莱中学高中部","lon":"121.40659958","lat":"31.152993921","category":"55","category_name":"中学","address":"上海市闵行区虹莘路2166号"},{"poiid":"B2094654DA65A5FA459F","title":"上海存真商务楼","lon":"121.40755","lat":"31.15899","category":"46","category_name":"楼宇","address":"桂平路286号"},{"poiid":"B2094757D064AAFB459C","title":"牡丹园别墅","lon":"121.410989","lat":"31.15424","category":"47","category_name":"住宅区","address":"上海徐汇区桂平路218弄"},{"poiid":"B2094654DA65A5F94893","title":"狄龙商务楼","lon":"121.4067","lat":"31.1593","category":"46","category_name":"楼宇","address":"桂平路299"},{"poiid":"B2094654DA65A5FA4299","title":"好德便利No.907","lon":"121.4076","lat":"31.1589","category":"117","category_name":"便民商店/便利店","address":"桂平路282"},{"poiid":"B2094654DA65A5FF4392","title":"紫荆园","lon":"121.41135","lat":"31.15687","category":"47","category_name":"住宅区","address":"钦州南路768弄1-32号"},{"poiid":"B2094655D26FA1F8479B","title":"杜鹃园","lon":"121.41266","lat":"31.155005","category":"47","category_name":"住宅区","address":"钦州南路917弄4-89号"},{"poiid":"B2094757D06AA2F5449F","title":"可的便利(桂平店)","lon":"121.40758","lat":"31.15889","category":"117","category_name":"便民商店/便利店","address":"徐汇区桂平路294号"},{"poiid":"B2094655D26FAAFD469C","title":"玫瑰园(东一号门)","lon":"121.40946","lat":"31.15502","category":"47","category_name":"住宅区","address":""},{"poiid":"B2094750D66CA5FF479F","title":"小东烧烤","lon":"121.403221","lat":"31.159074","category":"68","category_name":"快餐厅","address":"闵行区东兰路258号院内(漕河泾实验小学对面)"},{"poiid":"B2094654DA65A5FF429C","title":"金正棋牌","lon":"121.40693","lat":"31.15538","category":"175","category_name":"棋牌室","address":"钦州南路1000"},{"poiid":"B2094757D06AA1FB4993","title":"中石化加油站（漕宝路虹梅路）","lon":"121.40688324","lat":"31.159936904","category":"154","category_name":"加油加气站","address":"闵行区虹梅路2028号"},{"poiid":"B2094753D56BA0F8409D","title":"上海市外滩","lon":"121.407005","lat":"31.153102","category":"500","category_name":"未知分类","address":"上海市 上海市外滩"},{"poiid":"B2094654DA65A5FA4098","title":"桂平水果店","lon":"121.40728","lat":"31.15883","category":"117","category_name":"便民商店/便利店","address":""},{"poiid":"B2094654DA65A5FF4198","title":"上海通立汽车维修服务有限公司","lon":"121.40534","lat":"31.15735","category":"159","category_name":"汽车维修","address":"虹梅路1050"},{"poiid":"B2094654DA65A5FF4092","title":"上海艾青贸易有限公司","lon":"121.40609","lat":"31.15775","category":"263","category_name":"公司","address":"闵行区虹梅路1060号(近钦州南路)"},{"poiid":"B2094655D26EABF9499C","title":"苏州藏书羊肉馆(桂平路)","lon":"121.40691","lat":"31.15954","category":"257","category_name":"中餐厅","address":"徐汇区桂平路297号(漕宝路口)"},{"poiid":"B2094655D26FA5F84298","title":"梅莲苑","lon":"121.40269","lat":"31.159204","category":"47","category_name":"住宅区","address":"虹梅路1109-1111弄"},{"poiid":"B2094655D26FABF8419D","title":"联农小区(西门)","lon":"121.40744","lat":"31.15924","category":"47","category_name":"住宅区","address":"桂平路296弄1-47号"},{"poiid":"B2094654DB65A2FC489E","title":"联农小区","lon":"121.40789","lat":"31.15932","category":"47","category_name":"住宅区","address":"桂平路296弄1-47号"},{"poiid":"B2094757DB6AA1FA469C","title":"庖贰牛肉火锅","lon":"121.4024688","lat":"31.1517736","category":"86","category_name":"火锅店","address":"闵行区古美路986号"},{"poiid":"B2094757D068A5FB469C","title":"中环高架","lon":"121.40972417","lat":"31.154925955","category":"500","category_name":"未知分类","address":"上海吴中路段"},{"poiid":"B2094655D26FA6F9479C","title":"古美小区","lon":"121.407","lat":"31.1619","category":"47","category_name":"住宅区","address":"东兰路111弄1-19号；东兰路121弄1-36号；东兰路151弄1-20号；古美路1107弄；古美路1135弄"},{"poiid":"B2094757D069A2FF479D","title":"桂平小区","lon":"121.40861","lat":"31.158775","category":"47","category_name":"住宅区","address":"桂平路258弄、桂平路260弄、桂平路296弄"},{"poiid":"B2094655D36CA6FC4399","title":"古美路东兰路","lon":"121.40073","lat":"31.15588","category":"38","category_name":"公交车站","address":""},{"poiid":"B2094654DB65A6FF409F","title":"东苑古龙城","lon":"121.40402","lat":"31.15259","category":"47","category_name":"住宅区","address":"古龙路66弄"},{"poiid":"B2094757D068ABFC489E","title":"蔚蓝城市花园","lon":"121.40428358","lat":"31.15089688","category":"47","category_name":"住宅区","address":"闵行区古美路828号"},{"poiid":"B2094654DB64A2FA429D","title":"华梅花苑","lon":"121.40401","lat":"31.155571","category":"47","category_name":"住宅区","address":"上海虹梅路999弄"},{"poiid":"B2094757D16EAAF44698","title":"纽斯桑拿会所(70度房)","lon":"121.400744686","lat":"31.1556668239","category":"148","category_name":"美容美发店","address":"上海纽斯桑拿会所(70度房)"},{"poiid":"B2094654DA65A5FA4092","title":"欣园新邨","lon":"121.40738","lat":"31.15731","category":"47","category_name":"住宅区","address":"桂平路257弄1-52号"},{"poiid":"B2094757D16CA1FA4893","title":"桂梅别墅","lon":"121.40885323145108","lat":"31.156210351304168","category":"47","category_name":"住宅区","address":"上海市徐汇区 桂平路251弄4～41号"},{"poiid":"B2094654DA65A5FD4098","title":"蜀香村川菜(古美路店)","lon":"121.4014","lat":"31.15481","category":"71","category_name":"四川菜","address":"闵行区古美路1058号(近平南路)"},{"poiid":"B2094757D06BA0F9449E","title":"宏亮食艺坊","lon":"121.407021","lat":"31.159352","category":"76","category_name":"上海菜","address":"徐汇区桂平路295号(漕宝路钦州南路间)"},{"poiid":"B2094655D26FA6F9409C","title":"紫薇园","lon":"121.41022","lat":"31.151243","category":"47","category_name":"住宅区","address":"桂平路123弄1-22号"},{"poiid":"B2094654DB65A2FC499D","title":"玫瑰园","lon":"121.40876","lat":"31.15394","category":"47","category_name":"住宅区","address":"玫瑰园位于徐汇桂平路165弄"},{"poiid":"B2094654DB6AA6F8479D","title":"好家快捷酒店上海漕宝路店","lon":"121.40661","lat":"31.15832","category":"250","category_name":"公园户外","address":"上海市徐汇区桂平路275弄(近漕宝路)"},{"poiid":"B2094757D66CABF84598","title":"一品齿科","lon":"121.407405836","lat":"31.1554733701","category":"162","category_name":"医院","address":"上海真光路1288号中环百联四楼(8号观光电梯直达)"},{"poiid":"B2094654DA65A5FA409F","title":"桂平路277弄","lon":"121.40699","lat":"31.15843","category":"47","category_name":"住宅区","address":"桂平路277弄"},{"poiid":"B2094757D068A3FD4098","title":"攀宇健身中心(古龙路店)","lon":"121.40351","lat":"31.15195","category":"148","category_name":"美容美发店","address":"闵行区古龙路66弄11号105室(古美路口)"},{"poiid":"B2094655D26DA7F54993","title":"华梅花苑(东门)","lon":"121.40492","lat":"31.15579","category":"47","category_name":"住宅区","address":"虹梅路999弄"},{"poiid":"B2094654DB64A2FA459B","title":"上海艺流美容美发直营店(桂平路)","lon":"121.40778","lat":"31.15857","category":"148","category_name":"美容美发店","address":"桂平路268"},{"poiid":"B2094654DA65A5FF439F","title":"徐汇区牙病防治所康健分所","lon":"121.41106","lat":"31.15634","category":"162","category_name":"医院","address":"徐汇区钦州南路780号(近虹漕南路)"},{"poiid":"B2094757D66CA1F94692","title":"苗家酒楼","lon":"121.411375886","lat":"31.15239241","category":"83","category_name":"云贵菜","address":"徐汇区桂平路99-6号(近浦北路)"},{"poiid":"B2094654DA65A5FA4093","title":"欣园新邨(东门)","lon":"121.40801","lat":"31.15756","category":"47","category_name":"住宅区","address":"桂平路257弄1-52号"},{"poiid":"B2094655D268A4FF4792","title":"桂平路258弄小区(西门)","lon":"121.40818","lat":"31.158","category":"47","category_name":"住宅区","address":"桂平路258弄1-34号"},{"poiid":"B2094654DA65A5FF439B","title":"桃源清水居","lon":"121.40959","lat":"31.156363","category":"47","category_name":"住宅区","address":"桃源清水居位于徐汇桂平路258弄35-44号"},{"poiid":"B2094757DB68AAF5449E","title":"慕寿司","lon":"121.41195","lat":"31.15662","category":"95","category_name":"日本料理","address":"徐汇区钦州南路744号"},{"poiid":"B2094757D068A4FC4398","title":"东兰小区","lon":"121.40195","lat":"31.156895","category":"47","category_name":"住宅区","address":"虹梅路1035弄"},{"poiid":"B2094757D16AA7FF469E","title":"旺晖火锅城(古美路店)","lon":"121.40104258","lat":"31.154623953","category":"86","category_name":"火锅店","address":"闵行区古美路1168号(东兰路口)"},{"poiid":"B2094654DA65A7FF409A","title":"牡丹园(2号门)","lon":"121.40964","lat":"31.1551","category":"47","category_name":"住宅区","address":"桂平路218弄"},{"poiid":"B2094757D16BA6FB459D","title":"上海文莱中学高中部","lon":"121.40659958","lat":"31.152993921","category":"55","category_name":"中学","address":"上海市闵行区虹莘路2166号"},{"poiid":"B2094654DA65A5FA459F","title":"上海存真商务楼","lon":"121.40755","lat":"31.15899","category":"46","category_name":"楼宇","address":"桂平路286号"},{"poiid":"B2094757D064AAFB459C","title":"牡丹园别墅","lon":"121.410989","lat":"31.15424","category":"47","category_name":"住宅区","address":"上海徐汇区桂平路218弄"},{"poiid":"B2094654DA65A5F94893","title":"狄龙商务楼","lon":"121.4067","lat":"31.1593","category":"46","category_name":"楼宇","address":"桂平路299"},{"poiid":"B2094654DA65A5FA4299","title":"好德便利No.907","lon":"121.4076","lat":"31.1589","category":"117","category_name":"便民商店/便利店","address":"桂平路282"},{"poiid":"B2094654DA65A5FF4392","title":"紫荆园","lon":"121.41135","lat":"31.15687","category":"47","category_name":"住宅区","address":"钦州南路768弄1-32号"},{"poiid":"B2094655D26FA1F8479B","title":"杜鹃园","lon":"121.41266","lat":"31.155005","category":"47","category_name":"住宅区","address":"钦州南路917弄4-89号"},{"poiid":"B2094757D06AA2F5449F","title":"可的便利(桂平店)","lon":"121.40758","lat":"31.15889","category":"117","category_name":"便民商店/便利店","address":"徐汇区桂平路294号"},{"poiid":"B2094655D26FAAFD469C","title":"玫瑰园(东一号门)","lon":"121.40946","lat":"31.15502","category":"47","category_name":"住宅区","address":""},{"poiid":"B2094750D66CA5FF479F","title":"小东烧烤","lon":"121.403221","lat":"31.159074","category":"68","category_name":"快餐厅","address":"闵行区东兰路258号院内(漕河泾实验小学对面)"},{"poiid":"B2094654DA65A5FF429C","title":"金正棋牌","lon":"121.40693","lat":"31.15538","category":"175","category_name":"棋牌室","address":"钦州南路1000"},{"poiid":"B2094757D06AA1FB4993","title":"中石化加油站（漕宝路虹梅路）","lon":"121.40688324","lat":"31.159936904","category":"154","category_name":"加油加气站","address":"闵行区虹梅路2028号"},{"poiid":"B2094753D56BA0F8409D","title":"上海市外滩","lon":"121.407005","lat":"31.153102","category":"500","category_name":"未知分类","address":"上海市 上海市外滩"},{"poiid":"B2094654DA65A5FA4098","title":"桂平水果店","lon":"121.40728","lat":"31.15883","category":"117","category_name":"便民商店/便利店","address":""},{"poiid":"B2094654DA65A5FF4198","title":"上海通立汽车维修服务有限公司","lon":"121.40534","lat":"31.15735","category":"159","category_name":"汽车维修","address":"虹梅路1050"},{"poiid":"B2094654DA65A5FF4092","title":"上海艾青贸易有限公司","lon":"121.40609","lat":"31.15775","category":"263","category_name":"公司","address":"闵行区虹梅路1060号(近钦州南路)"},{"poiid":"B2094655D26EABF9499C","title":"苏州藏书羊肉馆(桂平路)","lon":"121.40691","lat":"31.15954","category":"257","category_name":"中餐厅","address":"徐汇区桂平路297号(漕宝路口)"},{"poiid":"B2094655D26FA5F84298","title":"梅莲苑","lon":"121.40269","lat":"31.159204","category":"47","category_name":"住宅区","address":"虹梅路1109-1111弄"},{"poiid":"B2094655D26FABF8419D","title":"联农小区(西门)","lon":"121.40744","lat":"31.15924","category":"47","category_name":"住宅区","address":"桂平路296弄1-47号"},{"poiid":"B2094654DB65A2FC489E","title":"联农小区","lon":"121.40789","lat":"31.15932","category":"47","category_name":"住宅区","address":"桂平路296弄1-47号"},{"poiid":"B2094757DB6AA1FA469C","title":"庖贰牛肉火锅","lon":"121.4024688","lat":"31.1517736","category":"86","category_name":"火锅店","address":"闵行区古美路986号"},{"poiid":"B2094757D068A5FB469C","title":"中环高架","lon":"121.40972417","lat":"31.154925955","category":"500","category_name":"未知分类","address":"上海吴中路段"},{"poiid":"B2094655D26FA6F9479C","title":"古美小区","lon":"121.407","lat":"31.1619","category":"47","category_name":"住宅区","address":"东兰路111弄1-19号；东兰路121弄1-36号；东兰路151弄1-20号；古美路1107弄；古美路1135弄"},{"poiid":"B2094757D069A2FF479D","title":"桂平小区","lon":"121.40861","lat":"31.158775","category":"47","category_name":"住宅区","address":"桂平路258弄、桂平路260弄、桂平路296弄"},{"poiid":"B2094655D36CA6FC4399","title":"古美路东兰路","lon":"121.40073","lat":"31.15588","category":"38","category_name":"公交车站","address":""},{"poiid":"B2094654DB65A6FF409F","title":"东苑古龙城","lon":"121.40402","lat":"31.15259","category":"47","category_name":"住宅区","address":"古龙路66弄"},{"poiid":"B2094757D068ABFC489E","title":"蔚蓝城市花园","lon":"121.40428358","lat":"31.15089688","category":"47","category_name":"住宅区","address":"闵行区古美路828号"},{"poiid":"B2094654DB64A2FA429D","title":"华梅花苑","lon":"121.40401","lat":"31.155571","category":"47","category_name":"住宅区","address":"上海虹梅路999弄"},{"poiid":"B2094757D16EAAF44698","title":"纽斯桑拿会所(70度房)","lon":"121.400744686","lat":"31.1556668239","category":"148","category_name":"美容美发店","address":"上海纽斯桑拿会所(70度房)"},{"poiid":"B2094654DA65A5FA4092","title":"欣园新邨","lon":"121.40738","lat":"31.15731","category":"47","category_name":"住宅区","address":"桂平路257弄1-52号"},{"poiid":"B2094757D16CA1FA4893","title":"桂梅别墅","lon":"121.40885323145108","lat":"31.156210351304168","category":"47","category_name":"住宅区","address":"上海市徐汇区 桂平路251弄4～41号"},{"poiid":"B2094654DA65A5FD4098","title":"蜀香村川菜(古美路店)","lon":"121.4014","lat":"31.15481","category":"71","category_name":"四川菜","address":"闵行区古美路1058号(近平南路)"},{"poiid":"B2094757D06BA0F9449E","title":"宏亮食艺坊","lon":"121.407021","lat":"31.159352","category":"76","category_name":"上海菜","address":"徐汇区桂平路295号(漕宝路钦州南路间)"},{"poiid":"B2094655D26FA6F9409C","title":"紫薇园","lon":"121.41022","lat":"31.151243","category":"47","category_name":"住宅区","address":"桂平路123弄1-22号"},{"poiid":"B2094654DB65A2FC499D","title":"玫瑰园","lon":"121.40876","lat":"31.15394","category":"47","category_name":"住宅区","address":"玫瑰园位于徐汇桂平路165弄"},{"poiid":"B2094654DB6AA6F8479D","title":"好家快捷酒店上海漕宝路店","lon":"121.40661","lat":"31.15832","category":"250","category_name":"公园户外","address":"上海市徐汇区桂平路275弄(近漕宝路)"},{"poiid":"B2094757D66CABF84598","title":"一品齿科","lon":"121.407405836","lat":"31.1554733701","category":"162","category_name":"医院","address":"上海真光路1288号中环百联四楼(8号观光电梯直达)"},{"poiid":"B2094654DA65A5FA409F","title":"桂平路277弄","lon":"121.40699","lat":"31.15843","category":"47","category_name":"住宅区","address":"桂平路277弄"},{"poiid":"B2094757D068A3FD4098","title":"攀宇健身中心(古龙路店)","lon":"121.40351","lat":"31.15195","category":"148","category_name":"美容美发店","address":"闵行区古龙路66弄11号105室(古美路口)"},{"poiid":"B2094655D26DA7F54993","title":"华梅花苑(东门)","lon":"121.40492","lat":"31.15579","category":"47","category_name":"住宅区","address":"虹梅路999弄"},{"poiid":"B2094654DB64A2FA459B","title":"上海艺流美容美发直营店(桂平路)","lon":"121.40778","lat":"31.15857","category":"148","category_name":"美容美发店","address":"桂平路268"},{"poiid":"B2094654DA65A5FF439F","title":"徐汇区牙病防治所康健分所","lon":"121.41106","lat":"31.15634","category":"162","category_name":"医院","address":"徐汇区钦州南路780号(近虹漕南路)"},{"poiid":"B2094757D66CA1F94692","title":"苗家酒楼","lon":"121.411375886","lat":"31.15239241","category":"83","category_name":"云贵菜","address":"徐汇区桂平路99-6号(近浦北路)"},{"poiid":"B2094654DA65A5FA4093","title":"欣园新邨(东门)","lon":"121.40801","lat":"31.15756","category":"47","category_name":"住宅区","address":"桂平路257弄1-52号"},{"poiid":"B2094655D268A4FF4792","title":"桂平路258弄小区(西门)","lon":"121.40818","lat":"31.158","category":"47","category_name":"住宅区","address":"桂平路258弄1-34号"},{"poiid":"B2094654DA65A5FF439B","title":"桃源清水居","lon":"121.40959","lat":"31.156363","category":"47","category_name":"住宅区","address":"桃源清水居位于徐汇桂平路258弄35-44号"},{"poiid":"B2094757DB68AAF5449E","title":"慕寿司","lon":"121.41195","lat":"31.15662","category":"95","category_name":"日本料理","address":"徐汇区钦州南路744号"},{"poiid":"B2094757D068A4FC4398","title":"东兰小区","lon":"121.40195","lat":"31.156895","category":"47","category_name":"住宅区","address":"虹梅路1035弄"},{"poiid":"B2094757D16AA7FF469E","title":"旺晖火锅城(古美路店)","lon":"121.40104258","lat":"31.154623953","category":"86","category_name":"火锅店","address":"闵行区古美路1168号(东兰路口)"},{"poiid":"B2094654DA65A7FF409A","title":"牡丹园(2号门)","lon":"121.40964","lat":"31.1551","category":"47","category_name":"住宅区","address":"桂平路218弄"},{"poiid":"B2094757D16BA6FB459D","title":"上海文莱中学高中部","lon":"121.40659958","lat":"31.152993921","category":"55","category_name":"中学","address":"上海市闵行区虹莘路2166号"},{"poiid":"B2094654DA65A5FA459F","title":"上海存真商务楼","lon":"121.40755","lat":"31.15899","category":"46","category_name":"楼宇","address":"桂平路286号"},{"poiid":"B2094757D064AAFB459C","title":"牡丹园别墅","lon":"121.410989","lat":"31.15424","category":"47","category_name":"住宅区","address":"上海徐汇区桂平路218弄"},{"poiid":"B2094654DA65A5F94893","title":"狄龙商务楼","lon":"121.4067","lat":"31.1593","category":"46","category_name":"楼宇","address":"桂平路299"},{"poiid":"B2094654DA65A5FA4299","title":"好德便利No.907","lon":"121.4076","lat":"31.1589","category":"117","category_name":"便民商店/便利店","address":"桂平路282"},{"poiid":"B2094654DA65A5FF4392","title":"紫荆园","lon":"121.41135","lat":"31.15687","category":"47","category_name":"住宅区","address":"钦州南路768弄1-32号"},{"poiid":"B2094655D26FA1F8479B","title":"杜鹃园","lon":"121.41266","lat":"31.155005","category":"47","category_name":"住宅区","address":"钦州南路917弄4-89号"},{"poiid":"B2094757D06AA2F5449F","title":"可的便利(桂平店)","lon":"121.40758","lat":"31.15889","category":"117","category_name":"便民商店/便利店","address":"徐汇区桂平路294号"},{"poiid":"B2094655D26FAAFD469C","title":"玫瑰园(东一号门)","lon":"121.40946","lat":"31.15502","category":"47","category_name":"住宅区","address":""},{"poiid":"B2094750D66CA5FF479F","title":"小东烧烤","lon":"121.403221","lat":"31.159074","category":"68","category_name":"快餐厅","address":"闵行区东兰路258号院内(漕河泾实验小学对面)"},{"poiid":"B2094654DA65A5FF429C","title":"金正棋牌","lon":"121.40693","lat":"31.15538","category":"175","category_name":"棋牌室","address":"钦州南路1000"},{"poiid":"B2094757D06AA1FB4993","title":"中石化加油站（漕宝路虹梅路）","lon":"121.40688324","lat":"31.159936904","category":"154","category_name":"加油加气站","address":"闵行区虹梅路2028号"},{"poiid":"B2094753D56BA0F8409D","title":"上海市外滩","lon":"121.407005","lat":"31.153102","category":"500","category_name":"未知分类","address":"上海市 上海市外滩"},{"poiid":"B2094654DA65A5FA4098","title":"桂平水果店","lon":"121.40728","lat":"31.15883","category":"117","category_name":"便民商店/便利店","address":""},{"poiid":"B2094654DA65A5FF4198","title":"上海通立汽车维修服务有限公司","lon":"121.40534","lat":"31.15735","category":"159","category_name":"汽车维修","address":"虹梅路1050"},{"poiid":"B2094654DA65A5FF4092","title":"上海艾青贸易有限公司","lon":"121.40609","lat":"31.15775","category":"263","category_name":"公司","address":"闵行区虹梅路1060号(近钦州南路)"},{"poiid":"B2094655D26EABF9499C","title":"苏州藏书羊肉馆(桂平路)","lon":"121.40691","lat":"31.15954","category":"257","category_name":"中餐厅","address":"徐汇区桂平路297号(漕宝路口)"},{"poiid":"B2094655D26FA5F84298","title":"梅莲苑","lon":"121.40269","lat":"31.159204","category":"47","category_name":"住宅区","address":"虹梅路1109-1111弄"},{"poiid":"B2094655D26FABF8419D","title":"联农小区(西门)","lon":"121.40744","lat":"31.15924","category":"47","category_name":"住宅区","address":"桂平路296弄1-47号"},{"poiid":"B2094654DB65A2FC489E","title":"联农小区","lon":"121.40789","lat":"31.15932","category":"47","category_name":"住宅区","address":"桂平路296弄1-47号"}]