[{"poiid":"B2094654DA6FAAF84098","title":"外滩中心","lon":"121.494","lat":"31.238","category":"46","category_name":"楼宇","address":"上海黄浦区延安东路222号"},{"poiid":"B2094654DA6FA7FE4098","title":"滨江大道","lon":"121.49565","lat":"31.2374","category":"116","category_name":"特色商业街","address":"陆家嘴路1号"},{"poiid":"B2094757D66DA7F4469B","title":"外滩","lon":"121.490535738","lat":"31.2383514732","category":"240","category_name":"国家级景点","address":"上海市中心区黄浦江畔"},{"poiid":"B209475CD564A7F84292","title":"上海滩新天地店","lon":"121.47463","lat":"31.22164","category":"119","category_name":"商场","address":"\"太仓路181弄新天地北里15号\r\n\""},{"poiid":"B209475CD564A7F84392","title":"上海滩浦东香格里拉店","lon":"121.50058","lat":"31.23634","category":"119","category_name":"商场","address":"浦东富成路33号香格里拉酒店内大堂层"},{"poiid":"B2094654DA6FA7FD4993","title":"上海国际会议中心(Shanghai International Conference Center)","lon":"121.49694","lat":"31.23946","category":"185","category_name":"会展中心","address":"浦东新区滨江大道2727号(近丰和路)"},{"poiid":"B2094757D06FA2FF4893","title":"海鸥舫","lon":"121.49586","lat":"31.23816","category":"76","category_name":"上海菜","address":"浦东新区滨江大道2852号(滨江花园内)"},{"poiid":"B2094654DB6BABFC409C","title":"许留山 滨江大道店 Hui Lau Shan","lon":"121.49780880378","lat":"31.235935163743","category":"67","category_name":"甜品店","address":"浦东新区滨江大道1号富都段滨江花园内(浦东南路口)"},{"poiid":"B2094757D66EA0FC479F","title":"喜多屋","lon":"121.497273738","lat":"31.2359364217","category":"500","category_name":"未知分类","address":"上海正大广场七楼"},{"poiid":"B2094757D064A5FD4593","title":"外灘","lon":"121.49375073","lat":"31.240939528","category":"500","category_name":"未知分类","address":"上海市黄浦区南苏州路"},{"poiid":"B2094655D26DAAFE449F","title":"滨江公园","lon":"121.49685","lat":"31.23567","category":"196","category_name":"公园","address":"浦东新区滨江大道2967号(近丰和路)"},{"poiid":"B2094757D06FA4FA429D","title":"小南国(国际会议中心店)","lon":"121.496985714","lat":"31.2393948139","category":"76","category_name":"上海菜","address":"浦东新区滨江大道2727号国际会议中心7楼(近东方明珠电视塔)"},{"poiid":"B2094757D06FA1FC439D","title":"Bar Rouge","lon":"121.49011","lat":"31.2386","category":"260","category_name":"其他","address":"黄浦区中山东一路18号外滩18号7楼(近南京东路)"},{"poiid":"B2094757D06FA5FC439A","title":"Mr &amp; Mrs Bund","lon":"121.4901","lat":"31.23816","category":"94","category_name":"西餐厅","address":"上海黄浦区中山东一路18号外滩18号6楼(近南京东路)"},{"poiid":"B2094757D169ABFF409D","title":"枫雅日本料理","lon":"121.495364738","lat":"31.2381594691","category":"95","category_name":"日本料理","address":"浦东新区陆家嘴西路2967号北滨江B座(近滨江大道)"},{"poiid":"B2094654DB6BABFC409E","title":"Haagen-Dazs","lon":"121.49623","lat":"31.23572","category":"113","category_name":"冷饮店","address":"滨江公园西南"},{"poiid":"B2094757D16CA4FE469A","title":"罗斯福9楼露天酒吧","lon":"121.49195883","lat":"31.237938814","category":"172","category_name":"酒吧","address":"上海外滩27号"},{"poiid":"B2094655D26FA2FA409C","title":"工商联大厦","lon":"121.496","lat":"31.2374","category":"46","category_name":"楼宇","address":"上海市黄浦区延安东路45号"},{"poiid":"B2094757D06FABF4469B","title":"天水恋 Café &amp; bar","lon":"121.49577331","lat":"31.237451553","category":"65","category_name":"咖啡厅","address":"上海外滩滨江大道"},{"poiid":"B2094757D66CA0F5419A","title":"Paulaner","lon":"121.49564183","lat":"31.236288029","category":"500","category_name":"未知分类","address":"滨江大道"},{"poiid":"B2094757DB6FA2FF419C","title":"避風塘","lon":"121.4943869958333","lat":"31.23857748583332","category":"500","category_name":"未知分类","address":"正大廣場"},{"poiid":"B2094752DB64A5FB4692","title":"米子mizzi","lon":"121.495748","lat":"31.235876","category":"500","category_name":"未知分类","address":"上海市 浦东新区富城路182号"},{"poiid":"B2094752DA6DA0F8499D","title":"星期五餐厅Friday","lon":"121.493575","lat":"31.238085","category":"247","category_name":"餐饮美食","address":"上海浦东陆家嘴富城路16号"},{"poiid":"B2094757D469A7F4429D","title":"悦粤茶餐厅","lon":"121.49097","lat":"31.2412","category":"72","category_name":"广东菜","address":"黄浦区中山东一路429号(近北京东路)"},{"poiid":"B2094654DA6EA5F4429C","title":"新上海城市广场","lon":"121.49382789653","lat":"31.235365937753","category":"46","category_name":"楼宇","address":"龙蟠南路33号(龙蟠南路与秦虹路交汇处"},{"poiid":"B2094757D068A7F44998","title":"枫雅铁板烧","lon":"121.49576","lat":"31.2374","category":"269","category_name":"烧烤","address":"浦东新区陆家嘴西路2967号北滨江C座(近滨江大道)"},{"poiid":"B2094752DB6CA3F84399","title":"麝香猫咖啡 MUSKCAT COFFEE","lon":"121.496816","lat":"31.236435","category":"500","category_name":"未知分类","address":"上海市 上海市浦东新区滨江大道富都段滨江公园内"},{"poiid":"B2094655D26EAAF4479C","title":"仙踪林(滨江店)","lon":"121.4957","lat":"31.23923","category":"247","category_name":"餐饮美食","address":"浦东新区陆家嘴西路2967号北滨江大道A座(丰和路陆家嘴西路)"},{"poiid":"B2094757D06FA2FD4298","title":"上海陈毅广场","lon":"121.490514434","lat":"31.2389924275","category":"250","category_name":"公园户外","address":"黄浦区中山东一路外滩(近南京东路)"},{"poiid":"B2094757DA6AAAF54598","title":"Matto","lon":"121.4938641230534","lat":"31.23920718760844","category":"247","category_name":"餐饮美食","address":"浦东正大广场1楼"},{"poiid":"B2094654DA6FABFE459E","title":"高登金融大厦","lon":"121.497","lat":"31.2388","category":"46","category_name":"楼宇","address":"上海市黄浦区延安东路58号"},{"poiid":"B2094752D265A4FA4393","title":"hooters猫头鹰餐厅","lon":"121.496598","lat":"31.236692","category":"247","category_name":"餐饮美食","address":null},{"poiid":"B2094654DA6FA7FE409A","title":"外滩观光隧道","lon":"121.49726","lat":"31.23839","category":"250","category_name":"公园户外","address":"滨江大道2789"},{"poiid":"B2094752D364A4FE4298","title":"家有好面(南京东路店)","lon":"121.49277","lat":"31.2376","category":"68","category_name":"快餐厅","address":"黄浦区南京东路720号第一食品3楼(近贵州路)"},{"poiid":"B2094752DA6CAAFD429F","title":"T.G.I.FRiDAY浦东滨江店","lon":"121.493807","lat":"31.237982","category":"247","category_name":"餐饮美食","address":"富城路16号"},{"poiid":"B2094757D66FA6FA4693","title":"延安东路隧道","lon":"121.4938968","lat":"31.235608933","category":"260","category_name":"其他","address":"上海黄浦区延安东路-浦东新区陆家嘴西路"},{"poiid":"B2094757D56DAAFD4593","title":"正大小南国","lon":"121.493159","lat":"31.237652","category":"247","category_name":"餐饮美食","address":"陆家嘴"},{"poiid":"B2094751D56FABFD479A","title":"炉边情谈","lon":"121.496303","lat":"31.236572","category":"500","category_name":"未知分类","address":"陆家嘴正大广场"},{"poiid":"B2094757D068A4FB4692","title":"外滩观光隧道","lon":"121.49087","lat":"31.23984","category":"260","category_name":"其他","address":"黄浦区外滩中山东一路300号(外滩与陆家嘴间)"},{"poiid":"B2094757D06AA4F8479E","title":"上海海关","lon":"121.49073283","lat":"31.235817695","category":"500","category_name":"未知分类","address":"上海中山东一路13号"},{"poiid":"B2094757D069A6F5439A","title":"小竹园海鲜酒楼(外滩店)","lon":"121.493705026","lat":"31.2347289549","category":"247","category_name":"餐饮美食","address":"上海四川中路218号"},{"poiid":"B209475CD068A3F8439E","title":"望海地中海海鲜餐厅  To the sea","lon":"121.495748","lat":"31.237681","category":"100","category_name":"地中海风格菜品","address":"陆家嘴西路2967号"},{"poiid":"B2094757D16FABFE4299","title":"仙踪林","lon":"121.49111173","lat":"31.235984422","category":"500","category_name":"未知分类","address":"上海陆家嘴西路2967号北滨江大道A座(丰和路陆家嘴西路)"},{"poiid":"B2094757D06BA6FC479A","title":"18 Gallery","lon":"121.49469811","lat":"31.236609855","category":"184","category_name":"美术馆","address":"上海黄浦区中山东一路18号4楼(近南京东路)"},{"poiid":"B2094757D16BA0FD489A","title":"东昌路摆渡","lon":"121.493180738","lat":"31.2351464049","category":"500","category_name":"未知分类","address":"上海市黄浦区四川中路"},{"poiid":"B2094752DA6FABF8479B","title":"Cha Story 茶香书香","lon":"121.493504","lat":"31.237442","category":"500","category_name":"未知分类","address":"上海市 陆家嘴滨江大道"},{"poiid":"B2094750D46BABF94593","title":"小南国","lon":"121.496276","lat":"31.234474","category":"247","category_name":"餐饮美食","address":null},{"poiid":"B2094752DA69AAFD449E","title":"国金百丽宫电影院","lon":"121.497422","lat":"31.236594","category":"500","category_name":"未知分类","address":"上海市 浦东陆家嘴"},{"poiid":"B2094654DB69A6FA4099","title":"外滩情人墙","lon":"121.49021","lat":"31.2369","category":"250","category_name":"公园户外","address":"黄浦区中山东一路黄浦江边"},{"poiid":"B2094654DB69A6F94298","title":"陆家嘴金融贸易区","lon":"121.49691","lat":"31.23827","category":"45","category_name":"产业园区","address":"浦西外滩对面"},{"poiid":"B2094654DA6FAAF84098","title":"外滩中心","lon":"121.494","lat":"31.238","category":"46","category_name":"楼宇","address":"上海黄浦区延安东路222号"},{"poiid":"B2094654DA6FA7FE4098","title":"滨江大道","lon":"121.49565","lat":"31.2374","category":"116","category_name":"特色商业街","address":"陆家嘴路1号"},{"poiid":"B2094757D66DA7F4469B","title":"外滩","lon":"121.490535738","lat":"31.2383514732","category":"240","category_name":"国家级景点","address":"上海市中心区黄浦江畔"},{"poiid":"B209475CD564A7F84292","title":"上海滩新天地店","lon":"121.47463","lat":"31.22164","category":"119","category_name":"商场","address":"\"太仓路181弄新天地北里15号\r\n\""},{"poiid":"B209475CD564A7F84392","title":"上海滩浦东香格里拉店","lon":"121.50058","lat":"31.23634","category":"119","category_name":"商场","address":"浦东富成路33号香格里拉酒店内大堂层"},{"poiid":"B2094654DA6FA7FD4993","title":"上海国际会议中心(Shanghai International Conference Center)","lon":"121.49694","lat":"31.23946","category":"185","category_name":"会展中心","address":"浦东新区滨江大道2727号(近丰和路)"},{"poiid":"B2094757D06FA2FF4893","title":"海鸥舫","lon":"121.49586","lat":"31.23816","category":"76","category_name":"上海菜","address":"浦东新区滨江大道2852号(滨江花园内)"},{"poiid":"B2094654DB6BABFC409C","title":"许留山 滨江大道店 Hui Lau Shan","lon":"121.49780880378","lat":"31.235935163743","category":"67","category_name":"甜品店","address":"浦东新区滨江大道1号富都段滨江花园内(浦东南路口)"},{"poiid":"B2094757D66EA0FC479F","title":"喜多屋","lon":"121.497273738","lat":"31.2359364217","category":"500","category_name":"未知分类","address":"上海正大广场七楼"},{"poiid":"B2094757D064A5FD4593","title":"外灘","lon":"121.49375073","lat":"31.240939528","category":"500","category_name":"未知分类","address":"上海市黄浦区南苏州路"},{"poiid":"B2094655D26DAAFE449F","title":"滨江公园","lon":"121.49685","lat":"31.23567","category":"196","category_name":"公园","address":"浦东新区滨江大道2967号(近丰和路)"},{"poiid":"B2094757D06FA4FA429D","title":"小南国(国际会议中心店)","lon":"121.496985714","lat":"31.2393948139","category":"76","category_name":"上海菜","address":"浦东新区滨江大道2727号国际会议中心7楼(近东方明珠电视塔)"},{"poiid":"B2094757D06FA1FC439D","title":"Bar Rouge","lon":"121.49011","lat":"31.2386","category":"260","category_name":"其他","address":"黄浦区中山东一路18号外滩18号7楼(近南京东路)"},{"poiid":"B2094757D06FA5FC439A","title":"Mr &amp; Mrs Bund","lon":"121.4901","lat":"31.23816","category":"94","category_name":"西餐厅","address":"上海黄浦区中山东一路18号外滩18号6楼(近南京东路)"},{"poiid":"B2094757D169ABFF409D","title":"枫雅日本料理","lon":"121.495364738","lat":"31.2381594691","category":"95","category_name":"日本料理","address":"浦东新区陆家嘴西路2967号北滨江B座(近滨江大道)"},{"poiid":"B2094654DB6BABFC409E","title":"Haagen-Dazs","lon":"121.49623","lat":"31.23572","category":"113","category_name":"冷饮店","address":"滨江公园西南"},{"poiid":"B2094757D16CA4FE469A","title":"罗斯福9楼露天酒吧","lon":"121.49195883","lat":"31.237938814","category":"172","category_name":"酒吧","address":"上海外滩27号"},{"poiid":"B2094655D26FA2FA409C","title":"工商联大厦","lon":"121.496","lat":"31.2374","category":"46","category_name":"楼宇","address":"上海市黄浦区延安东路45号"},{"poiid":"B2094757D06FABF4469B","title":"天水恋 Café &amp; bar","lon":"121.49577331","lat":"31.237451553","category":"65","category_name":"咖啡厅","address":"上海外滩滨江大道"},{"poiid":"B2094757D66CA0F5419A","title":"Paulaner","lon":"121.49564183","lat":"31.236288029","category":"500","category_name":"未知分类","address":"滨江大道"},{"poiid":"B2094757DB6FA2FF419C","title":"避風塘","lon":"121.4943869958333","lat":"31.23857748583332","category":"500","category_name":"未知分类","address":"正大廣場"},{"poiid":"B2094752DB64A5FB4692","title":"米子mizzi","lon":"121.495748","lat":"31.235876","category":"500","category_name":"未知分类","address":"上海市 浦东新区富城路182号"},{"poiid":"B2094752DA6DA0F8499D","title":"星期五餐厅Friday","lon":"121.493575","lat":"31.238085","category":"247","category_name":"餐饮美食","address":"上海浦东陆家嘴富城路16号"},{"poiid":"B2094757D469A7F4429D","title":"悦粤茶餐厅","lon":"121.49097","lat":"31.2412","category":"72","category_name":"广东菜","address":"黄浦区中山东一路429号(近北京东路)"},{"poiid":"B2094654DA6EA5F4429C","title":"新上海城市广场","lon":"121.49382789653","lat":"31.235365937753","category":"46","category_name":"楼宇","address":"龙蟠南路33号(龙蟠南路与秦虹路交汇处"},{"poiid":"B2094757D068A7F44998","title":"枫雅铁板烧","lon":"121.49576","lat":"31.2374","category":"269","category_name":"烧烤","address":"浦东新区陆家嘴西路2967号北滨江C座(近滨江大道)"},{"poiid":"B2094752DB6CA3F84399","title":"麝香猫咖啡 MUSKCAT COFFEE","lon":"121.496816","lat":"31.236435","category":"500","category_name":"未知分类","address":"上海市 上海市浦东新区滨江大道富都段滨江公园内"},{"poiid":"B2094655D26EAAF4479C","title":"仙踪林(滨江店)","lon":"121.4957","lat":"31.23923","category":"247","category_name":"餐饮美食","address":"浦东新区陆家嘴西路2967号北滨江大道A座(丰和路陆家嘴西路)"},{"poiid":"B2094757D06FA2FD4298","title":"上海陈毅广场","lon":"121.490514434","lat":"31.2389924275","category":"250","category_name":"公园户外","address":"黄浦区中山东一路外滩(近南京东路)"},{"poiid":"B2094757DA6AAAF54598","title":"Matto","lon":"121.4938641230534","lat":"31.23920718760844","category":"247","category_name":"餐饮美食","address":"浦东正大广场1楼"},{"poiid":"B2094654DA6FABFE459E","title":"高登金融大厦","lon":"121.497","lat":"31.2388","category":"46","category_name":"楼宇","address":"上海市黄浦区延安东路58号"},{"poiid":"B2094752D265A4FA4393","title":"hooters猫头鹰餐厅","lon":"121.496598","lat":"31.236692","category":"247","category_name":"餐饮美食","address":null},{"poiid":"B2094654DA6FA7FE409A","title":"外滩观光隧道","lon":"121.49726","lat":"31.23839","category":"250","category_name":"公园户外","address":"滨江大道2789"},{"poiid":"B2094752D364A4FE4298","title":"家有好面(南京东路店)","lon":"121.49277","lat":"31.2376","category":"68","category_name":"快餐厅","address":"黄浦区南京东路720号第一食品3楼(近贵州路)"},{"poiid":"B2094752DA6CAAFD429F","title":"T.G.I.FRiDAY浦东滨江店","lon":"121.493807","lat":"31.237982","category":"247","category_name":"餐饮美食","address":"富城路16号"},{"poiid":"B2094757D66FA6FA4693","title":"延安东路隧道","lon":"121.4938968","lat":"31.235608933","category":"260","category_name":"其他","address":"上海黄浦区延安东路-浦东新区陆家嘴西路"},{"poiid":"B2094757D56DAAFD4593","title":"正大小南国","lon":"121.493159","lat":"31.237652","category":"247","category_name":"餐饮美食","address":"陆家嘴"},{"poiid":"B2094751D56FABFD479A","title":"炉边情谈","lon":"121.496303","lat":"31.236572","category":"500","category_name":"未知分类","address":"陆家嘴正大广场"},{"poiid":"B2094757D068A4FB4692","title":"外滩观光隧道","lon":"121.49087","lat":"31.23984","category":"260","category_name":"其他","address":"黄浦区外滩中山东一路300号(外滩与陆家嘴间)"},{"poiid":"B2094757D06AA4F8479E","title":"上海海关","lon":"121.49073283","lat":"31.235817695","category":"500","category_name":"未知分类","address":"上海中山东一路13号"},{"poiid":"B2094757D069A6F5439A","title":"小竹园海鲜酒楼(外滩店)","lon":"121.493705026","lat":"31.2347289549","category":"247","category_name":"餐饮美食","address":"上海四川中路218号"},{"poiid":"B209475CD068A3F8439E","title":"望海地中海海鲜餐厅  To the sea","lon":"121.495748","lat":"31.237681","category":"100","category_name":"地中海风格菜品","address":"陆家嘴西路2967号"},{"poiid":"B2094757D16FABFE4299","title":"仙踪林","lon":"121.49111173","lat":"31.235984422","category":"500","category_name":"未知分类","address":"上海陆家嘴西路2967号北滨江大道A座(丰和路陆家嘴西路)"},{"poiid":"B2094757D06BA6FC479A","title":"18 Gallery","lon":"121.49469811","lat":"31.236609855","category":"184","category_name":"美术馆","address":"上海黄浦区中山东一路18号4楼(近南京东路)"},{"poiid":"B2094757D16BA0FD489A","title":"东昌路摆渡","lon":"121.493180738","lat":"31.2351464049","category":"500","category_name":"未知分类","address":"上海市黄浦区四川中路"},{"poiid":"B2094752DA6FABF8479B","title":"Cha Story 茶香书香","lon":"121.493504","lat":"31.237442","category":"500","category_name":"未知分类","address":"上海市 陆家嘴滨江大道"},{"poiid":"B2094750D46BABF94593","title":"小南国","lon":"121.496276","lat":"31.234474","category":"247","category_name":"餐饮美食","address":null},{"poiid":"B2094752DA69AAFD449E","title":"国金百丽宫电影院","lon":"121.497422","lat":"31.236594","category":"500","category_name":"未知分类","address":"上海市 浦东陆家嘴"},{"poiid":"B2094654DB69A6FA4099","title":"外滩情人墙","lon":"121.49021","lat":"31.2369","category":"250","category_name":"公园户外","address":"黄浦区中山东一路黄浦江边"},{"poiid":"B2094654DB69A6F94298","title":"陆家嘴金融贸易区","lon":"121.49691","lat":"31.23827","category":"45","category_name":"产业园区","address":"浦西外滩对面"},{"poiid":"B2094654DA6FAAF84098","title":"外滩中心","lon":"121.494","lat":"31.238","category":"46","category_name":"楼宇","address":"上海黄浦区延安东路222号"},{"poiid":"B2094654DA6FA7FE4098","title":"滨江大道","lon":"121.49565","lat":"31.2374","category":"116","category_name":"特色商业街","address":"陆家嘴路1号"},{"poiid":"B2094757D66DA7F4469B","title":"外滩","lon":"121.490535738","lat":"31.2383514732","category":"240","category_name":"国家级景点","address":"上海市中心区黄浦江畔"},{"poiid":"B209475CD564A7F84292","title":"上海滩新天地店","lon":"121.47463","lat":"31.22164","category":"119","category_name":"商场","address":"\"太仓路181弄新天地北里15号\r\n\""},{"poiid":"B209475CD564A7F84392","title":"上海滩浦东香格里拉店","lon":"121.50058","lat":"31.23634","category":"119","category_name":"商场","address":"浦东富成路33号香格里拉酒店内大堂层"},{"poiid":"B2094654DA6FA7FD4993","title":"上海国际会议中心(Shanghai International Conference Center)","lon":"121.49694","lat":"31.23946","category":"185","category_name":"会展中心","address":"浦东新区滨江大道2727号(近丰和路)"},{"poiid":"B2094757D06FA2FF4893","title":"海鸥舫","lon":"121.49586","lat":"31.23816","category":"76","category_name":"上海菜","address":"浦东新区滨江大道2852号(滨江花园内)"},{"poiid":"B2094654DB6BABFC409C","title":"许留山 滨江大道店 Hui Lau Shan","lon":"121.49780880378","lat":"31.235935163743","category":"67","category_name":"甜品店","address":"浦东新区滨江大道1号富都段滨江花园内(浦东南路口)"},{"poiid":"B2094757D66EA0FC479F","title":"喜多屋","lon":"121.497273738","lat":"31.2359364217","category":"500","category_name":"未知分类","address":"上海正大广场七楼"},{"poiid":"B2094757D064A5FD4593","title":"外灘","lon":"121.49375073","lat":"31.240939528","category":"500","category_name":"未知分类","address":"上海市黄浦区南苏州路"},{"poiid":"B2094655D26DAAFE449F","title":"滨江公园","lon":"121.49685","lat":"31.23567","category":"196","category_name":"公园","address":"浦东新区滨江大道2967号(近丰和路)"},{"poiid":"B2094757D06FA4FA429D","title":"小南国(国际会议中心店)","lon":"121.496985714","lat":"31.2393948139","category":"76","category_name":"上海菜","address":"浦东新区滨江大道2727号国际会议中心7楼(近东方明珠电视塔)"},{"poiid":"B2094757D06FA1FC439D","title":"Bar Rouge","lon":"121.49011","lat":"31.2386","category":"260","category_name":"其他","address":"黄浦区中山东一路18号外滩18号7楼(近南京东路)"},{"poiid":"B2094757D06FA5FC439A","title":"Mr &amp; Mrs Bund","lon":"121.4901","lat":"31.23816","category":"94","category_name":"西餐厅","address":"上海黄浦区中山东一路18号外滩18号6楼(近南京东路)"},{"poiid":"B2094757D169ABFF409D","title":"枫雅日本料理","lon":"121.495364738","lat":"31.2381594691","category":"95","category_name":"日本料理","address":"浦东新区陆家嘴西路2967号北滨江B座(近滨江大道)"},{"poiid":"B2094654DB6BABFC409E","title":"Haagen-Dazs","lon":"121.49623","lat":"31.23572","category":"113","category_name":"冷饮店","address":"滨江公园西南"},{"poiid":"B2094757D16CA4FE469A","title":"罗斯福9楼露天酒吧","lon":"121.49195883","lat":"31.237938814","category":"172","category_name":"酒吧","address":"上海外滩27号"},{"poiid":"B2094655D26FA2FA409C","title":"工商联大厦","lon":"121.496","lat":"31.2374","category":"46","category_name":"楼宇","address":"上海市黄浦区延安东路45号"},{"poiid":"B2094757D06FABF4469B","title":"天水恋 Café &amp; bar","lon":"121.49577331","lat":"31.237451553","category":"65","category_name":"咖啡厅","address":"上海外滩滨江大道"},{"poiid":"B2094757D66CA0F5419A","title":"Paulaner","lon":"121.49564183","lat":"31.236288029","category":"500","category_name":"未知分类","address":"滨江大道"},{"poiid":"B2094757DB6FA2FF419C","title":"避風塘","lon":"121.4943869958333","lat":"31.23857748583332","category":"500","category_name":"未知分类","address":"正大廣場"},{"poiid":"B2094752DB64A5FB4692","title":"米子mizzi","lon":"121.495748","lat":"31.235876","category":"500","category_name":"未知分类","address":"上海市 浦东新区富城路182号"},{"poiid":"B2094752DA6DA0F8499D","title":"星期五餐厅Friday","lon":"121.493575","lat":"31.238085","category":"247","category_name":"餐饮美食","address":"上海浦东陆家嘴富城路16号"},{"poiid":"B2094757D469A7F4429D","title":"悦粤茶餐厅","lon":"121.49097","lat":"31.2412","category":"72","category_name":"广东菜","address":"黄浦区中山东一路429号(近北京东路)"},{"poiid":"B2094654DA6EA5F4429C","title":"新上海城市广场","lon":"121.49382789653","lat":"31.235365937753","category":"46","category_name":"楼宇","address":"龙蟠南路33号(龙蟠南路与秦虹路交汇处"},{"poiid":"B2094757D068A7F44998","title":"枫雅铁板烧","lon":"121.49576","lat":"31.2374","category":"269","category_name":"烧烤","address":"浦东新区陆家嘴西路2967号北滨江C座(近滨江大道)"},{"poiid":"B2094752DB6CA3F84399","title":"麝香猫咖啡 MUSKCAT COFFEE","lon":"121.496816","lat":"31.236435","category":"500","category_name":"未知分类","address":"上海市 上海市浦东新区滨江大道富都段滨江公园内"},{"poiid":"B2094655D26EAAF4479C","title":"仙踪林(滨江店)","lon":"121.4957","lat":"31.23923","category":"247","category_name":"餐饮美食","address":"浦东新区陆家嘴西路2967号北滨江大道A座(丰和路陆家嘴西路)"},{"poiid":"B2094757D06FA2FD4298","title":"上海陈毅广场","lon":"121.490514434","lat":"31.2389924275","category":"250","category_name":"公园户外","address":"黄浦区中山东一路外滩(近南京东路)"},{"poiid":"B2094757DA6AAAF54598","title":"Matto","lon":"121.4938641230534","lat":"31.23920718760844","category":"247","category_name":"餐饮美食","address":"浦东正大广场1楼"},{"poiid":"B2094654DA6FABFE459E","title":"高登金融大厦","lon":"121.497","lat":"31.2388","category":"46","category_name":"楼宇","address":"上海市黄浦区延安东路58号"},{"poiid":"B2094752D265A4FA4393","title":"hooters猫头鹰餐厅","lon":"121.496598","lat":"31.236692","category":"247","category_name":"餐饮美食","address":null},{"poiid":"B2094654DA6FA7FE409A","title":"外滩观光隧道","lon":"121.49726","lat":"31.23839","category":"250","category_name":"公园户外","address":"滨江大道2789"},{"poiid":"B2094752D364A4FE4298","title":"家有好面(南京东路店)","lon":"121.49277","lat":"31.2376","category":"68","category_name":"快餐厅","address":"黄浦区南京东路720号第一食品3楼(近贵州路)"},{"poiid":"B2094752DA6CAAFD429F","title":"T.G.I.FRiDAY浦东滨江店","lon":"121.493807","lat":"31.237982","category":"247","category_name":"餐饮美食","address":"富城路16号"},{"poiid":"B2094757D66FA6FA4693","title":"延安东路隧道","lon":"121.4938968","lat":"31.235608933","category":"260","category_name":"其他","address":"上海黄浦区延安东路-浦东新区陆家嘴西路"},{"poiid":"B2094757D56DAAFD4593","title":"正大小南国","lon":"121.493159","lat":"31.237652","category":"247","category_name":"餐饮美食","address":"陆家嘴"},{"poiid":"B2094751D56FABFD479A","title":"炉边情谈","lon":"121.496303","lat":"31.236572","category":"500","category_name":"未知分类","address":"陆家嘴正大广场"},{"poiid":"B2094757D068A4FB4692","title":"外滩观光隧道","lon":"121.49087","lat":"31.23984","category":"260","category_name":"其他","address":"黄浦区外滩中山东一路300号(外滩与陆家嘴间)"},{"poiid":"B2094757D06AA4F8479E","title":"上海海关","lon":"121.49073283","lat":"31.235817695","category":"500","category_name":"未知分类","address":"上海中山东一路13号"},{"poiid":"B2094757D069A6F5439A","title":"小竹园海鲜酒楼(外滩店)","lon":"121.493705026","lat":"31.2347289549","category":"247","category_name":"餐饮美食","address":"上海四川中路218号"},{"poiid":"B209475CD068A3F8439E","title":"望海地中海海鲜餐厅  To the sea","lon":"121.495748","lat":"31.237681","category":"100","category_name":"地中海风格菜品","address":"陆家嘴西路2967号"},{"poiid":"B2094757D16FABFE4299","title":"仙踪林","lon":"121.49111173","lat":"31.235984422","category":"500","category_name":"未知分类","address":"上海陆家嘴西路2967号北滨江大道A座(丰和路陆家嘴西路)"},{"poiid":"B2094757D06BA6FC479A","title":"18 Gallery","lon":"121.49469811","lat":"31.236609855","category":"184","category_name":"美术馆","address":"上海黄浦区中山东一路18号4楼(近南京东路)"},{"poiid":"B2094757D16BA0FD489A","title":"东昌路摆渡","lon":"121.493180738","lat":"31.2351464049","category":"500","category_name":"未知分类","address":"上海市黄浦区四川中路"},{"poiid":"B2094752DA6FABF8479B","title":"Cha Story 茶香书香","lon":"121.493504","lat":"31.237442","category":"500","category_name":"未知分类","address":"上海市 陆家嘴滨江大道"},{"poiid":"B2094750D46BABF94593","title":"小南国","lon":"121.496276","lat":"31.234474","category":"247","category_name":"餐饮美食","address":null},{"poiid":"B2094752DA69AAFD449E","title":"国金百丽宫电影院","lon":"121.497422","lat":"31.236594","category":"500","category_name":"未知分类","address":"上海市 浦东陆家嘴"},{"poiid":"B2094654DB69A6FA4099","title":"外滩情人墙","lon":"121.49021","lat":"31.2369","category":"250","category_name":"公园户外","address":"黄浦区中山东一路黄浦江边"},{"poiid":"B2094654DB69A6F94298","title":"陆家嘴金融贸易区","lon":"121.49691","lat":"31.23827","category":"45","category_name":"产业园区","address":"浦西外滩对面"},{"poiid":"B2094654DA6FAAF84098","title":"外滩中心","lon":"121.494","lat":"31.238","category":"46","category_name":"楼宇","address":"上海黄浦区延安东路222号"},{"poiid":"B2094654DA6FA7FE4098","title":"滨江大道","lon":"121.49565","lat":"31.2374","category":"116","category_name":"特色商业街","address":"陆家嘴路1号"},{"poiid":"B2094757D66DA7F4469B","title":"外滩","lon":"121.490535738","lat":"31.2383514732","category":"240","category_name":"国家级景点","address":"上海市中心区黄浦江畔"},{"poiid":"B209475CD564A7F84292","title":"上海滩新天地店","lon":"121.47463","lat":"31.22164","category":"119","category_name":"商场","address":"\"太仓路181弄新天地北里15号\r\n\""},{"poiid":"B209475CD564A7F84392","title":"上海滩浦东香格里拉店","lon":"121.50058","lat":"31.23634","category":"119","category_name":"商场","address":"浦东富成路33号香格里拉酒店内大堂层"},{"poiid":"B2094654DA6FA7FD4993","title":"上海国际会议中心(Shanghai International Conference Center)","lon":"121.49694","lat":"31.23946","category":"185","category_name":"会展中心","address":"浦东新区滨江大道2727号(近丰和路)"},{"poiid":"B2094757D06FA2FF4893","title":"海鸥舫","lon":"121.49586","lat":"31.23816","category":"76","category_name":"上海菜","address":"浦东新区滨江大道2852号(滨江花园内)"},{"poiid":"B2094654DB6BABFC409C","title":"许留山 滨江大道店 Hui Lau Shan","lon":"121.49780880378","lat":"31.235935163743","category":"67","category_name":"甜品店","address":"浦东新区滨江大道1号富都段滨江花园内(浦东南路口)"},{"poiid":"B2094757D66EA0FC479F","title":"喜多屋","lon":"121.497273738","lat":"31.2359364217","category":"500","category_name":"未知分类","address":"上海正大广场七楼"},{"poiid":"B2094757D064A5FD4593","title":"外灘","lon":"121.49375073","lat":"31.240939528","category":"500","category_name":"未知分类","address":"上海市黄浦区南苏州路"},{"poiid":"B2094655D26DAAFE449F","title":"滨江公园","lon":"121.49685","lat":"31.23567","category":"196","category_name":"公园","address":"浦东新区滨江大道2967号(近丰和路)"},{"poiid":"B2094757D06FA4FA429D","title":"小南国(国际会议中心店)","lon":"121.496985714","lat":"31.2393948139","category":"76","category_name":"上海菜","address":"浦东新区滨江大道2727号国际会议中心7楼(近东方明珠电视塔)"},{"poiid":"B2094757D06FA1FC439D","title":"Bar Rouge","lon":"121.49011","lat":"31.2386","category":"260","category_name":"其他","address":"黄浦区中山东一路18号外滩18号7楼(近南京东路)"},{"poiid":"B2094757D06FA5FC439A","title":"Mr &amp; Mrs Bund","lon":"121.4901","lat":"31.23816","category":"94","category_name":"西餐厅","address":"上海黄浦区中山东一路18号外滩18号6楼(近南京东路)"},{"poiid":"B2094757D169ABFF409D","title":"枫雅日本料理","lon":"121.495364738","lat":"31.2381594691","category":"95","category_name":"日本料理","address":"浦东新区陆家嘴西路2967号北滨江B座(近滨江大道)"},{"poiid":"B2094654DB6BABFC409E","title":"Haagen-Dazs","lon":"121.49623","lat":"31.23572","category":"113","category_name":"冷饮店","address":"滨江公园西南"},{"poiid":"B2094757D16CA4FE469A","title":"罗斯福9楼露天酒吧","lon":"121.49195883","lat":"31.237938814","category":"172","category_name":"酒吧","address":"上海外滩27号"},{"poiid":"B2094655D26FA2FA409C","title":"工商联大厦","lon":"121.496","lat":"31.2374","category":"46","category_name":"楼宇","address":"上海市黄浦区延安东路45号"},{"poiid":"B2094757D06FABF4469B","title":"天水恋 Café &amp; bar","lon":"121.49577331","lat":"31.237451553","category":"65","category_name":"咖啡厅","address":"上海外滩滨江大道"},{"poiid":"B2094757D66CA0F5419A","title":"Paulaner","lon":"121.49564183","lat":"31.236288029","category":"500","category_name":"未知分类","address":"滨江大道"},{"poiid":"B2094757DB6FA2FF419C","title":"避風塘","lon":"121.4943869958333","lat":"31.23857748583332","category":"500","category_name":"未知分类","address":"正大廣場"},{"poiid":"B2094752DB64A5FB4692","title":"米子mizzi","lon":"121.495748","lat":"31.235876","category":"500","category_name":"未知分类","address":"上海市 浦东新区富城路182号"},{"poiid":"B2094752DA6DA0F8499D","title":"星期五餐厅Friday","lon":"121.493575","lat":"31.238085","category":"247","category_name":"餐饮美食","address":"上海浦东陆家嘴富城路16号"},{"poiid":"B2094757D469A7F4429D","title":"悦粤茶餐厅","lon":"121.49097","lat":"31.2412","category":"72","category_name":"广东菜","address":"黄浦区中山东一路429号(近北京东路)"},{"poiid":"B2094654DA6EA5F4429C","title":"新上海城市广场","lon":"121.49382789653","lat":"31.235365937753","category":"46","category_name":"楼宇","address":"龙蟠南路33号(龙蟠南路与秦虹路交汇处"},{"poiid":"B2094757D068A7F44998","title":"枫雅铁板烧","lon":"121.49576","lat":"31.2374","category":"269","category_name":"烧烤","address":"浦东新区陆家嘴西路2967号北滨江C座(近滨江大道)"},{"poiid":"B2094752DB6CA3F84399","title":"麝香猫咖啡 MUSKCAT COFFEE","lon":"121.496816","lat":"31.236435","category":"500","category_name":"未知分类","address":"上海市 上海市浦东新区滨江大道富都段滨江公园内"},{"poiid":"B2094655D26EAAF4479C","title":"仙踪林(滨江店)","lon":"121.4957","lat":"31.23923","category":"247","category_name":"餐饮美食","address":"浦东新区陆家嘴西路2967号北滨江大道A座(丰和路陆家嘴西路)"},{"poiid":"B2094757D06FA2FD4298","title":"上海陈毅广场","lon":"121.490514434","lat":"31.2389924275","category":"250","category_name":"公园户外","address":"黄浦区中山东一路外滩(近南京东路)"},{"poiid":"B2094757DA6AAAF54598","title":"Matto","lon":"121.4938641230534","lat":"31.23920718760844","category":"247","category_name":"餐饮美食","address":"浦东正大广场1楼"},{"poiid":"B2094654DA6FABFE459E","title":"高登金融大厦","lon":"121.497","lat":"31.2388","category":"46","category_name":"楼宇","address":"上海市黄浦区延安东路58号"},{"poiid":"B2094752D265A4FA4393","title":"hooters猫头鹰餐厅","lon":"121.496598","lat":"31.236692","category":"247","category_name":"餐饮美食","address":null},{"poiid":"B2094654DA6FA7FE409A","title":"外滩观光隧道","lon":"121.49726","lat":"31.23839","category":"250","category_name":"公园户外","address":"滨江大道2789"},{"poiid":"B2094752D364A4FE4298","title":"家有好面(南京东路店)","lon":"121.49277","lat":"31.2376","category":"68","category_name":"快餐厅","address":"黄浦区南京东路720号第一食品3楼(近贵州路)"},{"poiid":"B2094752DA6CAAFD429F","title":"T.G.I.FRiDAY浦东滨江店","lon":"121.493807","lat":"31.237982","category":"247","category_name":"餐饮美食","address":"富城路16号"},{"poiid":"B2094757D66FA6FA4693","title":"延安东路隧道","lon":"121.4938968","lat":"31.235608933","category":"260","category_name":"其他","address":"上海黄浦区延安东路-浦东新区陆家嘴西路"},{"poiid":"B2094757D56DAAFD4593","title":"正大小南国","lon":"121.493159","lat":"31.237652","category":"247","category_name":"餐饮美食","address":"陆家嘴"},{"poiid":"B2094751D56FABFD479A","title":"炉边情谈","lon":"121.496303","lat":"31.236572","category":"500","category_name":"未知分类","address":"陆家嘴正大广场"},{"poiid":"B2094757D068A4FB4692","title":"外滩观光隧道","lon":"121.49087","lat":"31.23984","category":"260","category_name":"其他","address":"黄浦区外滩中山东一路300号(外滩与陆家嘴间)"},{"poiid":"B2094757D06AA4F8479E","title":"上海海关","lon":"121.49073283","lat":"31.235817695","category":"500","category_name":"未知分类","address":"上海中山东一路13号"},{"poiid":"B2094757D069A6F5439A","title":"小竹园海鲜酒楼(外滩店)","lon":"121.493705026","lat":"31.2347289549","category":"247","category_name":"餐饮美食","address":"上海四川中路218号"},{"poiid":"B209475CD068A3F8439E","title":"望海地中海海鲜餐厅  To the sea","lon":"121.495748","lat":"31.237681","category":"100","category_name":"地中海风格菜品","address":"陆家嘴西路2967号"},{"poiid":"B2094757D16FABFE4299","title":"仙踪林","lon":"121.49111173","lat":"31.235984422","category":"500","category_name":"未知分类","address":"上海陆家嘴西路2967号北滨江大道A座(丰和路陆家嘴西路)"},{"poiid":"B2094757D06BA6FC479A","title":"18 Gallery","lon":"121.49469811","lat":"31.236609855","category":"184","category_name":"美术馆","address":"上海黄浦区中山东一路18号4楼(近南京东路)"},{"poiid":"B2094757D16BA0FD489A","title":"东昌路摆渡","lon":"121.493180738","lat":"31.2351464049","category":"500","category_name":"未知分类","address":"上海市黄浦区四川中路"},{"poiid":"B2094752DA6FABF8479B","title":"Cha Story 茶香书香","lon":"121.493504","lat":"31.237442","category":"500","category_name":"未知分类","address":"上海市 陆家嘴滨江大道"},{"poiid":"B2094750D46BABF94593","title":"小南国","lon":"121.496276","lat":"31.234474","category":"247","category_name":"餐饮美食","address":null},{"poiid":"B2094752DA69AAFD449E","title":"国金百丽宫电影院","lon":"121.497422","lat":"31.236594","category":"500","category_name":"未知分类","address":"上海市 浦东陆家嘴"},{"poiid":"B2094654DB69A6FA4099","title":"外滩情人墙","lon":"121.49021","lat":"31.2369","category":"250","category_name":"公园户外","address":"黄浦区中山东一路黄浦江边"},{"poiid":"B2094654DB69A6F94298","title":"陆家嘴金融贸易区","lon":"121.49691","lat":"31.23827","category":"45","category_name":"产业园区","address":"浦西外滩对面"},{"poiid":"B2094654DA6FAAF84098","title":"外滩中心","lon":"121.494","lat":"31.238","category":"46","category_name":"楼宇","address":"上海黄浦区延安东路222号"},{"poiid":"B2094654DA6FA7FE4098","title":"滨江大道","lon":"121.49565","lat":"31.2374","category":"116","category_name":"特色商业街","address":"陆家嘴路1号"},{"poiid":"B2094757D66DA7F4469B","title":"外滩","lon":"121.490535738","lat":"31.2383514732","category":"240","category_name":"国家级景点","address":"上海市中心区黄浦江畔"},{"poiid":"B209475CD564A7F84292","title":"上海滩新天地店","lon":"121.47463","lat":"31.22164","category":"119","category_name":"商场","address":"\"太仓路181弄新天地北里15号\r\n\""},{"poiid":"B209475CD564A7F84392","title":"上海滩浦东香格里拉店","lon":"121.50058","lat":"31.23634","category":"119","category_name":"商场","address":"浦东富成路33号香格里拉酒店内大堂层"},{"poiid":"B2094654DA6FA7FD4993","title":"上海国际会议中心(Shanghai International Conference Center)","lon":"121.49694","lat":"31.23946","category":"185","category_name":"会展中心","address":"浦东新区滨江大道2727号(近丰和路)"},{"poiid":"B2094757D06FA2FF4893","title":"海鸥舫","lon":"121.49586","lat":"31.23816","category":"76","category_name":"上海菜","address":"浦东新区滨江大道2852号(滨江花园内)"},{"poiid":"B2094654DB6BABFC409C","title":"许留山 滨江大道店 Hui Lau Shan","lon":"121.49780880378","lat":"31.235935163743","category":"67","category_name":"甜品店","address":"浦东新区滨江大道1号富都段滨江花园内(浦东南路口)"},{"poiid":"B2094757D66EA0FC479F","title":"喜多屋","lon":"121.497273738","lat":"31.2359364217","category":"500","category_name":"未知分类","address":"上海正大广场七楼"},{"poiid":"B2094757D064A5FD4593","title":"外灘","lon":"121.49375073","lat":"31.240939528","category":"500","category_name":"未知分类","address":"上海市黄浦区南苏州路"},{"poiid":"B2094655D26DAAFE449F","title":"滨江公园","lon":"121.49685","lat":"31.23567","category":"196","category_name":"公园","address":"浦东新区滨江大道2967号(近丰和路)"},{"poiid":"B2094757D06FA4FA429D","title":"小南国(国际会议中心店)","lon":"121.496985714","lat":"31.2393948139","category":"76","category_name":"上海菜","address":"浦东新区滨江大道2727号国际会议中心7楼(近东方明珠电视塔)"},{"poiid":"B2094757D06FA1FC439D","title":"Bar Rouge","lon":"121.49011","lat":"31.2386","category":"260","category_name":"其他","address":"黄浦区中山东一路18号外滩18号7楼(近南京东路)"},{"poiid":"B2094757D06FA5FC439A","title":"Mr &amp; Mrs Bund","lon":"121.4901","lat":"31.23816","category":"94","category_name":"西餐厅","address":"上海黄浦区中山东一路18号外滩18号6楼(近南京东路)"},{"poiid":"B2094757D169ABFF409D","title":"枫雅日本料理","lon":"121.495364738","lat":"31.2381594691","category":"95","category_name":"日本料理","address":"浦东新区陆家嘴西路2967号北滨江B座(近滨江大道)"},{"poiid":"B2094654DB6BABFC409E","title":"Haagen-Dazs","lon":"121.49623","lat":"31.23572","category":"113","category_name":"冷饮店","address":"滨江公园西南"},{"poiid":"B2094757D16CA4FE469A","title":"罗斯福9楼露天酒吧","lon":"121.49195883","lat":"31.237938814","category":"172","category_name":"酒吧","address":"上海外滩27号"},{"poiid":"B2094655D26FA2FA409C","title":"工商联大厦","lon":"121.496","lat":"31.2374","category":"46","category_name":"楼宇","address":"上海市黄浦区延安东路45号"},{"poiid":"B2094757D06FABF4469B","title":"天水恋 Café &amp; bar","lon":"121.49577331","lat":"31.237451553","category":"65","category_name":"咖啡厅","address":"上海外滩滨江大道"},{"poiid":"B2094757D66CA0F5419A","title":"Paulaner","lon":"121.49564183","lat":"31.236288029","category":"500","category_name":"未知分类","address":"滨江大道"},{"poiid":"B2094757DB6FA2FF419C","title":"避風塘","lon":"121.4943869958333","lat":"31.23857748583332","category":"500","category_name":"未知分类","address":"正大廣場"},{"poiid":"B2094752DB64A5FB4692","title":"米子mizzi","lon":"121.495748","lat":"31.235876","category":"500","category_name":"未知分类","address":"上海市 浦东新区富城路182号"},{"poiid":"B2094752DA6DA0F8499D","title":"星期五餐厅Friday","lon":"121.493575","lat":"31.238085","category":"247","category_name":"餐饮美食","address":"上海浦东陆家嘴富城路16号"},{"poiid":"B2094757D469A7F4429D","title":"悦粤茶餐厅","lon":"121.49097","lat":"31.2412","category":"72","category_name":"广东菜","address":"黄浦区中山东一路429号(近北京东路)"},{"poiid":"B2094654DA6EA5F4429C","title":"新上海城市广场","lon":"121.49382789653","lat":"31.235365937753","category":"46","category_name":"楼宇","address":"龙蟠南路33号(龙蟠南路与秦虹路交汇处"},{"poiid":"B2094757D068A7F44998","title":"枫雅铁板烧","lon":"121.49576","lat":"31.2374","category":"269","category_name":"烧烤","address":"浦东新区陆家嘴西路2967号北滨江C座(近滨江大道)"},{"poiid":"B2094752DB6CA3F84399","title":"麝香猫咖啡 MUSKCAT COFFEE","lon":"121.496816","lat":"31.236435","category":"500","category_name":"未知分类","address":"上海市 上海市浦东新区滨江大道富都段滨江公园内"},{"poiid":"B2094655D26EAAF4479C","title":"仙踪林(滨江店)","lon":"121.4957","lat":"31.23923","category":"247","category_name":"餐饮美食","address":"浦东新区陆家嘴西路2967号北滨江大道A座(丰和路陆家嘴西路)"},{"poiid":"B2094757D06FA2FD4298","title":"上海陈毅广场","lon":"121.490514434","lat":"31.2389924275","category":"250","category_name":"公园户外","address":"黄浦区中山东一路外滩(近南京东路)"},{"poiid":"B2094757DA6AAAF54598","title":"Matto","lon":"121.4938641230534","lat":"31.23920718760844","category":"247","category_name":"餐饮美食","address":"浦东正大广场1楼"},{"poiid":"B2094654DA6FABFE459E","title":"高登金融大厦","lon":"121.497","lat":"31.2388","category":"46","category_name":"楼宇","address":"上海市黄浦区延安东路58号"},{"poiid":"B2094752D265A4FA4393","title":"hooters猫头鹰餐厅","lon":"121.496598","lat":"31.236692","category":"247","category_name":"餐饮美食","address":null},{"poiid":"B2094654DA6FA7FE409A","title":"外滩观光隧道","lon":"121.49726","lat":"31.23839","category":"250","category_name":"公园户外","address":"滨江大道2789"},{"poiid":"B2094752D364A4FE4298","title":"家有好面(南京东路店)","lon":"121.49277","lat":"31.2376","category":"68","category_name":"快餐厅","address":"黄浦区南京东路720号第一食品3楼(近贵州路)"},{"poiid":"B2094752DA6CAAFD429F","title":"T.G.I.FRiDAY浦东滨江店","lon":"121.493807","lat":"31.237982","category":"247","category_name":"餐饮美食","address":"富城路16号"},{"poiid":"B2094757D66FA6FA4693","title":"延安东路隧道","lon":"121.4938968","lat":"31.235608933","category":"260","category_name":"其他","address":"上海黄浦区延安东路-浦东新区陆家嘴西路"},{"poiid":"B2094757D56DAAFD4593","title":"正大小南国","lon":"121.493159","lat":"31.237652","category":"247","category_name":"餐饮美食","address":"陆家嘴"},{"poiid":"B2094751D56FABFD479A","title":"炉边情谈","lon":"121.496303","lat":"31.236572","category":"500","category_name":"未知分类","address":"陆家嘴正大广场"},{"poiid":"B2094757D068A4FB4692","title":"外滩观光隧道","lon":"121.49087","lat":"31.23984","category":"260","category_name":"其他","address":"黄浦区外滩中山东一路300号(外滩与陆家嘴间)"},{"poiid":"B2094757D06AA4F8479E","title":"上海海关","lon":"121.49073283","lat":"31.235817695","category":"500","category_name":"未知分类","address":"上海中山东一路13号"},{"poiid":"B2094757D069A6F5439A","title":"小竹园海鲜酒楼(外滩店)","lon":"121.493705026","lat":"31.2347289549","category":"247","category_name":"餐饮美食","address":"上海四川中路218号"},{"poiid":"B209475CD068A3F8439E","title":"望海地中海海鲜餐厅  To the sea","lon":"121.495748","lat":"31.237681","category":"100","category_name":"地中海风格菜品","address":"陆家嘴西路2967号"},{"poiid":"B2094757D16FABFE4299","title":"仙踪林","lon":"121.49111173","lat":"31.235984422","category":"500","category_name":"未知分类","address":"上海陆家嘴西路2967号北滨江大道A座(丰和路陆家嘴西路)"},{"poiid":"B2094757D06BA6FC479A","title":"18 Gallery","lon":"121.49469811","lat":"31.236609855","category":"184","category_name":"美术馆","address":"上海黄浦区中山东一路18号4楼(近南京东路)"},{"poiid":"B2094757D16BA0FD489A","title":"东昌路摆渡","lon":"121.493180738","lat":"31.2351464049","category":"500","category_name":"未知分类","address":"上海市黄浦区四川中路"},{"poiid":"B2094752DA6FABF8479B","title":"Cha Story 茶香书香","lon":"121.493504","lat":"31.237442","category":"500","category_name":"未知分类","address":"上海市 陆家嘴滨江大道"},{"poiid":"B2094750D46BABF94593","title":"小南国","lon":"121.496276","lat":"31.234474","category":"247","category_name":"餐饮美食","address":null},{"poiid":"B2094752DA69AAFD449E","title":"国金百丽宫电影院","lon":"121.497422","lat":"31.236594","category":"500","category_name":"未知分类","address":"上海市 浦东陆家嘴"},{"poiid":"B2094654DB69A6FA4099","title":"外滩情人墙","lon":"121.49021","lat":"31.2369","category":"250","category_name":"公园户外","address":"黄浦区中山东一路黄浦江边"},{"poiid":"B2094654DB69A6F94298","title":"陆家嘴金融贸易区","lon":"121.49691","lat":"31.23827","category":"45","category_name":"产业园区","address":"浦西外滩对面"}]