[{"poiid":"B2094654D565A3F54799","title":"华东政法大学(光复西路)","lon":"121.41802","lat":"31.22741","category":"52","category_name":"高等院校","address":"上海市万航渡路1575号（长宁校区）"},{"poiid":"B2094757D068A6FC429D","title":"饭香精菜坊","lon":"121.41779558","lat":"31.233561496","category":"76","category_name":"上海菜","address":"普陀区宁夏路370号(近白玉路)"},{"poiid":"B2094757D068A3F9469F","title":"白玉新村","lon":"121.416642","lat":"31.232415","category":"252","category_name":"楼宇机构","address":"上海白玉路宁夏路"},{"poiid":"B2094654DB6BA6FD419F","title":"绿地世家三期","lon":"121.41726","lat":"31.23383","category":"47","category_name":"住宅区","address":"上海宁夏路366弄"},{"poiid":"B2094757D068AAFC4392","title":"中环大厦","lon":"121.4180654908","lat":"31.232873517761","category":"46","category_name":"楼宇","address":"上海普陀区中山北路3856弄1-4号"},{"poiid":"B2094655D26CABFC419A","title":"华东政法大学(北门)","lon":"121.41654","lat":"31.22983","category":"656","category_name":"大门","address":"顺义路2号"},{"poiid":"B2094655D26DABFD499E","title":"华东政法大学研究生部","lon":"121.41802","lat":"31.22741","category":"52","category_name":"高等院校","address":""},{"poiid":"B2094753D469A6F4489D","title":"满记甜品（GLOBAL HARBOR店）","lon":"121.417198","lat":"31.231542","category":"247","category_name":"餐饮美食","address":"上海市 中山北路环球港B1楼"},{"poiid":"B209475CDA6AA6F84199","title":"咖喱客（环球港店）","lon":"121.416954","lat":"31.232542","category":"500","category_name":"未知分类","address":"上海市 中山北路3300号月星环球港b1165号"},{"poiid":"B209475CD16BA1FA4898","title":"天辣绿色时尚餐厅","lon":"121.417266","lat":"31.23147","category":"500","category_name":"未知分类","address":"上海市 中山北路3300号月星环球港4楼L4059号商铺"},{"poiid":"B2094757D068A5F4459D","title":"乐记小厨","lon":"121.41804","lat":"31.23061","category":"72","category_name":"广东菜","address":"普陀区顺义路152号(近白玉路)"},{"poiid":"B2094753D46BA1FF409E","title":"哈根达斯（月星环球店）","lon":"121.417846","lat":"31.231706","category":"263","category_name":"公司","address":"上海市 上海中山北路3300号月星环球商业中心一层"},{"poiid":"B2094757D069AAFB439F","title":"新華書店(中山公園)","lon":"121.41735386","lat":"31.231024226","category":"249","category_name":"购物服务","address":"上海長寧路龍之夢對面"},{"poiid":"B2094753D464AAFD4093","title":"艾薯夫妇（环球港店）","lon":"121.416831","lat":"31.230215","category":"500","category_name":"未知分类","address":"上海市 月星环球港B1"},{"poiid":"B2094654DB6BA6FE4193","title":"大桶大足浴","lon":"121.4194","lat":"31.23113","category":"149","category_name":"洗浴推拿场所","address":"普陀区顺义路116号(近白玉路)"},{"poiid":"B2094753D56FA3F84898","title":"釜山料理（环球港）","lon":"121.416511","lat":"31.232732","category":"247","category_name":"餐饮美食","address":"上海市 （环球港 ）中山北路3300号"},{"poiid":"B2094655D36CA3F4479F","title":"绿地世纪城(上海春天)","lon":"121.42038","lat":"31.23339","category":"47","category_name":"住宅区","address":"绿地世纪城(上海春天)位于普陀曹杨路303弄"},{"poiid":"B2094757D064A0F9469C","title":"凯司令西点房 宁夏店","lon":"121.418844","lat":"31.233356","category":"67","category_name":"甜品店","address":"普陀区宁夏路331号(近瞿家廊路)"},{"poiid":"B2094753D56CA0F44899","title":"赤坂亭（月星环球港店）","lon":"121.417694","lat":"31.232048","category":"500","category_name":"未知分类","address":"上海市 中山北路3300号月星环球港3楼"},{"poiid":"B2094654DB6BA6FE409B","title":"普陀长风开业园区(白玉路)","lon":"121.41783","lat":"31.23032","category":"45","category_name":"产业园区","address":"白玉路454"},{"poiid":"B2094757D068A0FF439B","title":"枫寿司","lon":"121.412795","lat":"31.230002","category":"95","category_name":"日本料理","address":"普陀区凯旋北路1311号(清水湾大酒店旁)"},{"poiid":"B2094654DB64A4F54198","title":"上海外国语大学夜大学十分部","lon":"121.41782","lat":"31.23032","category":"52","category_name":"高等院校","address":"普陀区白玉路454"},{"poiid":"B209475DD669A4F44892","title":"Special sushi（森井）","lon":"121.417144","lat":"31.231365","category":"247","category_name":"餐饮美食","address":"上海市 环球港L2"},{"poiid":"B2094757D06AA5FF419C","title":"康泰公寓","lon":"121.41457","lat":"31.229763","category":"252","category_name":"楼宇机构","address":"上海市普陀区石湾路7弄"},{"poiid":"B2094753D469A4F84293","title":"环球港","lon":"121.41735","lat":"31.231752","category":"500","category_name":"未知分类","address":"上海市 普陀区中山北路3300号"},{"poiid":"B209475CD665ABFB4393","title":"outback steakhouse","lon":"121.416992","lat":"31.231885","category":"500","category_name":"未知分类","address":"上海市 月星环球港"},{"poiid":"B2094757D165ABF8469F","title":"摩羯座台湾牛肉面","lon":"121.417846586","lat":"31.2313124522","category":"247","category_name":"餐饮美食","address":"上海市普陀区顺义路"},{"poiid":"B2094753D46BA1FC499B","title":"赤板亭","lon":"121.417549","lat":"31.231842","category":"500","category_name":"未知分类","address":"上海市 普陀区中山北路3300号月星环球港三楼"},{"poiid":"B2094655D265A1FA4598","title":"福兴村(东门)","lon":"121.41819","lat":"31.23004","category":"47","category_name":"住宅区","address":"光复西路"},{"poiid":"B2094757D16EA5F84898","title":"顺达公寓","lon":"121.41752","lat":"31.230507","category":"252","category_name":"楼宇机构","address":"上海市普陀区顺义路188弄"},{"poiid":"B2094757D66BA6FF4999","title":"重庆鸡公煲 宁夏路店","lon":"121.41217","lat":"31.22934","category":"71","category_name":"四川菜","address":"普陀区凯旋北路1600号(近金沙江路轻轨站)"},{"poiid":"B2094753D469ABFE439F","title":"環球港","lon":"121.417518","lat":"31.230813","category":"500","category_name":"未知分类","address":"上海市 中山北路3222號"},{"poiid":"B209475DD26EAAFA419D","title":"cocoparty","lon":"121.416236","lat":"31.229722","category":"500","category_name":"未知分类","address":"上海市 中山北路3300号环球港B1017"},{"poiid":"B2094753DB6BABF54198","title":"LE CAMÉLIA","lon":"121.416664","lat":"31.232685","category":"500","category_name":"未知分类","address":"上海市 环球港4楼"},{"poiid":"B209475CD76DA5FE489A","title":"海上国际影城(月星环球港店)","lon":"121.416007","lat":"31.23211","category":"178","category_name":"电影院","address":"上海市 中山北路3300号月星环球港4楼4039室"},{"poiid":"B2094757D16AAAF54698","title":"铜川路大渡河路","lon":"121.417731586","lat":"31.2314354546","category":"500","category_name":"未知分类","address":"上海铜川路大渡河路"},{"poiid":"B2094753DA65A1FA449C","title":"GLoria jean's coffees","lon":"121.416175","lat":"31.229782","category":"500","category_name":"未知分类","address":"上海市 上海环球港"},{"poiid":"B2094757D16CA4F4479C","title":"南林家巷","lon":"121.4180249","lat":"31.2309243","category":"500","category_name":"未知分类","address":"上海白玉路顺义路"},{"poiid":"B2094750D26CA7FA419E","title":"初花","lon":"121.415952","lat":"31.231636","category":"247","category_name":"餐饮美食","address":"长宁区虹桥路1446号古北湾大酒店3楼"},{"poiid":"B2094654DB69A6FF409A","title":"新家老家(白玉苑二期)","lon":"121.41695","lat":"31.2316","category":"47","category_name":"住宅区","address":"新家老家(白玉苑二期)位于普陀白玉路358弄"},{"poiid":"B209475CD668A4F9429D","title":"朵馥苑","lon":"121.416816","lat":"31.230442","category":"500","category_name":"未知分类","address":"上海市 中山北路3300号"},{"poiid":"B2094753DA68A5FD4699","title":"小辉哥火锅","lon":"121.417488","lat":"31.231904","category":"247","category_name":"餐饮美食","address":"上海市 环球港店"},{"poiid":"B209475CD66EA7F4409C","title":"月星•环球港","lon":"121.416702","lat":"31.229972","category":"500","category_name":"未知分类","address":"上海市 中山北路3300号"},{"poiid":"B2094654DB6BA6FE4299","title":"九州拉面 顺义路店","lon":"121.42163828362","lat":"31.231864644189","category":"95","category_name":"日本料理","address":"普陀区顺义路20号(近曹杨路)"},{"poiid":"B2094753D468A6F54192","title":"外婆家南京西路店","lon":"121.416893","lat":"31.230604","category":"500","category_name":"未知分类","address":"上海市 818广场"},{"poiid":"B2094654DB6BA6FE419F","title":"世纪同乐绿地世纪城二期","lon":"121.42071","lat":"31.23107","category":"47","category_name":"住宅区","address":"上海市普陀区顺义路68号(曹杨路口)"},{"poiid":"B2094757D064A0F5429A","title":"NgaiJiuKai屋企","lon":"121.419092886","lat":"31.2299371253","category":"247","category_name":"餐饮美食","address":"上海NgaiJiukai屋企"},{"poiid":"B2094654D565A3F54398","title":"上海市普雄学校(顺义路)","lon":"121.41612","lat":"31.22946","category":"55","category_name":"中学","address":"顺义路4"},{"poiid":"B2094655D264A6FA489A","title":"中山北路3924弄小区","lon":"121.41824640257","lat":"31.23184992453","category":"47","category_name":"住宅区","address":"中山北路3924弄1-3号"},{"poiid":"B2094655D265ABFC409D","title":"巴比馒头顺义路店","lon":"121.41991","lat":"31.23152","category":"68","category_name":"快餐厅","address":"普陀区顺义路100弄世纪同乐附近(近曹杨路)"},{"poiid":"B2094654D565A3F54799","title":"华东政法大学(光复西路)","lon":"121.41802","lat":"31.22741","category":"52","category_name":"高等院校","address":"上海市万航渡路1575号（长宁校区）"},{"poiid":"B2094757D068A6FC429D","title":"饭香精菜坊","lon":"121.41779558","lat":"31.233561496","category":"76","category_name":"上海菜","address":"普陀区宁夏路370号(近白玉路)"},{"poiid":"B2094757D068A3F9469F","title":"白玉新村","lon":"121.416642","lat":"31.232415","category":"252","category_name":"楼宇机构","address":"上海白玉路宁夏路"},{"poiid":"B2094654DB6BA6FD419F","title":"绿地世家三期","lon":"121.41726","lat":"31.23383","category":"47","category_name":"住宅区","address":"上海宁夏路366弄"},{"poiid":"B2094757D068AAFC4392","title":"中环大厦","lon":"121.4180654908","lat":"31.232873517761","category":"46","category_name":"楼宇","address":"上海普陀区中山北路3856弄1-4号"},{"poiid":"B2094655D26CABFC419A","title":"华东政法大学(北门)","lon":"121.41654","lat":"31.22983","category":"656","category_name":"大门","address":"顺义路2号"},{"poiid":"B2094655D26DABFD499E","title":"华东政法大学研究生部","lon":"121.41802","lat":"31.22741","category":"52","category_name":"高等院校","address":""},{"poiid":"B2094753D469A6F4489D","title":"满记甜品（GLOBAL HARBOR店）","lon":"121.417198","lat":"31.231542","category":"247","category_name":"餐饮美食","address":"上海市 中山北路环球港B1楼"},{"poiid":"B209475CDA6AA6F84199","title":"咖喱客（环球港店）","lon":"121.416954","lat":"31.232542","category":"500","category_name":"未知分类","address":"上海市 中山北路3300号月星环球港b1165号"},{"poiid":"B209475CD16BA1FA4898","title":"天辣绿色时尚餐厅","lon":"121.417266","lat":"31.23147","category":"500","category_name":"未知分类","address":"上海市 中山北路3300号月星环球港4楼L4059号商铺"},{"poiid":"B2094757D068A5F4459D","title":"乐记小厨","lon":"121.41804","lat":"31.23061","category":"72","category_name":"广东菜","address":"普陀区顺义路152号(近白玉路)"},{"poiid":"B2094753D46BA1FF409E","title":"哈根达斯（月星环球店）","lon":"121.417846","lat":"31.231706","category":"263","category_name":"公司","address":"上海市 上海中山北路3300号月星环球商业中心一层"},{"poiid":"B2094757D069AAFB439F","title":"新華書店(中山公園)","lon":"121.41735386","lat":"31.231024226","category":"249","category_name":"购物服务","address":"上海長寧路龍之夢對面"},{"poiid":"B2094753D464AAFD4093","title":"艾薯夫妇（环球港店）","lon":"121.416831","lat":"31.230215","category":"500","category_name":"未知分类","address":"上海市 月星环球港B1"},{"poiid":"B2094654DB6BA6FE4193","title":"大桶大足浴","lon":"121.4194","lat":"31.23113","category":"149","category_name":"洗浴推拿场所","address":"普陀区顺义路116号(近白玉路)"},{"poiid":"B2094753D56FA3F84898","title":"釜山料理（环球港）","lon":"121.416511","lat":"31.232732","category":"247","category_name":"餐饮美食","address":"上海市 （环球港 ）中山北路3300号"},{"poiid":"B2094655D36CA3F4479F","title":"绿地世纪城(上海春天)","lon":"121.42038","lat":"31.23339","category":"47","category_name":"住宅区","address":"绿地世纪城(上海春天)位于普陀曹杨路303弄"},{"poiid":"B2094757D064A0F9469C","title":"凯司令西点房 宁夏店","lon":"121.418844","lat":"31.233356","category":"67","category_name":"甜品店","address":"普陀区宁夏路331号(近瞿家廊路)"},{"poiid":"B2094753D56CA0F44899","title":"赤坂亭（月星环球港店）","lon":"121.417694","lat":"31.232048","category":"500","category_name":"未知分类","address":"上海市 中山北路3300号月星环球港3楼"},{"poiid":"B2094654DB6BA6FE409B","title":"普陀长风开业园区(白玉路)","lon":"121.41783","lat":"31.23032","category":"45","category_name":"产业园区","address":"白玉路454"},{"poiid":"B2094757D068A0FF439B","title":"枫寿司","lon":"121.412795","lat":"31.230002","category":"95","category_name":"日本料理","address":"普陀区凯旋北路1311号(清水湾大酒店旁)"},{"poiid":"B2094654DB64A4F54198","title":"上海外国语大学夜大学十分部","lon":"121.41782","lat":"31.23032","category":"52","category_name":"高等院校","address":"普陀区白玉路454"},{"poiid":"B209475DD669A4F44892","title":"Special sushi（森井）","lon":"121.417144","lat":"31.231365","category":"247","category_name":"餐饮美食","address":"上海市 环球港L2"},{"poiid":"B2094757D06AA5FF419C","title":"康泰公寓","lon":"121.41457","lat":"31.229763","category":"252","category_name":"楼宇机构","address":"上海市普陀区石湾路7弄"},{"poiid":"B2094753D469A4F84293","title":"环球港","lon":"121.41735","lat":"31.231752","category":"500","category_name":"未知分类","address":"上海市 普陀区中山北路3300号"},{"poiid":"B209475CD665ABFB4393","title":"outback steakhouse","lon":"121.416992","lat":"31.231885","category":"500","category_name":"未知分类","address":"上海市 月星环球港"},{"poiid":"B2094757D165ABF8469F","title":"摩羯座台湾牛肉面","lon":"121.417846586","lat":"31.2313124522","category":"247","category_name":"餐饮美食","address":"上海市普陀区顺义路"},{"poiid":"B2094753D46BA1FC499B","title":"赤板亭","lon":"121.417549","lat":"31.231842","category":"500","category_name":"未知分类","address":"上海市 普陀区中山北路3300号月星环球港三楼"},{"poiid":"B2094655D265A1FA4598","title":"福兴村(东门)","lon":"121.41819","lat":"31.23004","category":"47","category_name":"住宅区","address":"光复西路"},{"poiid":"B2094757D16EA5F84898","title":"顺达公寓","lon":"121.41752","lat":"31.230507","category":"252","category_name":"楼宇机构","address":"上海市普陀区顺义路188弄"},{"poiid":"B2094757D66BA6FF4999","title":"重庆鸡公煲 宁夏路店","lon":"121.41217","lat":"31.22934","category":"71","category_name":"四川菜","address":"普陀区凯旋北路1600号(近金沙江路轻轨站)"},{"poiid":"B2094753D469ABFE439F","title":"環球港","lon":"121.417518","lat":"31.230813","category":"500","category_name":"未知分类","address":"上海市 中山北路3222號"},{"poiid":"B209475DD26EAAFA419D","title":"cocoparty","lon":"121.416236","lat":"31.229722","category":"500","category_name":"未知分类","address":"上海市 中山北路3300号环球港B1017"},{"poiid":"B2094753DB6BABF54198","title":"LE CAMÉLIA","lon":"121.416664","lat":"31.232685","category":"500","category_name":"未知分类","address":"上海市 环球港4楼"},{"poiid":"B209475CD76DA5FE489A","title":"海上国际影城(月星环球港店)","lon":"121.416007","lat":"31.23211","category":"178","category_name":"电影院","address":"上海市 中山北路3300号月星环球港4楼4039室"},{"poiid":"B2094757D16AAAF54698","title":"铜川路大渡河路","lon":"121.417731586","lat":"31.2314354546","category":"500","category_name":"未知分类","address":"上海铜川路大渡河路"},{"poiid":"B2094753DA65A1FA449C","title":"GLoria jean's coffees","lon":"121.416175","lat":"31.229782","category":"500","category_name":"未知分类","address":"上海市 上海环球港"},{"poiid":"B2094757D16CA4F4479C","title":"南林家巷","lon":"121.4180249","lat":"31.2309243","category":"500","category_name":"未知分类","address":"上海白玉路顺义路"},{"poiid":"B2094750D26CA7FA419E","title":"初花","lon":"121.415952","lat":"31.231636","category":"247","category_name":"餐饮美食","address":"长宁区虹桥路1446号古北湾大酒店3楼"},{"poiid":"B2094654DB69A6FF409A","title":"新家老家(白玉苑二期)","lon":"121.41695","lat":"31.2316","category":"47","category_name":"住宅区","address":"新家老家(白玉苑二期)位于普陀白玉路358弄"},{"poiid":"B209475CD668A4F9429D","title":"朵馥苑","lon":"121.416816","lat":"31.230442","category":"500","category_name":"未知分类","address":"上海市 中山北路3300号"},{"poiid":"B2094753DA68A5FD4699","title":"小辉哥火锅","lon":"121.417488","lat":"31.231904","category":"247","category_name":"餐饮美食","address":"上海市 环球港店"},{"poiid":"B209475CD66EA7F4409C","title":"月星•环球港","lon":"121.416702","lat":"31.229972","category":"500","category_name":"未知分类","address":"上海市 中山北路3300号"},{"poiid":"B2094654DB6BA6FE4299","title":"九州拉面 顺义路店","lon":"121.42163828362","lat":"31.231864644189","category":"95","category_name":"日本料理","address":"普陀区顺义路20号(近曹杨路)"},{"poiid":"B2094753D468A6F54192","title":"外婆家南京西路店","lon":"121.416893","lat":"31.230604","category":"500","category_name":"未知分类","address":"上海市 818广场"},{"poiid":"B2094654DB6BA6FE419F","title":"世纪同乐绿地世纪城二期","lon":"121.42071","lat":"31.23107","category":"47","category_name":"住宅区","address":"上海市普陀区顺义路68号(曹杨路口)"},{"poiid":"B2094757D064A0F5429A","title":"NgaiJiuKai屋企","lon":"121.419092886","lat":"31.2299371253","category":"247","category_name":"餐饮美食","address":"上海NgaiJiukai屋企"},{"poiid":"B2094654D565A3F54398","title":"上海市普雄学校(顺义路)","lon":"121.41612","lat":"31.22946","category":"55","category_name":"中学","address":"顺义路4"},{"poiid":"B2094655D264A6FA489A","title":"中山北路3924弄小区","lon":"121.41824640257","lat":"31.23184992453","category":"47","category_name":"住宅区","address":"中山北路3924弄1-3号"},{"poiid":"B2094655D265ABFC409D","title":"巴比馒头顺义路店","lon":"121.41991","lat":"31.23152","category":"68","category_name":"快餐厅","address":"普陀区顺义路100弄世纪同乐附近(近曹杨路)"},{"poiid":"B2094654D565A3F54799","title":"华东政法大学(光复西路)","lon":"121.41802","lat":"31.22741","category":"52","category_name":"高等院校","address":"上海市万航渡路1575号（长宁校区）"},{"poiid":"B2094757D068A6FC429D","title":"饭香精菜坊","lon":"121.41779558","lat":"31.233561496","category":"76","category_name":"上海菜","address":"普陀区宁夏路370号(近白玉路)"},{"poiid":"B2094757D068A3F9469F","title":"白玉新村","lon":"121.416642","lat":"31.232415","category":"252","category_name":"楼宇机构","address":"上海白玉路宁夏路"},{"poiid":"B2094654DB6BA6FD419F","title":"绿地世家三期","lon":"121.41726","lat":"31.23383","category":"47","category_name":"住宅区","address":"上海宁夏路366弄"},{"poiid":"B2094757D068AAFC4392","title":"中环大厦","lon":"121.4180654908","lat":"31.232873517761","category":"46","category_name":"楼宇","address":"上海普陀区中山北路3856弄1-4号"},{"poiid":"B2094655D26CABFC419A","title":"华东政法大学(北门)","lon":"121.41654","lat":"31.22983","category":"656","category_name":"大门","address":"顺义路2号"},{"poiid":"B2094655D26DABFD499E","title":"华东政法大学研究生部","lon":"121.41802","lat":"31.22741","category":"52","category_name":"高等院校","address":""},{"poiid":"B2094753D469A6F4489D","title":"满记甜品（GLOBAL HARBOR店）","lon":"121.417198","lat":"31.231542","category":"247","category_name":"餐饮美食","address":"上海市 中山北路环球港B1楼"},{"poiid":"B209475CDA6AA6F84199","title":"咖喱客（环球港店）","lon":"121.416954","lat":"31.232542","category":"500","category_name":"未知分类","address":"上海市 中山北路3300号月星环球港b1165号"},{"poiid":"B209475CD16BA1FA4898","title":"天辣绿色时尚餐厅","lon":"121.417266","lat":"31.23147","category":"500","category_name":"未知分类","address":"上海市 中山北路3300号月星环球港4楼L4059号商铺"},{"poiid":"B2094757D068A5F4459D","title":"乐记小厨","lon":"121.41804","lat":"31.23061","category":"72","category_name":"广东菜","address":"普陀区顺义路152号(近白玉路)"},{"poiid":"B2094753D46BA1FF409E","title":"哈根达斯（月星环球店）","lon":"121.417846","lat":"31.231706","category":"263","category_name":"公司","address":"上海市 上海中山北路3300号月星环球商业中心一层"},{"poiid":"B2094757D069AAFB439F","title":"新華書店(中山公園)","lon":"121.41735386","lat":"31.231024226","category":"249","category_name":"购物服务","address":"上海長寧路龍之夢對面"},{"poiid":"B2094753D464AAFD4093","title":"艾薯夫妇（环球港店）","lon":"121.416831","lat":"31.230215","category":"500","category_name":"未知分类","address":"上海市 月星环球港B1"},{"poiid":"B2094654DB6BA6FE4193","title":"大桶大足浴","lon":"121.4194","lat":"31.23113","category":"149","category_name":"洗浴推拿场所","address":"普陀区顺义路116号(近白玉路)"},{"poiid":"B2094753D56FA3F84898","title":"釜山料理（环球港）","lon":"121.416511","lat":"31.232732","category":"247","category_name":"餐饮美食","address":"上海市 （环球港 ）中山北路3300号"},{"poiid":"B2094655D36CA3F4479F","title":"绿地世纪城(上海春天)","lon":"121.42038","lat":"31.23339","category":"47","category_name":"住宅区","address":"绿地世纪城(上海春天)位于普陀曹杨路303弄"},{"poiid":"B2094757D064A0F9469C","title":"凯司令西点房 宁夏店","lon":"121.418844","lat":"31.233356","category":"67","category_name":"甜品店","address":"普陀区宁夏路331号(近瞿家廊路)"},{"poiid":"B2094753D56CA0F44899","title":"赤坂亭（月星环球港店）","lon":"121.417694","lat":"31.232048","category":"500","category_name":"未知分类","address":"上海市 中山北路3300号月星环球港3楼"},{"poiid":"B2094654DB6BA6FE409B","title":"普陀长风开业园区(白玉路)","lon":"121.41783","lat":"31.23032","category":"45","category_name":"产业园区","address":"白玉路454"},{"poiid":"B2094757D068A0FF439B","title":"枫寿司","lon":"121.412795","lat":"31.230002","category":"95","category_name":"日本料理","address":"普陀区凯旋北路1311号(清水湾大酒店旁)"},{"poiid":"B2094654DB64A4F54198","title":"上海外国语大学夜大学十分部","lon":"121.41782","lat":"31.23032","category":"52","category_name":"高等院校","address":"普陀区白玉路454"},{"poiid":"B209475DD669A4F44892","title":"Special sushi（森井）","lon":"121.417144","lat":"31.231365","category":"247","category_name":"餐饮美食","address":"上海市 环球港L2"},{"poiid":"B2094757D06AA5FF419C","title":"康泰公寓","lon":"121.41457","lat":"31.229763","category":"252","category_name":"楼宇机构","address":"上海市普陀区石湾路7弄"},{"poiid":"B2094753D469A4F84293","title":"环球港","lon":"121.41735","lat":"31.231752","category":"500","category_name":"未知分类","address":"上海市 普陀区中山北路3300号"},{"poiid":"B209475CD665ABFB4393","title":"outback steakhouse","lon":"121.416992","lat":"31.231885","category":"500","category_name":"未知分类","address":"上海市 月星环球港"},{"poiid":"B2094757D165ABF8469F","title":"摩羯座台湾牛肉面","lon":"121.417846586","lat":"31.2313124522","category":"247","category_name":"餐饮美食","address":"上海市普陀区顺义路"},{"poiid":"B2094753D46BA1FC499B","title":"赤板亭","lon":"121.417549","lat":"31.231842","category":"500","category_name":"未知分类","address":"上海市 普陀区中山北路3300号月星环球港三楼"},{"poiid":"B2094655D265A1FA4598","title":"福兴村(东门)","lon":"121.41819","lat":"31.23004","category":"47","category_name":"住宅区","address":"光复西路"},{"poiid":"B2094757D16EA5F84898","title":"顺达公寓","lon":"121.41752","lat":"31.230507","category":"252","category_name":"楼宇机构","address":"上海市普陀区顺义路188弄"},{"poiid":"B2094757D66BA6FF4999","title":"重庆鸡公煲 宁夏路店","lon":"121.41217","lat":"31.22934","category":"71","category_name":"四川菜","address":"普陀区凯旋北路1600号(近金沙江路轻轨站)"},{"poiid":"B2094753D469ABFE439F","title":"環球港","lon":"121.417518","lat":"31.230813","category":"500","category_name":"未知分类","address":"上海市 中山北路3222號"},{"poiid":"B209475DD26EAAFA419D","title":"cocoparty","lon":"121.416236","lat":"31.229722","category":"500","category_name":"未知分类","address":"上海市 中山北路3300号环球港B1017"},{"poiid":"B2094753DB6BABF54198","title":"LE CAMÉLIA","lon":"121.416664","lat":"31.232685","category":"500","category_name":"未知分类","address":"上海市 环球港4楼"},{"poiid":"B209475CD76DA5FE489A","title":"海上国际影城(月星环球港店)","lon":"121.416007","lat":"31.23211","category":"178","category_name":"电影院","address":"上海市 中山北路3300号月星环球港4楼4039室"},{"poiid":"B2094757D16AAAF54698","title":"铜川路大渡河路","lon":"121.417731586","lat":"31.2314354546","category":"500","category_name":"未知分类","address":"上海铜川路大渡河路"},{"poiid":"B2094753DA65A1FA449C","title":"GLoria jean's coffees","lon":"121.416175","lat":"31.229782","category":"500","category_name":"未知分类","address":"上海市 上海环球港"},{"poiid":"B2094757D16CA4F4479C","title":"南林家巷","lon":"121.4180249","lat":"31.2309243","category":"500","category_name":"未知分类","address":"上海白玉路顺义路"},{"poiid":"B2094750D26CA7FA419E","title":"初花","lon":"121.415952","lat":"31.231636","category":"247","category_name":"餐饮美食","address":"长宁区虹桥路1446号古北湾大酒店3楼"},{"poiid":"B2094654DB69A6FF409A","title":"新家老家(白玉苑二期)","lon":"121.41695","lat":"31.2316","category":"47","category_name":"住宅区","address":"新家老家(白玉苑二期)位于普陀白玉路358弄"},{"poiid":"B209475CD668A4F9429D","title":"朵馥苑","lon":"121.416816","lat":"31.230442","category":"500","category_name":"未知分类","address":"上海市 中山北路3300号"},{"poiid":"B2094753DA68A5FD4699","title":"小辉哥火锅","lon":"121.417488","lat":"31.231904","category":"247","category_name":"餐饮美食","address":"上海市 环球港店"},{"poiid":"B209475CD66EA7F4409C","title":"月星•环球港","lon":"121.416702","lat":"31.229972","category":"500","category_name":"未知分类","address":"上海市 中山北路3300号"},{"poiid":"B2094654DB6BA6FE4299","title":"九州拉面 顺义路店","lon":"121.42163828362","lat":"31.231864644189","category":"95","category_name":"日本料理","address":"普陀区顺义路20号(近曹杨路)"},{"poiid":"B2094753D468A6F54192","title":"外婆家南京西路店","lon":"121.416893","lat":"31.230604","category":"500","category_name":"未知分类","address":"上海市 818广场"},{"poiid":"B2094654DB6BA6FE419F","title":"世纪同乐绿地世纪城二期","lon":"121.42071","lat":"31.23107","category":"47","category_name":"住宅区","address":"上海市普陀区顺义路68号(曹杨路口)"},{"poiid":"B2094757D064A0F5429A","title":"NgaiJiuKai屋企","lon":"121.419092886","lat":"31.2299371253","category":"247","category_name":"餐饮美食","address":"上海NgaiJiukai屋企"},{"poiid":"B2094654D565A3F54398","title":"上海市普雄学校(顺义路)","lon":"121.41612","lat":"31.22946","category":"55","category_name":"中学","address":"顺义路4"},{"poiid":"B2094655D264A6FA489A","title":"中山北路3924弄小区","lon":"121.41824640257","lat":"31.23184992453","category":"47","category_name":"住宅区","address":"中山北路3924弄1-3号"},{"poiid":"B2094655D265ABFC409D","title":"巴比馒头顺义路店","lon":"121.41991","lat":"31.23152","category":"68","category_name":"快餐厅","address":"普陀区顺义路100弄世纪同乐附近(近曹杨路)"},{"poiid":"B2094654D565A3F54799","title":"华东政法大学(光复西路)","lon":"121.41802","lat":"31.22741","category":"52","category_name":"高等院校","address":"上海市万航渡路1575号（长宁校区）"},{"poiid":"B2094757D068A6FC429D","title":"饭香精菜坊","lon":"121.41779558","lat":"31.233561496","category":"76","category_name":"上海菜","address":"普陀区宁夏路370号(近白玉路)"},{"poiid":"B2094757D068A3F9469F","title":"白玉新村","lon":"121.416642","lat":"31.232415","category":"252","category_name":"楼宇机构","address":"上海白玉路宁夏路"},{"poiid":"B2094654DB6BA6FD419F","title":"绿地世家三期","lon":"121.41726","lat":"31.23383","category":"47","category_name":"住宅区","address":"上海宁夏路366弄"},{"poiid":"B2094757D068AAFC4392","title":"中环大厦","lon":"121.4180654908","lat":"31.232873517761","category":"46","category_name":"楼宇","address":"上海普陀区中山北路3856弄1-4号"},{"poiid":"B2094655D26CABFC419A","title":"华东政法大学(北门)","lon":"121.41654","lat":"31.22983","category":"656","category_name":"大门","address":"顺义路2号"},{"poiid":"B2094655D26DABFD499E","title":"华东政法大学研究生部","lon":"121.41802","lat":"31.22741","category":"52","category_name":"高等院校","address":""},{"poiid":"B2094753D469A6F4489D","title":"满记甜品（GLOBAL HARBOR店）","lon":"121.417198","lat":"31.231542","category":"247","category_name":"餐饮美食","address":"上海市 中山北路环球港B1楼"},{"poiid":"B209475CDA6AA6F84199","title":"咖喱客（环球港店）","lon":"121.416954","lat":"31.232542","category":"500","category_name":"未知分类","address":"上海市 中山北路3300号月星环球港b1165号"},{"poiid":"B209475CD16BA1FA4898","title":"天辣绿色时尚餐厅","lon":"121.417266","lat":"31.23147","category":"500","category_name":"未知分类","address":"上海市 中山北路3300号月星环球港4楼L4059号商铺"},{"poiid":"B2094757D068A5F4459D","title":"乐记小厨","lon":"121.41804","lat":"31.23061","category":"72","category_name":"广东菜","address":"普陀区顺义路152号(近白玉路)"},{"poiid":"B2094753D46BA1FF409E","title":"哈根达斯（月星环球店）","lon":"121.417846","lat":"31.231706","category":"263","category_name":"公司","address":"上海市 上海中山北路3300号月星环球商业中心一层"},{"poiid":"B2094757D069AAFB439F","title":"新華書店(中山公園)","lon":"121.41735386","lat":"31.231024226","category":"249","category_name":"购物服务","address":"上海長寧路龍之夢對面"},{"poiid":"B2094753D464AAFD4093","title":"艾薯夫妇（环球港店）","lon":"121.416831","lat":"31.230215","category":"500","category_name":"未知分类","address":"上海市 月星环球港B1"},{"poiid":"B2094654DB6BA6FE4193","title":"大桶大足浴","lon":"121.4194","lat":"31.23113","category":"149","category_name":"洗浴推拿场所","address":"普陀区顺义路116号(近白玉路)"},{"poiid":"B2094753D56FA3F84898","title":"釜山料理（环球港）","lon":"121.416511","lat":"31.232732","category":"247","category_name":"餐饮美食","address":"上海市 （环球港 ）中山北路3300号"},{"poiid":"B2094655D36CA3F4479F","title":"绿地世纪城(上海春天)","lon":"121.42038","lat":"31.23339","category":"47","category_name":"住宅区","address":"绿地世纪城(上海春天)位于普陀曹杨路303弄"},{"poiid":"B2094757D064A0F9469C","title":"凯司令西点房 宁夏店","lon":"121.418844","lat":"31.233356","category":"67","category_name":"甜品店","address":"普陀区宁夏路331号(近瞿家廊路)"},{"poiid":"B2094753D56CA0F44899","title":"赤坂亭（月星环球港店）","lon":"121.417694","lat":"31.232048","category":"500","category_name":"未知分类","address":"上海市 中山北路3300号月星环球港3楼"},{"poiid":"B2094654DB6BA6FE409B","title":"普陀长风开业园区(白玉路)","lon":"121.41783","lat":"31.23032","category":"45","category_name":"产业园区","address":"白玉路454"},{"poiid":"B2094757D068A0FF439B","title":"枫寿司","lon":"121.412795","lat":"31.230002","category":"95","category_name":"日本料理","address":"普陀区凯旋北路1311号(清水湾大酒店旁)"},{"poiid":"B2094654DB64A4F54198","title":"上海外国语大学夜大学十分部","lon":"121.41782","lat":"31.23032","category":"52","category_name":"高等院校","address":"普陀区白玉路454"},{"poiid":"B209475DD669A4F44892","title":"Special sushi（森井）","lon":"121.417144","lat":"31.231365","category":"247","category_name":"餐饮美食","address":"上海市 环球港L2"},{"poiid":"B2094757D06AA5FF419C","title":"康泰公寓","lon":"121.41457","lat":"31.229763","category":"252","category_name":"楼宇机构","address":"上海市普陀区石湾路7弄"},{"poiid":"B2094753D469A4F84293","title":"环球港","lon":"121.41735","lat":"31.231752","category":"500","category_name":"未知分类","address":"上海市 普陀区中山北路3300号"},{"poiid":"B209475CD665ABFB4393","title":"outback steakhouse","lon":"121.416992","lat":"31.231885","category":"500","category_name":"未知分类","address":"上海市 月星环球港"},{"poiid":"B2094757D165ABF8469F","title":"摩羯座台湾牛肉面","lon":"121.417846586","lat":"31.2313124522","category":"247","category_name":"餐饮美食","address":"上海市普陀区顺义路"},{"poiid":"B2094753D46BA1FC499B","title":"赤板亭","lon":"121.417549","lat":"31.231842","category":"500","category_name":"未知分类","address":"上海市 普陀区中山北路3300号月星环球港三楼"},{"poiid":"B2094655D265A1FA4598","title":"福兴村(东门)","lon":"121.41819","lat":"31.23004","category":"47","category_name":"住宅区","address":"光复西路"},{"poiid":"B2094757D16EA5F84898","title":"顺达公寓","lon":"121.41752","lat":"31.230507","category":"252","category_name":"楼宇机构","address":"上海市普陀区顺义路188弄"},{"poiid":"B2094757D66BA6FF4999","title":"重庆鸡公煲 宁夏路店","lon":"121.41217","lat":"31.22934","category":"71","category_name":"四川菜","address":"普陀区凯旋北路1600号(近金沙江路轻轨站)"},{"poiid":"B2094753D469ABFE439F","title":"環球港","lon":"121.417518","lat":"31.230813","category":"500","category_name":"未知分类","address":"上海市 中山北路3222號"},{"poiid":"B209475DD26EAAFA419D","title":"cocoparty","lon":"121.416236","lat":"31.229722","category":"500","category_name":"未知分类","address":"上海市 中山北路3300号环球港B1017"},{"poiid":"B2094753DB6BABF54198","title":"LE CAMÉLIA","lon":"121.416664","lat":"31.232685","category":"500","category_name":"未知分类","address":"上海市 环球港4楼"},{"poiid":"B209475CD76DA5FE489A","title":"海上国际影城(月星环球港店)","lon":"121.416007","lat":"31.23211","category":"178","category_name":"电影院","address":"上海市 中山北路3300号月星环球港4楼4039室"},{"poiid":"B2094757D16AAAF54698","title":"铜川路大渡河路","lon":"121.417731586","lat":"31.2314354546","category":"500","category_name":"未知分类","address":"上海铜川路大渡河路"},{"poiid":"B2094753DA65A1FA449C","title":"GLoria jean's coffees","lon":"121.416175","lat":"31.229782","category":"500","category_name":"未知分类","address":"上海市 上海环球港"},{"poiid":"B2094757D16CA4F4479C","title":"南林家巷","lon":"121.4180249","lat":"31.2309243","category":"500","category_name":"未知分类","address":"上海白玉路顺义路"},{"poiid":"B2094750D26CA7FA419E","title":"初花","lon":"121.415952","lat":"31.231636","category":"247","category_name":"餐饮美食","address":"长宁区虹桥路1446号古北湾大酒店3楼"},{"poiid":"B2094654DB69A6FF409A","title":"新家老家(白玉苑二期)","lon":"121.41695","lat":"31.2316","category":"47","category_name":"住宅区","address":"新家老家(白玉苑二期)位于普陀白玉路358弄"},{"poiid":"B209475CD668A4F9429D","title":"朵馥苑","lon":"121.416816","lat":"31.230442","category":"500","category_name":"未知分类","address":"上海市 中山北路3300号"},{"poiid":"B2094753DA68A5FD4699","title":"小辉哥火锅","lon":"121.417488","lat":"31.231904","category":"247","category_name":"餐饮美食","address":"上海市 环球港店"},{"poiid":"B209475CD66EA7F4409C","title":"月星•环球港","lon":"121.416702","lat":"31.229972","category":"500","category_name":"未知分类","address":"上海市 中山北路3300号"},{"poiid":"B2094654DB6BA6FE4299","title":"九州拉面 顺义路店","lon":"121.42163828362","lat":"31.231864644189","category":"95","category_name":"日本料理","address":"普陀区顺义路20号(近曹杨路)"},{"poiid":"B2094753D468A6F54192","title":"外婆家南京西路店","lon":"121.416893","lat":"31.230604","category":"500","category_name":"未知分类","address":"上海市 818广场"},{"poiid":"B2094654DB6BA6FE419F","title":"世纪同乐绿地世纪城二期","lon":"121.42071","lat":"31.23107","category":"47","category_name":"住宅区","address":"上海市普陀区顺义路68号(曹杨路口)"},{"poiid":"B2094757D064A0F5429A","title":"NgaiJiuKai屋企","lon":"121.419092886","lat":"31.2299371253","category":"247","category_name":"餐饮美食","address":"上海NgaiJiukai屋企"},{"poiid":"B2094654D565A3F54398","title":"上海市普雄学校(顺义路)","lon":"121.41612","lat":"31.22946","category":"55","category_name":"中学","address":"顺义路4"},{"poiid":"B2094655D264A6FA489A","title":"中山北路3924弄小区","lon":"121.41824640257","lat":"31.23184992453","category":"47","category_name":"住宅区","address":"中山北路3924弄1-3号"},{"poiid":"B2094655D265ABFC409D","title":"巴比馒头顺义路店","lon":"121.41991","lat":"31.23152","category":"68","category_name":"快餐厅","address":"普陀区顺义路100弄世纪同乐附近(近曹杨路)"}]