[{"poiid":"B2094757D069A5F44198","title":"创智天地园区","lon":"121.513423103","lat":"31.30618417","category":"46","category_name":"楼宇","address":"上海淞沪路创智天地"},{"poiid":"B2094654D56FABF44098","title":"江湾体育场","lon":"121.51518","lat":"31.30645","category":"224","category_name":"综合体育馆","address":"上海杨浦区国和路346号(近政衷路)"},{"poiid":"B2094757D06FA2FC489E","title":"大学路","lon":"121.511287","lat":"31.304481","category":"119","category_name":"商场","address":"上海市杨浦区大学路"},{"poiid":"B2094757DA6EAAF94899","title":"猫的天空之城概念书店(大学路店)","lon":"121.511157999997","lat":"31.3047980000002","category":"248","category_name":"生活娱乐","address":"杨浦区大学路70号(近淞沪路)"},{"poiid":"B2094757D06EAAFC4699","title":"雕刻时光咖啡馆(大学路店)","lon":"121.51073","lat":"31.304462","category":"260","category_name":"其他","address":"杨浦区大学路105-107号(近锦嘉路)"},{"poiid":"B2094750D26DA4FE4193","title":"半山小馆 大学路店","lon":"121.5116955","lat":"31.3048108","category":"91","category_name":"台湾菜","address":"杨浦区大学路32-40号(近智星路)"},{"poiid":"B2094750DA6EA2F4479B","title":"烧肉达人（五角场店）","lon":"121.513885","lat":"31.303628","category":"269","category_name":"烧烤","address":"杨浦区淞沪路151号中环国际大厦4楼(近政通路)"},{"poiid":"B2094750D26BA2F9459F","title":"居食屋和民(创智天地店)","lon":"121.511009","lat":"31.306535","category":"95","category_name":"日本料理","address":"杨浦区淞沪路234号创智天地科教广场二期1楼11-12室"},{"poiid":"B2094757D068A3F8419B","title":"香啡缤(创智天地店)","lon":"121.51332","lat":"31.30562","category":"260","category_name":"其他","address":"杨浦区淞沪路270号创智天地B1楼03单元(近政民路)"},{"poiid":"B2094757D56DA5FF449D","title":"冰火名家巫山烤鱼","lon":"121.51397","lat":"31.308994","category":"247","category_name":"餐饮美食","address":"杨浦区政通路132号(近淞沪路)"},{"poiid":"B2094751D565A6FC419F","title":"丸龟制面（百联又一城）","lon":"121.51454","lat":"31.30314","category":"247","category_name":"餐饮美食","address":"淞沪路8号百联又一城购物中心B1楼"},{"poiid":"B2094750DB64A6FF489D","title":"杨浦区出入境管理中心","lon":"121.514968","lat":"31.307382","category":"252","category_name":"楼宇机构","address":"淞沪路605号"},{"poiid":"B2094757D06AA3FF4798","title":"水彩私家馆","lon":"121.5113111","lat":"31.304258129","category":"71","category_name":"四川菜","address":"杨浦区大学路67号"},{"poiid":"B2094751D464A6FC4693","title":"上下若鏊烧","lon":"121.511795","lat":"31.304489","category":"91","category_name":"台湾菜","address":"杨浦区大学路35号(近智星路)"},{"poiid":"B2094757D569A3FC499E","title":"创智天地广场7号","lon":"121.51248345","lat":"31.30780002","category":"46","category_name":"楼宇","address":"中国上海市杨浦区政立路"},{"poiid":"B2094757D56DA5FF429E","title":"创智天地广场","lon":"121.513735","lat":"31.30492778","category":"263","category_name":"公司","address":"铁西区铁西兴华街与南十中路交处(兴华南街48号)"},{"poiid":"B2094757D16EA3FA4193","title":"uniplus","lon":"121.510897103","lat":"31.3045171351","category":"500","category_name":"未知分类","address":"上海市杨浦区大学路85号"},{"poiid":"B2094751D36DA1F94398","title":"Togo Taco","lon":"121.51075","lat":"31.30445","category":"94","category_name":"西餐厅","address":"杨浦区大学路93-95号"},{"poiid":"B2094757D068A5FD429E","title":"第二军医大学","lon":"121.51062395","lat":"31.306913729","category":"671","category_name":"高校中心点","address":"杨浦区翔殷路800号"},{"poiid":"B2094757D069A2FD479C","title":"蔡家食谱(创智天地店)","lon":"121.51303","lat":"31.30506","category":"76","category_name":"上海菜","address":"杨浦区淞沪路234号创智天地B1楼(近政民路)"},{"poiid":"B2094757D66CA7FA4198","title":"创智天地科技中心","lon":"121.5124111","lat":"31.307423195","category":"500","category_name":"未知分类","address":"上海杨浦政立路淞沪路"},{"poiid":"B2094757D66DA5FE409F","title":"桐庐原生态农庄","lon":"121.513909003","lat":"31.3082353129","category":"87","category_name":"特色／地方风味餐厅","address":"杨浦区政立路245号"},{"poiid":"B2094654DB6AA6FF449B","title":"如家快捷酒店上海江湾体育场店","lon":"121.51284","lat":"31.30811","category":"216","category_name":"经济型连锁酒店","address":"上海杨浦区政立路351号"},{"poiid":"B2094757D069A6F8429E","title":"淞沪路政立路路口","lon":"121.511682","lat":"31.306713","category":"500","category_name":"未知分类","address":"上海淞沪路政立路"},{"poiid":"B209475CDA6EA4F9439C","title":"藏珑云海","lon":"121.509391","lat":"31.306007","category":"500","category_name":"未知分类","address":"上海市 大学路128号"},{"poiid":"B2094757D469A5F9449D","title":"海皇庭酒店","lon":"121.512146","lat":"31.30811","category":"76","category_name":"上海菜","address":"杨浦区政立路285号(近淞沪路)"},{"poiid":"B2094655D26CA7F4469F","title":"创智天地广场十号","lon":"121.51317","lat":"31.30614","category":"46","category_name":"楼宇","address":"淞沪路234"},{"poiid":"B2094751D368A2FF459A","title":"Jamaica Blue(创智天地店)","lon":"121.51246","lat":"31.30587","category":"247","category_name":"餐饮美食","address":"杨浦区淞沪路333号创智天地三期7号楼大厅(近智星路)"},{"poiid":"B2094757D569A2FA489C","title":"创智天地广场九号","lon":"121.5126256","lat":"31.30653836","category":"46","category_name":"楼宇","address":"中国上海市杨浦区淞沪路"},{"poiid":"B2094757D064A6FC469E","title":"上海市人才服务中心(杨浦区分部)","lon":"121.51118","lat":"31.30876","category":"500","category_name":"未知分类","address":"杨浦区淞沪路605号C-D(淞沪路政立路)"},{"poiid":"B2094757D06FA3F4469D","title":"天真蓝影像创意沙龙 Naive Blue","lon":"121.51397","lat":"31.308994","category":"249","category_name":"购物服务","address":"杨浦区大学路310号(近复旦大学)"},{"poiid":"B2094757D568AAFB4493","title":"创智天地广场6号","lon":"121.51362359","lat":"31.3078323","category":"46","category_name":"楼宇","address":"中国上海市杨浦区政立路"},{"poiid":"B2094655D26DABF4419B","title":"创智天地广场一号","lon":"121.51375","lat":"31.30494","category":"46","category_name":"楼宇","address":"淞沪路234-290"},{"poiid":"B2094757D06AABF94593","title":"粤悦煲煲好","lon":"121.510889103","lat":"31.3050321459","category":"247","category_name":"餐饮美食","address":"杨浦区邯郸路393号(近国定路)"},{"poiid":"B2094654DB6BA2FA4892","title":"江湾体育场(六号门)","lon":"121.51628","lat":"31.30522","category":"224","category_name":"综合体育馆","address":"政通路108号"},{"poiid":"B2094655D36DA7FF449E","title":"政立路淞沪路","lon":"121.51173","lat":"31.30803","category":"38","category_name":"公交车站","address":""},{"poiid":"B2094757DA69A3FB439E","title":"美吉姆上海杨浦中心","lon":"121.5141351534","lat":"31.307050115237","category":"632","category_name":"教育出国类公司","address":"杨浦区淞沪路308号创智天地地下广场5号楼B1楼(近政立路)"},{"poiid":"B2094752D265A2F44699","title":"正豪大大鸡排(政通路店)","lon":"121.5127692","lat":"31.305628","category":"247","category_name":"餐饮美食","address":"五角场政通路132-6号"},{"poiid":"B2094757D069AAFD4592","title":"创智天地广场8号楼","lon":"121.5136502","lat":"31.304372732","category":"500","category_name":"未知分类","address":"上海杨浦区淞沪路398号"},{"poiid":"B2094757D66CA3FE4593","title":"广州蕉叶","lon":"121.5127091","lat":"31.30430813","category":"247","category_name":"餐饮美食","address":"上海市杨浦区政立路"},{"poiid":"B2094757DA69A1F4469F","title":"沃尔玛-五角场店","lon":"121.51095","lat":"31.30908","category":"119","category_name":"商场","address":"上海杨浦区淞沪路125号"},{"poiid":"B2094757D464A0FF4393","title":"ipo餐厅","lon":"121.51143829954","lat":"31.306147554151","category":"257","category_name":"中餐厅","address":"锦嘉路88号创智坊内近大学路"},{"poiid":"B2094654DB6BA2FA4998","title":"创智天地广场二号","lon":"121.51438","lat":"31.30528","category":"46","category_name":"楼宇","address":"淞沪路234"},{"poiid":"B2094757D66FA1F44792","title":"中升之星","lon":"121.512845103","lat":"31.3070211875","category":"500","category_name":"未知分类","address":"上海市创智天地"},{"poiid":"B2094757D065A7FC4793","title":"泰勒瓦品质红酒(五角场店)","lon":"121.51121","lat":"31.30447","category":"500","category_name":"未知分类","address":"杨浦区大学路97-101号(近淞沪路9月4号正常营业)"},{"poiid":"B2094752D66BA7FE469B","title":"3Q脆皮鸡排","lon":"121.512615","lat":"31.306623","category":"247","category_name":"餐饮美食","address":"政通路117号"},{"poiid":"B2094757D66FA3F54892","title":"Mercedes-Benz","lon":"121.512665103","lat":"31.3069201854","category":"500","category_name":"未知分类","address":"上海市杨浦区政立路"},{"poiid":"B2094654D56FA1FA449E","title":"上海市公安局法医检验所","lon":"121.51365","lat":"31.3086","category":"250","category_name":"公园户外","address":"国京路17"},{"poiid":"B2094757D465A5F54098","title":"重庆周氏麻辣烫 五角场店","lon":"121.5136","lat":"31.30888","category":"68","category_name":"快餐厅","address":"杨浦区国京路41号(近淞沪路)"},{"poiid":"B2094655D26CA7F4469E","title":"创智天地广场三号","lon":"121.51378","lat":"31.30626","category":"46","category_name":"楼宇","address":"淞沪路234"},{"poiid":"B2094757D069A5F44198","title":"创智天地园区","lon":"121.513423103","lat":"31.30618417","category":"46","category_name":"楼宇","address":"上海淞沪路创智天地"},{"poiid":"B2094654D56FABF44098","title":"江湾体育场","lon":"121.51518","lat":"31.30645","category":"224","category_name":"综合体育馆","address":"上海杨浦区国和路346号(近政衷路)"},{"poiid":"B2094757D06FA2FC489E","title":"大学路","lon":"121.511287","lat":"31.304481","category":"119","category_name":"商场","address":"上海市杨浦区大学路"},{"poiid":"B2094757DA6EAAF94899","title":"猫的天空之城概念书店(大学路店)","lon":"121.511157999997","lat":"31.3047980000002","category":"248","category_name":"生活娱乐","address":"杨浦区大学路70号(近淞沪路)"},{"poiid":"B2094757D06EAAFC4699","title":"雕刻时光咖啡馆(大学路店)","lon":"121.51073","lat":"31.304462","category":"260","category_name":"其他","address":"杨浦区大学路105-107号(近锦嘉路)"},{"poiid":"B2094750D26DA4FE4193","title":"半山小馆 大学路店","lon":"121.5116955","lat":"31.3048108","category":"91","category_name":"台湾菜","address":"杨浦区大学路32-40号(近智星路)"},{"poiid":"B2094750DA6EA2F4479B","title":"烧肉达人（五角场店）","lon":"121.513885","lat":"31.303628","category":"269","category_name":"烧烤","address":"杨浦区淞沪路151号中环国际大厦4楼(近政通路)"},{"poiid":"B2094750D26BA2F9459F","title":"居食屋和民(创智天地店)","lon":"121.511009","lat":"31.306535","category":"95","category_name":"日本料理","address":"杨浦区淞沪路234号创智天地科教广场二期1楼11-12室"},{"poiid":"B2094757D068A3F8419B","title":"香啡缤(创智天地店)","lon":"121.51332","lat":"31.30562","category":"260","category_name":"其他","address":"杨浦区淞沪路270号创智天地B1楼03单元(近政民路)"},{"poiid":"B2094757D56DA5FF449D","title":"冰火名家巫山烤鱼","lon":"121.51397","lat":"31.308994","category":"247","category_name":"餐饮美食","address":"杨浦区政通路132号(近淞沪路)"},{"poiid":"B2094751D565A6FC419F","title":"丸龟制面（百联又一城）","lon":"121.51454","lat":"31.30314","category":"247","category_name":"餐饮美食","address":"淞沪路8号百联又一城购物中心B1楼"},{"poiid":"B2094750DB64A6FF489D","title":"杨浦区出入境管理中心","lon":"121.514968","lat":"31.307382","category":"252","category_name":"楼宇机构","address":"淞沪路605号"},{"poiid":"B2094757D06AA3FF4798","title":"水彩私家馆","lon":"121.5113111","lat":"31.304258129","category":"71","category_name":"四川菜","address":"杨浦区大学路67号"},{"poiid":"B2094751D464A6FC4693","title":"上下若鏊烧","lon":"121.511795","lat":"31.304489","category":"91","category_name":"台湾菜","address":"杨浦区大学路35号(近智星路)"},{"poiid":"B2094757D569A3FC499E","title":"创智天地广场7号","lon":"121.51248345","lat":"31.30780002","category":"46","category_name":"楼宇","address":"中国上海市杨浦区政立路"},{"poiid":"B2094757D56DA5FF429E","title":"创智天地广场","lon":"121.513735","lat":"31.30492778","category":"263","category_name":"公司","address":"铁西区铁西兴华街与南十中路交处(兴华南街48号)"},{"poiid":"B2094757D16EA3FA4193","title":"uniplus","lon":"121.510897103","lat":"31.3045171351","category":"500","category_name":"未知分类","address":"上海市杨浦区大学路85号"},{"poiid":"B2094751D36DA1F94398","title":"Togo Taco","lon":"121.51075","lat":"31.30445","category":"94","category_name":"西餐厅","address":"杨浦区大学路93-95号"},{"poiid":"B2094757D068A5FD429E","title":"第二军医大学","lon":"121.51062395","lat":"31.306913729","category":"671","category_name":"高校中心点","address":"杨浦区翔殷路800号"},{"poiid":"B2094757D069A2FD479C","title":"蔡家食谱(创智天地店)","lon":"121.51303","lat":"31.30506","category":"76","category_name":"上海菜","address":"杨浦区淞沪路234号创智天地B1楼(近政民路)"},{"poiid":"B2094757D66CA7FA4198","title":"创智天地科技中心","lon":"121.5124111","lat":"31.307423195","category":"500","category_name":"未知分类","address":"上海杨浦政立路淞沪路"},{"poiid":"B2094757D66DA5FE409F","title":"桐庐原生态农庄","lon":"121.513909003","lat":"31.3082353129","category":"87","category_name":"特色／地方风味餐厅","address":"杨浦区政立路245号"},{"poiid":"B2094654DB6AA6FF449B","title":"如家快捷酒店上海江湾体育场店","lon":"121.51284","lat":"31.30811","category":"216","category_name":"经济型连锁酒店","address":"上海杨浦区政立路351号"},{"poiid":"B2094757D069A6F8429E","title":"淞沪路政立路路口","lon":"121.511682","lat":"31.306713","category":"500","category_name":"未知分类","address":"上海淞沪路政立路"},{"poiid":"B209475CDA6EA4F9439C","title":"藏珑云海","lon":"121.509391","lat":"31.306007","category":"500","category_name":"未知分类","address":"上海市 大学路128号"},{"poiid":"B2094757D469A5F9449D","title":"海皇庭酒店","lon":"121.512146","lat":"31.30811","category":"76","category_name":"上海菜","address":"杨浦区政立路285号(近淞沪路)"},{"poiid":"B2094655D26CA7F4469F","title":"创智天地广场十号","lon":"121.51317","lat":"31.30614","category":"46","category_name":"楼宇","address":"淞沪路234"},{"poiid":"B2094751D368A2FF459A","title":"Jamaica Blue(创智天地店)","lon":"121.51246","lat":"31.30587","category":"247","category_name":"餐饮美食","address":"杨浦区淞沪路333号创智天地三期7号楼大厅(近智星路)"},{"poiid":"B2094757D569A2FA489C","title":"创智天地广场九号","lon":"121.5126256","lat":"31.30653836","category":"46","category_name":"楼宇","address":"中国上海市杨浦区淞沪路"},{"poiid":"B2094757D064A6FC469E","title":"上海市人才服务中心(杨浦区分部)","lon":"121.51118","lat":"31.30876","category":"500","category_name":"未知分类","address":"杨浦区淞沪路605号C-D(淞沪路政立路)"},{"poiid":"B2094757D06FA3F4469D","title":"天真蓝影像创意沙龙 Naive Blue","lon":"121.51397","lat":"31.308994","category":"249","category_name":"购物服务","address":"杨浦区大学路310号(近复旦大学)"},{"poiid":"B2094757D568AAFB4493","title":"创智天地广场6号","lon":"121.51362359","lat":"31.3078323","category":"46","category_name":"楼宇","address":"中国上海市杨浦区政立路"},{"poiid":"B2094655D26DABF4419B","title":"创智天地广场一号","lon":"121.51375","lat":"31.30494","category":"46","category_name":"楼宇","address":"淞沪路234-290"},{"poiid":"B2094757D06AABF94593","title":"粤悦煲煲好","lon":"121.510889103","lat":"31.3050321459","category":"247","category_name":"餐饮美食","address":"杨浦区邯郸路393号(近国定路)"},{"poiid":"B2094654DB6BA2FA4892","title":"江湾体育场(六号门)","lon":"121.51628","lat":"31.30522","category":"224","category_name":"综合体育馆","address":"政通路108号"},{"poiid":"B2094655D36DA7FF449E","title":"政立路淞沪路","lon":"121.51173","lat":"31.30803","category":"38","category_name":"公交车站","address":""},{"poiid":"B2094757DA69A3FB439E","title":"美吉姆上海杨浦中心","lon":"121.5141351534","lat":"31.307050115237","category":"632","category_name":"教育出国类公司","address":"杨浦区淞沪路308号创智天地地下广场5号楼B1楼(近政立路)"},{"poiid":"B2094752D265A2F44699","title":"正豪大大鸡排(政通路店)","lon":"121.5127692","lat":"31.305628","category":"247","category_name":"餐饮美食","address":"五角场政通路132-6号"},{"poiid":"B2094757D069AAFD4592","title":"创智天地广场8号楼","lon":"121.5136502","lat":"31.304372732","category":"500","category_name":"未知分类","address":"上海杨浦区淞沪路398号"},{"poiid":"B2094757D66CA3FE4593","title":"广州蕉叶","lon":"121.5127091","lat":"31.30430813","category":"247","category_name":"餐饮美食","address":"上海市杨浦区政立路"},{"poiid":"B2094757DA69A1F4469F","title":"沃尔玛-五角场店","lon":"121.51095","lat":"31.30908","category":"119","category_name":"商场","address":"上海杨浦区淞沪路125号"},{"poiid":"B2094757D464A0FF4393","title":"ipo餐厅","lon":"121.51143829954","lat":"31.306147554151","category":"257","category_name":"中餐厅","address":"锦嘉路88号创智坊内近大学路"},{"poiid":"B2094654DB6BA2FA4998","title":"创智天地广场二号","lon":"121.51438","lat":"31.30528","category":"46","category_name":"楼宇","address":"淞沪路234"},{"poiid":"B2094757D66FA1F44792","title":"中升之星","lon":"121.512845103","lat":"31.3070211875","category":"500","category_name":"未知分类","address":"上海市创智天地"},{"poiid":"B2094757D065A7FC4793","title":"泰勒瓦品质红酒(五角场店)","lon":"121.51121","lat":"31.30447","category":"500","category_name":"未知分类","address":"杨浦区大学路97-101号(近淞沪路9月4号正常营业)"},{"poiid":"B2094752D66BA7FE469B","title":"3Q脆皮鸡排","lon":"121.512615","lat":"31.306623","category":"247","category_name":"餐饮美食","address":"政通路117号"},{"poiid":"B2094757D66FA3F54892","title":"Mercedes-Benz","lon":"121.512665103","lat":"31.3069201854","category":"500","category_name":"未知分类","address":"上海市杨浦区政立路"},{"poiid":"B2094654D56FA1FA449E","title":"上海市公安局法医检验所","lon":"121.51365","lat":"31.3086","category":"250","category_name":"公园户外","address":"国京路17"},{"poiid":"B2094757D465A5F54098","title":"重庆周氏麻辣烫 五角场店","lon":"121.5136","lat":"31.30888","category":"68","category_name":"快餐厅","address":"杨浦区国京路41号(近淞沪路)"},{"poiid":"B2094655D26CA7F4469E","title":"创智天地广场三号","lon":"121.51378","lat":"31.30626","category":"46","category_name":"楼宇","address":"淞沪路234"},{"poiid":"B2094757D069A5F44198","title":"创智天地园区","lon":"121.513423103","lat":"31.30618417","category":"46","category_name":"楼宇","address":"上海淞沪路创智天地"},{"poiid":"B2094654D56FABF44098","title":"江湾体育场","lon":"121.51518","lat":"31.30645","category":"224","category_name":"综合体育馆","address":"上海杨浦区国和路346号(近政衷路)"},{"poiid":"B2094757D06FA2FC489E","title":"大学路","lon":"121.511287","lat":"31.304481","category":"119","category_name":"商场","address":"上海市杨浦区大学路"},{"poiid":"B2094757DA6EAAF94899","title":"猫的天空之城概念书店(大学路店)","lon":"121.511157999997","lat":"31.3047980000002","category":"248","category_name":"生活娱乐","address":"杨浦区大学路70号(近淞沪路)"},{"poiid":"B2094757D06EAAFC4699","title":"雕刻时光咖啡馆(大学路店)","lon":"121.51073","lat":"31.304462","category":"260","category_name":"其他","address":"杨浦区大学路105-107号(近锦嘉路)"},{"poiid":"B2094750D26DA4FE4193","title":"半山小馆 大学路店","lon":"121.5116955","lat":"31.3048108","category":"91","category_name":"台湾菜","address":"杨浦区大学路32-40号(近智星路)"},{"poiid":"B2094750DA6EA2F4479B","title":"烧肉达人（五角场店）","lon":"121.513885","lat":"31.303628","category":"269","category_name":"烧烤","address":"杨浦区淞沪路151号中环国际大厦4楼(近政通路)"},{"poiid":"B2094750D26BA2F9459F","title":"居食屋和民(创智天地店)","lon":"121.511009","lat":"31.306535","category":"95","category_name":"日本料理","address":"杨浦区淞沪路234号创智天地科教广场二期1楼11-12室"},{"poiid":"B2094757D068A3F8419B","title":"香啡缤(创智天地店)","lon":"121.51332","lat":"31.30562","category":"260","category_name":"其他","address":"杨浦区淞沪路270号创智天地B1楼03单元(近政民路)"},{"poiid":"B2094757D56DA5FF449D","title":"冰火名家巫山烤鱼","lon":"121.51397","lat":"31.308994","category":"247","category_name":"餐饮美食","address":"杨浦区政通路132号(近淞沪路)"},{"poiid":"B2094751D565A6FC419F","title":"丸龟制面（百联又一城）","lon":"121.51454","lat":"31.30314","category":"247","category_name":"餐饮美食","address":"淞沪路8号百联又一城购物中心B1楼"},{"poiid":"B2094750DB64A6FF489D","title":"杨浦区出入境管理中心","lon":"121.514968","lat":"31.307382","category":"252","category_name":"楼宇机构","address":"淞沪路605号"},{"poiid":"B2094757D06AA3FF4798","title":"水彩私家馆","lon":"121.5113111","lat":"31.304258129","category":"71","category_name":"四川菜","address":"杨浦区大学路67号"},{"poiid":"B2094751D464A6FC4693","title":"上下若鏊烧","lon":"121.511795","lat":"31.304489","category":"91","category_name":"台湾菜","address":"杨浦区大学路35号(近智星路)"},{"poiid":"B2094757D569A3FC499E","title":"创智天地广场7号","lon":"121.51248345","lat":"31.30780002","category":"46","category_name":"楼宇","address":"中国上海市杨浦区政立路"},{"poiid":"B2094757D56DA5FF429E","title":"创智天地广场","lon":"121.513735","lat":"31.30492778","category":"263","category_name":"公司","address":"铁西区铁西兴华街与南十中路交处(兴华南街48号)"},{"poiid":"B2094757D16EA3FA4193","title":"uniplus","lon":"121.510897103","lat":"31.3045171351","category":"500","category_name":"未知分类","address":"上海市杨浦区大学路85号"},{"poiid":"B2094751D36DA1F94398","title":"Togo Taco","lon":"121.51075","lat":"31.30445","category":"94","category_name":"西餐厅","address":"杨浦区大学路93-95号"},{"poiid":"B2094757D068A5FD429E","title":"第二军医大学","lon":"121.51062395","lat":"31.306913729","category":"671","category_name":"高校中心点","address":"杨浦区翔殷路800号"},{"poiid":"B2094757D069A2FD479C","title":"蔡家食谱(创智天地店)","lon":"121.51303","lat":"31.30506","category":"76","category_name":"上海菜","address":"杨浦区淞沪路234号创智天地B1楼(近政民路)"},{"poiid":"B2094757D66CA7FA4198","title":"创智天地科技中心","lon":"121.5124111","lat":"31.307423195","category":"500","category_name":"未知分类","address":"上海杨浦政立路淞沪路"},{"poiid":"B2094757D66DA5FE409F","title":"桐庐原生态农庄","lon":"121.513909003","lat":"31.3082353129","category":"87","category_name":"特色／地方风味餐厅","address":"杨浦区政立路245号"},{"poiid":"B2094654DB6AA6FF449B","title":"如家快捷酒店上海江湾体育场店","lon":"121.51284","lat":"31.30811","category":"216","category_name":"经济型连锁酒店","address":"上海杨浦区政立路351号"},{"poiid":"B2094757D069A6F8429E","title":"淞沪路政立路路口","lon":"121.511682","lat":"31.306713","category":"500","category_name":"未知分类","address":"上海淞沪路政立路"},{"poiid":"B209475CDA6EA4F9439C","title":"藏珑云海","lon":"121.509391","lat":"31.306007","category":"500","category_name":"未知分类","address":"上海市 大学路128号"},{"poiid":"B2094757D469A5F9449D","title":"海皇庭酒店","lon":"121.512146","lat":"31.30811","category":"76","category_name":"上海菜","address":"杨浦区政立路285号(近淞沪路)"},{"poiid":"B2094655D26CA7F4469F","title":"创智天地广场十号","lon":"121.51317","lat":"31.30614","category":"46","category_name":"楼宇","address":"淞沪路234"},{"poiid":"B2094751D368A2FF459A","title":"Jamaica Blue(创智天地店)","lon":"121.51246","lat":"31.30587","category":"247","category_name":"餐饮美食","address":"杨浦区淞沪路333号创智天地三期7号楼大厅(近智星路)"},{"poiid":"B2094757D569A2FA489C","title":"创智天地广场九号","lon":"121.5126256","lat":"31.30653836","category":"46","category_name":"楼宇","address":"中国上海市杨浦区淞沪路"},{"poiid":"B2094757D064A6FC469E","title":"上海市人才服务中心(杨浦区分部)","lon":"121.51118","lat":"31.30876","category":"500","category_name":"未知分类","address":"杨浦区淞沪路605号C-D(淞沪路政立路)"},{"poiid":"B2094757D06FA3F4469D","title":"天真蓝影像创意沙龙 Naive Blue","lon":"121.51397","lat":"31.308994","category":"249","category_name":"购物服务","address":"杨浦区大学路310号(近复旦大学)"},{"poiid":"B2094757D568AAFB4493","title":"创智天地广场6号","lon":"121.51362359","lat":"31.3078323","category":"46","category_name":"楼宇","address":"中国上海市杨浦区政立路"},{"poiid":"B2094655D26DABF4419B","title":"创智天地广场一号","lon":"121.51375","lat":"31.30494","category":"46","category_name":"楼宇","address":"淞沪路234-290"},{"poiid":"B2094757D06AABF94593","title":"粤悦煲煲好","lon":"121.510889103","lat":"31.3050321459","category":"247","category_name":"餐饮美食","address":"杨浦区邯郸路393号(近国定路)"},{"poiid":"B2094654DB6BA2FA4892","title":"江湾体育场(六号门)","lon":"121.51628","lat":"31.30522","category":"224","category_name":"综合体育馆","address":"政通路108号"},{"poiid":"B2094655D36DA7FF449E","title":"政立路淞沪路","lon":"121.51173","lat":"31.30803","category":"38","category_name":"公交车站","address":""},{"poiid":"B2094757DA69A3FB439E","title":"美吉姆上海杨浦中心","lon":"121.5141351534","lat":"31.307050115237","category":"632","category_name":"教育出国类公司","address":"杨浦区淞沪路308号创智天地地下广场5号楼B1楼(近政立路)"},{"poiid":"B2094752D265A2F44699","title":"正豪大大鸡排(政通路店)","lon":"121.5127692","lat":"31.305628","category":"247","category_name":"餐饮美食","address":"五角场政通路132-6号"},{"poiid":"B2094757D069AAFD4592","title":"创智天地广场8号楼","lon":"121.5136502","lat":"31.304372732","category":"500","category_name":"未知分类","address":"上海杨浦区淞沪路398号"},{"poiid":"B2094757D66CA3FE4593","title":"广州蕉叶","lon":"121.5127091","lat":"31.30430813","category":"247","category_name":"餐饮美食","address":"上海市杨浦区政立路"},{"poiid":"B2094757DA69A1F4469F","title":"沃尔玛-五角场店","lon":"121.51095","lat":"31.30908","category":"119","category_name":"商场","address":"上海杨浦区淞沪路125号"},{"poiid":"B2094757D464A0FF4393","title":"ipo餐厅","lon":"121.51143829954","lat":"31.306147554151","category":"257","category_name":"中餐厅","address":"锦嘉路88号创智坊内近大学路"},{"poiid":"B2094654DB6BA2FA4998","title":"创智天地广场二号","lon":"121.51438","lat":"31.30528","category":"46","category_name":"楼宇","address":"淞沪路234"},{"poiid":"B2094757D66FA1F44792","title":"中升之星","lon":"121.512845103","lat":"31.3070211875","category":"500","category_name":"未知分类","address":"上海市创智天地"},{"poiid":"B2094757D065A7FC4793","title":"泰勒瓦品质红酒(五角场店)","lon":"121.51121","lat":"31.30447","category":"500","category_name":"未知分类","address":"杨浦区大学路97-101号(近淞沪路9月4号正常营业)"},{"poiid":"B2094752D66BA7FE469B","title":"3Q脆皮鸡排","lon":"121.512615","lat":"31.306623","category":"247","category_name":"餐饮美食","address":"政通路117号"},{"poiid":"B2094757D66FA3F54892","title":"Mercedes-Benz","lon":"121.512665103","lat":"31.3069201854","category":"500","category_name":"未知分类","address":"上海市杨浦区政立路"},{"poiid":"B2094654D56FA1FA449E","title":"上海市公安局法医检验所","lon":"121.51365","lat":"31.3086","category":"250","category_name":"公园户外","address":"国京路17"},{"poiid":"B2094757D465A5F54098","title":"重庆周氏麻辣烫 五角场店","lon":"121.5136","lat":"31.30888","category":"68","category_name":"快餐厅","address":"杨浦区国京路41号(近淞沪路)"},{"poiid":"B2094655D26CA7F4469E","title":"创智天地广场三号","lon":"121.51378","lat":"31.30626","category":"46","category_name":"楼宇","address":"淞沪路234"},{"poiid":"B2094757D069A5F44198","title":"创智天地园区","lon":"121.513423103","lat":"31.30618417","category":"46","category_name":"楼宇","address":"上海淞沪路创智天地"},{"poiid":"B2094654D56FABF44098","title":"江湾体育场","lon":"121.51518","lat":"31.30645","category":"224","category_name":"综合体育馆","address":"上海杨浦区国和路346号(近政衷路)"},{"poiid":"B2094757D06FA2FC489E","title":"大学路","lon":"121.511287","lat":"31.304481","category":"119","category_name":"商场","address":"上海市杨浦区大学路"},{"poiid":"B2094757DA6EAAF94899","title":"猫的天空之城概念书店(大学路店)","lon":"121.511157999997","lat":"31.3047980000002","category":"248","category_name":"生活娱乐","address":"杨浦区大学路70号(近淞沪路)"},{"poiid":"B2094757D06EAAFC4699","title":"雕刻时光咖啡馆(大学路店)","lon":"121.51073","lat":"31.304462","category":"260","category_name":"其他","address":"杨浦区大学路105-107号(近锦嘉路)"},{"poiid":"B2094750D26DA4FE4193","title":"半山小馆 大学路店","lon":"121.5116955","lat":"31.3048108","category":"91","category_name":"台湾菜","address":"杨浦区大学路32-40号(近智星路)"},{"poiid":"B2094750DA6EA2F4479B","title":"烧肉达人（五角场店）","lon":"121.513885","lat":"31.303628","category":"269","category_name":"烧烤","address":"杨浦区淞沪路151号中环国际大厦4楼(近政通路)"},{"poiid":"B2094750D26BA2F9459F","title":"居食屋和民(创智天地店)","lon":"121.511009","lat":"31.306535","category":"95","category_name":"日本料理","address":"杨浦区淞沪路234号创智天地科教广场二期1楼11-12室"},{"poiid":"B2094757D068A3F8419B","title":"香啡缤(创智天地店)","lon":"121.51332","lat":"31.30562","category":"260","category_name":"其他","address":"杨浦区淞沪路270号创智天地B1楼03单元(近政民路)"},{"poiid":"B2094757D56DA5FF449D","title":"冰火名家巫山烤鱼","lon":"121.51397","lat":"31.308994","category":"247","category_name":"餐饮美食","address":"杨浦区政通路132号(近淞沪路)"},{"poiid":"B2094751D565A6FC419F","title":"丸龟制面（百联又一城）","lon":"121.51454","lat":"31.30314","category":"247","category_name":"餐饮美食","address":"淞沪路8号百联又一城购物中心B1楼"},{"poiid":"B2094750DB64A6FF489D","title":"杨浦区出入境管理中心","lon":"121.514968","lat":"31.307382","category":"252","category_name":"楼宇机构","address":"淞沪路605号"},{"poiid":"B2094757D06AA3FF4798","title":"水彩私家馆","lon":"121.5113111","lat":"31.304258129","category":"71","category_name":"四川菜","address":"杨浦区大学路67号"},{"poiid":"B2094751D464A6FC4693","title":"上下若鏊烧","lon":"121.511795","lat":"31.304489","category":"91","category_name":"台湾菜","address":"杨浦区大学路35号(近智星路)"},{"poiid":"B2094757D569A3FC499E","title":"创智天地广场7号","lon":"121.51248345","lat":"31.30780002","category":"46","category_name":"楼宇","address":"中国上海市杨浦区政立路"},{"poiid":"B2094757D56DA5FF429E","title":"创智天地广场","lon":"121.513735","lat":"31.30492778","category":"263","category_name":"公司","address":"铁西区铁西兴华街与南十中路交处(兴华南街48号)"},{"poiid":"B2094757D16EA3FA4193","title":"uniplus","lon":"121.510897103","lat":"31.3045171351","category":"500","category_name":"未知分类","address":"上海市杨浦区大学路85号"},{"poiid":"B2094751D36DA1F94398","title":"Togo Taco","lon":"121.51075","lat":"31.30445","category":"94","category_name":"西餐厅","address":"杨浦区大学路93-95号"},{"poiid":"B2094757D068A5FD429E","title":"第二军医大学","lon":"121.51062395","lat":"31.306913729","category":"671","category_name":"高校中心点","address":"杨浦区翔殷路800号"},{"poiid":"B2094757D069A2FD479C","title":"蔡家食谱(创智天地店)","lon":"121.51303","lat":"31.30506","category":"76","category_name":"上海菜","address":"杨浦区淞沪路234号创智天地B1楼(近政民路)"},{"poiid":"B2094757D66CA7FA4198","title":"创智天地科技中心","lon":"121.5124111","lat":"31.307423195","category":"500","category_name":"未知分类","address":"上海杨浦政立路淞沪路"},{"poiid":"B2094757D66DA5FE409F","title":"桐庐原生态农庄","lon":"121.513909003","lat":"31.3082353129","category":"87","category_name":"特色／地方风味餐厅","address":"杨浦区政立路245号"},{"poiid":"B2094654DB6AA6FF449B","title":"如家快捷酒店上海江湾体育场店","lon":"121.51284","lat":"31.30811","category":"216","category_name":"经济型连锁酒店","address":"上海杨浦区政立路351号"},{"poiid":"B2094757D069A6F8429E","title":"淞沪路政立路路口","lon":"121.511682","lat":"31.306713","category":"500","category_name":"未知分类","address":"上海淞沪路政立路"},{"poiid":"B209475CDA6EA4F9439C","title":"藏珑云海","lon":"121.509391","lat":"31.306007","category":"500","category_name":"未知分类","address":"上海市 大学路128号"},{"poiid":"B2094757D469A5F9449D","title":"海皇庭酒店","lon":"121.512146","lat":"31.30811","category":"76","category_name":"上海菜","address":"杨浦区政立路285号(近淞沪路)"},{"poiid":"B2094655D26CA7F4469F","title":"创智天地广场十号","lon":"121.51317","lat":"31.30614","category":"46","category_name":"楼宇","address":"淞沪路234"},{"poiid":"B2094751D368A2FF459A","title":"Jamaica Blue(创智天地店)","lon":"121.51246","lat":"31.30587","category":"247","category_name":"餐饮美食","address":"杨浦区淞沪路333号创智天地三期7号楼大厅(近智星路)"},{"poiid":"B2094757D569A2FA489C","title":"创智天地广场九号","lon":"121.5126256","lat":"31.30653836","category":"46","category_name":"楼宇","address":"中国上海市杨浦区淞沪路"},{"poiid":"B2094757D064A6FC469E","title":"上海市人才服务中心(杨浦区分部)","lon":"121.51118","lat":"31.30876","category":"500","category_name":"未知分类","address":"杨浦区淞沪路605号C-D(淞沪路政立路)"},{"poiid":"B2094757D06FA3F4469D","title":"天真蓝影像创意沙龙 Naive Blue","lon":"121.51397","lat":"31.308994","category":"249","category_name":"购物服务","address":"杨浦区大学路310号(近复旦大学)"},{"poiid":"B2094757D568AAFB4493","title":"创智天地广场6号","lon":"121.51362359","lat":"31.3078323","category":"46","category_name":"楼宇","address":"中国上海市杨浦区政立路"},{"poiid":"B2094655D26DABF4419B","title":"创智天地广场一号","lon":"121.51375","lat":"31.30494","category":"46","category_name":"楼宇","address":"淞沪路234-290"},{"poiid":"B2094757D06AABF94593","title":"粤悦煲煲好","lon":"121.510889103","lat":"31.3050321459","category":"247","category_name":"餐饮美食","address":"杨浦区邯郸路393号(近国定路)"},{"poiid":"B2094654DB6BA2FA4892","title":"江湾体育场(六号门)","lon":"121.51628","lat":"31.30522","category":"224","category_name":"综合体育馆","address":"政通路108号"},{"poiid":"B2094655D36DA7FF449E","title":"政立路淞沪路","lon":"121.51173","lat":"31.30803","category":"38","category_name":"公交车站","address":""},{"poiid":"B2094757DA69A3FB439E","title":"美吉姆上海杨浦中心","lon":"121.5141351534","lat":"31.307050115237","category":"632","category_name":"教育出国类公司","address":"杨浦区淞沪路308号创智天地地下广场5号楼B1楼(近政立路)"},{"poiid":"B2094752D265A2F44699","title":"正豪大大鸡排(政通路店)","lon":"121.5127692","lat":"31.305628","category":"247","category_name":"餐饮美食","address":"五角场政通路132-6号"},{"poiid":"B2094757D069AAFD4592","title":"创智天地广场8号楼","lon":"121.5136502","lat":"31.304372732","category":"500","category_name":"未知分类","address":"上海杨浦区淞沪路398号"},{"poiid":"B2094757D66CA3FE4593","title":"广州蕉叶","lon":"121.5127091","lat":"31.30430813","category":"247","category_name":"餐饮美食","address":"上海市杨浦区政立路"},{"poiid":"B2094757DA69A1F4469F","title":"沃尔玛-五角场店","lon":"121.51095","lat":"31.30908","category":"119","category_name":"商场","address":"上海杨浦区淞沪路125号"},{"poiid":"B2094757D464A0FF4393","title":"ipo餐厅","lon":"121.51143829954","lat":"31.306147554151","category":"257","category_name":"中餐厅","address":"锦嘉路88号创智坊内近大学路"},{"poiid":"B2094654DB6BA2FA4998","title":"创智天地广场二号","lon":"121.51438","lat":"31.30528","category":"46","category_name":"楼宇","address":"淞沪路234"},{"poiid":"B2094757D66FA1F44792","title":"中升之星","lon":"121.512845103","lat":"31.3070211875","category":"500","category_name":"未知分类","address":"上海市创智天地"},{"poiid":"B2094757D065A7FC4793","title":"泰勒瓦品质红酒(五角场店)","lon":"121.51121","lat":"31.30447","category":"500","category_name":"未知分类","address":"杨浦区大学路97-101号(近淞沪路9月4号正常营业)"},{"poiid":"B2094752D66BA7FE469B","title":"3Q脆皮鸡排","lon":"121.512615","lat":"31.306623","category":"247","category_name":"餐饮美食","address":"政通路117号"},{"poiid":"B2094757D66FA3F54892","title":"Mercedes-Benz","lon":"121.512665103","lat":"31.3069201854","category":"500","category_name":"未知分类","address":"上海市杨浦区政立路"},{"poiid":"B2094654D56FA1FA449E","title":"上海市公安局法医检验所","lon":"121.51365","lat":"31.3086","category":"250","category_name":"公园户外","address":"国京路17"},{"poiid":"B2094757D465A5F54098","title":"重庆周氏麻辣烫 五角场店","lon":"121.5136","lat":"31.30888","category":"68","category_name":"快餐厅","address":"杨浦区国京路41号(近淞沪路)"},{"poiid":"B2094655D26CA7F4469E","title":"创智天地广场三号","lon":"121.51378","lat":"31.30626","category":"46","category_name":"楼宇","address":"淞沪路234"}]