[{"poiid":"B2094757D168A1F44199","title":"张泽羊肉庄","lon":"121.280272738","lat":"30.9201090602","category":"247","category_name":"餐饮美食","address":"松江区叶榭张泽马桥村竹亭南路105号"},{"poiid":"B2094654DB6FABF4489A","title":"镇南花苑","lon":"121.27683","lat":"30.92682","category":"47","category_name":"住宅区","address":"张泽镇"},{"poiid":"B2094757D169A2FA4392","title":"上海大学嘉定数码B楼","lon":"121.29517373","lat":"30.908342794","category":"500","category_name":"未知分类","address":"上海城中路20号"},{"poiid":"B2094654DB6FABF4469E","title":"松江区张泽学校(张泽影剧院东南)","lon":"121.27898","lat":"30.92711","category":"55","category_name":"中学","address":""},{"poiid":"B2094654DB6FABF4409D","title":"八字桥村","lon":"121.2832","lat":"30.929899","category":"47","category_name":"住宅区","address":"八字桥村"},{"poiid":"B2094654DB69A7F8449B","title":"张泽小学","lon":"121.2801","lat":"30.92829","category":"56","category_name":"小学","address":"松江区张泽镇东市"},{"poiid":"B2094654DB6FABF44699","title":"张泽影剧院","lon":"121.277968","lat":"30.928105","category":"178","category_name":"电影院","address":"张泽镇东路84号"},{"poiid":"B2094654DB64A0FB499A","title":"农工商超市(镇南花苑店)","lon":"121.27645","lat":"30.92735","category":"118","category_name":"超级市场","address":"松江区镇南路30号"},{"poiid":"B2094654DB6FABF4489C","title":"金张泽大酒店","lon":"121.27748","lat":"30.92733","category":"250","category_name":"公园户外","address":"镇南路16号"},{"poiid":"B2094757D16FA7F44098","title":"陈氏张泽羊肉馆","lon":"121.27326","lat":"30.9293","category":"76","category_name":"上海菜","address":"松江区松江叶谢辕门路132号(近中国移动张泽店)"},{"poiid":"B2094654DB68A0FE499A","title":"华梅科技园","lon":"121.2667","lat":"30.91422","category":"45","category_name":"产业园区","address":""},{"poiid":"B2094654DB6FABF44792","title":"余天成镇南药店","lon":"121.2765","lat":"30.927","category":"669","category_name":"药店","address":"张泽镇"},{"poiid":"B2094654DB6FABF4409B","title":"中国农业银行(辕门路)","lon":"121.27379","lat":"30.92987","category":"150","category_name":"银行","address":""}]