[{"poiid":"B2094655D26AA0FA459D","title":"地铁松江大学城站","lon":"121.2328121282244","lat":"31.053876849388867","category":"36","category_name":"地铁站","address":"上海市松江区"},{"poiid":"B2094655D26FABFB479E","title":"开元地中海","lon":"121.226","lat":"31.0447","category":"119","category_name":"商场","address":"上海松江区新松江路925号(人民北路口)"},{"poiid":"B2094654DB6EA2F8449A","title":"上海外国语大学（松江校区）","lon":"121.22192","lat":"31.04948","category":"671","category_name":"高校中心点","address":"上海市松江区文翔路1550号"},{"poiid":"B2094757D06AA0F9409D","title":"上海外国语大学图文信息中心","lon":"121.225394867","lat":"31.0475109834","category":"253","category_name":"校园生活","address":"松江区文翔路1550号上海外国语大学图文信息中心"},{"poiid":"B2094757D06FABFD459F","title":"东华大学(松江校区)","lon":"121.22101","lat":"31.05698","category":"671","category_name":"高校中心点","address":"上海近郊松江区人民北路2999号  "},{"poiid":"B2094655D268A6FD479C","title":"东华大学第二教学楼","lon":"121.2189","lat":"31.0551","category":"52","category_name":"高等院校","address":""},{"poiid":"B2094654DB6EA2F84299","title":"三湘四季花城","lon":"121.23571694306","lat":"31.062261787972","category":"47","category_name":"住宅区","address":"松江广富林路1599弄,梅家浜路1508弄"},{"poiid":"B2094757D064A1FA429D","title":"二期某寝室","lon":"121.220894","lat":"31.050056","category":"249","category_name":"购物服务","address":null},{"poiid":"B2094757D568ABF94192","title":"保利·西子湾","lon":"121.23235704","lat":"31.06264133","category":"47","category_name":"住宅区","address":"松江区广富林路1188弄"},{"poiid":"B2094757D06FA2FA409F","title":"上海外国语大学英语学院","lon":"121.226543","lat":"31.047136","category":"253","category_name":"校园生活","address":"松江区文翔路1550号上海外国语大学五教楼(英院)"},{"poiid":"B2094757D068A1FD4199","title":"Lesvila主题餐厅","lon":"121.2151","lat":"31.0505","category":"94","category_name":"西餐厅","address":"松江区文汇路338弄松江大学城二期142-146号(近外贸学院)"},{"poiid":"B2094757D068A0FE4299","title":"暖纪 Bookie Vookie","lon":"121.221318054","lat":"31.049684793","category":"68","category_name":"快餐厅","address":"松江区文汇路166号16室(近Lesvila餐厅)"},{"poiid":"B2094655D26FAAFA4592","title":"上外小别墅","lon":"121.22942","lat":"31.04522","category":"47","category_name":"住宅区","address":"松江区文翔路1550号上海外国语大学松江校区内(文翔路西林北路)"},{"poiid":"B2094757D569A2F8419D","title":"御上海","lon":"121.23415","lat":"31.049538","category":"47","category_name":"住宅区","address":"上海松江区谷阳北路2399弄"},{"poiid":"B2094655D268A1FB429A","title":"新沙珑国际宾馆","lon":"121.23057","lat":"31.05185","category":"250","category_name":"公园户外","address":"松江区梅家浜路1501号(地铁9号线松江大学城站对面)"},{"poiid":"B2094753D16EA0FD439B","title":"优麦克主题KTV","lon":"121.23027","lat":"31.05259","category":"170","category_name":"KTV","address":"松江区梅家浜路1500弄1号305(大学城地铁站对面)"},{"poiid":"B2094757D06FA0FE4893","title":"上海外国语大学三教楼","lon":"121.223651","lat":"31.0452","category":"253","category_name":"校园生活","address":"松江区文翔路1550号上海外国语大学三教楼(法语,德语,西方语系)"},{"poiid":"B2094752D26DA0FD459B","title":"新石器烤肉(三湘店)","lon":"121.23001","lat":"31.05212","category":"68","category_name":"快餐厅","address":"松江区梅家浜路1500弄三湘财富广场(近9号线松江大学城站)"},{"poiid":"B2094757D06FABFB4798","title":"上海外国语大学教育会堂","lon":"121.22410545","lat":"31.044146872","category":"260","category_name":"其他","address":"上海松江区文翔路1550号"},{"poiid":"B2094757D06FA2FF4498","title":"上海外国语大学二教楼","lon":"121.223657","lat":"31.047221","category":"253","category_name":"校园生活","address":"松江区文翔路1550号上海外国语大学二教楼,(国际工商管理学院,国际金融贸易学院)"},{"poiid":"B2094655D268A0FA4693","title":"沙珑餐店","lon":"121.23085","lat":"31.05185","category":"257","category_name":"中餐厅","address":"梅家浜路1501号"},{"poiid":"B2094757D06FA1FB4192","title":"上海外国语大学一教楼","lon":"121.223258","lat":"31.048041","category":"253","category_name":"校园生活","address":"松江区文翔路1550号上海外国语大学一教楼(国际教育学院,新闻传播学院)"},{"poiid":"B2094757D06FA5FF4093","title":"Hanacafe哈娜咖啡","lon":"121.21937803","lat":"31.049615496","category":"260","category_name":"其他","address":"松江区文汇路166号-17号(近上海外国语大学)"},{"poiid":"B2094655D268A0FA479A","title":"神户亭铁板烧","lon":"121.23086","lat":"31.05185","category":"269","category_name":"烧烤","address":"松江区梅家浜路1501号新沙珑国际宾馆1楼(近松江大学城)"},{"poiid":"B2094655D268A6FD479D","title":"东华大学第一教学楼","lon":"121.21884","lat":"31.0559","category":"52","category_name":"高等院校","address":""},{"poiid":"B2094757D068A2F9489B","title":"台川喜宴(松江店)","lon":"121.21828715","lat":"31.0495023454","category":"91","category_name":"台湾菜","address":"松江区文汇路180号(近松江大学城)"},{"poiid":"B2094757D06FA0FD4699","title":"上海外国语大学日本文化经济学院","lon":"121.22527859","lat":"31.049337791","category":"253","category_name":"校园生活","address":"松江区文翔路1550号上海外国语大学八教楼(日院)"},{"poiid":"B2094757D16FAAFE409A","title":"五木亭拉面馆","lon":"121.230288496","lat":"31.0523786123","category":"95","category_name":"日本料理","address":"松江区梅家浜路1507号(近九号线松江大学城站)"},{"poiid":"B2094655D26FAAFE4499","title":"星辰园(北门)","lon":"121.22983","lat":"31.05194","category":"656","category_name":"大门","address":"梅家浜路1505弄"},{"poiid":"B2094757D06BA1FF439D","title":"文汇路300弄","lon":"121.219296196","lat":"31.0505500982","category":"252","category_name":"楼宇机构","address":"上海文汇路300弄"},{"poiid":"B2094750DB6EABF8499D","title":"星辰园","lon":"121.23","lat":"31.051447","category":"47","category_name":"住宅区","address":"上海市松江区松江区梅家浜路1505弄"},{"poiid":"B2094655D268A1FB4198","title":"三湘情商业街","lon":"121.22981","lat":"31.0543","category":"116","category_name":"特色商业街","address":""},{"poiid":"B2094757D16BA2FC4792","title":"Cafe Dennis丹尼花园","lon":"121.22898429","lat":"31.05440368","category":"500","category_name":"未知分类","address":"上海松江新城区龙马路118弄46号"},{"poiid":"B2094757D16CA0F84998","title":"松江辰山植物园山顶","lon":"121.232345","lat":"31.053298","category":"500","category_name":"未知分类","address":"上海松江"},{"poiid":"B2094751D565A1FC4293","title":"麻里麻里","lon":"121.230762","lat":"31.0504426","category":"71","category_name":"四川菜","address":"松江区梅家浜路1500弄三湘财富广场内"},{"poiid":"B2094655D26FABF84893","title":"三湘四季花城(边门)","lon":"121.22975","lat":"31.05414","category":"47","category_name":"住宅区","address":""},{"poiid":"B2094757D664A1F94392","title":"崇正天然 龙马路店","lon":"121.22676","lat":"31.05484","category":"68","category_name":"快餐厅","address":"松江区龙马路118弄商业街19号(近地铁9号线松江大学城站)"},{"poiid":"B2094655D268A1FB4199","title":"世纪华联(梅家浜路)","lon":"121.22808","lat":"31.05226","category":"117","category_name":"便民商店/便利店","address":"松江区梅家浜路1531号"},{"poiid":"B2094750DB69ABF54293","title":"卡卡国王","lon":"121.230186","lat":"31.052425","category":"94","category_name":"西餐厅","address":"松江区梅家浜路1500弄三湘财富广场内"},{"poiid":"B2094750DB6AA1F5419B","title":"英派斯健身俱乐部","lon":"121.23043","lat":"31.052225","category":"221","category_name":"健身中心","address":"松江区梅家浜路1500弄"},{"poiid":"B2094752D165A3F44399","title":"上海对外经贸大学","lon":"121.228217","lat":"31.051668","category":"500","category_name":"未知分类","address":null},{"poiid":"B2094655D26FAAFD4392","title":"星辰园(边门)","lon":"121.22678","lat":"31.05196","category":"47","category_name":"住宅区","address":""},{"poiid":"B2094750D66BAAFA4092","title":"养园和","lon":"121.232","lat":"31.054","category":"68","category_name":"快餐厅","address":"松江区地铁9号线松江新城地铁站1楼"},{"poiid":"B2094757D66EA3F9419A","title":"大眼包子","lon":"121.232161196","lat":"31.0539741714","category":"247","category_name":"餐饮美食","address":"上海新语大包旁边"},{"poiid":"B2094757D064A1FE4292","title":"松江5路","lon":"121.23281415","lat":"31.052513301","category":"38","category_name":"公交车站","address":"上海松江客运中心——松江永丰站"},{"poiid":"B2094655D26EA7FC4398","title":"美信药房(梅家滨路店)","lon":"121.22535","lat":"31.05389","category":"162","category_name":"医院","address":"松江区松江新城梅家滨路1521号"},{"poiid":"B2094757D66FA2FD439D","title":"上外法学院4114教室","lon":"121.226569796","lat":"31.0524935398","category":"253","category_name":"校园生活","address":"上海文翔路"},{"poiid":"B2094757D06FA5FD419E","title":"上海外国语大学法学院","lon":"121.226377","lat":"31.045086","category":"253","category_name":"校园生活","address":"松江区文翔路1550号上海外国语大学四教楼(法学院)"},{"poiid":"B2094757D068A1FD449F","title":"上海外国语大学师生活动中心","lon":"121.224096","lat":"31.048878","category":"249","category_name":"购物服务","address":"松江区文翔路1550号上海外国语大学内"},{"poiid":"B2094655D26FAAFD439D","title":"三湘四季花城紫薇苑(西门)","lon":"121.22695","lat":"31.05702","category":"47","category_name":"住宅区","address":""},{"poiid":"B2094655D26AA0FA459D","title":"地铁松江大学城站","lon":"121.2328121282244","lat":"31.053876849388867","category":"36","category_name":"地铁站","address":"上海市松江区"},{"poiid":"B2094655D26FABFB479E","title":"开元地中海","lon":"121.226","lat":"31.0447","category":"119","category_name":"商场","address":"上海松江区新松江路925号(人民北路口)"},{"poiid":"B2094654DB6EA2F8449A","title":"上海外国语大学（松江校区）","lon":"121.22192","lat":"31.04948","category":"671","category_name":"高校中心点","address":"上海市松江区文翔路1550号"},{"poiid":"B2094757D06AA0F9409D","title":"上海外国语大学图文信息中心","lon":"121.225394867","lat":"31.0475109834","category":"253","category_name":"校园生活","address":"松江区文翔路1550号上海外国语大学图文信息中心"},{"poiid":"B2094757D06FABFD459F","title":"东华大学(松江校区)","lon":"121.22101","lat":"31.05698","category":"671","category_name":"高校中心点","address":"上海近郊松江区人民北路2999号  "},{"poiid":"B2094655D268A6FD479C","title":"东华大学第二教学楼","lon":"121.2189","lat":"31.0551","category":"52","category_name":"高等院校","address":""},{"poiid":"B2094654DB6EA2F84299","title":"三湘四季花城","lon":"121.23571694306","lat":"31.062261787972","category":"47","category_name":"住宅区","address":"松江广富林路1599弄,梅家浜路1508弄"},{"poiid":"B2094757D064A1FA429D","title":"二期某寝室","lon":"121.220894","lat":"31.050056","category":"249","category_name":"购物服务","address":null},{"poiid":"B2094757D568ABF94192","title":"保利·西子湾","lon":"121.23235704","lat":"31.06264133","category":"47","category_name":"住宅区","address":"松江区广富林路1188弄"},{"poiid":"B2094757D06FA2FA409F","title":"上海外国语大学英语学院","lon":"121.226543","lat":"31.047136","category":"253","category_name":"校园生活","address":"松江区文翔路1550号上海外国语大学五教楼(英院)"},{"poiid":"B2094757D068A1FD4199","title":"Lesvila主题餐厅","lon":"121.2151","lat":"31.0505","category":"94","category_name":"西餐厅","address":"松江区文汇路338弄松江大学城二期142-146号(近外贸学院)"},{"poiid":"B2094757D068A0FE4299","title":"暖纪 Bookie Vookie","lon":"121.221318054","lat":"31.049684793","category":"68","category_name":"快餐厅","address":"松江区文汇路166号16室(近Lesvila餐厅)"},{"poiid":"B2094655D26FAAFA4592","title":"上外小别墅","lon":"121.22942","lat":"31.04522","category":"47","category_name":"住宅区","address":"松江区文翔路1550号上海外国语大学松江校区内(文翔路西林北路)"},{"poiid":"B2094757D569A2F8419D","title":"御上海","lon":"121.23415","lat":"31.049538","category":"47","category_name":"住宅区","address":"上海松江区谷阳北路2399弄"},{"poiid":"B2094655D268A1FB429A","title":"新沙珑国际宾馆","lon":"121.23057","lat":"31.05185","category":"250","category_name":"公园户外","address":"松江区梅家浜路1501号(地铁9号线松江大学城站对面)"},{"poiid":"B2094753D16EA0FD439B","title":"优麦克主题KTV","lon":"121.23027","lat":"31.05259","category":"170","category_name":"KTV","address":"松江区梅家浜路1500弄1号305(大学城地铁站对面)"},{"poiid":"B2094757D06FA0FE4893","title":"上海外国语大学三教楼","lon":"121.223651","lat":"31.0452","category":"253","category_name":"校园生活","address":"松江区文翔路1550号上海外国语大学三教楼(法语,德语,西方语系)"},{"poiid":"B2094752D26DA0FD459B","title":"新石器烤肉(三湘店)","lon":"121.23001","lat":"31.05212","category":"68","category_name":"快餐厅","address":"松江区梅家浜路1500弄三湘财富广场(近9号线松江大学城站)"},{"poiid":"B2094757D06FABFB4798","title":"上海外国语大学教育会堂","lon":"121.22410545","lat":"31.044146872","category":"260","category_name":"其他","address":"上海松江区文翔路1550号"},{"poiid":"B2094757D06FA2FF4498","title":"上海外国语大学二教楼","lon":"121.223657","lat":"31.047221","category":"253","category_name":"校园生活","address":"松江区文翔路1550号上海外国语大学二教楼,(国际工商管理学院,国际金融贸易学院)"},{"poiid":"B2094655D268A0FA4693","title":"沙珑餐店","lon":"121.23085","lat":"31.05185","category":"257","category_name":"中餐厅","address":"梅家浜路1501号"},{"poiid":"B2094757D06FA1FB4192","title":"上海外国语大学一教楼","lon":"121.223258","lat":"31.048041","category":"253","category_name":"校园生活","address":"松江区文翔路1550号上海外国语大学一教楼(国际教育学院,新闻传播学院)"},{"poiid":"B2094757D06FA5FF4093","title":"Hanacafe哈娜咖啡","lon":"121.21937803","lat":"31.049615496","category":"260","category_name":"其他","address":"松江区文汇路166号-17号(近上海外国语大学)"},{"poiid":"B2094655D268A0FA479A","title":"神户亭铁板烧","lon":"121.23086","lat":"31.05185","category":"269","category_name":"烧烤","address":"松江区梅家浜路1501号新沙珑国际宾馆1楼(近松江大学城)"},{"poiid":"B2094655D268A6FD479D","title":"东华大学第一教学楼","lon":"121.21884","lat":"31.0559","category":"52","category_name":"高等院校","address":""},{"poiid":"B2094757D068A2F9489B","title":"台川喜宴(松江店)","lon":"121.21828715","lat":"31.0495023454","category":"91","category_name":"台湾菜","address":"松江区文汇路180号(近松江大学城)"},{"poiid":"B2094757D06FA0FD4699","title":"上海外国语大学日本文化经济学院","lon":"121.22527859","lat":"31.049337791","category":"253","category_name":"校园生活","address":"松江区文翔路1550号上海外国语大学八教楼(日院)"},{"poiid":"B2094757D16FAAFE409A","title":"五木亭拉面馆","lon":"121.230288496","lat":"31.0523786123","category":"95","category_name":"日本料理","address":"松江区梅家浜路1507号(近九号线松江大学城站)"},{"poiid":"B2094655D26FAAFE4499","title":"星辰园(北门)","lon":"121.22983","lat":"31.05194","category":"656","category_name":"大门","address":"梅家浜路1505弄"},{"poiid":"B2094757D06BA1FF439D","title":"文汇路300弄","lon":"121.219296196","lat":"31.0505500982","category":"252","category_name":"楼宇机构","address":"上海文汇路300弄"},{"poiid":"B2094750DB6EABF8499D","title":"星辰园","lon":"121.23","lat":"31.051447","category":"47","category_name":"住宅区","address":"上海市松江区松江区梅家浜路1505弄"},{"poiid":"B2094655D268A1FB4198","title":"三湘情商业街","lon":"121.22981","lat":"31.0543","category":"116","category_name":"特色商业街","address":""},{"poiid":"B2094757D16BA2FC4792","title":"Cafe Dennis丹尼花园","lon":"121.22898429","lat":"31.05440368","category":"500","category_name":"未知分类","address":"上海松江新城区龙马路118弄46号"},{"poiid":"B2094757D16CA0F84998","title":"松江辰山植物园山顶","lon":"121.232345","lat":"31.053298","category":"500","category_name":"未知分类","address":"上海松江"},{"poiid":"B2094751D565A1FC4293","title":"麻里麻里","lon":"121.230762","lat":"31.0504426","category":"71","category_name":"四川菜","address":"松江区梅家浜路1500弄三湘财富广场内"},{"poiid":"B2094655D26FABF84893","title":"三湘四季花城(边门)","lon":"121.22975","lat":"31.05414","category":"47","category_name":"住宅区","address":""},{"poiid":"B2094757D664A1F94392","title":"崇正天然 龙马路店","lon":"121.22676","lat":"31.05484","category":"68","category_name":"快餐厅","address":"松江区龙马路118弄商业街19号(近地铁9号线松江大学城站)"},{"poiid":"B2094655D268A1FB4199","title":"世纪华联(梅家浜路)","lon":"121.22808","lat":"31.05226","category":"117","category_name":"便民商店/便利店","address":"松江区梅家浜路1531号"},{"poiid":"B2094750DB69ABF54293","title":"卡卡国王","lon":"121.230186","lat":"31.052425","category":"94","category_name":"西餐厅","address":"松江区梅家浜路1500弄三湘财富广场内"},{"poiid":"B2094750DB6AA1F5419B","title":"英派斯健身俱乐部","lon":"121.23043","lat":"31.052225","category":"221","category_name":"健身中心","address":"松江区梅家浜路1500弄"},{"poiid":"B2094752D165A3F44399","title":"上海对外经贸大学","lon":"121.228217","lat":"31.051668","category":"500","category_name":"未知分类","address":null},{"poiid":"B2094655D26FAAFD4392","title":"星辰园(边门)","lon":"121.22678","lat":"31.05196","category":"47","category_name":"住宅区","address":""},{"poiid":"B2094750D66BAAFA4092","title":"养园和","lon":"121.232","lat":"31.054","category":"68","category_name":"快餐厅","address":"松江区地铁9号线松江新城地铁站1楼"},{"poiid":"B2094757D66EA3F9419A","title":"大眼包子","lon":"121.232161196","lat":"31.0539741714","category":"247","category_name":"餐饮美食","address":"上海新语大包旁边"},{"poiid":"B2094757D064A1FE4292","title":"松江5路","lon":"121.23281415","lat":"31.052513301","category":"38","category_name":"公交车站","address":"上海松江客运中心——松江永丰站"},{"poiid":"B2094655D26EA7FC4398","title":"美信药房(梅家滨路店)","lon":"121.22535","lat":"31.05389","category":"162","category_name":"医院","address":"松江区松江新城梅家滨路1521号"},{"poiid":"B2094757D66FA2FD439D","title":"上外法学院4114教室","lon":"121.226569796","lat":"31.0524935398","category":"253","category_name":"校园生活","address":"上海文翔路"},{"poiid":"B2094757D06FA5FD419E","title":"上海外国语大学法学院","lon":"121.226377","lat":"31.045086","category":"253","category_name":"校园生活","address":"松江区文翔路1550号上海外国语大学四教楼(法学院)"},{"poiid":"B2094757D068A1FD449F","title":"上海外国语大学师生活动中心","lon":"121.224096","lat":"31.048878","category":"249","category_name":"购物服务","address":"松江区文翔路1550号上海外国语大学内"},{"poiid":"B2094655D26FAAFD439D","title":"三湘四季花城紫薇苑(西门)","lon":"121.22695","lat":"31.05702","category":"47","category_name":"住宅区","address":""},{"poiid":"B2094655D26AA0FA459D","title":"地铁松江大学城站","lon":"121.2328121282244","lat":"31.053876849388867","category":"36","category_name":"地铁站","address":"上海市松江区"},{"poiid":"B2094655D26FABFB479E","title":"开元地中海","lon":"121.226","lat":"31.0447","category":"119","category_name":"商场","address":"上海松江区新松江路925号(人民北路口)"},{"poiid":"B2094654DB6EA2F8449A","title":"上海外国语大学（松江校区）","lon":"121.22192","lat":"31.04948","category":"671","category_name":"高校中心点","address":"上海市松江区文翔路1550号"},{"poiid":"B2094757D06AA0F9409D","title":"上海外国语大学图文信息中心","lon":"121.225394867","lat":"31.0475109834","category":"253","category_name":"校园生活","address":"松江区文翔路1550号上海外国语大学图文信息中心"},{"poiid":"B2094757D06FABFD459F","title":"东华大学(松江校区)","lon":"121.22101","lat":"31.05698","category":"671","category_name":"高校中心点","address":"上海近郊松江区人民北路2999号  "},{"poiid":"B2094655D268A6FD479C","title":"东华大学第二教学楼","lon":"121.2189","lat":"31.0551","category":"52","category_name":"高等院校","address":""},{"poiid":"B2094654DB6EA2F84299","title":"三湘四季花城","lon":"121.23571694306","lat":"31.062261787972","category":"47","category_name":"住宅区","address":"松江广富林路1599弄,梅家浜路1508弄"},{"poiid":"B2094757D064A1FA429D","title":"二期某寝室","lon":"121.220894","lat":"31.050056","category":"249","category_name":"购物服务","address":null},{"poiid":"B2094757D568ABF94192","title":"保利·西子湾","lon":"121.23235704","lat":"31.06264133","category":"47","category_name":"住宅区","address":"松江区广富林路1188弄"},{"poiid":"B2094757D06FA2FA409F","title":"上海外国语大学英语学院","lon":"121.226543","lat":"31.047136","category":"253","category_name":"校园生活","address":"松江区文翔路1550号上海外国语大学五教楼(英院)"},{"poiid":"B2094757D068A1FD4199","title":"Lesvila主题餐厅","lon":"121.2151","lat":"31.0505","category":"94","category_name":"西餐厅","address":"松江区文汇路338弄松江大学城二期142-146号(近外贸学院)"},{"poiid":"B2094757D068A0FE4299","title":"暖纪 Bookie Vookie","lon":"121.221318054","lat":"31.049684793","category":"68","category_name":"快餐厅","address":"松江区文汇路166号16室(近Lesvila餐厅)"},{"poiid":"B2094655D26FAAFA4592","title":"上外小别墅","lon":"121.22942","lat":"31.04522","category":"47","category_name":"住宅区","address":"松江区文翔路1550号上海外国语大学松江校区内(文翔路西林北路)"},{"poiid":"B2094757D569A2F8419D","title":"御上海","lon":"121.23415","lat":"31.049538","category":"47","category_name":"住宅区","address":"上海松江区谷阳北路2399弄"},{"poiid":"B2094655D268A1FB429A","title":"新沙珑国际宾馆","lon":"121.23057","lat":"31.05185","category":"250","category_name":"公园户外","address":"松江区梅家浜路1501号(地铁9号线松江大学城站对面)"},{"poiid":"B2094753D16EA0FD439B","title":"优麦克主题KTV","lon":"121.23027","lat":"31.05259","category":"170","category_name":"KTV","address":"松江区梅家浜路1500弄1号305(大学城地铁站对面)"},{"poiid":"B2094757D06FA0FE4893","title":"上海外国语大学三教楼","lon":"121.223651","lat":"31.0452","category":"253","category_name":"校园生活","address":"松江区文翔路1550号上海外国语大学三教楼(法语,德语,西方语系)"},{"poiid":"B2094752D26DA0FD459B","title":"新石器烤肉(三湘店)","lon":"121.23001","lat":"31.05212","category":"68","category_name":"快餐厅","address":"松江区梅家浜路1500弄三湘财富广场(近9号线松江大学城站)"},{"poiid":"B2094757D06FABFB4798","title":"上海外国语大学教育会堂","lon":"121.22410545","lat":"31.044146872","category":"260","category_name":"其他","address":"上海松江区文翔路1550号"},{"poiid":"B2094757D06FA2FF4498","title":"上海外国语大学二教楼","lon":"121.223657","lat":"31.047221","category":"253","category_name":"校园生活","address":"松江区文翔路1550号上海外国语大学二教楼,(国际工商管理学院,国际金融贸易学院)"},{"poiid":"B2094655D268A0FA4693","title":"沙珑餐店","lon":"121.23085","lat":"31.05185","category":"257","category_name":"中餐厅","address":"梅家浜路1501号"},{"poiid":"B2094757D06FA1FB4192","title":"上海外国语大学一教楼","lon":"121.223258","lat":"31.048041","category":"253","category_name":"校园生活","address":"松江区文翔路1550号上海外国语大学一教楼(国际教育学院,新闻传播学院)"},{"poiid":"B2094757D06FA5FF4093","title":"Hanacafe哈娜咖啡","lon":"121.21937803","lat":"31.049615496","category":"260","category_name":"其他","address":"松江区文汇路166号-17号(近上海外国语大学)"},{"poiid":"B2094655D268A0FA479A","title":"神户亭铁板烧","lon":"121.23086","lat":"31.05185","category":"269","category_name":"烧烤","address":"松江区梅家浜路1501号新沙珑国际宾馆1楼(近松江大学城)"},{"poiid":"B2094655D268A6FD479D","title":"东华大学第一教学楼","lon":"121.21884","lat":"31.0559","category":"52","category_name":"高等院校","address":""},{"poiid":"B2094757D068A2F9489B","title":"台川喜宴(松江店)","lon":"121.21828715","lat":"31.0495023454","category":"91","category_name":"台湾菜","address":"松江区文汇路180号(近松江大学城)"},{"poiid":"B2094757D06FA0FD4699","title":"上海外国语大学日本文化经济学院","lon":"121.22527859","lat":"31.049337791","category":"253","category_name":"校园生活","address":"松江区文翔路1550号上海外国语大学八教楼(日院)"},{"poiid":"B2094757D16FAAFE409A","title":"五木亭拉面馆","lon":"121.230288496","lat":"31.0523786123","category":"95","category_name":"日本料理","address":"松江区梅家浜路1507号(近九号线松江大学城站)"},{"poiid":"B2094655D26FAAFE4499","title":"星辰园(北门)","lon":"121.22983","lat":"31.05194","category":"656","category_name":"大门","address":"梅家浜路1505弄"},{"poiid":"B2094757D06BA1FF439D","title":"文汇路300弄","lon":"121.219296196","lat":"31.0505500982","category":"252","category_name":"楼宇机构","address":"上海文汇路300弄"},{"poiid":"B2094750DB6EABF8499D","title":"星辰园","lon":"121.23","lat":"31.051447","category":"47","category_name":"住宅区","address":"上海市松江区松江区梅家浜路1505弄"},{"poiid":"B2094655D268A1FB4198","title":"三湘情商业街","lon":"121.22981","lat":"31.0543","category":"116","category_name":"特色商业街","address":""},{"poiid":"B2094757D16BA2FC4792","title":"Cafe Dennis丹尼花园","lon":"121.22898429","lat":"31.05440368","category":"500","category_name":"未知分类","address":"上海松江新城区龙马路118弄46号"},{"poiid":"B2094757D16CA0F84998","title":"松江辰山植物园山顶","lon":"121.232345","lat":"31.053298","category":"500","category_name":"未知分类","address":"上海松江"},{"poiid":"B2094751D565A1FC4293","title":"麻里麻里","lon":"121.230762","lat":"31.0504426","category":"71","category_name":"四川菜","address":"松江区梅家浜路1500弄三湘财富广场内"},{"poiid":"B2094655D26FABF84893","title":"三湘四季花城(边门)","lon":"121.22975","lat":"31.05414","category":"47","category_name":"住宅区","address":""},{"poiid":"B2094757D664A1F94392","title":"崇正天然 龙马路店","lon":"121.22676","lat":"31.05484","category":"68","category_name":"快餐厅","address":"松江区龙马路118弄商业街19号(近地铁9号线松江大学城站)"},{"poiid":"B2094655D268A1FB4199","title":"世纪华联(梅家浜路)","lon":"121.22808","lat":"31.05226","category":"117","category_name":"便民商店/便利店","address":"松江区梅家浜路1531号"},{"poiid":"B2094750DB69ABF54293","title":"卡卡国王","lon":"121.230186","lat":"31.052425","category":"94","category_name":"西餐厅","address":"松江区梅家浜路1500弄三湘财富广场内"},{"poiid":"B2094750DB6AA1F5419B","title":"英派斯健身俱乐部","lon":"121.23043","lat":"31.052225","category":"221","category_name":"健身中心","address":"松江区梅家浜路1500弄"},{"poiid":"B2094752D165A3F44399","title":"上海对外经贸大学","lon":"121.228217","lat":"31.051668","category":"500","category_name":"未知分类","address":null},{"poiid":"B2094655D26FAAFD4392","title":"星辰园(边门)","lon":"121.22678","lat":"31.05196","category":"47","category_name":"住宅区","address":""},{"poiid":"B2094750D66BAAFA4092","title":"养园和","lon":"121.232","lat":"31.054","category":"68","category_name":"快餐厅","address":"松江区地铁9号线松江新城地铁站1楼"},{"poiid":"B2094757D66EA3F9419A","title":"大眼包子","lon":"121.232161196","lat":"31.0539741714","category":"247","category_name":"餐饮美食","address":"上海新语大包旁边"},{"poiid":"B2094757D064A1FE4292","title":"松江5路","lon":"121.23281415","lat":"31.052513301","category":"38","category_name":"公交车站","address":"上海松江客运中心——松江永丰站"},{"poiid":"B2094655D26EA7FC4398","title":"美信药房(梅家滨路店)","lon":"121.22535","lat":"31.05389","category":"162","category_name":"医院","address":"松江区松江新城梅家滨路1521号"},{"poiid":"B2094757D66FA2FD439D","title":"上外法学院4114教室","lon":"121.226569796","lat":"31.0524935398","category":"253","category_name":"校园生活","address":"上海文翔路"},{"poiid":"B2094757D06FA5FD419E","title":"上海外国语大学法学院","lon":"121.226377","lat":"31.045086","category":"253","category_name":"校园生活","address":"松江区文翔路1550号上海外国语大学四教楼(法学院)"},{"poiid":"B2094757D068A1FD449F","title":"上海外国语大学师生活动中心","lon":"121.224096","lat":"31.048878","category":"249","category_name":"购物服务","address":"松江区文翔路1550号上海外国语大学内"},{"poiid":"B2094655D26FAAFD439D","title":"三湘四季花城紫薇苑(西门)","lon":"121.22695","lat":"31.05702","category":"47","category_name":"住宅区","address":""},{"poiid":"B2094655D26AA0FA459D","title":"地铁松江大学城站","lon":"121.2328121282244","lat":"31.053876849388867","category":"36","category_name":"地铁站","address":"上海市松江区"},{"poiid":"B2094655D26FABFB479E","title":"开元地中海","lon":"121.226","lat":"31.0447","category":"119","category_name":"商场","address":"上海松江区新松江路925号(人民北路口)"},{"poiid":"B2094654DB6EA2F8449A","title":"上海外国语大学（松江校区）","lon":"121.22192","lat":"31.04948","category":"671","category_name":"高校中心点","address":"上海市松江区文翔路1550号"},{"poiid":"B2094757D06AA0F9409D","title":"上海外国语大学图文信息中心","lon":"121.225394867","lat":"31.0475109834","category":"253","category_name":"校园生活","address":"松江区文翔路1550号上海外国语大学图文信息中心"},{"poiid":"B2094757D06FABFD459F","title":"东华大学(松江校区)","lon":"121.22101","lat":"31.05698","category":"671","category_name":"高校中心点","address":"上海近郊松江区人民北路2999号  "},{"poiid":"B2094655D268A6FD479C","title":"东华大学第二教学楼","lon":"121.2189","lat":"31.0551","category":"52","category_name":"高等院校","address":""},{"poiid":"B2094654DB6EA2F84299","title":"三湘四季花城","lon":"121.23571694306","lat":"31.062261787972","category":"47","category_name":"住宅区","address":"松江广富林路1599弄,梅家浜路1508弄"},{"poiid":"B2094757D064A1FA429D","title":"二期某寝室","lon":"121.220894","lat":"31.050056","category":"249","category_name":"购物服务","address":null},{"poiid":"B2094757D568ABF94192","title":"保利·西子湾","lon":"121.23235704","lat":"31.06264133","category":"47","category_name":"住宅区","address":"松江区广富林路1188弄"},{"poiid":"B2094757D06FA2FA409F","title":"上海外国语大学英语学院","lon":"121.226543","lat":"31.047136","category":"253","category_name":"校园生活","address":"松江区文翔路1550号上海外国语大学五教楼(英院)"},{"poiid":"B2094757D068A1FD4199","title":"Lesvila主题餐厅","lon":"121.2151","lat":"31.0505","category":"94","category_name":"西餐厅","address":"松江区文汇路338弄松江大学城二期142-146号(近外贸学院)"},{"poiid":"B2094757D068A0FE4299","title":"暖纪 Bookie Vookie","lon":"121.221318054","lat":"31.049684793","category":"68","category_name":"快餐厅","address":"松江区文汇路166号16室(近Lesvila餐厅)"},{"poiid":"B2094655D26FAAFA4592","title":"上外小别墅","lon":"121.22942","lat":"31.04522","category":"47","category_name":"住宅区","address":"松江区文翔路1550号上海外国语大学松江校区内(文翔路西林北路)"},{"poiid":"B2094757D569A2F8419D","title":"御上海","lon":"121.23415","lat":"31.049538","category":"47","category_name":"住宅区","address":"上海松江区谷阳北路2399弄"},{"poiid":"B2094655D268A1FB429A","title":"新沙珑国际宾馆","lon":"121.23057","lat":"31.05185","category":"250","category_name":"公园户外","address":"松江区梅家浜路1501号(地铁9号线松江大学城站对面)"},{"poiid":"B2094753D16EA0FD439B","title":"优麦克主题KTV","lon":"121.23027","lat":"31.05259","category":"170","category_name":"KTV","address":"松江区梅家浜路1500弄1号305(大学城地铁站对面)"},{"poiid":"B2094757D06FA0FE4893","title":"上海外国语大学三教楼","lon":"121.223651","lat":"31.0452","category":"253","category_name":"校园生活","address":"松江区文翔路1550号上海外国语大学三教楼(法语,德语,西方语系)"},{"poiid":"B2094752D26DA0FD459B","title":"新石器烤肉(三湘店)","lon":"121.23001","lat":"31.05212","category":"68","category_name":"快餐厅","address":"松江区梅家浜路1500弄三湘财富广场(近9号线松江大学城站)"},{"poiid":"B2094757D06FABFB4798","title":"上海外国语大学教育会堂","lon":"121.22410545","lat":"31.044146872","category":"260","category_name":"其他","address":"上海松江区文翔路1550号"},{"poiid":"B2094757D06FA2FF4498","title":"上海外国语大学二教楼","lon":"121.223657","lat":"31.047221","category":"253","category_name":"校园生活","address":"松江区文翔路1550号上海外国语大学二教楼,(国际工商管理学院,国际金融贸易学院)"},{"poiid":"B2094655D268A0FA4693","title":"沙珑餐店","lon":"121.23085","lat":"31.05185","category":"257","category_name":"中餐厅","address":"梅家浜路1501号"},{"poiid":"B2094757D06FA1FB4192","title":"上海外国语大学一教楼","lon":"121.223258","lat":"31.048041","category":"253","category_name":"校园生活","address":"松江区文翔路1550号上海外国语大学一教楼(国际教育学院,新闻传播学院)"},{"poiid":"B2094757D06FA5FF4093","title":"Hanacafe哈娜咖啡","lon":"121.21937803","lat":"31.049615496","category":"260","category_name":"其他","address":"松江区文汇路166号-17号(近上海外国语大学)"},{"poiid":"B2094655D268A0FA479A","title":"神户亭铁板烧","lon":"121.23086","lat":"31.05185","category":"269","category_name":"烧烤","address":"松江区梅家浜路1501号新沙珑国际宾馆1楼(近松江大学城)"},{"poiid":"B2094655D268A6FD479D","title":"东华大学第一教学楼","lon":"121.21884","lat":"31.0559","category":"52","category_name":"高等院校","address":""},{"poiid":"B2094757D068A2F9489B","title":"台川喜宴(松江店)","lon":"121.21828715","lat":"31.0495023454","category":"91","category_name":"台湾菜","address":"松江区文汇路180号(近松江大学城)"},{"poiid":"B2094757D06FA0FD4699","title":"上海外国语大学日本文化经济学院","lon":"121.22527859","lat":"31.049337791","category":"253","category_name":"校园生活","address":"松江区文翔路1550号上海外国语大学八教楼(日院)"},{"poiid":"B2094757D16FAAFE409A","title":"五木亭拉面馆","lon":"121.230288496","lat":"31.0523786123","category":"95","category_name":"日本料理","address":"松江区梅家浜路1507号(近九号线松江大学城站)"},{"poiid":"B2094655D26FAAFE4499","title":"星辰园(北门)","lon":"121.22983","lat":"31.05194","category":"656","category_name":"大门","address":"梅家浜路1505弄"},{"poiid":"B2094757D06BA1FF439D","title":"文汇路300弄","lon":"121.219296196","lat":"31.0505500982","category":"252","category_name":"楼宇机构","address":"上海文汇路300弄"},{"poiid":"B2094750DB6EABF8499D","title":"星辰园","lon":"121.23","lat":"31.051447","category":"47","category_name":"住宅区","address":"上海市松江区松江区梅家浜路1505弄"},{"poiid":"B2094655D268A1FB4198","title":"三湘情商业街","lon":"121.22981","lat":"31.0543","category":"116","category_name":"特色商业街","address":""},{"poiid":"B2094757D16BA2FC4792","title":"Cafe Dennis丹尼花园","lon":"121.22898429","lat":"31.05440368","category":"500","category_name":"未知分类","address":"上海松江新城区龙马路118弄46号"},{"poiid":"B2094757D16CA0F84998","title":"松江辰山植物园山顶","lon":"121.232345","lat":"31.053298","category":"500","category_name":"未知分类","address":"上海松江"},{"poiid":"B2094751D565A1FC4293","title":"麻里麻里","lon":"121.230762","lat":"31.0504426","category":"71","category_name":"四川菜","address":"松江区梅家浜路1500弄三湘财富广场内"},{"poiid":"B2094655D26FABF84893","title":"三湘四季花城(边门)","lon":"121.22975","lat":"31.05414","category":"47","category_name":"住宅区","address":""},{"poiid":"B2094757D664A1F94392","title":"崇正天然 龙马路店","lon":"121.22676","lat":"31.05484","category":"68","category_name":"快餐厅","address":"松江区龙马路118弄商业街19号(近地铁9号线松江大学城站)"},{"poiid":"B2094655D268A1FB4199","title":"世纪华联(梅家浜路)","lon":"121.22808","lat":"31.05226","category":"117","category_name":"便民商店/便利店","address":"松江区梅家浜路1531号"},{"poiid":"B2094750DB69ABF54293","title":"卡卡国王","lon":"121.230186","lat":"31.052425","category":"94","category_name":"西餐厅","address":"松江区梅家浜路1500弄三湘财富广场内"},{"poiid":"B2094750DB6AA1F5419B","title":"英派斯健身俱乐部","lon":"121.23043","lat":"31.052225","category":"221","category_name":"健身中心","address":"松江区梅家浜路1500弄"},{"poiid":"B2094752D165A3F44399","title":"上海对外经贸大学","lon":"121.228217","lat":"31.051668","category":"500","category_name":"未知分类","address":null},{"poiid":"B2094655D26FAAFD4392","title":"星辰园(边门)","lon":"121.22678","lat":"31.05196","category":"47","category_name":"住宅区","address":""},{"poiid":"B2094750D66BAAFA4092","title":"养园和","lon":"121.232","lat":"31.054","category":"68","category_name":"快餐厅","address":"松江区地铁9号线松江新城地铁站1楼"},{"poiid":"B2094757D66EA3F9419A","title":"大眼包子","lon":"121.232161196","lat":"31.0539741714","category":"247","category_name":"餐饮美食","address":"上海新语大包旁边"},{"poiid":"B2094757D064A1FE4292","title":"松江5路","lon":"121.23281415","lat":"31.052513301","category":"38","category_name":"公交车站","address":"上海松江客运中心——松江永丰站"},{"poiid":"B2094655D26EA7FC4398","title":"美信药房(梅家滨路店)","lon":"121.22535","lat":"31.05389","category":"162","category_name":"医院","address":"松江区松江新城梅家滨路1521号"},{"poiid":"B2094757D66FA2FD439D","title":"上外法学院4114教室","lon":"121.226569796","lat":"31.0524935398","category":"253","category_name":"校园生活","address":"上海文翔路"},{"poiid":"B2094757D06FA5FD419E","title":"上海外国语大学法学院","lon":"121.226377","lat":"31.045086","category":"253","category_name":"校园生活","address":"松江区文翔路1550号上海外国语大学四教楼(法学院)"},{"poiid":"B2094757D068A1FD449F","title":"上海外国语大学师生活动中心","lon":"121.224096","lat":"31.048878","category":"249","category_name":"购物服务","address":"松江区文翔路1550号上海外国语大学内"},{"poiid":"B2094655D26FAAFD439D","title":"三湘四季花城紫薇苑(西门)","lon":"121.22695","lat":"31.05702","category":"47","category_name":"住宅区","address":""}]