[{"poiid":"B2094757D06FA3F9419A","title":"上海会馆","lon":"121.492239138","lat":"31.2239696667","category":"76","category_name":"上海菜","address":"黄浦区河南南路489号香港名都5楼(近复兴东路)"},{"poiid":"B2094757D06FA6F5469A","title":"鼎泰丰(豫园店)","lon":"121.492692816","lat":"31.2247337512","category":"68","category_name":"快餐厅","address":"黄浦区方浜中路168号豫城时尚内(近三牌楼路)"},{"poiid":"B2094757D06FA1FD4093","title":"健康煮(豫城店)","lon":"121.49303673","lat":"31.224846185","category":"86","category_name":"火锅店","address":"黄浦区方浜中路168号豫城时尚3楼(近三牌楼路)"},{"poiid":"B2094753D76FAAFA449C","title":"上海滩国泰旗舰店","lon":"121.466011","lat":"31.216125","category":"249","category_name":"购物服务","address":"淮海中路868号"},{"poiid":"B209475CD564A7F84292","title":"上海滩新天地店","lon":"121.47463","lat":"31.22164","category":"119","category_name":"商场","address":"\"太仓路181弄新天地北里15号\r\n\""},{"poiid":"B209475CD564A7F84392","title":"上海滩浦东香格里拉店","lon":"121.50058","lat":"31.23634","category":"119","category_name":"商场","address":"浦东富成路33号香格里拉酒店内大堂层"},{"poiid":"B2094757D06FA1FF4693","title":"避风塘(豫园店)","lon":"121.492699","lat":"31.22484","category":"72","category_name":"广东菜","address":"黄浦区方浜中路168号豫城时尚3楼L3-01-02号商铺(近三牌楼路)"},{"poiid":"B2094757D568A6FF4598","title":"山海亭(复兴东路)","lon":"121.49009928","lat":"31.22246962","category":"268","category_name":"自助","address":"黄浦区河南南路489号香港名都4楼(近复兴东路)"},{"poiid":"B2094757D06FABFD409A","title":"上海老街","lon":"121.49305","lat":"31.22534","category":"249","category_name":"购物服务","address":"黄浦区方浜中路"},{"poiid":"B2094757D568A0FF469D","title":"M2香港名都","lon":"121.4895353","lat":"31.22338949","category":"119","category_name":"商场","address":"河南南路489号"},{"poiid":"B2094757D06FA1F54199","title":"豫城时尚","lon":"121.4927","lat":"31.22486","category":"119","category_name":"商场","address":"黄浦区方浜中路168号豫龙坊内(近昼锦路)"},{"poiid":"B2094757D06FA4FC409A","title":"德克士(城隍庙店)","lon":"121.49132","lat":"31.22559","category":"68","category_name":"快餐厅","address":"黄浦区旧校场路125号121室(百翎路口)"},{"poiid":"B2094655D36CA7F94599","title":"河南南路复兴东路","lon":"121.48953","lat":"31.22242","category":"38","category_name":"公交车站","address":""},{"poiid":"B2094757D464A4FE469F","title":"燕太太燕窝 香港名都店","lon":"121.49009","lat":"31.22246","category":"67","category_name":"甜品店","address":"黄浦区河南南路489号香港名都1楼L125室(近复兴东路)"},{"poiid":"B2094750DA6AA7FC489A","title":"COSTA COFFEE(豫城时尚店)","lon":"121.492561","lat":"31.225528","category":"65","category_name":"咖啡厅","address":"黄浦区昼锦路63号一层"},{"poiid":"B2094757D068A5FB459D","title":"憨豆咖啡","lon":"121.48986773","lat":"31.22226513","category":"260","category_name":"其他","address":"黄浦区河南南路489号香港名都1楼(近复兴东路)"},{"poiid":"B2094655D36CA6FF4299","title":"复兴东路光启路","lon":"121.49307","lat":"31.22185","category":"38","category_name":"公交车站","address":""},{"poiid":"B2094757D068A6FD449F","title":"味千拉面(豫龙坊店)","lon":"121.49305373","lat":"31.224894186","category":"95","category_name":"日本料理","address":"黄浦区方浜中路168号豫城时尚B1-17B室(近三牌楼路)"},{"poiid":"B2094757D068ABF4459F","title":"耕月人茶馆","lon":"121.4933","lat":"31.22533","category":"260","category_name":"其他","address":"上海黄浦区方浜中路235号豫安阁4楼(近安仁街)"},{"poiid":"B2094757D764A5F94099","title":"拿渡麻辣香锅 方浜中路店","lon":"121.492599","lat":"31.225421","category":"86","category_name":"火锅店","address":"黄浦区方浜中路168号豫城时尚3楼(近三牌楼路)"},{"poiid":"B2094757DA65A5F4419E","title":"如家快捷酒店（上海外滩城隍庙店）","lon":"121.490711","lat":"31.222069","category":"216","category_name":"经济型连锁酒店","address":"上海市黄浦区复兴东路699号(近河南南路)"},{"poiid":"B2094757D16CA6F9459E","title":"徐家私房菜(城隍庙店)","lon":"121.49298238","lat":"31.22507574","category":"74","category_name":"江苏菜","address":"黄浦区方浜中路168号豫城时尚3楼(近三牌楼路)"},{"poiid":"B2094757D064A3FF489B","title":"傣妹(豫园店)","lon":"121.49268","lat":"31.22336","category":"86","category_name":"火锅店","address":"黄浦区三牌楼路11号"},{"poiid":"B2094750DA68A6F54893","title":"道顺射箭馆(黄浦)","lon":"121.4915","lat":"31.222013","category":"248","category_name":"生活娱乐","address":"黄浦区复兴东路699号3楼(近河南南路)"},{"poiid":"B2094751D36AA5F8489E","title":"丰收日幸福家宴","lon":"121.49009","lat":"31.22246","category":"76","category_name":"上海菜","address":"黄浦区河南南路489号香港名都广场4楼(近复兴东路)"},{"poiid":"B2094654DA6EABFA4298","title":"复地雅园","lon":"121.49072","lat":"31.222973","category":"47","category_name":"住宅区","address":"上海市黄浦区昼锦路180弄8,9号"},{"poiid":"B2094757D169A7FE4193","title":"城隍庙三牌楼路","lon":"121.49249267","lat":"31.2236557","category":"500","category_name":"未知分类","address":"上海城隍庙傣妹"},{"poiid":"B2094654DA6EA4FE4593","title":"麦当劳(旧校场路)","lon":"121.49118","lat":"31.22537","category":"68","category_name":"快餐厅","address":"黄浦区旧校场路155号(近方浜中路)"},{"poiid":"B2094752D769A0F44593","title":"城隍庙","lon":"121.492118","lat":"31.220313","category":"500","category_name":"未知分类","address":"上海市城隍庙"},{"poiid":"B2094757D16BAAF8429C","title":"永惠大厦","lon":"121.49333898869","lat":"31.222608612505","category":"252","category_name":"楼宇机构","address":"上海市黄浦区西藏南路775-779号"},{"poiid":"B2094757D068A0FE4493","title":"豫园时尚街","lon":"121.4915","lat":"31.22508","category":"249","category_name":"购物服务","address":"黄浦区文昌路10号城隍庙内(近方浜中路)"},{"poiid":"B2094655D26FA5FF419F","title":"复兴小区","lon":"121.49194","lat":"31.222656","category":"47","category_name":"住宅区","address":"复兴东路663弄1-7号"},{"poiid":"B2094757D168A1FF409D","title":"克莉丝汀(复兴东路店)","lon":"121.49251","lat":"31.22188","category":"112","category_name":"糕饼店","address":"黄浦区复兴东路643号(近三牌楼路)"},{"poiid":"B2094654DA6EABFA439B","title":"光明乳业配送中心","lon":"121.49222","lat":"31.22238","category":"117","category_name":"便民商店/便利店","address":""},{"poiid":"B2094654DB6BA4FA469F","title":"快客(复兴小区东南)","lon":"121.49222","lat":"31.22241","category":"117","category_name":"便民商店/便利店","address":"三牌楼路124"},{"poiid":"B2094751D36BA7FE4292","title":"陆家浜路9号线","lon":"121.49142","lat":"31.223689","category":"500","category_name":"未知分类","address":null},{"poiid":"B2094757D06FABFA419F","title":"复兴东路河南南路车站","lon":"121.49232423","lat":"31.222628338","category":"500","category_name":"未知分类","address":"上海黄浦区复兴东路河南南路，66路，980路，方川线，929路，969路，306路车站"},{"poiid":"B2094757D065A4FF449D","title":"韩林炭烤 香港名都店","lon":"121.48988","lat":"31.22201","category":"96","category_name":"韩国料理","address":"黄浦区河南南路495-519号香港名都商场L4楼02(复兴东路河南南路)"},{"poiid":"B2094654DA6EABFA4398","title":"新华书店(三牌楼路)","lon":"121.49223","lat":"31.22244","category":"125","category_name":"书店","address":"三牌楼路120-122号"},{"poiid":"B2094757D66AA0FE479D","title":"吉阳酒楼","lon":"121.492423054","lat":"31.224322793","category":"76","category_name":"上海菜","address":"黄浦区城隍庙三牌楼75号(近光明中学)"},{"poiid":"B2094757D664A2FC4993","title":"六千馆","lon":"121.48975","lat":"31.22226","category":"76","category_name":"上海菜","address":"黄浦区河南南路489号香港名都5楼(近复兴东路)"},{"poiid":"B2094655D36CA6FF429F","title":"复兴东路豫园","lon":"121.49288","lat":"31.22187","category":"38","category_name":"公交车站","address":""},{"poiid":"B2094751DA6BA2F94899","title":"COSTA","lon":"121.49231","lat":"31.22376","category":"260","category_name":"其他","address":"黄浦区三牌楼路豫城时尚(城隍庙)"},{"poiid":"B2094654DA6EABFA449E","title":"阿大家常菜","lon":"121.492458054","lat":"31.224165793","category":"257","category_name":"中餐厅","address":"三牌楼路24号1-2楼近学院路"},{"poiid":"B2094750D568A2FB419E","title":"棒约翰比萨(方浜中路店)","lon":"121.492","lat":"31.2252","category":"94","category_name":"西餐厅","address":"黄浦区方浜中路280号金豫名品折扣中心(方浜中路旧校场路)"},{"poiid":"B2094654DA6EABFA429D","title":"复兴小区(南门)","lon":"121.49179","lat":"31.22218","category":"47","category_name":"住宅区","address":"复兴东路663弄1-7号"},{"poiid":"B2094655D268A7FE4998","title":"阿大碗面","lon":"121.49243","lat":"31.22375","category":"257","category_name":"中餐厅","address":"黄浦区国货路236号旁(近普育东路)"},{"poiid":"B2094655D26CA4FB4198","title":"三牌楼路61弄7-13号小区","lon":"121.49241","lat":"31.22357","category":"47","category_name":"住宅区","address":"三牌楼路61弄7-13号"},{"poiid":"B2094654DA6EA0FB479B","title":"锦南商厦","lon":"121.493","lat":"31.2237","category":"46","category_name":"楼宇","address":"梦花街234号"},{"poiid":"B2094757DB6DA6F5499E","title":"上海宜必思豫园外滩店","lon":"121.491993","lat":"31.22467","category":"215","category_name":"三星级宾馆","address":"黄浦区昼锦路85号(近金豫名品商厦)"},{"poiid":"B2094757D06FA3F9419A","title":"上海会馆","lon":"121.492239138","lat":"31.2239696667","category":"76","category_name":"上海菜","address":"黄浦区河南南路489号香港名都5楼(近复兴东路)"},{"poiid":"B2094757D06FA6F5469A","title":"鼎泰丰(豫园店)","lon":"121.492692816","lat":"31.2247337512","category":"68","category_name":"快餐厅","address":"黄浦区方浜中路168号豫城时尚内(近三牌楼路)"},{"poiid":"B2094757D06FA1FD4093","title":"健康煮(豫城店)","lon":"121.49303673","lat":"31.224846185","category":"86","category_name":"火锅店","address":"黄浦区方浜中路168号豫城时尚3楼(近三牌楼路)"},{"poiid":"B2094753D76FAAFA449C","title":"上海滩国泰旗舰店","lon":"121.466011","lat":"31.216125","category":"249","category_name":"购物服务","address":"淮海中路868号"},{"poiid":"B209475CD564A7F84292","title":"上海滩新天地店","lon":"121.47463","lat":"31.22164","category":"119","category_name":"商场","address":"\"太仓路181弄新天地北里15号\r\n\""},{"poiid":"B209475CD564A7F84392","title":"上海滩浦东香格里拉店","lon":"121.50058","lat":"31.23634","category":"119","category_name":"商场","address":"浦东富成路33号香格里拉酒店内大堂层"},{"poiid":"B2094757D06FA1FF4693","title":"避风塘(豫园店)","lon":"121.492699","lat":"31.22484","category":"72","category_name":"广东菜","address":"黄浦区方浜中路168号豫城时尚3楼L3-01-02号商铺(近三牌楼路)"},{"poiid":"B2094757D568A6FF4598","title":"山海亭(复兴东路)","lon":"121.49009928","lat":"31.22246962","category":"268","category_name":"自助","address":"黄浦区河南南路489号香港名都4楼(近复兴东路)"},{"poiid":"B2094757D06FABFD409A","title":"上海老街","lon":"121.49305","lat":"31.22534","category":"249","category_name":"购物服务","address":"黄浦区方浜中路"},{"poiid":"B2094757D568A0FF469D","title":"M2香港名都","lon":"121.4895353","lat":"31.22338949","category":"119","category_name":"商场","address":"河南南路489号"},{"poiid":"B2094757D06FA1F54199","title":"豫城时尚","lon":"121.4927","lat":"31.22486","category":"119","category_name":"商场","address":"黄浦区方浜中路168号豫龙坊内(近昼锦路)"},{"poiid":"B2094757D06FA4FC409A","title":"德克士(城隍庙店)","lon":"121.49132","lat":"31.22559","category":"68","category_name":"快餐厅","address":"黄浦区旧校场路125号121室(百翎路口)"},{"poiid":"B2094655D36CA7F94599","title":"河南南路复兴东路","lon":"121.48953","lat":"31.22242","category":"38","category_name":"公交车站","address":""},{"poiid":"B2094757D464A4FE469F","title":"燕太太燕窝 香港名都店","lon":"121.49009","lat":"31.22246","category":"67","category_name":"甜品店","address":"黄浦区河南南路489号香港名都1楼L125室(近复兴东路)"},{"poiid":"B2094750DA6AA7FC489A","title":"COSTA COFFEE(豫城时尚店)","lon":"121.492561","lat":"31.225528","category":"65","category_name":"咖啡厅","address":"黄浦区昼锦路63号一层"},{"poiid":"B2094757D068A5FB459D","title":"憨豆咖啡","lon":"121.48986773","lat":"31.22226513","category":"260","category_name":"其他","address":"黄浦区河南南路489号香港名都1楼(近复兴东路)"},{"poiid":"B2094655D36CA6FF4299","title":"复兴东路光启路","lon":"121.49307","lat":"31.22185","category":"38","category_name":"公交车站","address":""},{"poiid":"B2094757D068A6FD449F","title":"味千拉面(豫龙坊店)","lon":"121.49305373","lat":"31.224894186","category":"95","category_name":"日本料理","address":"黄浦区方浜中路168号豫城时尚B1-17B室(近三牌楼路)"},{"poiid":"B2094757D068ABF4459F","title":"耕月人茶馆","lon":"121.4933","lat":"31.22533","category":"260","category_name":"其他","address":"上海黄浦区方浜中路235号豫安阁4楼(近安仁街)"},{"poiid":"B2094757D764A5F94099","title":"拿渡麻辣香锅 方浜中路店","lon":"121.492599","lat":"31.225421","category":"86","category_name":"火锅店","address":"黄浦区方浜中路168号豫城时尚3楼(近三牌楼路)"},{"poiid":"B2094757DA65A5F4419E","title":"如家快捷酒店（上海外滩城隍庙店）","lon":"121.490711","lat":"31.222069","category":"216","category_name":"经济型连锁酒店","address":"上海市黄浦区复兴东路699号(近河南南路)"},{"poiid":"B2094757D16CA6F9459E","title":"徐家私房菜(城隍庙店)","lon":"121.49298238","lat":"31.22507574","category":"74","category_name":"江苏菜","address":"黄浦区方浜中路168号豫城时尚3楼(近三牌楼路)"},{"poiid":"B2094757D064A3FF489B","title":"傣妹(豫园店)","lon":"121.49268","lat":"31.22336","category":"86","category_name":"火锅店","address":"黄浦区三牌楼路11号"},{"poiid":"B2094750DA68A6F54893","title":"道顺射箭馆(黄浦)","lon":"121.4915","lat":"31.222013","category":"248","category_name":"生活娱乐","address":"黄浦区复兴东路699号3楼(近河南南路)"},{"poiid":"B2094751D36AA5F8489E","title":"丰收日幸福家宴","lon":"121.49009","lat":"31.22246","category":"76","category_name":"上海菜","address":"黄浦区河南南路489号香港名都广场4楼(近复兴东路)"},{"poiid":"B2094654DA6EABFA4298","title":"复地雅园","lon":"121.49072","lat":"31.222973","category":"47","category_name":"住宅区","address":"上海市黄浦区昼锦路180弄8,9号"},{"poiid":"B2094757D169A7FE4193","title":"城隍庙三牌楼路","lon":"121.49249267","lat":"31.2236557","category":"500","category_name":"未知分类","address":"上海城隍庙傣妹"},{"poiid":"B2094654DA6EA4FE4593","title":"麦当劳(旧校场路)","lon":"121.49118","lat":"31.22537","category":"68","category_name":"快餐厅","address":"黄浦区旧校场路155号(近方浜中路)"},{"poiid":"B2094752D769A0F44593","title":"城隍庙","lon":"121.492118","lat":"31.220313","category":"500","category_name":"未知分类","address":"上海市城隍庙"},{"poiid":"B2094757D16BAAF8429C","title":"永惠大厦","lon":"121.49333898869","lat":"31.222608612505","category":"252","category_name":"楼宇机构","address":"上海市黄浦区西藏南路775-779号"},{"poiid":"B2094757D068A0FE4493","title":"豫园时尚街","lon":"121.4915","lat":"31.22508","category":"249","category_name":"购物服务","address":"黄浦区文昌路10号城隍庙内(近方浜中路)"},{"poiid":"B2094655D26FA5FF419F","title":"复兴小区","lon":"121.49194","lat":"31.222656","category":"47","category_name":"住宅区","address":"复兴东路663弄1-7号"},{"poiid":"B2094757D168A1FF409D","title":"克莉丝汀(复兴东路店)","lon":"121.49251","lat":"31.22188","category":"112","category_name":"糕饼店","address":"黄浦区复兴东路643号(近三牌楼路)"},{"poiid":"B2094654DA6EABFA439B","title":"光明乳业配送中心","lon":"121.49222","lat":"31.22238","category":"117","category_name":"便民商店/便利店","address":""},{"poiid":"B2094654DB6BA4FA469F","title":"快客(复兴小区东南)","lon":"121.49222","lat":"31.22241","category":"117","category_name":"便民商店/便利店","address":"三牌楼路124"},{"poiid":"B2094751D36BA7FE4292","title":"陆家浜路9号线","lon":"121.49142","lat":"31.223689","category":"500","category_name":"未知分类","address":null},{"poiid":"B2094757D06FABFA419F","title":"复兴东路河南南路车站","lon":"121.49232423","lat":"31.222628338","category":"500","category_name":"未知分类","address":"上海黄浦区复兴东路河南南路，66路，980路，方川线，929路，969路，306路车站"},{"poiid":"B2094757D065A4FF449D","title":"韩林炭烤 香港名都店","lon":"121.48988","lat":"31.22201","category":"96","category_name":"韩国料理","address":"黄浦区河南南路495-519号香港名都商场L4楼02(复兴东路河南南路)"},{"poiid":"B2094654DA6EABFA4398","title":"新华书店(三牌楼路)","lon":"121.49223","lat":"31.22244","category":"125","category_name":"书店","address":"三牌楼路120-122号"},{"poiid":"B2094757D66AA0FE479D","title":"吉阳酒楼","lon":"121.492423054","lat":"31.224322793","category":"76","category_name":"上海菜","address":"黄浦区城隍庙三牌楼75号(近光明中学)"},{"poiid":"B2094757D664A2FC4993","title":"六千馆","lon":"121.48975","lat":"31.22226","category":"76","category_name":"上海菜","address":"黄浦区河南南路489号香港名都5楼(近复兴东路)"},{"poiid":"B2094655D36CA6FF429F","title":"复兴东路豫园","lon":"121.49288","lat":"31.22187","category":"38","category_name":"公交车站","address":""},{"poiid":"B2094751DA6BA2F94899","title":"COSTA","lon":"121.49231","lat":"31.22376","category":"260","category_name":"其他","address":"黄浦区三牌楼路豫城时尚(城隍庙)"},{"poiid":"B2094654DA6EABFA449E","title":"阿大家常菜","lon":"121.492458054","lat":"31.224165793","category":"257","category_name":"中餐厅","address":"三牌楼路24号1-2楼近学院路"},{"poiid":"B2094750D568A2FB419E","title":"棒约翰比萨(方浜中路店)","lon":"121.492","lat":"31.2252","category":"94","category_name":"西餐厅","address":"黄浦区方浜中路280号金豫名品折扣中心(方浜中路旧校场路)"},{"poiid":"B2094654DA6EABFA429D","title":"复兴小区(南门)","lon":"121.49179","lat":"31.22218","category":"47","category_name":"住宅区","address":"复兴东路663弄1-7号"},{"poiid":"B2094655D268A7FE4998","title":"阿大碗面","lon":"121.49243","lat":"31.22375","category":"257","category_name":"中餐厅","address":"黄浦区国货路236号旁(近普育东路)"},{"poiid":"B2094655D26CA4FB4198","title":"三牌楼路61弄7-13号小区","lon":"121.49241","lat":"31.22357","category":"47","category_name":"住宅区","address":"三牌楼路61弄7-13号"},{"poiid":"B2094654DA6EA0FB479B","title":"锦南商厦","lon":"121.493","lat":"31.2237","category":"46","category_name":"楼宇","address":"梦花街234号"},{"poiid":"B2094757DB6DA6F5499E","title":"上海宜必思豫园外滩店","lon":"121.491993","lat":"31.22467","category":"215","category_name":"三星级宾馆","address":"黄浦区昼锦路85号(近金豫名品商厦)"},{"poiid":"B2094757D06FA3F9419A","title":"上海会馆","lon":"121.492239138","lat":"31.2239696667","category":"76","category_name":"上海菜","address":"黄浦区河南南路489号香港名都5楼(近复兴东路)"},{"poiid":"B2094757D06FA6F5469A","title":"鼎泰丰(豫园店)","lon":"121.492692816","lat":"31.2247337512","category":"68","category_name":"快餐厅","address":"黄浦区方浜中路168号豫城时尚内(近三牌楼路)"},{"poiid":"B2094757D06FA1FD4093","title":"健康煮(豫城店)","lon":"121.49303673","lat":"31.224846185","category":"86","category_name":"火锅店","address":"黄浦区方浜中路168号豫城时尚3楼(近三牌楼路)"},{"poiid":"B2094753D76FAAFA449C","title":"上海滩国泰旗舰店","lon":"121.466011","lat":"31.216125","category":"249","category_name":"购物服务","address":"淮海中路868号"},{"poiid":"B209475CD564A7F84292","title":"上海滩新天地店","lon":"121.47463","lat":"31.22164","category":"119","category_name":"商场","address":"\"太仓路181弄新天地北里15号\r\n\""},{"poiid":"B209475CD564A7F84392","title":"上海滩浦东香格里拉店","lon":"121.50058","lat":"31.23634","category":"119","category_name":"商场","address":"浦东富成路33号香格里拉酒店内大堂层"},{"poiid":"B2094757D06FA1FF4693","title":"避风塘(豫园店)","lon":"121.492699","lat":"31.22484","category":"72","category_name":"广东菜","address":"黄浦区方浜中路168号豫城时尚3楼L3-01-02号商铺(近三牌楼路)"},{"poiid":"B2094757D568A6FF4598","title":"山海亭(复兴东路)","lon":"121.49009928","lat":"31.22246962","category":"268","category_name":"自助","address":"黄浦区河南南路489号香港名都4楼(近复兴东路)"},{"poiid":"B2094757D06FABFD409A","title":"上海老街","lon":"121.49305","lat":"31.22534","category":"249","category_name":"购物服务","address":"黄浦区方浜中路"},{"poiid":"B2094757D568A0FF469D","title":"M2香港名都","lon":"121.4895353","lat":"31.22338949","category":"119","category_name":"商场","address":"河南南路489号"},{"poiid":"B2094757D06FA1F54199","title":"豫城时尚","lon":"121.4927","lat":"31.22486","category":"119","category_name":"商场","address":"黄浦区方浜中路168号豫龙坊内(近昼锦路)"},{"poiid":"B2094757D06FA4FC409A","title":"德克士(城隍庙店)","lon":"121.49132","lat":"31.22559","category":"68","category_name":"快餐厅","address":"黄浦区旧校场路125号121室(百翎路口)"},{"poiid":"B2094655D36CA7F94599","title":"河南南路复兴东路","lon":"121.48953","lat":"31.22242","category":"38","category_name":"公交车站","address":""},{"poiid":"B2094757D464A4FE469F","title":"燕太太燕窝 香港名都店","lon":"121.49009","lat":"31.22246","category":"67","category_name":"甜品店","address":"黄浦区河南南路489号香港名都1楼L125室(近复兴东路)"},{"poiid":"B2094750DA6AA7FC489A","title":"COSTA COFFEE(豫城时尚店)","lon":"121.492561","lat":"31.225528","category":"65","category_name":"咖啡厅","address":"黄浦区昼锦路63号一层"},{"poiid":"B2094757D068A5FB459D","title":"憨豆咖啡","lon":"121.48986773","lat":"31.22226513","category":"260","category_name":"其他","address":"黄浦区河南南路489号香港名都1楼(近复兴东路)"},{"poiid":"B2094655D36CA6FF4299","title":"复兴东路光启路","lon":"121.49307","lat":"31.22185","category":"38","category_name":"公交车站","address":""},{"poiid":"B2094757D068A6FD449F","title":"味千拉面(豫龙坊店)","lon":"121.49305373","lat":"31.224894186","category":"95","category_name":"日本料理","address":"黄浦区方浜中路168号豫城时尚B1-17B室(近三牌楼路)"},{"poiid":"B2094757D068ABF4459F","title":"耕月人茶馆","lon":"121.4933","lat":"31.22533","category":"260","category_name":"其他","address":"上海黄浦区方浜中路235号豫安阁4楼(近安仁街)"},{"poiid":"B2094757D764A5F94099","title":"拿渡麻辣香锅 方浜中路店","lon":"121.492599","lat":"31.225421","category":"86","category_name":"火锅店","address":"黄浦区方浜中路168号豫城时尚3楼(近三牌楼路)"},{"poiid":"B2094757DA65A5F4419E","title":"如家快捷酒店（上海外滩城隍庙店）","lon":"121.490711","lat":"31.222069","category":"216","category_name":"经济型连锁酒店","address":"上海市黄浦区复兴东路699号(近河南南路)"},{"poiid":"B2094757D16CA6F9459E","title":"徐家私房菜(城隍庙店)","lon":"121.49298238","lat":"31.22507574","category":"74","category_name":"江苏菜","address":"黄浦区方浜中路168号豫城时尚3楼(近三牌楼路)"},{"poiid":"B2094757D064A3FF489B","title":"傣妹(豫园店)","lon":"121.49268","lat":"31.22336","category":"86","category_name":"火锅店","address":"黄浦区三牌楼路11号"},{"poiid":"B2094750DA68A6F54893","title":"道顺射箭馆(黄浦)","lon":"121.4915","lat":"31.222013","category":"248","category_name":"生活娱乐","address":"黄浦区复兴东路699号3楼(近河南南路)"},{"poiid":"B2094751D36AA5F8489E","title":"丰收日幸福家宴","lon":"121.49009","lat":"31.22246","category":"76","category_name":"上海菜","address":"黄浦区河南南路489号香港名都广场4楼(近复兴东路)"},{"poiid":"B2094654DA6EABFA4298","title":"复地雅园","lon":"121.49072","lat":"31.222973","category":"47","category_name":"住宅区","address":"上海市黄浦区昼锦路180弄8,9号"},{"poiid":"B2094757D169A7FE4193","title":"城隍庙三牌楼路","lon":"121.49249267","lat":"31.2236557","category":"500","category_name":"未知分类","address":"上海城隍庙傣妹"},{"poiid":"B2094654DA6EA4FE4593","title":"麦当劳(旧校场路)","lon":"121.49118","lat":"31.22537","category":"68","category_name":"快餐厅","address":"黄浦区旧校场路155号(近方浜中路)"},{"poiid":"B2094752D769A0F44593","title":"城隍庙","lon":"121.492118","lat":"31.220313","category":"500","category_name":"未知分类","address":"上海市城隍庙"},{"poiid":"B2094757D16BAAF8429C","title":"永惠大厦","lon":"121.49333898869","lat":"31.222608612505","category":"252","category_name":"楼宇机构","address":"上海市黄浦区西藏南路775-779号"},{"poiid":"B2094757D068A0FE4493","title":"豫园时尚街","lon":"121.4915","lat":"31.22508","category":"249","category_name":"购物服务","address":"黄浦区文昌路10号城隍庙内(近方浜中路)"},{"poiid":"B2094655D26FA5FF419F","title":"复兴小区","lon":"121.49194","lat":"31.222656","category":"47","category_name":"住宅区","address":"复兴东路663弄1-7号"},{"poiid":"B2094757D168A1FF409D","title":"克莉丝汀(复兴东路店)","lon":"121.49251","lat":"31.22188","category":"112","category_name":"糕饼店","address":"黄浦区复兴东路643号(近三牌楼路)"},{"poiid":"B2094654DA6EABFA439B","title":"光明乳业配送中心","lon":"121.49222","lat":"31.22238","category":"117","category_name":"便民商店/便利店","address":""},{"poiid":"B2094654DB6BA4FA469F","title":"快客(复兴小区东南)","lon":"121.49222","lat":"31.22241","category":"117","category_name":"便民商店/便利店","address":"三牌楼路124"},{"poiid":"B2094751D36BA7FE4292","title":"陆家浜路9号线","lon":"121.49142","lat":"31.223689","category":"500","category_name":"未知分类","address":null},{"poiid":"B2094757D06FABFA419F","title":"复兴东路河南南路车站","lon":"121.49232423","lat":"31.222628338","category":"500","category_name":"未知分类","address":"上海黄浦区复兴东路河南南路，66路，980路，方川线，929路，969路，306路车站"},{"poiid":"B2094757D065A4FF449D","title":"韩林炭烤 香港名都店","lon":"121.48988","lat":"31.22201","category":"96","category_name":"韩国料理","address":"黄浦区河南南路495-519号香港名都商场L4楼02(复兴东路河南南路)"},{"poiid":"B2094654DA6EABFA4398","title":"新华书店(三牌楼路)","lon":"121.49223","lat":"31.22244","category":"125","category_name":"书店","address":"三牌楼路120-122号"},{"poiid":"B2094757D66AA0FE479D","title":"吉阳酒楼","lon":"121.492423054","lat":"31.224322793","category":"76","category_name":"上海菜","address":"黄浦区城隍庙三牌楼75号(近光明中学)"},{"poiid":"B2094757D664A2FC4993","title":"六千馆","lon":"121.48975","lat":"31.22226","category":"76","category_name":"上海菜","address":"黄浦区河南南路489号香港名都5楼(近复兴东路)"},{"poiid":"B2094655D36CA6FF429F","title":"复兴东路豫园","lon":"121.49288","lat":"31.22187","category":"38","category_name":"公交车站","address":""},{"poiid":"B2094751DA6BA2F94899","title":"COSTA","lon":"121.49231","lat":"31.22376","category":"260","category_name":"其他","address":"黄浦区三牌楼路豫城时尚(城隍庙)"},{"poiid":"B2094654DA6EABFA449E","title":"阿大家常菜","lon":"121.492458054","lat":"31.224165793","category":"257","category_name":"中餐厅","address":"三牌楼路24号1-2楼近学院路"},{"poiid":"B2094750D568A2FB419E","title":"棒约翰比萨(方浜中路店)","lon":"121.492","lat":"31.2252","category":"94","category_name":"西餐厅","address":"黄浦区方浜中路280号金豫名品折扣中心(方浜中路旧校场路)"},{"poiid":"B2094654DA6EABFA429D","title":"复兴小区(南门)","lon":"121.49179","lat":"31.22218","category":"47","category_name":"住宅区","address":"复兴东路663弄1-7号"},{"poiid":"B2094655D268A7FE4998","title":"阿大碗面","lon":"121.49243","lat":"31.22375","category":"257","category_name":"中餐厅","address":"黄浦区国货路236号旁(近普育东路)"},{"poiid":"B2094655D26CA4FB4198","title":"三牌楼路61弄7-13号小区","lon":"121.49241","lat":"31.22357","category":"47","category_name":"住宅区","address":"三牌楼路61弄7-13号"},{"poiid":"B2094654DA6EA0FB479B","title":"锦南商厦","lon":"121.493","lat":"31.2237","category":"46","category_name":"楼宇","address":"梦花街234号"},{"poiid":"B2094757DB6DA6F5499E","title":"上海宜必思豫园外滩店","lon":"121.491993","lat":"31.22467","category":"215","category_name":"三星级宾馆","address":"黄浦区昼锦路85号(近金豫名品商厦)"},{"poiid":"B2094757D06FA3F9419A","title":"上海会馆","lon":"121.492239138","lat":"31.2239696667","category":"76","category_name":"上海菜","address":"黄浦区河南南路489号香港名都5楼(近复兴东路)"},{"poiid":"B2094757D06FA6F5469A","title":"鼎泰丰(豫园店)","lon":"121.492692816","lat":"31.2247337512","category":"68","category_name":"快餐厅","address":"黄浦区方浜中路168号豫城时尚内(近三牌楼路)"},{"poiid":"B2094757D06FA1FD4093","title":"健康煮(豫城店)","lon":"121.49303673","lat":"31.224846185","category":"86","category_name":"火锅店","address":"黄浦区方浜中路168号豫城时尚3楼(近三牌楼路)"},{"poiid":"B2094753D76FAAFA449C","title":"上海滩国泰旗舰店","lon":"121.466011","lat":"31.216125","category":"249","category_name":"购物服务","address":"淮海中路868号"},{"poiid":"B209475CD564A7F84292","title":"上海滩新天地店","lon":"121.47463","lat":"31.22164","category":"119","category_name":"商场","address":"\"太仓路181弄新天地北里15号\r\n\""},{"poiid":"B209475CD564A7F84392","title":"上海滩浦东香格里拉店","lon":"121.50058","lat":"31.23634","category":"119","category_name":"商场","address":"浦东富成路33号香格里拉酒店内大堂层"},{"poiid":"B2094757D06FA1FF4693","title":"避风塘(豫园店)","lon":"121.492699","lat":"31.22484","category":"72","category_name":"广东菜","address":"黄浦区方浜中路168号豫城时尚3楼L3-01-02号商铺(近三牌楼路)"},{"poiid":"B2094757D568A6FF4598","title":"山海亭(复兴东路)","lon":"121.49009928","lat":"31.22246962","category":"268","category_name":"自助","address":"黄浦区河南南路489号香港名都4楼(近复兴东路)"},{"poiid":"B2094757D06FABFD409A","title":"上海老街","lon":"121.49305","lat":"31.22534","category":"249","category_name":"购物服务","address":"黄浦区方浜中路"},{"poiid":"B2094757D568A0FF469D","title":"M2香港名都","lon":"121.4895353","lat":"31.22338949","category":"119","category_name":"商场","address":"河南南路489号"},{"poiid":"B2094757D06FA1F54199","title":"豫城时尚","lon":"121.4927","lat":"31.22486","category":"119","category_name":"商场","address":"黄浦区方浜中路168号豫龙坊内(近昼锦路)"},{"poiid":"B2094757D06FA4FC409A","title":"德克士(城隍庙店)","lon":"121.49132","lat":"31.22559","category":"68","category_name":"快餐厅","address":"黄浦区旧校场路125号121室(百翎路口)"},{"poiid":"B2094655D36CA7F94599","title":"河南南路复兴东路","lon":"121.48953","lat":"31.22242","category":"38","category_name":"公交车站","address":""},{"poiid":"B2094757D464A4FE469F","title":"燕太太燕窝 香港名都店","lon":"121.49009","lat":"31.22246","category":"67","category_name":"甜品店","address":"黄浦区河南南路489号香港名都1楼L125室(近复兴东路)"},{"poiid":"B2094750DA6AA7FC489A","title":"COSTA COFFEE(豫城时尚店)","lon":"121.492561","lat":"31.225528","category":"65","category_name":"咖啡厅","address":"黄浦区昼锦路63号一层"},{"poiid":"B2094757D068A5FB459D","title":"憨豆咖啡","lon":"121.48986773","lat":"31.22226513","category":"260","category_name":"其他","address":"黄浦区河南南路489号香港名都1楼(近复兴东路)"},{"poiid":"B2094655D36CA6FF4299","title":"复兴东路光启路","lon":"121.49307","lat":"31.22185","category":"38","category_name":"公交车站","address":""},{"poiid":"B2094757D068A6FD449F","title":"味千拉面(豫龙坊店)","lon":"121.49305373","lat":"31.224894186","category":"95","category_name":"日本料理","address":"黄浦区方浜中路168号豫城时尚B1-17B室(近三牌楼路)"},{"poiid":"B2094757D068ABF4459F","title":"耕月人茶馆","lon":"121.4933","lat":"31.22533","category":"260","category_name":"其他","address":"上海黄浦区方浜中路235号豫安阁4楼(近安仁街)"},{"poiid":"B2094757D764A5F94099","title":"拿渡麻辣香锅 方浜中路店","lon":"121.492599","lat":"31.225421","category":"86","category_name":"火锅店","address":"黄浦区方浜中路168号豫城时尚3楼(近三牌楼路)"},{"poiid":"B2094757DA65A5F4419E","title":"如家快捷酒店（上海外滩城隍庙店）","lon":"121.490711","lat":"31.222069","category":"216","category_name":"经济型连锁酒店","address":"上海市黄浦区复兴东路699号(近河南南路)"},{"poiid":"B2094757D16CA6F9459E","title":"徐家私房菜(城隍庙店)","lon":"121.49298238","lat":"31.22507574","category":"74","category_name":"江苏菜","address":"黄浦区方浜中路168号豫城时尚3楼(近三牌楼路)"},{"poiid":"B2094757D064A3FF489B","title":"傣妹(豫园店)","lon":"121.49268","lat":"31.22336","category":"86","category_name":"火锅店","address":"黄浦区三牌楼路11号"},{"poiid":"B2094750DA68A6F54893","title":"道顺射箭馆(黄浦)","lon":"121.4915","lat":"31.222013","category":"248","category_name":"生活娱乐","address":"黄浦区复兴东路699号3楼(近河南南路)"},{"poiid":"B2094751D36AA5F8489E","title":"丰收日幸福家宴","lon":"121.49009","lat":"31.22246","category":"76","category_name":"上海菜","address":"黄浦区河南南路489号香港名都广场4楼(近复兴东路)"},{"poiid":"B2094654DA6EABFA4298","title":"复地雅园","lon":"121.49072","lat":"31.222973","category":"47","category_name":"住宅区","address":"上海市黄浦区昼锦路180弄8,9号"},{"poiid":"B2094757D169A7FE4193","title":"城隍庙三牌楼路","lon":"121.49249267","lat":"31.2236557","category":"500","category_name":"未知分类","address":"上海城隍庙傣妹"},{"poiid":"B2094654DA6EA4FE4593","title":"麦当劳(旧校场路)","lon":"121.49118","lat":"31.22537","category":"68","category_name":"快餐厅","address":"黄浦区旧校场路155号(近方浜中路)"},{"poiid":"B2094752D769A0F44593","title":"城隍庙","lon":"121.492118","lat":"31.220313","category":"500","category_name":"未知分类","address":"上海市城隍庙"},{"poiid":"B2094757D16BAAF8429C","title":"永惠大厦","lon":"121.49333898869","lat":"31.222608612505","category":"252","category_name":"楼宇机构","address":"上海市黄浦区西藏南路775-779号"},{"poiid":"B2094757D068A0FE4493","title":"豫园时尚街","lon":"121.4915","lat":"31.22508","category":"249","category_name":"购物服务","address":"黄浦区文昌路10号城隍庙内(近方浜中路)"},{"poiid":"B2094655D26FA5FF419F","title":"复兴小区","lon":"121.49194","lat":"31.222656","category":"47","category_name":"住宅区","address":"复兴东路663弄1-7号"},{"poiid":"B2094757D168A1FF409D","title":"克莉丝汀(复兴东路店)","lon":"121.49251","lat":"31.22188","category":"112","category_name":"糕饼店","address":"黄浦区复兴东路643号(近三牌楼路)"},{"poiid":"B2094654DA6EABFA439B","title":"光明乳业配送中心","lon":"121.49222","lat":"31.22238","category":"117","category_name":"便民商店/便利店","address":""},{"poiid":"B2094654DB6BA4FA469F","title":"快客(复兴小区东南)","lon":"121.49222","lat":"31.22241","category":"117","category_name":"便民商店/便利店","address":"三牌楼路124"},{"poiid":"B2094751D36BA7FE4292","title":"陆家浜路9号线","lon":"121.49142","lat":"31.223689","category":"500","category_name":"未知分类","address":null},{"poiid":"B2094757D06FABFA419F","title":"复兴东路河南南路车站","lon":"121.49232423","lat":"31.222628338","category":"500","category_name":"未知分类","address":"上海黄浦区复兴东路河南南路，66路，980路，方川线，929路，969路，306路车站"},{"poiid":"B2094757D065A4FF449D","title":"韩林炭烤 香港名都店","lon":"121.48988","lat":"31.22201","category":"96","category_name":"韩国料理","address":"黄浦区河南南路495-519号香港名都商场L4楼02(复兴东路河南南路)"},{"poiid":"B2094654DA6EABFA4398","title":"新华书店(三牌楼路)","lon":"121.49223","lat":"31.22244","category":"125","category_name":"书店","address":"三牌楼路120-122号"},{"poiid":"B2094757D66AA0FE479D","title":"吉阳酒楼","lon":"121.492423054","lat":"31.224322793","category":"76","category_name":"上海菜","address":"黄浦区城隍庙三牌楼75号(近光明中学)"},{"poiid":"B2094757D664A2FC4993","title":"六千馆","lon":"121.48975","lat":"31.22226","category":"76","category_name":"上海菜","address":"黄浦区河南南路489号香港名都5楼(近复兴东路)"},{"poiid":"B2094655D36CA6FF429F","title":"复兴东路豫园","lon":"121.49288","lat":"31.22187","category":"38","category_name":"公交车站","address":""},{"poiid":"B2094751DA6BA2F94899","title":"COSTA","lon":"121.49231","lat":"31.22376","category":"260","category_name":"其他","address":"黄浦区三牌楼路豫城时尚(城隍庙)"},{"poiid":"B2094654DA6EABFA449E","title":"阿大家常菜","lon":"121.492458054","lat":"31.224165793","category":"257","category_name":"中餐厅","address":"三牌楼路24号1-2楼近学院路"},{"poiid":"B2094750D568A2FB419E","title":"棒约翰比萨(方浜中路店)","lon":"121.492","lat":"31.2252","category":"94","category_name":"西餐厅","address":"黄浦区方浜中路280号金豫名品折扣中心(方浜中路旧校场路)"},{"poiid":"B2094654DA6EABFA429D","title":"复兴小区(南门)","lon":"121.49179","lat":"31.22218","category":"47","category_name":"住宅区","address":"复兴东路663弄1-7号"},{"poiid":"B2094655D268A7FE4998","title":"阿大碗面","lon":"121.49243","lat":"31.22375","category":"257","category_name":"中餐厅","address":"黄浦区国货路236号旁(近普育东路)"},{"poiid":"B2094655D26CA4FB4198","title":"三牌楼路61弄7-13号小区","lon":"121.49241","lat":"31.22357","category":"47","category_name":"住宅区","address":"三牌楼路61弄7-13号"},{"poiid":"B2094654DA6EA0FB479B","title":"锦南商厦","lon":"121.493","lat":"31.2237","category":"46","category_name":"楼宇","address":"梦花街234号"},{"poiid":"B2094757DB6DA6F5499E","title":"上海宜必思豫园外滩店","lon":"121.491993","lat":"31.22467","category":"215","category_name":"三星级宾馆","address":"黄浦区昼锦路85号(近金豫名品商厦)"}]