[{"poiid":"B2094757D068A2FC499D","title":"金杨新村","lon":"121.580062","lat":"31.249486","category":"252","category_name":"楼宇机构","address":"上海金杨路枣庄路"},{"poiid":"B2094654D568A0FB4798","title":"兰州拉面金杨拉面王","lon":"121.57984","lat":"31.24853","category":"68","category_name":"快餐厅","address":"浦东新区金杨路460号(近金口路)"},{"poiid":"B2094757D06FA0F44793","title":"小肥羊(金杨路店)","lon":"121.57667","lat":"31.24717","category":"86","category_name":"火锅店","address":"上海浦东新区金杨路283号(近金口路 装修中 约于4月底恢复营业)  "},{"poiid":"B2094757D06FA3F94598","title":"云山路地铁站","lon":"121.57365339","lat":"31.250920065","category":"36","category_name":"地铁站","address":"上海轨道交通,六号线,轨交云山路站,6"},{"poiid":"B2094757D068AAFE4092","title":"泓叶精菜坊","lon":"121.5765094","lat":"31.2531084","category":"72","category_name":"广东菜","address":"上海浦东新区张杨路3501号(枣庄路口 2月6日试营业)"},{"poiid":"B2094757D06FA6F54399","title":"肯德基 KFC (金杨店)","lon":"121.580584","lat":"31.249445","category":"500","category_name":"未知分类","address":"浦东新区金杨路524号(近枣庄路)"},{"poiid":"B2094757D06FAAFF4299","title":"湘乐汇(金桥国际店)","lon":"121.58017","lat":"31.25577","category":"77","category_name":"湖南菜","address":"浦东新区张杨路3501号金桥国际商业广场12座2楼(近枣庄路)"},{"poiid":"B2094757D068A2FF4993","title":"金杨花园","lon":"121.57728026","lat":"31.248318809","category":"47","category_name":"住宅区","address":"浦东新区金杨路311号(金口路口)"},{"poiid":"B2094757D064A0FC499B","title":"金杨中学羽毛球馆","lon":"121.57733","lat":"31.24878","category":"220","category_name":"运动场所","address":"浦东新区金口路166号金杨中学内"},{"poiid":"B2094654D568A7F8479B","title":"颐品茶道 金桥店","lon":"121.57692826785","lat":"31.253004871059","category":"260","category_name":"其他","address":"浦东新区张杨路3399号(枣庄路口)"},{"poiid":"B2094757D068A7FC4698","title":"大富贵酒楼(金杨店)","lon":"121.58217","lat":"31.25082","category":"76","category_name":"上海菜","address":"浦东新区金杨路635号(近枣庄路)"},{"poiid":"B2094757D06FA5F84499","title":"85度C(金杨店)","lon":"121.57983033","lat":"31.248967773","category":"112","category_name":"糕饼店","address":"浦东新区金杨路483号1楼"},{"poiid":"B2094751D26AA4FA4699","title":"金桥国际商业广场","lon":"121.576516","lat":"31.253373","category":"247","category_name":"餐饮美食","address":"浦东金桥国际商业广场12座2F"},{"poiid":"B2094750D464A4FD419F","title":"仁济医院","lon":"121.576828","lat":"31.251922","category":"162","category_name":"医院","address":"东方路1630"},{"poiid":"B2094454D36EA0FC4598","title":"Maan coffee","lon":"121.57595","lat":"31.25358","category":"247","category_name":"餐饮美食","address":"上海市 漫咖啡（金桥店）"},{"poiid":"B2094655D36CA0FE419C","title":"金杨路枣庄路","lon":"121.58121","lat":"31.25098","category":"38","category_name":"公交车站","address":"上海金杨路枣庄路金桥路"},{"poiid":"B2094757D068ABFF4798","title":"亚力山大会馆(金桥店)","lon":"121.5758","lat":"31.25372","category":"221","category_name":"健身中心","address":"浦东新区枣庄路399号瑞仕花园外(近博山东路)"},{"poiid":"B2094757D06BA2FF449E","title":"金杨新村五街坊","lon":"121.57701","lat":"31.24651","category":"47","category_name":"住宅区","address":"上海市浦东新区金杨路金杨路220弄1-65号"},{"poiid":"B2094654DA69A1F84293","title":"香山新村东北街坊","lon":"121.578","lat":"31.2483","category":"47","category_name":"住宅区","address":"德平路1065弄1-50号"},{"poiid":"B2094654DA69A3FD429F","title":"金杨新村五街坊(一号门)","lon":"121.57691","lat":"31.24731","category":"47","category_name":"住宅区","address":"金杨路308弄1-52号"},{"poiid":"B2094757D064A7FF4793","title":"新亚大包(金杨店)","lon":"121.58026","lat":"31.25067","category":"68","category_name":"快餐厅","address":"浦东新区枣庄路765号(近金杨路)"},{"poiid":"B2094757D064A1F9459B","title":"缘品火锅坊","lon":"121.58073","lat":"31.24992","category":"86","category_name":"火锅店","address":"浦东新区金杨路558号(近枣庄路)"},{"poiid":"B2094750DB6EA6F9439D","title":"红宝石金杨店","lon":"121.581665","lat":"31.248418","category":"67","category_name":"甜品店","address":"浦东新区金杨路486号(近枣庄路)"},{"poiid":"B2094757D16DA3F94099","title":"金杨中学","lon":"121.57744","lat":"31.24893","category":"55","category_name":"中学","address":"上海浦东新区金口路133号  "},{"poiid":"B2094757D069AAF44993","title":"格力特健身中心","lon":"121.58154","lat":"31.25021","category":"148","category_name":"美容美发店","address":"浦东新区金杨路628号家得利超市3楼(近枣庄路)"},{"poiid":"B2094655D36CA0FE4299","title":"金杨路金口路","lon":"121.57954","lat":"31.24855","category":"38","category_name":"公交车站","address":""},{"poiid":"B2094655D26BA4FD499F","title":"居家桥路520弄小区","lon":"121.57876469018","lat":"31.250032116682","category":"47","category_name":"住宅区","address":"居家桥路520弄1-8号"},{"poiid":"B2094655D26EA3FF419E","title":"金杨公园","lon":"121.5776","lat":"31.24821","category":"196","category_name":"公园","address":""},{"poiid":"B2094654D568A0FB499F","title":"金杨新村三街坊(三号门)","lon":"121.57892","lat":"31.25119","category":"47","category_name":"住宅区","address":"枣庄路552弄1-45号"},{"poiid":"B2094654D568A0F44199","title":"光明乳业枣庄配送站","lon":"121.57676","lat":"31.24962","category":"117","category_name":"便民商店/便利店","address":""},{"poiid":"B2094654DB6BA1FC4993","title":"陆家嘴新景园4(金口路)","lon":"121.57625","lat":"31.25141","category":"47","category_name":"住宅区","address":"金口路25弄1-19号"},{"poiid":"B2094757D065A2F8419D","title":"徽香阁","lon":"121.57944233","lat":"31.25099282","category":"260","category_name":"其他","address":"浦东新区枣庄路689号(张杨路金杨路间)"},{"poiid":"B2094757D16CA4F8459C","title":"日出茶太 金杨店 CHATIME","lon":"121.580298","lat":"31.249158","category":"113","category_name":"冷饮店","address":"浦东新区金杨路500号(近枣庄路)"},{"poiid":"B2094757D06FA6FF4199","title":"金杨七街坊","lon":"121.58035","lat":"31.247866","category":"47","category_name":"住宅区","address":"上海浦东新区枣庄路810弄(近金杨路)"},{"poiid":"B2094750D164ABFA489B","title":"五角场","lon":"121.577552","lat":"31.248788","category":"500","category_name":"未知分类","address":null},{"poiid":"B2094757D064A1F94499","title":"新世纪名苑","lon":"121.57529","lat":"31.252804","category":"47","category_name":"住宅区","address":"上海市浦东新区枣庄路500弄"},{"poiid":"B2094757D66DA3FE4898","title":"金杨新村三街坊","lon":"121.57892","lat":"31.249563","category":"252","category_name":"楼宇机构","address":"上海金口路53弄"},{"poiid":"B2094655D26DA5FF4093","title":"金杨路商业街(枣庄路)","lon":"121.58061","lat":"31.25075","category":"116","category_name":"特色商业街","address":""},{"poiid":"B2094757D065A2FB469C","title":"夜排挡","lon":"121.57631","lat":"31.24709","category":"68","category_name":"快餐厅","address":"浦东新区金杨新村两街坊口"},{"poiid":"B2094654D568A6FA459A","title":"金杨十街坊","lon":"121.58266","lat":"31.251093","category":"47","category_name":"住宅区","address":"金杨路660弄"},{"poiid":"B2094757D66CA1F44798","title":"佳笛台湾海鲜酒楼","lon":"121.57952","lat":"31.25077","category":"247","category_name":"餐饮美食","address":"上海浦东新区枣庄路628号(近张杨路)  "},{"poiid":"B2094655D265A2FA4693","title":"国美电器金桥店","lon":"121.57692","lat":"31.25377","category":"138","category_name":"家电电子卖场","address":""},{"poiid":"B2094654D568A6F9409E","title":"金杨新村街道社区教育综合楼","lon":"121.57949","lat":"31.25137","category":"46","category_name":"楼宇","address":"枣庄路689"},{"poiid":"B2094752D26AA0F44593","title":"金杨拉面王","lon":"121.575536","lat":"31.250772","category":"247","category_name":"餐饮美食","address":null},{"poiid":"B2094757D06AA4FF479F","title":"浦江之星(上海通和贸易有限公司浦江之星奔驰展厅)","lon":"121.57673633","lat":"31.253044867","category":"500","category_name":"未知分类","address":"上海市浦东新区张扬路3051弄金桥国际商业广场一楼(近枣庄路)"},{"poiid":"B2094757D06FABFA4499","title":"豆典茶饮 金杨店","lon":"121.58056","lat":"31.24957","category":"113","category_name":"冷饮店","address":"浦东新区金杨路526号(近金口路)"},{"poiid":"B2094654D568A6F94098","title":"永琪美容美发(枣庄路)","lon":"121.58047","lat":"31.25065","category":"148","category_name":"美容美发店","address":"枣庄路771临"},{"poiid":"B2094757D16CA3F9449B","title":"金童幼儿园","lon":"121.57510674","lat":"31.248309275","category":"57","category_name":"幼儿园","address":"浦东新区枣庄路685弄内(近张杨路)"},{"poiid":"B2094757D16CA4FA489A","title":"同乐汇私家菜","lon":"121.579254","lat":"31.248457","category":"247","category_name":"餐饮美食","address":"上海金杨路438号"},{"poiid":"B2094655D36CA0FF4299","title":"金口路","lon":"121.57901","lat":"31.24814","category":"38","category_name":"公交车站","address":""},{"poiid":"B2094757D068A2FC499D","title":"金杨新村","lon":"121.580062","lat":"31.249486","category":"252","category_name":"楼宇机构","address":"上海金杨路枣庄路"},{"poiid":"B2094654D568A0FB4798","title":"兰州拉面金杨拉面王","lon":"121.57984","lat":"31.24853","category":"68","category_name":"快餐厅","address":"浦东新区金杨路460号(近金口路)"},{"poiid":"B2094757D06FA0F44793","title":"小肥羊(金杨路店)","lon":"121.57667","lat":"31.24717","category":"86","category_name":"火锅店","address":"上海浦东新区金杨路283号(近金口路 装修中 约于4月底恢复营业)  "},{"poiid":"B2094757D06FA3F94598","title":"云山路地铁站","lon":"121.57365339","lat":"31.250920065","category":"36","category_name":"地铁站","address":"上海轨道交通,六号线,轨交云山路站,6"},{"poiid":"B2094757D068AAFE4092","title":"泓叶精菜坊","lon":"121.5765094","lat":"31.2531084","category":"72","category_name":"广东菜","address":"上海浦东新区张杨路3501号(枣庄路口 2月6日试营业)"},{"poiid":"B2094757D06FA6F54399","title":"肯德基 KFC (金杨店)","lon":"121.580584","lat":"31.249445","category":"500","category_name":"未知分类","address":"浦东新区金杨路524号(近枣庄路)"},{"poiid":"B2094757D06FAAFF4299","title":"湘乐汇(金桥国际店)","lon":"121.58017","lat":"31.25577","category":"77","category_name":"湖南菜","address":"浦东新区张杨路3501号金桥国际商业广场12座2楼(近枣庄路)"},{"poiid":"B2094757D068A2FF4993","title":"金杨花园","lon":"121.57728026","lat":"31.248318809","category":"47","category_name":"住宅区","address":"浦东新区金杨路311号(金口路口)"},{"poiid":"B2094757D064A0FC499B","title":"金杨中学羽毛球馆","lon":"121.57733","lat":"31.24878","category":"220","category_name":"运动场所","address":"浦东新区金口路166号金杨中学内"},{"poiid":"B2094654D568A7F8479B","title":"颐品茶道 金桥店","lon":"121.57692826785","lat":"31.253004871059","category":"260","category_name":"其他","address":"浦东新区张杨路3399号(枣庄路口)"},{"poiid":"B2094757D068A7FC4698","title":"大富贵酒楼(金杨店)","lon":"121.58217","lat":"31.25082","category":"76","category_name":"上海菜","address":"浦东新区金杨路635号(近枣庄路)"},{"poiid":"B2094757D06FA5F84499","title":"85度C(金杨店)","lon":"121.57983033","lat":"31.248967773","category":"112","category_name":"糕饼店","address":"浦东新区金杨路483号1楼"},{"poiid":"B2094751D26AA4FA4699","title":"金桥国际商业广场","lon":"121.576516","lat":"31.253373","category":"247","category_name":"餐饮美食","address":"浦东金桥国际商业广场12座2F"},{"poiid":"B2094750D464A4FD419F","title":"仁济医院","lon":"121.576828","lat":"31.251922","category":"162","category_name":"医院","address":"东方路1630"},{"poiid":"B2094454D36EA0FC4598","title":"Maan coffee","lon":"121.57595","lat":"31.25358","category":"247","category_name":"餐饮美食","address":"上海市 漫咖啡（金桥店）"},{"poiid":"B2094655D36CA0FE419C","title":"金杨路枣庄路","lon":"121.58121","lat":"31.25098","category":"38","category_name":"公交车站","address":"上海金杨路枣庄路金桥路"},{"poiid":"B2094757D068ABFF4798","title":"亚力山大会馆(金桥店)","lon":"121.5758","lat":"31.25372","category":"221","category_name":"健身中心","address":"浦东新区枣庄路399号瑞仕花园外(近博山东路)"},{"poiid":"B2094757D06BA2FF449E","title":"金杨新村五街坊","lon":"121.57701","lat":"31.24651","category":"47","category_name":"住宅区","address":"上海市浦东新区金杨路金杨路220弄1-65号"},{"poiid":"B2094654DA69A1F84293","title":"香山新村东北街坊","lon":"121.578","lat":"31.2483","category":"47","category_name":"住宅区","address":"德平路1065弄1-50号"},{"poiid":"B2094654DA69A3FD429F","title":"金杨新村五街坊(一号门)","lon":"121.57691","lat":"31.24731","category":"47","category_name":"住宅区","address":"金杨路308弄1-52号"},{"poiid":"B2094757D064A7FF4793","title":"新亚大包(金杨店)","lon":"121.58026","lat":"31.25067","category":"68","category_name":"快餐厅","address":"浦东新区枣庄路765号(近金杨路)"},{"poiid":"B2094757D064A1F9459B","title":"缘品火锅坊","lon":"121.58073","lat":"31.24992","category":"86","category_name":"火锅店","address":"浦东新区金杨路558号(近枣庄路)"},{"poiid":"B2094750DB6EA6F9439D","title":"红宝石金杨店","lon":"121.581665","lat":"31.248418","category":"67","category_name":"甜品店","address":"浦东新区金杨路486号(近枣庄路)"},{"poiid":"B2094757D16DA3F94099","title":"金杨中学","lon":"121.57744","lat":"31.24893","category":"55","category_name":"中学","address":"上海浦东新区金口路133号  "},{"poiid":"B2094757D069AAF44993","title":"格力特健身中心","lon":"121.58154","lat":"31.25021","category":"148","category_name":"美容美发店","address":"浦东新区金杨路628号家得利超市3楼(近枣庄路)"},{"poiid":"B2094655D36CA0FE4299","title":"金杨路金口路","lon":"121.57954","lat":"31.24855","category":"38","category_name":"公交车站","address":""},{"poiid":"B2094655D26BA4FD499F","title":"居家桥路520弄小区","lon":"121.57876469018","lat":"31.250032116682","category":"47","category_name":"住宅区","address":"居家桥路520弄1-8号"},{"poiid":"B2094655D26EA3FF419E","title":"金杨公园","lon":"121.5776","lat":"31.24821","category":"196","category_name":"公园","address":""},{"poiid":"B2094654D568A0FB499F","title":"金杨新村三街坊(三号门)","lon":"121.57892","lat":"31.25119","category":"47","category_name":"住宅区","address":"枣庄路552弄1-45号"},{"poiid":"B2094654D568A0F44199","title":"光明乳业枣庄配送站","lon":"121.57676","lat":"31.24962","category":"117","category_name":"便民商店/便利店","address":""},{"poiid":"B2094654DB6BA1FC4993","title":"陆家嘴新景园4(金口路)","lon":"121.57625","lat":"31.25141","category":"47","category_name":"住宅区","address":"金口路25弄1-19号"},{"poiid":"B2094757D065A2F8419D","title":"徽香阁","lon":"121.57944233","lat":"31.25099282","category":"260","category_name":"其他","address":"浦东新区枣庄路689号(张杨路金杨路间)"},{"poiid":"B2094757D16CA4F8459C","title":"日出茶太 金杨店 CHATIME","lon":"121.580298","lat":"31.249158","category":"113","category_name":"冷饮店","address":"浦东新区金杨路500号(近枣庄路)"},{"poiid":"B2094757D06FA6FF4199","title":"金杨七街坊","lon":"121.58035","lat":"31.247866","category":"47","category_name":"住宅区","address":"上海浦东新区枣庄路810弄(近金杨路)"},{"poiid":"B2094750D164ABFA489B","title":"五角场","lon":"121.577552","lat":"31.248788","category":"500","category_name":"未知分类","address":null},{"poiid":"B2094757D064A1F94499","title":"新世纪名苑","lon":"121.57529","lat":"31.252804","category":"47","category_name":"住宅区","address":"上海市浦东新区枣庄路500弄"},{"poiid":"B2094757D66DA3FE4898","title":"金杨新村三街坊","lon":"121.57892","lat":"31.249563","category":"252","category_name":"楼宇机构","address":"上海金口路53弄"},{"poiid":"B2094655D26DA5FF4093","title":"金杨路商业街(枣庄路)","lon":"121.58061","lat":"31.25075","category":"116","category_name":"特色商业街","address":""},{"poiid":"B2094757D065A2FB469C","title":"夜排挡","lon":"121.57631","lat":"31.24709","category":"68","category_name":"快餐厅","address":"浦东新区金杨新村两街坊口"},{"poiid":"B2094654D568A6FA459A","title":"金杨十街坊","lon":"121.58266","lat":"31.251093","category":"47","category_name":"住宅区","address":"金杨路660弄"},{"poiid":"B2094757D66CA1F44798","title":"佳笛台湾海鲜酒楼","lon":"121.57952","lat":"31.25077","category":"247","category_name":"餐饮美食","address":"上海浦东新区枣庄路628号(近张杨路)  "},{"poiid":"B2094655D265A2FA4693","title":"国美电器金桥店","lon":"121.57692","lat":"31.25377","category":"138","category_name":"家电电子卖场","address":""},{"poiid":"B2094654D568A6F9409E","title":"金杨新村街道社区教育综合楼","lon":"121.57949","lat":"31.25137","category":"46","category_name":"楼宇","address":"枣庄路689"},{"poiid":"B2094752D26AA0F44593","title":"金杨拉面王","lon":"121.575536","lat":"31.250772","category":"247","category_name":"餐饮美食","address":null},{"poiid":"B2094757D06AA4FF479F","title":"浦江之星(上海通和贸易有限公司浦江之星奔驰展厅)","lon":"121.57673633","lat":"31.253044867","category":"500","category_name":"未知分类","address":"上海市浦东新区张扬路3051弄金桥国际商业广场一楼(近枣庄路)"},{"poiid":"B2094757D06FABFA4499","title":"豆典茶饮 金杨店","lon":"121.58056","lat":"31.24957","category":"113","category_name":"冷饮店","address":"浦东新区金杨路526号(近金口路)"},{"poiid":"B2094654D568A6F94098","title":"永琪美容美发(枣庄路)","lon":"121.58047","lat":"31.25065","category":"148","category_name":"美容美发店","address":"枣庄路771临"},{"poiid":"B2094757D16CA3F9449B","title":"金童幼儿园","lon":"121.57510674","lat":"31.248309275","category":"57","category_name":"幼儿园","address":"浦东新区枣庄路685弄内(近张杨路)"},{"poiid":"B2094757D16CA4FA489A","title":"同乐汇私家菜","lon":"121.579254","lat":"31.248457","category":"247","category_name":"餐饮美食","address":"上海金杨路438号"},{"poiid":"B2094655D36CA0FF4299","title":"金口路","lon":"121.57901","lat":"31.24814","category":"38","category_name":"公交车站","address":""},{"poiid":"B2094757D068A2FC499D","title":"金杨新村","lon":"121.580062","lat":"31.249486","category":"252","category_name":"楼宇机构","address":"上海金杨路枣庄路"},{"poiid":"B2094654D568A0FB4798","title":"兰州拉面金杨拉面王","lon":"121.57984","lat":"31.24853","category":"68","category_name":"快餐厅","address":"浦东新区金杨路460号(近金口路)"},{"poiid":"B2094757D06FA0F44793","title":"小肥羊(金杨路店)","lon":"121.57667","lat":"31.24717","category":"86","category_name":"火锅店","address":"上海浦东新区金杨路283号(近金口路 装修中 约于4月底恢复营业)  "},{"poiid":"B2094757D06FA3F94598","title":"云山路地铁站","lon":"121.57365339","lat":"31.250920065","category":"36","category_name":"地铁站","address":"上海轨道交通,六号线,轨交云山路站,6"},{"poiid":"B2094757D068AAFE4092","title":"泓叶精菜坊","lon":"121.5765094","lat":"31.2531084","category":"72","category_name":"广东菜","address":"上海浦东新区张杨路3501号(枣庄路口 2月6日试营业)"},{"poiid":"B2094757D06FA6F54399","title":"肯德基 KFC (金杨店)","lon":"121.580584","lat":"31.249445","category":"500","category_name":"未知分类","address":"浦东新区金杨路524号(近枣庄路)"},{"poiid":"B2094757D06FAAFF4299","title":"湘乐汇(金桥国际店)","lon":"121.58017","lat":"31.25577","category":"77","category_name":"湖南菜","address":"浦东新区张杨路3501号金桥国际商业广场12座2楼(近枣庄路)"},{"poiid":"B2094757D068A2FF4993","title":"金杨花园","lon":"121.57728026","lat":"31.248318809","category":"47","category_name":"住宅区","address":"浦东新区金杨路311号(金口路口)"},{"poiid":"B2094757D064A0FC499B","title":"金杨中学羽毛球馆","lon":"121.57733","lat":"31.24878","category":"220","category_name":"运动场所","address":"浦东新区金口路166号金杨中学内"},{"poiid":"B2094654D568A7F8479B","title":"颐品茶道 金桥店","lon":"121.57692826785","lat":"31.253004871059","category":"260","category_name":"其他","address":"浦东新区张杨路3399号(枣庄路口)"},{"poiid":"B2094757D068A7FC4698","title":"大富贵酒楼(金杨店)","lon":"121.58217","lat":"31.25082","category":"76","category_name":"上海菜","address":"浦东新区金杨路635号(近枣庄路)"},{"poiid":"B2094757D06FA5F84499","title":"85度C(金杨店)","lon":"121.57983033","lat":"31.248967773","category":"112","category_name":"糕饼店","address":"浦东新区金杨路483号1楼"},{"poiid":"B2094751D26AA4FA4699","title":"金桥国际商业广场","lon":"121.576516","lat":"31.253373","category":"247","category_name":"餐饮美食","address":"浦东金桥国际商业广场12座2F"},{"poiid":"B2094750D464A4FD419F","title":"仁济医院","lon":"121.576828","lat":"31.251922","category":"162","category_name":"医院","address":"东方路1630"},{"poiid":"B2094454D36EA0FC4598","title":"Maan coffee","lon":"121.57595","lat":"31.25358","category":"247","category_name":"餐饮美食","address":"上海市 漫咖啡（金桥店）"},{"poiid":"B2094655D36CA0FE419C","title":"金杨路枣庄路","lon":"121.58121","lat":"31.25098","category":"38","category_name":"公交车站","address":"上海金杨路枣庄路金桥路"},{"poiid":"B2094757D068ABFF4798","title":"亚力山大会馆(金桥店)","lon":"121.5758","lat":"31.25372","category":"221","category_name":"健身中心","address":"浦东新区枣庄路399号瑞仕花园外(近博山东路)"},{"poiid":"B2094757D06BA2FF449E","title":"金杨新村五街坊","lon":"121.57701","lat":"31.24651","category":"47","category_name":"住宅区","address":"上海市浦东新区金杨路金杨路220弄1-65号"},{"poiid":"B2094654DA69A1F84293","title":"香山新村东北街坊","lon":"121.578","lat":"31.2483","category":"47","category_name":"住宅区","address":"德平路1065弄1-50号"},{"poiid":"B2094654DA69A3FD429F","title":"金杨新村五街坊(一号门)","lon":"121.57691","lat":"31.24731","category":"47","category_name":"住宅区","address":"金杨路308弄1-52号"},{"poiid":"B2094757D064A7FF4793","title":"新亚大包(金杨店)","lon":"121.58026","lat":"31.25067","category":"68","category_name":"快餐厅","address":"浦东新区枣庄路765号(近金杨路)"},{"poiid":"B2094757D064A1F9459B","title":"缘品火锅坊","lon":"121.58073","lat":"31.24992","category":"86","category_name":"火锅店","address":"浦东新区金杨路558号(近枣庄路)"},{"poiid":"B2094750DB6EA6F9439D","title":"红宝石金杨店","lon":"121.581665","lat":"31.248418","category":"67","category_name":"甜品店","address":"浦东新区金杨路486号(近枣庄路)"},{"poiid":"B2094757D16DA3F94099","title":"金杨中学","lon":"121.57744","lat":"31.24893","category":"55","category_name":"中学","address":"上海浦东新区金口路133号  "},{"poiid":"B2094757D069AAF44993","title":"格力特健身中心","lon":"121.58154","lat":"31.25021","category":"148","category_name":"美容美发店","address":"浦东新区金杨路628号家得利超市3楼(近枣庄路)"},{"poiid":"B2094655D36CA0FE4299","title":"金杨路金口路","lon":"121.57954","lat":"31.24855","category":"38","category_name":"公交车站","address":""},{"poiid":"B2094655D26BA4FD499F","title":"居家桥路520弄小区","lon":"121.57876469018","lat":"31.250032116682","category":"47","category_name":"住宅区","address":"居家桥路520弄1-8号"},{"poiid":"B2094655D26EA3FF419E","title":"金杨公园","lon":"121.5776","lat":"31.24821","category":"196","category_name":"公园","address":""},{"poiid":"B2094654D568A0FB499F","title":"金杨新村三街坊(三号门)","lon":"121.57892","lat":"31.25119","category":"47","category_name":"住宅区","address":"枣庄路552弄1-45号"},{"poiid":"B2094654D568A0F44199","title":"光明乳业枣庄配送站","lon":"121.57676","lat":"31.24962","category":"117","category_name":"便民商店/便利店","address":""},{"poiid":"B2094654DB6BA1FC4993","title":"陆家嘴新景园4(金口路)","lon":"121.57625","lat":"31.25141","category":"47","category_name":"住宅区","address":"金口路25弄1-19号"},{"poiid":"B2094757D065A2F8419D","title":"徽香阁","lon":"121.57944233","lat":"31.25099282","category":"260","category_name":"其他","address":"浦东新区枣庄路689号(张杨路金杨路间)"},{"poiid":"B2094757D16CA4F8459C","title":"日出茶太 金杨店 CHATIME","lon":"121.580298","lat":"31.249158","category":"113","category_name":"冷饮店","address":"浦东新区金杨路500号(近枣庄路)"},{"poiid":"B2094757D06FA6FF4199","title":"金杨七街坊","lon":"121.58035","lat":"31.247866","category":"47","category_name":"住宅区","address":"上海浦东新区枣庄路810弄(近金杨路)"},{"poiid":"B2094750D164ABFA489B","title":"五角场","lon":"121.577552","lat":"31.248788","category":"500","category_name":"未知分类","address":null},{"poiid":"B2094757D064A1F94499","title":"新世纪名苑","lon":"121.57529","lat":"31.252804","category":"47","category_name":"住宅区","address":"上海市浦东新区枣庄路500弄"},{"poiid":"B2094757D66DA3FE4898","title":"金杨新村三街坊","lon":"121.57892","lat":"31.249563","category":"252","category_name":"楼宇机构","address":"上海金口路53弄"},{"poiid":"B2094655D26DA5FF4093","title":"金杨路商业街(枣庄路)","lon":"121.58061","lat":"31.25075","category":"116","category_name":"特色商业街","address":""},{"poiid":"B2094757D065A2FB469C","title":"夜排挡","lon":"121.57631","lat":"31.24709","category":"68","category_name":"快餐厅","address":"浦东新区金杨新村两街坊口"},{"poiid":"B2094654D568A6FA459A","title":"金杨十街坊","lon":"121.58266","lat":"31.251093","category":"47","category_name":"住宅区","address":"金杨路660弄"},{"poiid":"B2094757D66CA1F44798","title":"佳笛台湾海鲜酒楼","lon":"121.57952","lat":"31.25077","category":"247","category_name":"餐饮美食","address":"上海浦东新区枣庄路628号(近张杨路)  "},{"poiid":"B2094655D265A2FA4693","title":"国美电器金桥店","lon":"121.57692","lat":"31.25377","category":"138","category_name":"家电电子卖场","address":""},{"poiid":"B2094654D568A6F9409E","title":"金杨新村街道社区教育综合楼","lon":"121.57949","lat":"31.25137","category":"46","category_name":"楼宇","address":"枣庄路689"},{"poiid":"B2094752D26AA0F44593","title":"金杨拉面王","lon":"121.575536","lat":"31.250772","category":"247","category_name":"餐饮美食","address":null},{"poiid":"B2094757D06AA4FF479F","title":"浦江之星(上海通和贸易有限公司浦江之星奔驰展厅)","lon":"121.57673633","lat":"31.253044867","category":"500","category_name":"未知分类","address":"上海市浦东新区张扬路3051弄金桥国际商业广场一楼(近枣庄路)"},{"poiid":"B2094757D06FABFA4499","title":"豆典茶饮 金杨店","lon":"121.58056","lat":"31.24957","category":"113","category_name":"冷饮店","address":"浦东新区金杨路526号(近金口路)"},{"poiid":"B2094654D568A6F94098","title":"永琪美容美发(枣庄路)","lon":"121.58047","lat":"31.25065","category":"148","category_name":"美容美发店","address":"枣庄路771临"},{"poiid":"B2094757D16CA3F9449B","title":"金童幼儿园","lon":"121.57510674","lat":"31.248309275","category":"57","category_name":"幼儿园","address":"浦东新区枣庄路685弄内(近张杨路)"},{"poiid":"B2094757D16CA4FA489A","title":"同乐汇私家菜","lon":"121.579254","lat":"31.248457","category":"247","category_name":"餐饮美食","address":"上海金杨路438号"},{"poiid":"B2094655D36CA0FF4299","title":"金口路","lon":"121.57901","lat":"31.24814","category":"38","category_name":"公交车站","address":""},{"poiid":"B2094757D068A2FC499D","title":"金杨新村","lon":"121.580062","lat":"31.249486","category":"252","category_name":"楼宇机构","address":"上海金杨路枣庄路"},{"poiid":"B2094654D568A0FB4798","title":"兰州拉面金杨拉面王","lon":"121.57984","lat":"31.24853","category":"68","category_name":"快餐厅","address":"浦东新区金杨路460号(近金口路)"},{"poiid":"B2094757D06FA0F44793","title":"小肥羊(金杨路店)","lon":"121.57667","lat":"31.24717","category":"86","category_name":"火锅店","address":"上海浦东新区金杨路283号(近金口路 装修中 约于4月底恢复营业)  "},{"poiid":"B2094757D06FA3F94598","title":"云山路地铁站","lon":"121.57365339","lat":"31.250920065","category":"36","category_name":"地铁站","address":"上海轨道交通,六号线,轨交云山路站,6"},{"poiid":"B2094757D068AAFE4092","title":"泓叶精菜坊","lon":"121.5765094","lat":"31.2531084","category":"72","category_name":"广东菜","address":"上海浦东新区张杨路3501号(枣庄路口 2月6日试营业)"},{"poiid":"B2094757D06FA6F54399","title":"肯德基 KFC (金杨店)","lon":"121.580584","lat":"31.249445","category":"500","category_name":"未知分类","address":"浦东新区金杨路524号(近枣庄路)"},{"poiid":"B2094757D06FAAFF4299","title":"湘乐汇(金桥国际店)","lon":"121.58017","lat":"31.25577","category":"77","category_name":"湖南菜","address":"浦东新区张杨路3501号金桥国际商业广场12座2楼(近枣庄路)"},{"poiid":"B2094757D068A2FF4993","title":"金杨花园","lon":"121.57728026","lat":"31.248318809","category":"47","category_name":"住宅区","address":"浦东新区金杨路311号(金口路口)"},{"poiid":"B2094757D064A0FC499B","title":"金杨中学羽毛球馆","lon":"121.57733","lat":"31.24878","category":"220","category_name":"运动场所","address":"浦东新区金口路166号金杨中学内"},{"poiid":"B2094654D568A7F8479B","title":"颐品茶道 金桥店","lon":"121.57692826785","lat":"31.253004871059","category":"260","category_name":"其他","address":"浦东新区张杨路3399号(枣庄路口)"},{"poiid":"B2094757D068A7FC4698","title":"大富贵酒楼(金杨店)","lon":"121.58217","lat":"31.25082","category":"76","category_name":"上海菜","address":"浦东新区金杨路635号(近枣庄路)"},{"poiid":"B2094757D06FA5F84499","title":"85度C(金杨店)","lon":"121.57983033","lat":"31.248967773","category":"112","category_name":"糕饼店","address":"浦东新区金杨路483号1楼"},{"poiid":"B2094751D26AA4FA4699","title":"金桥国际商业广场","lon":"121.576516","lat":"31.253373","category":"247","category_name":"餐饮美食","address":"浦东金桥国际商业广场12座2F"},{"poiid":"B2094750D464A4FD419F","title":"仁济医院","lon":"121.576828","lat":"31.251922","category":"162","category_name":"医院","address":"东方路1630"},{"poiid":"B2094454D36EA0FC4598","title":"Maan coffee","lon":"121.57595","lat":"31.25358","category":"247","category_name":"餐饮美食","address":"上海市 漫咖啡（金桥店）"},{"poiid":"B2094655D36CA0FE419C","title":"金杨路枣庄路","lon":"121.58121","lat":"31.25098","category":"38","category_name":"公交车站","address":"上海金杨路枣庄路金桥路"},{"poiid":"B2094757D068ABFF4798","title":"亚力山大会馆(金桥店)","lon":"121.5758","lat":"31.25372","category":"221","category_name":"健身中心","address":"浦东新区枣庄路399号瑞仕花园外(近博山东路)"},{"poiid":"B2094757D06BA2FF449E","title":"金杨新村五街坊","lon":"121.57701","lat":"31.24651","category":"47","category_name":"住宅区","address":"上海市浦东新区金杨路金杨路220弄1-65号"},{"poiid":"B2094654DA69A1F84293","title":"香山新村东北街坊","lon":"121.578","lat":"31.2483","category":"47","category_name":"住宅区","address":"德平路1065弄1-50号"},{"poiid":"B2094654DA69A3FD429F","title":"金杨新村五街坊(一号门)","lon":"121.57691","lat":"31.24731","category":"47","category_name":"住宅区","address":"金杨路308弄1-52号"},{"poiid":"B2094757D064A7FF4793","title":"新亚大包(金杨店)","lon":"121.58026","lat":"31.25067","category":"68","category_name":"快餐厅","address":"浦东新区枣庄路765号(近金杨路)"},{"poiid":"B2094757D064A1F9459B","title":"缘品火锅坊","lon":"121.58073","lat":"31.24992","category":"86","category_name":"火锅店","address":"浦东新区金杨路558号(近枣庄路)"},{"poiid":"B2094750DB6EA6F9439D","title":"红宝石金杨店","lon":"121.581665","lat":"31.248418","category":"67","category_name":"甜品店","address":"浦东新区金杨路486号(近枣庄路)"},{"poiid":"B2094757D16DA3F94099","title":"金杨中学","lon":"121.57744","lat":"31.24893","category":"55","category_name":"中学","address":"上海浦东新区金口路133号  "},{"poiid":"B2094757D069AAF44993","title":"格力特健身中心","lon":"121.58154","lat":"31.25021","category":"148","category_name":"美容美发店","address":"浦东新区金杨路628号家得利超市3楼(近枣庄路)"},{"poiid":"B2094655D36CA0FE4299","title":"金杨路金口路","lon":"121.57954","lat":"31.24855","category":"38","category_name":"公交车站","address":""},{"poiid":"B2094655D26BA4FD499F","title":"居家桥路520弄小区","lon":"121.57876469018","lat":"31.250032116682","category":"47","category_name":"住宅区","address":"居家桥路520弄1-8号"},{"poiid":"B2094655D26EA3FF419E","title":"金杨公园","lon":"121.5776","lat":"31.24821","category":"196","category_name":"公园","address":""},{"poiid":"B2094654D568A0FB499F","title":"金杨新村三街坊(三号门)","lon":"121.57892","lat":"31.25119","category":"47","category_name":"住宅区","address":"枣庄路552弄1-45号"},{"poiid":"B2094654D568A0F44199","title":"光明乳业枣庄配送站","lon":"121.57676","lat":"31.24962","category":"117","category_name":"便民商店/便利店","address":""},{"poiid":"B2094654DB6BA1FC4993","title":"陆家嘴新景园4(金口路)","lon":"121.57625","lat":"31.25141","category":"47","category_name":"住宅区","address":"金口路25弄1-19号"},{"poiid":"B2094757D065A2F8419D","title":"徽香阁","lon":"121.57944233","lat":"31.25099282","category":"260","category_name":"其他","address":"浦东新区枣庄路689号(张杨路金杨路间)"},{"poiid":"B2094757D16CA4F8459C","title":"日出茶太 金杨店 CHATIME","lon":"121.580298","lat":"31.249158","category":"113","category_name":"冷饮店","address":"浦东新区金杨路500号(近枣庄路)"},{"poiid":"B2094757D06FA6FF4199","title":"金杨七街坊","lon":"121.58035","lat":"31.247866","category":"47","category_name":"住宅区","address":"上海浦东新区枣庄路810弄(近金杨路)"},{"poiid":"B2094750D164ABFA489B","title":"五角场","lon":"121.577552","lat":"31.248788","category":"500","category_name":"未知分类","address":null},{"poiid":"B2094757D064A1F94499","title":"新世纪名苑","lon":"121.57529","lat":"31.252804","category":"47","category_name":"住宅区","address":"上海市浦东新区枣庄路500弄"},{"poiid":"B2094757D66DA3FE4898","title":"金杨新村三街坊","lon":"121.57892","lat":"31.249563","category":"252","category_name":"楼宇机构","address":"上海金口路53弄"},{"poiid":"B2094655D26DA5FF4093","title":"金杨路商业街(枣庄路)","lon":"121.58061","lat":"31.25075","category":"116","category_name":"特色商业街","address":""},{"poiid":"B2094757D065A2FB469C","title":"夜排挡","lon":"121.57631","lat":"31.24709","category":"68","category_name":"快餐厅","address":"浦东新区金杨新村两街坊口"},{"poiid":"B2094654D568A6FA459A","title":"金杨十街坊","lon":"121.58266","lat":"31.251093","category":"47","category_name":"住宅区","address":"金杨路660弄"},{"poiid":"B2094757D66CA1F44798","title":"佳笛台湾海鲜酒楼","lon":"121.57952","lat":"31.25077","category":"247","category_name":"餐饮美食","address":"上海浦东新区枣庄路628号(近张杨路)  "},{"poiid":"B2094655D265A2FA4693","title":"国美电器金桥店","lon":"121.57692","lat":"31.25377","category":"138","category_name":"家电电子卖场","address":""},{"poiid":"B2094654D568A6F9409E","title":"金杨新村街道社区教育综合楼","lon":"121.57949","lat":"31.25137","category":"46","category_name":"楼宇","address":"枣庄路689"},{"poiid":"B2094752D26AA0F44593","title":"金杨拉面王","lon":"121.575536","lat":"31.250772","category":"247","category_name":"餐饮美食","address":null},{"poiid":"B2094757D06AA4FF479F","title":"浦江之星(上海通和贸易有限公司浦江之星奔驰展厅)","lon":"121.57673633","lat":"31.253044867","category":"500","category_name":"未知分类","address":"上海市浦东新区张扬路3051弄金桥国际商业广场一楼(近枣庄路)"},{"poiid":"B2094757D06FABFA4499","title":"豆典茶饮 金杨店","lon":"121.58056","lat":"31.24957","category":"113","category_name":"冷饮店","address":"浦东新区金杨路526号(近金口路)"},{"poiid":"B2094654D568A6F94098","title":"永琪美容美发(枣庄路)","lon":"121.58047","lat":"31.25065","category":"148","category_name":"美容美发店","address":"枣庄路771临"},{"poiid":"B2094757D16CA3F9449B","title":"金童幼儿园","lon":"121.57510674","lat":"31.248309275","category":"57","category_name":"幼儿园","address":"浦东新区枣庄路685弄内(近张杨路)"},{"poiid":"B2094757D16CA4FA489A","title":"同乐汇私家菜","lon":"121.579254","lat":"31.248457","category":"247","category_name":"餐饮美食","address":"上海金杨路438号"},{"poiid":"B2094655D36CA0FF4299","title":"金口路","lon":"121.57901","lat":"31.24814","category":"38","category_name":"公交车站","address":""}]