[{"poiid":"B2094757D068A7F8499A","title":"浦东新区房产交易中心","lon":"121.56503497","lat":"31.246380438","category":"500","category_name":"未知分类","address":"上海张杨路德平路"},{"poiid":"B2094757D06EAAF44298","title":"盈田盈粥庄","lon":"121.56662","lat":"31.24416","category":"72","category_name":"广东菜","address":"浦东新区德平路777号(近羽山路)"},{"poiid":"B2094757D06FA3FA479C","title":"名人苑","lon":"121.56677011772149","lat":"31.24642229889824","category":"196","category_name":"公园","address":"浦东新区张杨路2988号(近居家桥路)"},{"poiid":"B2094757D06FA4FF469E","title":"罗曼园高级婚礼会馆(浦东店)","lon":"121.56599539442539","lat":"31.245736684141356","category":"184","category_name":"美术馆","address":"浦东新区张杨路2948号查看地图"},{"poiid":"B2094757D06FA2FC4292","title":"德平路地铁站","lon":"121.56418327","lat":"31.245292273","category":"36","category_name":"地铁站","address":"上海轨道交通 六号线 轨交德平路站 6"},{"poiid":"B2094757D069A3FE409E","title":"肯德基 博山东路店 KFC","lon":"121.560610054","lat":"31.247954793","category":"68","category_name":"快餐厅","address":"浦东新区博山东路50号(博山东路万德路)"},{"poiid":"B2094757D06BAAFF4392","title":"博山东路","lon":"121.559945829","lat":"31.2477788513","category":"500","category_name":"未知分类","address":"上海博山东路"},{"poiid":"B2094654DA69A2FC469B","title":"浦东邮政大厦","lon":"121.5649","lat":"31.24658","category":"46","category_name":"楼宇","address":"浦东区丁香路716号"},{"poiid":"B2094757D06BAAFD4692","title":"浦东新区房地产交易中心","lon":"121.56492237","lat":"31.246139233","category":"500","category_name":"未知分类","address":"上海张扬路2899号(邮政大厦)一楼近德平路口"},{"poiid":"B2094757D16CA4F5439B","title":"博达商场自由港","lon":"121.560298339","lat":"31.2479157495","category":"500","category_name":"未知分类","address":"上海博山东路78号"},{"poiid":"B2094757D068A3F54493","title":"永达汽车浦东贸易","lon":"121.562179565","lat":"31.2447547913","category":"158","category_name":"汽车销售","address":"浦东新区张杨路2761号(罗山路张杨路)"},{"poiid":"B2094757D068A5FE479A","title":"罗山新村","lon":"121.564161","lat":"31.245353","category":"47","category_name":"住宅区","address":"上海浦东新区德平路(近博山路)"},{"poiid":"B2094757D068ABFD479D","title":"85度C(博山店)","lon":"121.560709","lat":"31.247539","category":"67","category_name":"甜品店","address":"浦东新区博山东路78号1楼"},{"poiid":"B2094757D064A3FE419D","title":"浦东新区疾病预防控制中心","lon":"121.5677146","lat":"31.248057852","category":"500","category_name":"未知分类","address":"上海张杨路3039号"},{"poiid":"B2094757D069ABFF459A","title":"万德路博山东路","lon":"121.560571","lat":"31.247934","category":"500","category_name":"未知分类","address":"上海万德路博山东路"},{"poiid":"B2094757D064A3FE409C","title":"广洋华景苑","lon":"121.56556152265","lat":"31.247537457799","category":"47","category_name":"住宅区","address":"上海市闸北区场中路3300弄"},{"poiid":"B2094655D265A7FE409C","title":"东豫郎热气涮羊肉烧烤德平店","lon":"121.56671","lat":"31.2445","category":"87","category_name":"特色／地方风味餐厅","address":"浦东新区羽山路1969号107(近德平路)"},{"poiid":"B2094757D068A1FF4998","title":"新招鲜本地鸡窝 德平店","lon":"121.566250054","lat":"31.243976793","category":"86","category_name":"火锅店","address":"浦东新区羽山路1969号(加油站对面)"},{"poiid":"B2094655D26FA6F8469F","title":"住友名人花园","lon":"121.56658","lat":"31.248566","category":"47","category_name":"住宅区","address":"上海市长宁区延安西路1235弄"},{"poiid":"B2094757D069AAFC489A","title":"四海游龙 博山东路店 OVERSEAS DRAGON","lon":"121.561152054","lat":"31.248346793","category":"68","category_name":"快餐厅","address":"浦东新区居家桥路571号(近博山东路)"},{"poiid":"B2094655D26FA5FF4499","title":"上泰花苑","lon":"121.56345","lat":"31.24615","category":"47","category_name":"住宅区","address":"上海市浦东新区张扬路2855弄(德平路口)"},{"poiid":"B2094655D265A6FB4199","title":"罗山八村","lon":"121.56445","lat":"31.248312","category":"47","category_name":"住宅区","address":"德平路215弄1-55号"},{"poiid":"B2094655D26CA5FA449A","title":"海德苑","lon":"121.56361","lat":"31.248781","category":"47","category_name":"住宅区","address":"博山东路112弄1-10号"},{"poiid":"B2094757DA6FA3FC439F","title":"自由港量贩式KTV(博山店)","lon":"121.560709","lat":"31.2475390000002","category":"170","category_name":"KTV","address":"浦东新区博山东路78号博达百货3楼(近万德路)"},{"poiid":"B2094654D568ABFE4193","title":"古源养生坊足道保健会馆","lon":"121.56597","lat":"31.251","category":"149","category_name":"洗浴推拿场所","address":"上海浦东新区博山东路190号(近居家桥路)  "},{"poiid":"B2094655D26DABFB449A","title":"乳山八村","lon":"121.56445","lat":"31.24831","category":"47","category_name":"住宅区","address":"德平路215弄1-59号"},{"poiid":"B2094757DA6AA4FE499A","title":"金桥商业广场","lon":"121.560472","lat":"31.250646","category":"500","category_name":"未知分类","address":"金桥路"},{"poiid":"B2094655D36CA5F4409C","title":"博山东路龙居路","lon":"121.56347","lat":"31.24967","category":"38","category_name":"公交车站","address":""},{"poiid":"B2094757D469A2FF4992","title":"小巧面馆","lon":"121.565160054","lat":"31.246708793","category":"68","category_name":"快餐厅","address":"浦东新区德平路758号(张杨路灵山路之间)"},{"poiid":"B2094654D568ABFE429D","title":"通联苑","lon":"121.56622","lat":"31.250317","category":"47","category_name":"住宅区","address":"上海市浦东新区居家桥路688弄"},{"poiid":"B2094655D36CA5F4419A","title":"博山东路德平路","lon":"121.56352","lat":"31.24969","category":"38","category_name":"公交车站","address":""},{"poiid":"B2094757D66EA2FC449B","title":"小Q宠物诊疗","lon":"121.563702","lat":"31.247574","category":"162","category_name":"医院","address":"上海德平路231号"},{"poiid":"B2094654DB65AAFB4998","title":"名人苑游泳馆","lon":"121.56708","lat":"31.24662","category":"231","category_name":"游泳馆","address":"浦东新区张扬路2988号"},{"poiid":"B2094655D264AAF44599","title":"喜士多","lon":"121.56382","lat":"31.24747","category":"117","category_name":"便民商店/便利店","address":"浦东新区德平路30号(近浦东大道)"},{"poiid":"B2094655D36DA7FD499B","title":"张杨路","lon":"121.56471","lat":"31.24617","category":"38","category_name":"公交车站","address":""},{"poiid":"B2094655D26CA5FA449B","title":"德乐苑","lon":"121.56516","lat":"31.249807","category":"47","category_name":"住宅区","address":"博山东路136弄1-15号"},{"poiid":"B2094655D265A7FA459F","title":"食知味","lon":"121.56696","lat":"31.24464","category":"257","category_name":"中餐厅","address":"浦东新区羽山路1923号(近德平路)"},{"poiid":"B2094655D26DA5FA409D","title":"罗山三村德平路","lon":"121.56258","lat":"31.25047","category":"47","category_name":"住宅区","address":"德平路143弄1-21号"},{"poiid":"B2094654DB6BA1F8499A","title":"永琪美容美发","lon":"121.56485","lat":"31.25032","category":"148","category_name":"美容美发店","address":"浦东新区博山东路810号"},{"poiid":"B2094655D264AAF4459E","title":"罗山八村(西门)","lon":"121.56326","lat":"31.24822","category":"47","category_name":"住宅区","address":"德平路215弄1-55号"},{"poiid":"B2094654DB6BA1F84899","title":"茂菊口腔门诊部","lon":"121.5624","lat":"31.24861","category":"162","category_name":"医院","address":"德平路100弄96号"},{"poiid":"B2094655D26EA2FA4099","title":"乳山八村(北门)","lon":"121.56326","lat":"31.24821","category":"47","category_name":"住宅区","address":"德平路215弄1-59号"},{"poiid":"B2094757D66CA5FB499A","title":"阳郎鸡火锅干锅","lon":"121.56307","lat":"31.24819","category":"247","category_name":"餐饮美食","address":"上海浦东新区德平路195号(近博山东路)  "},{"poiid":"B2094654D568ABFD499D","title":"德乐苑(西门)","lon":"121.56441","lat":"31.24978","category":"47","category_name":"住宅区","address":"博山东路136弄1-15号"},{"poiid":"B2094654D568ABFD499F","title":"海德苑(北门)","lon":"121.5632","lat":"31.24925","category":"47","category_name":"住宅区","address":"博山东路112弄1-10号"},{"poiid":"B2094654DA69A2FD4999","title":"上泰花苑(边门)","lon":"121.56346","lat":"31.24722","category":"47","category_name":"住宅区","address":"张杨路2855弄1-51号"},{"poiid":"B2094655D36CA5F4409D","title":"博山东路居家桥路","lon":"121.56515","lat":"31.25073","category":"38","category_name":"公交车站","address":""},{"poiid":"B2094654DA69A1F9469D","title":"罗曼园花园餐厅","lon":"121.56253279952","lat":"31.246184763258","category":"257","category_name":"中餐厅","address":"德平路741号近张杨路"},{"poiid":"B2094752D764ABFA419B","title":"彼得西餐","lon":"121.567348","lat":"31.249522","category":"247","category_name":"餐饮美食","address":"碧云休闲中心"},{"poiid":"B2094655D26AA0FA439E","title":"地铁德平路站","lon":"121.56416","lat":"31.24535","category":"36","category_name":"地铁站","address":""},{"poiid":"B2094757D068A7F8499A","title":"浦东新区房产交易中心","lon":"121.56503497","lat":"31.246380438","category":"500","category_name":"未知分类","address":"上海张杨路德平路"},{"poiid":"B2094757D06EAAF44298","title":"盈田盈粥庄","lon":"121.56662","lat":"31.24416","category":"72","category_name":"广东菜","address":"浦东新区德平路777号(近羽山路)"},{"poiid":"B2094757D06FA3FA479C","title":"名人苑","lon":"121.56677011772149","lat":"31.24642229889824","category":"196","category_name":"公园","address":"浦东新区张杨路2988号(近居家桥路)"},{"poiid":"B2094757D06FA4FF469E","title":"罗曼园高级婚礼会馆(浦东店)","lon":"121.56599539442539","lat":"31.245736684141356","category":"184","category_name":"美术馆","address":"浦东新区张杨路2948号查看地图"},{"poiid":"B2094757D06FA2FC4292","title":"德平路地铁站","lon":"121.56418327","lat":"31.245292273","category":"36","category_name":"地铁站","address":"上海轨道交通 六号线 轨交德平路站 6"},{"poiid":"B2094757D069A3FE409E","title":"肯德基 博山东路店 KFC","lon":"121.560610054","lat":"31.247954793","category":"68","category_name":"快餐厅","address":"浦东新区博山东路50号(博山东路万德路)"},{"poiid":"B2094757D06BAAFF4392","title":"博山东路","lon":"121.559945829","lat":"31.2477788513","category":"500","category_name":"未知分类","address":"上海博山东路"},{"poiid":"B2094654DA69A2FC469B","title":"浦东邮政大厦","lon":"121.5649","lat":"31.24658","category":"46","category_name":"楼宇","address":"浦东区丁香路716号"},{"poiid":"B2094757D06BAAFD4692","title":"浦东新区房地产交易中心","lon":"121.56492237","lat":"31.246139233","category":"500","category_name":"未知分类","address":"上海张扬路2899号(邮政大厦)一楼近德平路口"},{"poiid":"B2094757D16CA4F5439B","title":"博达商场自由港","lon":"121.560298339","lat":"31.2479157495","category":"500","category_name":"未知分类","address":"上海博山东路78号"},{"poiid":"B2094757D068A3F54493","title":"永达汽车浦东贸易","lon":"121.562179565","lat":"31.2447547913","category":"158","category_name":"汽车销售","address":"浦东新区张杨路2761号(罗山路张杨路)"},{"poiid":"B2094757D068A5FE479A","title":"罗山新村","lon":"121.564161","lat":"31.245353","category":"47","category_name":"住宅区","address":"上海浦东新区德平路(近博山路)"},{"poiid":"B2094757D068ABFD479D","title":"85度C(博山店)","lon":"121.560709","lat":"31.247539","category":"67","category_name":"甜品店","address":"浦东新区博山东路78号1楼"},{"poiid":"B2094757D064A3FE419D","title":"浦东新区疾病预防控制中心","lon":"121.5677146","lat":"31.248057852","category":"500","category_name":"未知分类","address":"上海张杨路3039号"},{"poiid":"B2094757D069ABFF459A","title":"万德路博山东路","lon":"121.560571","lat":"31.247934","category":"500","category_name":"未知分类","address":"上海万德路博山东路"},{"poiid":"B2094757D064A3FE409C","title":"广洋华景苑","lon":"121.56556152265","lat":"31.247537457799","category":"47","category_name":"住宅区","address":"上海市闸北区场中路3300弄"},{"poiid":"B2094655D265A7FE409C","title":"东豫郎热气涮羊肉烧烤德平店","lon":"121.56671","lat":"31.2445","category":"87","category_name":"特色／地方风味餐厅","address":"浦东新区羽山路1969号107(近德平路)"},{"poiid":"B2094757D068A1FF4998","title":"新招鲜本地鸡窝 德平店","lon":"121.566250054","lat":"31.243976793","category":"86","category_name":"火锅店","address":"浦东新区羽山路1969号(加油站对面)"},{"poiid":"B2094655D26FA6F8469F","title":"住友名人花园","lon":"121.56658","lat":"31.248566","category":"47","category_name":"住宅区","address":"上海市长宁区延安西路1235弄"},{"poiid":"B2094757D069AAFC489A","title":"四海游龙 博山东路店 OVERSEAS DRAGON","lon":"121.561152054","lat":"31.248346793","category":"68","category_name":"快餐厅","address":"浦东新区居家桥路571号(近博山东路)"},{"poiid":"B2094655D26FA5FF4499","title":"上泰花苑","lon":"121.56345","lat":"31.24615","category":"47","category_name":"住宅区","address":"上海市浦东新区张扬路2855弄(德平路口)"},{"poiid":"B2094655D265A6FB4199","title":"罗山八村","lon":"121.56445","lat":"31.248312","category":"47","category_name":"住宅区","address":"德平路215弄1-55号"},{"poiid":"B2094655D26CA5FA449A","title":"海德苑","lon":"121.56361","lat":"31.248781","category":"47","category_name":"住宅区","address":"博山东路112弄1-10号"},{"poiid":"B2094757DA6FA3FC439F","title":"自由港量贩式KTV(博山店)","lon":"121.560709","lat":"31.2475390000002","category":"170","category_name":"KTV","address":"浦东新区博山东路78号博达百货3楼(近万德路)"},{"poiid":"B2094654D568ABFE4193","title":"古源养生坊足道保健会馆","lon":"121.56597","lat":"31.251","category":"149","category_name":"洗浴推拿场所","address":"上海浦东新区博山东路190号(近居家桥路)  "},{"poiid":"B2094655D26DABFB449A","title":"乳山八村","lon":"121.56445","lat":"31.24831","category":"47","category_name":"住宅区","address":"德平路215弄1-59号"},{"poiid":"B2094757DA6AA4FE499A","title":"金桥商业广场","lon":"121.560472","lat":"31.250646","category":"500","category_name":"未知分类","address":"金桥路"},{"poiid":"B2094655D36CA5F4409C","title":"博山东路龙居路","lon":"121.56347","lat":"31.24967","category":"38","category_name":"公交车站","address":""},{"poiid":"B2094757D469A2FF4992","title":"小巧面馆","lon":"121.565160054","lat":"31.246708793","category":"68","category_name":"快餐厅","address":"浦东新区德平路758号(张杨路灵山路之间)"},{"poiid":"B2094654D568ABFE429D","title":"通联苑","lon":"121.56622","lat":"31.250317","category":"47","category_name":"住宅区","address":"上海市浦东新区居家桥路688弄"},{"poiid":"B2094655D36CA5F4419A","title":"博山东路德平路","lon":"121.56352","lat":"31.24969","category":"38","category_name":"公交车站","address":""},{"poiid":"B2094757D66EA2FC449B","title":"小Q宠物诊疗","lon":"121.563702","lat":"31.247574","category":"162","category_name":"医院","address":"上海德平路231号"},{"poiid":"B2094654DB65AAFB4998","title":"名人苑游泳馆","lon":"121.56708","lat":"31.24662","category":"231","category_name":"游泳馆","address":"浦东新区张扬路2988号"},{"poiid":"B2094655D264AAF44599","title":"喜士多","lon":"121.56382","lat":"31.24747","category":"117","category_name":"便民商店/便利店","address":"浦东新区德平路30号(近浦东大道)"},{"poiid":"B2094655D36DA7FD499B","title":"张杨路","lon":"121.56471","lat":"31.24617","category":"38","category_name":"公交车站","address":""},{"poiid":"B2094655D26CA5FA449B","title":"德乐苑","lon":"121.56516","lat":"31.249807","category":"47","category_name":"住宅区","address":"博山东路136弄1-15号"},{"poiid":"B2094655D265A7FA459F","title":"食知味","lon":"121.56696","lat":"31.24464","category":"257","category_name":"中餐厅","address":"浦东新区羽山路1923号(近德平路)"},{"poiid":"B2094655D26DA5FA409D","title":"罗山三村德平路","lon":"121.56258","lat":"31.25047","category":"47","category_name":"住宅区","address":"德平路143弄1-21号"},{"poiid":"B2094654DB6BA1F8499A","title":"永琪美容美发","lon":"121.56485","lat":"31.25032","category":"148","category_name":"美容美发店","address":"浦东新区博山东路810号"},{"poiid":"B2094655D264AAF4459E","title":"罗山八村(西门)","lon":"121.56326","lat":"31.24822","category":"47","category_name":"住宅区","address":"德平路215弄1-55号"},{"poiid":"B2094654DB6BA1F84899","title":"茂菊口腔门诊部","lon":"121.5624","lat":"31.24861","category":"162","category_name":"医院","address":"德平路100弄96号"},{"poiid":"B2094655D26EA2FA4099","title":"乳山八村(北门)","lon":"121.56326","lat":"31.24821","category":"47","category_name":"住宅区","address":"德平路215弄1-59号"},{"poiid":"B2094757D66CA5FB499A","title":"阳郎鸡火锅干锅","lon":"121.56307","lat":"31.24819","category":"247","category_name":"餐饮美食","address":"上海浦东新区德平路195号(近博山东路)  "},{"poiid":"B2094654D568ABFD499D","title":"德乐苑(西门)","lon":"121.56441","lat":"31.24978","category":"47","category_name":"住宅区","address":"博山东路136弄1-15号"},{"poiid":"B2094654D568ABFD499F","title":"海德苑(北门)","lon":"121.5632","lat":"31.24925","category":"47","category_name":"住宅区","address":"博山东路112弄1-10号"},{"poiid":"B2094654DA69A2FD4999","title":"上泰花苑(边门)","lon":"121.56346","lat":"31.24722","category":"47","category_name":"住宅区","address":"张杨路2855弄1-51号"},{"poiid":"B2094655D36CA5F4409D","title":"博山东路居家桥路","lon":"121.56515","lat":"31.25073","category":"38","category_name":"公交车站","address":""},{"poiid":"B2094654DA69A1F9469D","title":"罗曼园花园餐厅","lon":"121.56253279952","lat":"31.246184763258","category":"257","category_name":"中餐厅","address":"德平路741号近张杨路"},{"poiid":"B2094752D764ABFA419B","title":"彼得西餐","lon":"121.567348","lat":"31.249522","category":"247","category_name":"餐饮美食","address":"碧云休闲中心"},{"poiid":"B2094655D26AA0FA439E","title":"地铁德平路站","lon":"121.56416","lat":"31.24535","category":"36","category_name":"地铁站","address":""},{"poiid":"B2094757D068A7F8499A","title":"浦东新区房产交易中心","lon":"121.56503497","lat":"31.246380438","category":"500","category_name":"未知分类","address":"上海张杨路德平路"},{"poiid":"B2094757D06EAAF44298","title":"盈田盈粥庄","lon":"121.56662","lat":"31.24416","category":"72","category_name":"广东菜","address":"浦东新区德平路777号(近羽山路)"},{"poiid":"B2094757D06FA3FA479C","title":"名人苑","lon":"121.56677011772149","lat":"31.24642229889824","category":"196","category_name":"公园","address":"浦东新区张杨路2988号(近居家桥路)"},{"poiid":"B2094757D06FA4FF469E","title":"罗曼园高级婚礼会馆(浦东店)","lon":"121.56599539442539","lat":"31.245736684141356","category":"184","category_name":"美术馆","address":"浦东新区张杨路2948号查看地图"},{"poiid":"B2094757D06FA2FC4292","title":"德平路地铁站","lon":"121.56418327","lat":"31.245292273","category":"36","category_name":"地铁站","address":"上海轨道交通 六号线 轨交德平路站 6"},{"poiid":"B2094757D069A3FE409E","title":"肯德基 博山东路店 KFC","lon":"121.560610054","lat":"31.247954793","category":"68","category_name":"快餐厅","address":"浦东新区博山东路50号(博山东路万德路)"},{"poiid":"B2094757D06BAAFF4392","title":"博山东路","lon":"121.559945829","lat":"31.2477788513","category":"500","category_name":"未知分类","address":"上海博山东路"},{"poiid":"B2094654DA69A2FC469B","title":"浦东邮政大厦","lon":"121.5649","lat":"31.24658","category":"46","category_name":"楼宇","address":"浦东区丁香路716号"},{"poiid":"B2094757D06BAAFD4692","title":"浦东新区房地产交易中心","lon":"121.56492237","lat":"31.246139233","category":"500","category_name":"未知分类","address":"上海张扬路2899号(邮政大厦)一楼近德平路口"},{"poiid":"B2094757D16CA4F5439B","title":"博达商场自由港","lon":"121.560298339","lat":"31.2479157495","category":"500","category_name":"未知分类","address":"上海博山东路78号"},{"poiid":"B2094757D068A3F54493","title":"永达汽车浦东贸易","lon":"121.562179565","lat":"31.2447547913","category":"158","category_name":"汽车销售","address":"浦东新区张杨路2761号(罗山路张杨路)"},{"poiid":"B2094757D068A5FE479A","title":"罗山新村","lon":"121.564161","lat":"31.245353","category":"47","category_name":"住宅区","address":"上海浦东新区德平路(近博山路)"},{"poiid":"B2094757D068ABFD479D","title":"85度C(博山店)","lon":"121.560709","lat":"31.247539","category":"67","category_name":"甜品店","address":"浦东新区博山东路78号1楼"},{"poiid":"B2094757D064A3FE419D","title":"浦东新区疾病预防控制中心","lon":"121.5677146","lat":"31.248057852","category":"500","category_name":"未知分类","address":"上海张杨路3039号"},{"poiid":"B2094757D069ABFF459A","title":"万德路博山东路","lon":"121.560571","lat":"31.247934","category":"500","category_name":"未知分类","address":"上海万德路博山东路"},{"poiid":"B2094757D064A3FE409C","title":"广洋华景苑","lon":"121.56556152265","lat":"31.247537457799","category":"47","category_name":"住宅区","address":"上海市闸北区场中路3300弄"},{"poiid":"B2094655D265A7FE409C","title":"东豫郎热气涮羊肉烧烤德平店","lon":"121.56671","lat":"31.2445","category":"87","category_name":"特色／地方风味餐厅","address":"浦东新区羽山路1969号107(近德平路)"},{"poiid":"B2094757D068A1FF4998","title":"新招鲜本地鸡窝 德平店","lon":"121.566250054","lat":"31.243976793","category":"86","category_name":"火锅店","address":"浦东新区羽山路1969号(加油站对面)"},{"poiid":"B2094655D26FA6F8469F","title":"住友名人花园","lon":"121.56658","lat":"31.248566","category":"47","category_name":"住宅区","address":"上海市长宁区延安西路1235弄"},{"poiid":"B2094757D069AAFC489A","title":"四海游龙 博山东路店 OVERSEAS DRAGON","lon":"121.561152054","lat":"31.248346793","category":"68","category_name":"快餐厅","address":"浦东新区居家桥路571号(近博山东路)"},{"poiid":"B2094655D26FA5FF4499","title":"上泰花苑","lon":"121.56345","lat":"31.24615","category":"47","category_name":"住宅区","address":"上海市浦东新区张扬路2855弄(德平路口)"},{"poiid":"B2094655D265A6FB4199","title":"罗山八村","lon":"121.56445","lat":"31.248312","category":"47","category_name":"住宅区","address":"德平路215弄1-55号"},{"poiid":"B2094655D26CA5FA449A","title":"海德苑","lon":"121.56361","lat":"31.248781","category":"47","category_name":"住宅区","address":"博山东路112弄1-10号"},{"poiid":"B2094757DA6FA3FC439F","title":"自由港量贩式KTV(博山店)","lon":"121.560709","lat":"31.2475390000002","category":"170","category_name":"KTV","address":"浦东新区博山东路78号博达百货3楼(近万德路)"},{"poiid":"B2094654D568ABFE4193","title":"古源养生坊足道保健会馆","lon":"121.56597","lat":"31.251","category":"149","category_name":"洗浴推拿场所","address":"上海浦东新区博山东路190号(近居家桥路)  "},{"poiid":"B2094655D26DABFB449A","title":"乳山八村","lon":"121.56445","lat":"31.24831","category":"47","category_name":"住宅区","address":"德平路215弄1-59号"},{"poiid":"B2094757DA6AA4FE499A","title":"金桥商业广场","lon":"121.560472","lat":"31.250646","category":"500","category_name":"未知分类","address":"金桥路"},{"poiid":"B2094655D36CA5F4409C","title":"博山东路龙居路","lon":"121.56347","lat":"31.24967","category":"38","category_name":"公交车站","address":""},{"poiid":"B2094757D469A2FF4992","title":"小巧面馆","lon":"121.565160054","lat":"31.246708793","category":"68","category_name":"快餐厅","address":"浦东新区德平路758号(张杨路灵山路之间)"},{"poiid":"B2094654D568ABFE429D","title":"通联苑","lon":"121.56622","lat":"31.250317","category":"47","category_name":"住宅区","address":"上海市浦东新区居家桥路688弄"},{"poiid":"B2094655D36CA5F4419A","title":"博山东路德平路","lon":"121.56352","lat":"31.24969","category":"38","category_name":"公交车站","address":""},{"poiid":"B2094757D66EA2FC449B","title":"小Q宠物诊疗","lon":"121.563702","lat":"31.247574","category":"162","category_name":"医院","address":"上海德平路231号"},{"poiid":"B2094654DB65AAFB4998","title":"名人苑游泳馆","lon":"121.56708","lat":"31.24662","category":"231","category_name":"游泳馆","address":"浦东新区张扬路2988号"},{"poiid":"B2094655D264AAF44599","title":"喜士多","lon":"121.56382","lat":"31.24747","category":"117","category_name":"便民商店/便利店","address":"浦东新区德平路30号(近浦东大道)"},{"poiid":"B2094655D36DA7FD499B","title":"张杨路","lon":"121.56471","lat":"31.24617","category":"38","category_name":"公交车站","address":""},{"poiid":"B2094655D26CA5FA449B","title":"德乐苑","lon":"121.56516","lat":"31.249807","category":"47","category_name":"住宅区","address":"博山东路136弄1-15号"},{"poiid":"B2094655D265A7FA459F","title":"食知味","lon":"121.56696","lat":"31.24464","category":"257","category_name":"中餐厅","address":"浦东新区羽山路1923号(近德平路)"},{"poiid":"B2094655D26DA5FA409D","title":"罗山三村德平路","lon":"121.56258","lat":"31.25047","category":"47","category_name":"住宅区","address":"德平路143弄1-21号"},{"poiid":"B2094654DB6BA1F8499A","title":"永琪美容美发","lon":"121.56485","lat":"31.25032","category":"148","category_name":"美容美发店","address":"浦东新区博山东路810号"},{"poiid":"B2094655D264AAF4459E","title":"罗山八村(西门)","lon":"121.56326","lat":"31.24822","category":"47","category_name":"住宅区","address":"德平路215弄1-55号"},{"poiid":"B2094654DB6BA1F84899","title":"茂菊口腔门诊部","lon":"121.5624","lat":"31.24861","category":"162","category_name":"医院","address":"德平路100弄96号"},{"poiid":"B2094655D26EA2FA4099","title":"乳山八村(北门)","lon":"121.56326","lat":"31.24821","category":"47","category_name":"住宅区","address":"德平路215弄1-59号"},{"poiid":"B2094757D66CA5FB499A","title":"阳郎鸡火锅干锅","lon":"121.56307","lat":"31.24819","category":"247","category_name":"餐饮美食","address":"上海浦东新区德平路195号(近博山东路)  "},{"poiid":"B2094654D568ABFD499D","title":"德乐苑(西门)","lon":"121.56441","lat":"31.24978","category":"47","category_name":"住宅区","address":"博山东路136弄1-15号"},{"poiid":"B2094654D568ABFD499F","title":"海德苑(北门)","lon":"121.5632","lat":"31.24925","category":"47","category_name":"住宅区","address":"博山东路112弄1-10号"},{"poiid":"B2094654DA69A2FD4999","title":"上泰花苑(边门)","lon":"121.56346","lat":"31.24722","category":"47","category_name":"住宅区","address":"张杨路2855弄1-51号"},{"poiid":"B2094655D36CA5F4409D","title":"博山东路居家桥路","lon":"121.56515","lat":"31.25073","category":"38","category_name":"公交车站","address":""},{"poiid":"B2094654DA69A1F9469D","title":"罗曼园花园餐厅","lon":"121.56253279952","lat":"31.246184763258","category":"257","category_name":"中餐厅","address":"德平路741号近张杨路"},{"poiid":"B2094752D764ABFA419B","title":"彼得西餐","lon":"121.567348","lat":"31.249522","category":"247","category_name":"餐饮美食","address":"碧云休闲中心"},{"poiid":"B2094655D26AA0FA439E","title":"地铁德平路站","lon":"121.56416","lat":"31.24535","category":"36","category_name":"地铁站","address":""},{"poiid":"B2094757D068A7F8499A","title":"浦东新区房产交易中心","lon":"121.56503497","lat":"31.246380438","category":"500","category_name":"未知分类","address":"上海张杨路德平路"},{"poiid":"B2094757D06EAAF44298","title":"盈田盈粥庄","lon":"121.56662","lat":"31.24416","category":"72","category_name":"广东菜","address":"浦东新区德平路777号(近羽山路)"},{"poiid":"B2094757D06FA3FA479C","title":"名人苑","lon":"121.56677011772149","lat":"31.24642229889824","category":"196","category_name":"公园","address":"浦东新区张杨路2988号(近居家桥路)"},{"poiid":"B2094757D06FA4FF469E","title":"罗曼园高级婚礼会馆(浦东店)","lon":"121.56599539442539","lat":"31.245736684141356","category":"184","category_name":"美术馆","address":"浦东新区张杨路2948号查看地图"},{"poiid":"B2094757D06FA2FC4292","title":"德平路地铁站","lon":"121.56418327","lat":"31.245292273","category":"36","category_name":"地铁站","address":"上海轨道交通 六号线 轨交德平路站 6"},{"poiid":"B2094757D069A3FE409E","title":"肯德基 博山东路店 KFC","lon":"121.560610054","lat":"31.247954793","category":"68","category_name":"快餐厅","address":"浦东新区博山东路50号(博山东路万德路)"},{"poiid":"B2094757D06BAAFF4392","title":"博山东路","lon":"121.559945829","lat":"31.2477788513","category":"500","category_name":"未知分类","address":"上海博山东路"},{"poiid":"B2094654DA69A2FC469B","title":"浦东邮政大厦","lon":"121.5649","lat":"31.24658","category":"46","category_name":"楼宇","address":"浦东区丁香路716号"},{"poiid":"B2094757D06BAAFD4692","title":"浦东新区房地产交易中心","lon":"121.56492237","lat":"31.246139233","category":"500","category_name":"未知分类","address":"上海张扬路2899号(邮政大厦)一楼近德平路口"},{"poiid":"B2094757D16CA4F5439B","title":"博达商场自由港","lon":"121.560298339","lat":"31.2479157495","category":"500","category_name":"未知分类","address":"上海博山东路78号"},{"poiid":"B2094757D068A3F54493","title":"永达汽车浦东贸易","lon":"121.562179565","lat":"31.2447547913","category":"158","category_name":"汽车销售","address":"浦东新区张杨路2761号(罗山路张杨路)"},{"poiid":"B2094757D068A5FE479A","title":"罗山新村","lon":"121.564161","lat":"31.245353","category":"47","category_name":"住宅区","address":"上海浦东新区德平路(近博山路)"},{"poiid":"B2094757D068ABFD479D","title":"85度C(博山店)","lon":"121.560709","lat":"31.247539","category":"67","category_name":"甜品店","address":"浦东新区博山东路78号1楼"},{"poiid":"B2094757D064A3FE419D","title":"浦东新区疾病预防控制中心","lon":"121.5677146","lat":"31.248057852","category":"500","category_name":"未知分类","address":"上海张杨路3039号"},{"poiid":"B2094757D069ABFF459A","title":"万德路博山东路","lon":"121.560571","lat":"31.247934","category":"500","category_name":"未知分类","address":"上海万德路博山东路"},{"poiid":"B2094757D064A3FE409C","title":"广洋华景苑","lon":"121.56556152265","lat":"31.247537457799","category":"47","category_name":"住宅区","address":"上海市闸北区场中路3300弄"},{"poiid":"B2094655D265A7FE409C","title":"东豫郎热气涮羊肉烧烤德平店","lon":"121.56671","lat":"31.2445","category":"87","category_name":"特色／地方风味餐厅","address":"浦东新区羽山路1969号107(近德平路)"},{"poiid":"B2094757D068A1FF4998","title":"新招鲜本地鸡窝 德平店","lon":"121.566250054","lat":"31.243976793","category":"86","category_name":"火锅店","address":"浦东新区羽山路1969号(加油站对面)"},{"poiid":"B2094655D26FA6F8469F","title":"住友名人花园","lon":"121.56658","lat":"31.248566","category":"47","category_name":"住宅区","address":"上海市长宁区延安西路1235弄"},{"poiid":"B2094757D069AAFC489A","title":"四海游龙 博山东路店 OVERSEAS DRAGON","lon":"121.561152054","lat":"31.248346793","category":"68","category_name":"快餐厅","address":"浦东新区居家桥路571号(近博山东路)"},{"poiid":"B2094655D26FA5FF4499","title":"上泰花苑","lon":"121.56345","lat":"31.24615","category":"47","category_name":"住宅区","address":"上海市浦东新区张扬路2855弄(德平路口)"},{"poiid":"B2094655D265A6FB4199","title":"罗山八村","lon":"121.56445","lat":"31.248312","category":"47","category_name":"住宅区","address":"德平路215弄1-55号"},{"poiid":"B2094655D26CA5FA449A","title":"海德苑","lon":"121.56361","lat":"31.248781","category":"47","category_name":"住宅区","address":"博山东路112弄1-10号"},{"poiid":"B2094757DA6FA3FC439F","title":"自由港量贩式KTV(博山店)","lon":"121.560709","lat":"31.2475390000002","category":"170","category_name":"KTV","address":"浦东新区博山东路78号博达百货3楼(近万德路)"},{"poiid":"B2094654D568ABFE4193","title":"古源养生坊足道保健会馆","lon":"121.56597","lat":"31.251","category":"149","category_name":"洗浴推拿场所","address":"上海浦东新区博山东路190号(近居家桥路)  "},{"poiid":"B2094655D26DABFB449A","title":"乳山八村","lon":"121.56445","lat":"31.24831","category":"47","category_name":"住宅区","address":"德平路215弄1-59号"},{"poiid":"B2094757DA6AA4FE499A","title":"金桥商业广场","lon":"121.560472","lat":"31.250646","category":"500","category_name":"未知分类","address":"金桥路"},{"poiid":"B2094655D36CA5F4409C","title":"博山东路龙居路","lon":"121.56347","lat":"31.24967","category":"38","category_name":"公交车站","address":""},{"poiid":"B2094757D469A2FF4992","title":"小巧面馆","lon":"121.565160054","lat":"31.246708793","category":"68","category_name":"快餐厅","address":"浦东新区德平路758号(张杨路灵山路之间)"},{"poiid":"B2094654D568ABFE429D","title":"通联苑","lon":"121.56622","lat":"31.250317","category":"47","category_name":"住宅区","address":"上海市浦东新区居家桥路688弄"},{"poiid":"B2094655D36CA5F4419A","title":"博山东路德平路","lon":"121.56352","lat":"31.24969","category":"38","category_name":"公交车站","address":""},{"poiid":"B2094757D66EA2FC449B","title":"小Q宠物诊疗","lon":"121.563702","lat":"31.247574","category":"162","category_name":"医院","address":"上海德平路231号"},{"poiid":"B2094654DB65AAFB4998","title":"名人苑游泳馆","lon":"121.56708","lat":"31.24662","category":"231","category_name":"游泳馆","address":"浦东新区张扬路2988号"},{"poiid":"B2094655D264AAF44599","title":"喜士多","lon":"121.56382","lat":"31.24747","category":"117","category_name":"便民商店/便利店","address":"浦东新区德平路30号(近浦东大道)"},{"poiid":"B2094655D36DA7FD499B","title":"张杨路","lon":"121.56471","lat":"31.24617","category":"38","category_name":"公交车站","address":""},{"poiid":"B2094655D26CA5FA449B","title":"德乐苑","lon":"121.56516","lat":"31.249807","category":"47","category_name":"住宅区","address":"博山东路136弄1-15号"},{"poiid":"B2094655D265A7FA459F","title":"食知味","lon":"121.56696","lat":"31.24464","category":"257","category_name":"中餐厅","address":"浦东新区羽山路1923号(近德平路)"},{"poiid":"B2094655D26DA5FA409D","title":"罗山三村德平路","lon":"121.56258","lat":"31.25047","category":"47","category_name":"住宅区","address":"德平路143弄1-21号"},{"poiid":"B2094654DB6BA1F8499A","title":"永琪美容美发","lon":"121.56485","lat":"31.25032","category":"148","category_name":"美容美发店","address":"浦东新区博山东路810号"},{"poiid":"B2094655D264AAF4459E","title":"罗山八村(西门)","lon":"121.56326","lat":"31.24822","category":"47","category_name":"住宅区","address":"德平路215弄1-55号"},{"poiid":"B2094654DB6BA1F84899","title":"茂菊口腔门诊部","lon":"121.5624","lat":"31.24861","category":"162","category_name":"医院","address":"德平路100弄96号"},{"poiid":"B2094655D26EA2FA4099","title":"乳山八村(北门)","lon":"121.56326","lat":"31.24821","category":"47","category_name":"住宅区","address":"德平路215弄1-59号"},{"poiid":"B2094757D66CA5FB499A","title":"阳郎鸡火锅干锅","lon":"121.56307","lat":"31.24819","category":"247","category_name":"餐饮美食","address":"上海浦东新区德平路195号(近博山东路)  "},{"poiid":"B2094654D568ABFD499D","title":"德乐苑(西门)","lon":"121.56441","lat":"31.24978","category":"47","category_name":"住宅区","address":"博山东路136弄1-15号"},{"poiid":"B2094654D568ABFD499F","title":"海德苑(北门)","lon":"121.5632","lat":"31.24925","category":"47","category_name":"住宅区","address":"博山东路112弄1-10号"},{"poiid":"B2094654DA69A2FD4999","title":"上泰花苑(边门)","lon":"121.56346","lat":"31.24722","category":"47","category_name":"住宅区","address":"张杨路2855弄1-51号"},{"poiid":"B2094655D36CA5F4409D","title":"博山东路居家桥路","lon":"121.56515","lat":"31.25073","category":"38","category_name":"公交车站","address":""},{"poiid":"B2094654DA69A1F9469D","title":"罗曼园花园餐厅","lon":"121.56253279952","lat":"31.246184763258","category":"257","category_name":"中餐厅","address":"德平路741号近张杨路"},{"poiid":"B2094752D764ABFA419B","title":"彼得西餐","lon":"121.567348","lat":"31.249522","category":"247","category_name":"餐饮美食","address":"碧云休闲中心"},{"poiid":"B2094655D26AA0FA439E","title":"地铁德平路站","lon":"121.56416","lat":"31.24535","category":"36","category_name":"地铁站","address":""}]