[{"poiid":"B2094757D06FA1FE469B","title":"淞南公园","lon":"121.486744987","lat":"31.3410313325","category":"196","category_name":"公园","address":"上海宝山区淞良路300号(近淞发路)"},{"poiid":"B2094757D06FA3FC439B","title":"淞发路地铁站","lon":"121.500579","lat":"31.344674","category":"36","category_name":"地铁站","address":"上海轨道交通 三号线 轨交淞发路站 轻轨 3"},{"poiid":"B2094757D06FA6FC439E","title":"华浜新村","lon":"121.49277","lat":"31.350016","category":"47","category_name":"住宅区","address":"上海长江路军工路"},{"poiid":"B2094757D065AAFF409C","title":"汽車夢工場","lon":"121.50068383","lat":"31.349958154","category":"500","category_name":"未知分类","address":"上海市寶山區軍工路5169號"},{"poiid":"B2094757D06FA1FA4492","title":"建配龙家居商城","lon":"121.49426833","lat":"31.339484868","category":"123","category_name":"家具建材市场","address":"宝山区长逸路15号建配龙市场内(近逸仙路)"},{"poiid":"B2094655D36DA7F5489E","title":"淞南镇","lon":"121.4843","lat":"31.34131","category":"38","category_name":"公交车站","address":"上海宝山区淞南镇"},{"poiid":"B2094757D069A7F4429F","title":"祥腾生活广场","lon":"121.480338543","lat":"31.3400640394","category":"47","category_name":"住宅区","address":"宝山区淞发路901弄祥腾生活广场内(近长江南路)"},{"poiid":"B2094757D465A3FE4699","title":"宏亮海鲜大酒楼 淞发路店","lon":"121.483641054","lat":"31.341974793","category":"88","category_name":"海鲜酒楼","address":"宝山区淞发路918号世纪联华3楼(近长江南路)"},{"poiid":"B2094757D66EA6FB459F","title":"♥HÖmЁ♥","lon":"121.490882603","lat":"31.339821674","category":"500","category_name":"未知分类","address":null},{"poiid":"B2094757D068A0FA429E","title":"淞南三村","lon":"121.498","lat":"31.3495","category":"47","category_name":"住宅区","address":"淞南路301号"},{"poiid":"B2094757D064A6FE459F","title":"淞南七村","lon":"121.4885992726","lat":"31.339706632077","category":"500","category_name":"未知分类","address":"长逸路50弄"},{"poiid":"B2094757D06BA3FE499C","title":"淞南八村","lon":"121.487","lat":"31.3413","category":"252","category_name":"楼宇机构","address":"长江南路143号"},{"poiid":"B2094655D36DA7F5489B","title":"淞南四村","lon":"121.4980655202","lat":"31.35075517499","category":"38","category_name":"公交车站","address":"上海市上海宝山区淞南四村站淞南路长江路"},{"poiid":"B2094757D66BA3FA439F","title":"一崎碳烧 海伦生活广场店","lon":"121.4918308","lat":"31.3381991","category":"68","category_name":"快餐厅","address":"宝山区长逸路258号海伦精品生活广场1楼(近凇良路)"},{"poiid":"B2094757D069A6FB4793","title":"新城尚景","lon":"121.4817034","lat":"31.343563222","category":"47","category_name":"住宅区","address":"上海宝山区淞肇路333弄"},{"poiid":"B2094655D26BA2FC4593","title":"吴淞煤气厂","lon":"121.48918","lat":"31.34916","category":"38","category_name":"公交车站","address":""},{"poiid":"B2094654D469AAFC4592","title":"凇南三村","lon":"121.49083","lat":"31.34357","category":"47","category_name":"住宅区","address":"淞南镇"},{"poiid":"B2094757D569A6FF4098","title":"万临家园","lon":"121.48648","lat":"31.342659","category":"47","category_name":"住宅区","address":"淞发路500弄"},{"poiid":"B2094654D469AAFC4798","title":"长宏新苑","lon":"121.49244","lat":"31.342192","category":"47","category_name":"住宅区","address":"上海市普陀区武宁路492号"},{"poiid":"B2094757D465A1F84198","title":"豪皇海鲜大酒店","lon":"121.498222","lat":"31.340973","category":"72","category_name":"广东菜","address":"逸仙路3000号近长逸路"},{"poiid":"B2094655D26BA6FB459F","title":"淞宏苑","lon":"121.49118934705","lat":"31.349218369986","category":"47","category_name":"住宅区","address":"上海市宝山区卫生科路100弄"},{"poiid":"B2094757D068A6F94399","title":"上钢一厂","lon":"121.485162","lat":"31.34774","category":"263","category_name":"公司","address":"上海上钢一厂"},{"poiid":"B2094757D068A2FE4499","title":"淞南一村","lon":"121.492","lat":"31.3489","category":"252","category_name":"楼宇机构","address":"上海卫生科路"},{"poiid":"B2094757D064A1F8429C","title":"长江路","lon":"121.48506004","lat":"31.346489545","category":"500","category_name":"未知分类","address":"上海市宝山区长江路848弄"},{"poiid":"B2094757D168AAF44499","title":"本山大酒店","lon":"121.49062","lat":"31.34702","category":"76","category_name":"上海菜","address":"宝山区淞南路360号(近三号线淞发路站)"},{"poiid":"B2094654D46AA1FF4792","title":"贵金羊肉面馆","lon":"121.4859","lat":"31.34733","category":"68","category_name":"快餐厅","address":"宝山区淞良路532号(长江路口)"},{"poiid":"B2094655D36DA7FD4398","title":"张华浜","lon":"121.50039","lat":"31.35498","category":"38","category_name":"公交车站","address":""},{"poiid":"B2094757D069A2FD439F","title":"新梅淞南苑","lon":"121.49153","lat":"31.33849","category":"47","category_name":"住宅区","address":"上海市宝山区长逸路301弄"},{"poiid":"B2094757D069AAF4479A","title":"淞南镇社区卫生服务中心","lon":"121.48908448","lat":"31.342121041","category":"162","category_name":"医院","address":"宝山区淞良路301号(近淞南公园)"},{"poiid":"B2094750D26FA5F8459A","title":"凯德龙之梦（虹口）","lon":"121.490447","lat":"31.352376","category":"248","category_name":"生活娱乐","address":null},{"poiid":"B2094750D76DAAF8429F","title":"家香饭店","lon":"121.486","lat":"31.3465","category":"68","category_name":"快餐厅","address":"宝山区淞良路539号(近长江路)"},{"poiid":"B2094655D264A4FA429A","title":"淞南电影院","lon":"121.490667","lat":"31.347517","category":"178","category_name":"电影院","address":"长江路440弄23号"},{"poiid":"B2094654D46AA1FF4799","title":"家乡饭店(淞良路)","lon":"121.48613","lat":"31.34745","category":"257","category_name":"中餐厅","address":"淞南镇"},{"poiid":"B2094654D469AAFC459E","title":"上海市宝山区一钢医院","lon":"121.48574","lat":"31.34455","category":"162","category_name":"医院","address":"宝山区卫生科路111号"},{"poiid":"B2094654D46AA1FF479F","title":"快客(淞良路)","lon":"121.48582","lat":"31.34757","category":"117","category_name":"便民商店/便利店","address":""},{"poiid":"B2094757D66BA7F5499A","title":"老北京热气涮羊肉","lon":"121.48841","lat":"31.3422","category":"86","category_name":"火锅店","address":"杨浦区国和路971号"},{"poiid":"B2094654D46AA0F8449D","title":"宝山钢铁股份有限公司不锈钢分公司","lon":"121.48834","lat":"31.34847","category":"263","category_name":"公司","address":""},{"poiid":"B2094757D56EA6FC4799","title":"达芙妮-淞南店","lon":"121.488909","lat":"31.348683","category":"249","category_name":"购物服务","address":"宝山区长江南路651号世纪联华1搂(近淞发路)"},{"poiid":"B2094655D36CA5F9449C","title":"长江南路","lon":"121.48514","lat":"31.34772","category":"38","category_name":"公交车站","address":""},{"poiid":"B2094757D069A0FE4292","title":"国际节能环保园","lon":"121.48101","lat":"31.34614","category":"179","category_name":"音乐厅","address":"上海宝山区长江西路101号(近钢三路)  "},{"poiid":"B2094757D16AA3FB459B","title":"永顺和苏州汤包馆","lon":"121.490074103","lat":"31.345169986","category":"68","category_name":"快餐厅","address":"宝山区淞南路338号(近淞南三村门口)"},{"poiid":"B2094654D46AA1FF4692","title":"宏达百货","lon":"121.48625","lat":"31.34721","category":"119","category_name":"商场","address":""},{"poiid":"B2094655D36CA5F9459A","title":"长江路长江南路","lon":"121.48303","lat":"31.34703","category":"38","category_name":"公交车站","address":""},{"poiid":"B2094757D165A2FB499D","title":"湘沪风情","lon":"121.4847026","lat":"31.347030175","category":"77","category_name":"湖南菜","address":"宝山区淞良路534号(长江路淞良路)"},{"poiid":"B2094757D06AA2FF449D","title":"乐翻天KTV(淞南店)","lon":"121.483616","lat":"31.341068","category":"170","category_name":"KTV","address":"上海长江南路淞发路(祥腾生活广场)"},{"poiid":"B2094757D76AA6F8489C","title":"来伊份 淞良路店","lon":"121.485926","lat":"31.347291","category":"68","category_name":"快餐厅","address":"宝山区淞良路525号外房21号"},{"poiid":"B2094654D46AA1FF489A","title":"银利百货商场","lon":"121.48604","lat":"31.34714","category":"119","category_name":"商场","address":"长江路780弄29号"},{"poiid":"B2094654D46AA0F84599","title":"良友金伴NO.365","lon":"121.49279","lat":"31.35004","category":"117","category_name":"便民商店/便利店","address":"华浜新村57-2"},{"poiid":"B2094751D26BA2F8409E","title":"虹口龙之梦","lon":"121.487635","lat":"31.345108","category":"247","category_name":"餐饮美食","address":null},{"poiid":"B2094757D66AABFD429E","title":"品宴轩","lon":"121.481266054","lat":"31.343886793","category":"72","category_name":"广东菜","address":"宝山区长江南路717号(近淞发路)"},{"poiid":"B2094757D06FA1FE469B","title":"淞南公园","lon":"121.486744987","lat":"31.3410313325","category":"196","category_name":"公园","address":"上海宝山区淞良路300号(近淞发路)"},{"poiid":"B2094757D06FA3FC439B","title":"淞发路地铁站","lon":"121.500579","lat":"31.344674","category":"36","category_name":"地铁站","address":"上海轨道交通 三号线 轨交淞发路站 轻轨 3"},{"poiid":"B2094757D06FA6FC439E","title":"华浜新村","lon":"121.49277","lat":"31.350016","category":"47","category_name":"住宅区","address":"上海长江路军工路"},{"poiid":"B2094757D065AAFF409C","title":"汽車夢工場","lon":"121.50068383","lat":"31.349958154","category":"500","category_name":"未知分类","address":"上海市寶山區軍工路5169號"},{"poiid":"B2094757D06FA1FA4492","title":"建配龙家居商城","lon":"121.49426833","lat":"31.339484868","category":"123","category_name":"家具建材市场","address":"宝山区长逸路15号建配龙市场内(近逸仙路)"},{"poiid":"B2094655D36DA7F5489E","title":"淞南镇","lon":"121.4843","lat":"31.34131","category":"38","category_name":"公交车站","address":"上海宝山区淞南镇"},{"poiid":"B2094757D069A7F4429F","title":"祥腾生活广场","lon":"121.480338543","lat":"31.3400640394","category":"47","category_name":"住宅区","address":"宝山区淞发路901弄祥腾生活广场内(近长江南路)"},{"poiid":"B2094757D465A3FE4699","title":"宏亮海鲜大酒楼 淞发路店","lon":"121.483641054","lat":"31.341974793","category":"88","category_name":"海鲜酒楼","address":"宝山区淞发路918号世纪联华3楼(近长江南路)"},{"poiid":"B2094757D66EA6FB459F","title":"♥HÖmЁ♥","lon":"121.490882603","lat":"31.339821674","category":"500","category_name":"未知分类","address":null},{"poiid":"B2094757D068A0FA429E","title":"淞南三村","lon":"121.498","lat":"31.3495","category":"47","category_name":"住宅区","address":"淞南路301号"},{"poiid":"B2094757D064A6FE459F","title":"淞南七村","lon":"121.4885992726","lat":"31.339706632077","category":"500","category_name":"未知分类","address":"长逸路50弄"},{"poiid":"B2094757D06BA3FE499C","title":"淞南八村","lon":"121.487","lat":"31.3413","category":"252","category_name":"楼宇机构","address":"长江南路143号"},{"poiid":"B2094655D36DA7F5489B","title":"淞南四村","lon":"121.4980655202","lat":"31.35075517499","category":"38","category_name":"公交车站","address":"上海市上海宝山区淞南四村站淞南路长江路"},{"poiid":"B2094757D66BA3FA439F","title":"一崎碳烧 海伦生活广场店","lon":"121.4918308","lat":"31.3381991","category":"68","category_name":"快餐厅","address":"宝山区长逸路258号海伦精品生活广场1楼(近凇良路)"},{"poiid":"B2094757D069A6FB4793","title":"新城尚景","lon":"121.4817034","lat":"31.343563222","category":"47","category_name":"住宅区","address":"上海宝山区淞肇路333弄"},{"poiid":"B2094655D26BA2FC4593","title":"吴淞煤气厂","lon":"121.48918","lat":"31.34916","category":"38","category_name":"公交车站","address":""},{"poiid":"B2094654D469AAFC4592","title":"凇南三村","lon":"121.49083","lat":"31.34357","category":"47","category_name":"住宅区","address":"淞南镇"},{"poiid":"B2094757D569A6FF4098","title":"万临家园","lon":"121.48648","lat":"31.342659","category":"47","category_name":"住宅区","address":"淞发路500弄"},{"poiid":"B2094654D469AAFC4798","title":"长宏新苑","lon":"121.49244","lat":"31.342192","category":"47","category_name":"住宅区","address":"上海市普陀区武宁路492号"},{"poiid":"B2094757D465A1F84198","title":"豪皇海鲜大酒店","lon":"121.498222","lat":"31.340973","category":"72","category_name":"广东菜","address":"逸仙路3000号近长逸路"},{"poiid":"B2094655D26BA6FB459F","title":"淞宏苑","lon":"121.49118934705","lat":"31.349218369986","category":"47","category_name":"住宅区","address":"上海市宝山区卫生科路100弄"},{"poiid":"B2094757D068A6F94399","title":"上钢一厂","lon":"121.485162","lat":"31.34774","category":"263","category_name":"公司","address":"上海上钢一厂"},{"poiid":"B2094757D068A2FE4499","title":"淞南一村","lon":"121.492","lat":"31.3489","category":"252","category_name":"楼宇机构","address":"上海卫生科路"},{"poiid":"B2094757D064A1F8429C","title":"长江路","lon":"121.48506004","lat":"31.346489545","category":"500","category_name":"未知分类","address":"上海市宝山区长江路848弄"},{"poiid":"B2094757D168AAF44499","title":"本山大酒店","lon":"121.49062","lat":"31.34702","category":"76","category_name":"上海菜","address":"宝山区淞南路360号(近三号线淞发路站)"},{"poiid":"B2094654D46AA1FF4792","title":"贵金羊肉面馆","lon":"121.4859","lat":"31.34733","category":"68","category_name":"快餐厅","address":"宝山区淞良路532号(长江路口)"},{"poiid":"B2094655D36DA7FD4398","title":"张华浜","lon":"121.50039","lat":"31.35498","category":"38","category_name":"公交车站","address":""},{"poiid":"B2094757D069A2FD439F","title":"新梅淞南苑","lon":"121.49153","lat":"31.33849","category":"47","category_name":"住宅区","address":"上海市宝山区长逸路301弄"},{"poiid":"B2094757D069AAF4479A","title":"淞南镇社区卫生服务中心","lon":"121.48908448","lat":"31.342121041","category":"162","category_name":"医院","address":"宝山区淞良路301号(近淞南公园)"},{"poiid":"B2094750D26FA5F8459A","title":"凯德龙之梦（虹口）","lon":"121.490447","lat":"31.352376","category":"248","category_name":"生活娱乐","address":null},{"poiid":"B2094750D76DAAF8429F","title":"家香饭店","lon":"121.486","lat":"31.3465","category":"68","category_name":"快餐厅","address":"宝山区淞良路539号(近长江路)"},{"poiid":"B2094655D264A4FA429A","title":"淞南电影院","lon":"121.490667","lat":"31.347517","category":"178","category_name":"电影院","address":"长江路440弄23号"},{"poiid":"B2094654D46AA1FF4799","title":"家乡饭店(淞良路)","lon":"121.48613","lat":"31.34745","category":"257","category_name":"中餐厅","address":"淞南镇"},{"poiid":"B2094654D469AAFC459E","title":"上海市宝山区一钢医院","lon":"121.48574","lat":"31.34455","category":"162","category_name":"医院","address":"宝山区卫生科路111号"},{"poiid":"B2094654D46AA1FF479F","title":"快客(淞良路)","lon":"121.48582","lat":"31.34757","category":"117","category_name":"便民商店/便利店","address":""},{"poiid":"B2094757D66BA7F5499A","title":"老北京热气涮羊肉","lon":"121.48841","lat":"31.3422","category":"86","category_name":"火锅店","address":"杨浦区国和路971号"},{"poiid":"B2094654D46AA0F8449D","title":"宝山钢铁股份有限公司不锈钢分公司","lon":"121.48834","lat":"31.34847","category":"263","category_name":"公司","address":""},{"poiid":"B2094757D56EA6FC4799","title":"达芙妮-淞南店","lon":"121.488909","lat":"31.348683","category":"249","category_name":"购物服务","address":"宝山区长江南路651号世纪联华1搂(近淞发路)"},{"poiid":"B2094655D36CA5F9449C","title":"长江南路","lon":"121.48514","lat":"31.34772","category":"38","category_name":"公交车站","address":""},{"poiid":"B2094757D069A0FE4292","title":"国际节能环保园","lon":"121.48101","lat":"31.34614","category":"179","category_name":"音乐厅","address":"上海宝山区长江西路101号(近钢三路)  "},{"poiid":"B2094757D16AA3FB459B","title":"永顺和苏州汤包馆","lon":"121.490074103","lat":"31.345169986","category":"68","category_name":"快餐厅","address":"宝山区淞南路338号(近淞南三村门口)"},{"poiid":"B2094654D46AA1FF4692","title":"宏达百货","lon":"121.48625","lat":"31.34721","category":"119","category_name":"商场","address":""},{"poiid":"B2094655D36CA5F9459A","title":"长江路长江南路","lon":"121.48303","lat":"31.34703","category":"38","category_name":"公交车站","address":""},{"poiid":"B2094757D165A2FB499D","title":"湘沪风情","lon":"121.4847026","lat":"31.347030175","category":"77","category_name":"湖南菜","address":"宝山区淞良路534号(长江路淞良路)"},{"poiid":"B2094757D06AA2FF449D","title":"乐翻天KTV(淞南店)","lon":"121.483616","lat":"31.341068","category":"170","category_name":"KTV","address":"上海长江南路淞发路(祥腾生活广场)"},{"poiid":"B2094757D76AA6F8489C","title":"来伊份 淞良路店","lon":"121.485926","lat":"31.347291","category":"68","category_name":"快餐厅","address":"宝山区淞良路525号外房21号"},{"poiid":"B2094654D46AA1FF489A","title":"银利百货商场","lon":"121.48604","lat":"31.34714","category":"119","category_name":"商场","address":"长江路780弄29号"},{"poiid":"B2094654D46AA0F84599","title":"良友金伴NO.365","lon":"121.49279","lat":"31.35004","category":"117","category_name":"便民商店/便利店","address":"华浜新村57-2"},{"poiid":"B2094751D26BA2F8409E","title":"虹口龙之梦","lon":"121.487635","lat":"31.345108","category":"247","category_name":"餐饮美食","address":null},{"poiid":"B2094757D66AABFD429E","title":"品宴轩","lon":"121.481266054","lat":"31.343886793","category":"72","category_name":"广东菜","address":"宝山区长江南路717号(近淞发路)"},{"poiid":"B2094757D06FA1FE469B","title":"淞南公园","lon":"121.486744987","lat":"31.3410313325","category":"196","category_name":"公园","address":"上海宝山区淞良路300号(近淞发路)"},{"poiid":"B2094757D06FA3FC439B","title":"淞发路地铁站","lon":"121.500579","lat":"31.344674","category":"36","category_name":"地铁站","address":"上海轨道交通 三号线 轨交淞发路站 轻轨 3"},{"poiid":"B2094757D06FA6FC439E","title":"华浜新村","lon":"121.49277","lat":"31.350016","category":"47","category_name":"住宅区","address":"上海长江路军工路"},{"poiid":"B2094757D065AAFF409C","title":"汽車夢工場","lon":"121.50068383","lat":"31.349958154","category":"500","category_name":"未知分类","address":"上海市寶山區軍工路5169號"},{"poiid":"B2094757D06FA1FA4492","title":"建配龙家居商城","lon":"121.49426833","lat":"31.339484868","category":"123","category_name":"家具建材市场","address":"宝山区长逸路15号建配龙市场内(近逸仙路)"},{"poiid":"B2094655D36DA7F5489E","title":"淞南镇","lon":"121.4843","lat":"31.34131","category":"38","category_name":"公交车站","address":"上海宝山区淞南镇"},{"poiid":"B2094757D069A7F4429F","title":"祥腾生活广场","lon":"121.480338543","lat":"31.3400640394","category":"47","category_name":"住宅区","address":"宝山区淞发路901弄祥腾生活广场内(近长江南路)"},{"poiid":"B2094757D465A3FE4699","title":"宏亮海鲜大酒楼 淞发路店","lon":"121.483641054","lat":"31.341974793","category":"88","category_name":"海鲜酒楼","address":"宝山区淞发路918号世纪联华3楼(近长江南路)"},{"poiid":"B2094757D66EA6FB459F","title":"♥HÖmЁ♥","lon":"121.490882603","lat":"31.339821674","category":"500","category_name":"未知分类","address":null},{"poiid":"B2094757D068A0FA429E","title":"淞南三村","lon":"121.498","lat":"31.3495","category":"47","category_name":"住宅区","address":"淞南路301号"},{"poiid":"B2094757D064A6FE459F","title":"淞南七村","lon":"121.4885992726","lat":"31.339706632077","category":"500","category_name":"未知分类","address":"长逸路50弄"},{"poiid":"B2094757D06BA3FE499C","title":"淞南八村","lon":"121.487","lat":"31.3413","category":"252","category_name":"楼宇机构","address":"长江南路143号"},{"poiid":"B2094655D36DA7F5489B","title":"淞南四村","lon":"121.4980655202","lat":"31.35075517499","category":"38","category_name":"公交车站","address":"上海市上海宝山区淞南四村站淞南路长江路"},{"poiid":"B2094757D66BA3FA439F","title":"一崎碳烧 海伦生活广场店","lon":"121.4918308","lat":"31.3381991","category":"68","category_name":"快餐厅","address":"宝山区长逸路258号海伦精品生活广场1楼(近凇良路)"},{"poiid":"B2094757D069A6FB4793","title":"新城尚景","lon":"121.4817034","lat":"31.343563222","category":"47","category_name":"住宅区","address":"上海宝山区淞肇路333弄"},{"poiid":"B2094655D26BA2FC4593","title":"吴淞煤气厂","lon":"121.48918","lat":"31.34916","category":"38","category_name":"公交车站","address":""},{"poiid":"B2094654D469AAFC4592","title":"凇南三村","lon":"121.49083","lat":"31.34357","category":"47","category_name":"住宅区","address":"淞南镇"},{"poiid":"B2094757D569A6FF4098","title":"万临家园","lon":"121.48648","lat":"31.342659","category":"47","category_name":"住宅区","address":"淞发路500弄"},{"poiid":"B2094654D469AAFC4798","title":"长宏新苑","lon":"121.49244","lat":"31.342192","category":"47","category_name":"住宅区","address":"上海市普陀区武宁路492号"},{"poiid":"B2094757D465A1F84198","title":"豪皇海鲜大酒店","lon":"121.498222","lat":"31.340973","category":"72","category_name":"广东菜","address":"逸仙路3000号近长逸路"},{"poiid":"B2094655D26BA6FB459F","title":"淞宏苑","lon":"121.49118934705","lat":"31.349218369986","category":"47","category_name":"住宅区","address":"上海市宝山区卫生科路100弄"},{"poiid":"B2094757D068A6F94399","title":"上钢一厂","lon":"121.485162","lat":"31.34774","category":"263","category_name":"公司","address":"上海上钢一厂"},{"poiid":"B2094757D068A2FE4499","title":"淞南一村","lon":"121.492","lat":"31.3489","category":"252","category_name":"楼宇机构","address":"上海卫生科路"},{"poiid":"B2094757D064A1F8429C","title":"长江路","lon":"121.48506004","lat":"31.346489545","category":"500","category_name":"未知分类","address":"上海市宝山区长江路848弄"},{"poiid":"B2094757D168AAF44499","title":"本山大酒店","lon":"121.49062","lat":"31.34702","category":"76","category_name":"上海菜","address":"宝山区淞南路360号(近三号线淞发路站)"},{"poiid":"B2094654D46AA1FF4792","title":"贵金羊肉面馆","lon":"121.4859","lat":"31.34733","category":"68","category_name":"快餐厅","address":"宝山区淞良路532号(长江路口)"},{"poiid":"B2094655D36DA7FD4398","title":"张华浜","lon":"121.50039","lat":"31.35498","category":"38","category_name":"公交车站","address":""},{"poiid":"B2094757D069A2FD439F","title":"新梅淞南苑","lon":"121.49153","lat":"31.33849","category":"47","category_name":"住宅区","address":"上海市宝山区长逸路301弄"},{"poiid":"B2094757D069AAF4479A","title":"淞南镇社区卫生服务中心","lon":"121.48908448","lat":"31.342121041","category":"162","category_name":"医院","address":"宝山区淞良路301号(近淞南公园)"},{"poiid":"B2094750D26FA5F8459A","title":"凯德龙之梦（虹口）","lon":"121.490447","lat":"31.352376","category":"248","category_name":"生活娱乐","address":null},{"poiid":"B2094750D76DAAF8429F","title":"家香饭店","lon":"121.486","lat":"31.3465","category":"68","category_name":"快餐厅","address":"宝山区淞良路539号(近长江路)"},{"poiid":"B2094655D264A4FA429A","title":"淞南电影院","lon":"121.490667","lat":"31.347517","category":"178","category_name":"电影院","address":"长江路440弄23号"},{"poiid":"B2094654D46AA1FF4799","title":"家乡饭店(淞良路)","lon":"121.48613","lat":"31.34745","category":"257","category_name":"中餐厅","address":"淞南镇"},{"poiid":"B2094654D469AAFC459E","title":"上海市宝山区一钢医院","lon":"121.48574","lat":"31.34455","category":"162","category_name":"医院","address":"宝山区卫生科路111号"},{"poiid":"B2094654D46AA1FF479F","title":"快客(淞良路)","lon":"121.48582","lat":"31.34757","category":"117","category_name":"便民商店/便利店","address":""},{"poiid":"B2094757D66BA7F5499A","title":"老北京热气涮羊肉","lon":"121.48841","lat":"31.3422","category":"86","category_name":"火锅店","address":"杨浦区国和路971号"},{"poiid":"B2094654D46AA0F8449D","title":"宝山钢铁股份有限公司不锈钢分公司","lon":"121.48834","lat":"31.34847","category":"263","category_name":"公司","address":""},{"poiid":"B2094757D56EA6FC4799","title":"达芙妮-淞南店","lon":"121.488909","lat":"31.348683","category":"249","category_name":"购物服务","address":"宝山区长江南路651号世纪联华1搂(近淞发路)"},{"poiid":"B2094655D36CA5F9449C","title":"长江南路","lon":"121.48514","lat":"31.34772","category":"38","category_name":"公交车站","address":""},{"poiid":"B2094757D069A0FE4292","title":"国际节能环保园","lon":"121.48101","lat":"31.34614","category":"179","category_name":"音乐厅","address":"上海宝山区长江西路101号(近钢三路)  "},{"poiid":"B2094757D16AA3FB459B","title":"永顺和苏州汤包馆","lon":"121.490074103","lat":"31.345169986","category":"68","category_name":"快餐厅","address":"宝山区淞南路338号(近淞南三村门口)"},{"poiid":"B2094654D46AA1FF4692","title":"宏达百货","lon":"121.48625","lat":"31.34721","category":"119","category_name":"商场","address":""},{"poiid":"B2094655D36CA5F9459A","title":"长江路长江南路","lon":"121.48303","lat":"31.34703","category":"38","category_name":"公交车站","address":""},{"poiid":"B2094757D165A2FB499D","title":"湘沪风情","lon":"121.4847026","lat":"31.347030175","category":"77","category_name":"湖南菜","address":"宝山区淞良路534号(长江路淞良路)"},{"poiid":"B2094757D06AA2FF449D","title":"乐翻天KTV(淞南店)","lon":"121.483616","lat":"31.341068","category":"170","category_name":"KTV","address":"上海长江南路淞发路(祥腾生活广场)"},{"poiid":"B2094757D76AA6F8489C","title":"来伊份 淞良路店","lon":"121.485926","lat":"31.347291","category":"68","category_name":"快餐厅","address":"宝山区淞良路525号外房21号"},{"poiid":"B2094654D46AA1FF489A","title":"银利百货商场","lon":"121.48604","lat":"31.34714","category":"119","category_name":"商场","address":"长江路780弄29号"},{"poiid":"B2094654D46AA0F84599","title":"良友金伴NO.365","lon":"121.49279","lat":"31.35004","category":"117","category_name":"便民商店/便利店","address":"华浜新村57-2"},{"poiid":"B2094751D26BA2F8409E","title":"虹口龙之梦","lon":"121.487635","lat":"31.345108","category":"247","category_name":"餐饮美食","address":null},{"poiid":"B2094757D66AABFD429E","title":"品宴轩","lon":"121.481266054","lat":"31.343886793","category":"72","category_name":"广东菜","address":"宝山区长江南路717号(近淞发路)"},{"poiid":"B2094757D06FA1FE469B","title":"淞南公园","lon":"121.486744987","lat":"31.3410313325","category":"196","category_name":"公园","address":"上海宝山区淞良路300号(近淞发路)"},{"poiid":"B2094757D06FA3FC439B","title":"淞发路地铁站","lon":"121.500579","lat":"31.344674","category":"36","category_name":"地铁站","address":"上海轨道交通 三号线 轨交淞发路站 轻轨 3"},{"poiid":"B2094757D06FA6FC439E","title":"华浜新村","lon":"121.49277","lat":"31.350016","category":"47","category_name":"住宅区","address":"上海长江路军工路"},{"poiid":"B2094757D065AAFF409C","title":"汽車夢工場","lon":"121.50068383","lat":"31.349958154","category":"500","category_name":"未知分类","address":"上海市寶山區軍工路5169號"},{"poiid":"B2094757D06FA1FA4492","title":"建配龙家居商城","lon":"121.49426833","lat":"31.339484868","category":"123","category_name":"家具建材市场","address":"宝山区长逸路15号建配龙市场内(近逸仙路)"},{"poiid":"B2094655D36DA7F5489E","title":"淞南镇","lon":"121.4843","lat":"31.34131","category":"38","category_name":"公交车站","address":"上海宝山区淞南镇"},{"poiid":"B2094757D069A7F4429F","title":"祥腾生活广场","lon":"121.480338543","lat":"31.3400640394","category":"47","category_name":"住宅区","address":"宝山区淞发路901弄祥腾生活广场内(近长江南路)"},{"poiid":"B2094757D465A3FE4699","title":"宏亮海鲜大酒楼 淞发路店","lon":"121.483641054","lat":"31.341974793","category":"88","category_name":"海鲜酒楼","address":"宝山区淞发路918号世纪联华3楼(近长江南路)"},{"poiid":"B2094757D66EA6FB459F","title":"♥HÖmЁ♥","lon":"121.490882603","lat":"31.339821674","category":"500","category_name":"未知分类","address":null},{"poiid":"B2094757D068A0FA429E","title":"淞南三村","lon":"121.498","lat":"31.3495","category":"47","category_name":"住宅区","address":"淞南路301号"},{"poiid":"B2094757D064A6FE459F","title":"淞南七村","lon":"121.4885992726","lat":"31.339706632077","category":"500","category_name":"未知分类","address":"长逸路50弄"},{"poiid":"B2094757D06BA3FE499C","title":"淞南八村","lon":"121.487","lat":"31.3413","category":"252","category_name":"楼宇机构","address":"长江南路143号"},{"poiid":"B2094655D36DA7F5489B","title":"淞南四村","lon":"121.4980655202","lat":"31.35075517499","category":"38","category_name":"公交车站","address":"上海市上海宝山区淞南四村站淞南路长江路"},{"poiid":"B2094757D66BA3FA439F","title":"一崎碳烧 海伦生活广场店","lon":"121.4918308","lat":"31.3381991","category":"68","category_name":"快餐厅","address":"宝山区长逸路258号海伦精品生活广场1楼(近凇良路)"},{"poiid":"B2094757D069A6FB4793","title":"新城尚景","lon":"121.4817034","lat":"31.343563222","category":"47","category_name":"住宅区","address":"上海宝山区淞肇路333弄"},{"poiid":"B2094655D26BA2FC4593","title":"吴淞煤气厂","lon":"121.48918","lat":"31.34916","category":"38","category_name":"公交车站","address":""},{"poiid":"B2094654D469AAFC4592","title":"凇南三村","lon":"121.49083","lat":"31.34357","category":"47","category_name":"住宅区","address":"淞南镇"},{"poiid":"B2094757D569A6FF4098","title":"万临家园","lon":"121.48648","lat":"31.342659","category":"47","category_name":"住宅区","address":"淞发路500弄"},{"poiid":"B2094654D469AAFC4798","title":"长宏新苑","lon":"121.49244","lat":"31.342192","category":"47","category_name":"住宅区","address":"上海市普陀区武宁路492号"},{"poiid":"B2094757D465A1F84198","title":"豪皇海鲜大酒店","lon":"121.498222","lat":"31.340973","category":"72","category_name":"广东菜","address":"逸仙路3000号近长逸路"},{"poiid":"B2094655D26BA6FB459F","title":"淞宏苑","lon":"121.49118934705","lat":"31.349218369986","category":"47","category_name":"住宅区","address":"上海市宝山区卫生科路100弄"},{"poiid":"B2094757D068A6F94399","title":"上钢一厂","lon":"121.485162","lat":"31.34774","category":"263","category_name":"公司","address":"上海上钢一厂"},{"poiid":"B2094757D068A2FE4499","title":"淞南一村","lon":"121.492","lat":"31.3489","category":"252","category_name":"楼宇机构","address":"上海卫生科路"},{"poiid":"B2094757D064A1F8429C","title":"长江路","lon":"121.48506004","lat":"31.346489545","category":"500","category_name":"未知分类","address":"上海市宝山区长江路848弄"},{"poiid":"B2094757D168AAF44499","title":"本山大酒店","lon":"121.49062","lat":"31.34702","category":"76","category_name":"上海菜","address":"宝山区淞南路360号(近三号线淞发路站)"},{"poiid":"B2094654D46AA1FF4792","title":"贵金羊肉面馆","lon":"121.4859","lat":"31.34733","category":"68","category_name":"快餐厅","address":"宝山区淞良路532号(长江路口)"},{"poiid":"B2094655D36DA7FD4398","title":"张华浜","lon":"121.50039","lat":"31.35498","category":"38","category_name":"公交车站","address":""},{"poiid":"B2094757D069A2FD439F","title":"新梅淞南苑","lon":"121.49153","lat":"31.33849","category":"47","category_name":"住宅区","address":"上海市宝山区长逸路301弄"},{"poiid":"B2094757D069AAF4479A","title":"淞南镇社区卫生服务中心","lon":"121.48908448","lat":"31.342121041","category":"162","category_name":"医院","address":"宝山区淞良路301号(近淞南公园)"},{"poiid":"B2094750D26FA5F8459A","title":"凯德龙之梦（虹口）","lon":"121.490447","lat":"31.352376","category":"248","category_name":"生活娱乐","address":null},{"poiid":"B2094750D76DAAF8429F","title":"家香饭店","lon":"121.486","lat":"31.3465","category":"68","category_name":"快餐厅","address":"宝山区淞良路539号(近长江路)"},{"poiid":"B2094655D264A4FA429A","title":"淞南电影院","lon":"121.490667","lat":"31.347517","category":"178","category_name":"电影院","address":"长江路440弄23号"},{"poiid":"B2094654D46AA1FF4799","title":"家乡饭店(淞良路)","lon":"121.48613","lat":"31.34745","category":"257","category_name":"中餐厅","address":"淞南镇"},{"poiid":"B2094654D469AAFC459E","title":"上海市宝山区一钢医院","lon":"121.48574","lat":"31.34455","category":"162","category_name":"医院","address":"宝山区卫生科路111号"},{"poiid":"B2094654D46AA1FF479F","title":"快客(淞良路)","lon":"121.48582","lat":"31.34757","category":"117","category_name":"便民商店/便利店","address":""},{"poiid":"B2094757D66BA7F5499A","title":"老北京热气涮羊肉","lon":"121.48841","lat":"31.3422","category":"86","category_name":"火锅店","address":"杨浦区国和路971号"},{"poiid":"B2094654D46AA0F8449D","title":"宝山钢铁股份有限公司不锈钢分公司","lon":"121.48834","lat":"31.34847","category":"263","category_name":"公司","address":""},{"poiid":"B2094757D56EA6FC4799","title":"达芙妮-淞南店","lon":"121.488909","lat":"31.348683","category":"249","category_name":"购物服务","address":"宝山区长江南路651号世纪联华1搂(近淞发路)"},{"poiid":"B2094655D36CA5F9449C","title":"长江南路","lon":"121.48514","lat":"31.34772","category":"38","category_name":"公交车站","address":""},{"poiid":"B2094757D069A0FE4292","title":"国际节能环保园","lon":"121.48101","lat":"31.34614","category":"179","category_name":"音乐厅","address":"上海宝山区长江西路101号(近钢三路)  "},{"poiid":"B2094757D16AA3FB459B","title":"永顺和苏州汤包馆","lon":"121.490074103","lat":"31.345169986","category":"68","category_name":"快餐厅","address":"宝山区淞南路338号(近淞南三村门口)"},{"poiid":"B2094654D46AA1FF4692","title":"宏达百货","lon":"121.48625","lat":"31.34721","category":"119","category_name":"商场","address":""},{"poiid":"B2094655D36CA5F9459A","title":"长江路长江南路","lon":"121.48303","lat":"31.34703","category":"38","category_name":"公交车站","address":""},{"poiid":"B2094757D165A2FB499D","title":"湘沪风情","lon":"121.4847026","lat":"31.347030175","category":"77","category_name":"湖南菜","address":"宝山区淞良路534号(长江路淞良路)"},{"poiid":"B2094757D06AA2FF449D","title":"乐翻天KTV(淞南店)","lon":"121.483616","lat":"31.341068","category":"170","category_name":"KTV","address":"上海长江南路淞发路(祥腾生活广场)"},{"poiid":"B2094757D76AA6F8489C","title":"来伊份 淞良路店","lon":"121.485926","lat":"31.347291","category":"68","category_name":"快餐厅","address":"宝山区淞良路525号外房21号"},{"poiid":"B2094654D46AA1FF489A","title":"银利百货商场","lon":"121.48604","lat":"31.34714","category":"119","category_name":"商场","address":"长江路780弄29号"},{"poiid":"B2094654D46AA0F84599","title":"良友金伴NO.365","lon":"121.49279","lat":"31.35004","category":"117","category_name":"便民商店/便利店","address":"华浜新村57-2"},{"poiid":"B2094751D26BA2F8409E","title":"虹口龙之梦","lon":"121.487635","lat":"31.345108","category":"247","category_name":"餐饮美食","address":null},{"poiid":"B2094757D66AABFD429E","title":"品宴轩","lon":"121.481266054","lat":"31.343886793","category":"72","category_name":"广东菜","address":"宝山区长江南路717号(近淞发路)"}]