[{"poiid":"B2094757D06FA3FB409C","title":"吴泾","lon":"121.468906","lat":"31.042429","category":"260","category_name":"其他","address":"上海闵行区吴泾镇"},{"poiid":"B2094757D06FA5FB469C","title":"闵浦大桥","lon":"121.48068237","lat":"31.052547454","category":"260","category_name":"其他","address":"上海闵行区S32申嘉湖高速-闵行区S32申嘉湖高速"},{"poiid":"B2094757D06FA1FB489A","title":"万科花园小城","lon":"121.47425842","lat":"31.036663055","category":"47","category_name":"住宅区","address":"上海市闵行区龙吴路5688号"},{"poiid":"B2094757D068A2F84893","title":"吴泾体育场","lon":"121.466128485","lat":"31.0488376885","category":"220","category_name":"运动场所","address":"闵行区龙吴路5347号(近放鹤路)"},{"poiid":"B2094757D06FAAFB4999","title":"肯德基 KFC (吴泾店)","lon":"121.463986","lat":"31.042662","category":"68","category_name":"快餐厅","address":"闵行区吴泾镇宝秀路667号(宝秀路永德路)"},{"poiid":"B2094757D069A6FC4198","title":"吴泾医院","lon":"121.46771812","lat":"31.041532597","category":"162","category_name":"医院","address":"上海闵行区剑川路155号"},{"poiid":"B2094757D06AA5FF4693","title":"紫晶南苑","lon":"121.47682797834","lat":"31.037120845963","category":"47","category_name":"住宅区","address":"上海市闵行区广南路666号"},{"poiid":"B2094757D16AA5FE4699","title":"虹梅景苑","lon":"121.46727029658","lat":"31.048140770919","category":"47","category_name":"住宅区","address":"上海市闵行区尚义路448弄"},{"poiid":"B2094757D66AA4F44892","title":"部落情 剑川店","lon":"121.46638","lat":"31.04184","category":"86","category_name":"火锅店","address":"闵行区剑川路167号(宝秀路剑川路)"},{"poiid":"B2094757D068A1F9409F","title":"龙吴路剑川路","lon":"121.4677658","lat":"31.043998718","category":"500","category_name":"未知分类","address":"上海龙吴路剑川路"},{"poiid":"B2094757D16AAAFA409B","title":"派之星量贩式KTV","lon":"121.466659645","lat":"31.0411515709","category":"248","category_name":"生活娱乐","address":"上海闵行区剑川路165号(锦江之星院内)"},{"poiid":"B2094757D069AAF4449D","title":"悦亭酒店","lon":"121.467812508","lat":"31.0427550772","category":"76","category_name":"上海菜","address":"闵行区吴泾镇龙吴路5555号(近剑川路)"},{"poiid":"B2094655D26BA2FC4792","title":"吴泾渡口","lon":"121.47852","lat":"31.04586","category":"38","category_name":"公交车站","address":""},{"poiid":"B2094757D06AA5F44899","title":"阿荣实业片场","lon":"121.462005435","lat":"31.045099269","category":"263","category_name":"公司","address":"上海宝秀路"},{"poiid":"B2094655D264A7FB4599","title":"双柏小区","lon":"121.47237","lat":"31.044006","category":"47","category_name":"住宅区","address":"上海闵行区剑川路100弄"},{"poiid":"B2094654DB6EAAFF499B","title":"上海市建筑工程学校","lon":"121.46207","lat":"31.0624","category":"52","category_name":"高等院校","address":"龙吴路4989号"},{"poiid":"B2094757D064ABFA479B","title":"家裡","lon":"121.475455345","lat":"31.0462056836","category":"500","category_name":"未知分类","address":"上海窩！"},{"poiid":"B2094655D36CA0FA419F","title":"剑川路通海路","lon":"121.47386","lat":"31.04336","category":"38","category_name":"公交车站","address":""},{"poiid":"B2094757D76FA5F9409A","title":"世国烧烤","lon":"121.46617","lat":"31.04155","category":"68","category_name":"快餐厅","address":"闵行区剑川路150号(龙吴路宝秀路间)"},{"poiid":"B2094757D06BA2F84998","title":"氯碱小区","lon":"121.47433994","lat":"31.045272062","category":"47","category_name":"住宅区","address":"上海市闵行区剑川路50弄"},{"poiid":"B2094757D16FA2FF429B","title":"杜行渡口","lon":"121.485091","lat":"31.053036","category":"500","category_name":"未知分类","address":"上海市沈杜公路杜行渡口"},{"poiid":"B2094757D06AA1F4439E","title":"永德路步行衔","lon":"121.461725645","lat":"31.0425556022","category":"500","category_name":"未知分类","address":"上海市闵行区永德路"},{"poiid":"B2094757D465A0FA4593","title":"田都大酒店餐厅","lon":"121.466626054","lat":"31.047723793","category":"76","category_name":"上海菜","address":"闵行区龙吴路5388号(近放鹤路)"},{"poiid":"B2094654DB6EAAF8469F","title":"枫桦景苑(永德路)","lon":"121.46235","lat":"31.04283","category":"47","category_name":"住宅区","address":"剑川路"},{"poiid":"B2094655D26AA2FD449C","title":"盱眙虾趣龙虾城 龙吴路店","lon":"121.467589054","lat":"31.044706793","category":"87","category_name":"特色／地方风味餐厅","address":"闵行区龙吴路5496号(近剑川路)"},{"poiid":"B2094757D065A6F5429B","title":"可口可乐","lon":"121.48000376","lat":"31.047075563","category":"500","category_name":"未知分类","address":"上海紫月路1188号"},{"poiid":"B2094654DB6FA3FD4492","title":"伍玲酒楼","lon":"121.471700054","lat":"31.042903793","category":"76","category_name":"上海菜","address":"剑川路110号"},{"poiid":"B2094757D66DA7F8439F","title":"虹桥火车站28号站台","lon":"121.468683709","lat":"31.0483237801","category":"22","category_name":"火车站","address":"上海虹桥火车站28号站台"},{"poiid":"B2094757D168A6FB429A","title":"吴泾老饭店","lon":"121.46777514","lat":"31.046449889","category":"76","category_name":"上海菜","address":"闵行区龙吴路5484号(宝秀路永德路)"},{"poiid":"B2094655D26BA2FF4899","title":"通海路","lon":"121.47385","lat":"31.04337","category":"38","category_name":"公交车站","address":""},{"poiid":"B2094757D16BA7FA409F","title":"锦江之星(剑川路店)","lon":"121.46709964","lat":"31.042572602","category":"500","category_name":"未知分类","address":"上海市闵行区剑川路165号(近龙吴路)"},{"poiid":"B2094757D66CA4FA419C","title":"俺の家","lon":"121.47511864","lat":"31.044765651","category":"500","category_name":"未知分类","address":null},{"poiid":"B2094757D16DA5FA479C","title":"川聚餐饮 剑川路店","lon":"121.466789","lat":"31.041522","category":"71","category_name":"四川菜","address":"闵行区吴泾镇剑川路165号(近龙吴路)"},{"poiid":"B2094654DB6FA1FA499F","title":"苹果园(龙吴路)","lon":"121.46747","lat":"31.044","category":"112","category_name":"糕饼店","address":"闵行区龙吴路5525号(近永德路)"},{"poiid":"B2094757D16DABFC4693","title":"食尚骨头王 剑川路店","lon":"121.465630054","lat":"31.041129793","category":"86","category_name":"火锅店","address":"闵行区剑川路140弄3号(近龙吴路)"},{"poiid":"B2094757D06FAAFA4493","title":"吴泾第二发电有限责任公司","lon":"121.46533203","lat":"31.057905197","category":"263","category_name":"公司","address":"上海龙吴路5100号"},{"poiid":"B2094654DB6EAAFA419F","title":"新兰华","lon":"121.46495","lat":"31.04986","category":"257","category_name":"中餐厅","address":"塘湾镇"},{"poiid":"B2094757D169A0F8499C","title":"农业银行吴泾支行","lon":"121.472314","lat":"31.04543","category":"150","category_name":"银行","address":"上海剑川路141号"},{"poiid":"B2094757D068AAFB4693","title":"新华小区","lon":"121.46481078","lat":"31.038574973","category":"47","category_name":"住宅区","address":"上海市闵行区龙吴路5599弄"},{"poiid":"B2094757D06AA1F44498","title":"怪兽家","lon":"121.467756576","lat":"31.0517997557","category":"500","category_name":"未知分类","address":null},{"poiid":"B2094654DB6FA1FA4893","title":"吴泾商厦","lon":"121.46726","lat":"31.04475","category":"119","category_name":"商场","address":"龙吴路5485号"},{"poiid":"B2094654DB65AAF84799","title":"吴泾第二小学","lon":"121.46618","lat":"31.04945","category":"56","category_name":"小学","address":"闵行区龙吴路5300弄20号"},{"poiid":"B2094654DB6FA1FA4898","title":"大别山土菜馆吴泾店","lon":"121.46663","lat":"31.0471","category":"257","category_name":"中餐厅","address":""},{"poiid":"B2094757D66EA1FB429A","title":"青浦潮汕砂锅粥","lon":"121.468527609","lat":"31.04877669","category":"500","category_name":"未知分类","address":"上海青浦城中北路近公园路"},{"poiid":"B2094654DB6FA1F44699","title":"上海田都大酒店","lon":"121.46722","lat":"31.04697","category":"250","category_name":"公园户外","address":"闵行区龙吴路5388号"},{"poiid":"B2094655D36CA6F8489D","title":"放鹤路龙吴路","lon":"121.4648","lat":"31.04956","category":"38","category_name":"公交车站","address":""},{"poiid":"B2094757D064A7FB499C","title":"新亚大包永德路店","lon":"121.464981","lat":"31.042966","category":"68","category_name":"快餐厅","address":"闵行区吴泾镇永德路11号(农工商超市对面)"},{"poiid":"B2094655D26EA0FB4899","title":"中国移动吴泾营业厅","lon":"121.46799","lat":"31.04388","category":"151","category_name":"电讯营业厅","address":"龙吴路5540号"},{"poiid":"B2094757D168A4FB4598","title":"龙吴路放鹤路","lon":"121.46631622","lat":"31.049161911","category":"500","category_name":"未知分类","address":"上海龙吴路放鹤路"},{"poiid":"B2094654DB6EAAF8459E","title":"上海氯碱化工股份有限公司集体宿舍","lon":"121.46652","lat":"31.04741","category":"47","category_name":"住宅区","address":"龙吴路5395"},{"poiid":"B2094757D06FA3FB409C","title":"吴泾","lon":"121.468906","lat":"31.042429","category":"260","category_name":"其他","address":"上海闵行区吴泾镇"},{"poiid":"B2094757D06FA5FB469C","title":"闵浦大桥","lon":"121.48068237","lat":"31.052547454","category":"260","category_name":"其他","address":"上海闵行区S32申嘉湖高速-闵行区S32申嘉湖高速"},{"poiid":"B2094757D06FA1FB489A","title":"万科花园小城","lon":"121.47425842","lat":"31.036663055","category":"47","category_name":"住宅区","address":"上海市闵行区龙吴路5688号"},{"poiid":"B2094757D068A2F84893","title":"吴泾体育场","lon":"121.466128485","lat":"31.0488376885","category":"220","category_name":"运动场所","address":"闵行区龙吴路5347号(近放鹤路)"},{"poiid":"B2094757D06FAAFB4999","title":"肯德基 KFC (吴泾店)","lon":"121.463986","lat":"31.042662","category":"68","category_name":"快餐厅","address":"闵行区吴泾镇宝秀路667号(宝秀路永德路)"},{"poiid":"B2094757D069A6FC4198","title":"吴泾医院","lon":"121.46771812","lat":"31.041532597","category":"162","category_name":"医院","address":"上海闵行区剑川路155号"},{"poiid":"B2094757D06AA5FF4693","title":"紫晶南苑","lon":"121.47682797834","lat":"31.037120845963","category":"47","category_name":"住宅区","address":"上海市闵行区广南路666号"},{"poiid":"B2094757D16AA5FE4699","title":"虹梅景苑","lon":"121.46727029658","lat":"31.048140770919","category":"47","category_name":"住宅区","address":"上海市闵行区尚义路448弄"},{"poiid":"B2094757D66AA4F44892","title":"部落情 剑川店","lon":"121.46638","lat":"31.04184","category":"86","category_name":"火锅店","address":"闵行区剑川路167号(宝秀路剑川路)"},{"poiid":"B2094757D068A1F9409F","title":"龙吴路剑川路","lon":"121.4677658","lat":"31.043998718","category":"500","category_name":"未知分类","address":"上海龙吴路剑川路"},{"poiid":"B2094757D16AAAFA409B","title":"派之星量贩式KTV","lon":"121.466659645","lat":"31.0411515709","category":"248","category_name":"生活娱乐","address":"上海闵行区剑川路165号(锦江之星院内)"},{"poiid":"B2094757D069AAF4449D","title":"悦亭酒店","lon":"121.467812508","lat":"31.0427550772","category":"76","category_name":"上海菜","address":"闵行区吴泾镇龙吴路5555号(近剑川路)"},{"poiid":"B2094655D26BA2FC4792","title":"吴泾渡口","lon":"121.47852","lat":"31.04586","category":"38","category_name":"公交车站","address":""},{"poiid":"B2094757D06AA5F44899","title":"阿荣实业片场","lon":"121.462005435","lat":"31.045099269","category":"263","category_name":"公司","address":"上海宝秀路"},{"poiid":"B2094655D264A7FB4599","title":"双柏小区","lon":"121.47237","lat":"31.044006","category":"47","category_name":"住宅区","address":"上海闵行区剑川路100弄"},{"poiid":"B2094654DB6EAAFF499B","title":"上海市建筑工程学校","lon":"121.46207","lat":"31.0624","category":"52","category_name":"高等院校","address":"龙吴路4989号"},{"poiid":"B2094757D064ABFA479B","title":"家裡","lon":"121.475455345","lat":"31.0462056836","category":"500","category_name":"未知分类","address":"上海窩！"},{"poiid":"B2094655D36CA0FA419F","title":"剑川路通海路","lon":"121.47386","lat":"31.04336","category":"38","category_name":"公交车站","address":""},{"poiid":"B2094757D76FA5F9409A","title":"世国烧烤","lon":"121.46617","lat":"31.04155","category":"68","category_name":"快餐厅","address":"闵行区剑川路150号(龙吴路宝秀路间)"},{"poiid":"B2094757D06BA2F84998","title":"氯碱小区","lon":"121.47433994","lat":"31.045272062","category":"47","category_name":"住宅区","address":"上海市闵行区剑川路50弄"},{"poiid":"B2094757D16FA2FF429B","title":"杜行渡口","lon":"121.485091","lat":"31.053036","category":"500","category_name":"未知分类","address":"上海市沈杜公路杜行渡口"},{"poiid":"B2094757D06AA1F4439E","title":"永德路步行衔","lon":"121.461725645","lat":"31.0425556022","category":"500","category_name":"未知分类","address":"上海市闵行区永德路"},{"poiid":"B2094757D465A0FA4593","title":"田都大酒店餐厅","lon":"121.466626054","lat":"31.047723793","category":"76","category_name":"上海菜","address":"闵行区龙吴路5388号(近放鹤路)"},{"poiid":"B2094654DB6EAAF8469F","title":"枫桦景苑(永德路)","lon":"121.46235","lat":"31.04283","category":"47","category_name":"住宅区","address":"剑川路"},{"poiid":"B2094655D26AA2FD449C","title":"盱眙虾趣龙虾城 龙吴路店","lon":"121.467589054","lat":"31.044706793","category":"87","category_name":"特色／地方风味餐厅","address":"闵行区龙吴路5496号(近剑川路)"},{"poiid":"B2094757D065A6F5429B","title":"可口可乐","lon":"121.48000376","lat":"31.047075563","category":"500","category_name":"未知分类","address":"上海紫月路1188号"},{"poiid":"B2094654DB6FA3FD4492","title":"伍玲酒楼","lon":"121.471700054","lat":"31.042903793","category":"76","category_name":"上海菜","address":"剑川路110号"},{"poiid":"B2094757D66DA7F8439F","title":"虹桥火车站28号站台","lon":"121.468683709","lat":"31.0483237801","category":"22","category_name":"火车站","address":"上海虹桥火车站28号站台"},{"poiid":"B2094757D168A6FB429A","title":"吴泾老饭店","lon":"121.46777514","lat":"31.046449889","category":"76","category_name":"上海菜","address":"闵行区龙吴路5484号(宝秀路永德路)"},{"poiid":"B2094655D26BA2FF4899","title":"通海路","lon":"121.47385","lat":"31.04337","category":"38","category_name":"公交车站","address":""},{"poiid":"B2094757D16BA7FA409F","title":"锦江之星(剑川路店)","lon":"121.46709964","lat":"31.042572602","category":"500","category_name":"未知分类","address":"上海市闵行区剑川路165号(近龙吴路)"},{"poiid":"B2094757D66CA4FA419C","title":"俺の家","lon":"121.47511864","lat":"31.044765651","category":"500","category_name":"未知分类","address":null},{"poiid":"B2094757D16DA5FA479C","title":"川聚餐饮 剑川路店","lon":"121.466789","lat":"31.041522","category":"71","category_name":"四川菜","address":"闵行区吴泾镇剑川路165号(近龙吴路)"},{"poiid":"B2094654DB6FA1FA499F","title":"苹果园(龙吴路)","lon":"121.46747","lat":"31.044","category":"112","category_name":"糕饼店","address":"闵行区龙吴路5525号(近永德路)"},{"poiid":"B2094757D16DABFC4693","title":"食尚骨头王 剑川路店","lon":"121.465630054","lat":"31.041129793","category":"86","category_name":"火锅店","address":"闵行区剑川路140弄3号(近龙吴路)"},{"poiid":"B2094757D06FAAFA4493","title":"吴泾第二发电有限责任公司","lon":"121.46533203","lat":"31.057905197","category":"263","category_name":"公司","address":"上海龙吴路5100号"},{"poiid":"B2094654DB6EAAFA419F","title":"新兰华","lon":"121.46495","lat":"31.04986","category":"257","category_name":"中餐厅","address":"塘湾镇"},{"poiid":"B2094757D169A0F8499C","title":"农业银行吴泾支行","lon":"121.472314","lat":"31.04543","category":"150","category_name":"银行","address":"上海剑川路141号"},{"poiid":"B2094757D068AAFB4693","title":"新华小区","lon":"121.46481078","lat":"31.038574973","category":"47","category_name":"住宅区","address":"上海市闵行区龙吴路5599弄"},{"poiid":"B2094757D06AA1F44498","title":"怪兽家","lon":"121.467756576","lat":"31.0517997557","category":"500","category_name":"未知分类","address":null},{"poiid":"B2094654DB6FA1FA4893","title":"吴泾商厦","lon":"121.46726","lat":"31.04475","category":"119","category_name":"商场","address":"龙吴路5485号"},{"poiid":"B2094654DB65AAF84799","title":"吴泾第二小学","lon":"121.46618","lat":"31.04945","category":"56","category_name":"小学","address":"闵行区龙吴路5300弄20号"},{"poiid":"B2094654DB6FA1FA4898","title":"大别山土菜馆吴泾店","lon":"121.46663","lat":"31.0471","category":"257","category_name":"中餐厅","address":""},{"poiid":"B2094757D66EA1FB429A","title":"青浦潮汕砂锅粥","lon":"121.468527609","lat":"31.04877669","category":"500","category_name":"未知分类","address":"上海青浦城中北路近公园路"},{"poiid":"B2094654DB6FA1F44699","title":"上海田都大酒店","lon":"121.46722","lat":"31.04697","category":"250","category_name":"公园户外","address":"闵行区龙吴路5388号"},{"poiid":"B2094655D36CA6F8489D","title":"放鹤路龙吴路","lon":"121.4648","lat":"31.04956","category":"38","category_name":"公交车站","address":""},{"poiid":"B2094757D064A7FB499C","title":"新亚大包永德路店","lon":"121.464981","lat":"31.042966","category":"68","category_name":"快餐厅","address":"闵行区吴泾镇永德路11号(农工商超市对面)"},{"poiid":"B2094655D26EA0FB4899","title":"中国移动吴泾营业厅","lon":"121.46799","lat":"31.04388","category":"151","category_name":"电讯营业厅","address":"龙吴路5540号"},{"poiid":"B2094757D168A4FB4598","title":"龙吴路放鹤路","lon":"121.46631622","lat":"31.049161911","category":"500","category_name":"未知分类","address":"上海龙吴路放鹤路"},{"poiid":"B2094654DB6EAAF8459E","title":"上海氯碱化工股份有限公司集体宿舍","lon":"121.46652","lat":"31.04741","category":"47","category_name":"住宅区","address":"龙吴路5395"},{"poiid":"B2094757D06FA3FB409C","title":"吴泾","lon":"121.468906","lat":"31.042429","category":"260","category_name":"其他","address":"上海闵行区吴泾镇"},{"poiid":"B2094757D06FA5FB469C","title":"闵浦大桥","lon":"121.48068237","lat":"31.052547454","category":"260","category_name":"其他","address":"上海闵行区S32申嘉湖高速-闵行区S32申嘉湖高速"},{"poiid":"B2094757D06FA1FB489A","title":"万科花园小城","lon":"121.47425842","lat":"31.036663055","category":"47","category_name":"住宅区","address":"上海市闵行区龙吴路5688号"},{"poiid":"B2094757D068A2F84893","title":"吴泾体育场","lon":"121.466128485","lat":"31.0488376885","category":"220","category_name":"运动场所","address":"闵行区龙吴路5347号(近放鹤路)"},{"poiid":"B2094757D06FAAFB4999","title":"肯德基 KFC (吴泾店)","lon":"121.463986","lat":"31.042662","category":"68","category_name":"快餐厅","address":"闵行区吴泾镇宝秀路667号(宝秀路永德路)"},{"poiid":"B2094757D069A6FC4198","title":"吴泾医院","lon":"121.46771812","lat":"31.041532597","category":"162","category_name":"医院","address":"上海闵行区剑川路155号"},{"poiid":"B2094757D06AA5FF4693","title":"紫晶南苑","lon":"121.47682797834","lat":"31.037120845963","category":"47","category_name":"住宅区","address":"上海市闵行区广南路666号"},{"poiid":"B2094757D16AA5FE4699","title":"虹梅景苑","lon":"121.46727029658","lat":"31.048140770919","category":"47","category_name":"住宅区","address":"上海市闵行区尚义路448弄"},{"poiid":"B2094757D66AA4F44892","title":"部落情 剑川店","lon":"121.46638","lat":"31.04184","category":"86","category_name":"火锅店","address":"闵行区剑川路167号(宝秀路剑川路)"},{"poiid":"B2094757D068A1F9409F","title":"龙吴路剑川路","lon":"121.4677658","lat":"31.043998718","category":"500","category_name":"未知分类","address":"上海龙吴路剑川路"},{"poiid":"B2094757D16AAAFA409B","title":"派之星量贩式KTV","lon":"121.466659645","lat":"31.0411515709","category":"248","category_name":"生活娱乐","address":"上海闵行区剑川路165号(锦江之星院内)"},{"poiid":"B2094757D069AAF4449D","title":"悦亭酒店","lon":"121.467812508","lat":"31.0427550772","category":"76","category_name":"上海菜","address":"闵行区吴泾镇龙吴路5555号(近剑川路)"},{"poiid":"B2094655D26BA2FC4792","title":"吴泾渡口","lon":"121.47852","lat":"31.04586","category":"38","category_name":"公交车站","address":""},{"poiid":"B2094757D06AA5F44899","title":"阿荣实业片场","lon":"121.462005435","lat":"31.045099269","category":"263","category_name":"公司","address":"上海宝秀路"},{"poiid":"B2094655D264A7FB4599","title":"双柏小区","lon":"121.47237","lat":"31.044006","category":"47","category_name":"住宅区","address":"上海闵行区剑川路100弄"},{"poiid":"B2094654DB6EAAFF499B","title":"上海市建筑工程学校","lon":"121.46207","lat":"31.0624","category":"52","category_name":"高等院校","address":"龙吴路4989号"},{"poiid":"B2094757D064ABFA479B","title":"家裡","lon":"121.475455345","lat":"31.0462056836","category":"500","category_name":"未知分类","address":"上海窩！"},{"poiid":"B2094655D36CA0FA419F","title":"剑川路通海路","lon":"121.47386","lat":"31.04336","category":"38","category_name":"公交车站","address":""},{"poiid":"B2094757D76FA5F9409A","title":"世国烧烤","lon":"121.46617","lat":"31.04155","category":"68","category_name":"快餐厅","address":"闵行区剑川路150号(龙吴路宝秀路间)"},{"poiid":"B2094757D06BA2F84998","title":"氯碱小区","lon":"121.47433994","lat":"31.045272062","category":"47","category_name":"住宅区","address":"上海市闵行区剑川路50弄"},{"poiid":"B2094757D16FA2FF429B","title":"杜行渡口","lon":"121.485091","lat":"31.053036","category":"500","category_name":"未知分类","address":"上海市沈杜公路杜行渡口"},{"poiid":"B2094757D06AA1F4439E","title":"永德路步行衔","lon":"121.461725645","lat":"31.0425556022","category":"500","category_name":"未知分类","address":"上海市闵行区永德路"},{"poiid":"B2094757D465A0FA4593","title":"田都大酒店餐厅","lon":"121.466626054","lat":"31.047723793","category":"76","category_name":"上海菜","address":"闵行区龙吴路5388号(近放鹤路)"},{"poiid":"B2094654DB6EAAF8469F","title":"枫桦景苑(永德路)","lon":"121.46235","lat":"31.04283","category":"47","category_name":"住宅区","address":"剑川路"},{"poiid":"B2094655D26AA2FD449C","title":"盱眙虾趣龙虾城 龙吴路店","lon":"121.467589054","lat":"31.044706793","category":"87","category_name":"特色／地方风味餐厅","address":"闵行区龙吴路5496号(近剑川路)"},{"poiid":"B2094757D065A6F5429B","title":"可口可乐","lon":"121.48000376","lat":"31.047075563","category":"500","category_name":"未知分类","address":"上海紫月路1188号"},{"poiid":"B2094654DB6FA3FD4492","title":"伍玲酒楼","lon":"121.471700054","lat":"31.042903793","category":"76","category_name":"上海菜","address":"剑川路110号"},{"poiid":"B2094757D66DA7F8439F","title":"虹桥火车站28号站台","lon":"121.468683709","lat":"31.0483237801","category":"22","category_name":"火车站","address":"上海虹桥火车站28号站台"},{"poiid":"B2094757D168A6FB429A","title":"吴泾老饭店","lon":"121.46777514","lat":"31.046449889","category":"76","category_name":"上海菜","address":"闵行区龙吴路5484号(宝秀路永德路)"},{"poiid":"B2094655D26BA2FF4899","title":"通海路","lon":"121.47385","lat":"31.04337","category":"38","category_name":"公交车站","address":""},{"poiid":"B2094757D16BA7FA409F","title":"锦江之星(剑川路店)","lon":"121.46709964","lat":"31.042572602","category":"500","category_name":"未知分类","address":"上海市闵行区剑川路165号(近龙吴路)"},{"poiid":"B2094757D66CA4FA419C","title":"俺の家","lon":"121.47511864","lat":"31.044765651","category":"500","category_name":"未知分类","address":null},{"poiid":"B2094757D16DA5FA479C","title":"川聚餐饮 剑川路店","lon":"121.466789","lat":"31.041522","category":"71","category_name":"四川菜","address":"闵行区吴泾镇剑川路165号(近龙吴路)"},{"poiid":"B2094654DB6FA1FA499F","title":"苹果园(龙吴路)","lon":"121.46747","lat":"31.044","category":"112","category_name":"糕饼店","address":"闵行区龙吴路5525号(近永德路)"},{"poiid":"B2094757D16DABFC4693","title":"食尚骨头王 剑川路店","lon":"121.465630054","lat":"31.041129793","category":"86","category_name":"火锅店","address":"闵行区剑川路140弄3号(近龙吴路)"},{"poiid":"B2094757D06FAAFA4493","title":"吴泾第二发电有限责任公司","lon":"121.46533203","lat":"31.057905197","category":"263","category_name":"公司","address":"上海龙吴路5100号"},{"poiid":"B2094654DB6EAAFA419F","title":"新兰华","lon":"121.46495","lat":"31.04986","category":"257","category_name":"中餐厅","address":"塘湾镇"},{"poiid":"B2094757D169A0F8499C","title":"农业银行吴泾支行","lon":"121.472314","lat":"31.04543","category":"150","category_name":"银行","address":"上海剑川路141号"},{"poiid":"B2094757D068AAFB4693","title":"新华小区","lon":"121.46481078","lat":"31.038574973","category":"47","category_name":"住宅区","address":"上海市闵行区龙吴路5599弄"},{"poiid":"B2094757D06AA1F44498","title":"怪兽家","lon":"121.467756576","lat":"31.0517997557","category":"500","category_name":"未知分类","address":null},{"poiid":"B2094654DB6FA1FA4893","title":"吴泾商厦","lon":"121.46726","lat":"31.04475","category":"119","category_name":"商场","address":"龙吴路5485号"},{"poiid":"B2094654DB65AAF84799","title":"吴泾第二小学","lon":"121.46618","lat":"31.04945","category":"56","category_name":"小学","address":"闵行区龙吴路5300弄20号"},{"poiid":"B2094654DB6FA1FA4898","title":"大别山土菜馆吴泾店","lon":"121.46663","lat":"31.0471","category":"257","category_name":"中餐厅","address":""},{"poiid":"B2094757D66EA1FB429A","title":"青浦潮汕砂锅粥","lon":"121.468527609","lat":"31.04877669","category":"500","category_name":"未知分类","address":"上海青浦城中北路近公园路"},{"poiid":"B2094654DB6FA1F44699","title":"上海田都大酒店","lon":"121.46722","lat":"31.04697","category":"250","category_name":"公园户外","address":"闵行区龙吴路5388号"},{"poiid":"B2094655D36CA6F8489D","title":"放鹤路龙吴路","lon":"121.4648","lat":"31.04956","category":"38","category_name":"公交车站","address":""},{"poiid":"B2094757D064A7FB499C","title":"新亚大包永德路店","lon":"121.464981","lat":"31.042966","category":"68","category_name":"快餐厅","address":"闵行区吴泾镇永德路11号(农工商超市对面)"},{"poiid":"B2094655D26EA0FB4899","title":"中国移动吴泾营业厅","lon":"121.46799","lat":"31.04388","category":"151","category_name":"电讯营业厅","address":"龙吴路5540号"},{"poiid":"B2094757D168A4FB4598","title":"龙吴路放鹤路","lon":"121.46631622","lat":"31.049161911","category":"500","category_name":"未知分类","address":"上海龙吴路放鹤路"},{"poiid":"B2094654DB6EAAF8459E","title":"上海氯碱化工股份有限公司集体宿舍","lon":"121.46652","lat":"31.04741","category":"47","category_name":"住宅区","address":"龙吴路5395"},{"poiid":"B2094757D06FA3FB409C","title":"吴泾","lon":"121.468906","lat":"31.042429","category":"260","category_name":"其他","address":"上海闵行区吴泾镇"},{"poiid":"B2094757D06FA5FB469C","title":"闵浦大桥","lon":"121.48068237","lat":"31.052547454","category":"260","category_name":"其他","address":"上海闵行区S32申嘉湖高速-闵行区S32申嘉湖高速"},{"poiid":"B2094757D06FA1FB489A","title":"万科花园小城","lon":"121.47425842","lat":"31.036663055","category":"47","category_name":"住宅区","address":"上海市闵行区龙吴路5688号"},{"poiid":"B2094757D068A2F84893","title":"吴泾体育场","lon":"121.466128485","lat":"31.0488376885","category":"220","category_name":"运动场所","address":"闵行区龙吴路5347号(近放鹤路)"},{"poiid":"B2094757D06FAAFB4999","title":"肯德基 KFC (吴泾店)","lon":"121.463986","lat":"31.042662","category":"68","category_name":"快餐厅","address":"闵行区吴泾镇宝秀路667号(宝秀路永德路)"},{"poiid":"B2094757D069A6FC4198","title":"吴泾医院","lon":"121.46771812","lat":"31.041532597","category":"162","category_name":"医院","address":"上海闵行区剑川路155号"},{"poiid":"B2094757D06AA5FF4693","title":"紫晶南苑","lon":"121.47682797834","lat":"31.037120845963","category":"47","category_name":"住宅区","address":"上海市闵行区广南路666号"},{"poiid":"B2094757D16AA5FE4699","title":"虹梅景苑","lon":"121.46727029658","lat":"31.048140770919","category":"47","category_name":"住宅区","address":"上海市闵行区尚义路448弄"},{"poiid":"B2094757D66AA4F44892","title":"部落情 剑川店","lon":"121.46638","lat":"31.04184","category":"86","category_name":"火锅店","address":"闵行区剑川路167号(宝秀路剑川路)"},{"poiid":"B2094757D068A1F9409F","title":"龙吴路剑川路","lon":"121.4677658","lat":"31.043998718","category":"500","category_name":"未知分类","address":"上海龙吴路剑川路"},{"poiid":"B2094757D16AAAFA409B","title":"派之星量贩式KTV","lon":"121.466659645","lat":"31.0411515709","category":"248","category_name":"生活娱乐","address":"上海闵行区剑川路165号(锦江之星院内)"},{"poiid":"B2094757D069AAF4449D","title":"悦亭酒店","lon":"121.467812508","lat":"31.0427550772","category":"76","category_name":"上海菜","address":"闵行区吴泾镇龙吴路5555号(近剑川路)"},{"poiid":"B2094655D26BA2FC4792","title":"吴泾渡口","lon":"121.47852","lat":"31.04586","category":"38","category_name":"公交车站","address":""},{"poiid":"B2094757D06AA5F44899","title":"阿荣实业片场","lon":"121.462005435","lat":"31.045099269","category":"263","category_name":"公司","address":"上海宝秀路"},{"poiid":"B2094655D264A7FB4599","title":"双柏小区","lon":"121.47237","lat":"31.044006","category":"47","category_name":"住宅区","address":"上海闵行区剑川路100弄"},{"poiid":"B2094654DB6EAAFF499B","title":"上海市建筑工程学校","lon":"121.46207","lat":"31.0624","category":"52","category_name":"高等院校","address":"龙吴路4989号"},{"poiid":"B2094757D064ABFA479B","title":"家裡","lon":"121.475455345","lat":"31.0462056836","category":"500","category_name":"未知分类","address":"上海窩！"},{"poiid":"B2094655D36CA0FA419F","title":"剑川路通海路","lon":"121.47386","lat":"31.04336","category":"38","category_name":"公交车站","address":""},{"poiid":"B2094757D76FA5F9409A","title":"世国烧烤","lon":"121.46617","lat":"31.04155","category":"68","category_name":"快餐厅","address":"闵行区剑川路150号(龙吴路宝秀路间)"},{"poiid":"B2094757D06BA2F84998","title":"氯碱小区","lon":"121.47433994","lat":"31.045272062","category":"47","category_name":"住宅区","address":"上海市闵行区剑川路50弄"},{"poiid":"B2094757D16FA2FF429B","title":"杜行渡口","lon":"121.485091","lat":"31.053036","category":"500","category_name":"未知分类","address":"上海市沈杜公路杜行渡口"},{"poiid":"B2094757D06AA1F4439E","title":"永德路步行衔","lon":"121.461725645","lat":"31.0425556022","category":"500","category_name":"未知分类","address":"上海市闵行区永德路"},{"poiid":"B2094757D465A0FA4593","title":"田都大酒店餐厅","lon":"121.466626054","lat":"31.047723793","category":"76","category_name":"上海菜","address":"闵行区龙吴路5388号(近放鹤路)"},{"poiid":"B2094654DB6EAAF8469F","title":"枫桦景苑(永德路)","lon":"121.46235","lat":"31.04283","category":"47","category_name":"住宅区","address":"剑川路"},{"poiid":"B2094655D26AA2FD449C","title":"盱眙虾趣龙虾城 龙吴路店","lon":"121.467589054","lat":"31.044706793","category":"87","category_name":"特色／地方风味餐厅","address":"闵行区龙吴路5496号(近剑川路)"},{"poiid":"B2094757D065A6F5429B","title":"可口可乐","lon":"121.48000376","lat":"31.047075563","category":"500","category_name":"未知分类","address":"上海紫月路1188号"},{"poiid":"B2094654DB6FA3FD4492","title":"伍玲酒楼","lon":"121.471700054","lat":"31.042903793","category":"76","category_name":"上海菜","address":"剑川路110号"},{"poiid":"B2094757D66DA7F8439F","title":"虹桥火车站28号站台","lon":"121.468683709","lat":"31.0483237801","category":"22","category_name":"火车站","address":"上海虹桥火车站28号站台"},{"poiid":"B2094757D168A6FB429A","title":"吴泾老饭店","lon":"121.46777514","lat":"31.046449889","category":"76","category_name":"上海菜","address":"闵行区龙吴路5484号(宝秀路永德路)"},{"poiid":"B2094655D26BA2FF4899","title":"通海路","lon":"121.47385","lat":"31.04337","category":"38","category_name":"公交车站","address":""},{"poiid":"B2094757D16BA7FA409F","title":"锦江之星(剑川路店)","lon":"121.46709964","lat":"31.042572602","category":"500","category_name":"未知分类","address":"上海市闵行区剑川路165号(近龙吴路)"},{"poiid":"B2094757D66CA4FA419C","title":"俺の家","lon":"121.47511864","lat":"31.044765651","category":"500","category_name":"未知分类","address":null},{"poiid":"B2094757D16DA5FA479C","title":"川聚餐饮 剑川路店","lon":"121.466789","lat":"31.041522","category":"71","category_name":"四川菜","address":"闵行区吴泾镇剑川路165号(近龙吴路)"},{"poiid":"B2094654DB6FA1FA499F","title":"苹果园(龙吴路)","lon":"121.46747","lat":"31.044","category":"112","category_name":"糕饼店","address":"闵行区龙吴路5525号(近永德路)"},{"poiid":"B2094757D16DABFC4693","title":"食尚骨头王 剑川路店","lon":"121.465630054","lat":"31.041129793","category":"86","category_name":"火锅店","address":"闵行区剑川路140弄3号(近龙吴路)"},{"poiid":"B2094757D06FAAFA4493","title":"吴泾第二发电有限责任公司","lon":"121.46533203","lat":"31.057905197","category":"263","category_name":"公司","address":"上海龙吴路5100号"},{"poiid":"B2094654DB6EAAFA419F","title":"新兰华","lon":"121.46495","lat":"31.04986","category":"257","category_name":"中餐厅","address":"塘湾镇"},{"poiid":"B2094757D169A0F8499C","title":"农业银行吴泾支行","lon":"121.472314","lat":"31.04543","category":"150","category_name":"银行","address":"上海剑川路141号"},{"poiid":"B2094757D068AAFB4693","title":"新华小区","lon":"121.46481078","lat":"31.038574973","category":"47","category_name":"住宅区","address":"上海市闵行区龙吴路5599弄"},{"poiid":"B2094757D06AA1F44498","title":"怪兽家","lon":"121.467756576","lat":"31.0517997557","category":"500","category_name":"未知分类","address":null},{"poiid":"B2094654DB6FA1FA4893","title":"吴泾商厦","lon":"121.46726","lat":"31.04475","category":"119","category_name":"商场","address":"龙吴路5485号"},{"poiid":"B2094654DB65AAF84799","title":"吴泾第二小学","lon":"121.46618","lat":"31.04945","category":"56","category_name":"小学","address":"闵行区龙吴路5300弄20号"},{"poiid":"B2094654DB6FA1FA4898","title":"大别山土菜馆吴泾店","lon":"121.46663","lat":"31.0471","category":"257","category_name":"中餐厅","address":""},{"poiid":"B2094757D66EA1FB429A","title":"青浦潮汕砂锅粥","lon":"121.468527609","lat":"31.04877669","category":"500","category_name":"未知分类","address":"上海青浦城中北路近公园路"},{"poiid":"B2094654DB6FA1F44699","title":"上海田都大酒店","lon":"121.46722","lat":"31.04697","category":"250","category_name":"公园户外","address":"闵行区龙吴路5388号"},{"poiid":"B2094655D36CA6F8489D","title":"放鹤路龙吴路","lon":"121.4648","lat":"31.04956","category":"38","category_name":"公交车站","address":""},{"poiid":"B2094757D064A7FB499C","title":"新亚大包永德路店","lon":"121.464981","lat":"31.042966","category":"68","category_name":"快餐厅","address":"闵行区吴泾镇永德路11号(农工商超市对面)"},{"poiid":"B2094655D26EA0FB4899","title":"中国移动吴泾营业厅","lon":"121.46799","lat":"31.04388","category":"151","category_name":"电讯营业厅","address":"龙吴路5540号"},{"poiid":"B2094757D168A4FB4598","title":"龙吴路放鹤路","lon":"121.46631622","lat":"31.049161911","category":"500","category_name":"未知分类","address":"上海龙吴路放鹤路"},{"poiid":"B2094654DB6EAAF8459E","title":"上海氯碱化工股份有限公司集体宿舍","lon":"121.46652","lat":"31.04741","category":"47","category_name":"住宅区","address":"龙吴路5395"}]