[{"poiid":"B2094654DA6AA3FE479D","title":"上海浦东游泳馆","lon":"121.50572","lat":"31.18856","category":"231","category_name":"游泳馆","address":"浦东新区浦东南路3669号"},{"poiid":"B2094757D66FA6FB419F","title":"高科西路地铁站","lon":"121.509704","lat":"31.185786","category":"36","category_name":"地铁站","address":"上海轨道交通 六号线 七号线 轨交高科西路站 6 7"},{"poiid":"B2094757D06FA7FA4093","title":"浦东游泳馆新羽毛球馆","lon":"121.505721806","lat":"31.1885572023","category":"220","category_name":"运动场所","address":"浦东新区浦东南路3669号浦东游泳馆南门内(近沂林路)"},{"poiid":"B2094757D06FA7F44493","title":"浦东新区社会保险事业管理中心","lon":"121.50377231","lat":"31.185200481","category":"260","category_name":"其他","address":"上海浦东南路浦东南路3993号"},{"poiid":"B2094655D268A2FE4592","title":"上海市实验学校","lon":"121.50804","lat":"31.18301","category":"55","category_name":"中学","address":"浦东新区东明路300号(近齐河路)"},{"poiid":"B2094757D068A7FF4098","title":"一阳轩(高科西路店)","lon":"121.50404073","lat":"31.184218214","category":"72","category_name":"广东菜","address":"浦东新区世博园区高科西路551号6楼(近云莲路)"},{"poiid":"B2094654DA68A6FA4993","title":"浦东长途汽车客运总站","lon":"121.50264","lat":"31.18449","category":"35","category_name":"长途汽车站","address":"浦东新区浦东南路3843号(近莲南路)"},{"poiid":"B2094654DA6AA3F9439C","title":"世博大厦","lon":"121.50595","lat":"31.1911","category":"46","category_name":"楼宇","address":"上海浦东南路3588号"},{"poiid":"B2094757D06BA5FA439C","title":"高科西路","lon":"121.50241873","lat":"31.183264299","category":"260","category_name":"其他","address":"上海高科西路"},{"poiid":"B2094757D16DA5FA4398","title":"浦东新区社保中心","lon":"121.500264738","lat":"31.1834623041","category":"500","category_name":"未知分类","address":"上海市浦东新区浦东南路云台路"},{"poiid":"B2094757D068ABFD4493","title":"肯德基 KFC (浦东南路店)","lon":"121.502871552","lat":"31.1837174917","category":"68","category_name":"快餐厅","address":"浦东新区浦东南路3843号(高科西路口)"},{"poiid":"B2094757D06FABF4499F","title":"上南花苑","lon":"121.50368","lat":"31.180952","category":"47","category_name":"住宅区","address":"上海浦东新区齐河路257-259弄"},{"poiid":"B2094654DA6AA3FE4599","title":"宏博坊海鲜大酒楼","lon":"121.50926","lat":"31.18887","category":"88","category_name":"海鲜酒楼","address":"浦东新区东方路3641号(近临沂路)"},{"poiid":"B2094757D068A3F4409A","title":"西藏南路隧道","lon":"121.50355886","lat":"31.184528366","category":"260","category_name":"其他","address":"上海西藏南路隧道"},{"poiid":"B2094750D164ABFC4099","title":"三林体育中心","lon":"121.506317","lat":"31.182468","category":"250","category_name":"公园户外","address":"云莲路齐河路"},{"poiid":"B2094654DA6AA2F8459C","title":"上南花苑西苑","lon":"121.50429","lat":"31.18305","category":"47","category_name":"住宅区","address":"浦东南路3885弄"},{"poiid":"B2094757D069A3FF459A","title":"临沂公园","lon":"121.50754","lat":"31.18913","category":"196","category_name":"公园","address":"浦东新区东方路3683号(近浦东南路)"},{"poiid":"B2094655D26EA5FC4198","title":"星巴克(中融店)","lon":"121.5019","lat":"31.18414","category":"65","category_name":"咖啡厅","address":"浦东新区浦东南路1068号中融国际商城1楼"},{"poiid":"B2094655D26AA0F9479A","title":"地铁高科西路站","lon":"121.50979","lat":"31.18557","category":"36","category_name":"地铁站","address":""},{"poiid":"B2094655D26BA2F54599","title":"浦东南路高科西路","lon":"121.5028","lat":"31.18555","category":"38","category_name":"公交车站","address":""},{"poiid":"B2094750D768A7FD4098","title":"喜阁亭","lon":"121.505","lat":"31.1849","category":"76","category_name":"上海菜","address":"浦东新区高科西路611号(近东明路)"},{"poiid":"B2094655D265A0FD499B","title":"上海歌城中融店","lon":"121.5019","lat":"31.18414","category":"170","category_name":"KTV","address":"浦东南路1078号中融国际商场7层"},{"poiid":"B2094757D06FA4FB4492","title":"上海世博会事务协调局","lon":"121.50553894","lat":"31.191095352","category":"46","category_name":"楼宇","address":"上海浦东南路3588号"},{"poiid":"B2094757D064A0F9499F","title":"瀚锦苑","lon":"121.505","lat":"31.1852","category":"252","category_name":"楼宇机构","address":"上海浦东新区洪山路1889弄"},{"poiid":"B2094757D06BA5F94799","title":"顾惠面馆","lon":"121.50215","lat":"31.18312","category":"68","category_name":"快餐厅","address":"浦东新区浦东南路3903号(近云台路)"},{"poiid":"B2094750D164A3FB499D","title":"上海浦东世博星程精品金尚酒店","lon":"121.504245140487","lat":"31.1846108567224","category":"214","category_name":"四星级宾馆","address":"上海浦东新区高科西路551号"},{"poiid":"B2094654DA68A6FA429A","title":"雪野家园","lon":"121.49998","lat":"31.18418","category":"47","category_name":"住宅区","address":"上海浦东新区浦东南路4200-4250弄(近云台路)"},{"poiid":"B2094654DA68A6FB409C","title":"上电实业大厦","lon":"121.50438","lat":"31.18473","category":"46","category_name":"楼宇","address":"高科西路551"},{"poiid":"B2094757DA65A5F54792","title":"如家快捷酒店（上海高科西路世博园店）","lon":"121.510296464","lat":"31.185361774","category":"216","category_name":"经济型连锁酒店","address":"上海市浦东新区高科西路726号"},{"poiid":"B2094655D265A1F5479A","title":"小尾羊(浦东南路店)","lon":"121.50168","lat":"31.18385","category":"86","category_name":"火锅店","address":"浦东南路2100号(塘桥路口)"},{"poiid":"B2094750D26EA2FA4093","title":"大悦城","lon":"121.503593","lat":"31.190885","category":"500","category_name":"未知分类","address":"西藏南路曲阜路"},{"poiid":"B2094654DA6AA3FE4798","title":"天意洲家园","lon":"121.50825","lat":"31.187544","category":"47","category_name":"住宅区","address":"上海市浦东新区栖山路1876弄"},{"poiid":"B2094757D16CA3F9499D","title":"尚电大厦","lon":"121.504388738","lat":"31.1842683212","category":"252","category_name":"楼宇机构","address":"上海浦东高科西路551号"},{"poiid":"B2094655D265A1FE469C","title":"钱柜(浦东旗舰店)","lon":"121.50189","lat":"31.18413","category":"170","category_name":"KTV","address":"浦东南路1118号上海湾国际大厦B1层"},{"poiid":"B2094655D26BA3FB449E","title":"久斯台球天地","lon":"121.50573","lat":"31.18856","category":"171","category_name":"台球厅","address":"浦东新区浦东南路3669号浦东游泳馆2楼(近东方路)"},{"poiid":"B2094753D468A4F94699","title":"三林游泳馆","lon":"121.505798","lat":"31.182657","category":"220","category_name":"运动场所","address":"上海市 云莲路201号（三林体育中心内）"},{"poiid":"B2094655D36DA6FD429C","title":"高科西路","lon":"121.50978","lat":"31.1858","category":"38","category_name":"公交车站","address":""},{"poiid":"B2094654DA6AA3FE499E","title":"上海乔家栅小吃世界No.10","lon":"121.50607","lat":"31.19061","category":"68","category_name":"快餐厅","address":"浦东新区浦东南路3633号(东方路口)"},{"poiid":"B2094753D66DA6FF489F","title":"上海世博金尚精品酒店","lon":"121.504431","lat":"31.184956","category":"214","category_name":"四星级宾馆","address":"高科西路551号"},{"poiid":"B2094654DA6AA2F8459E","title":"上海大众长江汽车销售服务有限公司","lon":"121.50459","lat":"31.18395","category":"158","category_name":"汽车销售","address":"浦东新区白莲泾毛家宅1号(高科西路云莲路)"},{"poiid":"B2094757D16FA2FE469B","title":"上海长途汽车站白莲泾站","lon":"121.503100552","lat":"31.183725491","category":"500","category_name":"未知分类","address":"上海浦东南路3843号"},{"poiid":"B2094757D06AA6FD449F","title":"世博白莲泾出入口","lon":"121.50255584","lat":"31.184223175","category":"500","category_name":"未知分类","address":"上海白莲泾"},{"poiid":"B2094655D26DA7FA4993","title":"华南名苑","lon":"121.5041","lat":"31.18997","category":"47","category_name":"住宅区","address":"上海市浦东新区浦东南路3666号"},{"poiid":"B2094655D26AA7FA469C","title":"G&A健身俱乐部浦东店","lon":"121.50573","lat":"31.18856","category":"247","category_name":"餐饮美食","address":"浦东新区浦东南路3669号浦东游泳馆3楼"},{"poiid":"B2094757D06AABFD449F","title":"中国馆班车2线","lon":"121.507145","lat":"31.187262","category":"38","category_name":"公交车站","address":"白莲泾路浦东南路—上海南站(北广场)"},{"poiid":"B2094654DA68A6FA4893","title":"博文园","lon":"121.50232","lat":"31.183067","category":"47","category_name":"住宅区","address":"浦东南路3905弄1-36号"},{"poiid":"B2094753D56AA1FD449E","title":"飞扬滑冰场","lon":"121.506721","lat":"31.181941","category":"220","category_name":"运动场所","address":"上海市 齐河路471号"},{"poiid":"B2094655D264A4F8409A","title":"好美家浦南店","lon":"121.50284","lat":"31.18508","category":"123","category_name":"家具建材市场","address":"浦东南路3799号"},{"poiid":"B2094655D264A0F8459B","title":"交运巴士长途汽车站白莲泾站","lon":"121.50264","lat":"31.18449","category":"35","category_name":"长途汽车站","address":"浦东南路3843号"},{"poiid":"B2094655D36CA7FD419A","title":"华丰路","lon":"121.50477","lat":"31.18903","category":"38","category_name":"公交车站","address":""},{"poiid":"B2094654DA6AA3FE479D","title":"上海浦东游泳馆","lon":"121.50572","lat":"31.18856","category":"231","category_name":"游泳馆","address":"浦东新区浦东南路3669号"},{"poiid":"B2094757D66FA6FB419F","title":"高科西路地铁站","lon":"121.509704","lat":"31.185786","category":"36","category_name":"地铁站","address":"上海轨道交通 六号线 七号线 轨交高科西路站 6 7"},{"poiid":"B2094757D06FA7FA4093","title":"浦东游泳馆新羽毛球馆","lon":"121.505721806","lat":"31.1885572023","category":"220","category_name":"运动场所","address":"浦东新区浦东南路3669号浦东游泳馆南门内(近沂林路)"},{"poiid":"B2094757D06FA7F44493","title":"浦东新区社会保险事业管理中心","lon":"121.50377231","lat":"31.185200481","category":"260","category_name":"其他","address":"上海浦东南路浦东南路3993号"},{"poiid":"B2094655D268A2FE4592","title":"上海市实验学校","lon":"121.50804","lat":"31.18301","category":"55","category_name":"中学","address":"浦东新区东明路300号(近齐河路)"},{"poiid":"B2094757D068A7FF4098","title":"一阳轩(高科西路店)","lon":"121.50404073","lat":"31.184218214","category":"72","category_name":"广东菜","address":"浦东新区世博园区高科西路551号6楼(近云莲路)"},{"poiid":"B2094654DA68A6FA4993","title":"浦东长途汽车客运总站","lon":"121.50264","lat":"31.18449","category":"35","category_name":"长途汽车站","address":"浦东新区浦东南路3843号(近莲南路)"},{"poiid":"B2094654DA6AA3F9439C","title":"世博大厦","lon":"121.50595","lat":"31.1911","category":"46","category_name":"楼宇","address":"上海浦东南路3588号"},{"poiid":"B2094757D06BA5FA439C","title":"高科西路","lon":"121.50241873","lat":"31.183264299","category":"260","category_name":"其他","address":"上海高科西路"},{"poiid":"B2094757D16DA5FA4398","title":"浦东新区社保中心","lon":"121.500264738","lat":"31.1834623041","category":"500","category_name":"未知分类","address":"上海市浦东新区浦东南路云台路"},{"poiid":"B2094757D068ABFD4493","title":"肯德基 KFC (浦东南路店)","lon":"121.502871552","lat":"31.1837174917","category":"68","category_name":"快餐厅","address":"浦东新区浦东南路3843号(高科西路口)"},{"poiid":"B2094757D06FABF4499F","title":"上南花苑","lon":"121.50368","lat":"31.180952","category":"47","category_name":"住宅区","address":"上海浦东新区齐河路257-259弄"},{"poiid":"B2094654DA6AA3FE4599","title":"宏博坊海鲜大酒楼","lon":"121.50926","lat":"31.18887","category":"88","category_name":"海鲜酒楼","address":"浦东新区东方路3641号(近临沂路)"},{"poiid":"B2094757D068A3F4409A","title":"西藏南路隧道","lon":"121.50355886","lat":"31.184528366","category":"260","category_name":"其他","address":"上海西藏南路隧道"},{"poiid":"B2094750D164ABFC4099","title":"三林体育中心","lon":"121.506317","lat":"31.182468","category":"250","category_name":"公园户外","address":"云莲路齐河路"},{"poiid":"B2094654DA6AA2F8459C","title":"上南花苑西苑","lon":"121.50429","lat":"31.18305","category":"47","category_name":"住宅区","address":"浦东南路3885弄"},{"poiid":"B2094757D069A3FF459A","title":"临沂公园","lon":"121.50754","lat":"31.18913","category":"196","category_name":"公园","address":"浦东新区东方路3683号(近浦东南路)"},{"poiid":"B2094655D26EA5FC4198","title":"星巴克(中融店)","lon":"121.5019","lat":"31.18414","category":"65","category_name":"咖啡厅","address":"浦东新区浦东南路1068号中融国际商城1楼"},{"poiid":"B2094655D26AA0F9479A","title":"地铁高科西路站","lon":"121.50979","lat":"31.18557","category":"36","category_name":"地铁站","address":""},{"poiid":"B2094655D26BA2F54599","title":"浦东南路高科西路","lon":"121.5028","lat":"31.18555","category":"38","category_name":"公交车站","address":""},{"poiid":"B2094750D768A7FD4098","title":"喜阁亭","lon":"121.505","lat":"31.1849","category":"76","category_name":"上海菜","address":"浦东新区高科西路611号(近东明路)"},{"poiid":"B2094655D265A0FD499B","title":"上海歌城中融店","lon":"121.5019","lat":"31.18414","category":"170","category_name":"KTV","address":"浦东南路1078号中融国际商场7层"},{"poiid":"B2094757D06FA4FB4492","title":"上海世博会事务协调局","lon":"121.50553894","lat":"31.191095352","category":"46","category_name":"楼宇","address":"上海浦东南路3588号"},{"poiid":"B2094757D064A0F9499F","title":"瀚锦苑","lon":"121.505","lat":"31.1852","category":"252","category_name":"楼宇机构","address":"上海浦东新区洪山路1889弄"},{"poiid":"B2094757D06BA5F94799","title":"顾惠面馆","lon":"121.50215","lat":"31.18312","category":"68","category_name":"快餐厅","address":"浦东新区浦东南路3903号(近云台路)"},{"poiid":"B2094750D164A3FB499D","title":"上海浦东世博星程精品金尚酒店","lon":"121.504245140487","lat":"31.1846108567224","category":"214","category_name":"四星级宾馆","address":"上海浦东新区高科西路551号"},{"poiid":"B2094654DA68A6FA429A","title":"雪野家园","lon":"121.49998","lat":"31.18418","category":"47","category_name":"住宅区","address":"上海浦东新区浦东南路4200-4250弄(近云台路)"},{"poiid":"B2094654DA68A6FB409C","title":"上电实业大厦","lon":"121.50438","lat":"31.18473","category":"46","category_name":"楼宇","address":"高科西路551"},{"poiid":"B2094757DA65A5F54792","title":"如家快捷酒店（上海高科西路世博园店）","lon":"121.510296464","lat":"31.185361774","category":"216","category_name":"经济型连锁酒店","address":"上海市浦东新区高科西路726号"},{"poiid":"B2094655D265A1F5479A","title":"小尾羊(浦东南路店)","lon":"121.50168","lat":"31.18385","category":"86","category_name":"火锅店","address":"浦东南路2100号(塘桥路口)"},{"poiid":"B2094750D26EA2FA4093","title":"大悦城","lon":"121.503593","lat":"31.190885","category":"500","category_name":"未知分类","address":"西藏南路曲阜路"},{"poiid":"B2094654DA6AA3FE4798","title":"天意洲家园","lon":"121.50825","lat":"31.187544","category":"47","category_name":"住宅区","address":"上海市浦东新区栖山路1876弄"},{"poiid":"B2094757D16CA3F9499D","title":"尚电大厦","lon":"121.504388738","lat":"31.1842683212","category":"252","category_name":"楼宇机构","address":"上海浦东高科西路551号"},{"poiid":"B2094655D265A1FE469C","title":"钱柜(浦东旗舰店)","lon":"121.50189","lat":"31.18413","category":"170","category_name":"KTV","address":"浦东南路1118号上海湾国际大厦B1层"},{"poiid":"B2094655D26BA3FB449E","title":"久斯台球天地","lon":"121.50573","lat":"31.18856","category":"171","category_name":"台球厅","address":"浦东新区浦东南路3669号浦东游泳馆2楼(近东方路)"},{"poiid":"B2094753D468A4F94699","title":"三林游泳馆","lon":"121.505798","lat":"31.182657","category":"220","category_name":"运动场所","address":"上海市 云莲路201号（三林体育中心内）"},{"poiid":"B2094655D36DA6FD429C","title":"高科西路","lon":"121.50978","lat":"31.1858","category":"38","category_name":"公交车站","address":""},{"poiid":"B2094654DA6AA3FE499E","title":"上海乔家栅小吃世界No.10","lon":"121.50607","lat":"31.19061","category":"68","category_name":"快餐厅","address":"浦东新区浦东南路3633号(东方路口)"},{"poiid":"B2094753D66DA6FF489F","title":"上海世博金尚精品酒店","lon":"121.504431","lat":"31.184956","category":"214","category_name":"四星级宾馆","address":"高科西路551号"},{"poiid":"B2094654DA6AA2F8459E","title":"上海大众长江汽车销售服务有限公司","lon":"121.50459","lat":"31.18395","category":"158","category_name":"汽车销售","address":"浦东新区白莲泾毛家宅1号(高科西路云莲路)"},{"poiid":"B2094757D16FA2FE469B","title":"上海长途汽车站白莲泾站","lon":"121.503100552","lat":"31.183725491","category":"500","category_name":"未知分类","address":"上海浦东南路3843号"},{"poiid":"B2094757D06AA6FD449F","title":"世博白莲泾出入口","lon":"121.50255584","lat":"31.184223175","category":"500","category_name":"未知分类","address":"上海白莲泾"},{"poiid":"B2094655D26DA7FA4993","title":"华南名苑","lon":"121.5041","lat":"31.18997","category":"47","category_name":"住宅区","address":"上海市浦东新区浦东南路3666号"},{"poiid":"B2094655D26AA7FA469C","title":"G&A健身俱乐部浦东店","lon":"121.50573","lat":"31.18856","category":"247","category_name":"餐饮美食","address":"浦东新区浦东南路3669号浦东游泳馆3楼"},{"poiid":"B2094757D06AABFD449F","title":"中国馆班车2线","lon":"121.507145","lat":"31.187262","category":"38","category_name":"公交车站","address":"白莲泾路浦东南路—上海南站(北广场)"},{"poiid":"B2094654DA68A6FA4893","title":"博文园","lon":"121.50232","lat":"31.183067","category":"47","category_name":"住宅区","address":"浦东南路3905弄1-36号"},{"poiid":"B2094753D56AA1FD449E","title":"飞扬滑冰场","lon":"121.506721","lat":"31.181941","category":"220","category_name":"运动场所","address":"上海市 齐河路471号"},{"poiid":"B2094655D264A4F8409A","title":"好美家浦南店","lon":"121.50284","lat":"31.18508","category":"123","category_name":"家具建材市场","address":"浦东南路3799号"},{"poiid":"B2094655D264A0F8459B","title":"交运巴士长途汽车站白莲泾站","lon":"121.50264","lat":"31.18449","category":"35","category_name":"长途汽车站","address":"浦东南路3843号"},{"poiid":"B2094655D36CA7FD419A","title":"华丰路","lon":"121.50477","lat":"31.18903","category":"38","category_name":"公交车站","address":""},{"poiid":"B2094654DA6AA3FE479D","title":"上海浦东游泳馆","lon":"121.50572","lat":"31.18856","category":"231","category_name":"游泳馆","address":"浦东新区浦东南路3669号"},{"poiid":"B2094757D66FA6FB419F","title":"高科西路地铁站","lon":"121.509704","lat":"31.185786","category":"36","category_name":"地铁站","address":"上海轨道交通 六号线 七号线 轨交高科西路站 6 7"},{"poiid":"B2094757D06FA7FA4093","title":"浦东游泳馆新羽毛球馆","lon":"121.505721806","lat":"31.1885572023","category":"220","category_name":"运动场所","address":"浦东新区浦东南路3669号浦东游泳馆南门内(近沂林路)"},{"poiid":"B2094757D06FA7F44493","title":"浦东新区社会保险事业管理中心","lon":"121.50377231","lat":"31.185200481","category":"260","category_name":"其他","address":"上海浦东南路浦东南路3993号"},{"poiid":"B2094655D268A2FE4592","title":"上海市实验学校","lon":"121.50804","lat":"31.18301","category":"55","category_name":"中学","address":"浦东新区东明路300号(近齐河路)"},{"poiid":"B2094757D068A7FF4098","title":"一阳轩(高科西路店)","lon":"121.50404073","lat":"31.184218214","category":"72","category_name":"广东菜","address":"浦东新区世博园区高科西路551号6楼(近云莲路)"},{"poiid":"B2094654DA68A6FA4993","title":"浦东长途汽车客运总站","lon":"121.50264","lat":"31.18449","category":"35","category_name":"长途汽车站","address":"浦东新区浦东南路3843号(近莲南路)"},{"poiid":"B2094654DA6AA3F9439C","title":"世博大厦","lon":"121.50595","lat":"31.1911","category":"46","category_name":"楼宇","address":"上海浦东南路3588号"},{"poiid":"B2094757D06BA5FA439C","title":"高科西路","lon":"121.50241873","lat":"31.183264299","category":"260","category_name":"其他","address":"上海高科西路"},{"poiid":"B2094757D16DA5FA4398","title":"浦东新区社保中心","lon":"121.500264738","lat":"31.1834623041","category":"500","category_name":"未知分类","address":"上海市浦东新区浦东南路云台路"},{"poiid":"B2094757D068ABFD4493","title":"肯德基 KFC (浦东南路店)","lon":"121.502871552","lat":"31.1837174917","category":"68","category_name":"快餐厅","address":"浦东新区浦东南路3843号(高科西路口)"},{"poiid":"B2094757D06FABF4499F","title":"上南花苑","lon":"121.50368","lat":"31.180952","category":"47","category_name":"住宅区","address":"上海浦东新区齐河路257-259弄"},{"poiid":"B2094654DA6AA3FE4599","title":"宏博坊海鲜大酒楼","lon":"121.50926","lat":"31.18887","category":"88","category_name":"海鲜酒楼","address":"浦东新区东方路3641号(近临沂路)"},{"poiid":"B2094757D068A3F4409A","title":"西藏南路隧道","lon":"121.50355886","lat":"31.184528366","category":"260","category_name":"其他","address":"上海西藏南路隧道"},{"poiid":"B2094750D164ABFC4099","title":"三林体育中心","lon":"121.506317","lat":"31.182468","category":"250","category_name":"公园户外","address":"云莲路齐河路"},{"poiid":"B2094654DA6AA2F8459C","title":"上南花苑西苑","lon":"121.50429","lat":"31.18305","category":"47","category_name":"住宅区","address":"浦东南路3885弄"},{"poiid":"B2094757D069A3FF459A","title":"临沂公园","lon":"121.50754","lat":"31.18913","category":"196","category_name":"公园","address":"浦东新区东方路3683号(近浦东南路)"},{"poiid":"B2094655D26EA5FC4198","title":"星巴克(中融店)","lon":"121.5019","lat":"31.18414","category":"65","category_name":"咖啡厅","address":"浦东新区浦东南路1068号中融国际商城1楼"},{"poiid":"B2094655D26AA0F9479A","title":"地铁高科西路站","lon":"121.50979","lat":"31.18557","category":"36","category_name":"地铁站","address":""},{"poiid":"B2094655D26BA2F54599","title":"浦东南路高科西路","lon":"121.5028","lat":"31.18555","category":"38","category_name":"公交车站","address":""},{"poiid":"B2094750D768A7FD4098","title":"喜阁亭","lon":"121.505","lat":"31.1849","category":"76","category_name":"上海菜","address":"浦东新区高科西路611号(近东明路)"},{"poiid":"B2094655D265A0FD499B","title":"上海歌城中融店","lon":"121.5019","lat":"31.18414","category":"170","category_name":"KTV","address":"浦东南路1078号中融国际商场7层"},{"poiid":"B2094757D06FA4FB4492","title":"上海世博会事务协调局","lon":"121.50553894","lat":"31.191095352","category":"46","category_name":"楼宇","address":"上海浦东南路3588号"},{"poiid":"B2094757D064A0F9499F","title":"瀚锦苑","lon":"121.505","lat":"31.1852","category":"252","category_name":"楼宇机构","address":"上海浦东新区洪山路1889弄"},{"poiid":"B2094757D06BA5F94799","title":"顾惠面馆","lon":"121.50215","lat":"31.18312","category":"68","category_name":"快餐厅","address":"浦东新区浦东南路3903号(近云台路)"},{"poiid":"B2094750D164A3FB499D","title":"上海浦东世博星程精品金尚酒店","lon":"121.504245140487","lat":"31.1846108567224","category":"214","category_name":"四星级宾馆","address":"上海浦东新区高科西路551号"},{"poiid":"B2094654DA68A6FA429A","title":"雪野家园","lon":"121.49998","lat":"31.18418","category":"47","category_name":"住宅区","address":"上海浦东新区浦东南路4200-4250弄(近云台路)"},{"poiid":"B2094654DA68A6FB409C","title":"上电实业大厦","lon":"121.50438","lat":"31.18473","category":"46","category_name":"楼宇","address":"高科西路551"},{"poiid":"B2094757DA65A5F54792","title":"如家快捷酒店（上海高科西路世博园店）","lon":"121.510296464","lat":"31.185361774","category":"216","category_name":"经济型连锁酒店","address":"上海市浦东新区高科西路726号"},{"poiid":"B2094655D265A1F5479A","title":"小尾羊(浦东南路店)","lon":"121.50168","lat":"31.18385","category":"86","category_name":"火锅店","address":"浦东南路2100号(塘桥路口)"},{"poiid":"B2094750D26EA2FA4093","title":"大悦城","lon":"121.503593","lat":"31.190885","category":"500","category_name":"未知分类","address":"西藏南路曲阜路"},{"poiid":"B2094654DA6AA3FE4798","title":"天意洲家园","lon":"121.50825","lat":"31.187544","category":"47","category_name":"住宅区","address":"上海市浦东新区栖山路1876弄"},{"poiid":"B2094757D16CA3F9499D","title":"尚电大厦","lon":"121.504388738","lat":"31.1842683212","category":"252","category_name":"楼宇机构","address":"上海浦东高科西路551号"},{"poiid":"B2094655D265A1FE469C","title":"钱柜(浦东旗舰店)","lon":"121.50189","lat":"31.18413","category":"170","category_name":"KTV","address":"浦东南路1118号上海湾国际大厦B1层"},{"poiid":"B2094655D26BA3FB449E","title":"久斯台球天地","lon":"121.50573","lat":"31.18856","category":"171","category_name":"台球厅","address":"浦东新区浦东南路3669号浦东游泳馆2楼(近东方路)"},{"poiid":"B2094753D468A4F94699","title":"三林游泳馆","lon":"121.505798","lat":"31.182657","category":"220","category_name":"运动场所","address":"上海市 云莲路201号（三林体育中心内）"},{"poiid":"B2094655D36DA6FD429C","title":"高科西路","lon":"121.50978","lat":"31.1858","category":"38","category_name":"公交车站","address":""},{"poiid":"B2094654DA6AA3FE499E","title":"上海乔家栅小吃世界No.10","lon":"121.50607","lat":"31.19061","category":"68","category_name":"快餐厅","address":"浦东新区浦东南路3633号(东方路口)"},{"poiid":"B2094753D66DA6FF489F","title":"上海世博金尚精品酒店","lon":"121.504431","lat":"31.184956","category":"214","category_name":"四星级宾馆","address":"高科西路551号"},{"poiid":"B2094654DA6AA2F8459E","title":"上海大众长江汽车销售服务有限公司","lon":"121.50459","lat":"31.18395","category":"158","category_name":"汽车销售","address":"浦东新区白莲泾毛家宅1号(高科西路云莲路)"},{"poiid":"B2094757D16FA2FE469B","title":"上海长途汽车站白莲泾站","lon":"121.503100552","lat":"31.183725491","category":"500","category_name":"未知分类","address":"上海浦东南路3843号"},{"poiid":"B2094757D06AA6FD449F","title":"世博白莲泾出入口","lon":"121.50255584","lat":"31.184223175","category":"500","category_name":"未知分类","address":"上海白莲泾"},{"poiid":"B2094655D26DA7FA4993","title":"华南名苑","lon":"121.5041","lat":"31.18997","category":"47","category_name":"住宅区","address":"上海市浦东新区浦东南路3666号"},{"poiid":"B2094655D26AA7FA469C","title":"G&A健身俱乐部浦东店","lon":"121.50573","lat":"31.18856","category":"247","category_name":"餐饮美食","address":"浦东新区浦东南路3669号浦东游泳馆3楼"},{"poiid":"B2094757D06AABFD449F","title":"中国馆班车2线","lon":"121.507145","lat":"31.187262","category":"38","category_name":"公交车站","address":"白莲泾路浦东南路—上海南站(北广场)"},{"poiid":"B2094654DA68A6FA4893","title":"博文园","lon":"121.50232","lat":"31.183067","category":"47","category_name":"住宅区","address":"浦东南路3905弄1-36号"},{"poiid":"B2094753D56AA1FD449E","title":"飞扬滑冰场","lon":"121.506721","lat":"31.181941","category":"220","category_name":"运动场所","address":"上海市 齐河路471号"},{"poiid":"B2094655D264A4F8409A","title":"好美家浦南店","lon":"121.50284","lat":"31.18508","category":"123","category_name":"家具建材市场","address":"浦东南路3799号"},{"poiid":"B2094655D264A0F8459B","title":"交运巴士长途汽车站白莲泾站","lon":"121.50264","lat":"31.18449","category":"35","category_name":"长途汽车站","address":"浦东南路3843号"},{"poiid":"B2094655D36CA7FD419A","title":"华丰路","lon":"121.50477","lat":"31.18903","category":"38","category_name":"公交车站","address":""},{"poiid":"B2094654DA6AA3FE479D","title":"上海浦东游泳馆","lon":"121.50572","lat":"31.18856","category":"231","category_name":"游泳馆","address":"浦东新区浦东南路3669号"},{"poiid":"B2094757D66FA6FB419F","title":"高科西路地铁站","lon":"121.509704","lat":"31.185786","category":"36","category_name":"地铁站","address":"上海轨道交通 六号线 七号线 轨交高科西路站 6 7"},{"poiid":"B2094757D06FA7FA4093","title":"浦东游泳馆新羽毛球馆","lon":"121.505721806","lat":"31.1885572023","category":"220","category_name":"运动场所","address":"浦东新区浦东南路3669号浦东游泳馆南门内(近沂林路)"},{"poiid":"B2094757D06FA7F44493","title":"浦东新区社会保险事业管理中心","lon":"121.50377231","lat":"31.185200481","category":"260","category_name":"其他","address":"上海浦东南路浦东南路3993号"},{"poiid":"B2094655D268A2FE4592","title":"上海市实验学校","lon":"121.50804","lat":"31.18301","category":"55","category_name":"中学","address":"浦东新区东明路300号(近齐河路)"},{"poiid":"B2094757D068A7FF4098","title":"一阳轩(高科西路店)","lon":"121.50404073","lat":"31.184218214","category":"72","category_name":"广东菜","address":"浦东新区世博园区高科西路551号6楼(近云莲路)"},{"poiid":"B2094654DA68A6FA4993","title":"浦东长途汽车客运总站","lon":"121.50264","lat":"31.18449","category":"35","category_name":"长途汽车站","address":"浦东新区浦东南路3843号(近莲南路)"},{"poiid":"B2094654DA6AA3F9439C","title":"世博大厦","lon":"121.50595","lat":"31.1911","category":"46","category_name":"楼宇","address":"上海浦东南路3588号"},{"poiid":"B2094757D06BA5FA439C","title":"高科西路","lon":"121.50241873","lat":"31.183264299","category":"260","category_name":"其他","address":"上海高科西路"},{"poiid":"B2094757D16DA5FA4398","title":"浦东新区社保中心","lon":"121.500264738","lat":"31.1834623041","category":"500","category_name":"未知分类","address":"上海市浦东新区浦东南路云台路"},{"poiid":"B2094757D068ABFD4493","title":"肯德基 KFC (浦东南路店)","lon":"121.502871552","lat":"31.1837174917","category":"68","category_name":"快餐厅","address":"浦东新区浦东南路3843号(高科西路口)"},{"poiid":"B2094757D06FABF4499F","title":"上南花苑","lon":"121.50368","lat":"31.180952","category":"47","category_name":"住宅区","address":"上海浦东新区齐河路257-259弄"},{"poiid":"B2094654DA6AA3FE4599","title":"宏博坊海鲜大酒楼","lon":"121.50926","lat":"31.18887","category":"88","category_name":"海鲜酒楼","address":"浦东新区东方路3641号(近临沂路)"},{"poiid":"B2094757D068A3F4409A","title":"西藏南路隧道","lon":"121.50355886","lat":"31.184528366","category":"260","category_name":"其他","address":"上海西藏南路隧道"},{"poiid":"B2094750D164ABFC4099","title":"三林体育中心","lon":"121.506317","lat":"31.182468","category":"250","category_name":"公园户外","address":"云莲路齐河路"},{"poiid":"B2094654DA6AA2F8459C","title":"上南花苑西苑","lon":"121.50429","lat":"31.18305","category":"47","category_name":"住宅区","address":"浦东南路3885弄"},{"poiid":"B2094757D069A3FF459A","title":"临沂公园","lon":"121.50754","lat":"31.18913","category":"196","category_name":"公园","address":"浦东新区东方路3683号(近浦东南路)"},{"poiid":"B2094655D26EA5FC4198","title":"星巴克(中融店)","lon":"121.5019","lat":"31.18414","category":"65","category_name":"咖啡厅","address":"浦东新区浦东南路1068号中融国际商城1楼"},{"poiid":"B2094655D26AA0F9479A","title":"地铁高科西路站","lon":"121.50979","lat":"31.18557","category":"36","category_name":"地铁站","address":""},{"poiid":"B2094655D26BA2F54599","title":"浦东南路高科西路","lon":"121.5028","lat":"31.18555","category":"38","category_name":"公交车站","address":""},{"poiid":"B2094750D768A7FD4098","title":"喜阁亭","lon":"121.505","lat":"31.1849","category":"76","category_name":"上海菜","address":"浦东新区高科西路611号(近东明路)"},{"poiid":"B2094655D265A0FD499B","title":"上海歌城中融店","lon":"121.5019","lat":"31.18414","category":"170","category_name":"KTV","address":"浦东南路1078号中融国际商场7层"},{"poiid":"B2094757D06FA4FB4492","title":"上海世博会事务协调局","lon":"121.50553894","lat":"31.191095352","category":"46","category_name":"楼宇","address":"上海浦东南路3588号"},{"poiid":"B2094757D064A0F9499F","title":"瀚锦苑","lon":"121.505","lat":"31.1852","category":"252","category_name":"楼宇机构","address":"上海浦东新区洪山路1889弄"},{"poiid":"B2094757D06BA5F94799","title":"顾惠面馆","lon":"121.50215","lat":"31.18312","category":"68","category_name":"快餐厅","address":"浦东新区浦东南路3903号(近云台路)"},{"poiid":"B2094750D164A3FB499D","title":"上海浦东世博星程精品金尚酒店","lon":"121.504245140487","lat":"31.1846108567224","category":"214","category_name":"四星级宾馆","address":"上海浦东新区高科西路551号"},{"poiid":"B2094654DA68A6FA429A","title":"雪野家园","lon":"121.49998","lat":"31.18418","category":"47","category_name":"住宅区","address":"上海浦东新区浦东南路4200-4250弄(近云台路)"},{"poiid":"B2094654DA68A6FB409C","title":"上电实业大厦","lon":"121.50438","lat":"31.18473","category":"46","category_name":"楼宇","address":"高科西路551"},{"poiid":"B2094757DA65A5F54792","title":"如家快捷酒店（上海高科西路世博园店）","lon":"121.510296464","lat":"31.185361774","category":"216","category_name":"经济型连锁酒店","address":"上海市浦东新区高科西路726号"},{"poiid":"B2094655D265A1F5479A","title":"小尾羊(浦东南路店)","lon":"121.50168","lat":"31.18385","category":"86","category_name":"火锅店","address":"浦东南路2100号(塘桥路口)"},{"poiid":"B2094750D26EA2FA4093","title":"大悦城","lon":"121.503593","lat":"31.190885","category":"500","category_name":"未知分类","address":"西藏南路曲阜路"},{"poiid":"B2094654DA6AA3FE4798","title":"天意洲家园","lon":"121.50825","lat":"31.187544","category":"47","category_name":"住宅区","address":"上海市浦东新区栖山路1876弄"},{"poiid":"B2094757D16CA3F9499D","title":"尚电大厦","lon":"121.504388738","lat":"31.1842683212","category":"252","category_name":"楼宇机构","address":"上海浦东高科西路551号"},{"poiid":"B2094655D265A1FE469C","title":"钱柜(浦东旗舰店)","lon":"121.50189","lat":"31.18413","category":"170","category_name":"KTV","address":"浦东南路1118号上海湾国际大厦B1层"},{"poiid":"B2094655D26BA3FB449E","title":"久斯台球天地","lon":"121.50573","lat":"31.18856","category":"171","category_name":"台球厅","address":"浦东新区浦东南路3669号浦东游泳馆2楼(近东方路)"},{"poiid":"B2094753D468A4F94699","title":"三林游泳馆","lon":"121.505798","lat":"31.182657","category":"220","category_name":"运动场所","address":"上海市 云莲路201号（三林体育中心内）"},{"poiid":"B2094655D36DA6FD429C","title":"高科西路","lon":"121.50978","lat":"31.1858","category":"38","category_name":"公交车站","address":""},{"poiid":"B2094654DA6AA3FE499E","title":"上海乔家栅小吃世界No.10","lon":"121.50607","lat":"31.19061","category":"68","category_name":"快餐厅","address":"浦东新区浦东南路3633号(东方路口)"},{"poiid":"B2094753D66DA6FF489F","title":"上海世博金尚精品酒店","lon":"121.504431","lat":"31.184956","category":"214","category_name":"四星级宾馆","address":"高科西路551号"},{"poiid":"B2094654DA6AA2F8459E","title":"上海大众长江汽车销售服务有限公司","lon":"121.50459","lat":"31.18395","category":"158","category_name":"汽车销售","address":"浦东新区白莲泾毛家宅1号(高科西路云莲路)"},{"poiid":"B2094757D16FA2FE469B","title":"上海长途汽车站白莲泾站","lon":"121.503100552","lat":"31.183725491","category":"500","category_name":"未知分类","address":"上海浦东南路3843号"},{"poiid":"B2094757D06AA6FD449F","title":"世博白莲泾出入口","lon":"121.50255584","lat":"31.184223175","category":"500","category_name":"未知分类","address":"上海白莲泾"},{"poiid":"B2094655D26DA7FA4993","title":"华南名苑","lon":"121.5041","lat":"31.18997","category":"47","category_name":"住宅区","address":"上海市浦东新区浦东南路3666号"},{"poiid":"B2094655D26AA7FA469C","title":"G&A健身俱乐部浦东店","lon":"121.50573","lat":"31.18856","category":"247","category_name":"餐饮美食","address":"浦东新区浦东南路3669号浦东游泳馆3楼"},{"poiid":"B2094757D06AABFD449F","title":"中国馆班车2线","lon":"121.507145","lat":"31.187262","category":"38","category_name":"公交车站","address":"白莲泾路浦东南路—上海南站(北广场)"},{"poiid":"B2094654DA68A6FA4893","title":"博文园","lon":"121.50232","lat":"31.183067","category":"47","category_name":"住宅区","address":"浦东南路3905弄1-36号"},{"poiid":"B2094753D56AA1FD449E","title":"飞扬滑冰场","lon":"121.506721","lat":"31.181941","category":"220","category_name":"运动场所","address":"上海市 齐河路471号"},{"poiid":"B2094655D264A4F8409A","title":"好美家浦南店","lon":"121.50284","lat":"31.18508","category":"123","category_name":"家具建材市场","address":"浦东南路3799号"},{"poiid":"B2094655D264A0F8459B","title":"交运巴士长途汽车站白莲泾站","lon":"121.50264","lat":"31.18449","category":"35","category_name":"长途汽车站","address":"浦东南路3843号"},{"poiid":"B2094655D36CA7FD419A","title":"华丰路","lon":"121.50477","lat":"31.18903","category":"38","category_name":"公交车站","address":""}]