[{"poiid":"B2094752D06EA3FB4792","title":"极乐汤","lon":"121.600227","lat":"31.249919","category":"248","category_name":"生活娱乐","address":"浦东新区新金桥路600号"},{"poiid":"B2094757D06FA7F4419A","title":"新金桥路金藏路","lon":"121.5987091","lat":"31.248832702","category":"38","category_name":"公交车站","address":"上海新金桥路金藏路"},{"poiid":"B2094654DB6BA1F9479B","title":"圣莎大酒店","lon":"121.60013","lat":"31.25265","category":"217","category_name":"旅馆招待所","address":"上海浦东新区金新路99号"},{"poiid":"B2094757D068A7F8499C","title":"佳友维景大酒店","lon":"121.59724729","lat":"31.247203359","category":"217","category_name":"旅馆招待所","address":"上海市浦东新区新金桥路159号(近金桥路)"},{"poiid":"B2094757D068A5F44093","title":"上海大饭堂","lon":"121.59970233","lat":"31.251746837","category":"76","category_name":"上海菜","address":"浦东新区浙桥路200号(近金新路)"},{"poiid":"B2094752D16CABFA4098","title":"极乐汤碧云温泉馆","lon":"121.600174","lat":"31.250107","category":"248","category_name":"生活娱乐","address":"新金桥路600号"},{"poiid":"B2094757DA6BABF4409F","title":"碧云公馆","lon":"121.599491","lat":"31.25091","category":"252","category_name":"楼宇机构","address":"浦东浙桥路289弄(近杨高中路,金海路口)"},{"poiid":"B2094655D26FA7FE409F","title":"浦东公安分局交通警察支队四大队","lon":"121.59924","lat":"31.25491","category":"250","category_name":"公园户外","address":"杨高中路100、110"},{"poiid":"B2094757D06FAAFD499E","title":"佳友维景大酒店宴会厅","lon":"121.5967","lat":"31.24755","category":"217","category_name":"旅馆招待所","address":"浦东新区新金桥路159号(近金藏路)查看地图"},{"poiid":"B2094752D16FA2FC409A","title":"极樂汤","lon":"121.600093","lat":"31.250086","category":"247","category_name":"餐饮美食","address":"上海市新金桥路600号"},{"poiid":"B2094757D169AAFF499E","title":"上海金桥高尔夫俱乐部","lon":"121.602146339","lat":"31.2494287843","category":"500","category_name":"未知分类","address":"浦东新区新金桥路775号"},{"poiid":"B2094752D06DAAFA429E","title":"极乐汤碧云温泉馆","lon":"121.596011","lat":"31.252186","category":"248","category_name":"生活娱乐","address":"上海市浦东新区新金桥路600号"},{"poiid":"B2094654DB64A6F4499D","title":"格林豪泰上海浦东金桥酒店","lon":"121.60021","lat":"31.25183","category":"216","category_name":"经济型连锁酒店","address":"上海市浦东新区浙桥路277号(近杨高中路)"},{"poiid":"B2094757D069A7FA499D","title":"金桥名都","lon":"121.59626","lat":"31.254126","category":"47","category_name":"住宅区","address":"上海市浦东新区浦东大道26弄"},{"poiid":"B2094655D26BA7F94992","title":"惠普综合大楼","lon":"121.59994","lat":"31.2463","category":"46","category_name":"楼宇","address":"金藏路351号"},{"poiid":"B2094757D064A1F9409F","title":"电讯盈科","lon":"121.59867233","lat":"31.248694767","category":"249","category_name":"购物服务","address":"新金桥路金藏路222号"},{"poiid":"B2094654DB69A5FF4399","title":"莫泰168连锁旅店(新金桥路店)","lon":"121.59775","lat":"31.24797","category":"216","category_name":"经济型连锁酒店","address":"上海市浦东新区新金桥路179号（近金藏路）"},{"poiid":"B2094655D26AA1F4499D","title":"汉庭快捷酒店新金桥店","lon":"121.59763","lat":"31.24899","category":"247","category_name":"餐饮美食","address":"上海浦东新区新金桥路230号17-6(近金藏路)"},{"poiid":"B2094757DB69A1FE409F","title":"鱼美人大酒店","lon":"121.59747","lat":"31.24991","category":"72","category_name":"广东菜","address":"浦东新区浙桥路200号(近金藏路)"},{"poiid":"B2094757D16CABF5459D","title":"香香桂林米粉(新金桥路店)","lon":"121.59947","lat":"31.24902","category":"68","category_name":"快餐厅","address":"浦东新区新金桥路255号(近金藏路)"},{"poiid":"B2094654DA6AA1FA489E","title":"浦东民航大厦","lon":"121.597","lat":"31.2507","category":"46","category_name":"楼宇","address":"上海市黄浦区南京东路409-459号"},{"poiid":"B2094757D66EABFC4799","title":"佰味知客","lon":"121.598408339","lat":"31.2481155541","category":"68","category_name":"快餐厅","address":"浦东新区浙桥路19号"},{"poiid":"B2094757D76DA0FD4392","title":"美林阁 金桥店","lon":"121.59800399575","lat":"31.248306650962","category":"76","category_name":"上海菜","address":"浦东新区新金桥路179号(近金藏路)"},{"poiid":"B2094750D76CAAF54999","title":"禾月日式铁板烧","lon":"121.6","lat":"31.2525","category":"269","category_name":"烧烤","address":"浦东新区金新路99号最佳西方浦东圣莎大酒店2楼(近杨高中路)"},{"poiid":"B2094654DA6AA7FA449C","title":"上海浦东国际培训中心教学楼","lon":"121.5969","lat":"31.24516","category":"46","category_name":"楼宇","address":""},{"poiid":"B2094757D069A1FA4292","title":"全家便利新金桥店","lon":"121.59805552","lat":"31.248482675","category":"117","category_name":"便民商店/便利店","address":"上海新金桥路230号T17-7底层D区"},{"poiid":"B2094655D26FA4F8429B","title":"雅斯酒店连锁(上海金桥酒店公寓)","lon":"121.59646","lat":"31.25053","category":"216","category_name":"经济型连锁酒店","address":"上海市浦东新区金藏路51号(近新金桥路)"},{"poiid":"B2094753D46CA3FF4298","title":"極楽湯","lon":"121.600013","lat":"31.249507","category":"247","category_name":"餐饮美食","address":"上海市 新金桥路600号"},{"poiid":"B2094654D568ABFA4099","title":"浦东新区国家税务局第二十二税务所","lon":"121.59857","lat":"31.24799","category":"250","category_name":"公园户外","address":"新金桥路201"},{"poiid":"B2094757D068A1F44593","title":"交通银行（新区支行）","lon":"121.5989658","lat":"31.249395163","category":"150","category_name":"银行","address":"上海新金桥路260号"},{"poiid":"B2094655D265A5F84693","title":"莱卡大厦","lon":"121.59831","lat":"31.24735","category":"46","category_name":"楼宇","address":"金藏路258号"},{"poiid":"B2094654DB6BA1F9439E","title":"金桥出口加工区17号","lon":"121.59904","lat":"31.24931","category":"45","category_name":"产业园区","address":"新金桥路230(1-8)"},{"poiid":"B2094757D66BA6F44898","title":"巴罗莎西餐厅","lon":"121.59707263301","lat":"31.247717926271","category":"268","category_name":"自助","address":"浦东新区新金桥路159号佳友维景大酒店1楼(近金藏路)"},{"poiid":"B2094654DA6AA1F9499F","title":"金桥出口加工区20号","lon":"121.59831","lat":"31.24735","category":"45","category_name":"产业园区","address":"金藏路258(1-5)"},{"poiid":"B2094757D06BA6FB459B","title":"福特汽车福银4S店","lon":"121.60238097","lat":"31.243333367","category":"500","category_name":"未知分类","address":"上海市浦东新区川桥路200号"},{"poiid":"B2094757D069A3FF4599","title":"中国建设银行（金桥支行）","lon":"121.596949739","lat":"31.2486174657","category":"150","category_name":"银行","address":"浦东新区新金桥路196号(金藏路新金桥路)"},{"poiid":"B2094750D664A5F9419C","title":"大头仔特色海鲜面馆","lon":"121.597","lat":"31.2502","category":"68","category_name":"快餐厅","address":"浦东新区浙桥路21号(近金藏路)"},{"poiid":"B2094654D568ABFA4098","title":"浦东新区地方税务局第五税务所","lon":"121.59857","lat":"31.24799","category":"250","category_name":"公园户外","address":"新金桥路201"},{"poiid":"B2094654D568ABFA409F","title":"浦东新区国家税务局第二十三税务所","lon":"121.59857","lat":"31.248","category":"250","category_name":"公园户外","address":"新金桥路201"},{"poiid":"B2094654D568ABFA409C","title":"浦东新区地方税务局第二十三税务所","lon":"121.59857","lat":"31.24799","category":"250","category_name":"公园户外","address":"新金桥路201"},{"poiid":"B2094757D06AAAF94598","title":"Office park 湖和3个小岛","lon":"121.59400391","lat":"31.244913414","category":"234","category_name":"海滨浴场","address":"上海浦东新区明月路1257号"},{"poiid":"B2094757D065AAFD4992","title":"圣莎大酒店宴会厅","lon":"121.60039","lat":"31.25238","category":"217","category_name":"旅馆招待所","address":"浦东新区金新路99号(近杨高中路)查看地图"},{"poiid":"B2094654D568ABFA409B","title":"浦东新区国家税务局第五税务所","lon":"121.59857","lat":"31.24799","category":"250","category_name":"公园户外","address":"新金桥路201"},{"poiid":"B2094757D06BA2FB4792","title":"金桥软件园","lon":"121.59910211","lat":"31.2423372779","category":"46","category_name":"楼宇","address":"上海浦东新区明月路1257号"},{"poiid":"B2094757D169A5FD489B","title":"新金桥路27号","lon":"121.598706","lat":"31.248832","category":"500","category_name":"未知分类","address":"上海新金桥路金桥路"},{"poiid":"B2094757D165A7FD439A","title":"交通银行上海市分行大客户五部","lon":"121.600074939","lat":"31.2488090701","category":"500","category_name":"未知分类","address":"上海新金桥路230号4楼"},{"poiid":"B2094757D16DA0FC4898","title":"上海惠普有限公司","lon":"121.60010267","lat":"31.246317927","category":"263","category_name":"公司","address":"上海市浦东新区云桥路25号"},{"poiid":"B2094752D16FABFD4498","title":"極樂湯","lon":"121.600221","lat":"31.251119","category":"248","category_name":"生活娱乐","address":"新金橋路600號"},{"poiid":"B2094752D26CA4F8499D","title":"三合炭烧工坊","lon":"121.60011","lat":"31.25162","category":"68","category_name":"快餐厅","address":"浦东新区浙桥路200号碧云90商业广场B1楼(近金藏路)"},{"poiid":"B2094655D269ABFD4898","title":"圣雪绒工厂折扣店","lon":"121.59763","lat":"31.24899","category":"247","category_name":"餐饮美食","address":"浦东新区新金桥路230号(近金藏路)"},{"poiid":"B2094752D06EA3FB4792","title":"极乐汤","lon":"121.600227","lat":"31.249919","category":"248","category_name":"生活娱乐","address":"浦东新区新金桥路600号"},{"poiid":"B2094757D06FA7F4419A","title":"新金桥路金藏路","lon":"121.5987091","lat":"31.248832702","category":"38","category_name":"公交车站","address":"上海新金桥路金藏路"},{"poiid":"B2094654DB6BA1F9479B","title":"圣莎大酒店","lon":"121.60013","lat":"31.25265","category":"217","category_name":"旅馆招待所","address":"上海浦东新区金新路99号"},{"poiid":"B2094757D068A7F8499C","title":"佳友维景大酒店","lon":"121.59724729","lat":"31.247203359","category":"217","category_name":"旅馆招待所","address":"上海市浦东新区新金桥路159号(近金桥路)"},{"poiid":"B2094757D068A5F44093","title":"上海大饭堂","lon":"121.59970233","lat":"31.251746837","category":"76","category_name":"上海菜","address":"浦东新区浙桥路200号(近金新路)"},{"poiid":"B2094752D16CABFA4098","title":"极乐汤碧云温泉馆","lon":"121.600174","lat":"31.250107","category":"248","category_name":"生活娱乐","address":"新金桥路600号"},{"poiid":"B2094757DA6BABF4409F","title":"碧云公馆","lon":"121.599491","lat":"31.25091","category":"252","category_name":"楼宇机构","address":"浦东浙桥路289弄(近杨高中路,金海路口)"},{"poiid":"B2094655D26FA7FE409F","title":"浦东公安分局交通警察支队四大队","lon":"121.59924","lat":"31.25491","category":"250","category_name":"公园户外","address":"杨高中路100、110"},{"poiid":"B2094757D06FAAFD499E","title":"佳友维景大酒店宴会厅","lon":"121.5967","lat":"31.24755","category":"217","category_name":"旅馆招待所","address":"浦东新区新金桥路159号(近金藏路)查看地图"},{"poiid":"B2094752D16FA2FC409A","title":"极樂汤","lon":"121.600093","lat":"31.250086","category":"247","category_name":"餐饮美食","address":"上海市新金桥路600号"},{"poiid":"B2094757D169AAFF499E","title":"上海金桥高尔夫俱乐部","lon":"121.602146339","lat":"31.2494287843","category":"500","category_name":"未知分类","address":"浦东新区新金桥路775号"},{"poiid":"B2094752D06DAAFA429E","title":"极乐汤碧云温泉馆","lon":"121.596011","lat":"31.252186","category":"248","category_name":"生活娱乐","address":"上海市浦东新区新金桥路600号"},{"poiid":"B2094654DB64A6F4499D","title":"格林豪泰上海浦东金桥酒店","lon":"121.60021","lat":"31.25183","category":"216","category_name":"经济型连锁酒店","address":"上海市浦东新区浙桥路277号(近杨高中路)"},{"poiid":"B2094757D069A7FA499D","title":"金桥名都","lon":"121.59626","lat":"31.254126","category":"47","category_name":"住宅区","address":"上海市浦东新区浦东大道26弄"},{"poiid":"B2094655D26BA7F94992","title":"惠普综合大楼","lon":"121.59994","lat":"31.2463","category":"46","category_name":"楼宇","address":"金藏路351号"},{"poiid":"B2094757D064A1F9409F","title":"电讯盈科","lon":"121.59867233","lat":"31.248694767","category":"249","category_name":"购物服务","address":"新金桥路金藏路222号"},{"poiid":"B2094654DB69A5FF4399","title":"莫泰168连锁旅店(新金桥路店)","lon":"121.59775","lat":"31.24797","category":"216","category_name":"经济型连锁酒店","address":"上海市浦东新区新金桥路179号（近金藏路）"},{"poiid":"B2094655D26AA1F4499D","title":"汉庭快捷酒店新金桥店","lon":"121.59763","lat":"31.24899","category":"247","category_name":"餐饮美食","address":"上海浦东新区新金桥路230号17-6(近金藏路)"},{"poiid":"B2094757DB69A1FE409F","title":"鱼美人大酒店","lon":"121.59747","lat":"31.24991","category":"72","category_name":"广东菜","address":"浦东新区浙桥路200号(近金藏路)"},{"poiid":"B2094757D16CABF5459D","title":"香香桂林米粉(新金桥路店)","lon":"121.59947","lat":"31.24902","category":"68","category_name":"快餐厅","address":"浦东新区新金桥路255号(近金藏路)"},{"poiid":"B2094654DA6AA1FA489E","title":"浦东民航大厦","lon":"121.597","lat":"31.2507","category":"46","category_name":"楼宇","address":"上海市黄浦区南京东路409-459号"},{"poiid":"B2094757D66EABFC4799","title":"佰味知客","lon":"121.598408339","lat":"31.2481155541","category":"68","category_name":"快餐厅","address":"浦东新区浙桥路19号"},{"poiid":"B2094757D76DA0FD4392","title":"美林阁 金桥店","lon":"121.59800399575","lat":"31.248306650962","category":"76","category_name":"上海菜","address":"浦东新区新金桥路179号(近金藏路)"},{"poiid":"B2094750D76CAAF54999","title":"禾月日式铁板烧","lon":"121.6","lat":"31.2525","category":"269","category_name":"烧烤","address":"浦东新区金新路99号最佳西方浦东圣莎大酒店2楼(近杨高中路)"},{"poiid":"B2094654DA6AA7FA449C","title":"上海浦东国际培训中心教学楼","lon":"121.5969","lat":"31.24516","category":"46","category_name":"楼宇","address":""},{"poiid":"B2094757D069A1FA4292","title":"全家便利新金桥店","lon":"121.59805552","lat":"31.248482675","category":"117","category_name":"便民商店/便利店","address":"上海新金桥路230号T17-7底层D区"},{"poiid":"B2094655D26FA4F8429B","title":"雅斯酒店连锁(上海金桥酒店公寓)","lon":"121.59646","lat":"31.25053","category":"216","category_name":"经济型连锁酒店","address":"上海市浦东新区金藏路51号(近新金桥路)"},{"poiid":"B2094753D46CA3FF4298","title":"極楽湯","lon":"121.600013","lat":"31.249507","category":"247","category_name":"餐饮美食","address":"上海市 新金桥路600号"},{"poiid":"B2094654D568ABFA4099","title":"浦东新区国家税务局第二十二税务所","lon":"121.59857","lat":"31.24799","category":"250","category_name":"公园户外","address":"新金桥路201"},{"poiid":"B2094757D068A1F44593","title":"交通银行（新区支行）","lon":"121.5989658","lat":"31.249395163","category":"150","category_name":"银行","address":"上海新金桥路260号"},{"poiid":"B2094655D265A5F84693","title":"莱卡大厦","lon":"121.59831","lat":"31.24735","category":"46","category_name":"楼宇","address":"金藏路258号"},{"poiid":"B2094654DB6BA1F9439E","title":"金桥出口加工区17号","lon":"121.59904","lat":"31.24931","category":"45","category_name":"产业园区","address":"新金桥路230(1-8)"},{"poiid":"B2094757D66BA6F44898","title":"巴罗莎西餐厅","lon":"121.59707263301","lat":"31.247717926271","category":"268","category_name":"自助","address":"浦东新区新金桥路159号佳友维景大酒店1楼(近金藏路)"},{"poiid":"B2094654DA6AA1F9499F","title":"金桥出口加工区20号","lon":"121.59831","lat":"31.24735","category":"45","category_name":"产业园区","address":"金藏路258(1-5)"},{"poiid":"B2094757D06BA6FB459B","title":"福特汽车福银4S店","lon":"121.60238097","lat":"31.243333367","category":"500","category_name":"未知分类","address":"上海市浦东新区川桥路200号"},{"poiid":"B2094757D069A3FF4599","title":"中国建设银行（金桥支行）","lon":"121.596949739","lat":"31.2486174657","category":"150","category_name":"银行","address":"浦东新区新金桥路196号(金藏路新金桥路)"},{"poiid":"B2094750D664A5F9419C","title":"大头仔特色海鲜面馆","lon":"121.597","lat":"31.2502","category":"68","category_name":"快餐厅","address":"浦东新区浙桥路21号(近金藏路)"},{"poiid":"B2094654D568ABFA4098","title":"浦东新区地方税务局第五税务所","lon":"121.59857","lat":"31.24799","category":"250","category_name":"公园户外","address":"新金桥路201"},{"poiid":"B2094654D568ABFA409F","title":"浦东新区国家税务局第二十三税务所","lon":"121.59857","lat":"31.248","category":"250","category_name":"公园户外","address":"新金桥路201"},{"poiid":"B2094654D568ABFA409C","title":"浦东新区地方税务局第二十三税务所","lon":"121.59857","lat":"31.24799","category":"250","category_name":"公园户外","address":"新金桥路201"},{"poiid":"B2094757D06AAAF94598","title":"Office park 湖和3个小岛","lon":"121.59400391","lat":"31.244913414","category":"234","category_name":"海滨浴场","address":"上海浦东新区明月路1257号"},{"poiid":"B2094757D065AAFD4992","title":"圣莎大酒店宴会厅","lon":"121.60039","lat":"31.25238","category":"217","category_name":"旅馆招待所","address":"浦东新区金新路99号(近杨高中路)查看地图"},{"poiid":"B2094654D568ABFA409B","title":"浦东新区国家税务局第五税务所","lon":"121.59857","lat":"31.24799","category":"250","category_name":"公园户外","address":"新金桥路201"},{"poiid":"B2094757D06BA2FB4792","title":"金桥软件园","lon":"121.59910211","lat":"31.2423372779","category":"46","category_name":"楼宇","address":"上海浦东新区明月路1257号"},{"poiid":"B2094757D169A5FD489B","title":"新金桥路27号","lon":"121.598706","lat":"31.248832","category":"500","category_name":"未知分类","address":"上海新金桥路金桥路"},{"poiid":"B2094757D165A7FD439A","title":"交通银行上海市分行大客户五部","lon":"121.600074939","lat":"31.2488090701","category":"500","category_name":"未知分类","address":"上海新金桥路230号4楼"},{"poiid":"B2094757D16DA0FC4898","title":"上海惠普有限公司","lon":"121.60010267","lat":"31.246317927","category":"263","category_name":"公司","address":"上海市浦东新区云桥路25号"},{"poiid":"B2094752D16FABFD4498","title":"極樂湯","lon":"121.600221","lat":"31.251119","category":"248","category_name":"生活娱乐","address":"新金橋路600號"},{"poiid":"B2094752D26CA4F8499D","title":"三合炭烧工坊","lon":"121.60011","lat":"31.25162","category":"68","category_name":"快餐厅","address":"浦东新区浙桥路200号碧云90商业广场B1楼(近金藏路)"},{"poiid":"B2094655D269ABFD4898","title":"圣雪绒工厂折扣店","lon":"121.59763","lat":"31.24899","category":"247","category_name":"餐饮美食","address":"浦东新区新金桥路230号(近金藏路)"},{"poiid":"B2094752D06EA3FB4792","title":"极乐汤","lon":"121.600227","lat":"31.249919","category":"248","category_name":"生活娱乐","address":"浦东新区新金桥路600号"},{"poiid":"B2094757D06FA7F4419A","title":"新金桥路金藏路","lon":"121.5987091","lat":"31.248832702","category":"38","category_name":"公交车站","address":"上海新金桥路金藏路"},{"poiid":"B2094654DB6BA1F9479B","title":"圣莎大酒店","lon":"121.60013","lat":"31.25265","category":"217","category_name":"旅馆招待所","address":"上海浦东新区金新路99号"},{"poiid":"B2094757D068A7F8499C","title":"佳友维景大酒店","lon":"121.59724729","lat":"31.247203359","category":"217","category_name":"旅馆招待所","address":"上海市浦东新区新金桥路159号(近金桥路)"},{"poiid":"B2094757D068A5F44093","title":"上海大饭堂","lon":"121.59970233","lat":"31.251746837","category":"76","category_name":"上海菜","address":"浦东新区浙桥路200号(近金新路)"},{"poiid":"B2094752D16CABFA4098","title":"极乐汤碧云温泉馆","lon":"121.600174","lat":"31.250107","category":"248","category_name":"生活娱乐","address":"新金桥路600号"},{"poiid":"B2094757DA6BABF4409F","title":"碧云公馆","lon":"121.599491","lat":"31.25091","category":"252","category_name":"楼宇机构","address":"浦东浙桥路289弄(近杨高中路,金海路口)"},{"poiid":"B2094655D26FA7FE409F","title":"浦东公安分局交通警察支队四大队","lon":"121.59924","lat":"31.25491","category":"250","category_name":"公园户外","address":"杨高中路100、110"},{"poiid":"B2094757D06FAAFD499E","title":"佳友维景大酒店宴会厅","lon":"121.5967","lat":"31.24755","category":"217","category_name":"旅馆招待所","address":"浦东新区新金桥路159号(近金藏路)查看地图"},{"poiid":"B2094752D16FA2FC409A","title":"极樂汤","lon":"121.600093","lat":"31.250086","category":"247","category_name":"餐饮美食","address":"上海市新金桥路600号"},{"poiid":"B2094757D169AAFF499E","title":"上海金桥高尔夫俱乐部","lon":"121.602146339","lat":"31.2494287843","category":"500","category_name":"未知分类","address":"浦东新区新金桥路775号"},{"poiid":"B2094752D06DAAFA429E","title":"极乐汤碧云温泉馆","lon":"121.596011","lat":"31.252186","category":"248","category_name":"生活娱乐","address":"上海市浦东新区新金桥路600号"},{"poiid":"B2094654DB64A6F4499D","title":"格林豪泰上海浦东金桥酒店","lon":"121.60021","lat":"31.25183","category":"216","category_name":"经济型连锁酒店","address":"上海市浦东新区浙桥路277号(近杨高中路)"},{"poiid":"B2094757D069A7FA499D","title":"金桥名都","lon":"121.59626","lat":"31.254126","category":"47","category_name":"住宅区","address":"上海市浦东新区浦东大道26弄"},{"poiid":"B2094655D26BA7F94992","title":"惠普综合大楼","lon":"121.59994","lat":"31.2463","category":"46","category_name":"楼宇","address":"金藏路351号"},{"poiid":"B2094757D064A1F9409F","title":"电讯盈科","lon":"121.59867233","lat":"31.248694767","category":"249","category_name":"购物服务","address":"新金桥路金藏路222号"},{"poiid":"B2094654DB69A5FF4399","title":"莫泰168连锁旅店(新金桥路店)","lon":"121.59775","lat":"31.24797","category":"216","category_name":"经济型连锁酒店","address":"上海市浦东新区新金桥路179号（近金藏路）"},{"poiid":"B2094655D26AA1F4499D","title":"汉庭快捷酒店新金桥店","lon":"121.59763","lat":"31.24899","category":"247","category_name":"餐饮美食","address":"上海浦东新区新金桥路230号17-6(近金藏路)"},{"poiid":"B2094757DB69A1FE409F","title":"鱼美人大酒店","lon":"121.59747","lat":"31.24991","category":"72","category_name":"广东菜","address":"浦东新区浙桥路200号(近金藏路)"},{"poiid":"B2094757D16CABF5459D","title":"香香桂林米粉(新金桥路店)","lon":"121.59947","lat":"31.24902","category":"68","category_name":"快餐厅","address":"浦东新区新金桥路255号(近金藏路)"},{"poiid":"B2094654DA6AA1FA489E","title":"浦东民航大厦","lon":"121.597","lat":"31.2507","category":"46","category_name":"楼宇","address":"上海市黄浦区南京东路409-459号"},{"poiid":"B2094757D66EABFC4799","title":"佰味知客","lon":"121.598408339","lat":"31.2481155541","category":"68","category_name":"快餐厅","address":"浦东新区浙桥路19号"},{"poiid":"B2094757D76DA0FD4392","title":"美林阁 金桥店","lon":"121.59800399575","lat":"31.248306650962","category":"76","category_name":"上海菜","address":"浦东新区新金桥路179号(近金藏路)"},{"poiid":"B2094750D76CAAF54999","title":"禾月日式铁板烧","lon":"121.6","lat":"31.2525","category":"269","category_name":"烧烤","address":"浦东新区金新路99号最佳西方浦东圣莎大酒店2楼(近杨高中路)"},{"poiid":"B2094654DA6AA7FA449C","title":"上海浦东国际培训中心教学楼","lon":"121.5969","lat":"31.24516","category":"46","category_name":"楼宇","address":""},{"poiid":"B2094757D069A1FA4292","title":"全家便利新金桥店","lon":"121.59805552","lat":"31.248482675","category":"117","category_name":"便民商店/便利店","address":"上海新金桥路230号T17-7底层D区"},{"poiid":"B2094655D26FA4F8429B","title":"雅斯酒店连锁(上海金桥酒店公寓)","lon":"121.59646","lat":"31.25053","category":"216","category_name":"经济型连锁酒店","address":"上海市浦东新区金藏路51号(近新金桥路)"},{"poiid":"B2094753D46CA3FF4298","title":"極楽湯","lon":"121.600013","lat":"31.249507","category":"247","category_name":"餐饮美食","address":"上海市 新金桥路600号"},{"poiid":"B2094654D568ABFA4099","title":"浦东新区国家税务局第二十二税务所","lon":"121.59857","lat":"31.24799","category":"250","category_name":"公园户外","address":"新金桥路201"},{"poiid":"B2094757D068A1F44593","title":"交通银行（新区支行）","lon":"121.5989658","lat":"31.249395163","category":"150","category_name":"银行","address":"上海新金桥路260号"},{"poiid":"B2094655D265A5F84693","title":"莱卡大厦","lon":"121.59831","lat":"31.24735","category":"46","category_name":"楼宇","address":"金藏路258号"},{"poiid":"B2094654DB6BA1F9439E","title":"金桥出口加工区17号","lon":"121.59904","lat":"31.24931","category":"45","category_name":"产业园区","address":"新金桥路230(1-8)"},{"poiid":"B2094757D66BA6F44898","title":"巴罗莎西餐厅","lon":"121.59707263301","lat":"31.247717926271","category":"268","category_name":"自助","address":"浦东新区新金桥路159号佳友维景大酒店1楼(近金藏路)"},{"poiid":"B2094654DA6AA1F9499F","title":"金桥出口加工区20号","lon":"121.59831","lat":"31.24735","category":"45","category_name":"产业园区","address":"金藏路258(1-5)"},{"poiid":"B2094757D06BA6FB459B","title":"福特汽车福银4S店","lon":"121.60238097","lat":"31.243333367","category":"500","category_name":"未知分类","address":"上海市浦东新区川桥路200号"},{"poiid":"B2094757D069A3FF4599","title":"中国建设银行（金桥支行）","lon":"121.596949739","lat":"31.2486174657","category":"150","category_name":"银行","address":"浦东新区新金桥路196号(金藏路新金桥路)"},{"poiid":"B2094750D664A5F9419C","title":"大头仔特色海鲜面馆","lon":"121.597","lat":"31.2502","category":"68","category_name":"快餐厅","address":"浦东新区浙桥路21号(近金藏路)"},{"poiid":"B2094654D568ABFA4098","title":"浦东新区地方税务局第五税务所","lon":"121.59857","lat":"31.24799","category":"250","category_name":"公园户外","address":"新金桥路201"},{"poiid":"B2094654D568ABFA409F","title":"浦东新区国家税务局第二十三税务所","lon":"121.59857","lat":"31.248","category":"250","category_name":"公园户外","address":"新金桥路201"},{"poiid":"B2094654D568ABFA409C","title":"浦东新区地方税务局第二十三税务所","lon":"121.59857","lat":"31.24799","category":"250","category_name":"公园户外","address":"新金桥路201"},{"poiid":"B2094757D06AAAF94598","title":"Office park 湖和3个小岛","lon":"121.59400391","lat":"31.244913414","category":"234","category_name":"海滨浴场","address":"上海浦东新区明月路1257号"},{"poiid":"B2094757D065AAFD4992","title":"圣莎大酒店宴会厅","lon":"121.60039","lat":"31.25238","category":"217","category_name":"旅馆招待所","address":"浦东新区金新路99号(近杨高中路)查看地图"},{"poiid":"B2094654D568ABFA409B","title":"浦东新区国家税务局第五税务所","lon":"121.59857","lat":"31.24799","category":"250","category_name":"公园户外","address":"新金桥路201"},{"poiid":"B2094757D06BA2FB4792","title":"金桥软件园","lon":"121.59910211","lat":"31.2423372779","category":"46","category_name":"楼宇","address":"上海浦东新区明月路1257号"},{"poiid":"B2094757D169A5FD489B","title":"新金桥路27号","lon":"121.598706","lat":"31.248832","category":"500","category_name":"未知分类","address":"上海新金桥路金桥路"},{"poiid":"B2094757D165A7FD439A","title":"交通银行上海市分行大客户五部","lon":"121.600074939","lat":"31.2488090701","category":"500","category_name":"未知分类","address":"上海新金桥路230号4楼"},{"poiid":"B2094757D16DA0FC4898","title":"上海惠普有限公司","lon":"121.60010267","lat":"31.246317927","category":"263","category_name":"公司","address":"上海市浦东新区云桥路25号"},{"poiid":"B2094752D16FABFD4498","title":"極樂湯","lon":"121.600221","lat":"31.251119","category":"248","category_name":"生活娱乐","address":"新金橋路600號"},{"poiid":"B2094752D26CA4F8499D","title":"三合炭烧工坊","lon":"121.60011","lat":"31.25162","category":"68","category_name":"快餐厅","address":"浦东新区浙桥路200号碧云90商业广场B1楼(近金藏路)"},{"poiid":"B2094655D269ABFD4898","title":"圣雪绒工厂折扣店","lon":"121.59763","lat":"31.24899","category":"247","category_name":"餐饮美食","address":"浦东新区新金桥路230号(近金藏路)"},{"poiid":"B2094752D06EA3FB4792","title":"极乐汤","lon":"121.600227","lat":"31.249919","category":"248","category_name":"生活娱乐","address":"浦东新区新金桥路600号"},{"poiid":"B2094757D06FA7F4419A","title":"新金桥路金藏路","lon":"121.5987091","lat":"31.248832702","category":"38","category_name":"公交车站","address":"上海新金桥路金藏路"},{"poiid":"B2094654DB6BA1F9479B","title":"圣莎大酒店","lon":"121.60013","lat":"31.25265","category":"217","category_name":"旅馆招待所","address":"上海浦东新区金新路99号"},{"poiid":"B2094757D068A7F8499C","title":"佳友维景大酒店","lon":"121.59724729","lat":"31.247203359","category":"217","category_name":"旅馆招待所","address":"上海市浦东新区新金桥路159号(近金桥路)"},{"poiid":"B2094757D068A5F44093","title":"上海大饭堂","lon":"121.59970233","lat":"31.251746837","category":"76","category_name":"上海菜","address":"浦东新区浙桥路200号(近金新路)"},{"poiid":"B2094752D16CABFA4098","title":"极乐汤碧云温泉馆","lon":"121.600174","lat":"31.250107","category":"248","category_name":"生活娱乐","address":"新金桥路600号"},{"poiid":"B2094757DA6BABF4409F","title":"碧云公馆","lon":"121.599491","lat":"31.25091","category":"252","category_name":"楼宇机构","address":"浦东浙桥路289弄(近杨高中路,金海路口)"},{"poiid":"B2094655D26FA7FE409F","title":"浦东公安分局交通警察支队四大队","lon":"121.59924","lat":"31.25491","category":"250","category_name":"公园户外","address":"杨高中路100、110"},{"poiid":"B2094757D06FAAFD499E","title":"佳友维景大酒店宴会厅","lon":"121.5967","lat":"31.24755","category":"217","category_name":"旅馆招待所","address":"浦东新区新金桥路159号(近金藏路)查看地图"},{"poiid":"B2094752D16FA2FC409A","title":"极樂汤","lon":"121.600093","lat":"31.250086","category":"247","category_name":"餐饮美食","address":"上海市新金桥路600号"},{"poiid":"B2094757D169AAFF499E","title":"上海金桥高尔夫俱乐部","lon":"121.602146339","lat":"31.2494287843","category":"500","category_name":"未知分类","address":"浦东新区新金桥路775号"},{"poiid":"B2094752D06DAAFA429E","title":"极乐汤碧云温泉馆","lon":"121.596011","lat":"31.252186","category":"248","category_name":"生活娱乐","address":"上海市浦东新区新金桥路600号"},{"poiid":"B2094654DB64A6F4499D","title":"格林豪泰上海浦东金桥酒店","lon":"121.60021","lat":"31.25183","category":"216","category_name":"经济型连锁酒店","address":"上海市浦东新区浙桥路277号(近杨高中路)"},{"poiid":"B2094757D069A7FA499D","title":"金桥名都","lon":"121.59626","lat":"31.254126","category":"47","category_name":"住宅区","address":"上海市浦东新区浦东大道26弄"},{"poiid":"B2094655D26BA7F94992","title":"惠普综合大楼","lon":"121.59994","lat":"31.2463","category":"46","category_name":"楼宇","address":"金藏路351号"},{"poiid":"B2094757D064A1F9409F","title":"电讯盈科","lon":"121.59867233","lat":"31.248694767","category":"249","category_name":"购物服务","address":"新金桥路金藏路222号"},{"poiid":"B2094654DB69A5FF4399","title":"莫泰168连锁旅店(新金桥路店)","lon":"121.59775","lat":"31.24797","category":"216","category_name":"经济型连锁酒店","address":"上海市浦东新区新金桥路179号（近金藏路）"},{"poiid":"B2094655D26AA1F4499D","title":"汉庭快捷酒店新金桥店","lon":"121.59763","lat":"31.24899","category":"247","category_name":"餐饮美食","address":"上海浦东新区新金桥路230号17-6(近金藏路)"},{"poiid":"B2094757DB69A1FE409F","title":"鱼美人大酒店","lon":"121.59747","lat":"31.24991","category":"72","category_name":"广东菜","address":"浦东新区浙桥路200号(近金藏路)"},{"poiid":"B2094757D16CABF5459D","title":"香香桂林米粉(新金桥路店)","lon":"121.59947","lat":"31.24902","category":"68","category_name":"快餐厅","address":"浦东新区新金桥路255号(近金藏路)"},{"poiid":"B2094654DA6AA1FA489E","title":"浦东民航大厦","lon":"121.597","lat":"31.2507","category":"46","category_name":"楼宇","address":"上海市黄浦区南京东路409-459号"},{"poiid":"B2094757D66EABFC4799","title":"佰味知客","lon":"121.598408339","lat":"31.2481155541","category":"68","category_name":"快餐厅","address":"浦东新区浙桥路19号"},{"poiid":"B2094757D76DA0FD4392","title":"美林阁 金桥店","lon":"121.59800399575","lat":"31.248306650962","category":"76","category_name":"上海菜","address":"浦东新区新金桥路179号(近金藏路)"},{"poiid":"B2094750D76CAAF54999","title":"禾月日式铁板烧","lon":"121.6","lat":"31.2525","category":"269","category_name":"烧烤","address":"浦东新区金新路99号最佳西方浦东圣莎大酒店2楼(近杨高中路)"},{"poiid":"B2094654DA6AA7FA449C","title":"上海浦东国际培训中心教学楼","lon":"121.5969","lat":"31.24516","category":"46","category_name":"楼宇","address":""},{"poiid":"B2094757D069A1FA4292","title":"全家便利新金桥店","lon":"121.59805552","lat":"31.248482675","category":"117","category_name":"便民商店/便利店","address":"上海新金桥路230号T17-7底层D区"},{"poiid":"B2094655D26FA4F8429B","title":"雅斯酒店连锁(上海金桥酒店公寓)","lon":"121.59646","lat":"31.25053","category":"216","category_name":"经济型连锁酒店","address":"上海市浦东新区金藏路51号(近新金桥路)"},{"poiid":"B2094753D46CA3FF4298","title":"極楽湯","lon":"121.600013","lat":"31.249507","category":"247","category_name":"餐饮美食","address":"上海市 新金桥路600号"},{"poiid":"B2094654D568ABFA4099","title":"浦东新区国家税务局第二十二税务所","lon":"121.59857","lat":"31.24799","category":"250","category_name":"公园户外","address":"新金桥路201"},{"poiid":"B2094757D068A1F44593","title":"交通银行（新区支行）","lon":"121.5989658","lat":"31.249395163","category":"150","category_name":"银行","address":"上海新金桥路260号"},{"poiid":"B2094655D265A5F84693","title":"莱卡大厦","lon":"121.59831","lat":"31.24735","category":"46","category_name":"楼宇","address":"金藏路258号"},{"poiid":"B2094654DB6BA1F9439E","title":"金桥出口加工区17号","lon":"121.59904","lat":"31.24931","category":"45","category_name":"产业园区","address":"新金桥路230(1-8)"},{"poiid":"B2094757D66BA6F44898","title":"巴罗莎西餐厅","lon":"121.59707263301","lat":"31.247717926271","category":"268","category_name":"自助","address":"浦东新区新金桥路159号佳友维景大酒店1楼(近金藏路)"},{"poiid":"B2094654DA6AA1F9499F","title":"金桥出口加工区20号","lon":"121.59831","lat":"31.24735","category":"45","category_name":"产业园区","address":"金藏路258(1-5)"},{"poiid":"B2094757D06BA6FB459B","title":"福特汽车福银4S店","lon":"121.60238097","lat":"31.243333367","category":"500","category_name":"未知分类","address":"上海市浦东新区川桥路200号"},{"poiid":"B2094757D069A3FF4599","title":"中国建设银行（金桥支行）","lon":"121.596949739","lat":"31.2486174657","category":"150","category_name":"银行","address":"浦东新区新金桥路196号(金藏路新金桥路)"},{"poiid":"B2094750D664A5F9419C","title":"大头仔特色海鲜面馆","lon":"121.597","lat":"31.2502","category":"68","category_name":"快餐厅","address":"浦东新区浙桥路21号(近金藏路)"},{"poiid":"B2094654D568ABFA4098","title":"浦东新区地方税务局第五税务所","lon":"121.59857","lat":"31.24799","category":"250","category_name":"公园户外","address":"新金桥路201"},{"poiid":"B2094654D568ABFA409F","title":"浦东新区国家税务局第二十三税务所","lon":"121.59857","lat":"31.248","category":"250","category_name":"公园户外","address":"新金桥路201"},{"poiid":"B2094654D568ABFA409C","title":"浦东新区地方税务局第二十三税务所","lon":"121.59857","lat":"31.24799","category":"250","category_name":"公园户外","address":"新金桥路201"},{"poiid":"B2094757D06AAAF94598","title":"Office park 湖和3个小岛","lon":"121.59400391","lat":"31.244913414","category":"234","category_name":"海滨浴场","address":"上海浦东新区明月路1257号"},{"poiid":"B2094757D065AAFD4992","title":"圣莎大酒店宴会厅","lon":"121.60039","lat":"31.25238","category":"217","category_name":"旅馆招待所","address":"浦东新区金新路99号(近杨高中路)查看地图"},{"poiid":"B2094654D568ABFA409B","title":"浦东新区国家税务局第五税务所","lon":"121.59857","lat":"31.24799","category":"250","category_name":"公园户外","address":"新金桥路201"},{"poiid":"B2094757D06BA2FB4792","title":"金桥软件园","lon":"121.59910211","lat":"31.2423372779","category":"46","category_name":"楼宇","address":"上海浦东新区明月路1257号"},{"poiid":"B2094757D169A5FD489B","title":"新金桥路27号","lon":"121.598706","lat":"31.248832","category":"500","category_name":"未知分类","address":"上海新金桥路金桥路"},{"poiid":"B2094757D165A7FD439A","title":"交通银行上海市分行大客户五部","lon":"121.600074939","lat":"31.2488090701","category":"500","category_name":"未知分类","address":"上海新金桥路230号4楼"},{"poiid":"B2094757D16DA0FC4898","title":"上海惠普有限公司","lon":"121.60010267","lat":"31.246317927","category":"263","category_name":"公司","address":"上海市浦东新区云桥路25号"},{"poiid":"B2094752D16FABFD4498","title":"極樂湯","lon":"121.600221","lat":"31.251119","category":"248","category_name":"生活娱乐","address":"新金橋路600號"},{"poiid":"B2094752D26CA4F8499D","title":"三合炭烧工坊","lon":"121.60011","lat":"31.25162","category":"68","category_name":"快餐厅","address":"浦东新区浙桥路200号碧云90商业广场B1楼(近金藏路)"},{"poiid":"B2094655D269ABFD4898","title":"圣雪绒工厂折扣店","lon":"121.59763","lat":"31.24899","category":"247","category_name":"餐饮美食","address":"浦东新区新金桥路230号(近金藏路)"}]