[{"poiid":"B2094757D06FA5FB469C","title":"闵浦大桥","lon":"121.48068237","lat":"31.052547454","category":"260","category_name":"其他","address":"上海闵行区S32申嘉湖高速-闵行区S32申嘉湖高速"},{"poiid":"B2094757D06FA1FB489A","title":"万科花园小城","lon":"121.47425842","lat":"31.036663055","category":"47","category_name":"住宅区","address":"上海市闵行区龙吴路5688号"},{"poiid":"B2094757D06AA5FF4693","title":"紫晶南苑","lon":"121.47682797834","lat":"31.037120845963","category":"47","category_name":"住宅区","address":"上海市闵行区广南路666号"},{"poiid":"B2094757D66AA4F44892","title":"部落情 剑川店","lon":"121.46638","lat":"31.04184","category":"86","category_name":"火锅店","address":"闵行区剑川路167号(宝秀路剑川路)"},{"poiid":"B2094757D16FA2FF429B","title":"杜行渡口","lon":"121.485091","lat":"31.053036","category":"500","category_name":"未知分类","address":"上海市沈杜公路杜行渡口"},{"poiid":"B2094655D26BA2FC4792","title":"吴泾渡口","lon":"121.47852","lat":"31.04586","category":"38","category_name":"公交车站","address":""},{"poiid":"B2094655D264A7FB4599","title":"双柏小区","lon":"121.47237","lat":"31.044006","category":"47","category_name":"住宅区","address":"上海闵行区剑川路100弄"},{"poiid":"B2094655D36CA6F94998","title":"杜行","lon":"121.49351","lat":"31.05516","category":"38","category_name":"公交车站","address":""},{"poiid":"B2094655D36CA0FA419F","title":"剑川路通海路","lon":"121.47386","lat":"31.04336","category":"38","category_name":"公交车站","address":""},{"poiid":"B2094757D169A0F44399","title":"浦江镇杜行西街","lon":"121.490886645","lat":"31.0448216528","category":"500","category_name":"未知分类","address":"上海市闵行区浦江镇杜行村"},{"poiid":"B2094757D064ABFA479B","title":"家裡","lon":"121.475455345","lat":"31.0462056836","category":"500","category_name":"未知分类","address":"上海窩！"},{"poiid":"B2094757D06BA2F84998","title":"氯碱小区","lon":"121.47433994","lat":"31.045272062","category":"47","category_name":"住宅区","address":"上海市闵行区剑川路50弄"},{"poiid":"B2094655D36CA6F94893","title":"杜行镇","lon":"121.50051","lat":"31.05694","category":"38","category_name":"公交车站","address":""},{"poiid":"B2094757D065A6F5429B","title":"可口可乐","lon":"121.48000376","lat":"31.047075563","category":"500","category_name":"未知分类","address":"上海紫月路1188号"},{"poiid":"B2094654DB6EAAFE4598","title":"国大药房上虹社行店NO.603","lon":"121.49742","lat":"31.05444","category":"162","category_name":"医院","address":"杜行镇"},{"poiid":"B2094757D064A0FB419B","title":"福乐山","lon":"121.500691309","lat":"31.058459517","category":"260","category_name":"其他","address":"上海鲁陈路沈杜路"},{"poiid":"B2094655D26BA1F44392","title":"鲁陈路张行路","lon":"121.50247","lat":"31.05271","category":"38","category_name":"公交车站","address":""},{"poiid":"B2094654DB6FA3FD4492","title":"伍玲酒楼","lon":"121.471700054","lat":"31.042903793","category":"76","category_name":"上海菜","address":"剑川路110号"},{"poiid":"B2094655D26BA2FF4899","title":"通海路","lon":"121.47385","lat":"31.04337","category":"38","category_name":"公交车站","address":""},{"poiid":"B2094757D16AA6F54793","title":"耀华路","lon":"121.4938097","lat":"31.061019156","category":"500","category_name":"未知分类","address":"上海耀华路"},{"poiid":"B2094757D66CA4FA419C","title":"俺の家","lon":"121.47511864","lat":"31.044765651","category":"500","category_name":"未知分类","address":null},{"poiid":"B2094757D16AA2FD449C","title":"上海日冷食品有限公司","lon":"121.475051","lat":"31.042637","category":"500","category_name":"未知分类","address":"上海通海路335号"},{"poiid":"B2094654DB6EAAFA449E","title":"上海中粮粮油进出口吴泾仓储有限公司","lon":"121.47489","lat":"31.04319","category":"263","category_name":"公司","address":"通海路357"},{"poiid":"B2094757D66DA7F8439F","title":"虹桥火车站28号站台","lon":"121.468683709","lat":"31.0483237801","category":"22","category_name":"火车站","address":"上海虹桥火车站28号站台"},{"poiid":"B2094654DB6EAAFA449F","title":"吴泾派出所","lon":"121.47301","lat":"31.04339","category":"609","category_name":"警察局","address":"闵行区剑川路80号"},{"poiid":"B2094757D169A0F8499C","title":"农业银行吴泾支行","lon":"121.472314","lat":"31.04543","category":"150","category_name":"银行","address":"上海剑川路141号"},{"poiid":"B2094655D26DA6FD4698","title":"景舒苑十村","lon":"121.49298","lat":"31.069662","category":"47","category_name":"住宅区","address":"浦雪路53弄"},{"poiid":"B2094654DB6EAAFA439E","title":"星乐苑","lon":"121.47589","lat":"31.03801","category":"47","category_name":"住宅区","address":"通海路278号"},{"poiid":"B2094654DB6EAAFA449A","title":"上海联存仓储发展有限公司","lon":"121.47546","lat":"31.04116","category":"263","category_name":"公司","address":""},{"poiid":"B2094655D26BA1F4449A","title":"鲁陈路亭子路","lon":"121.50176","lat":"31.06297","category":"38","category_name":"公交车站","address":""},{"poiid":"B2094654DB6EAAFA4393","title":"上海市东方通海物流有限公司","lon":"121.47573","lat":"31.04004","category":"248","category_name":"生活娱乐","address":"通海路315号"},{"poiid":"B2094757D164AAFC479E","title":"吴泾镇社会保障事务中心","lon":"121.469624","lat":"31.044911","category":"500","category_name":"未知分类","address":"上海闵行区龙吴路5530弄40号"},{"poiid":"B2094757D66EA1FB429A","title":"青浦潮汕砂锅粥","lon":"121.468527609","lat":"31.04877669","category":"500","category_name":"未知分类","address":"上海青浦城中北路近公园路"},{"poiid":"B2094757D068AAFA4698","title":"kk's HoMe","lon":"121.46993076","lat":"31.042598383","category":"500","category_name":"未知分类","address":null},{"poiid":"B2094757D16BAAF4469F","title":"浦江1路","lon":"121.490260109","lat":"31.069248935","category":"500","category_name":"未知分类","address":"上海闵行"}]