[{"poiid":"B2094757D06FA3F5409B","title":"上海公安高等专科学校","lon":"121.51755523","lat":"31.377981185","category":"671","category_name":"高校中心点","address":"浦东新区凌桥崇景路100号(三岔港)"},{"poiid":"B2094655D26BA2FC469E","title":"吴淞码头","lon":"121.49789","lat":"31.37766","category":"38","category_name":"公交车站","address":""},{"poiid":"B2094757D068A2FF459F","title":"宝山区房地产交易中心","lon":"121.49867993","lat":"31.374190423","category":"249","category_name":"购物服务","address":"上海同泰路68号4楼"},{"poiid":"B2094757D06AA6F84598","title":"吴淞客运中心客运站","lon":"121.50122083","lat":"31.378539743","category":"35","category_name":"长途汽车站","address":"上海市宝山区化成路271号"},{"poiid":"B2094757D068A1FA489F","title":"新长江大酒店","lon":"121.499050731","lat":"31.3799873487","category":"217","category_name":"旅馆招待所","address":"上海宝山区淞宝路96号"},{"poiid":"B2094757D168ABF5439C","title":"星月国际商务广场","lon":"121.50003163","lat":"31.381648607","category":"500","category_name":"未知分类","address":"徐汇宜山路425号"},{"poiid":"B2094757D06AA0FB4292","title":"外环隧道","lon":"121.50563412","lat":"31.376110483","category":"500","category_name":"未知分类","address":"上海外环线"},{"poiid":"B2094757D068A7F84592","title":"宝山区税务局","lon":"121.499759","lat":"31.375406","category":"500","category_name":"未知分类","address":"上海淞滨路28号"},{"poiid":"B2094757D06FAAFA419A","title":"吴淞中学","lon":"121.49766","lat":"31.37568","category":"55","category_name":"中学","address":"宝山区泰和路99号(近牡丹江路)"},{"poiid":"B2094654D46AA5FD4092","title":"海宝大酒店","lon":"121.49702","lat":"31.38114","category":"76","category_name":"上海菜","address":"宝山区牡丹江路289号(近同济支路)"},{"poiid":"B2094750DB64A5FA4492","title":"巨麦时尚KTV(淞宝店)","lon":"121.50075273408515","lat":"31.381164858525576","category":"170","category_name":"KTV","address":"宝山区淞宝路155号星月广场3楼"},{"poiid":"B2094757D66CA4F54498","title":"众所粥滋(潮州海鲜粥)","lon":"121.50136","lat":"31.38392","category":"72","category_name":"广东菜","address":"宝山区淞宝路268号(近永清路)"},{"poiid":"B2094757D06FA6FB409F","title":"吴淞轮渡站","lon":"121.5012188","lat":"31.374578336","category":"35","category_name":"长途汽车站","address":"上海宝山区淞浦路114号"},{"poiid":"B2094757D06AA4FE4499","title":"海军博物馆","lon":"121.50643","lat":"31.3887963487","category":"182","category_name":"博物馆","address":"宝山区塘后路68号(近淞宝路)"},{"poiid":"B2094750DA65A7F9439D","title":"弄堂口","lon":"121.500152","lat":"31.379171","category":"75","category_name":"浙江菜","address":"宝山区淞宝路155弄星月国际商务广场29号(近永清路)"},{"poiid":"B2094757D069AAFA479B","title":"渔人码头","lon":"121.49790628","lat":"31.372561055","category":"251","category_name":"出行住宿","address":"上海吴淞"},{"poiid":"B2094655D26BA1F84598","title":"牡丹江路吴淞医院","lon":"121.4972","lat":"31.37913","category":"162","category_name":"医院","address":""},{"poiid":"B2094757D069AAFA4592","title":"吴淞口国际邮轮码头","lon":"121.499","lat":"31.3796","category":"260","category_name":"其他","address":"上海宝杨路1号"},{"poiid":"B2094757D569A3F54099","title":"上海港吴淞客运中心客运站","lon":"121.50186089","lat":"31.37859239","category":"35","category_name":"长途汽车站","address":"中国上海市宝山区化成路"},{"poiid":"B2094751D56FA7FA439A","title":"横店电影城","lon":"121.499498","lat":"31.378073","category":"178","category_name":"电影院","address":"上海市宝山区淞宝路155弄71号一楼"},{"poiid":"B2094752D36DABFE499D","title":"横店影城","lon":"121.500458","lat":"31.380585","category":"178","category_name":"电影院","address":"淞宝路155号星月国际广场"},{"poiid":"B2094757D568A0FB459D","title":"联和滨江大厦","lon":"121.501","lat":"31.377","category":"46","category_name":"楼宇","address":"丰台学城海鹰路1号,3号"},{"poiid":"B2094757D66BABF8419C","title":"锦润坊海鲜豆捞餐厅","lon":"121.50124","lat":"31.38345","category":"86","category_name":"火锅店","address":"宝山区淞宝路218号(近永清路)"},{"poiid":"B2094750D165A5FF4398","title":"驰公馆","lon":"121.50148","lat":"31.379848","category":"72","category_name":"广东菜","address":"宝山区淞宝路155弄38号(近化成路)"},{"poiid":"B2094750D564ABF9409A","title":"星月浦江国际","lon":"121.501608","lat":"31.379865","category":"46","category_name":"楼宇","address":"宝山淞宝路155弄"},{"poiid":"B2094757D069ABF5409A","title":"万家灯火酒店","lon":"121.502034061","lat":"31.3856950811","category":"75","category_name":"浙江菜","address":"宝山区淞宝路358号"},{"poiid":"B2094757D16DABFA419D","title":"三岔港轮渡站","lon":"121.506923","lat":"31.371087","category":"35","category_name":"长途汽车站","address":"上海江东路一弄38号"},{"poiid":"B2094757D465ABF4429E","title":"淞滨路砂锅馄饨","lon":"121.501186054","lat":"31.375434793","category":"68","category_name":"快餐厅","address":"淞滨路近吴淞码头"},{"poiid":"B2094757D06AA4F54899","title":"大唐酒店","lon":"121.50014495","lat":"31.383768081","category":"76","category_name":"上海菜","address":"宝山区永清路55号(近淞宝路)"},{"poiid":"B2094655D36CA2FA4598","title":"三岔港","lon":"121.50869","lat":"31.3698","category":"38","category_name":"公交车站","address":"江东路121号"},{"poiid":"B209475DD26EAAFB4799","title":"UME影城宝山店","lon":"121.501152","lat":"31.376657","category":"500","category_name":"未知分类","address":"上海市 上海市宝山区牡丹江路318号诺亚新天地4楼"},{"poiid":"B2094654D469ABF5439A","title":"长江口商城","lon":"121.50129","lat":"31.37501","category":"119","category_name":"商场","address":""},{"poiid":"B2094752D46AA2FE409C","title":"中国农业银行宝山吴淞支行","lon":"121.500317","lat":"31.377396","category":"150","category_name":"银行","address":"上海市宝山区同济路131号"},{"poiid":"B2094654D469AAFD429D","title":"吴淞站","lon":"121.501","lat":"31.37538","category":"35","category_name":"长途汽车站","address":"淞浦路100"},{"poiid":"B2094654D469AAFD439B","title":"上海海事局吴淞海事处专用码头","lon":"121.50117","lat":"31.37341","category":"34","category_name":"港口码头","address":"淞浦路181"},{"poiid":"B2094757D16AA6FF479E","title":"琴帼人家","lon":"121.500552431","lat":"31.3774340207","category":"247","category_name":"餐饮美食","address":"上海农工商水产路"},{"poiid":"B2094750D26CA3F4429C","title":"老刘野生大鱼坊 宝山店","lon":"121.502523054","lat":"31.385492793","category":"82","category_name":"东北菜","address":"宝山区凇宝路406号(化成路淞宝路)"},{"poiid":"B2094654DB6AA6FF4192","title":"海滨八村","lon":"121.507","lat":"31.3884","category":"47","category_name":"住宅区","address":"上海宝山区牡丹江路海滨八村46号"},{"poiid":"B2094753D16EA4FC499A","title":"巨麦时尚KTV(淞宝店)","lon":"121.50098","lat":"31.38077","category":"170","category_name":"KTV","address":"宝山区淞宝路155号星月广场3楼(近永清路)"},{"poiid":"B2094654D46BA3F5459D","title":"上海三港码头(三岔港轮渡站东)","lon":"121.5072","lat":"31.37105","category":"34","category_name":"港口码头","address":""},{"poiid":"B2094655D36DA1F8429D","title":"外环隧道","lon":"121.50045","lat":"31.37633","category":"250","category_name":"公园户外","address":""},{"poiid":"B2094655D265ABFD469A","title":"长江口大楼","lon":"121.49967","lat":"31.37551","category":"46","category_name":"楼宇","address":"淞滨路1号"},{"poiid":"B2094757D66DA0FF479B","title":"迎宾楼食府","lon":"121.499184831","lat":"31.3798937714","category":"247","category_name":"餐饮美食","address":"上海市宝山区淞宝路396号"},{"poiid":"B2094757D16AA4FB449D","title":"海淞医院","lon":"121.50055","lat":"31.38145","category":"162","category_name":"医院","address":"上海宝山区淞宝路196号(永清路路口)  "},{"poiid":"B2094757D168A0FB4999","title":"淞宝路","lon":"121.50137173","lat":"31.382647928","category":"500","category_name":"未知分类","address":"上海宝山区淞宝路"},{"poiid":"B2094655D264A1F44893","title":"吴淞老镇三街坊","lon":"121.497482","lat":"31.374553","category":"47","category_name":"住宅区","address":"上海市宝山区同泰路135弄"},{"poiid":"B2094655D265A0FF499F","title":"上海旅游集散中心宝山分站","lon":"121.50228","lat":"31.38006","category":"248","category_name":"生活娱乐","address":"宝山区淞宝路251号上海港吴淞客运中心内(化成路口)"},{"poiid":"B2094757D16FA0FE429B","title":"宝山工商局","lon":"121.499763489","lat":"31.3754024506","category":"500","category_name":"未知分类","address":"上海淞滨路28号"},{"poiid":"B2094654D46AA5FE439A","title":"瑞华宝都","lon":"121.504","lat":"31.3839","category":"46","category_name":"楼宇","address":"牡丹江路186弄1幢1-3号"},{"poiid":"B2094654D46BA3FA4592","title":"上海三港集装箱码头","lon":"121.50834","lat":"31.37063","category":"34","category_name":"港口码头","address":"江东路1号"},{"poiid":"B2094757D06FA3F5409B","title":"上海公安高等专科学校","lon":"121.51755523","lat":"31.377981185","category":"671","category_name":"高校中心点","address":"浦东新区凌桥崇景路100号(三岔港)"},{"poiid":"B2094655D26BA2FC469E","title":"吴淞码头","lon":"121.49789","lat":"31.37766","category":"38","category_name":"公交车站","address":""},{"poiid":"B2094757D068A2FF459F","title":"宝山区房地产交易中心","lon":"121.49867993","lat":"31.374190423","category":"249","category_name":"购物服务","address":"上海同泰路68号4楼"},{"poiid":"B2094757D06AA6F84598","title":"吴淞客运中心客运站","lon":"121.50122083","lat":"31.378539743","category":"35","category_name":"长途汽车站","address":"上海市宝山区化成路271号"},{"poiid":"B2094757D068A1FA489F","title":"新长江大酒店","lon":"121.499050731","lat":"31.3799873487","category":"217","category_name":"旅馆招待所","address":"上海宝山区淞宝路96号"},{"poiid":"B2094757D168ABF5439C","title":"星月国际商务广场","lon":"121.50003163","lat":"31.381648607","category":"500","category_name":"未知分类","address":"徐汇宜山路425号"},{"poiid":"B2094757D06AA0FB4292","title":"外环隧道","lon":"121.50563412","lat":"31.376110483","category":"500","category_name":"未知分类","address":"上海外环线"},{"poiid":"B2094757D068A7F84592","title":"宝山区税务局","lon":"121.499759","lat":"31.375406","category":"500","category_name":"未知分类","address":"上海淞滨路28号"},{"poiid":"B2094757D06FAAFA419A","title":"吴淞中学","lon":"121.49766","lat":"31.37568","category":"55","category_name":"中学","address":"宝山区泰和路99号(近牡丹江路)"},{"poiid":"B2094654D46AA5FD4092","title":"海宝大酒店","lon":"121.49702","lat":"31.38114","category":"76","category_name":"上海菜","address":"宝山区牡丹江路289号(近同济支路)"},{"poiid":"B2094750DB64A5FA4492","title":"巨麦时尚KTV(淞宝店)","lon":"121.50075273408515","lat":"31.381164858525576","category":"170","category_name":"KTV","address":"宝山区淞宝路155号星月广场3楼"},{"poiid":"B2094757D66CA4F54498","title":"众所粥滋(潮州海鲜粥)","lon":"121.50136","lat":"31.38392","category":"72","category_name":"广东菜","address":"宝山区淞宝路268号(近永清路)"},{"poiid":"B2094757D06FA6FB409F","title":"吴淞轮渡站","lon":"121.5012188","lat":"31.374578336","category":"35","category_name":"长途汽车站","address":"上海宝山区淞浦路114号"},{"poiid":"B2094757D06AA4FE4499","title":"海军博物馆","lon":"121.50643","lat":"31.3887963487","category":"182","category_name":"博物馆","address":"宝山区塘后路68号(近淞宝路)"},{"poiid":"B2094750DA65A7F9439D","title":"弄堂口","lon":"121.500152","lat":"31.379171","category":"75","category_name":"浙江菜","address":"宝山区淞宝路155弄星月国际商务广场29号(近永清路)"},{"poiid":"B2094757D069AAFA479B","title":"渔人码头","lon":"121.49790628","lat":"31.372561055","category":"251","category_name":"出行住宿","address":"上海吴淞"},{"poiid":"B2094655D26BA1F84598","title":"牡丹江路吴淞医院","lon":"121.4972","lat":"31.37913","category":"162","category_name":"医院","address":""},{"poiid":"B2094757D069AAFA4592","title":"吴淞口国际邮轮码头","lon":"121.499","lat":"31.3796","category":"260","category_name":"其他","address":"上海宝杨路1号"},{"poiid":"B2094757D569A3F54099","title":"上海港吴淞客运中心客运站","lon":"121.50186089","lat":"31.37859239","category":"35","category_name":"长途汽车站","address":"中国上海市宝山区化成路"},{"poiid":"B2094751D56FA7FA439A","title":"横店电影城","lon":"121.499498","lat":"31.378073","category":"178","category_name":"电影院","address":"上海市宝山区淞宝路155弄71号一楼"},{"poiid":"B2094752D36DABFE499D","title":"横店影城","lon":"121.500458","lat":"31.380585","category":"178","category_name":"电影院","address":"淞宝路155号星月国际广场"},{"poiid":"B2094757D568A0FB459D","title":"联和滨江大厦","lon":"121.501","lat":"31.377","category":"46","category_name":"楼宇","address":"丰台学城海鹰路1号,3号"},{"poiid":"B2094757D66BABF8419C","title":"锦润坊海鲜豆捞餐厅","lon":"121.50124","lat":"31.38345","category":"86","category_name":"火锅店","address":"宝山区淞宝路218号(近永清路)"},{"poiid":"B2094750D165A5FF4398","title":"驰公馆","lon":"121.50148","lat":"31.379848","category":"72","category_name":"广东菜","address":"宝山区淞宝路155弄38号(近化成路)"},{"poiid":"B2094750D564ABF9409A","title":"星月浦江国际","lon":"121.501608","lat":"31.379865","category":"46","category_name":"楼宇","address":"宝山淞宝路155弄"},{"poiid":"B2094757D069ABF5409A","title":"万家灯火酒店","lon":"121.502034061","lat":"31.3856950811","category":"75","category_name":"浙江菜","address":"宝山区淞宝路358号"},{"poiid":"B2094757D16DABFA419D","title":"三岔港轮渡站","lon":"121.506923","lat":"31.371087","category":"35","category_name":"长途汽车站","address":"上海江东路一弄38号"},{"poiid":"B2094757D465ABF4429E","title":"淞滨路砂锅馄饨","lon":"121.501186054","lat":"31.375434793","category":"68","category_name":"快餐厅","address":"淞滨路近吴淞码头"},{"poiid":"B2094757D06AA4F54899","title":"大唐酒店","lon":"121.50014495","lat":"31.383768081","category":"76","category_name":"上海菜","address":"宝山区永清路55号(近淞宝路)"},{"poiid":"B2094655D36CA2FA4598","title":"三岔港","lon":"121.50869","lat":"31.3698","category":"38","category_name":"公交车站","address":"江东路121号"},{"poiid":"B209475DD26EAAFB4799","title":"UME影城宝山店","lon":"121.501152","lat":"31.376657","category":"500","category_name":"未知分类","address":"上海市 上海市宝山区牡丹江路318号诺亚新天地4楼"},{"poiid":"B2094654D469ABF5439A","title":"长江口商城","lon":"121.50129","lat":"31.37501","category":"119","category_name":"商场","address":""},{"poiid":"B2094752D46AA2FE409C","title":"中国农业银行宝山吴淞支行","lon":"121.500317","lat":"31.377396","category":"150","category_name":"银行","address":"上海市宝山区同济路131号"},{"poiid":"B2094654D469AAFD429D","title":"吴淞站","lon":"121.501","lat":"31.37538","category":"35","category_name":"长途汽车站","address":"淞浦路100"},{"poiid":"B2094654D469AAFD439B","title":"上海海事局吴淞海事处专用码头","lon":"121.50117","lat":"31.37341","category":"34","category_name":"港口码头","address":"淞浦路181"},{"poiid":"B2094757D16AA6FF479E","title":"琴帼人家","lon":"121.500552431","lat":"31.3774340207","category":"247","category_name":"餐饮美食","address":"上海农工商水产路"},{"poiid":"B2094750D26CA3F4429C","title":"老刘野生大鱼坊 宝山店","lon":"121.502523054","lat":"31.385492793","category":"82","category_name":"东北菜","address":"宝山区凇宝路406号(化成路淞宝路)"},{"poiid":"B2094654DB6AA6FF4192","title":"海滨八村","lon":"121.507","lat":"31.3884","category":"47","category_name":"住宅区","address":"上海宝山区牡丹江路海滨八村46号"},{"poiid":"B2094753D16EA4FC499A","title":"巨麦时尚KTV(淞宝店)","lon":"121.50098","lat":"31.38077","category":"170","category_name":"KTV","address":"宝山区淞宝路155号星月广场3楼(近永清路)"},{"poiid":"B2094654D46BA3F5459D","title":"上海三港码头(三岔港轮渡站东)","lon":"121.5072","lat":"31.37105","category":"34","category_name":"港口码头","address":""},{"poiid":"B2094655D36DA1F8429D","title":"外环隧道","lon":"121.50045","lat":"31.37633","category":"250","category_name":"公园户外","address":""},{"poiid":"B2094655D265ABFD469A","title":"长江口大楼","lon":"121.49967","lat":"31.37551","category":"46","category_name":"楼宇","address":"淞滨路1号"},{"poiid":"B2094757D66DA0FF479B","title":"迎宾楼食府","lon":"121.499184831","lat":"31.3798937714","category":"247","category_name":"餐饮美食","address":"上海市宝山区淞宝路396号"},{"poiid":"B2094757D16AA4FB449D","title":"海淞医院","lon":"121.50055","lat":"31.38145","category":"162","category_name":"医院","address":"上海宝山区淞宝路196号(永清路路口)  "},{"poiid":"B2094757D168A0FB4999","title":"淞宝路","lon":"121.50137173","lat":"31.382647928","category":"500","category_name":"未知分类","address":"上海宝山区淞宝路"},{"poiid":"B2094655D264A1F44893","title":"吴淞老镇三街坊","lon":"121.497482","lat":"31.374553","category":"47","category_name":"住宅区","address":"上海市宝山区同泰路135弄"},{"poiid":"B2094655D265A0FF499F","title":"上海旅游集散中心宝山分站","lon":"121.50228","lat":"31.38006","category":"248","category_name":"生活娱乐","address":"宝山区淞宝路251号上海港吴淞客运中心内(化成路口)"},{"poiid":"B2094757D16FA0FE429B","title":"宝山工商局","lon":"121.499763489","lat":"31.3754024506","category":"500","category_name":"未知分类","address":"上海淞滨路28号"},{"poiid":"B2094654D46AA5FE439A","title":"瑞华宝都","lon":"121.504","lat":"31.3839","category":"46","category_name":"楼宇","address":"牡丹江路186弄1幢1-3号"},{"poiid":"B2094654D46BA3FA4592","title":"上海三港集装箱码头","lon":"121.50834","lat":"31.37063","category":"34","category_name":"港口码头","address":"江东路1号"},{"poiid":"B2094757D06FA3F5409B","title":"上海公安高等专科学校","lon":"121.51755523","lat":"31.377981185","category":"671","category_name":"高校中心点","address":"浦东新区凌桥崇景路100号(三岔港)"},{"poiid":"B2094655D26BA2FC469E","title":"吴淞码头","lon":"121.49789","lat":"31.37766","category":"38","category_name":"公交车站","address":""},{"poiid":"B2094757D068A2FF459F","title":"宝山区房地产交易中心","lon":"121.49867993","lat":"31.374190423","category":"249","category_name":"购物服务","address":"上海同泰路68号4楼"},{"poiid":"B2094757D06AA6F84598","title":"吴淞客运中心客运站","lon":"121.50122083","lat":"31.378539743","category":"35","category_name":"长途汽车站","address":"上海市宝山区化成路271号"},{"poiid":"B2094757D068A1FA489F","title":"新长江大酒店","lon":"121.499050731","lat":"31.3799873487","category":"217","category_name":"旅馆招待所","address":"上海宝山区淞宝路96号"},{"poiid":"B2094757D168ABF5439C","title":"星月国际商务广场","lon":"121.50003163","lat":"31.381648607","category":"500","category_name":"未知分类","address":"徐汇宜山路425号"},{"poiid":"B2094757D06AA0FB4292","title":"外环隧道","lon":"121.50563412","lat":"31.376110483","category":"500","category_name":"未知分类","address":"上海外环线"},{"poiid":"B2094757D068A7F84592","title":"宝山区税务局","lon":"121.499759","lat":"31.375406","category":"500","category_name":"未知分类","address":"上海淞滨路28号"},{"poiid":"B2094757D06FAAFA419A","title":"吴淞中学","lon":"121.49766","lat":"31.37568","category":"55","category_name":"中学","address":"宝山区泰和路99号(近牡丹江路)"},{"poiid":"B2094654D46AA5FD4092","title":"海宝大酒店","lon":"121.49702","lat":"31.38114","category":"76","category_name":"上海菜","address":"宝山区牡丹江路289号(近同济支路)"},{"poiid":"B2094750DB64A5FA4492","title":"巨麦时尚KTV(淞宝店)","lon":"121.50075273408515","lat":"31.381164858525576","category":"170","category_name":"KTV","address":"宝山区淞宝路155号星月广场3楼"},{"poiid":"B2094757D66CA4F54498","title":"众所粥滋(潮州海鲜粥)","lon":"121.50136","lat":"31.38392","category":"72","category_name":"广东菜","address":"宝山区淞宝路268号(近永清路)"},{"poiid":"B2094757D06FA6FB409F","title":"吴淞轮渡站","lon":"121.5012188","lat":"31.374578336","category":"35","category_name":"长途汽车站","address":"上海宝山区淞浦路114号"},{"poiid":"B2094757D06AA4FE4499","title":"海军博物馆","lon":"121.50643","lat":"31.3887963487","category":"182","category_name":"博物馆","address":"宝山区塘后路68号(近淞宝路)"},{"poiid":"B2094750DA65A7F9439D","title":"弄堂口","lon":"121.500152","lat":"31.379171","category":"75","category_name":"浙江菜","address":"宝山区淞宝路155弄星月国际商务广场29号(近永清路)"},{"poiid":"B2094757D069AAFA479B","title":"渔人码头","lon":"121.49790628","lat":"31.372561055","category":"251","category_name":"出行住宿","address":"上海吴淞"},{"poiid":"B2094655D26BA1F84598","title":"牡丹江路吴淞医院","lon":"121.4972","lat":"31.37913","category":"162","category_name":"医院","address":""},{"poiid":"B2094757D069AAFA4592","title":"吴淞口国际邮轮码头","lon":"121.499","lat":"31.3796","category":"260","category_name":"其他","address":"上海宝杨路1号"},{"poiid":"B2094757D569A3F54099","title":"上海港吴淞客运中心客运站","lon":"121.50186089","lat":"31.37859239","category":"35","category_name":"长途汽车站","address":"中国上海市宝山区化成路"},{"poiid":"B2094751D56FA7FA439A","title":"横店电影城","lon":"121.499498","lat":"31.378073","category":"178","category_name":"电影院","address":"上海市宝山区淞宝路155弄71号一楼"},{"poiid":"B2094752D36DABFE499D","title":"横店影城","lon":"121.500458","lat":"31.380585","category":"178","category_name":"电影院","address":"淞宝路155号星月国际广场"},{"poiid":"B2094757D568A0FB459D","title":"联和滨江大厦","lon":"121.501","lat":"31.377","category":"46","category_name":"楼宇","address":"丰台学城海鹰路1号,3号"},{"poiid":"B2094757D66BABF8419C","title":"锦润坊海鲜豆捞餐厅","lon":"121.50124","lat":"31.38345","category":"86","category_name":"火锅店","address":"宝山区淞宝路218号(近永清路)"},{"poiid":"B2094750D165A5FF4398","title":"驰公馆","lon":"121.50148","lat":"31.379848","category":"72","category_name":"广东菜","address":"宝山区淞宝路155弄38号(近化成路)"},{"poiid":"B2094750D564ABF9409A","title":"星月浦江国际","lon":"121.501608","lat":"31.379865","category":"46","category_name":"楼宇","address":"宝山淞宝路155弄"},{"poiid":"B2094757D069ABF5409A","title":"万家灯火酒店","lon":"121.502034061","lat":"31.3856950811","category":"75","category_name":"浙江菜","address":"宝山区淞宝路358号"},{"poiid":"B2094757D16DABFA419D","title":"三岔港轮渡站","lon":"121.506923","lat":"31.371087","category":"35","category_name":"长途汽车站","address":"上海江东路一弄38号"},{"poiid":"B2094757D465ABF4429E","title":"淞滨路砂锅馄饨","lon":"121.501186054","lat":"31.375434793","category":"68","category_name":"快餐厅","address":"淞滨路近吴淞码头"},{"poiid":"B2094757D06AA4F54899","title":"大唐酒店","lon":"121.50014495","lat":"31.383768081","category":"76","category_name":"上海菜","address":"宝山区永清路55号(近淞宝路)"},{"poiid":"B2094655D36CA2FA4598","title":"三岔港","lon":"121.50869","lat":"31.3698","category":"38","category_name":"公交车站","address":"江东路121号"},{"poiid":"B209475DD26EAAFB4799","title":"UME影城宝山店","lon":"121.501152","lat":"31.376657","category":"500","category_name":"未知分类","address":"上海市 上海市宝山区牡丹江路318号诺亚新天地4楼"},{"poiid":"B2094654D469ABF5439A","title":"长江口商城","lon":"121.50129","lat":"31.37501","category":"119","category_name":"商场","address":""},{"poiid":"B2094752D46AA2FE409C","title":"中国农业银行宝山吴淞支行","lon":"121.500317","lat":"31.377396","category":"150","category_name":"银行","address":"上海市宝山区同济路131号"},{"poiid":"B2094654D469AAFD429D","title":"吴淞站","lon":"121.501","lat":"31.37538","category":"35","category_name":"长途汽车站","address":"淞浦路100"},{"poiid":"B2094654D469AAFD439B","title":"上海海事局吴淞海事处专用码头","lon":"121.50117","lat":"31.37341","category":"34","category_name":"港口码头","address":"淞浦路181"},{"poiid":"B2094757D16AA6FF479E","title":"琴帼人家","lon":"121.500552431","lat":"31.3774340207","category":"247","category_name":"餐饮美食","address":"上海农工商水产路"},{"poiid":"B2094750D26CA3F4429C","title":"老刘野生大鱼坊 宝山店","lon":"121.502523054","lat":"31.385492793","category":"82","category_name":"东北菜","address":"宝山区凇宝路406号(化成路淞宝路)"},{"poiid":"B2094654DB6AA6FF4192","title":"海滨八村","lon":"121.507","lat":"31.3884","category":"47","category_name":"住宅区","address":"上海宝山区牡丹江路海滨八村46号"},{"poiid":"B2094753D16EA4FC499A","title":"巨麦时尚KTV(淞宝店)","lon":"121.50098","lat":"31.38077","category":"170","category_name":"KTV","address":"宝山区淞宝路155号星月广场3楼(近永清路)"},{"poiid":"B2094654D46BA3F5459D","title":"上海三港码头(三岔港轮渡站东)","lon":"121.5072","lat":"31.37105","category":"34","category_name":"港口码头","address":""},{"poiid":"B2094655D36DA1F8429D","title":"外环隧道","lon":"121.50045","lat":"31.37633","category":"250","category_name":"公园户外","address":""},{"poiid":"B2094655D265ABFD469A","title":"长江口大楼","lon":"121.49967","lat":"31.37551","category":"46","category_name":"楼宇","address":"淞滨路1号"},{"poiid":"B2094757D66DA0FF479B","title":"迎宾楼食府","lon":"121.499184831","lat":"31.3798937714","category":"247","category_name":"餐饮美食","address":"上海市宝山区淞宝路396号"},{"poiid":"B2094757D16AA4FB449D","title":"海淞医院","lon":"121.50055","lat":"31.38145","category":"162","category_name":"医院","address":"上海宝山区淞宝路196号(永清路路口)  "},{"poiid":"B2094757D168A0FB4999","title":"淞宝路","lon":"121.50137173","lat":"31.382647928","category":"500","category_name":"未知分类","address":"上海宝山区淞宝路"},{"poiid":"B2094655D264A1F44893","title":"吴淞老镇三街坊","lon":"121.497482","lat":"31.374553","category":"47","category_name":"住宅区","address":"上海市宝山区同泰路135弄"},{"poiid":"B2094655D265A0FF499F","title":"上海旅游集散中心宝山分站","lon":"121.50228","lat":"31.38006","category":"248","category_name":"生活娱乐","address":"宝山区淞宝路251号上海港吴淞客运中心内(化成路口)"},{"poiid":"B2094757D16FA0FE429B","title":"宝山工商局","lon":"121.499763489","lat":"31.3754024506","category":"500","category_name":"未知分类","address":"上海淞滨路28号"},{"poiid":"B2094654D46AA5FE439A","title":"瑞华宝都","lon":"121.504","lat":"31.3839","category":"46","category_name":"楼宇","address":"牡丹江路186弄1幢1-3号"},{"poiid":"B2094654D46BA3FA4592","title":"上海三港集装箱码头","lon":"121.50834","lat":"31.37063","category":"34","category_name":"港口码头","address":"江东路1号"},{"poiid":"B2094757D06FA3F5409B","title":"上海公安高等专科学校","lon":"121.51755523","lat":"31.377981185","category":"671","category_name":"高校中心点","address":"浦东新区凌桥崇景路100号(三岔港)"},{"poiid":"B2094655D26BA2FC469E","title":"吴淞码头","lon":"121.49789","lat":"31.37766","category":"38","category_name":"公交车站","address":""},{"poiid":"B2094757D068A2FF459F","title":"宝山区房地产交易中心","lon":"121.49867993","lat":"31.374190423","category":"249","category_name":"购物服务","address":"上海同泰路68号4楼"},{"poiid":"B2094757D06AA6F84598","title":"吴淞客运中心客运站","lon":"121.50122083","lat":"31.378539743","category":"35","category_name":"长途汽车站","address":"上海市宝山区化成路271号"},{"poiid":"B2094757D068A1FA489F","title":"新长江大酒店","lon":"121.499050731","lat":"31.3799873487","category":"217","category_name":"旅馆招待所","address":"上海宝山区淞宝路96号"},{"poiid":"B2094757D168ABF5439C","title":"星月国际商务广场","lon":"121.50003163","lat":"31.381648607","category":"500","category_name":"未知分类","address":"徐汇宜山路425号"},{"poiid":"B2094757D06AA0FB4292","title":"外环隧道","lon":"121.50563412","lat":"31.376110483","category":"500","category_name":"未知分类","address":"上海外环线"},{"poiid":"B2094757D068A7F84592","title":"宝山区税务局","lon":"121.499759","lat":"31.375406","category":"500","category_name":"未知分类","address":"上海淞滨路28号"},{"poiid":"B2094757D06FAAFA419A","title":"吴淞中学","lon":"121.49766","lat":"31.37568","category":"55","category_name":"中学","address":"宝山区泰和路99号(近牡丹江路)"},{"poiid":"B2094654D46AA5FD4092","title":"海宝大酒店","lon":"121.49702","lat":"31.38114","category":"76","category_name":"上海菜","address":"宝山区牡丹江路289号(近同济支路)"},{"poiid":"B2094750DB64A5FA4492","title":"巨麦时尚KTV(淞宝店)","lon":"121.50075273408515","lat":"31.381164858525576","category":"170","category_name":"KTV","address":"宝山区淞宝路155号星月广场3楼"},{"poiid":"B2094757D66CA4F54498","title":"众所粥滋(潮州海鲜粥)","lon":"121.50136","lat":"31.38392","category":"72","category_name":"广东菜","address":"宝山区淞宝路268号(近永清路)"},{"poiid":"B2094757D06FA6FB409F","title":"吴淞轮渡站","lon":"121.5012188","lat":"31.374578336","category":"35","category_name":"长途汽车站","address":"上海宝山区淞浦路114号"},{"poiid":"B2094757D06AA4FE4499","title":"海军博物馆","lon":"121.50643","lat":"31.3887963487","category":"182","category_name":"博物馆","address":"宝山区塘后路68号(近淞宝路)"},{"poiid":"B2094750DA65A7F9439D","title":"弄堂口","lon":"121.500152","lat":"31.379171","category":"75","category_name":"浙江菜","address":"宝山区淞宝路155弄星月国际商务广场29号(近永清路)"},{"poiid":"B2094757D069AAFA479B","title":"渔人码头","lon":"121.49790628","lat":"31.372561055","category":"251","category_name":"出行住宿","address":"上海吴淞"},{"poiid":"B2094655D26BA1F84598","title":"牡丹江路吴淞医院","lon":"121.4972","lat":"31.37913","category":"162","category_name":"医院","address":""},{"poiid":"B2094757D069AAFA4592","title":"吴淞口国际邮轮码头","lon":"121.499","lat":"31.3796","category":"260","category_name":"其他","address":"上海宝杨路1号"},{"poiid":"B2094757D569A3F54099","title":"上海港吴淞客运中心客运站","lon":"121.50186089","lat":"31.37859239","category":"35","category_name":"长途汽车站","address":"中国上海市宝山区化成路"},{"poiid":"B2094751D56FA7FA439A","title":"横店电影城","lon":"121.499498","lat":"31.378073","category":"178","category_name":"电影院","address":"上海市宝山区淞宝路155弄71号一楼"},{"poiid":"B2094752D36DABFE499D","title":"横店影城","lon":"121.500458","lat":"31.380585","category":"178","category_name":"电影院","address":"淞宝路155号星月国际广场"},{"poiid":"B2094757D568A0FB459D","title":"联和滨江大厦","lon":"121.501","lat":"31.377","category":"46","category_name":"楼宇","address":"丰台学城海鹰路1号,3号"},{"poiid":"B2094757D66BABF8419C","title":"锦润坊海鲜豆捞餐厅","lon":"121.50124","lat":"31.38345","category":"86","category_name":"火锅店","address":"宝山区淞宝路218号(近永清路)"},{"poiid":"B2094750D165A5FF4398","title":"驰公馆","lon":"121.50148","lat":"31.379848","category":"72","category_name":"广东菜","address":"宝山区淞宝路155弄38号(近化成路)"},{"poiid":"B2094750D564ABF9409A","title":"星月浦江国际","lon":"121.501608","lat":"31.379865","category":"46","category_name":"楼宇","address":"宝山淞宝路155弄"},{"poiid":"B2094757D069ABF5409A","title":"万家灯火酒店","lon":"121.502034061","lat":"31.3856950811","category":"75","category_name":"浙江菜","address":"宝山区淞宝路358号"},{"poiid":"B2094757D16DABFA419D","title":"三岔港轮渡站","lon":"121.506923","lat":"31.371087","category":"35","category_name":"长途汽车站","address":"上海江东路一弄38号"},{"poiid":"B2094757D465ABF4429E","title":"淞滨路砂锅馄饨","lon":"121.501186054","lat":"31.375434793","category":"68","category_name":"快餐厅","address":"淞滨路近吴淞码头"},{"poiid":"B2094757D06AA4F54899","title":"大唐酒店","lon":"121.50014495","lat":"31.383768081","category":"76","category_name":"上海菜","address":"宝山区永清路55号(近淞宝路)"},{"poiid":"B2094655D36CA2FA4598","title":"三岔港","lon":"121.50869","lat":"31.3698","category":"38","category_name":"公交车站","address":"江东路121号"},{"poiid":"B209475DD26EAAFB4799","title":"UME影城宝山店","lon":"121.501152","lat":"31.376657","category":"500","category_name":"未知分类","address":"上海市 上海市宝山区牡丹江路318号诺亚新天地4楼"},{"poiid":"B2094654D469ABF5439A","title":"长江口商城","lon":"121.50129","lat":"31.37501","category":"119","category_name":"商场","address":""},{"poiid":"B2094752D46AA2FE409C","title":"中国农业银行宝山吴淞支行","lon":"121.500317","lat":"31.377396","category":"150","category_name":"银行","address":"上海市宝山区同济路131号"},{"poiid":"B2094654D469AAFD429D","title":"吴淞站","lon":"121.501","lat":"31.37538","category":"35","category_name":"长途汽车站","address":"淞浦路100"},{"poiid":"B2094654D469AAFD439B","title":"上海海事局吴淞海事处专用码头","lon":"121.50117","lat":"31.37341","category":"34","category_name":"港口码头","address":"淞浦路181"},{"poiid":"B2094757D16AA6FF479E","title":"琴帼人家","lon":"121.500552431","lat":"31.3774340207","category":"247","category_name":"餐饮美食","address":"上海农工商水产路"},{"poiid":"B2094750D26CA3F4429C","title":"老刘野生大鱼坊 宝山店","lon":"121.502523054","lat":"31.385492793","category":"82","category_name":"东北菜","address":"宝山区凇宝路406号(化成路淞宝路)"},{"poiid":"B2094654DB6AA6FF4192","title":"海滨八村","lon":"121.507","lat":"31.3884","category":"47","category_name":"住宅区","address":"上海宝山区牡丹江路海滨八村46号"},{"poiid":"B2094753D16EA4FC499A","title":"巨麦时尚KTV(淞宝店)","lon":"121.50098","lat":"31.38077","category":"170","category_name":"KTV","address":"宝山区淞宝路155号星月广场3楼(近永清路)"},{"poiid":"B2094654D46BA3F5459D","title":"上海三港码头(三岔港轮渡站东)","lon":"121.5072","lat":"31.37105","category":"34","category_name":"港口码头","address":""},{"poiid":"B2094655D36DA1F8429D","title":"外环隧道","lon":"121.50045","lat":"31.37633","category":"250","category_name":"公园户外","address":""},{"poiid":"B2094655D265ABFD469A","title":"长江口大楼","lon":"121.49967","lat":"31.37551","category":"46","category_name":"楼宇","address":"淞滨路1号"},{"poiid":"B2094757D66DA0FF479B","title":"迎宾楼食府","lon":"121.499184831","lat":"31.3798937714","category":"247","category_name":"餐饮美食","address":"上海市宝山区淞宝路396号"},{"poiid":"B2094757D16AA4FB449D","title":"海淞医院","lon":"121.50055","lat":"31.38145","category":"162","category_name":"医院","address":"上海宝山区淞宝路196号(永清路路口)  "},{"poiid":"B2094757D168A0FB4999","title":"淞宝路","lon":"121.50137173","lat":"31.382647928","category":"500","category_name":"未知分类","address":"上海宝山区淞宝路"},{"poiid":"B2094655D264A1F44893","title":"吴淞老镇三街坊","lon":"121.497482","lat":"31.374553","category":"47","category_name":"住宅区","address":"上海市宝山区同泰路135弄"},{"poiid":"B2094655D265A0FF499F","title":"上海旅游集散中心宝山分站","lon":"121.50228","lat":"31.38006","category":"248","category_name":"生活娱乐","address":"宝山区淞宝路251号上海港吴淞客运中心内(化成路口)"},{"poiid":"B2094757D16FA0FE429B","title":"宝山工商局","lon":"121.499763489","lat":"31.3754024506","category":"500","category_name":"未知分类","address":"上海淞滨路28号"},{"poiid":"B2094654D46AA5FE439A","title":"瑞华宝都","lon":"121.504","lat":"31.3839","category":"46","category_name":"楼宇","address":"牡丹江路186弄1幢1-3号"},{"poiid":"B2094654D46BA3FA4592","title":"上海三港集装箱码头","lon":"121.50834","lat":"31.37063","category":"34","category_name":"港口码头","address":"江东路1号"}]