[{"poiid":"B2094757D06EABF4499E","title":"金桥国际商业广场","lon":"121.58042","lat":"31.25607","category":"119","category_name":"商场","address":"浦东新区张杨路3611弄(近金桥路)"},{"poiid":"B2094757D06EAAFD469E","title":"满记甜品(金桥国际店)","lon":"121.58034","lat":"31.25575","category":"67","category_name":"甜品店","address":"浦东新区张杨路3611号金桥国际商业广场7号110室(近金桥路)"},{"poiid":"B2094757D06FA0FC479C","title":"茶矿 TEA MINE","lon":"121.580686054","lat":"31.256724793","category":"67","category_name":"甜品店","address":"浦东新区张杨路3611弄金桥国际广场6号102室(近金桥路)"},{"poiid":"B2094757D06EAAFE4999","title":"上海歌城(金桥国际广场店)","lon":"121.57924513416765","lat":"31.256686064933838","category":"170","category_name":"KTV","address":"浦东新区张杨路3611号金桥国际广场2座4楼(金桥路口)"},{"poiid":"B2094757D06FA7FD449C","title":"小南国(金桥国际店)","lon":"121.58031","lat":"31.25599","category":"76","category_name":"上海菜","address":"浦东新区张杨路3611号金桥国际商业广场6号楼2楼(近金桥路)"},{"poiid":"B2094757D06FA3F5479F","title":"望湘园(金桥店)","lon":"121.58074","lat":"31.25608","category":"77","category_name":"湖南菜","address":"浦东新区张杨路3611弄金桥国际广场7座3楼(近金桥路)"},{"poiid":"B2094757D06FA2FC4099","title":"PANKOO釜山料理(金桥店)","lon":"121.58036","lat":"31.25605","category":"96","category_name":"韩国料理","address":"浦东新区张杨路3611号金桥国际购物中心7号楼301室(金桥路张杨路)"},{"poiid":"B2094757D06FA3FB4898","title":"迈泰(金桥店)","lon":"121.57969236","lat":"31.255861238","category":"99","category_name":"泰国／越南菜品餐厅","address":"浦东新区张杨路3611号金桥国际商业广场8座4楼(近金桥路)"},{"poiid":"B2094757D06FA2F94698","title":"吉旺港式茶餐厅(金桥店)","lon":"121.58082","lat":"31.25617","category":"72","category_name":"广东菜","address":"浦东新区张杨路3611弄金桥国际商业广场3座3楼(金桥路张杨路)"},{"poiid":"B2094655D265A2FA469C","title":"伊秀手握寿司 金桥店","lon":"121.580765054","lat":"31.256764793","category":"95","category_name":"日本料理","address":"浦东新区张杨路3611弄金桥国际商业广场8座210、211单元(近金桥路)"},{"poiid":"B2094750D76CA6FB499E","title":"Ashley","lon":"121.579","lat":"31.2558","category":"268","category_name":"自助","address":"浦东新区张杨路3611弄金桥国际商业广场内"},{"poiid":"B2094655D265ABFB4492","title":"避风塘","lon":"121.57935","lat":"31.25712","category":"66","category_name":"茶艺馆","address":""},{"poiid":"B2094757D068A3F9449B","title":"金桥国际豆捞坊","lon":"121.57903586","lat":"31.256282931","category":"500","category_name":"未知分类","address":"上海浦东新区金桥路3611号(近张杨路)  3楼"},{"poiid":"B2094757D06FA6FA4693","title":"天虹海鲜酒家","lon":"121.57862413","lat":"31.256325642","category":"72","category_name":"广东菜","address":"浦东新区张杨路3611号金桥国际商业广场6座3楼(近金桥路)"},{"poiid":"B2094757D06FA6F9449C","title":"龙门客栈(金桥国际店)","lon":"121.57887983","lat":"31.256045465","category":"217","category_name":"旅馆招待所","address":"浦东新区张杨路3611弄金桥国际商业广场7座2楼(金桥路张杨路)"},{"poiid":"B2094757D06FA5F94099","title":"川食公馆","lon":"121.57892433","lat":"31.256706951","category":"71","category_name":"四川菜","address":"浦东新区张杨路3611弄金桥国际商业广场8座4楼(近金桥路)"},{"poiid":"B2094757D66BA4F9439D","title":"香啡缤 金桥国际店 Coffee Bean&Tea Leaf","lon":"121.580936054","lat":"31.256787793","category":"260","category_name":"其他","address":"浦东新区张杨路3611号金桥国际商业广场(金桥路口)"},{"poiid":"B2094757D06FA1F4439F","title":"COCO壱番屋(金桥)","lon":"121.57973233","lat":"31.256281941","category":"95","category_name":"日本料理","address":"浦东新区张杨路3611号金桥国际商业广场2座2楼"},{"poiid":"B2094757D065A2FE4398","title":"赤板亭","lon":"121.578626339","lat":"31.2563119424","category":"500","category_name":"未知分类","address":"上海金桥店"},{"poiid":"B2094757D068A2F44698","title":"COSTA@新金桥国际","lon":"121.579406339","lat":"31.256116938","category":"65","category_name":"咖啡厅","address":"上海市浦东新区博山东路"},{"poiid":"B2094757D06FA0F5499F","title":"山间堂民间瓦缸煨汤(金桥店)","lon":"121.580358","lat":"31.256134","category":"260","category_name":"其他","address":"浦东新区张杨路3611号金桥商业广场2座3楼(金桥路张杨路)"},{"poiid":"B2094655D265A6FB479A","title":"苏武牧羊 金桥店","lon":"121.580712054","lat":"31.256775793","category":"86","category_name":"火锅店","address":"浦东新区金桥路金桥国际商业广场1栋4楼(近张杨路)"},{"poiid":"B2094757D06FA0FF4893","title":"卡通尼乐园","lon":"121.580200195","lat":"31.2561016083","category":"173","category_name":"游戏厅","address":"浦东新区张杨路3611号金桥国际商业广场1座3-4楼(近金桥路)"},{"poiid":"B2094757D06FA2FE419F","title":"高点娱乐城(金桥店)","lon":"121.579167616","lat":"31.256403035","category":"173","category_name":"游戏厅","address":"上海浦东新区张杨路3611号金桥国际商业广场"},{"poiid":"B2094757D068A4FD479B","title":"高点保龄球(金桥店)","lon":"121.58156","lat":"31.25603","category":"220","category_name":"运动场所","address":"浦东新区张杨路3611弄金桥国际商业广场3座4楼(金桥路张杨路)"},{"poiid":"B2094655D36CA3F9429D","title":"麦当劳 金桥国际店 McDonald's","lon":"121.580810054","lat":"31.256798793","category":"68","category_name":"快餐厅","address":"浦东新区张杨路3611号金桥国际商业广场(近金桥路)"},{"poiid":"B2094757D66EA2F54493","title":"赤坂亭","lon":"121.578687539","lat":"31.25620344","category":"269","category_name":"烧烤","address":"浦东新区张杨路3611号金桥国际商业广场7号303室(近金桥路)"},{"poiid":"B2094655D36CA0FE4999","title":"金桥路地铁站","lon":"121.58197","lat":"31.25624","category":"36","category_name":"地铁站","address":""},{"poiid":"B2094757D069A3F94193","title":"旺池 金桥店","lon":"121.580936054","lat":"31.256867793","category":"71","category_name":"四川菜","address":"浦东新区张杨路3611弄金桥国际商业广场7座208号(近金桥路)"},{"poiid":"B2094655D26BA7F8419D","title":"多番日本料理","lon":"121.57871","lat":"31.25662","category":"95","category_name":"日本料理","address":"浦东新区张杨路3611弄金桥国际商业广场1号楼419室(近博山东路)"},{"poiid":"B2094757D464A6FD439B","title":"一茶一坐 金桥店","lon":"121.580867054","lat":"31.256639793","category":"260","category_name":"其他","address":"浦东新区张杨路3611号金桥国际商业广场(近金桥路)"},{"poiid":"B2094757D06FA4FC4598","title":"萨莉亚(金桥店)","lon":"121.58038","lat":"31.25617","category":"94","category_name":"西餐厅","address":"浦东新区张杨路3611号金桥国际商业广场3座3楼(近金桥路)"},{"poiid":"B2094757D068ABFC429D","title":"棒约翰比萨(金桥国际店)","lon":"121.58025","lat":"31.25617","category":"94","category_name":"西餐厅","address":"浦东新区张杨路3611号金桥国际商业广场3座1楼(金桥路张杨路)"},{"poiid":"B2094757D06FA7F8439F","title":"老妈米线(金桥店)","lon":"121.57989","lat":"31.25612","category":"86","category_name":"火锅店","address":"浦东新区张杨路3611弄金桥国际商业广场1座4楼424室(近金桥路)"},{"poiid":"B2094757D06FA1F94699","title":"1001原汁牛肉面(金桥店)","lon":"121.58041","lat":"31.25606","category":"68","category_name":"快餐厅","address":"浦东新区张杨路3611弄7号111-112商铺(金桥路张杨路)"},{"poiid":"B2094757D069AAFC4098","title":"金桥国际coffee bean","lon":"121.579066339","lat":"31.2564479456","category":"65","category_name":"咖啡厅","address":"上海市浦东新区规二路"},{"poiid":"B2094757D665A0FB489D","title":"DQ冰雪皇后 金桥店 Dairy Queen","lon":"121.581027054","lat":"31.256730793","category":"113","category_name":"冷饮店","address":"浦东新区张杨路3611号金桥国际商业广场1座1楼(近金桥路)"},{"poiid":"B2094751D36CABFE479D","title":"新石器烤肉(金桥国际店)","lon":"121.58099","lat":"31.25644","category":"68","category_name":"快餐厅","address":"浦东新区张杨路3611弄金桥国际广场1号4楼(金桥路张杨路)"},{"poiid":"B2094757D068A2FE469F","title":"一茶一座(金桥国际广场店)","lon":"121.57933033","lat":"31.25622194","category":"47","category_name":"住宅区","address":"上海市浦东新区张扬路3611弄金桥国际广场"},{"poiid":"B2094757D06FA1FE419E","title":"易买得(金桥店)","lon":"121.57874377","lat":"31.256799264","category":"118","category_name":"超级市场","address":"浦东新区张杨路3611号(金桥路张杨路)"},{"poiid":"B2094655D26DABFE449C","title":"金杨路商业街(金杨路)","lon":"121.58482","lat":"31.25505","category":"116","category_name":"特色商业街","address":""},{"poiid":"B2094757D06FA5F9479B","title":"汉堡王(金桥店)","lon":"121.58027","lat":"31.25617","category":"68","category_name":"快餐厅","address":"浦东新区张杨路3611号金桥国际商业广场6座1楼(金桥路张杨路)"},{"poiid":"B2094750D26FA6F8449D","title":"豆捞坊 金桥店 Dolar Shop","lon":"121.58129","lat":"31.2563","category":"86","category_name":"火锅店","address":"浦东新区张杨路3611号金桥国际商业广场3座3楼(近金桥路)"},{"poiid":"B2094757D068A2F9469F","title":"味千拉面 张杨路店","lon":"121.580890054","lat":"31.256764793","category":"247","category_name":"餐饮美食","address":"浦东新区张杨路3611弄金桥国际商业广场1座1楼(近金桥路)"},{"poiid":"B2094751D369A3FE4792","title":"芋贵人甜品店(金桥国际广场店)","lon":"121.58024","lat":"31.2557","category":"67","category_name":"甜品店","address":"浦东新区张杨路3611弄金桥国际广场7号楼111号商铺(近金桥路)"},{"poiid":"B2094757DB65AAFA479B","title":"costa coffee（金桥国际商业广场店）","lon":"121.579","lat":"31.2566","category":"65","category_name":"咖啡厅","address":"浦东新区张杨路3611号金桥国际商业广场7号楼1楼105室(近金桥路)"},{"poiid":"B2094757DB65AAFA4693","title":"酷圣石（金桥国际商业广场店）","lon":"121.579","lat":"31.2566","category":"113","category_name":"冷饮店","address":"浦东新区张杨路3611号7号140单元金桥国际商业广场7座1楼(近金桥路)"},{"poiid":"B2094757D068ABF54792","title":"YOBA酸奶冰淇淋(金桥店)","lon":"121.57881133","lat":"31.256381944","category":"113","category_name":"冷饮店","address":"浦东新区张杨路3611弄金桥国际商业广场2座2楼"},{"poiid":"B2094757D06BA0FF4192","title":"釜山料理","lon":"121.5802","lat":"31.256102","category":"247","category_name":"餐饮美食","address":"上海金桥国际商业广场"},{"poiid":"B2094655D26BA5F94293","title":"Haagen-Dazs","lon":"121.57984","lat":"31.25598","category":"113","category_name":"冷饮店","address":""},{"poiid":"B2094757D06EABF4499E","title":"金桥国际商业广场","lon":"121.58042","lat":"31.25607","category":"119","category_name":"商场","address":"浦东新区张杨路3611弄(近金桥路)"},{"poiid":"B2094757D06EAAFD469E","title":"满记甜品(金桥国际店)","lon":"121.58034","lat":"31.25575","category":"67","category_name":"甜品店","address":"浦东新区张杨路3611号金桥国际商业广场7号110室(近金桥路)"},{"poiid":"B2094757D06FA0FC479C","title":"茶矿 TEA MINE","lon":"121.580686054","lat":"31.256724793","category":"67","category_name":"甜品店","address":"浦东新区张杨路3611弄金桥国际广场6号102室(近金桥路)"},{"poiid":"B2094757D06EAAFE4999","title":"上海歌城(金桥国际广场店)","lon":"121.57924513416765","lat":"31.256686064933838","category":"170","category_name":"KTV","address":"浦东新区张杨路3611号金桥国际广场2座4楼(金桥路口)"},{"poiid":"B2094757D06FA7FD449C","title":"小南国(金桥国际店)","lon":"121.58031","lat":"31.25599","category":"76","category_name":"上海菜","address":"浦东新区张杨路3611号金桥国际商业广场6号楼2楼(近金桥路)"},{"poiid":"B2094757D06FA3F5479F","title":"望湘园(金桥店)","lon":"121.58074","lat":"31.25608","category":"77","category_name":"湖南菜","address":"浦东新区张杨路3611弄金桥国际广场7座3楼(近金桥路)"},{"poiid":"B2094757D06FA2FC4099","title":"PANKOO釜山料理(金桥店)","lon":"121.58036","lat":"31.25605","category":"96","category_name":"韩国料理","address":"浦东新区张杨路3611号金桥国际购物中心7号楼301室(金桥路张杨路)"},{"poiid":"B2094757D06FA3FB4898","title":"迈泰(金桥店)","lon":"121.57969236","lat":"31.255861238","category":"99","category_name":"泰国／越南菜品餐厅","address":"浦东新区张杨路3611号金桥国际商业广场8座4楼(近金桥路)"},{"poiid":"B2094757D06FA2F94698","title":"吉旺港式茶餐厅(金桥店)","lon":"121.58082","lat":"31.25617","category":"72","category_name":"广东菜","address":"浦东新区张杨路3611弄金桥国际商业广场3座3楼(金桥路张杨路)"},{"poiid":"B2094655D265A2FA469C","title":"伊秀手握寿司 金桥店","lon":"121.580765054","lat":"31.256764793","category":"95","category_name":"日本料理","address":"浦东新区张杨路3611弄金桥国际商业广场8座210、211单元(近金桥路)"},{"poiid":"B2094750D76CA6FB499E","title":"Ashley","lon":"121.579","lat":"31.2558","category":"268","category_name":"自助","address":"浦东新区张杨路3611弄金桥国际商业广场内"},{"poiid":"B2094655D265ABFB4492","title":"避风塘","lon":"121.57935","lat":"31.25712","category":"66","category_name":"茶艺馆","address":""},{"poiid":"B2094757D068A3F9449B","title":"金桥国际豆捞坊","lon":"121.57903586","lat":"31.256282931","category":"500","category_name":"未知分类","address":"上海浦东新区金桥路3611号(近张杨路)  3楼"},{"poiid":"B2094757D06FA6FA4693","title":"天虹海鲜酒家","lon":"121.57862413","lat":"31.256325642","category":"72","category_name":"广东菜","address":"浦东新区张杨路3611号金桥国际商业广场6座3楼(近金桥路)"},{"poiid":"B2094757D06FA6F9449C","title":"龙门客栈(金桥国际店)","lon":"121.57887983","lat":"31.256045465","category":"217","category_name":"旅馆招待所","address":"浦东新区张杨路3611弄金桥国际商业广场7座2楼(金桥路张杨路)"},{"poiid":"B2094757D06FA5F94099","title":"川食公馆","lon":"121.57892433","lat":"31.256706951","category":"71","category_name":"四川菜","address":"浦东新区张杨路3611弄金桥国际商业广场8座4楼(近金桥路)"},{"poiid":"B2094757D66BA4F9439D","title":"香啡缤 金桥国际店 Coffee Bean&Tea Leaf","lon":"121.580936054","lat":"31.256787793","category":"260","category_name":"其他","address":"浦东新区张杨路3611号金桥国际商业广场(金桥路口)"},{"poiid":"B2094757D06FA1F4439F","title":"COCO壱番屋(金桥)","lon":"121.57973233","lat":"31.256281941","category":"95","category_name":"日本料理","address":"浦东新区张杨路3611号金桥国际商业广场2座2楼"},{"poiid":"B2094757D065A2FE4398","title":"赤板亭","lon":"121.578626339","lat":"31.2563119424","category":"500","category_name":"未知分类","address":"上海金桥店"},{"poiid":"B2094757D068A2F44698","title":"COSTA@新金桥国际","lon":"121.579406339","lat":"31.256116938","category":"65","category_name":"咖啡厅","address":"上海市浦东新区博山东路"},{"poiid":"B2094757D06FA0F5499F","title":"山间堂民间瓦缸煨汤(金桥店)","lon":"121.580358","lat":"31.256134","category":"260","category_name":"其他","address":"浦东新区张杨路3611号金桥商业广场2座3楼(金桥路张杨路)"},{"poiid":"B2094655D265A6FB479A","title":"苏武牧羊 金桥店","lon":"121.580712054","lat":"31.256775793","category":"86","category_name":"火锅店","address":"浦东新区金桥路金桥国际商业广场1栋4楼(近张杨路)"},{"poiid":"B2094757D06FA0FF4893","title":"卡通尼乐园","lon":"121.580200195","lat":"31.2561016083","category":"173","category_name":"游戏厅","address":"浦东新区张杨路3611号金桥国际商业广场1座3-4楼(近金桥路)"},{"poiid":"B2094757D06FA2FE419F","title":"高点娱乐城(金桥店)","lon":"121.579167616","lat":"31.256403035","category":"173","category_name":"游戏厅","address":"上海浦东新区张杨路3611号金桥国际商业广场"},{"poiid":"B2094757D068A4FD479B","title":"高点保龄球(金桥店)","lon":"121.58156","lat":"31.25603","category":"220","category_name":"运动场所","address":"浦东新区张杨路3611弄金桥国际商业广场3座4楼(金桥路张杨路)"},{"poiid":"B2094655D36CA3F9429D","title":"麦当劳 金桥国际店 McDonald's","lon":"121.580810054","lat":"31.256798793","category":"68","category_name":"快餐厅","address":"浦东新区张杨路3611号金桥国际商业广场(近金桥路)"},{"poiid":"B2094757D66EA2F54493","title":"赤坂亭","lon":"121.578687539","lat":"31.25620344","category":"269","category_name":"烧烤","address":"浦东新区张杨路3611号金桥国际商业广场7号303室(近金桥路)"},{"poiid":"B2094655D36CA0FE4999","title":"金桥路地铁站","lon":"121.58197","lat":"31.25624","category":"36","category_name":"地铁站","address":""},{"poiid":"B2094757D069A3F94193","title":"旺池 金桥店","lon":"121.580936054","lat":"31.256867793","category":"71","category_name":"四川菜","address":"浦东新区张杨路3611弄金桥国际商业广场7座208号(近金桥路)"},{"poiid":"B2094655D26BA7F8419D","title":"多番日本料理","lon":"121.57871","lat":"31.25662","category":"95","category_name":"日本料理","address":"浦东新区张杨路3611弄金桥国际商业广场1号楼419室(近博山东路)"},{"poiid":"B2094757D464A6FD439B","title":"一茶一坐 金桥店","lon":"121.580867054","lat":"31.256639793","category":"260","category_name":"其他","address":"浦东新区张杨路3611号金桥国际商业广场(近金桥路)"},{"poiid":"B2094757D06FA4FC4598","title":"萨莉亚(金桥店)","lon":"121.58038","lat":"31.25617","category":"94","category_name":"西餐厅","address":"浦东新区张杨路3611号金桥国际商业广场3座3楼(近金桥路)"},{"poiid":"B2094757D068ABFC429D","title":"棒约翰比萨(金桥国际店)","lon":"121.58025","lat":"31.25617","category":"94","category_name":"西餐厅","address":"浦东新区张杨路3611号金桥国际商业广场3座1楼(金桥路张杨路)"},{"poiid":"B2094757D06FA7F8439F","title":"老妈米线(金桥店)","lon":"121.57989","lat":"31.25612","category":"86","category_name":"火锅店","address":"浦东新区张杨路3611弄金桥国际商业广场1座4楼424室(近金桥路)"},{"poiid":"B2094757D06FA1F94699","title":"1001原汁牛肉面(金桥店)","lon":"121.58041","lat":"31.25606","category":"68","category_name":"快餐厅","address":"浦东新区张杨路3611弄7号111-112商铺(金桥路张杨路)"},{"poiid":"B2094757D069AAFC4098","title":"金桥国际coffee bean","lon":"121.579066339","lat":"31.2564479456","category":"65","category_name":"咖啡厅","address":"上海市浦东新区规二路"},{"poiid":"B2094757D665A0FB489D","title":"DQ冰雪皇后 金桥店 Dairy Queen","lon":"121.581027054","lat":"31.256730793","category":"113","category_name":"冷饮店","address":"浦东新区张杨路3611号金桥国际商业广场1座1楼(近金桥路)"},{"poiid":"B2094751D36CABFE479D","title":"新石器烤肉(金桥国际店)","lon":"121.58099","lat":"31.25644","category":"68","category_name":"快餐厅","address":"浦东新区张杨路3611弄金桥国际广场1号4楼(金桥路张杨路)"},{"poiid":"B2094757D068A2FE469F","title":"一茶一座(金桥国际广场店)","lon":"121.57933033","lat":"31.25622194","category":"47","category_name":"住宅区","address":"上海市浦东新区张扬路3611弄金桥国际广场"},{"poiid":"B2094757D06FA1FE419E","title":"易买得(金桥店)","lon":"121.57874377","lat":"31.256799264","category":"118","category_name":"超级市场","address":"浦东新区张杨路3611号(金桥路张杨路)"},{"poiid":"B2094655D26DABFE449C","title":"金杨路商业街(金杨路)","lon":"121.58482","lat":"31.25505","category":"116","category_name":"特色商业街","address":""},{"poiid":"B2094757D06FA5F9479B","title":"汉堡王(金桥店)","lon":"121.58027","lat":"31.25617","category":"68","category_name":"快餐厅","address":"浦东新区张杨路3611号金桥国际商业广场6座1楼(金桥路张杨路)"},{"poiid":"B2094750D26FA6F8449D","title":"豆捞坊 金桥店 Dolar Shop","lon":"121.58129","lat":"31.2563","category":"86","category_name":"火锅店","address":"浦东新区张杨路3611号金桥国际商业广场3座3楼(近金桥路)"},{"poiid":"B2094757D068A2F9469F","title":"味千拉面 张杨路店","lon":"121.580890054","lat":"31.256764793","category":"247","category_name":"餐饮美食","address":"浦东新区张杨路3611弄金桥国际商业广场1座1楼(近金桥路)"},{"poiid":"B2094751D369A3FE4792","title":"芋贵人甜品店(金桥国际广场店)","lon":"121.58024","lat":"31.2557","category":"67","category_name":"甜品店","address":"浦东新区张杨路3611弄金桥国际广场7号楼111号商铺(近金桥路)"},{"poiid":"B2094757DB65AAFA479B","title":"costa coffee（金桥国际商业广场店）","lon":"121.579","lat":"31.2566","category":"65","category_name":"咖啡厅","address":"浦东新区张杨路3611号金桥国际商业广场7号楼1楼105室(近金桥路)"},{"poiid":"B2094757DB65AAFA4693","title":"酷圣石（金桥国际商业广场店）","lon":"121.579","lat":"31.2566","category":"113","category_name":"冷饮店","address":"浦东新区张杨路3611号7号140单元金桥国际商业广场7座1楼(近金桥路)"},{"poiid":"B2094757D068ABF54792","title":"YOBA酸奶冰淇淋(金桥店)","lon":"121.57881133","lat":"31.256381944","category":"113","category_name":"冷饮店","address":"浦东新区张杨路3611弄金桥国际商业广场2座2楼"},{"poiid":"B2094757D06BA0FF4192","title":"釜山料理","lon":"121.5802","lat":"31.256102","category":"247","category_name":"餐饮美食","address":"上海金桥国际商业广场"},{"poiid":"B2094655D26BA5F94293","title":"Haagen-Dazs","lon":"121.57984","lat":"31.25598","category":"113","category_name":"冷饮店","address":""},{"poiid":"B2094757D06EABF4499E","title":"金桥国际商业广场","lon":"121.58042","lat":"31.25607","category":"119","category_name":"商场","address":"浦东新区张杨路3611弄(近金桥路)"},{"poiid":"B2094757D06EAAFD469E","title":"满记甜品(金桥国际店)","lon":"121.58034","lat":"31.25575","category":"67","category_name":"甜品店","address":"浦东新区张杨路3611号金桥国际商业广场7号110室(近金桥路)"},{"poiid":"B2094757D06FA0FC479C","title":"茶矿 TEA MINE","lon":"121.580686054","lat":"31.256724793","category":"67","category_name":"甜品店","address":"浦东新区张杨路3611弄金桥国际广场6号102室(近金桥路)"},{"poiid":"B2094757D06EAAFE4999","title":"上海歌城(金桥国际广场店)","lon":"121.57924513416765","lat":"31.256686064933838","category":"170","category_name":"KTV","address":"浦东新区张杨路3611号金桥国际广场2座4楼(金桥路口)"},{"poiid":"B2094757D06FA7FD449C","title":"小南国(金桥国际店)","lon":"121.58031","lat":"31.25599","category":"76","category_name":"上海菜","address":"浦东新区张杨路3611号金桥国际商业广场6号楼2楼(近金桥路)"},{"poiid":"B2094757D06FA3F5479F","title":"望湘园(金桥店)","lon":"121.58074","lat":"31.25608","category":"77","category_name":"湖南菜","address":"浦东新区张杨路3611弄金桥国际广场7座3楼(近金桥路)"},{"poiid":"B2094757D06FA2FC4099","title":"PANKOO釜山料理(金桥店)","lon":"121.58036","lat":"31.25605","category":"96","category_name":"韩国料理","address":"浦东新区张杨路3611号金桥国际购物中心7号楼301室(金桥路张杨路)"},{"poiid":"B2094757D06FA3FB4898","title":"迈泰(金桥店)","lon":"121.57969236","lat":"31.255861238","category":"99","category_name":"泰国／越南菜品餐厅","address":"浦东新区张杨路3611号金桥国际商业广场8座4楼(近金桥路)"},{"poiid":"B2094757D06FA2F94698","title":"吉旺港式茶餐厅(金桥店)","lon":"121.58082","lat":"31.25617","category":"72","category_name":"广东菜","address":"浦东新区张杨路3611弄金桥国际商业广场3座3楼(金桥路张杨路)"},{"poiid":"B2094655D265A2FA469C","title":"伊秀手握寿司 金桥店","lon":"121.580765054","lat":"31.256764793","category":"95","category_name":"日本料理","address":"浦东新区张杨路3611弄金桥国际商业广场8座210、211单元(近金桥路)"},{"poiid":"B2094750D76CA6FB499E","title":"Ashley","lon":"121.579","lat":"31.2558","category":"268","category_name":"自助","address":"浦东新区张杨路3611弄金桥国际商业广场内"},{"poiid":"B2094655D265ABFB4492","title":"避风塘","lon":"121.57935","lat":"31.25712","category":"66","category_name":"茶艺馆","address":""},{"poiid":"B2094757D068A3F9449B","title":"金桥国际豆捞坊","lon":"121.57903586","lat":"31.256282931","category":"500","category_name":"未知分类","address":"上海浦东新区金桥路3611号(近张杨路)  3楼"},{"poiid":"B2094757D06FA6FA4693","title":"天虹海鲜酒家","lon":"121.57862413","lat":"31.256325642","category":"72","category_name":"广东菜","address":"浦东新区张杨路3611号金桥国际商业广场6座3楼(近金桥路)"},{"poiid":"B2094757D06FA6F9449C","title":"龙门客栈(金桥国际店)","lon":"121.57887983","lat":"31.256045465","category":"217","category_name":"旅馆招待所","address":"浦东新区张杨路3611弄金桥国际商业广场7座2楼(金桥路张杨路)"},{"poiid":"B2094757D06FA5F94099","title":"川食公馆","lon":"121.57892433","lat":"31.256706951","category":"71","category_name":"四川菜","address":"浦东新区张杨路3611弄金桥国际商业广场8座4楼(近金桥路)"},{"poiid":"B2094757D66BA4F9439D","title":"香啡缤 金桥国际店 Coffee Bean&Tea Leaf","lon":"121.580936054","lat":"31.256787793","category":"260","category_name":"其他","address":"浦东新区张杨路3611号金桥国际商业广场(金桥路口)"},{"poiid":"B2094757D06FA1F4439F","title":"COCO壱番屋(金桥)","lon":"121.57973233","lat":"31.256281941","category":"95","category_name":"日本料理","address":"浦东新区张杨路3611号金桥国际商业广场2座2楼"},{"poiid":"B2094757D065A2FE4398","title":"赤板亭","lon":"121.578626339","lat":"31.2563119424","category":"500","category_name":"未知分类","address":"上海金桥店"},{"poiid":"B2094757D068A2F44698","title":"COSTA@新金桥国际","lon":"121.579406339","lat":"31.256116938","category":"65","category_name":"咖啡厅","address":"上海市浦东新区博山东路"},{"poiid":"B2094757D06FA0F5499F","title":"山间堂民间瓦缸煨汤(金桥店)","lon":"121.580358","lat":"31.256134","category":"260","category_name":"其他","address":"浦东新区张杨路3611号金桥商业广场2座3楼(金桥路张杨路)"},{"poiid":"B2094655D265A6FB479A","title":"苏武牧羊 金桥店","lon":"121.580712054","lat":"31.256775793","category":"86","category_name":"火锅店","address":"浦东新区金桥路金桥国际商业广场1栋4楼(近张杨路)"},{"poiid":"B2094757D06FA0FF4893","title":"卡通尼乐园","lon":"121.580200195","lat":"31.2561016083","category":"173","category_name":"游戏厅","address":"浦东新区张杨路3611号金桥国际商业广场1座3-4楼(近金桥路)"},{"poiid":"B2094757D06FA2FE419F","title":"高点娱乐城(金桥店)","lon":"121.579167616","lat":"31.256403035","category":"173","category_name":"游戏厅","address":"上海浦东新区张杨路3611号金桥国际商业广场"},{"poiid":"B2094757D068A4FD479B","title":"高点保龄球(金桥店)","lon":"121.58156","lat":"31.25603","category":"220","category_name":"运动场所","address":"浦东新区张杨路3611弄金桥国际商业广场3座4楼(金桥路张杨路)"},{"poiid":"B2094655D36CA3F9429D","title":"麦当劳 金桥国际店 McDonald's","lon":"121.580810054","lat":"31.256798793","category":"68","category_name":"快餐厅","address":"浦东新区张杨路3611号金桥国际商业广场(近金桥路)"},{"poiid":"B2094757D66EA2F54493","title":"赤坂亭","lon":"121.578687539","lat":"31.25620344","category":"269","category_name":"烧烤","address":"浦东新区张杨路3611号金桥国际商业广场7号303室(近金桥路)"},{"poiid":"B2094655D36CA0FE4999","title":"金桥路地铁站","lon":"121.58197","lat":"31.25624","category":"36","category_name":"地铁站","address":""},{"poiid":"B2094757D069A3F94193","title":"旺池 金桥店","lon":"121.580936054","lat":"31.256867793","category":"71","category_name":"四川菜","address":"浦东新区张杨路3611弄金桥国际商业广场7座208号(近金桥路)"},{"poiid":"B2094655D26BA7F8419D","title":"多番日本料理","lon":"121.57871","lat":"31.25662","category":"95","category_name":"日本料理","address":"浦东新区张杨路3611弄金桥国际商业广场1号楼419室(近博山东路)"},{"poiid":"B2094757D464A6FD439B","title":"一茶一坐 金桥店","lon":"121.580867054","lat":"31.256639793","category":"260","category_name":"其他","address":"浦东新区张杨路3611号金桥国际商业广场(近金桥路)"},{"poiid":"B2094757D06FA4FC4598","title":"萨莉亚(金桥店)","lon":"121.58038","lat":"31.25617","category":"94","category_name":"西餐厅","address":"浦东新区张杨路3611号金桥国际商业广场3座3楼(近金桥路)"},{"poiid":"B2094757D068ABFC429D","title":"棒约翰比萨(金桥国际店)","lon":"121.58025","lat":"31.25617","category":"94","category_name":"西餐厅","address":"浦东新区张杨路3611号金桥国际商业广场3座1楼(金桥路张杨路)"},{"poiid":"B2094757D06FA7F8439F","title":"老妈米线(金桥店)","lon":"121.57989","lat":"31.25612","category":"86","category_name":"火锅店","address":"浦东新区张杨路3611弄金桥国际商业广场1座4楼424室(近金桥路)"},{"poiid":"B2094757D06FA1F94699","title":"1001原汁牛肉面(金桥店)","lon":"121.58041","lat":"31.25606","category":"68","category_name":"快餐厅","address":"浦东新区张杨路3611弄7号111-112商铺(金桥路张杨路)"},{"poiid":"B2094757D069AAFC4098","title":"金桥国际coffee bean","lon":"121.579066339","lat":"31.2564479456","category":"65","category_name":"咖啡厅","address":"上海市浦东新区规二路"},{"poiid":"B2094757D665A0FB489D","title":"DQ冰雪皇后 金桥店 Dairy Queen","lon":"121.581027054","lat":"31.256730793","category":"113","category_name":"冷饮店","address":"浦东新区张杨路3611号金桥国际商业广场1座1楼(近金桥路)"},{"poiid":"B2094751D36CABFE479D","title":"新石器烤肉(金桥国际店)","lon":"121.58099","lat":"31.25644","category":"68","category_name":"快餐厅","address":"浦东新区张杨路3611弄金桥国际广场1号4楼(金桥路张杨路)"},{"poiid":"B2094757D068A2FE469F","title":"一茶一座(金桥国际广场店)","lon":"121.57933033","lat":"31.25622194","category":"47","category_name":"住宅区","address":"上海市浦东新区张扬路3611弄金桥国际广场"},{"poiid":"B2094757D06FA1FE419E","title":"易买得(金桥店)","lon":"121.57874377","lat":"31.256799264","category":"118","category_name":"超级市场","address":"浦东新区张杨路3611号(金桥路张杨路)"},{"poiid":"B2094655D26DABFE449C","title":"金杨路商业街(金杨路)","lon":"121.58482","lat":"31.25505","category":"116","category_name":"特色商业街","address":""},{"poiid":"B2094757D06FA5F9479B","title":"汉堡王(金桥店)","lon":"121.58027","lat":"31.25617","category":"68","category_name":"快餐厅","address":"浦东新区张杨路3611号金桥国际商业广场6座1楼(金桥路张杨路)"},{"poiid":"B2094750D26FA6F8449D","title":"豆捞坊 金桥店 Dolar Shop","lon":"121.58129","lat":"31.2563","category":"86","category_name":"火锅店","address":"浦东新区张杨路3611号金桥国际商业广场3座3楼(近金桥路)"},{"poiid":"B2094757D068A2F9469F","title":"味千拉面 张杨路店","lon":"121.580890054","lat":"31.256764793","category":"247","category_name":"餐饮美食","address":"浦东新区张杨路3611弄金桥国际商业广场1座1楼(近金桥路)"},{"poiid":"B2094751D369A3FE4792","title":"芋贵人甜品店(金桥国际广场店)","lon":"121.58024","lat":"31.2557","category":"67","category_name":"甜品店","address":"浦东新区张杨路3611弄金桥国际广场7号楼111号商铺(近金桥路)"},{"poiid":"B2094757DB65AAFA479B","title":"costa coffee（金桥国际商业广场店）","lon":"121.579","lat":"31.2566","category":"65","category_name":"咖啡厅","address":"浦东新区张杨路3611号金桥国际商业广场7号楼1楼105室(近金桥路)"},{"poiid":"B2094757DB65AAFA4693","title":"酷圣石（金桥国际商业广场店）","lon":"121.579","lat":"31.2566","category":"113","category_name":"冷饮店","address":"浦东新区张杨路3611号7号140单元金桥国际商业广场7座1楼(近金桥路)"},{"poiid":"B2094757D068ABF54792","title":"YOBA酸奶冰淇淋(金桥店)","lon":"121.57881133","lat":"31.256381944","category":"113","category_name":"冷饮店","address":"浦东新区张杨路3611弄金桥国际商业广场2座2楼"},{"poiid":"B2094757D06BA0FF4192","title":"釜山料理","lon":"121.5802","lat":"31.256102","category":"247","category_name":"餐饮美食","address":"上海金桥国际商业广场"},{"poiid":"B2094655D26BA5F94293","title":"Haagen-Dazs","lon":"121.57984","lat":"31.25598","category":"113","category_name":"冷饮店","address":""},{"poiid":"B2094757D06EABF4499E","title":"金桥国际商业广场","lon":"121.58042","lat":"31.25607","category":"119","category_name":"商场","address":"浦东新区张杨路3611弄(近金桥路)"},{"poiid":"B2094757D06EAAFD469E","title":"满记甜品(金桥国际店)","lon":"121.58034","lat":"31.25575","category":"67","category_name":"甜品店","address":"浦东新区张杨路3611号金桥国际商业广场7号110室(近金桥路)"},{"poiid":"B2094757D06FA0FC479C","title":"茶矿 TEA MINE","lon":"121.580686054","lat":"31.256724793","category":"67","category_name":"甜品店","address":"浦东新区张杨路3611弄金桥国际广场6号102室(近金桥路)"},{"poiid":"B2094757D06EAAFE4999","title":"上海歌城(金桥国际广场店)","lon":"121.57924513416765","lat":"31.256686064933838","category":"170","category_name":"KTV","address":"浦东新区张杨路3611号金桥国际广场2座4楼(金桥路口)"},{"poiid":"B2094757D06FA7FD449C","title":"小南国(金桥国际店)","lon":"121.58031","lat":"31.25599","category":"76","category_name":"上海菜","address":"浦东新区张杨路3611号金桥国际商业广场6号楼2楼(近金桥路)"},{"poiid":"B2094757D06FA3F5479F","title":"望湘园(金桥店)","lon":"121.58074","lat":"31.25608","category":"77","category_name":"湖南菜","address":"浦东新区张杨路3611弄金桥国际广场7座3楼(近金桥路)"},{"poiid":"B2094757D06FA2FC4099","title":"PANKOO釜山料理(金桥店)","lon":"121.58036","lat":"31.25605","category":"96","category_name":"韩国料理","address":"浦东新区张杨路3611号金桥国际购物中心7号楼301室(金桥路张杨路)"},{"poiid":"B2094757D06FA3FB4898","title":"迈泰(金桥店)","lon":"121.57969236","lat":"31.255861238","category":"99","category_name":"泰国／越南菜品餐厅","address":"浦东新区张杨路3611号金桥国际商业广场8座4楼(近金桥路)"},{"poiid":"B2094757D06FA2F94698","title":"吉旺港式茶餐厅(金桥店)","lon":"121.58082","lat":"31.25617","category":"72","category_name":"广东菜","address":"浦东新区张杨路3611弄金桥国际商业广场3座3楼(金桥路张杨路)"},{"poiid":"B2094655D265A2FA469C","title":"伊秀手握寿司 金桥店","lon":"121.580765054","lat":"31.256764793","category":"95","category_name":"日本料理","address":"浦东新区张杨路3611弄金桥国际商业广场8座210、211单元(近金桥路)"},{"poiid":"B2094750D76CA6FB499E","title":"Ashley","lon":"121.579","lat":"31.2558","category":"268","category_name":"自助","address":"浦东新区张杨路3611弄金桥国际商业广场内"},{"poiid":"B2094655D265ABFB4492","title":"避风塘","lon":"121.57935","lat":"31.25712","category":"66","category_name":"茶艺馆","address":""},{"poiid":"B2094757D068A3F9449B","title":"金桥国际豆捞坊","lon":"121.57903586","lat":"31.256282931","category":"500","category_name":"未知分类","address":"上海浦东新区金桥路3611号(近张杨路)  3楼"},{"poiid":"B2094757D06FA6FA4693","title":"天虹海鲜酒家","lon":"121.57862413","lat":"31.256325642","category":"72","category_name":"广东菜","address":"浦东新区张杨路3611号金桥国际商业广场6座3楼(近金桥路)"},{"poiid":"B2094757D06FA6F9449C","title":"龙门客栈(金桥国际店)","lon":"121.57887983","lat":"31.256045465","category":"217","category_name":"旅馆招待所","address":"浦东新区张杨路3611弄金桥国际商业广场7座2楼(金桥路张杨路)"},{"poiid":"B2094757D06FA5F94099","title":"川食公馆","lon":"121.57892433","lat":"31.256706951","category":"71","category_name":"四川菜","address":"浦东新区张杨路3611弄金桥国际商业广场8座4楼(近金桥路)"},{"poiid":"B2094757D66BA4F9439D","title":"香啡缤 金桥国际店 Coffee Bean&Tea Leaf","lon":"121.580936054","lat":"31.256787793","category":"260","category_name":"其他","address":"浦东新区张杨路3611号金桥国际商业广场(金桥路口)"},{"poiid":"B2094757D06FA1F4439F","title":"COCO壱番屋(金桥)","lon":"121.57973233","lat":"31.256281941","category":"95","category_name":"日本料理","address":"浦东新区张杨路3611号金桥国际商业广场2座2楼"},{"poiid":"B2094757D065A2FE4398","title":"赤板亭","lon":"121.578626339","lat":"31.2563119424","category":"500","category_name":"未知分类","address":"上海金桥店"},{"poiid":"B2094757D068A2F44698","title":"COSTA@新金桥国际","lon":"121.579406339","lat":"31.256116938","category":"65","category_name":"咖啡厅","address":"上海市浦东新区博山东路"},{"poiid":"B2094757D06FA0F5499F","title":"山间堂民间瓦缸煨汤(金桥店)","lon":"121.580358","lat":"31.256134","category":"260","category_name":"其他","address":"浦东新区张杨路3611号金桥商业广场2座3楼(金桥路张杨路)"},{"poiid":"B2094655D265A6FB479A","title":"苏武牧羊 金桥店","lon":"121.580712054","lat":"31.256775793","category":"86","category_name":"火锅店","address":"浦东新区金桥路金桥国际商业广场1栋4楼(近张杨路)"},{"poiid":"B2094757D06FA0FF4893","title":"卡通尼乐园","lon":"121.580200195","lat":"31.2561016083","category":"173","category_name":"游戏厅","address":"浦东新区张杨路3611号金桥国际商业广场1座3-4楼(近金桥路)"},{"poiid":"B2094757D06FA2FE419F","title":"高点娱乐城(金桥店)","lon":"121.579167616","lat":"31.256403035","category":"173","category_name":"游戏厅","address":"上海浦东新区张杨路3611号金桥国际商业广场"},{"poiid":"B2094757D068A4FD479B","title":"高点保龄球(金桥店)","lon":"121.58156","lat":"31.25603","category":"220","category_name":"运动场所","address":"浦东新区张杨路3611弄金桥国际商业广场3座4楼(金桥路张杨路)"},{"poiid":"B2094655D36CA3F9429D","title":"麦当劳 金桥国际店 McDonald's","lon":"121.580810054","lat":"31.256798793","category":"68","category_name":"快餐厅","address":"浦东新区张杨路3611号金桥国际商业广场(近金桥路)"},{"poiid":"B2094757D66EA2F54493","title":"赤坂亭","lon":"121.578687539","lat":"31.25620344","category":"269","category_name":"烧烤","address":"浦东新区张杨路3611号金桥国际商业广场7号303室(近金桥路)"},{"poiid":"B2094655D36CA0FE4999","title":"金桥路地铁站","lon":"121.58197","lat":"31.25624","category":"36","category_name":"地铁站","address":""},{"poiid":"B2094757D069A3F94193","title":"旺池 金桥店","lon":"121.580936054","lat":"31.256867793","category":"71","category_name":"四川菜","address":"浦东新区张杨路3611弄金桥国际商业广场7座208号(近金桥路)"},{"poiid":"B2094655D26BA7F8419D","title":"多番日本料理","lon":"121.57871","lat":"31.25662","category":"95","category_name":"日本料理","address":"浦东新区张杨路3611弄金桥国际商业广场1号楼419室(近博山东路)"},{"poiid":"B2094757D464A6FD439B","title":"一茶一坐 金桥店","lon":"121.580867054","lat":"31.256639793","category":"260","category_name":"其他","address":"浦东新区张杨路3611号金桥国际商业广场(近金桥路)"},{"poiid":"B2094757D06FA4FC4598","title":"萨莉亚(金桥店)","lon":"121.58038","lat":"31.25617","category":"94","category_name":"西餐厅","address":"浦东新区张杨路3611号金桥国际商业广场3座3楼(近金桥路)"},{"poiid":"B2094757D068ABFC429D","title":"棒约翰比萨(金桥国际店)","lon":"121.58025","lat":"31.25617","category":"94","category_name":"西餐厅","address":"浦东新区张杨路3611号金桥国际商业广场3座1楼(金桥路张杨路)"},{"poiid":"B2094757D06FA7F8439F","title":"老妈米线(金桥店)","lon":"121.57989","lat":"31.25612","category":"86","category_name":"火锅店","address":"浦东新区张杨路3611弄金桥国际商业广场1座4楼424室(近金桥路)"},{"poiid":"B2094757D06FA1F94699","title":"1001原汁牛肉面(金桥店)","lon":"121.58041","lat":"31.25606","category":"68","category_name":"快餐厅","address":"浦东新区张杨路3611弄7号111-112商铺(金桥路张杨路)"},{"poiid":"B2094757D069AAFC4098","title":"金桥国际coffee bean","lon":"121.579066339","lat":"31.2564479456","category":"65","category_name":"咖啡厅","address":"上海市浦东新区规二路"},{"poiid":"B2094757D665A0FB489D","title":"DQ冰雪皇后 金桥店 Dairy Queen","lon":"121.581027054","lat":"31.256730793","category":"113","category_name":"冷饮店","address":"浦东新区张杨路3611号金桥国际商业广场1座1楼(近金桥路)"},{"poiid":"B2094751D36CABFE479D","title":"新石器烤肉(金桥国际店)","lon":"121.58099","lat":"31.25644","category":"68","category_name":"快餐厅","address":"浦东新区张杨路3611弄金桥国际广场1号4楼(金桥路张杨路)"},{"poiid":"B2094757D068A2FE469F","title":"一茶一座(金桥国际广场店)","lon":"121.57933033","lat":"31.25622194","category":"47","category_name":"住宅区","address":"上海市浦东新区张扬路3611弄金桥国际广场"},{"poiid":"B2094757D06FA1FE419E","title":"易买得(金桥店)","lon":"121.57874377","lat":"31.256799264","category":"118","category_name":"超级市场","address":"浦东新区张杨路3611号(金桥路张杨路)"},{"poiid":"B2094655D26DABFE449C","title":"金杨路商业街(金杨路)","lon":"121.58482","lat":"31.25505","category":"116","category_name":"特色商业街","address":""},{"poiid":"B2094757D06FA5F9479B","title":"汉堡王(金桥店)","lon":"121.58027","lat":"31.25617","category":"68","category_name":"快餐厅","address":"浦东新区张杨路3611号金桥国际商业广场6座1楼(金桥路张杨路)"},{"poiid":"B2094750D26FA6F8449D","title":"豆捞坊 金桥店 Dolar Shop","lon":"121.58129","lat":"31.2563","category":"86","category_name":"火锅店","address":"浦东新区张杨路3611号金桥国际商业广场3座3楼(近金桥路)"},{"poiid":"B2094757D068A2F9469F","title":"味千拉面 张杨路店","lon":"121.580890054","lat":"31.256764793","category":"247","category_name":"餐饮美食","address":"浦东新区张杨路3611弄金桥国际商业广场1座1楼(近金桥路)"},{"poiid":"B2094751D369A3FE4792","title":"芋贵人甜品店(金桥国际广场店)","lon":"121.58024","lat":"31.2557","category":"67","category_name":"甜品店","address":"浦东新区张杨路3611弄金桥国际广场7号楼111号商铺(近金桥路)"},{"poiid":"B2094757DB65AAFA479B","title":"costa coffee（金桥国际商业广场店）","lon":"121.579","lat":"31.2566","category":"65","category_name":"咖啡厅","address":"浦东新区张杨路3611号金桥国际商业广场7号楼1楼105室(近金桥路)"},{"poiid":"B2094757DB65AAFA4693","title":"酷圣石（金桥国际商业广场店）","lon":"121.579","lat":"31.2566","category":"113","category_name":"冷饮店","address":"浦东新区张杨路3611号7号140单元金桥国际商业广场7座1楼(近金桥路)"},{"poiid":"B2094757D068ABF54792","title":"YOBA酸奶冰淇淋(金桥店)","lon":"121.57881133","lat":"31.256381944","category":"113","category_name":"冷饮店","address":"浦东新区张杨路3611弄金桥国际商业广场2座2楼"},{"poiid":"B2094757D06BA0FF4192","title":"釜山料理","lon":"121.5802","lat":"31.256102","category":"247","category_name":"餐饮美食","address":"上海金桥国际商业广场"},{"poiid":"B2094655D26BA5F94293","title":"Haagen-Dazs","lon":"121.57984","lat":"31.25598","category":"113","category_name":"冷饮店","address":""}]