[{"poiid":"B2094654DA68A4F9409A","title":"上海浦东新区图书馆(新馆)","lon":"121.54156","lat":"31.19221","category":"181","category_name":"图书馆","address":"上海浦东新区前程路88号(近锦绣路)"},{"poiid":"B2094757D06EABF54198","title":"芳华路地铁站","lon":"121.5500343","lat":"31.193053866","category":"36","category_name":"地铁站","address":"上海轨道交通 七号线 轨交芳华路站 7"},{"poiid":"B2094654DA68A4F9409B","title":"中国浦东干部学院","lon":"121.54231","lat":"31.19545","category":"52","category_name":"高等院校","address":"浦东新区前程路99号"},{"poiid":"B2094655D265A5FB4292","title":"浦东星河湾","lon":"121.539","lat":"31.19259","category":"47","category_name":"住宅区","address":"浦东区花木路1983弄"},{"poiid":"B2094757D069AAF8439A","title":"上海浦东星河湾酒店国际会议中心","lon":"121.538313738","lat":"31.1920054859","category":"217","category_name":"旅馆招待所","address":"上海市浦东新区锦绣路"},{"poiid":"B2094757D068A0FA469A","title":"潮汕源大酒店(浦东店)","lon":"121.54805","lat":"31.19463","category":"72","category_name":"广东菜","address":"浦东新区前程路388号(浦东干部学院对面)"},{"poiid":"B2094757D068A5FC4792","title":"安达医院","lon":"121.55028781","lat":"31.190278037","category":"162","category_name":"医院","address":"上海浦东新区沪南公路468号"},{"poiid":"B2094757D06FA2F8479D","title":"北蔡","lon":"121.55384826","lat":"31.188753128","category":"500","category_name":"未知分类","address":"上海浦东新区高科西路沪南路"},{"poiid":"B2094757D068ABF84593","title":"浦东新区图书馆专业阅览室","lon":"121.54169737","lat":"31.192647169","category":"181","category_name":"图书馆","address":"上海前程路88号浦东新区图书馆5楼"},{"poiid":"B2094655D268A4F44892","title":"锦博苑","lon":"121.54259714532","lat":"31.195402510609","category":"47","category_name":"住宅区","address":"高科西路2111弄1-166号"},{"poiid":"B2094757DB6EABF84099","title":"上海浦东星河湾酒店","lon":"121.538666","lat":"31.191977","category":"213","category_name":"五星级宾馆","address":"上海市浦东新区锦绣路2588弄(近前程路)"},{"poiid":"B2094655D36CA7FD449D","title":"花木","lon":"121.54541","lat":"31.20232","category":"38","category_name":"公交车站","address":""},{"poiid":"B2094655D36DA6FD429B","title":"芳华路","lon":"121.55003","lat":"31.19305","category":"38","category_name":"公交车站","address":""},{"poiid":"B2094654DA6AA1F94299","title":"杨建华大酒店(沪南路)","lon":"121.55003","lat":"31.19423","category":"250","category_name":"公园户外","address":"浦东新区沪南路355号(近地铁七号线芳华路站)"},{"poiid":"B2094655D36CA3F44193","title":"上海市第一妇婴保健院","lon":"121.55","lat":"31.18947","category":"162","category_name":"医院","address":"沪南路550临"},{"poiid":"B2094654DB69A4FD499C","title":"锦江之星(新国际博览中心店)","lon":"121.55106","lat":"31.19426","category":"216","category_name":"经济型连锁酒店","address":"上海市浦东新区芳华路37号(近沪南路)"},{"poiid":"B2094654DA6AA0F8469D","title":"芳华苑","lon":"121.55408","lat":"31.194622","category":"47","category_name":"住宅区","address":"芳华路329弄1-24号"},{"poiid":"B2094757D068A5F5469D","title":"浦东图书馆读者餐厅","lon":"121.54275528","lat":"31.191817349","category":"76","category_name":"上海菜","address":"浦东新区前程路88号浦东图书馆M楼(近锦绣路)"},{"poiid":"B2094654DB6BABFA4492","title":"大华锦绣华城第九街区","lon":"121.54","lat":"31.189","category":"47","category_name":"住宅区","address":"北艾路1200弄1-72号"},{"poiid":"B2094757D06AA6F5459D","title":"老街渔味馆 芳华店","lon":"121.550022054","lat":"31.194473793","category":"72","category_name":"广东菜","address":"浦东新区沪南路355号杨建华大酒店内(芳华路口)"},{"poiid":"B2094757D66CA4F9449F","title":"七号线芳华路站","lon":"121.546385738","lat":"31.1936455208","category":"500","category_name":"未知分类","address":"上海沪南路芳华路"},{"poiid":"B2094757D465A3FD4799","title":"意咖啡 浦东店","lon":"121.5388569","lat":"31.192814","category":"268","category_name":"自助","address":"浦东新区锦绣路2588弄星河湾酒店B1楼(近前程路)"},{"poiid":"B2094757D064A5F4439C","title":"东城新村","lon":"121.545023959","lat":"31.2015203635","category":"47","category_name":"住宅区","address":"上海市浦东新区锦绣路"},{"poiid":"B2094757D064A7F54899","title":"浦东新区图书馆契咖啡","lon":"121.54594421","lat":"31.19042778","category":"65","category_name":"咖啡厅","address":"浦东新区前程路88号浦东图书馆1楼东北角(近锦绣路)"},{"poiid":"B2094654DA68A4F9409E","title":"中国浦东干部学院(东门)","lon":"121.54847","lat":"31.19624","category":"52","category_name":"高等院校","address":"沪南路200"},{"poiid":"B2094655D26AA0F94799","title":"地铁芳华路站","lon":"121.54988","lat":"31.19403","category":"36","category_name":"地铁站","address":""},{"poiid":"B2094757D568ABFD4898","title":"花木私房菜沪南路店","lon":"121.5500322","lat":"31.19423139","category":"76","category_name":"上海菜","address":"浦东新区沪南路355号杨建华大酒店(芳华路口)"},{"poiid":"B2094654DB65A6FB419D","title":"中国浦东干部学院(正门)","lon":"121.54373","lat":"31.1934","category":"52","category_name":"高等院校","address":"浦东新区前程路99"},{"poiid":"B2094757D06AA1FF409B","title":"沪南路芳华路公交站","lon":"121.550114","lat":"31.193669","category":"38","category_name":"公交车站","address":"上海浦东新区沪南路芳华路"},{"poiid":"B2094654DA6AA0F94099","title":"东东饭庄 连波路店","lon":"121.55326852486","lat":"31.193283991361","category":"76","category_name":"上海菜","address":"浦东新区连波路141号(芳草路芳华路间)"},{"poiid":"B2094655D36CA7FE4798","title":"沪南路芳华路","lon":"121.54986","lat":"31.19358","category":"38","category_name":"公交车站","address":""},{"poiid":"B2094757D66EA2F5459A","title":"浦东新区图书馆二楼少儿馆","lon":"121.541559738","lat":"31.1919464847","category":"181","category_name":"图书馆","address":"上海市浦东新区锦绣路"},{"poiid":"B2094757D06BA4F54799","title":"陆家嘴人才金港","lon":"121.551569","lat":"31.198707","category":"46","category_name":"楼宇","address":"上海浦东新区龙汇路168号(近沪南路)"},{"poiid":"B2094757D164A4FF459A","title":"上海师范大学奉贤校区海思路100号紫藤浴室","lon":"121.54672373","lat":"31.195456959","category":"500","category_name":"未知分类","address":"上海师范大学奉贤校区海思路100号紫藤浴室"},{"poiid":"B209475CD768A3F4459F","title":"九井日本料理","lon":"121.538406","lat":"31.193489","category":"500","category_name":"未知分类","address":"上海市 锦绣路2486弄2号星河湾"},{"poiid":"B2094750D164A3F84799","title":"7天连锁酒店上海浦东新国际博览中心店","lon":"121.550306975842","lat":"31.1937964239479","category":"216","category_name":"经济型连锁酒店","address":"上海市浦东新区芳华路220号"},{"poiid":"B2094757D46BA4FA4699","title":"小永餐馆","lon":"121.55147","lat":"31.19425","category":"68","category_name":"快餐厅","address":"浦东新区芳华路75号(近沪南路)"},{"poiid":"B2094757D06BA5FA409F","title":"浦东图书馆五楼专题馆","lon":"121.541837738","lat":"31.1920584871","category":"500","category_name":"未知分类","address":"上海浦东新区前程路88号5楼"},{"poiid":"B2094654DB6AA6F8459B","title":"上海北蔡大酒店","lon":"121.55162","lat":"31.18809","category":"76","category_name":"上海菜","address":"浦东新区高科西路2692号(近地铁芳华站)"},{"poiid":"B2094655D36CA7FE4999","title":"沪南公路芳华路","lon":"121.55038","lat":"31.19246","category":"38","category_name":"公交车站","address":""},{"poiid":"B2094757D66DA3FB4199","title":"连波路芳草路","lon":"121.552499738","lat":"31.1920524869","category":"500","category_name":"未知分类","address":"上海连波路228弄"},{"poiid":"B2094757D465A1FD4393","title":"异乡口福","lon":"121.54787753928","lat":"31.199054122061","category":"247","category_name":"餐饮美食","address":"浦东新区龙汇路346号(近白杨路)"},{"poiid":"B2094654DA6AA0FA489B","title":"龙王庙村民委员会残疾人协会","lon":"121.54917","lat":"31.19606","category":"250","category_name":"公园户外","address":""},{"poiid":"B2094654DA6AA5F94499","title":"便利店(芳华路)","lon":"121.55057","lat":"31.19405","category":"117","category_name":"便民商店/便利店","address":""},{"poiid":"B2094757D169A7FD479D","title":"全家便利店(芳华路店)","lon":"121.550033","lat":"31.193053","category":"500","category_name":"未知分类","address":"浦东新区芳华路地铁站(近沪南路)"},{"poiid":"B2094750D16AA0FC4292","title":"嘉里城","lon":"121.547752","lat":"31.200065","category":"500","category_name":"未知分类","address":null},{"poiid":"B2094654DB6BABFB439F","title":"中国浦东干部学院(南门)","lon":"121.54113","lat":"31.19288","category":"52","category_name":"高等院校","address":"浦东新区前程路55"},{"poiid":"B2094753D76DA0F94499","title":"上海浦东图书馆","lon":"121.546897","lat":"31.197608","category":"500","category_name":"未知分类","address":"上海市 前程路88号"},{"poiid":"B2094654DA6AA0F9459F","title":"芳佳苑","lon":"121.55163","lat":"31.192236","category":"47","category_name":"住宅区","address":"芳草路36弄"},{"poiid":"B2094654DA69A2F94998","title":"花木中心小学","lon":"121.54914","lat":"31.20189","category":"56","category_name":"小学","address":"浦东新区杜鹃路152号(近龙阳路地铁站)"},{"poiid":"B2094654DA68A4F9409A","title":"上海浦东新区图书馆(新馆)","lon":"121.54156","lat":"31.19221","category":"181","category_name":"图书馆","address":"上海浦东新区前程路88号(近锦绣路)"},{"poiid":"B2094757D06EABF54198","title":"芳华路地铁站","lon":"121.5500343","lat":"31.193053866","category":"36","category_name":"地铁站","address":"上海轨道交通 七号线 轨交芳华路站 7"},{"poiid":"B2094654DA68A4F9409B","title":"中国浦东干部学院","lon":"121.54231","lat":"31.19545","category":"52","category_name":"高等院校","address":"浦东新区前程路99号"},{"poiid":"B2094655D265A5FB4292","title":"浦东星河湾","lon":"121.539","lat":"31.19259","category":"47","category_name":"住宅区","address":"浦东区花木路1983弄"},{"poiid":"B2094757D069AAF8439A","title":"上海浦东星河湾酒店国际会议中心","lon":"121.538313738","lat":"31.1920054859","category":"217","category_name":"旅馆招待所","address":"上海市浦东新区锦绣路"},{"poiid":"B2094757D068A0FA469A","title":"潮汕源大酒店(浦东店)","lon":"121.54805","lat":"31.19463","category":"72","category_name":"广东菜","address":"浦东新区前程路388号(浦东干部学院对面)"},{"poiid":"B2094757D068A5FC4792","title":"安达医院","lon":"121.55028781","lat":"31.190278037","category":"162","category_name":"医院","address":"上海浦东新区沪南公路468号"},{"poiid":"B2094757D06FA2F8479D","title":"北蔡","lon":"121.55384826","lat":"31.188753128","category":"500","category_name":"未知分类","address":"上海浦东新区高科西路沪南路"},{"poiid":"B2094757D068ABF84593","title":"浦东新区图书馆专业阅览室","lon":"121.54169737","lat":"31.192647169","category":"181","category_name":"图书馆","address":"上海前程路88号浦东新区图书馆5楼"},{"poiid":"B2094655D268A4F44892","title":"锦博苑","lon":"121.54259714532","lat":"31.195402510609","category":"47","category_name":"住宅区","address":"高科西路2111弄1-166号"},{"poiid":"B2094757DB6EABF84099","title":"上海浦东星河湾酒店","lon":"121.538666","lat":"31.191977","category":"213","category_name":"五星级宾馆","address":"上海市浦东新区锦绣路2588弄(近前程路)"},{"poiid":"B2094655D36CA7FD449D","title":"花木","lon":"121.54541","lat":"31.20232","category":"38","category_name":"公交车站","address":""},{"poiid":"B2094655D36DA6FD429B","title":"芳华路","lon":"121.55003","lat":"31.19305","category":"38","category_name":"公交车站","address":""},{"poiid":"B2094654DA6AA1F94299","title":"杨建华大酒店(沪南路)","lon":"121.55003","lat":"31.19423","category":"250","category_name":"公园户外","address":"浦东新区沪南路355号(近地铁七号线芳华路站)"},{"poiid":"B2094655D36CA3F44193","title":"上海市第一妇婴保健院","lon":"121.55","lat":"31.18947","category":"162","category_name":"医院","address":"沪南路550临"},{"poiid":"B2094654DB69A4FD499C","title":"锦江之星(新国际博览中心店)","lon":"121.55106","lat":"31.19426","category":"216","category_name":"经济型连锁酒店","address":"上海市浦东新区芳华路37号(近沪南路)"},{"poiid":"B2094654DA6AA0F8469D","title":"芳华苑","lon":"121.55408","lat":"31.194622","category":"47","category_name":"住宅区","address":"芳华路329弄1-24号"},{"poiid":"B2094757D068A5F5469D","title":"浦东图书馆读者餐厅","lon":"121.54275528","lat":"31.191817349","category":"76","category_name":"上海菜","address":"浦东新区前程路88号浦东图书馆M楼(近锦绣路)"},{"poiid":"B2094654DB6BABFA4492","title":"大华锦绣华城第九街区","lon":"121.54","lat":"31.189","category":"47","category_name":"住宅区","address":"北艾路1200弄1-72号"},{"poiid":"B2094757D06AA6F5459D","title":"老街渔味馆 芳华店","lon":"121.550022054","lat":"31.194473793","category":"72","category_name":"广东菜","address":"浦东新区沪南路355号杨建华大酒店内(芳华路口)"},{"poiid":"B2094757D66CA4F9449F","title":"七号线芳华路站","lon":"121.546385738","lat":"31.1936455208","category":"500","category_name":"未知分类","address":"上海沪南路芳华路"},{"poiid":"B2094757D465A3FD4799","title":"意咖啡 浦东店","lon":"121.5388569","lat":"31.192814","category":"268","category_name":"自助","address":"浦东新区锦绣路2588弄星河湾酒店B1楼(近前程路)"},{"poiid":"B2094757D064A5F4439C","title":"东城新村","lon":"121.545023959","lat":"31.2015203635","category":"47","category_name":"住宅区","address":"上海市浦东新区锦绣路"},{"poiid":"B2094757D064A7F54899","title":"浦东新区图书馆契咖啡","lon":"121.54594421","lat":"31.19042778","category":"65","category_name":"咖啡厅","address":"浦东新区前程路88号浦东图书馆1楼东北角(近锦绣路)"},{"poiid":"B2094654DA68A4F9409E","title":"中国浦东干部学院(东门)","lon":"121.54847","lat":"31.19624","category":"52","category_name":"高等院校","address":"沪南路200"},{"poiid":"B2094655D26AA0F94799","title":"地铁芳华路站","lon":"121.54988","lat":"31.19403","category":"36","category_name":"地铁站","address":""},{"poiid":"B2094757D568ABFD4898","title":"花木私房菜沪南路店","lon":"121.5500322","lat":"31.19423139","category":"76","category_name":"上海菜","address":"浦东新区沪南路355号杨建华大酒店(芳华路口)"},{"poiid":"B2094654DB65A6FB419D","title":"中国浦东干部学院(正门)","lon":"121.54373","lat":"31.1934","category":"52","category_name":"高等院校","address":"浦东新区前程路99"},{"poiid":"B2094757D06AA1FF409B","title":"沪南路芳华路公交站","lon":"121.550114","lat":"31.193669","category":"38","category_name":"公交车站","address":"上海浦东新区沪南路芳华路"},{"poiid":"B2094654DA6AA0F94099","title":"东东饭庄 连波路店","lon":"121.55326852486","lat":"31.193283991361","category":"76","category_name":"上海菜","address":"浦东新区连波路141号(芳草路芳华路间)"},{"poiid":"B2094655D36CA7FE4798","title":"沪南路芳华路","lon":"121.54986","lat":"31.19358","category":"38","category_name":"公交车站","address":""},{"poiid":"B2094757D66EA2F5459A","title":"浦东新区图书馆二楼少儿馆","lon":"121.541559738","lat":"31.1919464847","category":"181","category_name":"图书馆","address":"上海市浦东新区锦绣路"},{"poiid":"B2094757D06BA4F54799","title":"陆家嘴人才金港","lon":"121.551569","lat":"31.198707","category":"46","category_name":"楼宇","address":"上海浦东新区龙汇路168号(近沪南路)"},{"poiid":"B2094757D164A4FF459A","title":"上海师范大学奉贤校区海思路100号紫藤浴室","lon":"121.54672373","lat":"31.195456959","category":"500","category_name":"未知分类","address":"上海师范大学奉贤校区海思路100号紫藤浴室"},{"poiid":"B209475CD768A3F4459F","title":"九井日本料理","lon":"121.538406","lat":"31.193489","category":"500","category_name":"未知分类","address":"上海市 锦绣路2486弄2号星河湾"},{"poiid":"B2094750D164A3F84799","title":"7天连锁酒店上海浦东新国际博览中心店","lon":"121.550306975842","lat":"31.1937964239479","category":"216","category_name":"经济型连锁酒店","address":"上海市浦东新区芳华路220号"},{"poiid":"B2094757D46BA4FA4699","title":"小永餐馆","lon":"121.55147","lat":"31.19425","category":"68","category_name":"快餐厅","address":"浦东新区芳华路75号(近沪南路)"},{"poiid":"B2094757D06BA5FA409F","title":"浦东图书馆五楼专题馆","lon":"121.541837738","lat":"31.1920584871","category":"500","category_name":"未知分类","address":"上海浦东新区前程路88号5楼"},{"poiid":"B2094654DB6AA6F8459B","title":"上海北蔡大酒店","lon":"121.55162","lat":"31.18809","category":"76","category_name":"上海菜","address":"浦东新区高科西路2692号(近地铁芳华站)"},{"poiid":"B2094655D36CA7FE4999","title":"沪南公路芳华路","lon":"121.55038","lat":"31.19246","category":"38","category_name":"公交车站","address":""},{"poiid":"B2094757D66DA3FB4199","title":"连波路芳草路","lon":"121.552499738","lat":"31.1920524869","category":"500","category_name":"未知分类","address":"上海连波路228弄"},{"poiid":"B2094757D465A1FD4393","title":"异乡口福","lon":"121.54787753928","lat":"31.199054122061","category":"247","category_name":"餐饮美食","address":"浦东新区龙汇路346号(近白杨路)"},{"poiid":"B2094654DA6AA0FA489B","title":"龙王庙村民委员会残疾人协会","lon":"121.54917","lat":"31.19606","category":"250","category_name":"公园户外","address":""},{"poiid":"B2094654DA6AA5F94499","title":"便利店(芳华路)","lon":"121.55057","lat":"31.19405","category":"117","category_name":"便民商店/便利店","address":""},{"poiid":"B2094757D169A7FD479D","title":"全家便利店(芳华路店)","lon":"121.550033","lat":"31.193053","category":"500","category_name":"未知分类","address":"浦东新区芳华路地铁站(近沪南路)"},{"poiid":"B2094750D16AA0FC4292","title":"嘉里城","lon":"121.547752","lat":"31.200065","category":"500","category_name":"未知分类","address":null},{"poiid":"B2094654DB6BABFB439F","title":"中国浦东干部学院(南门)","lon":"121.54113","lat":"31.19288","category":"52","category_name":"高等院校","address":"浦东新区前程路55"},{"poiid":"B2094753D76DA0F94499","title":"上海浦东图书馆","lon":"121.546897","lat":"31.197608","category":"500","category_name":"未知分类","address":"上海市 前程路88号"},{"poiid":"B2094654DA6AA0F9459F","title":"芳佳苑","lon":"121.55163","lat":"31.192236","category":"47","category_name":"住宅区","address":"芳草路36弄"},{"poiid":"B2094654DA69A2F94998","title":"花木中心小学","lon":"121.54914","lat":"31.20189","category":"56","category_name":"小学","address":"浦东新区杜鹃路152号(近龙阳路地铁站)"},{"poiid":"B2094654DA68A4F9409A","title":"上海浦东新区图书馆(新馆)","lon":"121.54156","lat":"31.19221","category":"181","category_name":"图书馆","address":"上海浦东新区前程路88号(近锦绣路)"},{"poiid":"B2094757D06EABF54198","title":"芳华路地铁站","lon":"121.5500343","lat":"31.193053866","category":"36","category_name":"地铁站","address":"上海轨道交通 七号线 轨交芳华路站 7"},{"poiid":"B2094654DA68A4F9409B","title":"中国浦东干部学院","lon":"121.54231","lat":"31.19545","category":"52","category_name":"高等院校","address":"浦东新区前程路99号"},{"poiid":"B2094655D265A5FB4292","title":"浦东星河湾","lon":"121.539","lat":"31.19259","category":"47","category_name":"住宅区","address":"浦东区花木路1983弄"},{"poiid":"B2094757D069AAF8439A","title":"上海浦东星河湾酒店国际会议中心","lon":"121.538313738","lat":"31.1920054859","category":"217","category_name":"旅馆招待所","address":"上海市浦东新区锦绣路"},{"poiid":"B2094757D068A0FA469A","title":"潮汕源大酒店(浦东店)","lon":"121.54805","lat":"31.19463","category":"72","category_name":"广东菜","address":"浦东新区前程路388号(浦东干部学院对面)"},{"poiid":"B2094757D068A5FC4792","title":"安达医院","lon":"121.55028781","lat":"31.190278037","category":"162","category_name":"医院","address":"上海浦东新区沪南公路468号"},{"poiid":"B2094757D06FA2F8479D","title":"北蔡","lon":"121.55384826","lat":"31.188753128","category":"500","category_name":"未知分类","address":"上海浦东新区高科西路沪南路"},{"poiid":"B2094757D068ABF84593","title":"浦东新区图书馆专业阅览室","lon":"121.54169737","lat":"31.192647169","category":"181","category_name":"图书馆","address":"上海前程路88号浦东新区图书馆5楼"},{"poiid":"B2094655D268A4F44892","title":"锦博苑","lon":"121.54259714532","lat":"31.195402510609","category":"47","category_name":"住宅区","address":"高科西路2111弄1-166号"},{"poiid":"B2094757DB6EABF84099","title":"上海浦东星河湾酒店","lon":"121.538666","lat":"31.191977","category":"213","category_name":"五星级宾馆","address":"上海市浦东新区锦绣路2588弄(近前程路)"},{"poiid":"B2094655D36CA7FD449D","title":"花木","lon":"121.54541","lat":"31.20232","category":"38","category_name":"公交车站","address":""},{"poiid":"B2094655D36DA6FD429B","title":"芳华路","lon":"121.55003","lat":"31.19305","category":"38","category_name":"公交车站","address":""},{"poiid":"B2094654DA6AA1F94299","title":"杨建华大酒店(沪南路)","lon":"121.55003","lat":"31.19423","category":"250","category_name":"公园户外","address":"浦东新区沪南路355号(近地铁七号线芳华路站)"},{"poiid":"B2094655D36CA3F44193","title":"上海市第一妇婴保健院","lon":"121.55","lat":"31.18947","category":"162","category_name":"医院","address":"沪南路550临"},{"poiid":"B2094654DB69A4FD499C","title":"锦江之星(新国际博览中心店)","lon":"121.55106","lat":"31.19426","category":"216","category_name":"经济型连锁酒店","address":"上海市浦东新区芳华路37号(近沪南路)"},{"poiid":"B2094654DA6AA0F8469D","title":"芳华苑","lon":"121.55408","lat":"31.194622","category":"47","category_name":"住宅区","address":"芳华路329弄1-24号"},{"poiid":"B2094757D068A5F5469D","title":"浦东图书馆读者餐厅","lon":"121.54275528","lat":"31.191817349","category":"76","category_name":"上海菜","address":"浦东新区前程路88号浦东图书馆M楼(近锦绣路)"},{"poiid":"B2094654DB6BABFA4492","title":"大华锦绣华城第九街区","lon":"121.54","lat":"31.189","category":"47","category_name":"住宅区","address":"北艾路1200弄1-72号"},{"poiid":"B2094757D06AA6F5459D","title":"老街渔味馆 芳华店","lon":"121.550022054","lat":"31.194473793","category":"72","category_name":"广东菜","address":"浦东新区沪南路355号杨建华大酒店内(芳华路口)"},{"poiid":"B2094757D66CA4F9449F","title":"七号线芳华路站","lon":"121.546385738","lat":"31.1936455208","category":"500","category_name":"未知分类","address":"上海沪南路芳华路"},{"poiid":"B2094757D465A3FD4799","title":"意咖啡 浦东店","lon":"121.5388569","lat":"31.192814","category":"268","category_name":"自助","address":"浦东新区锦绣路2588弄星河湾酒店B1楼(近前程路)"},{"poiid":"B2094757D064A5F4439C","title":"东城新村","lon":"121.545023959","lat":"31.2015203635","category":"47","category_name":"住宅区","address":"上海市浦东新区锦绣路"},{"poiid":"B2094757D064A7F54899","title":"浦东新区图书馆契咖啡","lon":"121.54594421","lat":"31.19042778","category":"65","category_name":"咖啡厅","address":"浦东新区前程路88号浦东图书馆1楼东北角(近锦绣路)"},{"poiid":"B2094654DA68A4F9409E","title":"中国浦东干部学院(东门)","lon":"121.54847","lat":"31.19624","category":"52","category_name":"高等院校","address":"沪南路200"},{"poiid":"B2094655D26AA0F94799","title":"地铁芳华路站","lon":"121.54988","lat":"31.19403","category":"36","category_name":"地铁站","address":""},{"poiid":"B2094757D568ABFD4898","title":"花木私房菜沪南路店","lon":"121.5500322","lat":"31.19423139","category":"76","category_name":"上海菜","address":"浦东新区沪南路355号杨建华大酒店(芳华路口)"},{"poiid":"B2094654DB65A6FB419D","title":"中国浦东干部学院(正门)","lon":"121.54373","lat":"31.1934","category":"52","category_name":"高等院校","address":"浦东新区前程路99"},{"poiid":"B2094757D06AA1FF409B","title":"沪南路芳华路公交站","lon":"121.550114","lat":"31.193669","category":"38","category_name":"公交车站","address":"上海浦东新区沪南路芳华路"},{"poiid":"B2094654DA6AA0F94099","title":"东东饭庄 连波路店","lon":"121.55326852486","lat":"31.193283991361","category":"76","category_name":"上海菜","address":"浦东新区连波路141号(芳草路芳华路间)"},{"poiid":"B2094655D36CA7FE4798","title":"沪南路芳华路","lon":"121.54986","lat":"31.19358","category":"38","category_name":"公交车站","address":""},{"poiid":"B2094757D66EA2F5459A","title":"浦东新区图书馆二楼少儿馆","lon":"121.541559738","lat":"31.1919464847","category":"181","category_name":"图书馆","address":"上海市浦东新区锦绣路"},{"poiid":"B2094757D06BA4F54799","title":"陆家嘴人才金港","lon":"121.551569","lat":"31.198707","category":"46","category_name":"楼宇","address":"上海浦东新区龙汇路168号(近沪南路)"},{"poiid":"B2094757D164A4FF459A","title":"上海师范大学奉贤校区海思路100号紫藤浴室","lon":"121.54672373","lat":"31.195456959","category":"500","category_name":"未知分类","address":"上海师范大学奉贤校区海思路100号紫藤浴室"},{"poiid":"B209475CD768A3F4459F","title":"九井日本料理","lon":"121.538406","lat":"31.193489","category":"500","category_name":"未知分类","address":"上海市 锦绣路2486弄2号星河湾"},{"poiid":"B2094750D164A3F84799","title":"7天连锁酒店上海浦东新国际博览中心店","lon":"121.550306975842","lat":"31.1937964239479","category":"216","category_name":"经济型连锁酒店","address":"上海市浦东新区芳华路220号"},{"poiid":"B2094757D46BA4FA4699","title":"小永餐馆","lon":"121.55147","lat":"31.19425","category":"68","category_name":"快餐厅","address":"浦东新区芳华路75号(近沪南路)"},{"poiid":"B2094757D06BA5FA409F","title":"浦东图书馆五楼专题馆","lon":"121.541837738","lat":"31.1920584871","category":"500","category_name":"未知分类","address":"上海浦东新区前程路88号5楼"},{"poiid":"B2094654DB6AA6F8459B","title":"上海北蔡大酒店","lon":"121.55162","lat":"31.18809","category":"76","category_name":"上海菜","address":"浦东新区高科西路2692号(近地铁芳华站)"},{"poiid":"B2094655D36CA7FE4999","title":"沪南公路芳华路","lon":"121.55038","lat":"31.19246","category":"38","category_name":"公交车站","address":""},{"poiid":"B2094757D66DA3FB4199","title":"连波路芳草路","lon":"121.552499738","lat":"31.1920524869","category":"500","category_name":"未知分类","address":"上海连波路228弄"},{"poiid":"B2094757D465A1FD4393","title":"异乡口福","lon":"121.54787753928","lat":"31.199054122061","category":"247","category_name":"餐饮美食","address":"浦东新区龙汇路346号(近白杨路)"},{"poiid":"B2094654DA6AA0FA489B","title":"龙王庙村民委员会残疾人协会","lon":"121.54917","lat":"31.19606","category":"250","category_name":"公园户外","address":""},{"poiid":"B2094654DA6AA5F94499","title":"便利店(芳华路)","lon":"121.55057","lat":"31.19405","category":"117","category_name":"便民商店/便利店","address":""},{"poiid":"B2094757D169A7FD479D","title":"全家便利店(芳华路店)","lon":"121.550033","lat":"31.193053","category":"500","category_name":"未知分类","address":"浦东新区芳华路地铁站(近沪南路)"},{"poiid":"B2094750D16AA0FC4292","title":"嘉里城","lon":"121.547752","lat":"31.200065","category":"500","category_name":"未知分类","address":null},{"poiid":"B2094654DB6BABFB439F","title":"中国浦东干部学院(南门)","lon":"121.54113","lat":"31.19288","category":"52","category_name":"高等院校","address":"浦东新区前程路55"},{"poiid":"B2094753D76DA0F94499","title":"上海浦东图书馆","lon":"121.546897","lat":"31.197608","category":"500","category_name":"未知分类","address":"上海市 前程路88号"},{"poiid":"B2094654DA6AA0F9459F","title":"芳佳苑","lon":"121.55163","lat":"31.192236","category":"47","category_name":"住宅区","address":"芳草路36弄"},{"poiid":"B2094654DA69A2F94998","title":"花木中心小学","lon":"121.54914","lat":"31.20189","category":"56","category_name":"小学","address":"浦东新区杜鹃路152号(近龙阳路地铁站)"},{"poiid":"B2094654DA68A4F9409A","title":"上海浦东新区图书馆(新馆)","lon":"121.54156","lat":"31.19221","category":"181","category_name":"图书馆","address":"上海浦东新区前程路88号(近锦绣路)"},{"poiid":"B2094757D06EABF54198","title":"芳华路地铁站","lon":"121.5500343","lat":"31.193053866","category":"36","category_name":"地铁站","address":"上海轨道交通 七号线 轨交芳华路站 7"},{"poiid":"B2094654DA68A4F9409B","title":"中国浦东干部学院","lon":"121.54231","lat":"31.19545","category":"52","category_name":"高等院校","address":"浦东新区前程路99号"},{"poiid":"B2094655D265A5FB4292","title":"浦东星河湾","lon":"121.539","lat":"31.19259","category":"47","category_name":"住宅区","address":"浦东区花木路1983弄"},{"poiid":"B2094757D069AAF8439A","title":"上海浦东星河湾酒店国际会议中心","lon":"121.538313738","lat":"31.1920054859","category":"217","category_name":"旅馆招待所","address":"上海市浦东新区锦绣路"},{"poiid":"B2094757D068A0FA469A","title":"潮汕源大酒店(浦东店)","lon":"121.54805","lat":"31.19463","category":"72","category_name":"广东菜","address":"浦东新区前程路388号(浦东干部学院对面)"},{"poiid":"B2094757D068A5FC4792","title":"安达医院","lon":"121.55028781","lat":"31.190278037","category":"162","category_name":"医院","address":"上海浦东新区沪南公路468号"},{"poiid":"B2094757D06FA2F8479D","title":"北蔡","lon":"121.55384826","lat":"31.188753128","category":"500","category_name":"未知分类","address":"上海浦东新区高科西路沪南路"},{"poiid":"B2094757D068ABF84593","title":"浦东新区图书馆专业阅览室","lon":"121.54169737","lat":"31.192647169","category":"181","category_name":"图书馆","address":"上海前程路88号浦东新区图书馆5楼"},{"poiid":"B2094655D268A4F44892","title":"锦博苑","lon":"121.54259714532","lat":"31.195402510609","category":"47","category_name":"住宅区","address":"高科西路2111弄1-166号"},{"poiid":"B2094757DB6EABF84099","title":"上海浦东星河湾酒店","lon":"121.538666","lat":"31.191977","category":"213","category_name":"五星级宾馆","address":"上海市浦东新区锦绣路2588弄(近前程路)"},{"poiid":"B2094655D36CA7FD449D","title":"花木","lon":"121.54541","lat":"31.20232","category":"38","category_name":"公交车站","address":""},{"poiid":"B2094655D36DA6FD429B","title":"芳华路","lon":"121.55003","lat":"31.19305","category":"38","category_name":"公交车站","address":""},{"poiid":"B2094654DA6AA1F94299","title":"杨建华大酒店(沪南路)","lon":"121.55003","lat":"31.19423","category":"250","category_name":"公园户外","address":"浦东新区沪南路355号(近地铁七号线芳华路站)"},{"poiid":"B2094655D36CA3F44193","title":"上海市第一妇婴保健院","lon":"121.55","lat":"31.18947","category":"162","category_name":"医院","address":"沪南路550临"},{"poiid":"B2094654DB69A4FD499C","title":"锦江之星(新国际博览中心店)","lon":"121.55106","lat":"31.19426","category":"216","category_name":"经济型连锁酒店","address":"上海市浦东新区芳华路37号(近沪南路)"},{"poiid":"B2094654DA6AA0F8469D","title":"芳华苑","lon":"121.55408","lat":"31.194622","category":"47","category_name":"住宅区","address":"芳华路329弄1-24号"},{"poiid":"B2094757D068A5F5469D","title":"浦东图书馆读者餐厅","lon":"121.54275528","lat":"31.191817349","category":"76","category_name":"上海菜","address":"浦东新区前程路88号浦东图书馆M楼(近锦绣路)"},{"poiid":"B2094654DB6BABFA4492","title":"大华锦绣华城第九街区","lon":"121.54","lat":"31.189","category":"47","category_name":"住宅区","address":"北艾路1200弄1-72号"},{"poiid":"B2094757D06AA6F5459D","title":"老街渔味馆 芳华店","lon":"121.550022054","lat":"31.194473793","category":"72","category_name":"广东菜","address":"浦东新区沪南路355号杨建华大酒店内(芳华路口)"},{"poiid":"B2094757D66CA4F9449F","title":"七号线芳华路站","lon":"121.546385738","lat":"31.1936455208","category":"500","category_name":"未知分类","address":"上海沪南路芳华路"},{"poiid":"B2094757D465A3FD4799","title":"意咖啡 浦东店","lon":"121.5388569","lat":"31.192814","category":"268","category_name":"自助","address":"浦东新区锦绣路2588弄星河湾酒店B1楼(近前程路)"},{"poiid":"B2094757D064A5F4439C","title":"东城新村","lon":"121.545023959","lat":"31.2015203635","category":"47","category_name":"住宅区","address":"上海市浦东新区锦绣路"},{"poiid":"B2094757D064A7F54899","title":"浦东新区图书馆契咖啡","lon":"121.54594421","lat":"31.19042778","category":"65","category_name":"咖啡厅","address":"浦东新区前程路88号浦东图书馆1楼东北角(近锦绣路)"},{"poiid":"B2094654DA68A4F9409E","title":"中国浦东干部学院(东门)","lon":"121.54847","lat":"31.19624","category":"52","category_name":"高等院校","address":"沪南路200"},{"poiid":"B2094655D26AA0F94799","title":"地铁芳华路站","lon":"121.54988","lat":"31.19403","category":"36","category_name":"地铁站","address":""},{"poiid":"B2094757D568ABFD4898","title":"花木私房菜沪南路店","lon":"121.5500322","lat":"31.19423139","category":"76","category_name":"上海菜","address":"浦东新区沪南路355号杨建华大酒店(芳华路口)"},{"poiid":"B2094654DB65A6FB419D","title":"中国浦东干部学院(正门)","lon":"121.54373","lat":"31.1934","category":"52","category_name":"高等院校","address":"浦东新区前程路99"},{"poiid":"B2094757D06AA1FF409B","title":"沪南路芳华路公交站","lon":"121.550114","lat":"31.193669","category":"38","category_name":"公交车站","address":"上海浦东新区沪南路芳华路"},{"poiid":"B2094654DA6AA0F94099","title":"东东饭庄 连波路店","lon":"121.55326852486","lat":"31.193283991361","category":"76","category_name":"上海菜","address":"浦东新区连波路141号(芳草路芳华路间)"},{"poiid":"B2094655D36CA7FE4798","title":"沪南路芳华路","lon":"121.54986","lat":"31.19358","category":"38","category_name":"公交车站","address":""},{"poiid":"B2094757D66EA2F5459A","title":"浦东新区图书馆二楼少儿馆","lon":"121.541559738","lat":"31.1919464847","category":"181","category_name":"图书馆","address":"上海市浦东新区锦绣路"},{"poiid":"B2094757D06BA4F54799","title":"陆家嘴人才金港","lon":"121.551569","lat":"31.198707","category":"46","category_name":"楼宇","address":"上海浦东新区龙汇路168号(近沪南路)"},{"poiid":"B2094757D164A4FF459A","title":"上海师范大学奉贤校区海思路100号紫藤浴室","lon":"121.54672373","lat":"31.195456959","category":"500","category_name":"未知分类","address":"上海师范大学奉贤校区海思路100号紫藤浴室"},{"poiid":"B209475CD768A3F4459F","title":"九井日本料理","lon":"121.538406","lat":"31.193489","category":"500","category_name":"未知分类","address":"上海市 锦绣路2486弄2号星河湾"},{"poiid":"B2094750D164A3F84799","title":"7天连锁酒店上海浦东新国际博览中心店","lon":"121.550306975842","lat":"31.1937964239479","category":"216","category_name":"经济型连锁酒店","address":"上海市浦东新区芳华路220号"},{"poiid":"B2094757D46BA4FA4699","title":"小永餐馆","lon":"121.55147","lat":"31.19425","category":"68","category_name":"快餐厅","address":"浦东新区芳华路75号(近沪南路)"},{"poiid":"B2094757D06BA5FA409F","title":"浦东图书馆五楼专题馆","lon":"121.541837738","lat":"31.1920584871","category":"500","category_name":"未知分类","address":"上海浦东新区前程路88号5楼"},{"poiid":"B2094654DB6AA6F8459B","title":"上海北蔡大酒店","lon":"121.55162","lat":"31.18809","category":"76","category_name":"上海菜","address":"浦东新区高科西路2692号(近地铁芳华站)"},{"poiid":"B2094655D36CA7FE4999","title":"沪南公路芳华路","lon":"121.55038","lat":"31.19246","category":"38","category_name":"公交车站","address":""},{"poiid":"B2094757D66DA3FB4199","title":"连波路芳草路","lon":"121.552499738","lat":"31.1920524869","category":"500","category_name":"未知分类","address":"上海连波路228弄"},{"poiid":"B2094757D465A1FD4393","title":"异乡口福","lon":"121.54787753928","lat":"31.199054122061","category":"247","category_name":"餐饮美食","address":"浦东新区龙汇路346号(近白杨路)"},{"poiid":"B2094654DA6AA0FA489B","title":"龙王庙村民委员会残疾人协会","lon":"121.54917","lat":"31.19606","category":"250","category_name":"公园户外","address":""},{"poiid":"B2094654DA6AA5F94499","title":"便利店(芳华路)","lon":"121.55057","lat":"31.19405","category":"117","category_name":"便民商店/便利店","address":""},{"poiid":"B2094757D169A7FD479D","title":"全家便利店(芳华路店)","lon":"121.550033","lat":"31.193053","category":"500","category_name":"未知分类","address":"浦东新区芳华路地铁站(近沪南路)"},{"poiid":"B2094750D16AA0FC4292","title":"嘉里城","lon":"121.547752","lat":"31.200065","category":"500","category_name":"未知分类","address":null},{"poiid":"B2094654DB6BABFB439F","title":"中国浦东干部学院(南门)","lon":"121.54113","lat":"31.19288","category":"52","category_name":"高等院校","address":"浦东新区前程路55"},{"poiid":"B2094753D76DA0F94499","title":"上海浦东图书馆","lon":"121.546897","lat":"31.197608","category":"500","category_name":"未知分类","address":"上海市 前程路88号"},{"poiid":"B2094654DA6AA0F9459F","title":"芳佳苑","lon":"121.55163","lat":"31.192236","category":"47","category_name":"住宅区","address":"芳草路36弄"},{"poiid":"B2094654DA69A2F94998","title":"花木中心小学","lon":"121.54914","lat":"31.20189","category":"56","category_name":"小学","address":"浦东新区杜鹃路152号(近龙阳路地铁站)"}]