[{"poiid":"B2094757D06FA1F9429E","title":"上海医药高等专科学校","lon":"121.61106","lat":"31.10307","category":"671","category_name":"高校中心点","address":"浦东新区周祝公路279号(近沪南公路)"},{"poiid":"B2094757D064A6F8409B","title":"上海国际医学园区","lon":"121.617069246","lat":"31.1081796884","category":"500","category_name":"未知分类","address":"上海市浦东新区周祝公路337号"},{"poiid":"B2094757D06FA4F9439F","title":"周浦公园","lon":"121.59599661","lat":"31.11343","category":"196","category_name":"公园","address":"浦东新区周浦镇年家浜路东侧(周邓公路周园路)"},{"poiid":"B2094655D264A5FE4292","title":"印象春城","lon":"121.59019","lat":"31.115759","category":"47","category_name":"住宅区","address":"浦东新区年家浜东路129弄(周园路)"},{"poiid":"B2094757D16CA2FE4892","title":"上海ABB工程有限公司","lon":"121.617028046","lat":"31.11915005","category":"263","category_name":"公司","address":"上海市康桥工业园创业路369弄5号"},{"poiid":"B2094654DB6DA2FF4093","title":"上海交通大学医学院附属卫生学校","lon":"121.61094","lat":"31.10401","category":"52","category_name":"高等院校","address":"上海市浦东新区周祝公路279号"},{"poiid":"B2094655D26FA7FA459F","title":"康桥宝邸","lon":"121.60066","lat":"31.122597","category":"47","category_name":"住宅区","address":"上海浦东新区康弘路508弄"},{"poiid":"B2094757D16DA6FA439B","title":"上海总部湾","lon":"121.607830246","lat":"31.1286891776","category":"500","category_name":"未知分类","address":"浦东新区金湘路345号"},{"poiid":"B2094757D06FA7F8419D","title":"达城锦园","lon":"121.60188","lat":"31.118826","category":"47","category_name":"住宅区","address":"上海浦东新区康弘路428弄"},{"poiid":"B2094655D26DA6FC469C","title":"海尚康庭","lon":"121.59852","lat":"31.12682","category":"47","category_name":"住宅区","address":"上海浦东新区康弘路580弄"},{"poiid":"B2094757D06BA4FA4292","title":"海尚乐苑","lon":"121.60344","lat":"31.116377","category":"47","category_name":"住宅区","address":"上海市南汇区康桥镇周邓公路6600弄"},{"poiid":"B2094654DB65A3FE469E","title":"上海市傅雷中学","lon":"121.59046","lat":"31.12061","category":"55","category_name":"中学","address":"关岳路301"},{"poiid":"B2094655D36CA2F4489F","title":"上海医药园区","lon":"121.61482","lat":"31.10365","category":"38","category_name":"公交车站","address":""},{"poiid":"B2094757DA64A5F44893","title":"上海皇家医学院","lon":"121.6200552","lat":"31.1141951","category":"627","category_name":"一般地点标志","address":"上海周祝公路279号"},{"poiid":"B2094757D569A1F8449A","title":"秀康新城康桥月苑","lon":"121.5961189","lat":"31.12409389","category":"47","category_name":"住宅区","address":"浦东新区康佳路38、39弄"},{"poiid":"B2094757D16BA6FA489D","title":"乐购","lon":"121.608594246","lat":"31.120111973","category":"249","category_name":"购物服务","address":"上海惠南镇南门大街18号，近沪南公路"},{"poiid":"B2094655D26DABF54899","title":"康桥宝邸(西门)","lon":"121.60181","lat":"31.12096","category":"47","category_name":"住宅区","address":"康弘路508弄"},{"poiid":"B2094757D06AA7F5469C","title":"周康9路康弘路终点站","lon":"121.60187424","lat":"31.119886967","category":"500","category_name":"未知分类","address":"上海市浦东新区康弘路"},{"poiid":"B2094757D164A4FE499D","title":"交大医学院附属卫生学校","lon":"121.60946224","lat":"31.107087662","category":"253","category_name":"校园生活","address":"上海市南汇区周祝公路"},{"poiid":"B209475DD76DA1FB4793","title":"上海皇家医学院","lon":"121.608856","lat":"31.107406","category":"253","category_name":"校园生活","address":"上海市 上海市浦东新区周祝公路279号"},{"poiid":"B2094757D16DA6F5409F","title":"昱龙家园","lon":"121.59567324","lat":"31.124307073","category":"47","category_name":"住宅区","address":"上海市浦东新区康达路688弄"},{"poiid":"B2094654DB64ABFE4399","title":"周东幼儿园","lon":"121.5998","lat":"31.12445","category":"57","category_name":"幼儿园","address":"周东一村东南"},{"poiid":"B2094654DB6DA2FE499A","title":"姚桥村社区文化活动服务中心","lon":"121.59848","lat":"31.11446","category":"248","category_name":"生活娱乐","address":""},{"poiid":"B2094655D36CA7F54493","title":"关岳路","lon":"121.59561","lat":"31.12124","category":"38","category_name":"公交车站","address":""},{"poiid":"B2094750DA6FA6FC4699","title":"上海康桥先进制造技术创业园","lon":"121.604843","lat":"31.127601","category":"45","category_name":"产业园区","address":"浦东新区秀浦路2388号"},{"poiid":"B2094757D16BABFE4698","title":"巨人网络松江园区","lon":"121.60864724","lat":"31.106840656","category":"500","category_name":"未知分类","address":"上海中凯路广富林路"},{"poiid":"B2094757D06BA4FC4093","title":"康桥月苑","lon":"121.59534","lat":"31.127064","category":"47","category_name":"住宅区","address":"上海康佳路39弄"},{"poiid":"B2094757D069A1FE499D","title":"周祝公路","lon":"121.59619624","lat":"31.101070518","category":"500","category_name":"未知分类","address":"上海市浦东新区周东南路"},{"poiid":"B2094757D568A0FA409A","title":"医谷现代商务园","lon":"121.6181908","lat":"31.10434571","category":"47","category_name":"住宅区","address":"周祝公路337号"},{"poiid":"B2094757D569A1FB489B","title":"秀康新城昱龙家园","lon":"121.5959469","lat":"31.12420194","category":"47","category_name":"住宅区","address":"浦东新区康桥镇康达路688弄"},{"poiid":"B2094757D568AAF4479F","title":"印象春城(南一门)","lon":"121.58869032","lat":"31.1142117","category":"48","category_name":"楼宇大门","address":"中国上海市浦东新区年家浜东路"},{"poiid":"B2094655D36DA7F94692","title":"周邓公路横新公路","lon":"121.6227","lat":"31.11888","category":"38","category_name":"公交车站","address":""},{"poiid":"B2094750D56AA2FE409A","title":"达城家园","lon":"121.606152","lat":"31.129484","category":"47","category_name":"住宅区","address":"浦东新区康弘路515弄"},{"poiid":"B2094757D168A5F54099","title":"上海浦东康桥集团有限公司","lon":"121.60520874","lat":"31.129068186","category":"263","category_name":"公司","address":"上海秀浦路2388号"},{"poiid":"B2094655D26DA6FC469B","title":"上海总部湾(浦桥路)","lon":"121.60627","lat":"31.12957","category":"47","category_name":"住宅区","address":""},{"poiid":"B2094757D568A0F4449F","title":"3W创研智造","lon":"121.606171","lat":"31.129575","category":"47","category_name":"住宅区","address":"康桥秀浦路3588号"},{"poiid":"B209475DD169A4F84998","title":"SIMC上海国际医学中心","lon":"121.622718","lat":"31.116025","category":"500","category_name":"未知分类","address":"上海市 康新公路4358号"},{"poiid":"B2094757D569A2FC4998","title":"申雅苑","lon":"121.59075","lat":"31.119904","category":"47","category_name":"住宅区","address":"关岳路338弄1-49号"},{"poiid":"B2094655D36CA7F54492","title":"关岳路周园路","lon":"121.59113","lat":"31.12057","category":"38","category_name":"公交车站","address":""},{"poiid":"B2094655D36DA2FD4492","title":"姚渔港桥","lon":"121.60404","lat":"31.10228","category":"250","category_name":"公园户外","address":""},{"poiid":"B2094757D16EAAF54492","title":"八一中学","lon":"121.59073","lat":"31.12033","category":"55","category_name":"中学","address":"浦东新区周浦镇关岳路301号"},{"poiid":"B2094655D264A1F54093","title":"汇丽苑五期","lon":"121.595","lat":"31.1262","category":"47","category_name":"住宅区","address":"关岳路229弄"},{"poiid":"B2094750DA6AABF9429A","title":"紫罗兰小学","lon":"121.607673","lat":"31.100187","category":"56","category_name":"小学","address":null},{"poiid":"B2094655D36CA5FD4493","title":"川周公路秀浦路","lon":"121.59872","lat":"31.13178","category":"38","category_name":"公交车站","address":""},{"poiid":"B2094757D165A0FE409E","title":"康桥镇火箭村","lon":"121.611664046","lat":"31.1301897134","category":"500","category_name":"未知分类","address":"上海市浦东新区秀沿路创业路"},{"poiid":"B2094757D16AA3F4489B","title":"叠桥路","lon":"121.625487246","lat":"31.1223450263","category":"500","category_name":"未知分类","address":"上海叠桥路128号"},{"poiid":"B2094654DB6DA3FF409D","title":"上海市地方税务局南汇区分局第八税务所","lon":"121.58848","lat":"31.1138","category":"250","category_name":"公园户外","address":"年家浜东路2号"},{"poiid":"B2094655D36CA5FD4492","title":"川周公路周园路","lon":"121.59286","lat":"31.12884","category":"38","category_name":"公交车站","address":""},{"poiid":"B2094655D36CA5FD4499","title":"川周路秀沿路","lon":"121.60136","lat":"31.13346","category":"38","category_name":"公交车站","address":""},{"poiid":"B2094757DA6EA5F94099","title":"上海ABB工程有限公司","lon":"121.616274300002","lat":"31.1293471000001","category":"263","category_name":"公司","address":"浦东新区创业路369号"},{"poiid":"B2094757D06FA1F9429E","title":"上海医药高等专科学校","lon":"121.61106","lat":"31.10307","category":"671","category_name":"高校中心点","address":"浦东新区周祝公路279号(近沪南公路)"},{"poiid":"B2094757D064A6F8409B","title":"上海国际医学园区","lon":"121.617069246","lat":"31.1081796884","category":"500","category_name":"未知分类","address":"上海市浦东新区周祝公路337号"},{"poiid":"B2094757D06FA4F9439F","title":"周浦公园","lon":"121.59599661","lat":"31.11343","category":"196","category_name":"公园","address":"浦东新区周浦镇年家浜路东侧(周邓公路周园路)"},{"poiid":"B2094655D264A5FE4292","title":"印象春城","lon":"121.59019","lat":"31.115759","category":"47","category_name":"住宅区","address":"浦东新区年家浜东路129弄(周园路)"},{"poiid":"B2094757D16CA2FE4892","title":"上海ABB工程有限公司","lon":"121.617028046","lat":"31.11915005","category":"263","category_name":"公司","address":"上海市康桥工业园创业路369弄5号"},{"poiid":"B2094654DB6DA2FF4093","title":"上海交通大学医学院附属卫生学校","lon":"121.61094","lat":"31.10401","category":"52","category_name":"高等院校","address":"上海市浦东新区周祝公路279号"},{"poiid":"B2094655D26FA7FA459F","title":"康桥宝邸","lon":"121.60066","lat":"31.122597","category":"47","category_name":"住宅区","address":"上海浦东新区康弘路508弄"},{"poiid":"B2094757D16DA6FA439B","title":"上海总部湾","lon":"121.607830246","lat":"31.1286891776","category":"500","category_name":"未知分类","address":"浦东新区金湘路345号"},{"poiid":"B2094757D06FA7F8419D","title":"达城锦园","lon":"121.60188","lat":"31.118826","category":"47","category_name":"住宅区","address":"上海浦东新区康弘路428弄"},{"poiid":"B2094655D26DA6FC469C","title":"海尚康庭","lon":"121.59852","lat":"31.12682","category":"47","category_name":"住宅区","address":"上海浦东新区康弘路580弄"},{"poiid":"B2094757D06BA4FA4292","title":"海尚乐苑","lon":"121.60344","lat":"31.116377","category":"47","category_name":"住宅区","address":"上海市南汇区康桥镇周邓公路6600弄"},{"poiid":"B2094654DB65A3FE469E","title":"上海市傅雷中学","lon":"121.59046","lat":"31.12061","category":"55","category_name":"中学","address":"关岳路301"},{"poiid":"B2094655D36CA2F4489F","title":"上海医药园区","lon":"121.61482","lat":"31.10365","category":"38","category_name":"公交车站","address":""},{"poiid":"B2094757DA64A5F44893","title":"上海皇家医学院","lon":"121.6200552","lat":"31.1141951","category":"627","category_name":"一般地点标志","address":"上海周祝公路279号"},{"poiid":"B2094757D569A1F8449A","title":"秀康新城康桥月苑","lon":"121.5961189","lat":"31.12409389","category":"47","category_name":"住宅区","address":"浦东新区康佳路38、39弄"},{"poiid":"B2094757D16BA6FA489D","title":"乐购","lon":"121.608594246","lat":"31.120111973","category":"249","category_name":"购物服务","address":"上海惠南镇南门大街18号，近沪南公路"},{"poiid":"B2094655D26DABF54899","title":"康桥宝邸(西门)","lon":"121.60181","lat":"31.12096","category":"47","category_name":"住宅区","address":"康弘路508弄"},{"poiid":"B2094757D06AA7F5469C","title":"周康9路康弘路终点站","lon":"121.60187424","lat":"31.119886967","category":"500","category_name":"未知分类","address":"上海市浦东新区康弘路"},{"poiid":"B2094757D164A4FE499D","title":"交大医学院附属卫生学校","lon":"121.60946224","lat":"31.107087662","category":"253","category_name":"校园生活","address":"上海市南汇区周祝公路"},{"poiid":"B209475DD76DA1FB4793","title":"上海皇家医学院","lon":"121.608856","lat":"31.107406","category":"253","category_name":"校园生活","address":"上海市 上海市浦东新区周祝公路279号"},{"poiid":"B2094757D16DA6F5409F","title":"昱龙家园","lon":"121.59567324","lat":"31.124307073","category":"47","category_name":"住宅区","address":"上海市浦东新区康达路688弄"},{"poiid":"B2094654DB64ABFE4399","title":"周东幼儿园","lon":"121.5998","lat":"31.12445","category":"57","category_name":"幼儿园","address":"周东一村东南"},{"poiid":"B2094654DB6DA2FE499A","title":"姚桥村社区文化活动服务中心","lon":"121.59848","lat":"31.11446","category":"248","category_name":"生活娱乐","address":""},{"poiid":"B2094655D36CA7F54493","title":"关岳路","lon":"121.59561","lat":"31.12124","category":"38","category_name":"公交车站","address":""},{"poiid":"B2094750DA6FA6FC4699","title":"上海康桥先进制造技术创业园","lon":"121.604843","lat":"31.127601","category":"45","category_name":"产业园区","address":"浦东新区秀浦路2388号"},{"poiid":"B2094757D16BABFE4698","title":"巨人网络松江园区","lon":"121.60864724","lat":"31.106840656","category":"500","category_name":"未知分类","address":"上海中凯路广富林路"},{"poiid":"B2094757D06BA4FC4093","title":"康桥月苑","lon":"121.59534","lat":"31.127064","category":"47","category_name":"住宅区","address":"上海康佳路39弄"},{"poiid":"B2094757D069A1FE499D","title":"周祝公路","lon":"121.59619624","lat":"31.101070518","category":"500","category_name":"未知分类","address":"上海市浦东新区周东南路"},{"poiid":"B2094757D568A0FA409A","title":"医谷现代商务园","lon":"121.6181908","lat":"31.10434571","category":"47","category_name":"住宅区","address":"周祝公路337号"},{"poiid":"B2094757D569A1FB489B","title":"秀康新城昱龙家园","lon":"121.5959469","lat":"31.12420194","category":"47","category_name":"住宅区","address":"浦东新区康桥镇康达路688弄"},{"poiid":"B2094757D568AAF4479F","title":"印象春城(南一门)","lon":"121.58869032","lat":"31.1142117","category":"48","category_name":"楼宇大门","address":"中国上海市浦东新区年家浜东路"},{"poiid":"B2094655D36DA7F94692","title":"周邓公路横新公路","lon":"121.6227","lat":"31.11888","category":"38","category_name":"公交车站","address":""},{"poiid":"B2094750D56AA2FE409A","title":"达城家园","lon":"121.606152","lat":"31.129484","category":"47","category_name":"住宅区","address":"浦东新区康弘路515弄"},{"poiid":"B2094757D168A5F54099","title":"上海浦东康桥集团有限公司","lon":"121.60520874","lat":"31.129068186","category":"263","category_name":"公司","address":"上海秀浦路2388号"},{"poiid":"B2094655D26DA6FC469B","title":"上海总部湾(浦桥路)","lon":"121.60627","lat":"31.12957","category":"47","category_name":"住宅区","address":""},{"poiid":"B2094757D568A0F4449F","title":"3W创研智造","lon":"121.606171","lat":"31.129575","category":"47","category_name":"住宅区","address":"康桥秀浦路3588号"},{"poiid":"B209475DD169A4F84998","title":"SIMC上海国际医学中心","lon":"121.622718","lat":"31.116025","category":"500","category_name":"未知分类","address":"上海市 康新公路4358号"},{"poiid":"B2094757D569A2FC4998","title":"申雅苑","lon":"121.59075","lat":"31.119904","category":"47","category_name":"住宅区","address":"关岳路338弄1-49号"},{"poiid":"B2094655D36CA7F54492","title":"关岳路周园路","lon":"121.59113","lat":"31.12057","category":"38","category_name":"公交车站","address":""},{"poiid":"B2094655D36DA2FD4492","title":"姚渔港桥","lon":"121.60404","lat":"31.10228","category":"250","category_name":"公园户外","address":""},{"poiid":"B2094757D16EAAF54492","title":"八一中学","lon":"121.59073","lat":"31.12033","category":"55","category_name":"中学","address":"浦东新区周浦镇关岳路301号"},{"poiid":"B2094655D264A1F54093","title":"汇丽苑五期","lon":"121.595","lat":"31.1262","category":"47","category_name":"住宅区","address":"关岳路229弄"},{"poiid":"B2094750DA6AABF9429A","title":"紫罗兰小学","lon":"121.607673","lat":"31.100187","category":"56","category_name":"小学","address":null},{"poiid":"B2094655D36CA5FD4493","title":"川周公路秀浦路","lon":"121.59872","lat":"31.13178","category":"38","category_name":"公交车站","address":""},{"poiid":"B2094757D165A0FE409E","title":"康桥镇火箭村","lon":"121.611664046","lat":"31.1301897134","category":"500","category_name":"未知分类","address":"上海市浦东新区秀沿路创业路"},{"poiid":"B2094757D16AA3F4489B","title":"叠桥路","lon":"121.625487246","lat":"31.1223450263","category":"500","category_name":"未知分类","address":"上海叠桥路128号"},{"poiid":"B2094654DB6DA3FF409D","title":"上海市地方税务局南汇区分局第八税务所","lon":"121.58848","lat":"31.1138","category":"250","category_name":"公园户外","address":"年家浜东路2号"},{"poiid":"B2094655D36CA5FD4492","title":"川周公路周园路","lon":"121.59286","lat":"31.12884","category":"38","category_name":"公交车站","address":""},{"poiid":"B2094655D36CA5FD4499","title":"川周路秀沿路","lon":"121.60136","lat":"31.13346","category":"38","category_name":"公交车站","address":""},{"poiid":"B2094757DA6EA5F94099","title":"上海ABB工程有限公司","lon":"121.616274300002","lat":"31.1293471000001","category":"263","category_name":"公司","address":"浦东新区创业路369号"}]