[{"poiid":"B2094757D06FA2FF4299","title":"新华医院儿科","lon":"121.51646213","lat":"31.274249013","category":"162","category_name":"医院","address":"杨浦区控江路1665号(近江浦路)"},{"poiid":"B2094757D06FA1F8429A","title":"必胜客(假日店)","lon":"121.513","lat":"31.27409","category":"94","category_name":"西餐厅","address":"杨浦区鞍山路1号假日百货1-2楼(控江路口)"},{"poiid":"B2094757D06EAAF9469B","title":"麦当劳 控江路店 McDonald's","lon":"121.51533475394","lat":"31.274268111776","category":"68","category_name":"快餐厅","address":"杨浦区控江路1063号吉买盛超市1楼(近源泉路)"},{"poiid":"B2094654D56EA0F54192","title":"假日百货","lon":"121.513","lat":"31.27409","category":"119","category_name":"商场","address":"上海杨浦区鞍山路1号(控江路口)"},{"poiid":"B2094757D06FA1FB439F","title":"鞍山路控江路","lon":"121.5134251","lat":"31.2738072","category":"500","category_name":"未知分类","address":"上海鞍山路控江路"},{"poiid":"B2094654D56EA0F8479B","title":"西北郎烧烤 控江店","lon":"121.51493781539","lat":"31.274164545989","category":"68","category_name":"快餐厅","address":"杨浦区控江路1686号宏图三胞2楼(近双辽路)"},{"poiid":"B2094757D06FA3F8479C","title":"利都新概念桌球俱乐部(本溪路店)","lon":"121.51354","lat":"31.27458","category":"171","category_name":"台球厅","address":"杨浦区本溪路197号永乐家电3楼(近鞍山路)"},{"poiid":"B2094654D56EA0F4499D","title":"染山日本料理","lon":"121.51255","lat":"31.27485","category":"95","category_name":"日本料理","address":"上海杨浦区本溪路282号(近鞍山路)"},{"poiid":"B2094654DB69A5FE429F","title":"肯德基(控江店)","lon":"121.51544","lat":"31.27398","category":"68","category_name":"快餐厅","address":"杨浦区双辽路768号(近控江路)"},{"poiid":"B2094757D06FA7F84092","title":"巴贝拉(控江路店)","lon":"121.512696253","lat":"31.2748639293","category":"94","category_name":"西餐厅","address":"杨浦区本溪路280号(近控江路)"},{"poiid":"B2094757D06FA7F8459C","title":"食其家(控江路店)","lon":"121.51641082","lat":"31.274255752","category":"95","category_name":"日本料理","address":"杨浦区控江路1667号甲(近双辽路)"},{"poiid":"B2094757D06FA4F4499C","title":"予约时尚(鞍山路店)","lon":"121.51306","lat":"31.27516","category":"148","category_name":"美容美发店","address":"杨浦区鞍山路68号(近本溪路)"},{"poiid":"B2094757D06FABFA4398","title":"永和大王(控江路店)","lon":"121.51695","lat":"31.2742","category":"68","category_name":"快餐厅","address":"上海杨浦区控江路1667号(近江浦路)  "},{"poiid":"B2094654D56EA0F84798","title":"上岛咖啡418分店","lon":"121.51544","lat":"31.2745","category":"65","category_name":"咖啡厅","address":"杨浦区控江路1686号(近双辽路)"},{"poiid":"B2094654D56EA0FB409D","title":"杨浦商城","lon":"121.51296","lat":"31.27421","category":"46","category_name":"楼宇","address":"上海市虹口区四川北路1318号"},{"poiid":"B2094655D26AABFF409F","title":"如仙旦姆","lon":"121.516097054","lat":"31.276232793","category":"90","category_name":"清真餐馆","address":"杨浦区本溪路145号(铁岭路口)"},{"poiid":"B2094757D06FA0FA499D","title":"果留仙(本溪路店)","lon":"121.51292","lat":"31.27463","category":"113","category_name":"冷饮店","address":"杨浦区本溪路280号(鞍山路口)"},{"poiid":"B2094757D06FABFA409F","title":"新华医院外科大楼","lon":"121.51646305","lat":"31.274250129","category":"162","category_name":"医院","address":"上海杨浦区控江路1665号(近江浦路)"},{"poiid":"B2094757D06FA0F44598","title":"红宝石(控江店)","lon":"121.51414735","lat":"31.274172804","category":"67","category_name":"甜品店","address":"杨浦区控江路1690号凤凰大酒店(近双辽路)"},{"poiid":"B2094757D069A5F8479B","title":"沈家门渔港","lon":"121.51502","lat":"31.27388","category":"75","category_name":"浙江菜","address":"杨浦区控江路1690号(近双辽路)"},{"poiid":"B2094752D36BABFE4298","title":"屋企汤馆(控江店)","lon":"121.51553","lat":"31.27453","category":"72","category_name":"广东菜","address":"杨浦区控江路1686号3楼(新华医院斜对面)"},{"poiid":"B2094655D269ABF84393","title":"大回音量贩式KTV鞍山店","lon":"121.51537","lat":"31.27455","category":"247","category_name":"餐饮美食","address":"杨浦区控江路1688号(近鞍山路)"},{"poiid":"B2094757D064A6FB409D","title":"八号线地铁","lon":"121.513141703","lat":"31.2739542961","category":"36","category_name":"地铁站","address":"上海"},{"poiid":"B2094757D068A3FA499E","title":"三商巧福(鞍山店)","lon":"121.51372","lat":"31.27419","category":"68","category_name":"快餐厅","address":"杨浦区鞍山路20号1楼(近控江路)"},{"poiid":"B2094654D56EA0F9439E","title":"凤凰大酒店","lon":"121.51467","lat":"31.27438","category":"215","category_name":"三星级宾馆","address":"杨浦区控江路1690号(近新华医院)"},{"poiid":"B2094757D068A1F44699","title":"本溪路鞍山路口","lon":"121.512424103","lat":"31.2744865072","category":"500","category_name":"未知分类","address":"上海杨浦区本溪路鞍山路口"},{"poiid":"B2094757D16EABFE499F","title":"老盛祥汤包馆(鞍山店)","lon":"121.513267403","lat":"31.2758341354","category":"68","category_name":"快餐厅","address":"杨浦区鞍山路80号(近锦西路)"},{"poiid":"B2094757D069A4FD4099","title":"阿玛尼美发美容 鞍山店","lon":"121.51368993","lat":"31.273668073","category":"148","category_name":"美容美发店","address":"上海鞍山路20号"},{"poiid":"B2094757D068A6F9439B","title":"中国工商银行(鞍山路支行)","lon":"121.5147","lat":"31.27407","category":"150","category_name":"银行","address":"杨浦区控江路1698号近新华医院(控江路双辽路)"},{"poiid":"B2094757D06FA4FF4392","title":"环球食品(控江路店)","lon":"121.514034","lat":"31.274121","category":"118","category_name":"超级市场","address":"上海杨浦区控江路1736号环球超市内(近鞍山路)"},{"poiid":"B2094750D76CA3F9439C","title":"真功夫(海烟商厦店)","lon":"121.516","lat":"31.2742","category":"68","category_name":"快餐厅","address":"杨浦区控江路1667号海烟商厦(近双辽路)"},{"poiid":"B2094654D56EA0FA419F","title":"华元豪庭","lon":"121.51458","lat":"31.276619","category":"47","category_name":"住宅区","address":"上海市杨浦区本溪路168弄"},{"poiid":"B2094757D165A3FE449A","title":"新华医院眼科","lon":"121.515684103","lat":"31.2744395062","category":"162","category_name":"医院","address":"上海市杨浦区新华医院"},{"poiid":"B2094757D064AAFA4998","title":"新华医院内科病房","lon":"121.516464","lat":"31.274251","category":"162","category_name":"医院","address":"上海市杨浦区控江路1665号"},{"poiid":"B2094757D068A5F9449A","title":"黑川饮铺(控江路店)","lon":"121.5136581","lat":"31.2741595","category":"113","category_name":"冷饮店","address":"杨浦区控江路1720号(新华医院对面)"},{"poiid":"B2094757D068A7F94799","title":"上海书城(鞍山店)","lon":"121.51366","lat":"31.27391","category":"125","category_name":"书店","address":"杨浦区鞍山路20号(近控江路)"},{"poiid":"B2094654D56EABFA479C","title":"元祖食品(控江路)","lon":"121.51615","lat":"31.27416","category":"112","category_name":"糕饼店","address":"控江路1667甲"},{"poiid":"B2094757D468ABFB489C","title":"陈记龙虾王","lon":"121.51325","lat":"31.27533","category":"68","category_name":"快餐厅","address":"杨浦区本溪路262号(鞍山路口9月12号卖栗子)"},{"poiid":"B2094655D36CA5F4449E","title":"本溪路铁岭路","lon":"121.51371","lat":"31.27544","category":"38","category_name":"公交车站","address":""},{"poiid":"B2094757D06BA3F84399","title":"吉米乐园","lon":"121.515619","lat":"31.274687","category":"86","category_name":"火锅店","address":"杨浦区控江路1686号2楼(近宏图三包)"},{"poiid":"B2094655D26CA6F54992","title":"阿龙烧烤","lon":"121.51359","lat":"31.27404","category":"68","category_name":"快餐厅","address":"杨浦区鞍山路1号环球食品商店门口(控江路口)"},{"poiid":"B2094654D56EA0F94698","title":"新华书店(鞍山路)","lon":"121.51345","lat":"31.27448","category":"125","category_name":"书店","address":"鞍山路20"},{"poiid":"B2094655D36CA4FE409A","title":"鞍山路","lon":"121.51382","lat":"31.27388","category":"38","category_name":"公交车站","address":""},{"poiid":"B2094655D26CA7F5439E","title":"鞍山一村","lon":"121.51315","lat":"31.27676","category":"47","category_name":"住宅区","address":""},{"poiid":"B2094655D269AAF84299","title":"宏图三胞控江路店","lon":"121.51557","lat":"31.27453","category":"247","category_name":"餐饮美食","address":"杨浦区控江路1686号(近本溪路)"},{"poiid":"B2094654DB6BA3FB499C","title":"耶里夏丽 本溪店","lon":"121.5126399","lat":"31.274712","category":"90","category_name":"清真餐馆","address":"西江湾路338号虹口龙之梦5楼"},{"poiid":"B2094654D56FA1F84092","title":"和平商厦","lon":"121.513","lat":"31.2753","category":"46","category_name":"楼宇","address":"和平商厦位于虹口大连路1079号"},{"poiid":"B2094654DB64A6FB4799","title":"吉泰连锁酒店(杨浦本溪路店)","lon":"121.51359","lat":"31.27485","category":"216","category_name":"经济型连锁酒店","address":"杨浦区本溪路191号"},{"poiid":"B2094757D16CABF9419A","title":"城隍庙小吃","lon":"121.51283","lat":"31.27519","category":"68","category_name":"快餐厅","address":"杨浦区鞍山路60号(近本溪路)"},{"poiid":"B2094655D265A5F94698","title":"上海市民办打一外国语小学","lon":"121.51592","lat":"31.27666","category":"56","category_name":"小学","address":"杨浦区锦西路100弄8号(锦西路苏家屯路)"},{"poiid":"B2094757D06FA2FF4299","title":"新华医院儿科","lon":"121.51646213","lat":"31.274249013","category":"162","category_name":"医院","address":"杨浦区控江路1665号(近江浦路)"},{"poiid":"B2094757D06FA1F8429A","title":"必胜客(假日店)","lon":"121.513","lat":"31.27409","category":"94","category_name":"西餐厅","address":"杨浦区鞍山路1号假日百货1-2楼(控江路口)"},{"poiid":"B2094757D06EAAF9469B","title":"麦当劳 控江路店 McDonald's","lon":"121.51533475394","lat":"31.274268111776","category":"68","category_name":"快餐厅","address":"杨浦区控江路1063号吉买盛超市1楼(近源泉路)"},{"poiid":"B2094654D56EA0F54192","title":"假日百货","lon":"121.513","lat":"31.27409","category":"119","category_name":"商场","address":"上海杨浦区鞍山路1号(控江路口)"},{"poiid":"B2094757D06FA1FB439F","title":"鞍山路控江路","lon":"121.5134251","lat":"31.2738072","category":"500","category_name":"未知分类","address":"上海鞍山路控江路"},{"poiid":"B2094654D56EA0F8479B","title":"西北郎烧烤 控江店","lon":"121.51493781539","lat":"31.274164545989","category":"68","category_name":"快餐厅","address":"杨浦区控江路1686号宏图三胞2楼(近双辽路)"},{"poiid":"B2094757D06FA3F8479C","title":"利都新概念桌球俱乐部(本溪路店)","lon":"121.51354","lat":"31.27458","category":"171","category_name":"台球厅","address":"杨浦区本溪路197号永乐家电3楼(近鞍山路)"},{"poiid":"B2094654D56EA0F4499D","title":"染山日本料理","lon":"121.51255","lat":"31.27485","category":"95","category_name":"日本料理","address":"上海杨浦区本溪路282号(近鞍山路)"},{"poiid":"B2094654DB69A5FE429F","title":"肯德基(控江店)","lon":"121.51544","lat":"31.27398","category":"68","category_name":"快餐厅","address":"杨浦区双辽路768号(近控江路)"},{"poiid":"B2094757D06FA7F84092","title":"巴贝拉(控江路店)","lon":"121.512696253","lat":"31.2748639293","category":"94","category_name":"西餐厅","address":"杨浦区本溪路280号(近控江路)"},{"poiid":"B2094757D06FA7F8459C","title":"食其家(控江路店)","lon":"121.51641082","lat":"31.274255752","category":"95","category_name":"日本料理","address":"杨浦区控江路1667号甲(近双辽路)"},{"poiid":"B2094757D06FA4F4499C","title":"予约时尚(鞍山路店)","lon":"121.51306","lat":"31.27516","category":"148","category_name":"美容美发店","address":"杨浦区鞍山路68号(近本溪路)"},{"poiid":"B2094757D06FABFA4398","title":"永和大王(控江路店)","lon":"121.51695","lat":"31.2742","category":"68","category_name":"快餐厅","address":"上海杨浦区控江路1667号(近江浦路)  "},{"poiid":"B2094654D56EA0F84798","title":"上岛咖啡418分店","lon":"121.51544","lat":"31.2745","category":"65","category_name":"咖啡厅","address":"杨浦区控江路1686号(近双辽路)"},{"poiid":"B2094654D56EA0FB409D","title":"杨浦商城","lon":"121.51296","lat":"31.27421","category":"46","category_name":"楼宇","address":"上海市虹口区四川北路1318号"},{"poiid":"B2094655D26AABFF409F","title":"如仙旦姆","lon":"121.516097054","lat":"31.276232793","category":"90","category_name":"清真餐馆","address":"杨浦区本溪路145号(铁岭路口)"},{"poiid":"B2094757D06FA0FA499D","title":"果留仙(本溪路店)","lon":"121.51292","lat":"31.27463","category":"113","category_name":"冷饮店","address":"杨浦区本溪路280号(鞍山路口)"},{"poiid":"B2094757D06FABFA409F","title":"新华医院外科大楼","lon":"121.51646305","lat":"31.274250129","category":"162","category_name":"医院","address":"上海杨浦区控江路1665号(近江浦路)"},{"poiid":"B2094757D06FA0F44598","title":"红宝石(控江店)","lon":"121.51414735","lat":"31.274172804","category":"67","category_name":"甜品店","address":"杨浦区控江路1690号凤凰大酒店(近双辽路)"},{"poiid":"B2094757D069A5F8479B","title":"沈家门渔港","lon":"121.51502","lat":"31.27388","category":"75","category_name":"浙江菜","address":"杨浦区控江路1690号(近双辽路)"},{"poiid":"B2094752D36BABFE4298","title":"屋企汤馆(控江店)","lon":"121.51553","lat":"31.27453","category":"72","category_name":"广东菜","address":"杨浦区控江路1686号3楼(新华医院斜对面)"},{"poiid":"B2094655D269ABF84393","title":"大回音量贩式KTV鞍山店","lon":"121.51537","lat":"31.27455","category":"247","category_name":"餐饮美食","address":"杨浦区控江路1688号(近鞍山路)"},{"poiid":"B2094757D064A6FB409D","title":"八号线地铁","lon":"121.513141703","lat":"31.2739542961","category":"36","category_name":"地铁站","address":"上海"},{"poiid":"B2094757D068A3FA499E","title":"三商巧福(鞍山店)","lon":"121.51372","lat":"31.27419","category":"68","category_name":"快餐厅","address":"杨浦区鞍山路20号1楼(近控江路)"},{"poiid":"B2094654D56EA0F9439E","title":"凤凰大酒店","lon":"121.51467","lat":"31.27438","category":"215","category_name":"三星级宾馆","address":"杨浦区控江路1690号(近新华医院)"},{"poiid":"B2094757D068A1F44699","title":"本溪路鞍山路口","lon":"121.512424103","lat":"31.2744865072","category":"500","category_name":"未知分类","address":"上海杨浦区本溪路鞍山路口"},{"poiid":"B2094757D16EABFE499F","title":"老盛祥汤包馆(鞍山店)","lon":"121.513267403","lat":"31.2758341354","category":"68","category_name":"快餐厅","address":"杨浦区鞍山路80号(近锦西路)"},{"poiid":"B2094757D069A4FD4099","title":"阿玛尼美发美容 鞍山店","lon":"121.51368993","lat":"31.273668073","category":"148","category_name":"美容美发店","address":"上海鞍山路20号"},{"poiid":"B2094757D068A6F9439B","title":"中国工商银行(鞍山路支行)","lon":"121.5147","lat":"31.27407","category":"150","category_name":"银行","address":"杨浦区控江路1698号近新华医院(控江路双辽路)"},{"poiid":"B2094757D06FA4FF4392","title":"环球食品(控江路店)","lon":"121.514034","lat":"31.274121","category":"118","category_name":"超级市场","address":"上海杨浦区控江路1736号环球超市内(近鞍山路)"},{"poiid":"B2094750D76CA3F9439C","title":"真功夫(海烟商厦店)","lon":"121.516","lat":"31.2742","category":"68","category_name":"快餐厅","address":"杨浦区控江路1667号海烟商厦(近双辽路)"},{"poiid":"B2094654D56EA0FA419F","title":"华元豪庭","lon":"121.51458","lat":"31.276619","category":"47","category_name":"住宅区","address":"上海市杨浦区本溪路168弄"},{"poiid":"B2094757D165A3FE449A","title":"新华医院眼科","lon":"121.515684103","lat":"31.2744395062","category":"162","category_name":"医院","address":"上海市杨浦区新华医院"},{"poiid":"B2094757D064AAFA4998","title":"新华医院内科病房","lon":"121.516464","lat":"31.274251","category":"162","category_name":"医院","address":"上海市杨浦区控江路1665号"},{"poiid":"B2094757D068A5F9449A","title":"黑川饮铺(控江路店)","lon":"121.5136581","lat":"31.2741595","category":"113","category_name":"冷饮店","address":"杨浦区控江路1720号(新华医院对面)"},{"poiid":"B2094757D068A7F94799","title":"上海书城(鞍山店)","lon":"121.51366","lat":"31.27391","category":"125","category_name":"书店","address":"杨浦区鞍山路20号(近控江路)"},{"poiid":"B2094654D56EABFA479C","title":"元祖食品(控江路)","lon":"121.51615","lat":"31.27416","category":"112","category_name":"糕饼店","address":"控江路1667甲"},{"poiid":"B2094757D468ABFB489C","title":"陈记龙虾王","lon":"121.51325","lat":"31.27533","category":"68","category_name":"快餐厅","address":"杨浦区本溪路262号(鞍山路口9月12号卖栗子)"},{"poiid":"B2094655D36CA5F4449E","title":"本溪路铁岭路","lon":"121.51371","lat":"31.27544","category":"38","category_name":"公交车站","address":""},{"poiid":"B2094757D06BA3F84399","title":"吉米乐园","lon":"121.515619","lat":"31.274687","category":"86","category_name":"火锅店","address":"杨浦区控江路1686号2楼(近宏图三包)"},{"poiid":"B2094655D26CA6F54992","title":"阿龙烧烤","lon":"121.51359","lat":"31.27404","category":"68","category_name":"快餐厅","address":"杨浦区鞍山路1号环球食品商店门口(控江路口)"},{"poiid":"B2094654D56EA0F94698","title":"新华书店(鞍山路)","lon":"121.51345","lat":"31.27448","category":"125","category_name":"书店","address":"鞍山路20"},{"poiid":"B2094655D36CA4FE409A","title":"鞍山路","lon":"121.51382","lat":"31.27388","category":"38","category_name":"公交车站","address":""},{"poiid":"B2094655D26CA7F5439E","title":"鞍山一村","lon":"121.51315","lat":"31.27676","category":"47","category_name":"住宅区","address":""},{"poiid":"B2094655D269AAF84299","title":"宏图三胞控江路店","lon":"121.51557","lat":"31.27453","category":"247","category_name":"餐饮美食","address":"杨浦区控江路1686号(近本溪路)"},{"poiid":"B2094654DB6BA3FB499C","title":"耶里夏丽 本溪店","lon":"121.5126399","lat":"31.274712","category":"90","category_name":"清真餐馆","address":"西江湾路338号虹口龙之梦5楼"},{"poiid":"B2094654D56FA1F84092","title":"和平商厦","lon":"121.513","lat":"31.2753","category":"46","category_name":"楼宇","address":"和平商厦位于虹口大连路1079号"},{"poiid":"B2094654DB64A6FB4799","title":"吉泰连锁酒店(杨浦本溪路店)","lon":"121.51359","lat":"31.27485","category":"216","category_name":"经济型连锁酒店","address":"杨浦区本溪路191号"},{"poiid":"B2094757D16CABF9419A","title":"城隍庙小吃","lon":"121.51283","lat":"31.27519","category":"68","category_name":"快餐厅","address":"杨浦区鞍山路60号(近本溪路)"},{"poiid":"B2094655D265A5F94698","title":"上海市民办打一外国语小学","lon":"121.51592","lat":"31.27666","category":"56","category_name":"小学","address":"杨浦区锦西路100弄8号(锦西路苏家屯路)"},{"poiid":"B2094757D06FA2FF4299","title":"新华医院儿科","lon":"121.51646213","lat":"31.274249013","category":"162","category_name":"医院","address":"杨浦区控江路1665号(近江浦路)"},{"poiid":"B2094757D06FA1F8429A","title":"必胜客(假日店)","lon":"121.513","lat":"31.27409","category":"94","category_name":"西餐厅","address":"杨浦区鞍山路1号假日百货1-2楼(控江路口)"},{"poiid":"B2094757D06EAAF9469B","title":"麦当劳 控江路店 McDonald's","lon":"121.51533475394","lat":"31.274268111776","category":"68","category_name":"快餐厅","address":"杨浦区控江路1063号吉买盛超市1楼(近源泉路)"},{"poiid":"B2094654D56EA0F54192","title":"假日百货","lon":"121.513","lat":"31.27409","category":"119","category_name":"商场","address":"上海杨浦区鞍山路1号(控江路口)"},{"poiid":"B2094757D06FA1FB439F","title":"鞍山路控江路","lon":"121.5134251","lat":"31.2738072","category":"500","category_name":"未知分类","address":"上海鞍山路控江路"},{"poiid":"B2094654D56EA0F8479B","title":"西北郎烧烤 控江店","lon":"121.51493781539","lat":"31.274164545989","category":"68","category_name":"快餐厅","address":"杨浦区控江路1686号宏图三胞2楼(近双辽路)"},{"poiid":"B2094757D06FA3F8479C","title":"利都新概念桌球俱乐部(本溪路店)","lon":"121.51354","lat":"31.27458","category":"171","category_name":"台球厅","address":"杨浦区本溪路197号永乐家电3楼(近鞍山路)"},{"poiid":"B2094654D56EA0F4499D","title":"染山日本料理","lon":"121.51255","lat":"31.27485","category":"95","category_name":"日本料理","address":"上海杨浦区本溪路282号(近鞍山路)"},{"poiid":"B2094654DB69A5FE429F","title":"肯德基(控江店)","lon":"121.51544","lat":"31.27398","category":"68","category_name":"快餐厅","address":"杨浦区双辽路768号(近控江路)"},{"poiid":"B2094757D06FA7F84092","title":"巴贝拉(控江路店)","lon":"121.512696253","lat":"31.2748639293","category":"94","category_name":"西餐厅","address":"杨浦区本溪路280号(近控江路)"},{"poiid":"B2094757D06FA7F8459C","title":"食其家(控江路店)","lon":"121.51641082","lat":"31.274255752","category":"95","category_name":"日本料理","address":"杨浦区控江路1667号甲(近双辽路)"},{"poiid":"B2094757D06FA4F4499C","title":"予约时尚(鞍山路店)","lon":"121.51306","lat":"31.27516","category":"148","category_name":"美容美发店","address":"杨浦区鞍山路68号(近本溪路)"},{"poiid":"B2094757D06FABFA4398","title":"永和大王(控江路店)","lon":"121.51695","lat":"31.2742","category":"68","category_name":"快餐厅","address":"上海杨浦区控江路1667号(近江浦路)  "},{"poiid":"B2094654D56EA0F84798","title":"上岛咖啡418分店","lon":"121.51544","lat":"31.2745","category":"65","category_name":"咖啡厅","address":"杨浦区控江路1686号(近双辽路)"},{"poiid":"B2094654D56EA0FB409D","title":"杨浦商城","lon":"121.51296","lat":"31.27421","category":"46","category_name":"楼宇","address":"上海市虹口区四川北路1318号"},{"poiid":"B2094655D26AABFF409F","title":"如仙旦姆","lon":"121.516097054","lat":"31.276232793","category":"90","category_name":"清真餐馆","address":"杨浦区本溪路145号(铁岭路口)"},{"poiid":"B2094757D06FA0FA499D","title":"果留仙(本溪路店)","lon":"121.51292","lat":"31.27463","category":"113","category_name":"冷饮店","address":"杨浦区本溪路280号(鞍山路口)"},{"poiid":"B2094757D06FABFA409F","title":"新华医院外科大楼","lon":"121.51646305","lat":"31.274250129","category":"162","category_name":"医院","address":"上海杨浦区控江路1665号(近江浦路)"},{"poiid":"B2094757D06FA0F44598","title":"红宝石(控江店)","lon":"121.51414735","lat":"31.274172804","category":"67","category_name":"甜品店","address":"杨浦区控江路1690号凤凰大酒店(近双辽路)"},{"poiid":"B2094757D069A5F8479B","title":"沈家门渔港","lon":"121.51502","lat":"31.27388","category":"75","category_name":"浙江菜","address":"杨浦区控江路1690号(近双辽路)"},{"poiid":"B2094752D36BABFE4298","title":"屋企汤馆(控江店)","lon":"121.51553","lat":"31.27453","category":"72","category_name":"广东菜","address":"杨浦区控江路1686号3楼(新华医院斜对面)"},{"poiid":"B2094655D269ABF84393","title":"大回音量贩式KTV鞍山店","lon":"121.51537","lat":"31.27455","category":"247","category_name":"餐饮美食","address":"杨浦区控江路1688号(近鞍山路)"},{"poiid":"B2094757D064A6FB409D","title":"八号线地铁","lon":"121.513141703","lat":"31.2739542961","category":"36","category_name":"地铁站","address":"上海"},{"poiid":"B2094757D068A3FA499E","title":"三商巧福(鞍山店)","lon":"121.51372","lat":"31.27419","category":"68","category_name":"快餐厅","address":"杨浦区鞍山路20号1楼(近控江路)"},{"poiid":"B2094654D56EA0F9439E","title":"凤凰大酒店","lon":"121.51467","lat":"31.27438","category":"215","category_name":"三星级宾馆","address":"杨浦区控江路1690号(近新华医院)"},{"poiid":"B2094757D068A1F44699","title":"本溪路鞍山路口","lon":"121.512424103","lat":"31.2744865072","category":"500","category_name":"未知分类","address":"上海杨浦区本溪路鞍山路口"},{"poiid":"B2094757D16EABFE499F","title":"老盛祥汤包馆(鞍山店)","lon":"121.513267403","lat":"31.2758341354","category":"68","category_name":"快餐厅","address":"杨浦区鞍山路80号(近锦西路)"},{"poiid":"B2094757D069A4FD4099","title":"阿玛尼美发美容 鞍山店","lon":"121.51368993","lat":"31.273668073","category":"148","category_name":"美容美发店","address":"上海鞍山路20号"},{"poiid":"B2094757D068A6F9439B","title":"中国工商银行(鞍山路支行)","lon":"121.5147","lat":"31.27407","category":"150","category_name":"银行","address":"杨浦区控江路1698号近新华医院(控江路双辽路)"},{"poiid":"B2094757D06FA4FF4392","title":"环球食品(控江路店)","lon":"121.514034","lat":"31.274121","category":"118","category_name":"超级市场","address":"上海杨浦区控江路1736号环球超市内(近鞍山路)"},{"poiid":"B2094750D76CA3F9439C","title":"真功夫(海烟商厦店)","lon":"121.516","lat":"31.2742","category":"68","category_name":"快餐厅","address":"杨浦区控江路1667号海烟商厦(近双辽路)"},{"poiid":"B2094654D56EA0FA419F","title":"华元豪庭","lon":"121.51458","lat":"31.276619","category":"47","category_name":"住宅区","address":"上海市杨浦区本溪路168弄"},{"poiid":"B2094757D165A3FE449A","title":"新华医院眼科","lon":"121.515684103","lat":"31.2744395062","category":"162","category_name":"医院","address":"上海市杨浦区新华医院"},{"poiid":"B2094757D064AAFA4998","title":"新华医院内科病房","lon":"121.516464","lat":"31.274251","category":"162","category_name":"医院","address":"上海市杨浦区控江路1665号"},{"poiid":"B2094757D068A5F9449A","title":"黑川饮铺(控江路店)","lon":"121.5136581","lat":"31.2741595","category":"113","category_name":"冷饮店","address":"杨浦区控江路1720号(新华医院对面)"},{"poiid":"B2094757D068A7F94799","title":"上海书城(鞍山店)","lon":"121.51366","lat":"31.27391","category":"125","category_name":"书店","address":"杨浦区鞍山路20号(近控江路)"},{"poiid":"B2094654D56EABFA479C","title":"元祖食品(控江路)","lon":"121.51615","lat":"31.27416","category":"112","category_name":"糕饼店","address":"控江路1667甲"},{"poiid":"B2094757D468ABFB489C","title":"陈记龙虾王","lon":"121.51325","lat":"31.27533","category":"68","category_name":"快餐厅","address":"杨浦区本溪路262号(鞍山路口9月12号卖栗子)"},{"poiid":"B2094655D36CA5F4449E","title":"本溪路铁岭路","lon":"121.51371","lat":"31.27544","category":"38","category_name":"公交车站","address":""},{"poiid":"B2094757D06BA3F84399","title":"吉米乐园","lon":"121.515619","lat":"31.274687","category":"86","category_name":"火锅店","address":"杨浦区控江路1686号2楼(近宏图三包)"},{"poiid":"B2094655D26CA6F54992","title":"阿龙烧烤","lon":"121.51359","lat":"31.27404","category":"68","category_name":"快餐厅","address":"杨浦区鞍山路1号环球食品商店门口(控江路口)"},{"poiid":"B2094654D56EA0F94698","title":"新华书店(鞍山路)","lon":"121.51345","lat":"31.27448","category":"125","category_name":"书店","address":"鞍山路20"},{"poiid":"B2094655D36CA4FE409A","title":"鞍山路","lon":"121.51382","lat":"31.27388","category":"38","category_name":"公交车站","address":""},{"poiid":"B2094655D26CA7F5439E","title":"鞍山一村","lon":"121.51315","lat":"31.27676","category":"47","category_name":"住宅区","address":""},{"poiid":"B2094655D269AAF84299","title":"宏图三胞控江路店","lon":"121.51557","lat":"31.27453","category":"247","category_name":"餐饮美食","address":"杨浦区控江路1686号(近本溪路)"},{"poiid":"B2094654DB6BA3FB499C","title":"耶里夏丽 本溪店","lon":"121.5126399","lat":"31.274712","category":"90","category_name":"清真餐馆","address":"西江湾路338号虹口龙之梦5楼"},{"poiid":"B2094654D56FA1F84092","title":"和平商厦","lon":"121.513","lat":"31.2753","category":"46","category_name":"楼宇","address":"和平商厦位于虹口大连路1079号"},{"poiid":"B2094654DB64A6FB4799","title":"吉泰连锁酒店(杨浦本溪路店)","lon":"121.51359","lat":"31.27485","category":"216","category_name":"经济型连锁酒店","address":"杨浦区本溪路191号"},{"poiid":"B2094757D16CABF9419A","title":"城隍庙小吃","lon":"121.51283","lat":"31.27519","category":"68","category_name":"快餐厅","address":"杨浦区鞍山路60号(近本溪路)"},{"poiid":"B2094655D265A5F94698","title":"上海市民办打一外国语小学","lon":"121.51592","lat":"31.27666","category":"56","category_name":"小学","address":"杨浦区锦西路100弄8号(锦西路苏家屯路)"},{"poiid":"B2094757D06FA2FF4299","title":"新华医院儿科","lon":"121.51646213","lat":"31.274249013","category":"162","category_name":"医院","address":"杨浦区控江路1665号(近江浦路)"},{"poiid":"B2094757D06FA1F8429A","title":"必胜客(假日店)","lon":"121.513","lat":"31.27409","category":"94","category_name":"西餐厅","address":"杨浦区鞍山路1号假日百货1-2楼(控江路口)"},{"poiid":"B2094757D06EAAF9469B","title":"麦当劳 控江路店 McDonald's","lon":"121.51533475394","lat":"31.274268111776","category":"68","category_name":"快餐厅","address":"杨浦区控江路1063号吉买盛超市1楼(近源泉路)"},{"poiid":"B2094654D56EA0F54192","title":"假日百货","lon":"121.513","lat":"31.27409","category":"119","category_name":"商场","address":"上海杨浦区鞍山路1号(控江路口)"},{"poiid":"B2094757D06FA1FB439F","title":"鞍山路控江路","lon":"121.5134251","lat":"31.2738072","category":"500","category_name":"未知分类","address":"上海鞍山路控江路"},{"poiid":"B2094654D56EA0F8479B","title":"西北郎烧烤 控江店","lon":"121.51493781539","lat":"31.274164545989","category":"68","category_name":"快餐厅","address":"杨浦区控江路1686号宏图三胞2楼(近双辽路)"},{"poiid":"B2094757D06FA3F8479C","title":"利都新概念桌球俱乐部(本溪路店)","lon":"121.51354","lat":"31.27458","category":"171","category_name":"台球厅","address":"杨浦区本溪路197号永乐家电3楼(近鞍山路)"},{"poiid":"B2094654D56EA0F4499D","title":"染山日本料理","lon":"121.51255","lat":"31.27485","category":"95","category_name":"日本料理","address":"上海杨浦区本溪路282号(近鞍山路)"},{"poiid":"B2094654DB69A5FE429F","title":"肯德基(控江店)","lon":"121.51544","lat":"31.27398","category":"68","category_name":"快餐厅","address":"杨浦区双辽路768号(近控江路)"},{"poiid":"B2094757D06FA7F84092","title":"巴贝拉(控江路店)","lon":"121.512696253","lat":"31.2748639293","category":"94","category_name":"西餐厅","address":"杨浦区本溪路280号(近控江路)"},{"poiid":"B2094757D06FA7F8459C","title":"食其家(控江路店)","lon":"121.51641082","lat":"31.274255752","category":"95","category_name":"日本料理","address":"杨浦区控江路1667号甲(近双辽路)"},{"poiid":"B2094757D06FA4F4499C","title":"予约时尚(鞍山路店)","lon":"121.51306","lat":"31.27516","category":"148","category_name":"美容美发店","address":"杨浦区鞍山路68号(近本溪路)"},{"poiid":"B2094757D06FABFA4398","title":"永和大王(控江路店)","lon":"121.51695","lat":"31.2742","category":"68","category_name":"快餐厅","address":"上海杨浦区控江路1667号(近江浦路)  "},{"poiid":"B2094654D56EA0F84798","title":"上岛咖啡418分店","lon":"121.51544","lat":"31.2745","category":"65","category_name":"咖啡厅","address":"杨浦区控江路1686号(近双辽路)"},{"poiid":"B2094654D56EA0FB409D","title":"杨浦商城","lon":"121.51296","lat":"31.27421","category":"46","category_name":"楼宇","address":"上海市虹口区四川北路1318号"},{"poiid":"B2094655D26AABFF409F","title":"如仙旦姆","lon":"121.516097054","lat":"31.276232793","category":"90","category_name":"清真餐馆","address":"杨浦区本溪路145号(铁岭路口)"},{"poiid":"B2094757D06FA0FA499D","title":"果留仙(本溪路店)","lon":"121.51292","lat":"31.27463","category":"113","category_name":"冷饮店","address":"杨浦区本溪路280号(鞍山路口)"},{"poiid":"B2094757D06FABFA409F","title":"新华医院外科大楼","lon":"121.51646305","lat":"31.274250129","category":"162","category_name":"医院","address":"上海杨浦区控江路1665号(近江浦路)"},{"poiid":"B2094757D06FA0F44598","title":"红宝石(控江店)","lon":"121.51414735","lat":"31.274172804","category":"67","category_name":"甜品店","address":"杨浦区控江路1690号凤凰大酒店(近双辽路)"},{"poiid":"B2094757D069A5F8479B","title":"沈家门渔港","lon":"121.51502","lat":"31.27388","category":"75","category_name":"浙江菜","address":"杨浦区控江路1690号(近双辽路)"},{"poiid":"B2094752D36BABFE4298","title":"屋企汤馆(控江店)","lon":"121.51553","lat":"31.27453","category":"72","category_name":"广东菜","address":"杨浦区控江路1686号3楼(新华医院斜对面)"},{"poiid":"B2094655D269ABF84393","title":"大回音量贩式KTV鞍山店","lon":"121.51537","lat":"31.27455","category":"247","category_name":"餐饮美食","address":"杨浦区控江路1688号(近鞍山路)"},{"poiid":"B2094757D064A6FB409D","title":"八号线地铁","lon":"121.513141703","lat":"31.2739542961","category":"36","category_name":"地铁站","address":"上海"},{"poiid":"B2094757D068A3FA499E","title":"三商巧福(鞍山店)","lon":"121.51372","lat":"31.27419","category":"68","category_name":"快餐厅","address":"杨浦区鞍山路20号1楼(近控江路)"},{"poiid":"B2094654D56EA0F9439E","title":"凤凰大酒店","lon":"121.51467","lat":"31.27438","category":"215","category_name":"三星级宾馆","address":"杨浦区控江路1690号(近新华医院)"},{"poiid":"B2094757D068A1F44699","title":"本溪路鞍山路口","lon":"121.512424103","lat":"31.2744865072","category":"500","category_name":"未知分类","address":"上海杨浦区本溪路鞍山路口"},{"poiid":"B2094757D16EABFE499F","title":"老盛祥汤包馆(鞍山店)","lon":"121.513267403","lat":"31.2758341354","category":"68","category_name":"快餐厅","address":"杨浦区鞍山路80号(近锦西路)"},{"poiid":"B2094757D069A4FD4099","title":"阿玛尼美发美容 鞍山店","lon":"121.51368993","lat":"31.273668073","category":"148","category_name":"美容美发店","address":"上海鞍山路20号"},{"poiid":"B2094757D068A6F9439B","title":"中国工商银行(鞍山路支行)","lon":"121.5147","lat":"31.27407","category":"150","category_name":"银行","address":"杨浦区控江路1698号近新华医院(控江路双辽路)"},{"poiid":"B2094757D06FA4FF4392","title":"环球食品(控江路店)","lon":"121.514034","lat":"31.274121","category":"118","category_name":"超级市场","address":"上海杨浦区控江路1736号环球超市内(近鞍山路)"},{"poiid":"B2094750D76CA3F9439C","title":"真功夫(海烟商厦店)","lon":"121.516","lat":"31.2742","category":"68","category_name":"快餐厅","address":"杨浦区控江路1667号海烟商厦(近双辽路)"},{"poiid":"B2094654D56EA0FA419F","title":"华元豪庭","lon":"121.51458","lat":"31.276619","category":"47","category_name":"住宅区","address":"上海市杨浦区本溪路168弄"},{"poiid":"B2094757D165A3FE449A","title":"新华医院眼科","lon":"121.515684103","lat":"31.2744395062","category":"162","category_name":"医院","address":"上海市杨浦区新华医院"},{"poiid":"B2094757D064AAFA4998","title":"新华医院内科病房","lon":"121.516464","lat":"31.274251","category":"162","category_name":"医院","address":"上海市杨浦区控江路1665号"},{"poiid":"B2094757D068A5F9449A","title":"黑川饮铺(控江路店)","lon":"121.5136581","lat":"31.2741595","category":"113","category_name":"冷饮店","address":"杨浦区控江路1720号(新华医院对面)"},{"poiid":"B2094757D068A7F94799","title":"上海书城(鞍山店)","lon":"121.51366","lat":"31.27391","category":"125","category_name":"书店","address":"杨浦区鞍山路20号(近控江路)"},{"poiid":"B2094654D56EABFA479C","title":"元祖食品(控江路)","lon":"121.51615","lat":"31.27416","category":"112","category_name":"糕饼店","address":"控江路1667甲"},{"poiid":"B2094757D468ABFB489C","title":"陈记龙虾王","lon":"121.51325","lat":"31.27533","category":"68","category_name":"快餐厅","address":"杨浦区本溪路262号(鞍山路口9月12号卖栗子)"},{"poiid":"B2094655D36CA5F4449E","title":"本溪路铁岭路","lon":"121.51371","lat":"31.27544","category":"38","category_name":"公交车站","address":""},{"poiid":"B2094757D06BA3F84399","title":"吉米乐园","lon":"121.515619","lat":"31.274687","category":"86","category_name":"火锅店","address":"杨浦区控江路1686号2楼(近宏图三包)"},{"poiid":"B2094655D26CA6F54992","title":"阿龙烧烤","lon":"121.51359","lat":"31.27404","category":"68","category_name":"快餐厅","address":"杨浦区鞍山路1号环球食品商店门口(控江路口)"},{"poiid":"B2094654D56EA0F94698","title":"新华书店(鞍山路)","lon":"121.51345","lat":"31.27448","category":"125","category_name":"书店","address":"鞍山路20"},{"poiid":"B2094655D36CA4FE409A","title":"鞍山路","lon":"121.51382","lat":"31.27388","category":"38","category_name":"公交车站","address":""},{"poiid":"B2094655D26CA7F5439E","title":"鞍山一村","lon":"121.51315","lat":"31.27676","category":"47","category_name":"住宅区","address":""},{"poiid":"B2094655D269AAF84299","title":"宏图三胞控江路店","lon":"121.51557","lat":"31.27453","category":"247","category_name":"餐饮美食","address":"杨浦区控江路1686号(近本溪路)"},{"poiid":"B2094654DB6BA3FB499C","title":"耶里夏丽 本溪店","lon":"121.5126399","lat":"31.274712","category":"90","category_name":"清真餐馆","address":"西江湾路338号虹口龙之梦5楼"},{"poiid":"B2094654D56FA1F84092","title":"和平商厦","lon":"121.513","lat":"31.2753","category":"46","category_name":"楼宇","address":"和平商厦位于虹口大连路1079号"},{"poiid":"B2094654DB64A6FB4799","title":"吉泰连锁酒店(杨浦本溪路店)","lon":"121.51359","lat":"31.27485","category":"216","category_name":"经济型连锁酒店","address":"杨浦区本溪路191号"},{"poiid":"B2094757D16CABF9419A","title":"城隍庙小吃","lon":"121.51283","lat":"31.27519","category":"68","category_name":"快餐厅","address":"杨浦区鞍山路60号(近本溪路)"},{"poiid":"B2094655D265A5F94698","title":"上海市民办打一外国语小学","lon":"121.51592","lat":"31.27666","category":"56","category_name":"小学","address":"杨浦区锦西路100弄8号(锦西路苏家屯路)"}]