[{"poiid":"B2094655D26DA5FD4298","title":"运动LOFT创意基地","lon":"121.47269","lat":"31.27086","category":"46","category_name":"楼宇","address":"同心路723号"},{"poiid":"B2094750D269A1FF409F","title":"金逸国际影院","lon":"121.474807","lat":"31.270542","category":"248","category_name":"生活娱乐","address":"西江弯路388号虹口龙之梦6楼"},{"poiid":"B2094752DB6DABF54099","title":"柳家","lon":"121.473142","lat":"31.272743","category":"500","category_name":"未知分类","address":"上海市 西江湾路388号凯德龙之梦购物中心B座5楼B05-07a号商铺(近虹口足球场)"},{"poiid":"B2094757D06FA1F84992","title":"上海体育运动学校","lon":"121.47387","lat":"31.27398","category":"52","category_name":"高等院校","address":"虹口区水电路176号(近广中路)"},{"poiid":"B2094757D065A5FB4293","title":"土豆爸爸 龙之梦虹口店","lon":"121.47784","lat":"31.27106","category":"68","category_name":"快餐厅","address":"虹口区西江湾路388号虹口凯德龙之梦购物中心B2楼(近虹口足球场)"},{"poiid":"B2094751D464A2FB4292","title":"黄记煌三汁焖锅","lon":"121.472437","lat":"31.272741","category":"247","category_name":"餐饮美食","address":"虹口区西江湾路388号凯德龙之梦B座02楼09号商铺(近虹口足球场)"},{"poiid":"B2094757D06FA0FC4698","title":"岩舞空间攀岩馆","lon":"121.47415","lat":"31.27148","category":"148","category_name":"美容美发店","address":"虹口区花园路128号运动LOFT创意园区一街区A座1楼105室(近景祥路)"},{"poiid":"B2094757D06FA7F9499F","title":"柳营灯饰城","lon":"121.46814","lat":"31.2704","category":"119","category_name":"商场","address":"闸北区柳营路135号(近北宝兴路)"},{"poiid":"B2094751D06CA2FF4799","title":"金逸国际电影城","lon":"121.4731550669621","lat":"31.27254064812787","category":"178","category_name":"电影院","address":"虹口龙之梦6楼"},{"poiid":"B2094757D065ABF9409D","title":"一茶一座(虹口足球场店)","lon":"121.475179103","lat":"31.2699884132","category":"47","category_name":"住宅区","address":"上海凯德·龙之梦(虹口店)5楼"},{"poiid":"B2094752DA69A0FF4998","title":"鐮倉PASTA","lon":"121.474312","lat":"31.272652","category":"500","category_name":"未知分类","address":"上海市 虹口龍之夢"},{"poiid":"B2094757D065A7F8479E","title":"辛格灵凯德龙之梦店","lon":"121.474477103","lat":"31.2705634252","category":"500","category_name":"未知分类","address":"上海虹口区西江湾路388号A座437"},{"poiid":"B2094757D069A0F8459C","title":"陌生人火锅餐厅(虹口百联店)","lon":"121.468085","lat":"31.269598205","category":"500","category_name":"未知分类","address":"上海市虹口区同丰路699号虹口百联商厦4F"},{"poiid":"B209475DDB64A3F84399","title":"上上谦串串香时尚火锅","lon":"121.474777","lat":"31.270488","category":"247","category_name":"餐饮美食","address":"上海市 上海市虹口龙之梦"},{"poiid":"B2094757D065A6F44998","title":"神采飞扬游乐公园","lon":"121.474746103","lat":"31.2704644231","category":"173","category_name":"游戏厅","address":"虹口区西江湾路388号凯德龙之梦购物中心B座5楼"},{"poiid":"B2094757D06FABFE489C","title":"花园城","lon":"121.47254871","lat":"31.272643459","category":"47","category_name":"住宅区","address":"上海虹口区花园路118弄"},{"poiid":"B2094655D26CA1FD479C","title":"花园城Ⅲ","lon":"121.47476","lat":"31.27089","category":"47","category_name":"住宅区","address":"花园路118弄"},{"poiid":"B2094750D26DA0FC439F","title":"圣吉诺","lon":"121.47332752579","lat":"31.272400026896","category":"113","category_name":"冷饮店","address":"虹口区西江湾路388号虹口龙之梦购物中心B2楼(近虹口足球场)"},{"poiid":"B2094757D064AAFF409E","title":"东方商厦","lon":"121.467663819","lat":"31.2726715973","category":"119","category_name":"商场","address":"上海虹口区同丰路699号百联虹口店内(近北宝兴路)"},{"poiid":"B2094654D56DA5F94092","title":"上海市复旦大学附属公共卫生中心","lon":"121.47032","lat":"31.27245","category":"162","category_name":"医院","address":"虹口区水电路56号"},{"poiid":"B2094757D165A7F4469D","title":"同心路中山北一路","lon":"121.474069003","lat":"31.2682834776","category":"500","category_name":"未知分类","address":"上海同心路"},{"poiid":"B2094752D468A1FF4898","title":"虹口龙之梦板长寿司","lon":"121.473176","lat":"31.273063","category":"247","category_name":"餐饮美食","address":null},{"poiid":"B2094757D168A2FD429D","title":"反斗乐园(凯德龙之梦虹口店)","lon":"121.474644103","lat":"31.2726834695","category":"500","category_name":"未知分类","address":"上海市西江湾路388号(近花园路)"},{"poiid":"B2094752D66FABF9459F","title":"精悦蓉香锅牛蛙","lon":"121.472762","lat":"31.267914","category":"247","category_name":"餐饮美食","address":"虹口龙之梦"},{"poiid":"B2094757D069A0F8449E","title":"柳林公寓","lon":"121.46959","lat":"31.271997","category":"47","category_name":"住宅区","address":"上海市虹口区柳营路45弄"},{"poiid":"B2094654D56CAAF84593","title":"同心小吃店","lon":"121.47095","lat":"31.27172","category":"68","category_name":"快餐厅","address":"虹口区同心路803弄"},{"poiid":"B2094757D069A7F94198","title":"广联新苑","lon":"121.4716","lat":"31.267334","category":"47","category_name":"住宅区","address":"上海市虹口区广联路29弄"},{"poiid":"B2094454D26EABFD429C","title":"上上谦 虹口龙之梦店","lon":"121.475006","lat":"31.270296","category":"247","category_name":"餐饮美食","address":"上海市 上海虹口区花园路"},{"poiid":"B2094655D26FA6FC419D","title":"上海虹元大大酒店","lon":"121.47051","lat":"31.27156","category":"215","category_name":"三星级宾馆","address":"闸北区柳营路8号(近同心路)"},{"poiid":"B2094654D56CAAF84592","title":"上海市虹口区国强烟杂店","lon":"121.47129","lat":"31.27141","category":"117","category_name":"便民商店/便利店","address":""},{"poiid":"B2094757D06FA7F54293","title":"虹口垃圾中转站","lon":"121.47018","lat":"31.26796","category":"260","category_name":"其他","address":"上海虹口区西宝兴路833号(近黄山路)"},{"poiid":"B2094751D364ABFC499C","title":"江边城外巫山烤全鱼(虹口龙之梦店)","lon":"121.474945","lat":"31.2730504","category":"247","category_name":"餐饮美食","address":null},{"poiid":"B2094655D26BA6FD4293","title":"和源大楼","lon":"121.47409536435","lat":"31.270968173554","category":"46","category_name":"楼宇","address":"真北支路东,桃浦路368号"},{"poiid":"B2094750D56FA5FB419B","title":"龙之梦悠游堂乐园","lon":"121.47276","lat":"31.272944","category":"248","category_name":"生活娱乐","address":"虹口"},{"poiid":"B2094752D76EA1F9419E","title":"和民（虹口龙之梦）","lon":"121.474785","lat":"31.270496","category":"247","category_name":"餐饮美食","address":null},{"poiid":"B2094757DB68A4F9449F","title":"家有好面","lon":"121.4738142267342","lat":"31.27198425447136","category":"247","category_name":"餐饮美食","address":"虹口足球场龙之梦"},{"poiid":"B2094655D36CA1FE4998","title":"水电路同心路","lon":"121.47081","lat":"31.27225","category":"38","category_name":"公交车站","address":""},{"poiid":"B2094750D26CA1FD459D","title":"乐食派麻辣香锅","lon":"121.4702457627525","lat":"31.27241666830017","category":"247","category_name":"餐饮美食","address":"虹口龙之梦"},{"poiid":"B2094654D56CAAF44299","title":"克丽缇娜No.14488","lon":"121.47154","lat":"31.27233","category":"148","category_name":"美容美发店","address":"水电路49"},{"poiid":"B2094757D168A0FC459F","title":"运动loft创意基地 ebizpower","lon":"121.474647453","lat":"31.2704666732","category":"500","category_name":"未知分类","address":"上海花园路128号"},{"poiid":"B2094757D069A0F9489C","title":"花园路水电路","lon":"121.473928","lat":"31.273646","category":"500","category_name":"未知分类","address":"上海水电路191弄"},{"poiid":"B2094655D265ABF4469D","title":"喜士多便利(德发店)","lon":"121.47269","lat":"31.27087","category":"117","category_name":"便民商店/便利店","address":"同心路723号"},{"poiid":"B2094757D064AAFA4193","title":"仁和恬园","lon":"121.472","lat":"31.2695","category":"47","category_name":"住宅区","address":"上海市长宁区仙霞路1388弄"},{"poiid":"B2094757D16CA5F4449D","title":"Imo Cafe 虹口百联店","lon":"121.468063103","lat":"31.2733204828","category":"113","category_name":"冷饮店","address":"虹口区同丰路699号百联虹口购物中心内(近北宝兴路)"},{"poiid":"B2094757D56CA2FA419D","title":"象山海鲜 新同心路","lon":"121.4723461","lat":"31.2699428","category":"247","category_name":"餐饮美食","address":"同心路268号"},{"poiid":"B2094654D56DA4FD439A","title":"快客No.5111","lon":"121.46981","lat":"31.27173","category":"117","category_name":"便民商店/便利店","address":""},{"poiid":"B2094752DB6AA3F5449F","title":"虹口足球场","lon":"121.470553","lat":"31.270704","category":"220","category_name":"运动场所","address":"上海市 虹口足球场"},{"poiid":"B2094757D16EA1FD489E","title":"花园路128号A座2街区","lon":"121.4729821","lat":"31.271016434","category":"500","category_name":"未知分类","address":"上海虹口区花园路128号A座2街区"},{"poiid":"B2094757D064A1FF489D","title":"同心路","lon":"121.472251892","lat":"31.2711029053","category":"500","category_name":"未知分类","address":"上海掬水公寓"},{"poiid":"B2094655D26DA5FD4298","title":"运动LOFT创意基地","lon":"121.47269","lat":"31.27086","category":"46","category_name":"楼宇","address":"同心路723号"},{"poiid":"B2094750D269A1FF409F","title":"金逸国际影院","lon":"121.474807","lat":"31.270542","category":"248","category_name":"生活娱乐","address":"西江弯路388号虹口龙之梦6楼"},{"poiid":"B2094752DB6DABF54099","title":"柳家","lon":"121.473142","lat":"31.272743","category":"500","category_name":"未知分类","address":"上海市 西江湾路388号凯德龙之梦购物中心B座5楼B05-07a号商铺(近虹口足球场)"},{"poiid":"B2094757D06FA1F84992","title":"上海体育运动学校","lon":"121.47387","lat":"31.27398","category":"52","category_name":"高等院校","address":"虹口区水电路176号(近广中路)"},{"poiid":"B2094757D065A5FB4293","title":"土豆爸爸 龙之梦虹口店","lon":"121.47784","lat":"31.27106","category":"68","category_name":"快餐厅","address":"虹口区西江湾路388号虹口凯德龙之梦购物中心B2楼(近虹口足球场)"},{"poiid":"B2094751D464A2FB4292","title":"黄记煌三汁焖锅","lon":"121.472437","lat":"31.272741","category":"247","category_name":"餐饮美食","address":"虹口区西江湾路388号凯德龙之梦B座02楼09号商铺(近虹口足球场)"},{"poiid":"B2094757D06FA0FC4698","title":"岩舞空间攀岩馆","lon":"121.47415","lat":"31.27148","category":"148","category_name":"美容美发店","address":"虹口区花园路128号运动LOFT创意园区一街区A座1楼105室(近景祥路)"},{"poiid":"B2094757D06FA7F9499F","title":"柳营灯饰城","lon":"121.46814","lat":"31.2704","category":"119","category_name":"商场","address":"闸北区柳营路135号(近北宝兴路)"},{"poiid":"B2094751D06CA2FF4799","title":"金逸国际电影城","lon":"121.4731550669621","lat":"31.27254064812787","category":"178","category_name":"电影院","address":"虹口龙之梦6楼"},{"poiid":"B2094757D065ABF9409D","title":"一茶一座(虹口足球场店)","lon":"121.475179103","lat":"31.2699884132","category":"47","category_name":"住宅区","address":"上海凯德·龙之梦(虹口店)5楼"},{"poiid":"B2094752DA69A0FF4998","title":"鐮倉PASTA","lon":"121.474312","lat":"31.272652","category":"500","category_name":"未知分类","address":"上海市 虹口龍之夢"},{"poiid":"B2094757D065A7F8479E","title":"辛格灵凯德龙之梦店","lon":"121.474477103","lat":"31.2705634252","category":"500","category_name":"未知分类","address":"上海虹口区西江湾路388号A座437"},{"poiid":"B2094757D069A0F8459C","title":"陌生人火锅餐厅(虹口百联店)","lon":"121.468085","lat":"31.269598205","category":"500","category_name":"未知分类","address":"上海市虹口区同丰路699号虹口百联商厦4F"},{"poiid":"B209475DDB64A3F84399","title":"上上谦串串香时尚火锅","lon":"121.474777","lat":"31.270488","category":"247","category_name":"餐饮美食","address":"上海市 上海市虹口龙之梦"},{"poiid":"B2094757D065A6F44998","title":"神采飞扬游乐公园","lon":"121.474746103","lat":"31.2704644231","category":"173","category_name":"游戏厅","address":"虹口区西江湾路388号凯德龙之梦购物中心B座5楼"},{"poiid":"B2094757D06FABFE489C","title":"花园城","lon":"121.47254871","lat":"31.272643459","category":"47","category_name":"住宅区","address":"上海虹口区花园路118弄"},{"poiid":"B2094655D26CA1FD479C","title":"花园城Ⅲ","lon":"121.47476","lat":"31.27089","category":"47","category_name":"住宅区","address":"花园路118弄"},{"poiid":"B2094750D26DA0FC439F","title":"圣吉诺","lon":"121.47332752579","lat":"31.272400026896","category":"113","category_name":"冷饮店","address":"虹口区西江湾路388号虹口龙之梦购物中心B2楼(近虹口足球场)"},{"poiid":"B2094757D064AAFF409E","title":"东方商厦","lon":"121.467663819","lat":"31.2726715973","category":"119","category_name":"商场","address":"上海虹口区同丰路699号百联虹口店内(近北宝兴路)"},{"poiid":"B2094654D56DA5F94092","title":"上海市复旦大学附属公共卫生中心","lon":"121.47032","lat":"31.27245","category":"162","category_name":"医院","address":"虹口区水电路56号"},{"poiid":"B2094757D165A7F4469D","title":"同心路中山北一路","lon":"121.474069003","lat":"31.2682834776","category":"500","category_name":"未知分类","address":"上海同心路"},{"poiid":"B2094752D468A1FF4898","title":"虹口龙之梦板长寿司","lon":"121.473176","lat":"31.273063","category":"247","category_name":"餐饮美食","address":null},{"poiid":"B2094757D168A2FD429D","title":"反斗乐园(凯德龙之梦虹口店)","lon":"121.474644103","lat":"31.2726834695","category":"500","category_name":"未知分类","address":"上海市西江湾路388号(近花园路)"},{"poiid":"B2094752D66FABF9459F","title":"精悦蓉香锅牛蛙","lon":"121.472762","lat":"31.267914","category":"247","category_name":"餐饮美食","address":"虹口龙之梦"},{"poiid":"B2094757D069A0F8449E","title":"柳林公寓","lon":"121.46959","lat":"31.271997","category":"47","category_name":"住宅区","address":"上海市虹口区柳营路45弄"},{"poiid":"B2094654D56CAAF84593","title":"同心小吃店","lon":"121.47095","lat":"31.27172","category":"68","category_name":"快餐厅","address":"虹口区同心路803弄"},{"poiid":"B2094757D069A7F94198","title":"广联新苑","lon":"121.4716","lat":"31.267334","category":"47","category_name":"住宅区","address":"上海市虹口区广联路29弄"},{"poiid":"B2094454D26EABFD429C","title":"上上谦 虹口龙之梦店","lon":"121.475006","lat":"31.270296","category":"247","category_name":"餐饮美食","address":"上海市 上海虹口区花园路"},{"poiid":"B2094655D26FA6FC419D","title":"上海虹元大大酒店","lon":"121.47051","lat":"31.27156","category":"215","category_name":"三星级宾馆","address":"闸北区柳营路8号(近同心路)"},{"poiid":"B2094654D56CAAF84592","title":"上海市虹口区国强烟杂店","lon":"121.47129","lat":"31.27141","category":"117","category_name":"便民商店/便利店","address":""},{"poiid":"B2094757D06FA7F54293","title":"虹口垃圾中转站","lon":"121.47018","lat":"31.26796","category":"260","category_name":"其他","address":"上海虹口区西宝兴路833号(近黄山路)"},{"poiid":"B2094751D364ABFC499C","title":"江边城外巫山烤全鱼(虹口龙之梦店)","lon":"121.474945","lat":"31.2730504","category":"247","category_name":"餐饮美食","address":null},{"poiid":"B2094655D26BA6FD4293","title":"和源大楼","lon":"121.47409536435","lat":"31.270968173554","category":"46","category_name":"楼宇","address":"真北支路东,桃浦路368号"},{"poiid":"B2094750D56FA5FB419B","title":"龙之梦悠游堂乐园","lon":"121.47276","lat":"31.272944","category":"248","category_name":"生活娱乐","address":"虹口"},{"poiid":"B2094752D76EA1F9419E","title":"和民（虹口龙之梦）","lon":"121.474785","lat":"31.270496","category":"247","category_name":"餐饮美食","address":null},{"poiid":"B2094757DB68A4F9449F","title":"家有好面","lon":"121.4738142267342","lat":"31.27198425447136","category":"247","category_name":"餐饮美食","address":"虹口足球场龙之梦"},{"poiid":"B2094655D36CA1FE4998","title":"水电路同心路","lon":"121.47081","lat":"31.27225","category":"38","category_name":"公交车站","address":""},{"poiid":"B2094750D26CA1FD459D","title":"乐食派麻辣香锅","lon":"121.4702457627525","lat":"31.27241666830017","category":"247","category_name":"餐饮美食","address":"虹口龙之梦"},{"poiid":"B2094654D56CAAF44299","title":"克丽缇娜No.14488","lon":"121.47154","lat":"31.27233","category":"148","category_name":"美容美发店","address":"水电路49"},{"poiid":"B2094757D168A0FC459F","title":"运动loft创意基地 ebizpower","lon":"121.474647453","lat":"31.2704666732","category":"500","category_name":"未知分类","address":"上海花园路128号"},{"poiid":"B2094757D069A0F9489C","title":"花园路水电路","lon":"121.473928","lat":"31.273646","category":"500","category_name":"未知分类","address":"上海水电路191弄"},{"poiid":"B2094655D265ABF4469D","title":"喜士多便利(德发店)","lon":"121.47269","lat":"31.27087","category":"117","category_name":"便民商店/便利店","address":"同心路723号"},{"poiid":"B2094757D064AAFA4193","title":"仁和恬园","lon":"121.472","lat":"31.2695","category":"47","category_name":"住宅区","address":"上海市长宁区仙霞路1388弄"},{"poiid":"B2094757D16CA5F4449D","title":"Imo Cafe 虹口百联店","lon":"121.468063103","lat":"31.2733204828","category":"113","category_name":"冷饮店","address":"虹口区同丰路699号百联虹口购物中心内(近北宝兴路)"},{"poiid":"B2094757D56CA2FA419D","title":"象山海鲜 新同心路","lon":"121.4723461","lat":"31.2699428","category":"247","category_name":"餐饮美食","address":"同心路268号"},{"poiid":"B2094654D56DA4FD439A","title":"快客No.5111","lon":"121.46981","lat":"31.27173","category":"117","category_name":"便民商店/便利店","address":""},{"poiid":"B2094752DB6AA3F5449F","title":"虹口足球场","lon":"121.470553","lat":"31.270704","category":"220","category_name":"运动场所","address":"上海市 虹口足球场"},{"poiid":"B2094757D16EA1FD489E","title":"花园路128号A座2街区","lon":"121.4729821","lat":"31.271016434","category":"500","category_name":"未知分类","address":"上海虹口区花园路128号A座2街区"},{"poiid":"B2094757D064A1FF489D","title":"同心路","lon":"121.472251892","lat":"31.2711029053","category":"500","category_name":"未知分类","address":"上海掬水公寓"},{"poiid":"B2094655D26DA5FD4298","title":"运动LOFT创意基地","lon":"121.47269","lat":"31.27086","category":"46","category_name":"楼宇","address":"同心路723号"},{"poiid":"B2094750D269A1FF409F","title":"金逸国际影院","lon":"121.474807","lat":"31.270542","category":"248","category_name":"生活娱乐","address":"西江弯路388号虹口龙之梦6楼"},{"poiid":"B2094752DB6DABF54099","title":"柳家","lon":"121.473142","lat":"31.272743","category":"500","category_name":"未知分类","address":"上海市 西江湾路388号凯德龙之梦购物中心B座5楼B05-07a号商铺(近虹口足球场)"},{"poiid":"B2094757D06FA1F84992","title":"上海体育运动学校","lon":"121.47387","lat":"31.27398","category":"52","category_name":"高等院校","address":"虹口区水电路176号(近广中路)"},{"poiid":"B2094757D065A5FB4293","title":"土豆爸爸 龙之梦虹口店","lon":"121.47784","lat":"31.27106","category":"68","category_name":"快餐厅","address":"虹口区西江湾路388号虹口凯德龙之梦购物中心B2楼(近虹口足球场)"},{"poiid":"B2094751D464A2FB4292","title":"黄记煌三汁焖锅","lon":"121.472437","lat":"31.272741","category":"247","category_name":"餐饮美食","address":"虹口区西江湾路388号凯德龙之梦B座02楼09号商铺(近虹口足球场)"},{"poiid":"B2094757D06FA0FC4698","title":"岩舞空间攀岩馆","lon":"121.47415","lat":"31.27148","category":"148","category_name":"美容美发店","address":"虹口区花园路128号运动LOFT创意园区一街区A座1楼105室(近景祥路)"},{"poiid":"B2094757D06FA7F9499F","title":"柳营灯饰城","lon":"121.46814","lat":"31.2704","category":"119","category_name":"商场","address":"闸北区柳营路135号(近北宝兴路)"},{"poiid":"B2094751D06CA2FF4799","title":"金逸国际电影城","lon":"121.4731550669621","lat":"31.27254064812787","category":"178","category_name":"电影院","address":"虹口龙之梦6楼"},{"poiid":"B2094757D065ABF9409D","title":"一茶一座(虹口足球场店)","lon":"121.475179103","lat":"31.2699884132","category":"47","category_name":"住宅区","address":"上海凯德·龙之梦(虹口店)5楼"},{"poiid":"B2094752DA69A0FF4998","title":"鐮倉PASTA","lon":"121.474312","lat":"31.272652","category":"500","category_name":"未知分类","address":"上海市 虹口龍之夢"},{"poiid":"B2094757D065A7F8479E","title":"辛格灵凯德龙之梦店","lon":"121.474477103","lat":"31.2705634252","category":"500","category_name":"未知分类","address":"上海虹口区西江湾路388号A座437"},{"poiid":"B2094757D069A0F8459C","title":"陌生人火锅餐厅(虹口百联店)","lon":"121.468085","lat":"31.269598205","category":"500","category_name":"未知分类","address":"上海市虹口区同丰路699号虹口百联商厦4F"},{"poiid":"B209475DDB64A3F84399","title":"上上谦串串香时尚火锅","lon":"121.474777","lat":"31.270488","category":"247","category_name":"餐饮美食","address":"上海市 上海市虹口龙之梦"},{"poiid":"B2094757D065A6F44998","title":"神采飞扬游乐公园","lon":"121.474746103","lat":"31.2704644231","category":"173","category_name":"游戏厅","address":"虹口区西江湾路388号凯德龙之梦购物中心B座5楼"},{"poiid":"B2094757D06FABFE489C","title":"花园城","lon":"121.47254871","lat":"31.272643459","category":"47","category_name":"住宅区","address":"上海虹口区花园路118弄"},{"poiid":"B2094655D26CA1FD479C","title":"花园城Ⅲ","lon":"121.47476","lat":"31.27089","category":"47","category_name":"住宅区","address":"花园路118弄"},{"poiid":"B2094750D26DA0FC439F","title":"圣吉诺","lon":"121.47332752579","lat":"31.272400026896","category":"113","category_name":"冷饮店","address":"虹口区西江湾路388号虹口龙之梦购物中心B2楼(近虹口足球场)"},{"poiid":"B2094757D064AAFF409E","title":"东方商厦","lon":"121.467663819","lat":"31.2726715973","category":"119","category_name":"商场","address":"上海虹口区同丰路699号百联虹口店内(近北宝兴路)"},{"poiid":"B2094654D56DA5F94092","title":"上海市复旦大学附属公共卫生中心","lon":"121.47032","lat":"31.27245","category":"162","category_name":"医院","address":"虹口区水电路56号"},{"poiid":"B2094757D165A7F4469D","title":"同心路中山北一路","lon":"121.474069003","lat":"31.2682834776","category":"500","category_name":"未知分类","address":"上海同心路"},{"poiid":"B2094752D468A1FF4898","title":"虹口龙之梦板长寿司","lon":"121.473176","lat":"31.273063","category":"247","category_name":"餐饮美食","address":null},{"poiid":"B2094757D168A2FD429D","title":"反斗乐园(凯德龙之梦虹口店)","lon":"121.474644103","lat":"31.2726834695","category":"500","category_name":"未知分类","address":"上海市西江湾路388号(近花园路)"},{"poiid":"B2094752D66FABF9459F","title":"精悦蓉香锅牛蛙","lon":"121.472762","lat":"31.267914","category":"247","category_name":"餐饮美食","address":"虹口龙之梦"},{"poiid":"B2094757D069A0F8449E","title":"柳林公寓","lon":"121.46959","lat":"31.271997","category":"47","category_name":"住宅区","address":"上海市虹口区柳营路45弄"},{"poiid":"B2094654D56CAAF84593","title":"同心小吃店","lon":"121.47095","lat":"31.27172","category":"68","category_name":"快餐厅","address":"虹口区同心路803弄"},{"poiid":"B2094757D069A7F94198","title":"广联新苑","lon":"121.4716","lat":"31.267334","category":"47","category_name":"住宅区","address":"上海市虹口区广联路29弄"},{"poiid":"B2094454D26EABFD429C","title":"上上谦 虹口龙之梦店","lon":"121.475006","lat":"31.270296","category":"247","category_name":"餐饮美食","address":"上海市 上海虹口区花园路"},{"poiid":"B2094655D26FA6FC419D","title":"上海虹元大大酒店","lon":"121.47051","lat":"31.27156","category":"215","category_name":"三星级宾馆","address":"闸北区柳营路8号(近同心路)"},{"poiid":"B2094654D56CAAF84592","title":"上海市虹口区国强烟杂店","lon":"121.47129","lat":"31.27141","category":"117","category_name":"便民商店/便利店","address":""},{"poiid":"B2094757D06FA7F54293","title":"虹口垃圾中转站","lon":"121.47018","lat":"31.26796","category":"260","category_name":"其他","address":"上海虹口区西宝兴路833号(近黄山路)"},{"poiid":"B2094751D364ABFC499C","title":"江边城外巫山烤全鱼(虹口龙之梦店)","lon":"121.474945","lat":"31.2730504","category":"247","category_name":"餐饮美食","address":null},{"poiid":"B2094655D26BA6FD4293","title":"和源大楼","lon":"121.47409536435","lat":"31.270968173554","category":"46","category_name":"楼宇","address":"真北支路东,桃浦路368号"},{"poiid":"B2094750D56FA5FB419B","title":"龙之梦悠游堂乐园","lon":"121.47276","lat":"31.272944","category":"248","category_name":"生活娱乐","address":"虹口"},{"poiid":"B2094752D76EA1F9419E","title":"和民（虹口龙之梦）","lon":"121.474785","lat":"31.270496","category":"247","category_name":"餐饮美食","address":null},{"poiid":"B2094757DB68A4F9449F","title":"家有好面","lon":"121.4738142267342","lat":"31.27198425447136","category":"247","category_name":"餐饮美食","address":"虹口足球场龙之梦"},{"poiid":"B2094655D36CA1FE4998","title":"水电路同心路","lon":"121.47081","lat":"31.27225","category":"38","category_name":"公交车站","address":""},{"poiid":"B2094750D26CA1FD459D","title":"乐食派麻辣香锅","lon":"121.4702457627525","lat":"31.27241666830017","category":"247","category_name":"餐饮美食","address":"虹口龙之梦"},{"poiid":"B2094654D56CAAF44299","title":"克丽缇娜No.14488","lon":"121.47154","lat":"31.27233","category":"148","category_name":"美容美发店","address":"水电路49"},{"poiid":"B2094757D168A0FC459F","title":"运动loft创意基地 ebizpower","lon":"121.474647453","lat":"31.2704666732","category":"500","category_name":"未知分类","address":"上海花园路128号"},{"poiid":"B2094757D069A0F9489C","title":"花园路水电路","lon":"121.473928","lat":"31.273646","category":"500","category_name":"未知分类","address":"上海水电路191弄"},{"poiid":"B2094655D265ABF4469D","title":"喜士多便利(德发店)","lon":"121.47269","lat":"31.27087","category":"117","category_name":"便民商店/便利店","address":"同心路723号"},{"poiid":"B2094757D064AAFA4193","title":"仁和恬园","lon":"121.472","lat":"31.2695","category":"47","category_name":"住宅区","address":"上海市长宁区仙霞路1388弄"},{"poiid":"B2094757D16CA5F4449D","title":"Imo Cafe 虹口百联店","lon":"121.468063103","lat":"31.2733204828","category":"113","category_name":"冷饮店","address":"虹口区同丰路699号百联虹口购物中心内(近北宝兴路)"},{"poiid":"B2094757D56CA2FA419D","title":"象山海鲜 新同心路","lon":"121.4723461","lat":"31.2699428","category":"247","category_name":"餐饮美食","address":"同心路268号"},{"poiid":"B2094654D56DA4FD439A","title":"快客No.5111","lon":"121.46981","lat":"31.27173","category":"117","category_name":"便民商店/便利店","address":""},{"poiid":"B2094752DB6AA3F5449F","title":"虹口足球场","lon":"121.470553","lat":"31.270704","category":"220","category_name":"运动场所","address":"上海市 虹口足球场"},{"poiid":"B2094757D16EA1FD489E","title":"花园路128号A座2街区","lon":"121.4729821","lat":"31.271016434","category":"500","category_name":"未知分类","address":"上海虹口区花园路128号A座2街区"},{"poiid":"B2094757D064A1FF489D","title":"同心路","lon":"121.472251892","lat":"31.2711029053","category":"500","category_name":"未知分类","address":"上海掬水公寓"},{"poiid":"B2094655D26DA5FD4298","title":"运动LOFT创意基地","lon":"121.47269","lat":"31.27086","category":"46","category_name":"楼宇","address":"同心路723号"},{"poiid":"B2094750D269A1FF409F","title":"金逸国际影院","lon":"121.474807","lat":"31.270542","category":"248","category_name":"生活娱乐","address":"西江弯路388号虹口龙之梦6楼"},{"poiid":"B2094752DB6DABF54099","title":"柳家","lon":"121.473142","lat":"31.272743","category":"500","category_name":"未知分类","address":"上海市 西江湾路388号凯德龙之梦购物中心B座5楼B05-07a号商铺(近虹口足球场)"},{"poiid":"B2094757D06FA1F84992","title":"上海体育运动学校","lon":"121.47387","lat":"31.27398","category":"52","category_name":"高等院校","address":"虹口区水电路176号(近广中路)"},{"poiid":"B2094757D065A5FB4293","title":"土豆爸爸 龙之梦虹口店","lon":"121.47784","lat":"31.27106","category":"68","category_name":"快餐厅","address":"虹口区西江湾路388号虹口凯德龙之梦购物中心B2楼(近虹口足球场)"},{"poiid":"B2094751D464A2FB4292","title":"黄记煌三汁焖锅","lon":"121.472437","lat":"31.272741","category":"247","category_name":"餐饮美食","address":"虹口区西江湾路388号凯德龙之梦B座02楼09号商铺(近虹口足球场)"},{"poiid":"B2094757D06FA0FC4698","title":"岩舞空间攀岩馆","lon":"121.47415","lat":"31.27148","category":"148","category_name":"美容美发店","address":"虹口区花园路128号运动LOFT创意园区一街区A座1楼105室(近景祥路)"},{"poiid":"B2094757D06FA7F9499F","title":"柳营灯饰城","lon":"121.46814","lat":"31.2704","category":"119","category_name":"商场","address":"闸北区柳营路135号(近北宝兴路)"},{"poiid":"B2094751D06CA2FF4799","title":"金逸国际电影城","lon":"121.4731550669621","lat":"31.27254064812787","category":"178","category_name":"电影院","address":"虹口龙之梦6楼"},{"poiid":"B2094757D065ABF9409D","title":"一茶一座(虹口足球场店)","lon":"121.475179103","lat":"31.2699884132","category":"47","category_name":"住宅区","address":"上海凯德·龙之梦(虹口店)5楼"},{"poiid":"B2094752DA69A0FF4998","title":"鐮倉PASTA","lon":"121.474312","lat":"31.272652","category":"500","category_name":"未知分类","address":"上海市 虹口龍之夢"},{"poiid":"B2094757D065A7F8479E","title":"辛格灵凯德龙之梦店","lon":"121.474477103","lat":"31.2705634252","category":"500","category_name":"未知分类","address":"上海虹口区西江湾路388号A座437"},{"poiid":"B2094757D069A0F8459C","title":"陌生人火锅餐厅(虹口百联店)","lon":"121.468085","lat":"31.269598205","category":"500","category_name":"未知分类","address":"上海市虹口区同丰路699号虹口百联商厦4F"},{"poiid":"B209475DDB64A3F84399","title":"上上谦串串香时尚火锅","lon":"121.474777","lat":"31.270488","category":"247","category_name":"餐饮美食","address":"上海市 上海市虹口龙之梦"},{"poiid":"B2094757D065A6F44998","title":"神采飞扬游乐公园","lon":"121.474746103","lat":"31.2704644231","category":"173","category_name":"游戏厅","address":"虹口区西江湾路388号凯德龙之梦购物中心B座5楼"},{"poiid":"B2094757D06FABFE489C","title":"花园城","lon":"121.47254871","lat":"31.272643459","category":"47","category_name":"住宅区","address":"上海虹口区花园路118弄"},{"poiid":"B2094655D26CA1FD479C","title":"花园城Ⅲ","lon":"121.47476","lat":"31.27089","category":"47","category_name":"住宅区","address":"花园路118弄"},{"poiid":"B2094750D26DA0FC439F","title":"圣吉诺","lon":"121.47332752579","lat":"31.272400026896","category":"113","category_name":"冷饮店","address":"虹口区西江湾路388号虹口龙之梦购物中心B2楼(近虹口足球场)"},{"poiid":"B2094757D064AAFF409E","title":"东方商厦","lon":"121.467663819","lat":"31.2726715973","category":"119","category_name":"商场","address":"上海虹口区同丰路699号百联虹口店内(近北宝兴路)"},{"poiid":"B2094654D56DA5F94092","title":"上海市复旦大学附属公共卫生中心","lon":"121.47032","lat":"31.27245","category":"162","category_name":"医院","address":"虹口区水电路56号"},{"poiid":"B2094757D165A7F4469D","title":"同心路中山北一路","lon":"121.474069003","lat":"31.2682834776","category":"500","category_name":"未知分类","address":"上海同心路"},{"poiid":"B2094752D468A1FF4898","title":"虹口龙之梦板长寿司","lon":"121.473176","lat":"31.273063","category":"247","category_name":"餐饮美食","address":null},{"poiid":"B2094757D168A2FD429D","title":"反斗乐园(凯德龙之梦虹口店)","lon":"121.474644103","lat":"31.2726834695","category":"500","category_name":"未知分类","address":"上海市西江湾路388号(近花园路)"},{"poiid":"B2094752D66FABF9459F","title":"精悦蓉香锅牛蛙","lon":"121.472762","lat":"31.267914","category":"247","category_name":"餐饮美食","address":"虹口龙之梦"},{"poiid":"B2094757D069A0F8449E","title":"柳林公寓","lon":"121.46959","lat":"31.271997","category":"47","category_name":"住宅区","address":"上海市虹口区柳营路45弄"},{"poiid":"B2094654D56CAAF84593","title":"同心小吃店","lon":"121.47095","lat":"31.27172","category":"68","category_name":"快餐厅","address":"虹口区同心路803弄"},{"poiid":"B2094757D069A7F94198","title":"广联新苑","lon":"121.4716","lat":"31.267334","category":"47","category_name":"住宅区","address":"上海市虹口区广联路29弄"},{"poiid":"B2094454D26EABFD429C","title":"上上谦 虹口龙之梦店","lon":"121.475006","lat":"31.270296","category":"247","category_name":"餐饮美食","address":"上海市 上海虹口区花园路"},{"poiid":"B2094655D26FA6FC419D","title":"上海虹元大大酒店","lon":"121.47051","lat":"31.27156","category":"215","category_name":"三星级宾馆","address":"闸北区柳营路8号(近同心路)"},{"poiid":"B2094654D56CAAF84592","title":"上海市虹口区国强烟杂店","lon":"121.47129","lat":"31.27141","category":"117","category_name":"便民商店/便利店","address":""},{"poiid":"B2094757D06FA7F54293","title":"虹口垃圾中转站","lon":"121.47018","lat":"31.26796","category":"260","category_name":"其他","address":"上海虹口区西宝兴路833号(近黄山路)"},{"poiid":"B2094751D364ABFC499C","title":"江边城外巫山烤全鱼(虹口龙之梦店)","lon":"121.474945","lat":"31.2730504","category":"247","category_name":"餐饮美食","address":null},{"poiid":"B2094655D26BA6FD4293","title":"和源大楼","lon":"121.47409536435","lat":"31.270968173554","category":"46","category_name":"楼宇","address":"真北支路东,桃浦路368号"},{"poiid":"B2094750D56FA5FB419B","title":"龙之梦悠游堂乐园","lon":"121.47276","lat":"31.272944","category":"248","category_name":"生活娱乐","address":"虹口"},{"poiid":"B2094752D76EA1F9419E","title":"和民（虹口龙之梦）","lon":"121.474785","lat":"31.270496","category":"247","category_name":"餐饮美食","address":null},{"poiid":"B2094757DB68A4F9449F","title":"家有好面","lon":"121.4738142267342","lat":"31.27198425447136","category":"247","category_name":"餐饮美食","address":"虹口足球场龙之梦"},{"poiid":"B2094655D36CA1FE4998","title":"水电路同心路","lon":"121.47081","lat":"31.27225","category":"38","category_name":"公交车站","address":""},{"poiid":"B2094750D26CA1FD459D","title":"乐食派麻辣香锅","lon":"121.4702457627525","lat":"31.27241666830017","category":"247","category_name":"餐饮美食","address":"虹口龙之梦"},{"poiid":"B2094654D56CAAF44299","title":"克丽缇娜No.14488","lon":"121.47154","lat":"31.27233","category":"148","category_name":"美容美发店","address":"水电路49"},{"poiid":"B2094757D168A0FC459F","title":"运动loft创意基地 ebizpower","lon":"121.474647453","lat":"31.2704666732","category":"500","category_name":"未知分类","address":"上海花园路128号"},{"poiid":"B2094757D069A0F9489C","title":"花园路水电路","lon":"121.473928","lat":"31.273646","category":"500","category_name":"未知分类","address":"上海水电路191弄"},{"poiid":"B2094655D265ABF4469D","title":"喜士多便利(德发店)","lon":"121.47269","lat":"31.27087","category":"117","category_name":"便民商店/便利店","address":"同心路723号"},{"poiid":"B2094757D064AAFA4193","title":"仁和恬园","lon":"121.472","lat":"31.2695","category":"47","category_name":"住宅区","address":"上海市长宁区仙霞路1388弄"},{"poiid":"B2094757D16CA5F4449D","title":"Imo Cafe 虹口百联店","lon":"121.468063103","lat":"31.2733204828","category":"113","category_name":"冷饮店","address":"虹口区同丰路699号百联虹口购物中心内(近北宝兴路)"},{"poiid":"B2094757D56CA2FA419D","title":"象山海鲜 新同心路","lon":"121.4723461","lat":"31.2699428","category":"247","category_name":"餐饮美食","address":"同心路268号"},{"poiid":"B2094654D56DA4FD439A","title":"快客No.5111","lon":"121.46981","lat":"31.27173","category":"117","category_name":"便民商店/便利店","address":""},{"poiid":"B2094752DB6AA3F5449F","title":"虹口足球场","lon":"121.470553","lat":"31.270704","category":"220","category_name":"运动场所","address":"上海市 虹口足球场"},{"poiid":"B2094757D16EA1FD489E","title":"花园路128号A座2街区","lon":"121.4729821","lat":"31.271016434","category":"500","category_name":"未知分类","address":"上海虹口区花园路128号A座2街区"},{"poiid":"B2094757D064A1FF489D","title":"同心路","lon":"121.472251892","lat":"31.2711029053","category":"500","category_name":"未知分类","address":"上海掬水公寓"}]