[{"poiid":"B2094757D06FA6F4479F","title":"星美乐莫国际影城","lon":"121.25474","lat":"31.00927","category":"178","category_name":"电影院","address":"松江区环城路515-555号LOMO玩库3楼(近松东路)"},{"poiid":"B2094654DB6AA6FF439D","title":"方塔公园","lon":"121.24581","lat":"31.00652","category":"196","category_name":"公园","address":"松江区中山东路235路"},{"poiid":"B2094654DB6DAAFA439E","title":"松江方塔中医医院","lon":"121.25234","lat":"31.00686","category":"162","category_name":"医院","address":"松江区中山东路39号"},{"poiid":"B2094757D068A4FC4593","title":"松江二中","lon":"121.247600486","lat":"31.0086362483","category":"55","category_name":"中学","address":"上海市松江区中山东路250号"},{"poiid":"B2094757D06BA0FB4793","title":"沁韵渔火","lon":"121.255016793","lat":"31.0103385638","category":"86","category_name":"火锅店","address":"松江区环城路518号(近LOMO玩库)"},{"poiid":"B2094654DB6DAAFA4399","title":"森活","lon":"121.25196","lat":"31.00845","category":"47","category_name":"住宅区","address":"松江区中山东路70号"},{"poiid":"B2094757D464A7F8429A","title":"三德屋日本料理 松江店","lon":"121.25501924243","lat":"31.011631808326","category":"95","category_name":"日本料理","address":"松江区松东路50号甲(松东路松江环城路)"},{"poiid":"B2094654DB6EA4F94998","title":"川流不息 松东路店","lon":"121.25600829974","lat":"31.009959830294","category":"71","category_name":"四川菜","address":"松江区松东路(松东路俞塘路)"},{"poiid":"B2094654DB6EA4FB4492","title":"晋盛食府(松东路)","lon":"121.25592","lat":"31.01276","category":"76","category_name":"上海菜","address":"松江区松江松东路76号(繁华路松东路)"},{"poiid":"B2094757D66EA4FF459B","title":"松江区 环城路","lon":"121.255793","lat":"31.009118","category":"500","category_name":"未知分类","address":"上海松江区 环城路"},{"poiid":"B2094654DB6EA4FA419D","title":"蓝天新村","lon":"121.25504","lat":"31.014357","category":"47","category_name":"住宅区","address":"松江工业区中山街道"},{"poiid":"B2094655D268A3FA4092","title":"格林豪泰上海松江松东酒店","lon":"121.25531","lat":"31.0093","category":"216","category_name":"经济型连锁酒店","address":"上海市松江区环城路421号(松东路口)"},{"poiid":"B2094757D465A0F4429D","title":"渔太郎日本料理 松江店","lon":"121.25525040644","lat":"31.008629942312","category":"95","category_name":"日本料理","address":"松江区环城路340号(方塔小学对面)"},{"poiid":"B2094757D66AA5F9439B","title":"潮福城","lon":"121.254134054","lat":"31.010985793","category":"76","category_name":"上海菜","address":"松江区环城路550号(近松东路)"},{"poiid":"B2094757D169A7FE4299","title":"麦盛莉(松江店)","lon":"121.24893","lat":"31.01727","category":"76","category_name":"上海菜","address":"松江区荣乐东路2283号"},{"poiid":"B2094654DB6EA4F9479F","title":"灵盛河鲜馆","lon":"121.25534","lat":"31.01055","category":"76","category_name":"上海菜","address":"松江区松东路21号(近环城路)"},{"poiid":"B2094757D06FABF8419A","title":"方塔园","lon":"121.254","lat":"31.0069","category":"196","category_name":"公园","address":"松江区中山东路235号"},{"poiid":"B2094655D268A3FD4193","title":"玩库","lon":"121.25411","lat":"31.0103","category":"119","category_name":"商场","address":""},{"poiid":"B2094757D06BA3F5439A","title":"曙光医院松江分院","lon":"121.252356269","lat":"31.0068563322","category":"162","category_name":"医院","address":"上海松江区中山东路39号"},{"poiid":"B2094750D06CA1FA4992","title":"唛酷量版ktv","lon":"121.253372","lat":"31.009998","category":"170","category_name":"KTV","address":null},{"poiid":"B2094750D16AA1FD419D","title":"星美国际影城上海松江店","lon":"121.254012","lat":"31.010243","category":"178","category_name":"电影院","address":"环城路515号玩库生活广场3层"},{"poiid":"B2094654DB6EA4F9469F","title":"哈里欧咖啡松东店","lon":"121.25531","lat":"31.00875","category":"65","category_name":"咖啡厅","address":"环城路393号"},{"poiid":"B2094757D16AAAF44392","title":"松江鱼林港","lon":"121.255642303","lat":"31.0078518194","category":"86","category_name":"火锅店","address":"松江区环城路加油站附近(松东路口)"},{"poiid":"B2094654DB6EA4F9469B","title":"谭火锅松江店","lon":"121.25529","lat":"31.00773","category":"86","category_name":"火锅店","address":"松江区中山东路6号"},{"poiid":"B2094654DB6EA2FF479D","title":"松江方塔","lon":"121.24651","lat":"31.00557","category":"240","category_name":"国家级景点","address":""},{"poiid":"B2094654DB6DAAF54992","title":"茸南苑","lon":"121.25484191749","lat":"31.007211033246","category":"47","category_name":"住宅区","address":"松汇东路115弄"},{"poiid":"B2094753D66FA1F4459E","title":"烤友社烧烤店","lon":"121.253394","lat":"31.009567","category":"96","category_name":"韩国料理","address":"松江镇环城路311号"},{"poiid":"B2094655D268A5FD4799","title":"汉庭酒店上海松江方塔店","lon":"121.25496","lat":"31.00769","category":"216","category_name":"经济型连锁酒店","address":"松江区中山东路18号(近松江老城方塔园)"},{"poiid":"B2094757D16DA4FA4298","title":"地中海广场","lon":"121.253173828","lat":"31.0111503601","category":"500","category_name":"未知分类","address":"上海松江区"},{"poiid":"B2094757D16AA5FC499F","title":"上海潮福城大酒楼","lon":"121.253155467","lat":"31.0107330758","category":"247","category_name":"餐饮美食","address":"上海松江区环城路550号"},{"poiid":"B2094750D76FA5F44992","title":"山沟沟土菜馆","lon":"121.247","lat":"31.0069","category":"87","category_name":"特色／地方风味餐厅","address":"松江区中山东路235号方塔附近"},{"poiid":"B2094757D66DA1FC479C","title":"十八香小龙虾(松东路店)","lon":"121.25574","lat":"31.01258","category":"68","category_name":"快餐厅","address":"松江区松东路145号"},{"poiid":"B2094654DB6EA4FB459E","title":"百味佳特色风味酒楼","lon":"121.25588","lat":"31.01181","category":"70","category_name":"综合酒楼","address":"松江区松东路60号(繁华路松东路)"},{"poiid":"B2094655D268A2FC4393","title":"紫罗兰大酒店松江店","lon":"121.255","lat":"31.00467","category":"70","category_name":"综合酒楼","address":"松江区环城路86号"},{"poiid":"B2094654DB6EA4F4419E","title":"茸联苑","lon":"121.25815","lat":"31.006504","category":"47","category_name":"住宅区","address":"环城路204弄65支弄"},{"poiid":"B2094655D268A3FD419D","title":"蓝色港湾(星美乐莫国际影城西北)","lon":"121.2533","lat":"31.01088","category":"170","category_name":"KTV","address":"环城路574"},{"poiid":"B2094654DB6EA4FA409A","title":"黄山楼","lon":"121.25547","lat":"31.01301","category":"76","category_name":"上海菜","address":"松东路161-165号近俞塘路"},{"poiid":"B2094752D768A3F4449B","title":"泰晤士小镇","lon":"121.253052","lat":"31.005478","category":"250","category_name":"公园户外","address":"上海市，松江区，泰晤士小镇"},{"poiid":"B2094654DB6DAAF44692","title":"松江区教师进修学院","lon":"121.24869","lat":"31.01007","category":"53","category_name":"成人教育","address":"方塔北路318"},{"poiid":"B2094655D268A5FD479D","title":"宏拓大楼","lon":"121.25501","lat":"31.01045","category":"46","category_name":"楼宇","address":""},{"poiid":"B2094654DB6DAAFA459C","title":"白云小区","lon":"121.2541","lat":"31.00636","category":"47","category_name":"住宅区","address":""},{"poiid":"B2094750D664ABF54692","title":"田字食号","lon":"121.256","lat":"31.0119","category":"76","category_name":"上海菜","address":"松江区松东路80弄(近黄山楼)"},{"poiid":"B2094757D66DA0FA449A","title":"幸福海","lon":"121.252271567","lat":"31.0103560675","category":"500","category_name":"未知分类","address":"上海松江区中山东路32弄"},{"poiid":"B2094757DA6BABFF489F","title":"LOMO玩库","lon":"121.250353","lat":"31.009835","category":"252","category_name":"楼宇机构","address":"松江区环城路555号"},{"poiid":"B2094655D26FABF5409A","title":"森活(南门)","lon":"121.25193","lat":"31.00751","category":"47","category_name":"住宅区","address":"中山东路70弄"},{"poiid":"B2094654DB6DAAFA419F","title":"雯雯点心店","lon":"121.24949","lat":"31.00696","category":"112","category_name":"糕饼店","address":""},{"poiid":"B2094654DB6EA4FA429B","title":"樱木屋","lon":"121.25562","lat":"31.01558","category":"95","category_name":"日本料理","address":"松江区荣乐东路1587号-2-3号(近松卫北路)"},{"poiid":"B2094750DA6CA0F9439F","title":"方塔幼儿园","lon":"121.250198","lat":"31.007705","category":"57","category_name":"幼儿园","address":"方塔东村25号"},{"poiid":"B2094654DB6DAAFA439D","title":"好德便利NO.639","lon":"121.2517","lat":"31.00696","category":"117","category_name":"便民商店/便利店","address":"松江镇"},{"poiid":"B2094757D66EA5FC459F","title":"汤天下","lon":"121.254752203","lat":"31.0108446855","category":"247","category_name":"餐饮美食","address":"上海松东路62号"},{"poiid":"B2094757D06FA6F4479F","title":"星美乐莫国际影城","lon":"121.25474","lat":"31.00927","category":"178","category_name":"电影院","address":"松江区环城路515-555号LOMO玩库3楼(近松东路)"},{"poiid":"B2094654DB6AA6FF439D","title":"方塔公园","lon":"121.24581","lat":"31.00652","category":"196","category_name":"公园","address":"松江区中山东路235路"},{"poiid":"B2094654DB6DAAFA439E","title":"松江方塔中医医院","lon":"121.25234","lat":"31.00686","category":"162","category_name":"医院","address":"松江区中山东路39号"},{"poiid":"B2094757D068A4FC4593","title":"松江二中","lon":"121.247600486","lat":"31.0086362483","category":"55","category_name":"中学","address":"上海市松江区中山东路250号"},{"poiid":"B2094757D06BA0FB4793","title":"沁韵渔火","lon":"121.255016793","lat":"31.0103385638","category":"86","category_name":"火锅店","address":"松江区环城路518号(近LOMO玩库)"},{"poiid":"B2094654DB6DAAFA4399","title":"森活","lon":"121.25196","lat":"31.00845","category":"47","category_name":"住宅区","address":"松江区中山东路70号"},{"poiid":"B2094757D464A7F8429A","title":"三德屋日本料理 松江店","lon":"121.25501924243","lat":"31.011631808326","category":"95","category_name":"日本料理","address":"松江区松东路50号甲(松东路松江环城路)"},{"poiid":"B2094654DB6EA4F94998","title":"川流不息 松东路店","lon":"121.25600829974","lat":"31.009959830294","category":"71","category_name":"四川菜","address":"松江区松东路(松东路俞塘路)"},{"poiid":"B2094654DB6EA4FB4492","title":"晋盛食府(松东路)","lon":"121.25592","lat":"31.01276","category":"76","category_name":"上海菜","address":"松江区松江松东路76号(繁华路松东路)"},{"poiid":"B2094757D66EA4FF459B","title":"松江区 环城路","lon":"121.255793","lat":"31.009118","category":"500","category_name":"未知分类","address":"上海松江区 环城路"},{"poiid":"B2094654DB6EA4FA419D","title":"蓝天新村","lon":"121.25504","lat":"31.014357","category":"47","category_name":"住宅区","address":"松江工业区中山街道"},{"poiid":"B2094655D268A3FA4092","title":"格林豪泰上海松江松东酒店","lon":"121.25531","lat":"31.0093","category":"216","category_name":"经济型连锁酒店","address":"上海市松江区环城路421号(松东路口)"},{"poiid":"B2094757D465A0F4429D","title":"渔太郎日本料理 松江店","lon":"121.25525040644","lat":"31.008629942312","category":"95","category_name":"日本料理","address":"松江区环城路340号(方塔小学对面)"},{"poiid":"B2094757D66AA5F9439B","title":"潮福城","lon":"121.254134054","lat":"31.010985793","category":"76","category_name":"上海菜","address":"松江区环城路550号(近松东路)"},{"poiid":"B2094757D169A7FE4299","title":"麦盛莉(松江店)","lon":"121.24893","lat":"31.01727","category":"76","category_name":"上海菜","address":"松江区荣乐东路2283号"},{"poiid":"B2094654DB6EA4F9479F","title":"灵盛河鲜馆","lon":"121.25534","lat":"31.01055","category":"76","category_name":"上海菜","address":"松江区松东路21号(近环城路)"},{"poiid":"B2094757D06FABF8419A","title":"方塔园","lon":"121.254","lat":"31.0069","category":"196","category_name":"公园","address":"松江区中山东路235号"},{"poiid":"B2094655D268A3FD4193","title":"玩库","lon":"121.25411","lat":"31.0103","category":"119","category_name":"商场","address":""},{"poiid":"B2094757D06BA3F5439A","title":"曙光医院松江分院","lon":"121.252356269","lat":"31.0068563322","category":"162","category_name":"医院","address":"上海松江区中山东路39号"},{"poiid":"B2094750D06CA1FA4992","title":"唛酷量版ktv","lon":"121.253372","lat":"31.009998","category":"170","category_name":"KTV","address":null},{"poiid":"B2094750D16AA1FD419D","title":"星美国际影城上海松江店","lon":"121.254012","lat":"31.010243","category":"178","category_name":"电影院","address":"环城路515号玩库生活广场3层"},{"poiid":"B2094654DB6EA4F9469F","title":"哈里欧咖啡松东店","lon":"121.25531","lat":"31.00875","category":"65","category_name":"咖啡厅","address":"环城路393号"},{"poiid":"B2094757D16AAAF44392","title":"松江鱼林港","lon":"121.255642303","lat":"31.0078518194","category":"86","category_name":"火锅店","address":"松江区环城路加油站附近(松东路口)"},{"poiid":"B2094654DB6EA4F9469B","title":"谭火锅松江店","lon":"121.25529","lat":"31.00773","category":"86","category_name":"火锅店","address":"松江区中山东路6号"},{"poiid":"B2094654DB6EA2FF479D","title":"松江方塔","lon":"121.24651","lat":"31.00557","category":"240","category_name":"国家级景点","address":""},{"poiid":"B2094654DB6DAAF54992","title":"茸南苑","lon":"121.25484191749","lat":"31.007211033246","category":"47","category_name":"住宅区","address":"松汇东路115弄"},{"poiid":"B2094753D66FA1F4459E","title":"烤友社烧烤店","lon":"121.253394","lat":"31.009567","category":"96","category_name":"韩国料理","address":"松江镇环城路311号"},{"poiid":"B2094655D268A5FD4799","title":"汉庭酒店上海松江方塔店","lon":"121.25496","lat":"31.00769","category":"216","category_name":"经济型连锁酒店","address":"松江区中山东路18号(近松江老城方塔园)"},{"poiid":"B2094757D16DA4FA4298","title":"地中海广场","lon":"121.253173828","lat":"31.0111503601","category":"500","category_name":"未知分类","address":"上海松江区"},{"poiid":"B2094757D16AA5FC499F","title":"上海潮福城大酒楼","lon":"121.253155467","lat":"31.0107330758","category":"247","category_name":"餐饮美食","address":"上海松江区环城路550号"},{"poiid":"B2094750D76FA5F44992","title":"山沟沟土菜馆","lon":"121.247","lat":"31.0069","category":"87","category_name":"特色／地方风味餐厅","address":"松江区中山东路235号方塔附近"},{"poiid":"B2094757D66DA1FC479C","title":"十八香小龙虾(松东路店)","lon":"121.25574","lat":"31.01258","category":"68","category_name":"快餐厅","address":"松江区松东路145号"},{"poiid":"B2094654DB6EA4FB459E","title":"百味佳特色风味酒楼","lon":"121.25588","lat":"31.01181","category":"70","category_name":"综合酒楼","address":"松江区松东路60号(繁华路松东路)"},{"poiid":"B2094655D268A2FC4393","title":"紫罗兰大酒店松江店","lon":"121.255","lat":"31.00467","category":"70","category_name":"综合酒楼","address":"松江区环城路86号"},{"poiid":"B2094654DB6EA4F4419E","title":"茸联苑","lon":"121.25815","lat":"31.006504","category":"47","category_name":"住宅区","address":"环城路204弄65支弄"},{"poiid":"B2094655D268A3FD419D","title":"蓝色港湾(星美乐莫国际影城西北)","lon":"121.2533","lat":"31.01088","category":"170","category_name":"KTV","address":"环城路574"},{"poiid":"B2094654DB6EA4FA409A","title":"黄山楼","lon":"121.25547","lat":"31.01301","category":"76","category_name":"上海菜","address":"松东路161-165号近俞塘路"},{"poiid":"B2094752D768A3F4449B","title":"泰晤士小镇","lon":"121.253052","lat":"31.005478","category":"250","category_name":"公园户外","address":"上海市，松江区，泰晤士小镇"},{"poiid":"B2094654DB6DAAF44692","title":"松江区教师进修学院","lon":"121.24869","lat":"31.01007","category":"53","category_name":"成人教育","address":"方塔北路318"},{"poiid":"B2094655D268A5FD479D","title":"宏拓大楼","lon":"121.25501","lat":"31.01045","category":"46","category_name":"楼宇","address":""},{"poiid":"B2094654DB6DAAFA459C","title":"白云小区","lon":"121.2541","lat":"31.00636","category":"47","category_name":"住宅区","address":""},{"poiid":"B2094750D664ABF54692","title":"田字食号","lon":"121.256","lat":"31.0119","category":"76","category_name":"上海菜","address":"松江区松东路80弄(近黄山楼)"},{"poiid":"B2094757D66DA0FA449A","title":"幸福海","lon":"121.252271567","lat":"31.0103560675","category":"500","category_name":"未知分类","address":"上海松江区中山东路32弄"},{"poiid":"B2094757DA6BABFF489F","title":"LOMO玩库","lon":"121.250353","lat":"31.009835","category":"252","category_name":"楼宇机构","address":"松江区环城路555号"},{"poiid":"B2094655D26FABF5409A","title":"森活(南门)","lon":"121.25193","lat":"31.00751","category":"47","category_name":"住宅区","address":"中山东路70弄"},{"poiid":"B2094654DB6DAAFA419F","title":"雯雯点心店","lon":"121.24949","lat":"31.00696","category":"112","category_name":"糕饼店","address":""},{"poiid":"B2094654DB6EA4FA429B","title":"樱木屋","lon":"121.25562","lat":"31.01558","category":"95","category_name":"日本料理","address":"松江区荣乐东路1587号-2-3号(近松卫北路)"},{"poiid":"B2094750DA6CA0F9439F","title":"方塔幼儿园","lon":"121.250198","lat":"31.007705","category":"57","category_name":"幼儿园","address":"方塔东村25号"},{"poiid":"B2094654DB6DAAFA439D","title":"好德便利NO.639","lon":"121.2517","lat":"31.00696","category":"117","category_name":"便民商店/便利店","address":"松江镇"},{"poiid":"B2094757D66EA5FC459F","title":"汤天下","lon":"121.254752203","lat":"31.0108446855","category":"247","category_name":"餐饮美食","address":"上海松东路62号"},{"poiid":"B2094757D06FA6F4479F","title":"星美乐莫国际影城","lon":"121.25474","lat":"31.00927","category":"178","category_name":"电影院","address":"松江区环城路515-555号LOMO玩库3楼(近松东路)"},{"poiid":"B2094654DB6AA6FF439D","title":"方塔公园","lon":"121.24581","lat":"31.00652","category":"196","category_name":"公园","address":"松江区中山东路235路"},{"poiid":"B2094654DB6DAAFA439E","title":"松江方塔中医医院","lon":"121.25234","lat":"31.00686","category":"162","category_name":"医院","address":"松江区中山东路39号"},{"poiid":"B2094757D068A4FC4593","title":"松江二中","lon":"121.247600486","lat":"31.0086362483","category":"55","category_name":"中学","address":"上海市松江区中山东路250号"},{"poiid":"B2094757D06BA0FB4793","title":"沁韵渔火","lon":"121.255016793","lat":"31.0103385638","category":"86","category_name":"火锅店","address":"松江区环城路518号(近LOMO玩库)"},{"poiid":"B2094654DB6DAAFA4399","title":"森活","lon":"121.25196","lat":"31.00845","category":"47","category_name":"住宅区","address":"松江区中山东路70号"},{"poiid":"B2094757D464A7F8429A","title":"三德屋日本料理 松江店","lon":"121.25501924243","lat":"31.011631808326","category":"95","category_name":"日本料理","address":"松江区松东路50号甲(松东路松江环城路)"},{"poiid":"B2094654DB6EA4F94998","title":"川流不息 松东路店","lon":"121.25600829974","lat":"31.009959830294","category":"71","category_name":"四川菜","address":"松江区松东路(松东路俞塘路)"},{"poiid":"B2094654DB6EA4FB4492","title":"晋盛食府(松东路)","lon":"121.25592","lat":"31.01276","category":"76","category_name":"上海菜","address":"松江区松江松东路76号(繁华路松东路)"},{"poiid":"B2094757D66EA4FF459B","title":"松江区 环城路","lon":"121.255793","lat":"31.009118","category":"500","category_name":"未知分类","address":"上海松江区 环城路"},{"poiid":"B2094654DB6EA4FA419D","title":"蓝天新村","lon":"121.25504","lat":"31.014357","category":"47","category_name":"住宅区","address":"松江工业区中山街道"},{"poiid":"B2094655D268A3FA4092","title":"格林豪泰上海松江松东酒店","lon":"121.25531","lat":"31.0093","category":"216","category_name":"经济型连锁酒店","address":"上海市松江区环城路421号(松东路口)"},{"poiid":"B2094757D465A0F4429D","title":"渔太郎日本料理 松江店","lon":"121.25525040644","lat":"31.008629942312","category":"95","category_name":"日本料理","address":"松江区环城路340号(方塔小学对面)"},{"poiid":"B2094757D66AA5F9439B","title":"潮福城","lon":"121.254134054","lat":"31.010985793","category":"76","category_name":"上海菜","address":"松江区环城路550号(近松东路)"},{"poiid":"B2094757D169A7FE4299","title":"麦盛莉(松江店)","lon":"121.24893","lat":"31.01727","category":"76","category_name":"上海菜","address":"松江区荣乐东路2283号"},{"poiid":"B2094654DB6EA4F9479F","title":"灵盛河鲜馆","lon":"121.25534","lat":"31.01055","category":"76","category_name":"上海菜","address":"松江区松东路21号(近环城路)"},{"poiid":"B2094757D06FABF8419A","title":"方塔园","lon":"121.254","lat":"31.0069","category":"196","category_name":"公园","address":"松江区中山东路235号"},{"poiid":"B2094655D268A3FD4193","title":"玩库","lon":"121.25411","lat":"31.0103","category":"119","category_name":"商场","address":""},{"poiid":"B2094757D06BA3F5439A","title":"曙光医院松江分院","lon":"121.252356269","lat":"31.0068563322","category":"162","category_name":"医院","address":"上海松江区中山东路39号"},{"poiid":"B2094750D06CA1FA4992","title":"唛酷量版ktv","lon":"121.253372","lat":"31.009998","category":"170","category_name":"KTV","address":null},{"poiid":"B2094750D16AA1FD419D","title":"星美国际影城上海松江店","lon":"121.254012","lat":"31.010243","category":"178","category_name":"电影院","address":"环城路515号玩库生活广场3层"},{"poiid":"B2094654DB6EA4F9469F","title":"哈里欧咖啡松东店","lon":"121.25531","lat":"31.00875","category":"65","category_name":"咖啡厅","address":"环城路393号"},{"poiid":"B2094757D16AAAF44392","title":"松江鱼林港","lon":"121.255642303","lat":"31.0078518194","category":"86","category_name":"火锅店","address":"松江区环城路加油站附近(松东路口)"},{"poiid":"B2094654DB6EA4F9469B","title":"谭火锅松江店","lon":"121.25529","lat":"31.00773","category":"86","category_name":"火锅店","address":"松江区中山东路6号"},{"poiid":"B2094654DB6EA2FF479D","title":"松江方塔","lon":"121.24651","lat":"31.00557","category":"240","category_name":"国家级景点","address":""},{"poiid":"B2094654DB6DAAF54992","title":"茸南苑","lon":"121.25484191749","lat":"31.007211033246","category":"47","category_name":"住宅区","address":"松汇东路115弄"},{"poiid":"B2094753D66FA1F4459E","title":"烤友社烧烤店","lon":"121.253394","lat":"31.009567","category":"96","category_name":"韩国料理","address":"松江镇环城路311号"},{"poiid":"B2094655D268A5FD4799","title":"汉庭酒店上海松江方塔店","lon":"121.25496","lat":"31.00769","category":"216","category_name":"经济型连锁酒店","address":"松江区中山东路18号(近松江老城方塔园)"},{"poiid":"B2094757D16DA4FA4298","title":"地中海广场","lon":"121.253173828","lat":"31.0111503601","category":"500","category_name":"未知分类","address":"上海松江区"},{"poiid":"B2094757D16AA5FC499F","title":"上海潮福城大酒楼","lon":"121.253155467","lat":"31.0107330758","category":"247","category_name":"餐饮美食","address":"上海松江区环城路550号"},{"poiid":"B2094750D76FA5F44992","title":"山沟沟土菜馆","lon":"121.247","lat":"31.0069","category":"87","category_name":"特色／地方风味餐厅","address":"松江区中山东路235号方塔附近"},{"poiid":"B2094757D66DA1FC479C","title":"十八香小龙虾(松东路店)","lon":"121.25574","lat":"31.01258","category":"68","category_name":"快餐厅","address":"松江区松东路145号"},{"poiid":"B2094654DB6EA4FB459E","title":"百味佳特色风味酒楼","lon":"121.25588","lat":"31.01181","category":"70","category_name":"综合酒楼","address":"松江区松东路60号(繁华路松东路)"},{"poiid":"B2094655D268A2FC4393","title":"紫罗兰大酒店松江店","lon":"121.255","lat":"31.00467","category":"70","category_name":"综合酒楼","address":"松江区环城路86号"},{"poiid":"B2094654DB6EA4F4419E","title":"茸联苑","lon":"121.25815","lat":"31.006504","category":"47","category_name":"住宅区","address":"环城路204弄65支弄"},{"poiid":"B2094655D268A3FD419D","title":"蓝色港湾(星美乐莫国际影城西北)","lon":"121.2533","lat":"31.01088","category":"170","category_name":"KTV","address":"环城路574"},{"poiid":"B2094654DB6EA4FA409A","title":"黄山楼","lon":"121.25547","lat":"31.01301","category":"76","category_name":"上海菜","address":"松东路161-165号近俞塘路"},{"poiid":"B2094752D768A3F4449B","title":"泰晤士小镇","lon":"121.253052","lat":"31.005478","category":"250","category_name":"公园户外","address":"上海市，松江区，泰晤士小镇"},{"poiid":"B2094654DB6DAAF44692","title":"松江区教师进修学院","lon":"121.24869","lat":"31.01007","category":"53","category_name":"成人教育","address":"方塔北路318"},{"poiid":"B2094655D268A5FD479D","title":"宏拓大楼","lon":"121.25501","lat":"31.01045","category":"46","category_name":"楼宇","address":""},{"poiid":"B2094654DB6DAAFA459C","title":"白云小区","lon":"121.2541","lat":"31.00636","category":"47","category_name":"住宅区","address":""},{"poiid":"B2094750D664ABF54692","title":"田字食号","lon":"121.256","lat":"31.0119","category":"76","category_name":"上海菜","address":"松江区松东路80弄(近黄山楼)"},{"poiid":"B2094757D66DA0FA449A","title":"幸福海","lon":"121.252271567","lat":"31.0103560675","category":"500","category_name":"未知分类","address":"上海松江区中山东路32弄"},{"poiid":"B2094757DA6BABFF489F","title":"LOMO玩库","lon":"121.250353","lat":"31.009835","category":"252","category_name":"楼宇机构","address":"松江区环城路555号"},{"poiid":"B2094655D26FABF5409A","title":"森活(南门)","lon":"121.25193","lat":"31.00751","category":"47","category_name":"住宅区","address":"中山东路70弄"},{"poiid":"B2094654DB6DAAFA419F","title":"雯雯点心店","lon":"121.24949","lat":"31.00696","category":"112","category_name":"糕饼店","address":""},{"poiid":"B2094654DB6EA4FA429B","title":"樱木屋","lon":"121.25562","lat":"31.01558","category":"95","category_name":"日本料理","address":"松江区荣乐东路1587号-2-3号(近松卫北路)"},{"poiid":"B2094750DA6CA0F9439F","title":"方塔幼儿园","lon":"121.250198","lat":"31.007705","category":"57","category_name":"幼儿园","address":"方塔东村25号"},{"poiid":"B2094654DB6DAAFA439D","title":"好德便利NO.639","lon":"121.2517","lat":"31.00696","category":"117","category_name":"便民商店/便利店","address":"松江镇"},{"poiid":"B2094757D66EA5FC459F","title":"汤天下","lon":"121.254752203","lat":"31.0108446855","category":"247","category_name":"餐饮美食","address":"上海松东路62号"},{"poiid":"B2094757D06FA6F4479F","title":"星美乐莫国际影城","lon":"121.25474","lat":"31.00927","category":"178","category_name":"电影院","address":"松江区环城路515-555号LOMO玩库3楼(近松东路)"},{"poiid":"B2094654DB6AA6FF439D","title":"方塔公园","lon":"121.24581","lat":"31.00652","category":"196","category_name":"公园","address":"松江区中山东路235路"},{"poiid":"B2094654DB6DAAFA439E","title":"松江方塔中医医院","lon":"121.25234","lat":"31.00686","category":"162","category_name":"医院","address":"松江区中山东路39号"},{"poiid":"B2094757D068A4FC4593","title":"松江二中","lon":"121.247600486","lat":"31.0086362483","category":"55","category_name":"中学","address":"上海市松江区中山东路250号"},{"poiid":"B2094757D06BA0FB4793","title":"沁韵渔火","lon":"121.255016793","lat":"31.0103385638","category":"86","category_name":"火锅店","address":"松江区环城路518号(近LOMO玩库)"},{"poiid":"B2094654DB6DAAFA4399","title":"森活","lon":"121.25196","lat":"31.00845","category":"47","category_name":"住宅区","address":"松江区中山东路70号"},{"poiid":"B2094757D464A7F8429A","title":"三德屋日本料理 松江店","lon":"121.25501924243","lat":"31.011631808326","category":"95","category_name":"日本料理","address":"松江区松东路50号甲(松东路松江环城路)"},{"poiid":"B2094654DB6EA4F94998","title":"川流不息 松东路店","lon":"121.25600829974","lat":"31.009959830294","category":"71","category_name":"四川菜","address":"松江区松东路(松东路俞塘路)"},{"poiid":"B2094654DB6EA4FB4492","title":"晋盛食府(松东路)","lon":"121.25592","lat":"31.01276","category":"76","category_name":"上海菜","address":"松江区松江松东路76号(繁华路松东路)"},{"poiid":"B2094757D66EA4FF459B","title":"松江区 环城路","lon":"121.255793","lat":"31.009118","category":"500","category_name":"未知分类","address":"上海松江区 环城路"},{"poiid":"B2094654DB6EA4FA419D","title":"蓝天新村","lon":"121.25504","lat":"31.014357","category":"47","category_name":"住宅区","address":"松江工业区中山街道"},{"poiid":"B2094655D268A3FA4092","title":"格林豪泰上海松江松东酒店","lon":"121.25531","lat":"31.0093","category":"216","category_name":"经济型连锁酒店","address":"上海市松江区环城路421号(松东路口)"},{"poiid":"B2094757D465A0F4429D","title":"渔太郎日本料理 松江店","lon":"121.25525040644","lat":"31.008629942312","category":"95","category_name":"日本料理","address":"松江区环城路340号(方塔小学对面)"},{"poiid":"B2094757D66AA5F9439B","title":"潮福城","lon":"121.254134054","lat":"31.010985793","category":"76","category_name":"上海菜","address":"松江区环城路550号(近松东路)"},{"poiid":"B2094757D169A7FE4299","title":"麦盛莉(松江店)","lon":"121.24893","lat":"31.01727","category":"76","category_name":"上海菜","address":"松江区荣乐东路2283号"},{"poiid":"B2094654DB6EA4F9479F","title":"灵盛河鲜馆","lon":"121.25534","lat":"31.01055","category":"76","category_name":"上海菜","address":"松江区松东路21号(近环城路)"},{"poiid":"B2094757D06FABF8419A","title":"方塔园","lon":"121.254","lat":"31.0069","category":"196","category_name":"公园","address":"松江区中山东路235号"},{"poiid":"B2094655D268A3FD4193","title":"玩库","lon":"121.25411","lat":"31.0103","category":"119","category_name":"商场","address":""},{"poiid":"B2094757D06BA3F5439A","title":"曙光医院松江分院","lon":"121.252356269","lat":"31.0068563322","category":"162","category_name":"医院","address":"上海松江区中山东路39号"},{"poiid":"B2094750D06CA1FA4992","title":"唛酷量版ktv","lon":"121.253372","lat":"31.009998","category":"170","category_name":"KTV","address":null},{"poiid":"B2094750D16AA1FD419D","title":"星美国际影城上海松江店","lon":"121.254012","lat":"31.010243","category":"178","category_name":"电影院","address":"环城路515号玩库生活广场3层"},{"poiid":"B2094654DB6EA4F9469F","title":"哈里欧咖啡松东店","lon":"121.25531","lat":"31.00875","category":"65","category_name":"咖啡厅","address":"环城路393号"},{"poiid":"B2094757D16AAAF44392","title":"松江鱼林港","lon":"121.255642303","lat":"31.0078518194","category":"86","category_name":"火锅店","address":"松江区环城路加油站附近(松东路口)"},{"poiid":"B2094654DB6EA4F9469B","title":"谭火锅松江店","lon":"121.25529","lat":"31.00773","category":"86","category_name":"火锅店","address":"松江区中山东路6号"},{"poiid":"B2094654DB6EA2FF479D","title":"松江方塔","lon":"121.24651","lat":"31.00557","category":"240","category_name":"国家级景点","address":""},{"poiid":"B2094654DB6DAAF54992","title":"茸南苑","lon":"121.25484191749","lat":"31.007211033246","category":"47","category_name":"住宅区","address":"松汇东路115弄"},{"poiid":"B2094753D66FA1F4459E","title":"烤友社烧烤店","lon":"121.253394","lat":"31.009567","category":"96","category_name":"韩国料理","address":"松江镇环城路311号"},{"poiid":"B2094655D268A5FD4799","title":"汉庭酒店上海松江方塔店","lon":"121.25496","lat":"31.00769","category":"216","category_name":"经济型连锁酒店","address":"松江区中山东路18号(近松江老城方塔园)"},{"poiid":"B2094757D16DA4FA4298","title":"地中海广场","lon":"121.253173828","lat":"31.0111503601","category":"500","category_name":"未知分类","address":"上海松江区"},{"poiid":"B2094757D16AA5FC499F","title":"上海潮福城大酒楼","lon":"121.253155467","lat":"31.0107330758","category":"247","category_name":"餐饮美食","address":"上海松江区环城路550号"},{"poiid":"B2094750D76FA5F44992","title":"山沟沟土菜馆","lon":"121.247","lat":"31.0069","category":"87","category_name":"特色／地方风味餐厅","address":"松江区中山东路235号方塔附近"},{"poiid":"B2094757D66DA1FC479C","title":"十八香小龙虾(松东路店)","lon":"121.25574","lat":"31.01258","category":"68","category_name":"快餐厅","address":"松江区松东路145号"},{"poiid":"B2094654DB6EA4FB459E","title":"百味佳特色风味酒楼","lon":"121.25588","lat":"31.01181","category":"70","category_name":"综合酒楼","address":"松江区松东路60号(繁华路松东路)"},{"poiid":"B2094655D268A2FC4393","title":"紫罗兰大酒店松江店","lon":"121.255","lat":"31.00467","category":"70","category_name":"综合酒楼","address":"松江区环城路86号"},{"poiid":"B2094654DB6EA4F4419E","title":"茸联苑","lon":"121.25815","lat":"31.006504","category":"47","category_name":"住宅区","address":"环城路204弄65支弄"},{"poiid":"B2094655D268A3FD419D","title":"蓝色港湾(星美乐莫国际影城西北)","lon":"121.2533","lat":"31.01088","category":"170","category_name":"KTV","address":"环城路574"},{"poiid":"B2094654DB6EA4FA409A","title":"黄山楼","lon":"121.25547","lat":"31.01301","category":"76","category_name":"上海菜","address":"松东路161-165号近俞塘路"},{"poiid":"B2094752D768A3F4449B","title":"泰晤士小镇","lon":"121.253052","lat":"31.005478","category":"250","category_name":"公园户外","address":"上海市，松江区，泰晤士小镇"},{"poiid":"B2094654DB6DAAF44692","title":"松江区教师进修学院","lon":"121.24869","lat":"31.01007","category":"53","category_name":"成人教育","address":"方塔北路318"},{"poiid":"B2094655D268A5FD479D","title":"宏拓大楼","lon":"121.25501","lat":"31.01045","category":"46","category_name":"楼宇","address":""},{"poiid":"B2094654DB6DAAFA459C","title":"白云小区","lon":"121.2541","lat":"31.00636","category":"47","category_name":"住宅区","address":""},{"poiid":"B2094750D664ABF54692","title":"田字食号","lon":"121.256","lat":"31.0119","category":"76","category_name":"上海菜","address":"松江区松东路80弄(近黄山楼)"},{"poiid":"B2094757D66DA0FA449A","title":"幸福海","lon":"121.252271567","lat":"31.0103560675","category":"500","category_name":"未知分类","address":"上海松江区中山东路32弄"},{"poiid":"B2094757DA6BABFF489F","title":"LOMO玩库","lon":"121.250353","lat":"31.009835","category":"252","category_name":"楼宇机构","address":"松江区环城路555号"},{"poiid":"B2094655D26FABF5409A","title":"森活(南门)","lon":"121.25193","lat":"31.00751","category":"47","category_name":"住宅区","address":"中山东路70弄"},{"poiid":"B2094654DB6DAAFA419F","title":"雯雯点心店","lon":"121.24949","lat":"31.00696","category":"112","category_name":"糕饼店","address":""},{"poiid":"B2094654DB6EA4FA429B","title":"樱木屋","lon":"121.25562","lat":"31.01558","category":"95","category_name":"日本料理","address":"松江区荣乐东路1587号-2-3号(近松卫北路)"},{"poiid":"B2094750DA6CA0F9439F","title":"方塔幼儿园","lon":"121.250198","lat":"31.007705","category":"57","category_name":"幼儿园","address":"方塔东村25号"},{"poiid":"B2094654DB6DAAFA439D","title":"好德便利NO.639","lon":"121.2517","lat":"31.00696","category":"117","category_name":"便民商店/便利店","address":"松江镇"},{"poiid":"B2094757D66EA5FC459F","title":"汤天下","lon":"121.254752203","lat":"31.0108446855","category":"247","category_name":"餐饮美食","address":"上海松东路62号"}]