[{"poiid":"B2094757D06FA5FA429C","title":"三甲港海滨乐园","lon":"121.77083","lat":"31.212","category":"195","category_name":"游乐场","address":"浦东新区华夏东路6015号(近浦东国际机场)"},{"poiid":"B2094757D069A3F4489B","title":"三甲港堤坝","lon":"121.76463","lat":"31.21095","category":"500","category_name":"未知分类","address":"上海浦东新区三甲港  "},{"poiid":"B2094757D068A3F9479F","title":"远东大道地铁站","lon":"121.75617378","lat":"31.199824513","category":"36","category_name":"地铁站","address":"上海轨道交通 二号线 轨交远东大道站 2"},{"poiid":"B2094757D16AA7FF4899","title":"上海喜来春农业观光旅游区","lon":"121.73930218","lat":"31.219346543","category":"500","category_name":"未知分类","address":"上海市浦东新区合庆镇三甲路537号"},{"poiid":"B2094654DA6BA1FA419F","title":"上海一尘大酒店","lon":"121.7629","lat":"31.21919","category":"88","category_name":"海鲜酒楼","address":"上海市浦东新区三甲港人民塘路4008号(近华夏东路最东端三甲港海滨乐园"},{"poiid":"B2094655D36DA7FF459C","title":"直属村","lon":"121.75214","lat":"31.22117","category":"38","category_name":"公交车站","address":""},{"poiid":"B2094757D06AA4FF4492","title":"林克司高尔夫乡村俱乐部","lon":"121.75157","lat":"31.23538","category":"220","category_name":"运动场所","address":"中国上海市浦东新区凌白路1600号"},{"poiid":"B2094655D36DA2F84199","title":"海塘桥","lon":"121.75462","lat":"31.215","category":"250","category_name":"公园户外","address":""},{"poiid":"B2094655D36CA7FB409F","title":"海塘","lon":"121.75539","lat":"31.21454","category":"38","category_name":"公交车站","address":""},{"poiid":"B2094654DA6AAAF9479E","title":"世纪华联超市直属分店No.1246","lon":"121.75146","lat":"31.22148","category":"118","category_name":"超级市场","address":"合庆镇"},{"poiid":"B2094757D069A4FF4698","title":"三甲港东方酒楼","lon":"121.76384371","lat":"31.204209123","category":"500","category_name":"未知分类","address":"上海浦东新区三甲港人民塘路4238号"},{"poiid":"B2094655D36CA4FD429D","title":"白龙港","lon":"121.74451","lat":"31.23305","category":"38","category_name":"公交车站","address":""},{"poiid":"B2094655D36CA5FD4292","title":"春雷村","lon":"121.74336","lat":"31.22077","category":"38","category_name":"公交车站","address":"上海,上海市,春雷村5队郭家宅"},{"poiid":"B2094655D36DA6FF419B","title":"远东大道","lon":"121.75613","lat":"31.19979","category":"38","category_name":"公交车站","address":""},{"poiid":"B2094654DA6AAAF9479F","title":"上海河口海岸科学研究中心","lon":"121.74759","lat":"31.22142","category":"191","category_name":"科研机构","address":"星升路1045号"},{"poiid":"B2094757D064A4FB479D","title":"上海美国学校","lon":"121.75890974","lat":"31.231311869","category":"253","category_name":"校园生活","address":"浦东新区凌白公路(近林克斯高尔夫球场)"},{"poiid":"B2094654DB64A3F44793","title":"三甲港边防派出所","lon":"121.76229","lat":"31.21535","category":"609","category_name":"警察局","address":"上海浦东新区川杨路1555号"},{"poiid":"B2094654DB69A6F9459D","title":"裕隆商务大厦","lon":"121.7473","lat":"31.20707","category":"46","category_name":"楼宇","address":"越秀区环市东路362-366号"},{"poiid":"B2094757D16DABFA409C","title":"Links golf club","lon":"121.756834","lat":"31.230776","category":"500","category_name":"未知分类","address":"上海浦东新区凌白路1600号"},{"poiid":"B2094655D36DA2F8419B","title":"三甲港桥","lon":"121.76378","lat":"31.21524","category":"250","category_name":"公园户外","address":"蔡路镇三甲港"},{"poiid":"B2094655D36CA0F94993","title":"建光","lon":"121.74253","lat":"31.21213","category":"38","category_name":"公交车站","address":""},{"poiid":"B2094655D264A4F84298","title":"华夏文化旅游区三甲港海滨区","lon":"121.7657","lat":"31.21559","category":"250","category_name":"公园户外","address":"人民塘路"},{"poiid":"B2094757D66CA5FD499B","title":"百福东方国际物流责任有限公司","lon":"121.757926392","lat":"31.20817975","category":"500","category_name":"未知分类","address":"上海华夏东路4689号"},{"poiid":"B2094654DA6AAAFA4492","title":"燕宇生态林","lon":"121.74273","lat":"31.21526","category":"248","category_name":"生活娱乐","address":""},{"poiid":"B2094655D36DA2F8409C","title":"沙脚河桥","lon":"121.75977","lat":"31.20908","category":"250","category_name":"公园户外","address":""},{"poiid":"B2094655D265A5F94193","title":"G1501华夏东路收费站","lon":"121.75156","lat":"31.20611","category":"267","category_name":"收费站","address":""},{"poiid":"B2094753D26EA6F9409D","title":"浦东机场高架路","lon":"121.749619","lat":"31.207611","category":"500","category_name":"未知分类","address":"上海市 远东大道"},{"poiid":"B2094757D16EA2F44792","title":"海滨渔村","lon":"121.76993","lat":"31.21164","category":"260","category_name":"其他","address":"浦东新区川沙人民塘路3868号(近华夏东路)"},{"poiid":"B2094654DB64A3F4479C","title":"东方酒楼 华夏总店","lon":"121.76861529485","lat":"31.210493298232","category":"260","category_name":"其他","address":"浦东新区三甲港人民塘路4238号(华夏东路人民塘)"},{"poiid":"B2094757D16DA3FB489B","title":"杨浦区教育局","lon":"121.76477813","lat":"31.22576332","category":"500","category_name":"未知分类","address":"上海长岭路91号"},{"poiid":"B2094655D264ABF94199","title":"易捷便利店","lon":"121.74469","lat":"31.20782","category":"117","category_name":"便民商店/便利店","address":"合庆镇"},{"poiid":"B2094654DA6AAAF94899","title":"浦东合庆新苗小学","lon":"121.73797","lat":"31.22356","category":"56","category_name":"小学","address":"浦东新区合庆镇友谊村（远东大道到联星路再过100米左右）"},{"poiid":"B2094655D26FA1FD4292","title":"曼德利别墅","lon":"121.74947","lat":"31.23374","category":"47","category_name":"住宅区","address":""},{"poiid":"B2094751DA6DA1F8449D","title":"浦东机场","lon":"121.764405","lat":"31.207867","category":"500","category_name":"未知分类","address":null},{"poiid":"B2094757D66EA0F54193","title":"上海勤昌烟草机械配件厂","lon":"121.738917085","lat":"31.2160617711","category":"500","category_name":"未知分类","address":"上海市浦东新区合庆镇三甲路516号"},{"poiid":"B2094654DA6AA4FE4292","title":"上海色线浦东生产基地","lon":"121.73852","lat":"31.22569","category":"45","category_name":"产业园区","address":""},{"poiid":"B209475CD76EA0FF429C","title":"长江迷笛音乐节","lon":"121.769027","lat":"31.211608","category":"500","category_name":"未知分类","address":"上海市 上海浦东三甲港"},{"poiid":"B2094655D36CA2FA469B","title":"三甲港广场","lon":"121.7706","lat":"31.21086","category":"38","category_name":"公交车站","address":""},{"poiid":"B2094654DA6BA1FA489F","title":"夏威屿海鲜城","lon":"121.77239","lat":"31.21264","category":"76","category_name":"上海菜","address":"浦东新区三甲港华夏东路东首海滨浴场"},{"poiid":"B2094654DA6AAAF94492","title":"东宇酒家","lon":"121.74576","lat":"31.23338","category":"75","category_name":"浙江菜","address":"浦东新区宋家嘴30号白龙港临白路桥东首(合庆镇)"},{"poiid":"B2094654DA6BA1FA4293","title":"广场购物中心","lon":"121.77033","lat":"31.21148","category":"119","category_name":"商场","address":""},{"poiid":"B2094750D36BA5F4469D","title":"三甲港海滨乐场","lon":"121.76526643813","lat":"31.209387666855","category":"219","category_name":"其他","address":"华夏东路东首三甲港海滨广场"},{"poiid":"B2094757D16BA7FB4099","title":"Vastium's Villa","lon":"121.76646794","lat":"31.209323598","category":"500","category_name":"未知分类","address":"上海浦东新区华夏东路188号"},{"poiid":"B2094654DA6AAAF9489E","title":"浦东新区合庆镇友谊村社区卫生服务站","lon":"121.73524","lat":"31.22537","category":"162","category_name":"医院","address":""},{"poiid":"B2094654DA6AAAF9449B","title":"上海畅成滨江工业区","lon":"121.75141","lat":"31.2359","category":"45","category_name":"产业园区","address":""},{"poiid":"B2094654DA6AAAF9459D","title":"联华超市(凌白公路)","lon":"121.74373","lat":"31.23311","category":"118","category_name":"超级市场","address":""},{"poiid":"B2094757D66DAAF5419E","title":"吉祥馄饨华夏店","lon":"121.739629","lat":"31.209339","category":"500","category_name":"未知分类","address":"上海华夏二路98号"},{"poiid":"B2094757D16AA0F44093","title":"海塘村","lon":"121.76765699","lat":"31.208569958","category":"500","category_name":"未知分类","address":"上海海塘村"},{"poiid":"B2094757D66FA0FB419E","title":"凌白公路辉煌路","lon":"121.7432964","lat":"31.2328838","category":"500","category_name":"未知分类","address":"上海凌白公路辉煌路"},{"poiid":"B2094654DA6BA1FA439E","title":"红中海鲜广场","lon":"121.76923803259","lat":"31.210351741967","category":"260","category_name":"其他","address":"浦东新区华夏东路4828-4830号三甲港海滨"},{"poiid":"B2094757D06FA5FA429C","title":"三甲港海滨乐园","lon":"121.77083","lat":"31.212","category":"195","category_name":"游乐场","address":"浦东新区华夏东路6015号(近浦东国际机场)"},{"poiid":"B2094757D069A3F4489B","title":"三甲港堤坝","lon":"121.76463","lat":"31.21095","category":"500","category_name":"未知分类","address":"上海浦东新区三甲港  "},{"poiid":"B2094757D068A3F9479F","title":"远东大道地铁站","lon":"121.75617378","lat":"31.199824513","category":"36","category_name":"地铁站","address":"上海轨道交通 二号线 轨交远东大道站 2"},{"poiid":"B2094757D16AA7FF4899","title":"上海喜来春农业观光旅游区","lon":"121.73930218","lat":"31.219346543","category":"500","category_name":"未知分类","address":"上海市浦东新区合庆镇三甲路537号"},{"poiid":"B2094654DA6BA1FA419F","title":"上海一尘大酒店","lon":"121.7629","lat":"31.21919","category":"88","category_name":"海鲜酒楼","address":"上海市浦东新区三甲港人民塘路4008号(近华夏东路最东端三甲港海滨乐园"},{"poiid":"B2094655D36DA7FF459C","title":"直属村","lon":"121.75214","lat":"31.22117","category":"38","category_name":"公交车站","address":""},{"poiid":"B2094757D06AA4FF4492","title":"林克司高尔夫乡村俱乐部","lon":"121.75157","lat":"31.23538","category":"220","category_name":"运动场所","address":"中国上海市浦东新区凌白路1600号"},{"poiid":"B2094655D36DA2F84199","title":"海塘桥","lon":"121.75462","lat":"31.215","category":"250","category_name":"公园户外","address":""},{"poiid":"B2094655D36CA7FB409F","title":"海塘","lon":"121.75539","lat":"31.21454","category":"38","category_name":"公交车站","address":""},{"poiid":"B2094654DA6AAAF9479E","title":"世纪华联超市直属分店No.1246","lon":"121.75146","lat":"31.22148","category":"118","category_name":"超级市场","address":"合庆镇"},{"poiid":"B2094757D069A4FF4698","title":"三甲港东方酒楼","lon":"121.76384371","lat":"31.204209123","category":"500","category_name":"未知分类","address":"上海浦东新区三甲港人民塘路4238号"},{"poiid":"B2094655D36CA4FD429D","title":"白龙港","lon":"121.74451","lat":"31.23305","category":"38","category_name":"公交车站","address":""},{"poiid":"B2094655D36CA5FD4292","title":"春雷村","lon":"121.74336","lat":"31.22077","category":"38","category_name":"公交车站","address":"上海,上海市,春雷村5队郭家宅"},{"poiid":"B2094655D36DA6FF419B","title":"远东大道","lon":"121.75613","lat":"31.19979","category":"38","category_name":"公交车站","address":""},{"poiid":"B2094654DA6AAAF9479F","title":"上海河口海岸科学研究中心","lon":"121.74759","lat":"31.22142","category":"191","category_name":"科研机构","address":"星升路1045号"},{"poiid":"B2094757D064A4FB479D","title":"上海美国学校","lon":"121.75890974","lat":"31.231311869","category":"253","category_name":"校园生活","address":"浦东新区凌白公路(近林克斯高尔夫球场)"},{"poiid":"B2094654DB64A3F44793","title":"三甲港边防派出所","lon":"121.76229","lat":"31.21535","category":"609","category_name":"警察局","address":"上海浦东新区川杨路1555号"},{"poiid":"B2094654DB69A6F9459D","title":"裕隆商务大厦","lon":"121.7473","lat":"31.20707","category":"46","category_name":"楼宇","address":"越秀区环市东路362-366号"},{"poiid":"B2094757D16DABFA409C","title":"Links golf club","lon":"121.756834","lat":"31.230776","category":"500","category_name":"未知分类","address":"上海浦东新区凌白路1600号"},{"poiid":"B2094655D36DA2F8419B","title":"三甲港桥","lon":"121.76378","lat":"31.21524","category":"250","category_name":"公园户外","address":"蔡路镇三甲港"},{"poiid":"B2094655D36CA0F94993","title":"建光","lon":"121.74253","lat":"31.21213","category":"38","category_name":"公交车站","address":""},{"poiid":"B2094655D264A4F84298","title":"华夏文化旅游区三甲港海滨区","lon":"121.7657","lat":"31.21559","category":"250","category_name":"公园户外","address":"人民塘路"},{"poiid":"B2094757D66CA5FD499B","title":"百福东方国际物流责任有限公司","lon":"121.757926392","lat":"31.20817975","category":"500","category_name":"未知分类","address":"上海华夏东路4689号"},{"poiid":"B2094654DA6AAAFA4492","title":"燕宇生态林","lon":"121.74273","lat":"31.21526","category":"248","category_name":"生活娱乐","address":""},{"poiid":"B2094655D36DA2F8409C","title":"沙脚河桥","lon":"121.75977","lat":"31.20908","category":"250","category_name":"公园户外","address":""},{"poiid":"B2094655D265A5F94193","title":"G1501华夏东路收费站","lon":"121.75156","lat":"31.20611","category":"267","category_name":"收费站","address":""},{"poiid":"B2094753D26EA6F9409D","title":"浦东机场高架路","lon":"121.749619","lat":"31.207611","category":"500","category_name":"未知分类","address":"上海市 远东大道"},{"poiid":"B2094757D16EA2F44792","title":"海滨渔村","lon":"121.76993","lat":"31.21164","category":"260","category_name":"其他","address":"浦东新区川沙人民塘路3868号(近华夏东路)"},{"poiid":"B2094654DB64A3F4479C","title":"东方酒楼 华夏总店","lon":"121.76861529485","lat":"31.210493298232","category":"260","category_name":"其他","address":"浦东新区三甲港人民塘路4238号(华夏东路人民塘)"},{"poiid":"B2094757D16DA3FB489B","title":"杨浦区教育局","lon":"121.76477813","lat":"31.22576332","category":"500","category_name":"未知分类","address":"上海长岭路91号"},{"poiid":"B2094655D264ABF94199","title":"易捷便利店","lon":"121.74469","lat":"31.20782","category":"117","category_name":"便民商店/便利店","address":"合庆镇"},{"poiid":"B2094654DA6AAAF94899","title":"浦东合庆新苗小学","lon":"121.73797","lat":"31.22356","category":"56","category_name":"小学","address":"浦东新区合庆镇友谊村（远东大道到联星路再过100米左右）"},{"poiid":"B2094655D26FA1FD4292","title":"曼德利别墅","lon":"121.74947","lat":"31.23374","category":"47","category_name":"住宅区","address":""},{"poiid":"B2094751DA6DA1F8449D","title":"浦东机场","lon":"121.764405","lat":"31.207867","category":"500","category_name":"未知分类","address":null},{"poiid":"B2094757D66EA0F54193","title":"上海勤昌烟草机械配件厂","lon":"121.738917085","lat":"31.2160617711","category":"500","category_name":"未知分类","address":"上海市浦东新区合庆镇三甲路516号"},{"poiid":"B2094654DA6AA4FE4292","title":"上海色线浦东生产基地","lon":"121.73852","lat":"31.22569","category":"45","category_name":"产业园区","address":""},{"poiid":"B209475CD76EA0FF429C","title":"长江迷笛音乐节","lon":"121.769027","lat":"31.211608","category":"500","category_name":"未知分类","address":"上海市 上海浦东三甲港"},{"poiid":"B2094655D36CA2FA469B","title":"三甲港广场","lon":"121.7706","lat":"31.21086","category":"38","category_name":"公交车站","address":""},{"poiid":"B2094654DA6BA1FA489F","title":"夏威屿海鲜城","lon":"121.77239","lat":"31.21264","category":"76","category_name":"上海菜","address":"浦东新区三甲港华夏东路东首海滨浴场"},{"poiid":"B2094654DA6AAAF94492","title":"东宇酒家","lon":"121.74576","lat":"31.23338","category":"75","category_name":"浙江菜","address":"浦东新区宋家嘴30号白龙港临白路桥东首(合庆镇)"},{"poiid":"B2094654DA6BA1FA4293","title":"广场购物中心","lon":"121.77033","lat":"31.21148","category":"119","category_name":"商场","address":""},{"poiid":"B2094750D36BA5F4469D","title":"三甲港海滨乐场","lon":"121.76526643813","lat":"31.209387666855","category":"219","category_name":"其他","address":"华夏东路东首三甲港海滨广场"},{"poiid":"B2094757D16BA7FB4099","title":"Vastium's Villa","lon":"121.76646794","lat":"31.209323598","category":"500","category_name":"未知分类","address":"上海浦东新区华夏东路188号"},{"poiid":"B2094654DA6AAAF9489E","title":"浦东新区合庆镇友谊村社区卫生服务站","lon":"121.73524","lat":"31.22537","category":"162","category_name":"医院","address":""},{"poiid":"B2094654DA6AAAF9449B","title":"上海畅成滨江工业区","lon":"121.75141","lat":"31.2359","category":"45","category_name":"产业园区","address":""},{"poiid":"B2094654DA6AAAF9459D","title":"联华超市(凌白公路)","lon":"121.74373","lat":"31.23311","category":"118","category_name":"超级市场","address":""},{"poiid":"B2094757D66DAAF5419E","title":"吉祥馄饨华夏店","lon":"121.739629","lat":"31.209339","category":"500","category_name":"未知分类","address":"上海华夏二路98号"},{"poiid":"B2094757D16AA0F44093","title":"海塘村","lon":"121.76765699","lat":"31.208569958","category":"500","category_name":"未知分类","address":"上海海塘村"},{"poiid":"B2094757D66FA0FB419E","title":"凌白公路辉煌路","lon":"121.7432964","lat":"31.2328838","category":"500","category_name":"未知分类","address":"上海凌白公路辉煌路"},{"poiid":"B2094654DA6BA1FA439E","title":"红中海鲜广场","lon":"121.76923803259","lat":"31.210351741967","category":"260","category_name":"其他","address":"浦东新区华夏东路4828-4830号三甲港海滨"}]