[{"poiid":"B2094655D264A1FF4793","title":"嘉怡别墅","lon":"121.273613","lat":"31.387348","category":"47","category_name":"住宅区","address":"嘉定区茹水路1180弄"},{"poiid":"B2094757D068ABF5459F","title":"龙飞大酒店(仓场店)","lon":"121.27062","lat":"31.38185","category":"75","category_name":"浙江菜","address":"嘉定区仓场路422号龙飞大酒店内(仓场路新成路)"},{"poiid":"B2094757D06AAAF4479B","title":"爱丽舍花园","lon":"121.27409808647","lat":"31.393659990924","category":"500","category_name":"未知分类","address":"上海叶城路505弄"},{"poiid":"B2094757D464A0FA4292","title":"燕子酒家 嘉定花园店","lon":"121.2685578722","lat":"31.38965961212","category":"247","category_name":"餐饮美食","address":"嘉定区嘉定区新城路899号(近塔城路)"},{"poiid":"B2094655D268A4F8429B","title":"新成三坊","lon":"121.27581531559","lat":"31.389690865052","category":"47","category_name":"住宅区","address":"迎园路415弄,485弄"},{"poiid":"B2094757D064A3F5419E","title":"老盛昌汤包馆","lon":"121.267241653","lat":"31.3812336176","category":"247","category_name":"餐饮美食","address":"上海仓城路店"},{"poiid":"B2094655D268A5F5409E","title":"新城六坊","lon":"121.27479","lat":"31.390647","category":"47","category_name":"住宅区","address":"迎园路485弄1～32号"},{"poiid":"B2094757D169A1FD409A","title":"迎园四坊","lon":"121.275","lat":"31.3901","category":"47","category_name":"住宅区","address":"上海嘉定区迎园四坊"},{"poiid":"B2094654DB69A7F4489C","title":"复华城市花园","lon":"121.27974483182","lat":"31.386499139981","category":"47","category_name":"住宅区","address":"嘉定区和政路228弄"},{"poiid":"B2094757D065A5FC4392","title":"歌顿咖啡新成店","lon":"121.2694","lat":"31.38908","category":"260","category_name":"其他","address":"嘉定区塔城东路292号(近和政路)"},{"poiid":"B2094654D469A0F9489C","title":"湖光月色·嘉贤庄","lon":"121.26937","lat":"31.38983","category":"47","category_name":"住宅区","address":"新成路"},{"poiid":"B2094654D469A0FA449A","title":"新众花园","lon":"121.27731","lat":"31.392647","category":"47","category_name":"住宅区","address":"澄浏中路3380弄"},{"poiid":"B2094757D16DA3FB439A","title":"口口咖啡法式铁板烧","lon":"121.26291","lat":"31.39523","category":"94","category_name":"西餐厅","address":"嘉定区新城路881号-C(近塔城路)"},{"poiid":"B2094654D469A0F94893","title":"嘉星小区","lon":"121.27119","lat":"31.387753","category":"47","category_name":"住宅区","address":"塔城东路255弄"},{"poiid":"B2094654D469A4FE4893","title":"塔城东路365弄","lon":"121.274","lat":"31.3937","category":"47","category_name":"住宅区","address":"塔城东路365弄"},{"poiid":"B2094757D16EAAF5459B","title":"嘉新小区","lon":"121.289644653","lat":"31.3927763534","category":"47","category_name":"住宅区","address":"上海市嘉定区嘉定·立新路"},{"poiid":"B2094655D268A7FF469E","title":"新城公园","lon":"121.26873","lat":"31.38832","category":"196","category_name":"公园","address":""},{"poiid":"B2094757D065A5F8439A","title":"珍品 仓场路站","lon":"121.27568","lat":"31.38379","category":"76","category_name":"上海菜","address":"嘉定区仓场路102号"},{"poiid":"B2094757D168A2F9409B","title":"乐天玛特超市(嘉定店)","lon":"121.274547653","lat":"31.3806481056","category":"249","category_name":"购物服务","address":"嘉定区仓场路365号2-3楼(和政路口)"},{"poiid":"B2094757D569A3FE479C","title":"伊尔茨咖啡","lon":"121.27370605","lat":"31.38731771","category":"65","category_name":"咖啡厅","address":"茹水路1180弄277号近塔城路"},{"poiid":"B2094655D36CA5FE489C","title":"澄浏中路嘉戬公路","lon":"121.28024","lat":"31.37873","category":"38","category_name":"公交车站","address":""},{"poiid":"B2094654D469A7F8459D","title":"新乐花苑","lon":"121.27296","lat":"31.386385","category":"47","category_name":"住宅区","address":"上海嘉定区迎园路277弄"},{"poiid":"B2094757D66CA2FC479F","title":"海南呀诺达(yanoda)雨林文化旅游区","lon":"121.272418653","lat":"31.3892442812","category":"500","category_name":"未知分类","address":"上海海南三亚三道农场"},{"poiid":"B2094654D469A5F5419C","title":"快乐鸟盱眙十三香龙虾","lon":"121.26595","lat":"31.38135","category":"257","category_name":"中餐厅","address":"嘉定区仓场路2758号(近迎园路)"},{"poiid":"B2094655D36CA5FB4393","title":"仓场路澄浏中路","lon":"121.27635","lat":"31.38397","category":"38","category_name":"公交车站","address":""},{"poiid":"B2094757D16AA4F4479A","title":"嘉贤庄","lon":"121.276","lat":"31.3956","category":"500","category_name":"未知分类","address":"上海市嘉定区塔城路"},{"poiid":"B2094757D66FA1F5489F","title":"百事食品(上海)有限公司嘉定分厂","lon":"121.272319653","lat":"31.3890512773","category":"500","category_name":"未知分类","address":"上海科茂路1000号"},{"poiid":"B2094757D168AAFE4398","title":"太麻里台湾私房牛肉面","lon":"121.27595765","lat":"31.383252158","category":"91","category_name":"台湾菜","address":"嘉定区仓场路116号"},{"poiid":"B2094654D469A7F8459E","title":"好德(迎园路)","lon":"121.27252","lat":"31.38656","category":"117","category_name":"便民商店/便利店","address":""},{"poiid":"B2094655D268A5FD4998","title":"迎园新村一坊","lon":"121.275","lat":"31.3862","category":"47","category_name":"住宅区","address":"新成路261弄"},{"poiid":"B2094654D469A4FA419D","title":"嘉宝花园别墅","lon":"121.271","lat":"31.3832","category":"47","category_name":"住宅区","address":"上海市嘉定区墅沟路888弄"},{"poiid":"B2094750D56BA0FE4993","title":"方舟时代广场","lon":"121.285167","lat":"31.391371","category":"47","category_name":"住宅区","address":"嘉定区仓场东路384号(近澄浏中路口)"},{"poiid":"B2094752DB68A5F5449C","title":"迪卡侬嘉定澄浏店","lon":"121.27842662803","lat":"31.38486124765","category":"119","category_name":"商场","address":"仓场东路348号"},{"poiid":"B2094654D469A0FF449B","title":"上海市公安局嘉定分局(塔城东路)","lon":"121.26699","lat":"31.38877","category":"248","category_name":"生活娱乐","address":"塔城路400号"},{"poiid":"B2094757D064A4FF479F","title":"迎园路351弄","lon":"121.269889832","lat":"31.3873691559","category":"252","category_name":"楼宇机构","address":"上海嘉定区迎园路(近和政路)"},{"poiid":"B2094757D16FA4FA489C","title":"吴姑娘特色煲(仓场店)","lon":"121.265738653","lat":"31.3821161356","category":"76","category_name":"上海菜","address":"嘉定区仓场路2871号(近迎园路)"},{"poiid":"B2094655D26BA2FA489A","title":"塔城路和政路","lon":"121.26779","lat":"31.38875","category":"38","category_name":"公交车站","address":""},{"poiid":"B2094655D36CA5FE499A","title":"澄桥","lon":"121.27121","lat":"31.39829","category":"38","category_name":"公交车站","address":""},{"poiid":"B2094757D06AA6F8459B","title":"塔城路","lon":"121.26364565","lat":"31.387504245","category":"500","category_name":"未知分类","address":"上海市嘉定区"},{"poiid":"B2094757D66CA4FC499A","title":"迎园中学东部校区足球场","lon":"121.271786653","lat":"31.3856232072","category":"500","category_name":"未知分类","address":"上海嘉定区塔新路"},{"poiid":"B2094654D469A4FE4899","title":"迎园别墅","lon":"121.268","lat":"31.388","category":"47","category_name":"住宅区","address":"嘉罗公路385号"},{"poiid":"B2094757D064AAF8429C","title":"张太和爊鸭(迎园店)","lon":"121.26682","lat":"31.38407","category":"68","category_name":"快餐厅","address":"嘉定区嘉定镇迎园中路616号(迎园北路迎园路)"},{"poiid":"B2094654D469A4FF4098","title":"新成五坊","lon":"121.26985","lat":"31.385441","category":"47","category_name":"住宅区","address":"迎园路415弄"},{"poiid":"B2094655D26FABF8419A","title":"迎园新村五、八坊","lon":"121.26623","lat":"31.38359","category":"47","category_name":"住宅区","address":"上海嘉定区迎园中路"},{"poiid":"B2094753D065A3FF4998","title":"田季干锅牛蛙主题餐厅(仓场路店)","lon":"121.27652","lat":"31.38402","category":"71","category_name":"四川菜","address":"嘉定区仓场东路54号(近澄浏中路)"},{"poiid":"B2094750DA6BA0F8479B","title":"唱九天ktv","lon":"121.276916","lat":"31.380571","category":"248","category_name":"生活娱乐","address":null},{"poiid":"B2094654D469A4FF439D","title":"南陈小区","lon":"121.27072","lat":"31.38167","category":"47","category_name":"住宅区","address":"仓场路421弄"},{"poiid":"B2094757D66BA3FA4799","title":"张太和爊鸭 仓场路店","lon":"121.266739054","lat":"31.381288793","category":"68","category_name":"快餐厅","address":"嘉定区仓场路2879号(仓场路迎园路)"},{"poiid":"B2094654D469A0FA4099","title":"新成路小学","lon":"121.27423","lat":"31.38358","category":"56","category_name":"小学","address":"嘉定区仓场路260号"},{"poiid":"B2094655D26BAAF9499A","title":"朱泾桥","lon":"121.28413","lat":"31.39304","category":"250","category_name":"公园户外","address":""},{"poiid":"B2094655D264A1FF4793","title":"嘉怡别墅","lon":"121.273613","lat":"31.387348","category":"47","category_name":"住宅区","address":"嘉定区茹水路1180弄"},{"poiid":"B2094757D068ABF5459F","title":"龙飞大酒店(仓场店)","lon":"121.27062","lat":"31.38185","category":"75","category_name":"浙江菜","address":"嘉定区仓场路422号龙飞大酒店内(仓场路新成路)"},{"poiid":"B2094757D06AAAF4479B","title":"爱丽舍花园","lon":"121.27409808647","lat":"31.393659990924","category":"500","category_name":"未知分类","address":"上海叶城路505弄"},{"poiid":"B2094757D464A0FA4292","title":"燕子酒家 嘉定花园店","lon":"121.2685578722","lat":"31.38965961212","category":"247","category_name":"餐饮美食","address":"嘉定区嘉定区新城路899号(近塔城路)"},{"poiid":"B2094655D268A4F8429B","title":"新成三坊","lon":"121.27581531559","lat":"31.389690865052","category":"47","category_name":"住宅区","address":"迎园路415弄,485弄"},{"poiid":"B2094757D064A3F5419E","title":"老盛昌汤包馆","lon":"121.267241653","lat":"31.3812336176","category":"247","category_name":"餐饮美食","address":"上海仓城路店"},{"poiid":"B2094655D268A5F5409E","title":"新城六坊","lon":"121.27479","lat":"31.390647","category":"47","category_name":"住宅区","address":"迎园路485弄1～32号"},{"poiid":"B2094757D169A1FD409A","title":"迎园四坊","lon":"121.275","lat":"31.3901","category":"47","category_name":"住宅区","address":"上海嘉定区迎园四坊"},{"poiid":"B2094654DB69A7F4489C","title":"复华城市花园","lon":"121.27974483182","lat":"31.386499139981","category":"47","category_name":"住宅区","address":"嘉定区和政路228弄"},{"poiid":"B2094757D065A5FC4392","title":"歌顿咖啡新成店","lon":"121.2694","lat":"31.38908","category":"260","category_name":"其他","address":"嘉定区塔城东路292号(近和政路)"},{"poiid":"B2094654D469A0F9489C","title":"湖光月色·嘉贤庄","lon":"121.26937","lat":"31.38983","category":"47","category_name":"住宅区","address":"新成路"},{"poiid":"B2094654D469A0FA449A","title":"新众花园","lon":"121.27731","lat":"31.392647","category":"47","category_name":"住宅区","address":"澄浏中路3380弄"},{"poiid":"B2094757D16DA3FB439A","title":"口口咖啡法式铁板烧","lon":"121.26291","lat":"31.39523","category":"94","category_name":"西餐厅","address":"嘉定区新城路881号-C(近塔城路)"},{"poiid":"B2094654D469A0F94893","title":"嘉星小区","lon":"121.27119","lat":"31.387753","category":"47","category_name":"住宅区","address":"塔城东路255弄"},{"poiid":"B2094654D469A4FE4893","title":"塔城东路365弄","lon":"121.274","lat":"31.3937","category":"47","category_name":"住宅区","address":"塔城东路365弄"},{"poiid":"B2094757D16EAAF5459B","title":"嘉新小区","lon":"121.289644653","lat":"31.3927763534","category":"47","category_name":"住宅区","address":"上海市嘉定区嘉定·立新路"},{"poiid":"B2094655D268A7FF469E","title":"新城公园","lon":"121.26873","lat":"31.38832","category":"196","category_name":"公园","address":""},{"poiid":"B2094757D065A5F8439A","title":"珍品 仓场路站","lon":"121.27568","lat":"31.38379","category":"76","category_name":"上海菜","address":"嘉定区仓场路102号"},{"poiid":"B2094757D168A2F9409B","title":"乐天玛特超市(嘉定店)","lon":"121.274547653","lat":"31.3806481056","category":"249","category_name":"购物服务","address":"嘉定区仓场路365号2-3楼(和政路口)"},{"poiid":"B2094757D569A3FE479C","title":"伊尔茨咖啡","lon":"121.27370605","lat":"31.38731771","category":"65","category_name":"咖啡厅","address":"茹水路1180弄277号近塔城路"},{"poiid":"B2094655D36CA5FE489C","title":"澄浏中路嘉戬公路","lon":"121.28024","lat":"31.37873","category":"38","category_name":"公交车站","address":""},{"poiid":"B2094654D469A7F8459D","title":"新乐花苑","lon":"121.27296","lat":"31.386385","category":"47","category_name":"住宅区","address":"上海嘉定区迎园路277弄"},{"poiid":"B2094757D66CA2FC479F","title":"海南呀诺达(yanoda)雨林文化旅游区","lon":"121.272418653","lat":"31.3892442812","category":"500","category_name":"未知分类","address":"上海海南三亚三道农场"},{"poiid":"B2094654D469A5F5419C","title":"快乐鸟盱眙十三香龙虾","lon":"121.26595","lat":"31.38135","category":"257","category_name":"中餐厅","address":"嘉定区仓场路2758号(近迎园路)"},{"poiid":"B2094655D36CA5FB4393","title":"仓场路澄浏中路","lon":"121.27635","lat":"31.38397","category":"38","category_name":"公交车站","address":""},{"poiid":"B2094757D16AA4F4479A","title":"嘉贤庄","lon":"121.276","lat":"31.3956","category":"500","category_name":"未知分类","address":"上海市嘉定区塔城路"},{"poiid":"B2094757D66FA1F5489F","title":"百事食品(上海)有限公司嘉定分厂","lon":"121.272319653","lat":"31.3890512773","category":"500","category_name":"未知分类","address":"上海科茂路1000号"},{"poiid":"B2094757D168AAFE4398","title":"太麻里台湾私房牛肉面","lon":"121.27595765","lat":"31.383252158","category":"91","category_name":"台湾菜","address":"嘉定区仓场路116号"},{"poiid":"B2094654D469A7F8459E","title":"好德(迎园路)","lon":"121.27252","lat":"31.38656","category":"117","category_name":"便民商店/便利店","address":""},{"poiid":"B2094655D268A5FD4998","title":"迎园新村一坊","lon":"121.275","lat":"31.3862","category":"47","category_name":"住宅区","address":"新成路261弄"},{"poiid":"B2094654D469A4FA419D","title":"嘉宝花园别墅","lon":"121.271","lat":"31.3832","category":"47","category_name":"住宅区","address":"上海市嘉定区墅沟路888弄"},{"poiid":"B2094750D56BA0FE4993","title":"方舟时代广场","lon":"121.285167","lat":"31.391371","category":"47","category_name":"住宅区","address":"嘉定区仓场东路384号(近澄浏中路口)"},{"poiid":"B2094752DB68A5F5449C","title":"迪卡侬嘉定澄浏店","lon":"121.27842662803","lat":"31.38486124765","category":"119","category_name":"商场","address":"仓场东路348号"},{"poiid":"B2094654D469A0FF449B","title":"上海市公安局嘉定分局(塔城东路)","lon":"121.26699","lat":"31.38877","category":"248","category_name":"生活娱乐","address":"塔城路400号"},{"poiid":"B2094757D064A4FF479F","title":"迎园路351弄","lon":"121.269889832","lat":"31.3873691559","category":"252","category_name":"楼宇机构","address":"上海嘉定区迎园路(近和政路)"},{"poiid":"B2094757D16FA4FA489C","title":"吴姑娘特色煲(仓场店)","lon":"121.265738653","lat":"31.3821161356","category":"76","category_name":"上海菜","address":"嘉定区仓场路2871号(近迎园路)"},{"poiid":"B2094655D26BA2FA489A","title":"塔城路和政路","lon":"121.26779","lat":"31.38875","category":"38","category_name":"公交车站","address":""},{"poiid":"B2094655D36CA5FE499A","title":"澄桥","lon":"121.27121","lat":"31.39829","category":"38","category_name":"公交车站","address":""},{"poiid":"B2094757D06AA6F8459B","title":"塔城路","lon":"121.26364565","lat":"31.387504245","category":"500","category_name":"未知分类","address":"上海市嘉定区"},{"poiid":"B2094757D66CA4FC499A","title":"迎园中学东部校区足球场","lon":"121.271786653","lat":"31.3856232072","category":"500","category_name":"未知分类","address":"上海嘉定区塔新路"},{"poiid":"B2094654D469A4FE4899","title":"迎园别墅","lon":"121.268","lat":"31.388","category":"47","category_name":"住宅区","address":"嘉罗公路385号"},{"poiid":"B2094757D064AAF8429C","title":"张太和爊鸭(迎园店)","lon":"121.26682","lat":"31.38407","category":"68","category_name":"快餐厅","address":"嘉定区嘉定镇迎园中路616号(迎园北路迎园路)"},{"poiid":"B2094654D469A4FF4098","title":"新成五坊","lon":"121.26985","lat":"31.385441","category":"47","category_name":"住宅区","address":"迎园路415弄"},{"poiid":"B2094655D26FABF8419A","title":"迎园新村五、八坊","lon":"121.26623","lat":"31.38359","category":"47","category_name":"住宅区","address":"上海嘉定区迎园中路"},{"poiid":"B2094753D065A3FF4998","title":"田季干锅牛蛙主题餐厅(仓场路店)","lon":"121.27652","lat":"31.38402","category":"71","category_name":"四川菜","address":"嘉定区仓场东路54号(近澄浏中路)"},{"poiid":"B2094750DA6BA0F8479B","title":"唱九天ktv","lon":"121.276916","lat":"31.380571","category":"248","category_name":"生活娱乐","address":null},{"poiid":"B2094654D469A4FF439D","title":"南陈小区","lon":"121.27072","lat":"31.38167","category":"47","category_name":"住宅区","address":"仓场路421弄"},{"poiid":"B2094757D66BA3FA4799","title":"张太和爊鸭 仓场路店","lon":"121.266739054","lat":"31.381288793","category":"68","category_name":"快餐厅","address":"嘉定区仓场路2879号(仓场路迎园路)"},{"poiid":"B2094654D469A0FA4099","title":"新成路小学","lon":"121.27423","lat":"31.38358","category":"56","category_name":"小学","address":"嘉定区仓场路260号"},{"poiid":"B2094655D26BAAF9499A","title":"朱泾桥","lon":"121.28413","lat":"31.39304","category":"250","category_name":"公园户外","address":""},{"poiid":"B2094655D264A1FF4793","title":"嘉怡别墅","lon":"121.273613","lat":"31.387348","category":"47","category_name":"住宅区","address":"嘉定区茹水路1180弄"},{"poiid":"B2094757D068ABF5459F","title":"龙飞大酒店(仓场店)","lon":"121.27062","lat":"31.38185","category":"75","category_name":"浙江菜","address":"嘉定区仓场路422号龙飞大酒店内(仓场路新成路)"},{"poiid":"B2094757D06AAAF4479B","title":"爱丽舍花园","lon":"121.27409808647","lat":"31.393659990924","category":"500","category_name":"未知分类","address":"上海叶城路505弄"},{"poiid":"B2094757D464A0FA4292","title":"燕子酒家 嘉定花园店","lon":"121.2685578722","lat":"31.38965961212","category":"247","category_name":"餐饮美食","address":"嘉定区嘉定区新城路899号(近塔城路)"},{"poiid":"B2094655D268A4F8429B","title":"新成三坊","lon":"121.27581531559","lat":"31.389690865052","category":"47","category_name":"住宅区","address":"迎园路415弄,485弄"},{"poiid":"B2094757D064A3F5419E","title":"老盛昌汤包馆","lon":"121.267241653","lat":"31.3812336176","category":"247","category_name":"餐饮美食","address":"上海仓城路店"},{"poiid":"B2094655D268A5F5409E","title":"新城六坊","lon":"121.27479","lat":"31.390647","category":"47","category_name":"住宅区","address":"迎园路485弄1～32号"},{"poiid":"B2094757D169A1FD409A","title":"迎园四坊","lon":"121.275","lat":"31.3901","category":"47","category_name":"住宅区","address":"上海嘉定区迎园四坊"},{"poiid":"B2094654DB69A7F4489C","title":"复华城市花园","lon":"121.27974483182","lat":"31.386499139981","category":"47","category_name":"住宅区","address":"嘉定区和政路228弄"},{"poiid":"B2094757D065A5FC4392","title":"歌顿咖啡新成店","lon":"121.2694","lat":"31.38908","category":"260","category_name":"其他","address":"嘉定区塔城东路292号(近和政路)"},{"poiid":"B2094654D469A0F9489C","title":"湖光月色·嘉贤庄","lon":"121.26937","lat":"31.38983","category":"47","category_name":"住宅区","address":"新成路"},{"poiid":"B2094654D469A0FA449A","title":"新众花园","lon":"121.27731","lat":"31.392647","category":"47","category_name":"住宅区","address":"澄浏中路3380弄"},{"poiid":"B2094757D16DA3FB439A","title":"口口咖啡法式铁板烧","lon":"121.26291","lat":"31.39523","category":"94","category_name":"西餐厅","address":"嘉定区新城路881号-C(近塔城路)"},{"poiid":"B2094654D469A0F94893","title":"嘉星小区","lon":"121.27119","lat":"31.387753","category":"47","category_name":"住宅区","address":"塔城东路255弄"},{"poiid":"B2094654D469A4FE4893","title":"塔城东路365弄","lon":"121.274","lat":"31.3937","category":"47","category_name":"住宅区","address":"塔城东路365弄"},{"poiid":"B2094757D16EAAF5459B","title":"嘉新小区","lon":"121.289644653","lat":"31.3927763534","category":"47","category_name":"住宅区","address":"上海市嘉定区嘉定·立新路"},{"poiid":"B2094655D268A7FF469E","title":"新城公园","lon":"121.26873","lat":"31.38832","category":"196","category_name":"公园","address":""},{"poiid":"B2094757D065A5F8439A","title":"珍品 仓场路站","lon":"121.27568","lat":"31.38379","category":"76","category_name":"上海菜","address":"嘉定区仓场路102号"},{"poiid":"B2094757D168A2F9409B","title":"乐天玛特超市(嘉定店)","lon":"121.274547653","lat":"31.3806481056","category":"249","category_name":"购物服务","address":"嘉定区仓场路365号2-3楼(和政路口)"},{"poiid":"B2094757D569A3FE479C","title":"伊尔茨咖啡","lon":"121.27370605","lat":"31.38731771","category":"65","category_name":"咖啡厅","address":"茹水路1180弄277号近塔城路"},{"poiid":"B2094655D36CA5FE489C","title":"澄浏中路嘉戬公路","lon":"121.28024","lat":"31.37873","category":"38","category_name":"公交车站","address":""},{"poiid":"B2094654D469A7F8459D","title":"新乐花苑","lon":"121.27296","lat":"31.386385","category":"47","category_name":"住宅区","address":"上海嘉定区迎园路277弄"},{"poiid":"B2094757D66CA2FC479F","title":"海南呀诺达(yanoda)雨林文化旅游区","lon":"121.272418653","lat":"31.3892442812","category":"500","category_name":"未知分类","address":"上海海南三亚三道农场"},{"poiid":"B2094654D469A5F5419C","title":"快乐鸟盱眙十三香龙虾","lon":"121.26595","lat":"31.38135","category":"257","category_name":"中餐厅","address":"嘉定区仓场路2758号(近迎园路)"},{"poiid":"B2094655D36CA5FB4393","title":"仓场路澄浏中路","lon":"121.27635","lat":"31.38397","category":"38","category_name":"公交车站","address":""},{"poiid":"B2094757D16AA4F4479A","title":"嘉贤庄","lon":"121.276","lat":"31.3956","category":"500","category_name":"未知分类","address":"上海市嘉定区塔城路"},{"poiid":"B2094757D66FA1F5489F","title":"百事食品(上海)有限公司嘉定分厂","lon":"121.272319653","lat":"31.3890512773","category":"500","category_name":"未知分类","address":"上海科茂路1000号"},{"poiid":"B2094757D168AAFE4398","title":"太麻里台湾私房牛肉面","lon":"121.27595765","lat":"31.383252158","category":"91","category_name":"台湾菜","address":"嘉定区仓场路116号"},{"poiid":"B2094654D469A7F8459E","title":"好德(迎园路)","lon":"121.27252","lat":"31.38656","category":"117","category_name":"便民商店/便利店","address":""},{"poiid":"B2094655D268A5FD4998","title":"迎园新村一坊","lon":"121.275","lat":"31.3862","category":"47","category_name":"住宅区","address":"新成路261弄"},{"poiid":"B2094654D469A4FA419D","title":"嘉宝花园别墅","lon":"121.271","lat":"31.3832","category":"47","category_name":"住宅区","address":"上海市嘉定区墅沟路888弄"},{"poiid":"B2094750D56BA0FE4993","title":"方舟时代广场","lon":"121.285167","lat":"31.391371","category":"47","category_name":"住宅区","address":"嘉定区仓场东路384号(近澄浏中路口)"},{"poiid":"B2094752DB68A5F5449C","title":"迪卡侬嘉定澄浏店","lon":"121.27842662803","lat":"31.38486124765","category":"119","category_name":"商场","address":"仓场东路348号"},{"poiid":"B2094654D469A0FF449B","title":"上海市公安局嘉定分局(塔城东路)","lon":"121.26699","lat":"31.38877","category":"248","category_name":"生活娱乐","address":"塔城路400号"},{"poiid":"B2094757D064A4FF479F","title":"迎园路351弄","lon":"121.269889832","lat":"31.3873691559","category":"252","category_name":"楼宇机构","address":"上海嘉定区迎园路(近和政路)"},{"poiid":"B2094757D16FA4FA489C","title":"吴姑娘特色煲(仓场店)","lon":"121.265738653","lat":"31.3821161356","category":"76","category_name":"上海菜","address":"嘉定区仓场路2871号(近迎园路)"},{"poiid":"B2094655D26BA2FA489A","title":"塔城路和政路","lon":"121.26779","lat":"31.38875","category":"38","category_name":"公交车站","address":""},{"poiid":"B2094655D36CA5FE499A","title":"澄桥","lon":"121.27121","lat":"31.39829","category":"38","category_name":"公交车站","address":""},{"poiid":"B2094757D06AA6F8459B","title":"塔城路","lon":"121.26364565","lat":"31.387504245","category":"500","category_name":"未知分类","address":"上海市嘉定区"},{"poiid":"B2094757D66CA4FC499A","title":"迎园中学东部校区足球场","lon":"121.271786653","lat":"31.3856232072","category":"500","category_name":"未知分类","address":"上海嘉定区塔新路"},{"poiid":"B2094654D469A4FE4899","title":"迎园别墅","lon":"121.268","lat":"31.388","category":"47","category_name":"住宅区","address":"嘉罗公路385号"},{"poiid":"B2094757D064AAF8429C","title":"张太和爊鸭(迎园店)","lon":"121.26682","lat":"31.38407","category":"68","category_name":"快餐厅","address":"嘉定区嘉定镇迎园中路616号(迎园北路迎园路)"},{"poiid":"B2094654D469A4FF4098","title":"新成五坊","lon":"121.26985","lat":"31.385441","category":"47","category_name":"住宅区","address":"迎园路415弄"},{"poiid":"B2094655D26FABF8419A","title":"迎园新村五、八坊","lon":"121.26623","lat":"31.38359","category":"47","category_name":"住宅区","address":"上海嘉定区迎园中路"},{"poiid":"B2094753D065A3FF4998","title":"田季干锅牛蛙主题餐厅(仓场路店)","lon":"121.27652","lat":"31.38402","category":"71","category_name":"四川菜","address":"嘉定区仓场东路54号(近澄浏中路)"},{"poiid":"B2094750DA6BA0F8479B","title":"唱九天ktv","lon":"121.276916","lat":"31.380571","category":"248","category_name":"生活娱乐","address":null},{"poiid":"B2094654D469A4FF439D","title":"南陈小区","lon":"121.27072","lat":"31.38167","category":"47","category_name":"住宅区","address":"仓场路421弄"},{"poiid":"B2094757D66BA3FA4799","title":"张太和爊鸭 仓场路店","lon":"121.266739054","lat":"31.381288793","category":"68","category_name":"快餐厅","address":"嘉定区仓场路2879号(仓场路迎园路)"},{"poiid":"B2094654D469A0FA4099","title":"新成路小学","lon":"121.27423","lat":"31.38358","category":"56","category_name":"小学","address":"嘉定区仓场路260号"},{"poiid":"B2094655D26BAAF9499A","title":"朱泾桥","lon":"121.28413","lat":"31.39304","category":"250","category_name":"公园户外","address":""},{"poiid":"B2094655D264A1FF4793","title":"嘉怡别墅","lon":"121.273613","lat":"31.387348","category":"47","category_name":"住宅区","address":"嘉定区茹水路1180弄"},{"poiid":"B2094757D068ABF5459F","title":"龙飞大酒店(仓场店)","lon":"121.27062","lat":"31.38185","category":"75","category_name":"浙江菜","address":"嘉定区仓场路422号龙飞大酒店内(仓场路新成路)"},{"poiid":"B2094757D06AAAF4479B","title":"爱丽舍花园","lon":"121.27409808647","lat":"31.393659990924","category":"500","category_name":"未知分类","address":"上海叶城路505弄"},{"poiid":"B2094757D464A0FA4292","title":"燕子酒家 嘉定花园店","lon":"121.2685578722","lat":"31.38965961212","category":"247","category_name":"餐饮美食","address":"嘉定区嘉定区新城路899号(近塔城路)"},{"poiid":"B2094655D268A4F8429B","title":"新成三坊","lon":"121.27581531559","lat":"31.389690865052","category":"47","category_name":"住宅区","address":"迎园路415弄,485弄"},{"poiid":"B2094757D064A3F5419E","title":"老盛昌汤包馆","lon":"121.267241653","lat":"31.3812336176","category":"247","category_name":"餐饮美食","address":"上海仓城路店"},{"poiid":"B2094655D268A5F5409E","title":"新城六坊","lon":"121.27479","lat":"31.390647","category":"47","category_name":"住宅区","address":"迎园路485弄1～32号"},{"poiid":"B2094757D169A1FD409A","title":"迎园四坊","lon":"121.275","lat":"31.3901","category":"47","category_name":"住宅区","address":"上海嘉定区迎园四坊"},{"poiid":"B2094654DB69A7F4489C","title":"复华城市花园","lon":"121.27974483182","lat":"31.386499139981","category":"47","category_name":"住宅区","address":"嘉定区和政路228弄"},{"poiid":"B2094757D065A5FC4392","title":"歌顿咖啡新成店","lon":"121.2694","lat":"31.38908","category":"260","category_name":"其他","address":"嘉定区塔城东路292号(近和政路)"},{"poiid":"B2094654D469A0F9489C","title":"湖光月色·嘉贤庄","lon":"121.26937","lat":"31.38983","category":"47","category_name":"住宅区","address":"新成路"},{"poiid":"B2094654D469A0FA449A","title":"新众花园","lon":"121.27731","lat":"31.392647","category":"47","category_name":"住宅区","address":"澄浏中路3380弄"},{"poiid":"B2094757D16DA3FB439A","title":"口口咖啡法式铁板烧","lon":"121.26291","lat":"31.39523","category":"94","category_name":"西餐厅","address":"嘉定区新城路881号-C(近塔城路)"},{"poiid":"B2094654D469A0F94893","title":"嘉星小区","lon":"121.27119","lat":"31.387753","category":"47","category_name":"住宅区","address":"塔城东路255弄"},{"poiid":"B2094654D469A4FE4893","title":"塔城东路365弄","lon":"121.274","lat":"31.3937","category":"47","category_name":"住宅区","address":"塔城东路365弄"},{"poiid":"B2094757D16EAAF5459B","title":"嘉新小区","lon":"121.289644653","lat":"31.3927763534","category":"47","category_name":"住宅区","address":"上海市嘉定区嘉定·立新路"},{"poiid":"B2094655D268A7FF469E","title":"新城公园","lon":"121.26873","lat":"31.38832","category":"196","category_name":"公园","address":""},{"poiid":"B2094757D065A5F8439A","title":"珍品 仓场路站","lon":"121.27568","lat":"31.38379","category":"76","category_name":"上海菜","address":"嘉定区仓场路102号"},{"poiid":"B2094757D168A2F9409B","title":"乐天玛特超市(嘉定店)","lon":"121.274547653","lat":"31.3806481056","category":"249","category_name":"购物服务","address":"嘉定区仓场路365号2-3楼(和政路口)"},{"poiid":"B2094757D569A3FE479C","title":"伊尔茨咖啡","lon":"121.27370605","lat":"31.38731771","category":"65","category_name":"咖啡厅","address":"茹水路1180弄277号近塔城路"},{"poiid":"B2094655D36CA5FE489C","title":"澄浏中路嘉戬公路","lon":"121.28024","lat":"31.37873","category":"38","category_name":"公交车站","address":""},{"poiid":"B2094654D469A7F8459D","title":"新乐花苑","lon":"121.27296","lat":"31.386385","category":"47","category_name":"住宅区","address":"上海嘉定区迎园路277弄"},{"poiid":"B2094757D66CA2FC479F","title":"海南呀诺达(yanoda)雨林文化旅游区","lon":"121.272418653","lat":"31.3892442812","category":"500","category_name":"未知分类","address":"上海海南三亚三道农场"},{"poiid":"B2094654D469A5F5419C","title":"快乐鸟盱眙十三香龙虾","lon":"121.26595","lat":"31.38135","category":"257","category_name":"中餐厅","address":"嘉定区仓场路2758号(近迎园路)"},{"poiid":"B2094655D36CA5FB4393","title":"仓场路澄浏中路","lon":"121.27635","lat":"31.38397","category":"38","category_name":"公交车站","address":""},{"poiid":"B2094757D16AA4F4479A","title":"嘉贤庄","lon":"121.276","lat":"31.3956","category":"500","category_name":"未知分类","address":"上海市嘉定区塔城路"},{"poiid":"B2094757D66FA1F5489F","title":"百事食品(上海)有限公司嘉定分厂","lon":"121.272319653","lat":"31.3890512773","category":"500","category_name":"未知分类","address":"上海科茂路1000号"},{"poiid":"B2094757D168AAFE4398","title":"太麻里台湾私房牛肉面","lon":"121.27595765","lat":"31.383252158","category":"91","category_name":"台湾菜","address":"嘉定区仓场路116号"},{"poiid":"B2094654D469A7F8459E","title":"好德(迎园路)","lon":"121.27252","lat":"31.38656","category":"117","category_name":"便民商店/便利店","address":""},{"poiid":"B2094655D268A5FD4998","title":"迎园新村一坊","lon":"121.275","lat":"31.3862","category":"47","category_name":"住宅区","address":"新成路261弄"},{"poiid":"B2094654D469A4FA419D","title":"嘉宝花园别墅","lon":"121.271","lat":"31.3832","category":"47","category_name":"住宅区","address":"上海市嘉定区墅沟路888弄"},{"poiid":"B2094750D56BA0FE4993","title":"方舟时代广场","lon":"121.285167","lat":"31.391371","category":"47","category_name":"住宅区","address":"嘉定区仓场东路384号(近澄浏中路口)"},{"poiid":"B2094752DB68A5F5449C","title":"迪卡侬嘉定澄浏店","lon":"121.27842662803","lat":"31.38486124765","category":"119","category_name":"商场","address":"仓场东路348号"},{"poiid":"B2094654D469A0FF449B","title":"上海市公安局嘉定分局(塔城东路)","lon":"121.26699","lat":"31.38877","category":"248","category_name":"生活娱乐","address":"塔城路400号"},{"poiid":"B2094757D064A4FF479F","title":"迎园路351弄","lon":"121.269889832","lat":"31.3873691559","category":"252","category_name":"楼宇机构","address":"上海嘉定区迎园路(近和政路)"},{"poiid":"B2094757D16FA4FA489C","title":"吴姑娘特色煲(仓场店)","lon":"121.265738653","lat":"31.3821161356","category":"76","category_name":"上海菜","address":"嘉定区仓场路2871号(近迎园路)"},{"poiid":"B2094655D26BA2FA489A","title":"塔城路和政路","lon":"121.26779","lat":"31.38875","category":"38","category_name":"公交车站","address":""},{"poiid":"B2094655D36CA5FE499A","title":"澄桥","lon":"121.27121","lat":"31.39829","category":"38","category_name":"公交车站","address":""},{"poiid":"B2094757D06AA6F8459B","title":"塔城路","lon":"121.26364565","lat":"31.387504245","category":"500","category_name":"未知分类","address":"上海市嘉定区"},{"poiid":"B2094757D66CA4FC499A","title":"迎园中学东部校区足球场","lon":"121.271786653","lat":"31.3856232072","category":"500","category_name":"未知分类","address":"上海嘉定区塔新路"},{"poiid":"B2094654D469A4FE4899","title":"迎园别墅","lon":"121.268","lat":"31.388","category":"47","category_name":"住宅区","address":"嘉罗公路385号"},{"poiid":"B2094757D064AAF8429C","title":"张太和爊鸭(迎园店)","lon":"121.26682","lat":"31.38407","category":"68","category_name":"快餐厅","address":"嘉定区嘉定镇迎园中路616号(迎园北路迎园路)"},{"poiid":"B2094654D469A4FF4098","title":"新成五坊","lon":"121.26985","lat":"31.385441","category":"47","category_name":"住宅区","address":"迎园路415弄"},{"poiid":"B2094655D26FABF8419A","title":"迎园新村五、八坊","lon":"121.26623","lat":"31.38359","category":"47","category_name":"住宅区","address":"上海嘉定区迎园中路"},{"poiid":"B2094753D065A3FF4998","title":"田季干锅牛蛙主题餐厅(仓场路店)","lon":"121.27652","lat":"31.38402","category":"71","category_name":"四川菜","address":"嘉定区仓场东路54号(近澄浏中路)"},{"poiid":"B2094750DA6BA0F8479B","title":"唱九天ktv","lon":"121.276916","lat":"31.380571","category":"248","category_name":"生活娱乐","address":null},{"poiid":"B2094654D469A4FF439D","title":"南陈小区","lon":"121.27072","lat":"31.38167","category":"47","category_name":"住宅区","address":"仓场路421弄"},{"poiid":"B2094757D66BA3FA4799","title":"张太和爊鸭 仓场路店","lon":"121.266739054","lat":"31.381288793","category":"68","category_name":"快餐厅","address":"嘉定区仓场路2879号(仓场路迎园路)"},{"poiid":"B2094654D469A0FA4099","title":"新成路小学","lon":"121.27423","lat":"31.38358","category":"56","category_name":"小学","address":"嘉定区仓场路260号"},{"poiid":"B2094655D26BAAF9499A","title":"朱泾桥","lon":"121.28413","lat":"31.39304","category":"250","category_name":"公园户外","address":""}]