[{"poiid":"B2094757D06FABFF459A","title":"上海科学技术职业学院","lon":"121.25723515","lat":"31.385574228","category":"671","category_name":"高校中心点","address":"嘉定区金沙路280号"},{"poiid":"B2094757D06AA6F4439C","title":"仓场路","lon":"121.26558865","lat":"31.381247117","category":"500","category_name":"未知分类","address":"上海市嘉定区仓场路"},{"poiid":"B2094654D469A4FE459D","title":"上海市嘉定区牙病防治所","lon":"121.26079","lat":"31.38631","category":"162","category_name":"医院","address":"嘉定区塔城路261号(金沙路塔城路)"},{"poiid":"B2094757D06AA3F54093","title":"明成缘","lon":"121.25831910488","lat":"31.384932781958","category":"96","category_name":"韩国料理","address":"嘉定区金沙路201号(近塔城路)"},{"poiid":"B2094757D06BA1F4409A","title":"嘉定区委党校","lon":"121.257233","lat":"31.38462","category":"500","category_name":"未知分类","address":"上海嘉定区塔城路265号"},{"poiid":"B2094757D16DA3FB439A","title":"口口咖啡法式铁板烧","lon":"121.26291","lat":"31.39523","category":"94","category_name":"西餐厅","address":"嘉定区新城路881号-C(近塔城路)"},{"poiid":"B2094757D06AA6F8459B","title":"塔城路","lon":"121.26364565","lat":"31.387504245","category":"500","category_name":"未知分类","address":"上海市嘉定区"},{"poiid":"B2094757D06BAAFE489E","title":"上海科技学院9号楼寝室","lon":"121.25843525","lat":"31.387137438","category":"500","category_name":"未知分类","address":"上海嘉定区金沙路280号(塔城路口)"},{"poiid":"B2094654DB6AA3F8499C","title":"上海科技学院","lon":"121.25687","lat":"31.38614","category":"247","category_name":"餐饮美食","address":"嘉定区金沙路280号(金沙路塔城路)"},{"poiid":"B2094757D065A5FC4392","title":"歌顿咖啡新成店","lon":"121.2694","lat":"31.38908","category":"260","category_name":"其他","address":"嘉定区塔城东路292号(近和政路)"},{"poiid":"B2094757D065A6F8489D","title":"雪岳山韩国烧烤(嘉定店)","lon":"121.25825","lat":"31.38453","category":"96","category_name":"韩国料理","address":"嘉定区塔城路257号(近金沙路)"},{"poiid":"B2094757D065A6FB4193","title":"珍品(嘉罗公路店)","lon":"121.26207","lat":"31.38376","category":"76","category_name":"上海菜","address":"嘉定区嘉罗公路453号(宝嘉公路迎园中路)"},{"poiid":"B2094757D064A3F44992","title":"恒通驾校","lon":"121.2621","lat":"31.38737","category":"253","category_name":"校园生活","address":"嘉定区塔城东路488号(近塔城路)"},{"poiid":"B2094757D16FA4FA489C","title":"吴姑娘特色煲(仓场店)","lon":"121.265738653","lat":"31.3821161356","category":"76","category_name":"上海菜","address":"嘉定区仓场路2871号(近迎园路)"},{"poiid":"B2094654D469ABFD439B","title":"上海电视大学嘉定分校","lon":"121.25708","lat":"31.38623","category":"52","category_name":"高等院校","address":"嘉定区金沙路280"},{"poiid":"B2094654D469A4FE449C","title":"上海外国语大学嘉定外国语实验学校","lon":"121.25979","lat":"31.38351","category":"52","category_name":"高等院校","address":"嘉定区金沙路168号(近欧尚超市)"},{"poiid":"B2094654D469A5F5499F","title":"好德NO.3024","lon":"121.26294","lat":"31.38716","category":"117","category_name":"便民商店/便利店","address":"塔城东路493"},{"poiid":"B2094655D36CA0FA4993","title":"嘉定东门","lon":"121.26203","lat":"31.38712","category":"38","category_name":"公交车站","address":""},{"poiid":"B2094655D268A6F4409C","title":"西村小区","lon":"121.26316","lat":"31.386873","category":"47","category_name":"住宅区","address":"塔城东路491弄-495弄"},{"poiid":"B2094655D268A4FE499F","title":"塔城东路495弄小区","lon":"121.26269","lat":"31.38678","category":"47","category_name":"住宅区","address":"塔城东路495弄"},{"poiid":"B2094655D264A7FB4292","title":"众宇花园","lon":"121.26312","lat":"31.38744","category":"47","category_name":"住宅区","address":"上海市嘉定区塔城东路288号"},{"poiid":"B2094757D664A6F44592","title":"江湖翅客","lon":"121.258849","lat":"31.385271","category":"68","category_name":"快餐厅","address":"嘉定区塔城路174号党校东侧(近金沙路)"},{"poiid":"B2094655D268A4FE499E","title":"塔城东路495弄小区(北门)","lon":"121.26253","lat":"31.38705","category":"47","category_name":"住宅区","address":"塔城东路495弄"},{"poiid":"B2094655D268A4FD499D","title":"塔城东路492-496弄小区","lon":"121.26263","lat":"31.38769","category":"47","category_name":"住宅区","address":"塔城东路492-496弄"},{"poiid":"B2094757D06AA0FE4398","title":"夏天形象设计中心(金沙路店)","lon":"121.25784","lat":"31.38462","category":"148","category_name":"美容美发店","address":"嘉定区金沙路(近塔城路)"},{"poiid":"B2094655D26FABF8419A","title":"迎园新村五、八坊","lon":"121.26623","lat":"31.38359","category":"47","category_name":"住宅区","address":"上海嘉定区迎园中路"},{"poiid":"B2094655D268A4FE409B","title":"迎园新村十坊","lon":"121.26323","lat":"31.385235","category":"47","category_name":"住宅区","address":"新成路街道迎园路277弄"},{"poiid":"B2094654D469A5F5499B","title":"西村小区(北门)","lon":"121.26326","lat":"31.38722","category":"47","category_name":"住宅区","address":"塔城东路491-495弄"},{"poiid":"B209475DD665A0F8419E","title":"三花奶奶甜品店","lon":"121.26371","lat":"31.385597","category":"247","category_name":"餐饮美食","address":"上海市 塔城路210号"},{"poiid":"B2094757D66BA2FB469D","title":"道草日本料理","lon":"121.25798","lat":"31.3848","category":"95","category_name":"日本料理","address":"嘉定区塔城路257号(金沙路口)"},{"poiid":"B209475DD268A3FA4692","title":"Bella Ciao","lon":"121.262535","lat":"31.386783","category":"500","category_name":"未知分类","address":"上海市 塔城路295号"},{"poiid":"B2094655D268A4FD499C","title":"塔城东路492-496弄小区(南门)","lon":"121.2627","lat":"31.38755","category":"47","category_name":"住宅区","address":"塔城东路492-496弄"},{"poiid":"B2094654D469A4FE4799","title":"嘉乐花园","lon":"121.26138","lat":"31.384384","category":"47","category_name":"住宅区","address":"嘉罗公路485弄"},{"poiid":"B2094655D268A6F4409D","title":"塔城东路550弄小区(南门)","lon":"121.26185","lat":"31.38734","category":"47","category_name":"住宅区","address":"塔城东路550弄1-5号"},{"poiid":"B2094655D36CA0FA4899","title":"嘉罗公路塔城路","lon":"121.26109","lat":"31.38791","category":"38","category_name":"公交车站","address":""},{"poiid":"B2094655D268A4FE409A","title":"迎园十三坊","lon":"121.26463","lat":"31.38655","category":"47","category_name":"住宅区","address":""},{"poiid":"B2094655D268A5FE469A","title":"塔城东路550弄小区","lon":"121.26181","lat":"31.38746","category":"47","category_name":"住宅区","address":"塔城东路550弄1-5号"},{"poiid":"B2094654D469A1F9459D","title":"嘉定别墅","lon":"121.258","lat":"31.3892","category":"47","category_name":"住宅区","address":"嘉定区南大街321号(近法华塔)"},{"poiid":"B2094655D268A5FE4698","title":"天象农家庄","lon":"121.26178","lat":"31.3909","category":"257","category_name":"中餐厅","address":"嘉定区嘉罗公路800弄5号桥东首(近塔城东路)"},{"poiid":"B2094757D064AAF8429C","title":"张太和爊鸭(迎园店)","lon":"121.26682","lat":"31.38407","category":"68","category_name":"快餐厅","address":"嘉定区嘉定镇迎园中路616号(迎园北路迎园路)"},{"poiid":"B2094654D469A4FE4699","title":"嘉星绿苑","lon":"121.26098","lat":"31.385723","category":"47","category_name":"住宅区","address":"罗嘉公路531弄"},{"poiid":"B2094654D469ABFD4593","title":"上海嘉定协通别克","lon":"121.26096","lat":"31.38694","category":"158","category_name":"汽车销售","address":"塔城路8号"},{"poiid":"B2094654DB6AA5FD489D","title":"快客","lon":"121.26093","lat":"31.38751","category":"117","category_name":"便民商店/便利店","address":"嘉罗公路657"},{"poiid":"B2094654D469A5F4489E","title":"迎园新村六七坊","lon":"121.26358","lat":"31.38372","category":"47","category_name":"住宅区","address":"新成路"},{"poiid":"B2094757D16CA0FE469E","title":"阿娥汤圆店(金沙路店)","lon":"121.25817","lat":"31.3831844","category":"68","category_name":"快餐厅","address":"嘉定区金沙路(近仓场路)"},{"poiid":"B2094655D268A5FE479D","title":"嘉星绿苑(北门)","lon":"121.26167","lat":"31.3857","category":"47","category_name":"住宅区","address":"嘉罗公路531弄"},{"poiid":"B2094655D26FA1FB479C","title":"迎园十三坊(南门)","lon":"121.26441","lat":"31.38619","category":"47","category_name":"住宅区","address":""},{"poiid":"B2094654D469A4FE439A","title":"和幸日本料理","lon":"121.257507","lat":"31.385252","category":"95","category_name":"日本料理","address":"嘉定区金沙路207号(近塔城路)"},{"poiid":"B2094757D069ABF54698","title":"巴麦隆自助烤肉嘉定店","lon":"121.257041","lat":"31.384297","category":"257","category_name":"中餐厅","address":"嘉定区嘉定区塔城路267号(金沙路欧尚超市对面)"},{"poiid":"B2094655D268A4FE489D","title":"塔城路489弄小区(北门)","lon":"121.26467","lat":"31.38763","category":"47","category_name":"住宅区","address":"塔城路489弄"},{"poiid":"B2094757D06FABFF459A","title":"上海科学技术职业学院","lon":"121.25723515","lat":"31.385574228","category":"671","category_name":"高校中心点","address":"嘉定区金沙路280号"},{"poiid":"B2094757D06AA6F4439C","title":"仓场路","lon":"121.26558865","lat":"31.381247117","category":"500","category_name":"未知分类","address":"上海市嘉定区仓场路"},{"poiid":"B2094654D469A4FE459D","title":"上海市嘉定区牙病防治所","lon":"121.26079","lat":"31.38631","category":"162","category_name":"医院","address":"嘉定区塔城路261号(金沙路塔城路)"},{"poiid":"B2094757D06AA3F54093","title":"明成缘","lon":"121.25831910488","lat":"31.384932781958","category":"96","category_name":"韩国料理","address":"嘉定区金沙路201号(近塔城路)"},{"poiid":"B2094757D06BA1F4409A","title":"嘉定区委党校","lon":"121.257233","lat":"31.38462","category":"500","category_name":"未知分类","address":"上海嘉定区塔城路265号"},{"poiid":"B2094757D16DA3FB439A","title":"口口咖啡法式铁板烧","lon":"121.26291","lat":"31.39523","category":"94","category_name":"西餐厅","address":"嘉定区新城路881号-C(近塔城路)"},{"poiid":"B2094757D06AA6F8459B","title":"塔城路","lon":"121.26364565","lat":"31.387504245","category":"500","category_name":"未知分类","address":"上海市嘉定区"},{"poiid":"B2094757D06BAAFE489E","title":"上海科技学院9号楼寝室","lon":"121.25843525","lat":"31.387137438","category":"500","category_name":"未知分类","address":"上海嘉定区金沙路280号(塔城路口)"},{"poiid":"B2094654DB6AA3F8499C","title":"上海科技学院","lon":"121.25687","lat":"31.38614","category":"247","category_name":"餐饮美食","address":"嘉定区金沙路280号(金沙路塔城路)"},{"poiid":"B2094757D065A5FC4392","title":"歌顿咖啡新成店","lon":"121.2694","lat":"31.38908","category":"260","category_name":"其他","address":"嘉定区塔城东路292号(近和政路)"},{"poiid":"B2094757D065A6F8489D","title":"雪岳山韩国烧烤(嘉定店)","lon":"121.25825","lat":"31.38453","category":"96","category_name":"韩国料理","address":"嘉定区塔城路257号(近金沙路)"},{"poiid":"B2094757D065A6FB4193","title":"珍品(嘉罗公路店)","lon":"121.26207","lat":"31.38376","category":"76","category_name":"上海菜","address":"嘉定区嘉罗公路453号(宝嘉公路迎园中路)"},{"poiid":"B2094757D064A3F44992","title":"恒通驾校","lon":"121.2621","lat":"31.38737","category":"253","category_name":"校园生活","address":"嘉定区塔城东路488号(近塔城路)"},{"poiid":"B2094757D16FA4FA489C","title":"吴姑娘特色煲(仓场店)","lon":"121.265738653","lat":"31.3821161356","category":"76","category_name":"上海菜","address":"嘉定区仓场路2871号(近迎园路)"},{"poiid":"B2094654D469ABFD439B","title":"上海电视大学嘉定分校","lon":"121.25708","lat":"31.38623","category":"52","category_name":"高等院校","address":"嘉定区金沙路280"},{"poiid":"B2094654D469A4FE449C","title":"上海外国语大学嘉定外国语实验学校","lon":"121.25979","lat":"31.38351","category":"52","category_name":"高等院校","address":"嘉定区金沙路168号(近欧尚超市)"},{"poiid":"B2094654D469A5F5499F","title":"好德NO.3024","lon":"121.26294","lat":"31.38716","category":"117","category_name":"便民商店/便利店","address":"塔城东路493"},{"poiid":"B2094655D36CA0FA4993","title":"嘉定东门","lon":"121.26203","lat":"31.38712","category":"38","category_name":"公交车站","address":""},{"poiid":"B2094655D268A6F4409C","title":"西村小区","lon":"121.26316","lat":"31.386873","category":"47","category_name":"住宅区","address":"塔城东路491弄-495弄"},{"poiid":"B2094655D268A4FE499F","title":"塔城东路495弄小区","lon":"121.26269","lat":"31.38678","category":"47","category_name":"住宅区","address":"塔城东路495弄"},{"poiid":"B2094655D264A7FB4292","title":"众宇花园","lon":"121.26312","lat":"31.38744","category":"47","category_name":"住宅区","address":"上海市嘉定区塔城东路288号"},{"poiid":"B2094757D664A6F44592","title":"江湖翅客","lon":"121.258849","lat":"31.385271","category":"68","category_name":"快餐厅","address":"嘉定区塔城路174号党校东侧(近金沙路)"},{"poiid":"B2094655D268A4FE499E","title":"塔城东路495弄小区(北门)","lon":"121.26253","lat":"31.38705","category":"47","category_name":"住宅区","address":"塔城东路495弄"},{"poiid":"B2094655D268A4FD499D","title":"塔城东路492-496弄小区","lon":"121.26263","lat":"31.38769","category":"47","category_name":"住宅区","address":"塔城东路492-496弄"},{"poiid":"B2094757D06AA0FE4398","title":"夏天形象设计中心(金沙路店)","lon":"121.25784","lat":"31.38462","category":"148","category_name":"美容美发店","address":"嘉定区金沙路(近塔城路)"},{"poiid":"B2094655D26FABF8419A","title":"迎园新村五、八坊","lon":"121.26623","lat":"31.38359","category":"47","category_name":"住宅区","address":"上海嘉定区迎园中路"},{"poiid":"B2094655D268A4FE409B","title":"迎园新村十坊","lon":"121.26323","lat":"31.385235","category":"47","category_name":"住宅区","address":"新成路街道迎园路277弄"},{"poiid":"B2094654D469A5F5499B","title":"西村小区(北门)","lon":"121.26326","lat":"31.38722","category":"47","category_name":"住宅区","address":"塔城东路491-495弄"},{"poiid":"B209475DD665A0F8419E","title":"三花奶奶甜品店","lon":"121.26371","lat":"31.385597","category":"247","category_name":"餐饮美食","address":"上海市 塔城路210号"},{"poiid":"B2094757D66BA2FB469D","title":"道草日本料理","lon":"121.25798","lat":"31.3848","category":"95","category_name":"日本料理","address":"嘉定区塔城路257号(金沙路口)"},{"poiid":"B209475DD268A3FA4692","title":"Bella Ciao","lon":"121.262535","lat":"31.386783","category":"500","category_name":"未知分类","address":"上海市 塔城路295号"},{"poiid":"B2094655D268A4FD499C","title":"塔城东路492-496弄小区(南门)","lon":"121.2627","lat":"31.38755","category":"47","category_name":"住宅区","address":"塔城东路492-496弄"},{"poiid":"B2094654D469A4FE4799","title":"嘉乐花园","lon":"121.26138","lat":"31.384384","category":"47","category_name":"住宅区","address":"嘉罗公路485弄"},{"poiid":"B2094655D268A6F4409D","title":"塔城东路550弄小区(南门)","lon":"121.26185","lat":"31.38734","category":"47","category_name":"住宅区","address":"塔城东路550弄1-5号"},{"poiid":"B2094655D36CA0FA4899","title":"嘉罗公路塔城路","lon":"121.26109","lat":"31.38791","category":"38","category_name":"公交车站","address":""},{"poiid":"B2094655D268A4FE409A","title":"迎园十三坊","lon":"121.26463","lat":"31.38655","category":"47","category_name":"住宅区","address":""},{"poiid":"B2094655D268A5FE469A","title":"塔城东路550弄小区","lon":"121.26181","lat":"31.38746","category":"47","category_name":"住宅区","address":"塔城东路550弄1-5号"},{"poiid":"B2094654D469A1F9459D","title":"嘉定别墅","lon":"121.258","lat":"31.3892","category":"47","category_name":"住宅区","address":"嘉定区南大街321号(近法华塔)"},{"poiid":"B2094655D268A5FE4698","title":"天象农家庄","lon":"121.26178","lat":"31.3909","category":"257","category_name":"中餐厅","address":"嘉定区嘉罗公路800弄5号桥东首(近塔城东路)"},{"poiid":"B2094757D064AAF8429C","title":"张太和爊鸭(迎园店)","lon":"121.26682","lat":"31.38407","category":"68","category_name":"快餐厅","address":"嘉定区嘉定镇迎园中路616号(迎园北路迎园路)"},{"poiid":"B2094654D469A4FE4699","title":"嘉星绿苑","lon":"121.26098","lat":"31.385723","category":"47","category_name":"住宅区","address":"罗嘉公路531弄"},{"poiid":"B2094654D469ABFD4593","title":"上海嘉定协通别克","lon":"121.26096","lat":"31.38694","category":"158","category_name":"汽车销售","address":"塔城路8号"},{"poiid":"B2094654DB6AA5FD489D","title":"快客","lon":"121.26093","lat":"31.38751","category":"117","category_name":"便民商店/便利店","address":"嘉罗公路657"},{"poiid":"B2094654D469A5F4489E","title":"迎园新村六七坊","lon":"121.26358","lat":"31.38372","category":"47","category_name":"住宅区","address":"新成路"},{"poiid":"B2094757D16CA0FE469E","title":"阿娥汤圆店(金沙路店)","lon":"121.25817","lat":"31.3831844","category":"68","category_name":"快餐厅","address":"嘉定区金沙路(近仓场路)"},{"poiid":"B2094655D268A5FE479D","title":"嘉星绿苑(北门)","lon":"121.26167","lat":"31.3857","category":"47","category_name":"住宅区","address":"嘉罗公路531弄"},{"poiid":"B2094655D26FA1FB479C","title":"迎园十三坊(南门)","lon":"121.26441","lat":"31.38619","category":"47","category_name":"住宅区","address":""},{"poiid":"B2094654D469A4FE439A","title":"和幸日本料理","lon":"121.257507","lat":"31.385252","category":"95","category_name":"日本料理","address":"嘉定区金沙路207号(近塔城路)"},{"poiid":"B2094757D069ABF54698","title":"巴麦隆自助烤肉嘉定店","lon":"121.257041","lat":"31.384297","category":"257","category_name":"中餐厅","address":"嘉定区嘉定区塔城路267号(金沙路欧尚超市对面)"},{"poiid":"B2094655D268A4FE489D","title":"塔城路489弄小区(北门)","lon":"121.26467","lat":"31.38763","category":"47","category_name":"住宅区","address":"塔城路489弄"},{"poiid":"B2094757D06FABFF459A","title":"上海科学技术职业学院","lon":"121.25723515","lat":"31.385574228","category":"671","category_name":"高校中心点","address":"嘉定区金沙路280号"},{"poiid":"B2094757D06AA6F4439C","title":"仓场路","lon":"121.26558865","lat":"31.381247117","category":"500","category_name":"未知分类","address":"上海市嘉定区仓场路"},{"poiid":"B2094654D469A4FE459D","title":"上海市嘉定区牙病防治所","lon":"121.26079","lat":"31.38631","category":"162","category_name":"医院","address":"嘉定区塔城路261号(金沙路塔城路)"},{"poiid":"B2094757D06AA3F54093","title":"明成缘","lon":"121.25831910488","lat":"31.384932781958","category":"96","category_name":"韩国料理","address":"嘉定区金沙路201号(近塔城路)"},{"poiid":"B2094757D06BA1F4409A","title":"嘉定区委党校","lon":"121.257233","lat":"31.38462","category":"500","category_name":"未知分类","address":"上海嘉定区塔城路265号"},{"poiid":"B2094757D16DA3FB439A","title":"口口咖啡法式铁板烧","lon":"121.26291","lat":"31.39523","category":"94","category_name":"西餐厅","address":"嘉定区新城路881号-C(近塔城路)"},{"poiid":"B2094757D06AA6F8459B","title":"塔城路","lon":"121.26364565","lat":"31.387504245","category":"500","category_name":"未知分类","address":"上海市嘉定区"},{"poiid":"B2094757D06BAAFE489E","title":"上海科技学院9号楼寝室","lon":"121.25843525","lat":"31.387137438","category":"500","category_name":"未知分类","address":"上海嘉定区金沙路280号(塔城路口)"},{"poiid":"B2094654DB6AA3F8499C","title":"上海科技学院","lon":"121.25687","lat":"31.38614","category":"247","category_name":"餐饮美食","address":"嘉定区金沙路280号(金沙路塔城路)"},{"poiid":"B2094757D065A5FC4392","title":"歌顿咖啡新成店","lon":"121.2694","lat":"31.38908","category":"260","category_name":"其他","address":"嘉定区塔城东路292号(近和政路)"},{"poiid":"B2094757D065A6F8489D","title":"雪岳山韩国烧烤(嘉定店)","lon":"121.25825","lat":"31.38453","category":"96","category_name":"韩国料理","address":"嘉定区塔城路257号(近金沙路)"},{"poiid":"B2094757D065A6FB4193","title":"珍品(嘉罗公路店)","lon":"121.26207","lat":"31.38376","category":"76","category_name":"上海菜","address":"嘉定区嘉罗公路453号(宝嘉公路迎园中路)"},{"poiid":"B2094757D064A3F44992","title":"恒通驾校","lon":"121.2621","lat":"31.38737","category":"253","category_name":"校园生活","address":"嘉定区塔城东路488号(近塔城路)"},{"poiid":"B2094757D16FA4FA489C","title":"吴姑娘特色煲(仓场店)","lon":"121.265738653","lat":"31.3821161356","category":"76","category_name":"上海菜","address":"嘉定区仓场路2871号(近迎园路)"},{"poiid":"B2094654D469ABFD439B","title":"上海电视大学嘉定分校","lon":"121.25708","lat":"31.38623","category":"52","category_name":"高等院校","address":"嘉定区金沙路280"},{"poiid":"B2094654D469A4FE449C","title":"上海外国语大学嘉定外国语实验学校","lon":"121.25979","lat":"31.38351","category":"52","category_name":"高等院校","address":"嘉定区金沙路168号(近欧尚超市)"},{"poiid":"B2094654D469A5F5499F","title":"好德NO.3024","lon":"121.26294","lat":"31.38716","category":"117","category_name":"便民商店/便利店","address":"塔城东路493"},{"poiid":"B2094655D36CA0FA4993","title":"嘉定东门","lon":"121.26203","lat":"31.38712","category":"38","category_name":"公交车站","address":""},{"poiid":"B2094655D268A6F4409C","title":"西村小区","lon":"121.26316","lat":"31.386873","category":"47","category_name":"住宅区","address":"塔城东路491弄-495弄"},{"poiid":"B2094655D268A4FE499F","title":"塔城东路495弄小区","lon":"121.26269","lat":"31.38678","category":"47","category_name":"住宅区","address":"塔城东路495弄"},{"poiid":"B2094655D264A7FB4292","title":"众宇花园","lon":"121.26312","lat":"31.38744","category":"47","category_name":"住宅区","address":"上海市嘉定区塔城东路288号"},{"poiid":"B2094757D664A6F44592","title":"江湖翅客","lon":"121.258849","lat":"31.385271","category":"68","category_name":"快餐厅","address":"嘉定区塔城路174号党校东侧(近金沙路)"},{"poiid":"B2094655D268A4FE499E","title":"塔城东路495弄小区(北门)","lon":"121.26253","lat":"31.38705","category":"47","category_name":"住宅区","address":"塔城东路495弄"},{"poiid":"B2094655D268A4FD499D","title":"塔城东路492-496弄小区","lon":"121.26263","lat":"31.38769","category":"47","category_name":"住宅区","address":"塔城东路492-496弄"},{"poiid":"B2094757D06AA0FE4398","title":"夏天形象设计中心(金沙路店)","lon":"121.25784","lat":"31.38462","category":"148","category_name":"美容美发店","address":"嘉定区金沙路(近塔城路)"},{"poiid":"B2094655D26FABF8419A","title":"迎园新村五、八坊","lon":"121.26623","lat":"31.38359","category":"47","category_name":"住宅区","address":"上海嘉定区迎园中路"},{"poiid":"B2094655D268A4FE409B","title":"迎园新村十坊","lon":"121.26323","lat":"31.385235","category":"47","category_name":"住宅区","address":"新成路街道迎园路277弄"},{"poiid":"B2094654D469A5F5499B","title":"西村小区(北门)","lon":"121.26326","lat":"31.38722","category":"47","category_name":"住宅区","address":"塔城东路491-495弄"},{"poiid":"B209475DD665A0F8419E","title":"三花奶奶甜品店","lon":"121.26371","lat":"31.385597","category":"247","category_name":"餐饮美食","address":"上海市 塔城路210号"},{"poiid":"B2094757D66BA2FB469D","title":"道草日本料理","lon":"121.25798","lat":"31.3848","category":"95","category_name":"日本料理","address":"嘉定区塔城路257号(金沙路口)"},{"poiid":"B209475DD268A3FA4692","title":"Bella Ciao","lon":"121.262535","lat":"31.386783","category":"500","category_name":"未知分类","address":"上海市 塔城路295号"},{"poiid":"B2094655D268A4FD499C","title":"塔城东路492-496弄小区(南门)","lon":"121.2627","lat":"31.38755","category":"47","category_name":"住宅区","address":"塔城东路492-496弄"},{"poiid":"B2094654D469A4FE4799","title":"嘉乐花园","lon":"121.26138","lat":"31.384384","category":"47","category_name":"住宅区","address":"嘉罗公路485弄"},{"poiid":"B2094655D268A6F4409D","title":"塔城东路550弄小区(南门)","lon":"121.26185","lat":"31.38734","category":"47","category_name":"住宅区","address":"塔城东路550弄1-5号"},{"poiid":"B2094655D36CA0FA4899","title":"嘉罗公路塔城路","lon":"121.26109","lat":"31.38791","category":"38","category_name":"公交车站","address":""},{"poiid":"B2094655D268A4FE409A","title":"迎园十三坊","lon":"121.26463","lat":"31.38655","category":"47","category_name":"住宅区","address":""},{"poiid":"B2094655D268A5FE469A","title":"塔城东路550弄小区","lon":"121.26181","lat":"31.38746","category":"47","category_name":"住宅区","address":"塔城东路550弄1-5号"},{"poiid":"B2094654D469A1F9459D","title":"嘉定别墅","lon":"121.258","lat":"31.3892","category":"47","category_name":"住宅区","address":"嘉定区南大街321号(近法华塔)"},{"poiid":"B2094655D268A5FE4698","title":"天象农家庄","lon":"121.26178","lat":"31.3909","category":"257","category_name":"中餐厅","address":"嘉定区嘉罗公路800弄5号桥东首(近塔城东路)"},{"poiid":"B2094757D064AAF8429C","title":"张太和爊鸭(迎园店)","lon":"121.26682","lat":"31.38407","category":"68","category_name":"快餐厅","address":"嘉定区嘉定镇迎园中路616号(迎园北路迎园路)"},{"poiid":"B2094654D469A4FE4699","title":"嘉星绿苑","lon":"121.26098","lat":"31.385723","category":"47","category_name":"住宅区","address":"罗嘉公路531弄"},{"poiid":"B2094654D469ABFD4593","title":"上海嘉定协通别克","lon":"121.26096","lat":"31.38694","category":"158","category_name":"汽车销售","address":"塔城路8号"},{"poiid":"B2094654DB6AA5FD489D","title":"快客","lon":"121.26093","lat":"31.38751","category":"117","category_name":"便民商店/便利店","address":"嘉罗公路657"},{"poiid":"B2094654D469A5F4489E","title":"迎园新村六七坊","lon":"121.26358","lat":"31.38372","category":"47","category_name":"住宅区","address":"新成路"},{"poiid":"B2094757D16CA0FE469E","title":"阿娥汤圆店(金沙路店)","lon":"121.25817","lat":"31.3831844","category":"68","category_name":"快餐厅","address":"嘉定区金沙路(近仓场路)"},{"poiid":"B2094655D268A5FE479D","title":"嘉星绿苑(北门)","lon":"121.26167","lat":"31.3857","category":"47","category_name":"住宅区","address":"嘉罗公路531弄"},{"poiid":"B2094655D26FA1FB479C","title":"迎园十三坊(南门)","lon":"121.26441","lat":"31.38619","category":"47","category_name":"住宅区","address":""},{"poiid":"B2094654D469A4FE439A","title":"和幸日本料理","lon":"121.257507","lat":"31.385252","category":"95","category_name":"日本料理","address":"嘉定区金沙路207号(近塔城路)"},{"poiid":"B2094757D069ABF54698","title":"巴麦隆自助烤肉嘉定店","lon":"121.257041","lat":"31.384297","category":"257","category_name":"中餐厅","address":"嘉定区嘉定区塔城路267号(金沙路欧尚超市对面)"},{"poiid":"B2094655D268A4FE489D","title":"塔城路489弄小区(北门)","lon":"121.26467","lat":"31.38763","category":"47","category_name":"住宅区","address":"塔城路489弄"},{"poiid":"B2094757D06FABFF459A","title":"上海科学技术职业学院","lon":"121.25723515","lat":"31.385574228","category":"671","category_name":"高校中心点","address":"嘉定区金沙路280号"},{"poiid":"B2094757D06AA6F4439C","title":"仓场路","lon":"121.26558865","lat":"31.381247117","category":"500","category_name":"未知分类","address":"上海市嘉定区仓场路"},{"poiid":"B2094654D469A4FE459D","title":"上海市嘉定区牙病防治所","lon":"121.26079","lat":"31.38631","category":"162","category_name":"医院","address":"嘉定区塔城路261号(金沙路塔城路)"},{"poiid":"B2094757D06AA3F54093","title":"明成缘","lon":"121.25831910488","lat":"31.384932781958","category":"96","category_name":"韩国料理","address":"嘉定区金沙路201号(近塔城路)"},{"poiid":"B2094757D06BA1F4409A","title":"嘉定区委党校","lon":"121.257233","lat":"31.38462","category":"500","category_name":"未知分类","address":"上海嘉定区塔城路265号"},{"poiid":"B2094757D16DA3FB439A","title":"口口咖啡法式铁板烧","lon":"121.26291","lat":"31.39523","category":"94","category_name":"西餐厅","address":"嘉定区新城路881号-C(近塔城路)"},{"poiid":"B2094757D06AA6F8459B","title":"塔城路","lon":"121.26364565","lat":"31.387504245","category":"500","category_name":"未知分类","address":"上海市嘉定区"},{"poiid":"B2094757D06BAAFE489E","title":"上海科技学院9号楼寝室","lon":"121.25843525","lat":"31.387137438","category":"500","category_name":"未知分类","address":"上海嘉定区金沙路280号(塔城路口)"},{"poiid":"B2094654DB6AA3F8499C","title":"上海科技学院","lon":"121.25687","lat":"31.38614","category":"247","category_name":"餐饮美食","address":"嘉定区金沙路280号(金沙路塔城路)"},{"poiid":"B2094757D065A5FC4392","title":"歌顿咖啡新成店","lon":"121.2694","lat":"31.38908","category":"260","category_name":"其他","address":"嘉定区塔城东路292号(近和政路)"},{"poiid":"B2094757D065A6F8489D","title":"雪岳山韩国烧烤(嘉定店)","lon":"121.25825","lat":"31.38453","category":"96","category_name":"韩国料理","address":"嘉定区塔城路257号(近金沙路)"},{"poiid":"B2094757D065A6FB4193","title":"珍品(嘉罗公路店)","lon":"121.26207","lat":"31.38376","category":"76","category_name":"上海菜","address":"嘉定区嘉罗公路453号(宝嘉公路迎园中路)"},{"poiid":"B2094757D064A3F44992","title":"恒通驾校","lon":"121.2621","lat":"31.38737","category":"253","category_name":"校园生活","address":"嘉定区塔城东路488号(近塔城路)"},{"poiid":"B2094757D16FA4FA489C","title":"吴姑娘特色煲(仓场店)","lon":"121.265738653","lat":"31.3821161356","category":"76","category_name":"上海菜","address":"嘉定区仓场路2871号(近迎园路)"},{"poiid":"B2094654D469ABFD439B","title":"上海电视大学嘉定分校","lon":"121.25708","lat":"31.38623","category":"52","category_name":"高等院校","address":"嘉定区金沙路280"},{"poiid":"B2094654D469A4FE449C","title":"上海外国语大学嘉定外国语实验学校","lon":"121.25979","lat":"31.38351","category":"52","category_name":"高等院校","address":"嘉定区金沙路168号(近欧尚超市)"},{"poiid":"B2094654D469A5F5499F","title":"好德NO.3024","lon":"121.26294","lat":"31.38716","category":"117","category_name":"便民商店/便利店","address":"塔城东路493"},{"poiid":"B2094655D36CA0FA4993","title":"嘉定东门","lon":"121.26203","lat":"31.38712","category":"38","category_name":"公交车站","address":""},{"poiid":"B2094655D268A6F4409C","title":"西村小区","lon":"121.26316","lat":"31.386873","category":"47","category_name":"住宅区","address":"塔城东路491弄-495弄"},{"poiid":"B2094655D268A4FE499F","title":"塔城东路495弄小区","lon":"121.26269","lat":"31.38678","category":"47","category_name":"住宅区","address":"塔城东路495弄"},{"poiid":"B2094655D264A7FB4292","title":"众宇花园","lon":"121.26312","lat":"31.38744","category":"47","category_name":"住宅区","address":"上海市嘉定区塔城东路288号"},{"poiid":"B2094757D664A6F44592","title":"江湖翅客","lon":"121.258849","lat":"31.385271","category":"68","category_name":"快餐厅","address":"嘉定区塔城路174号党校东侧(近金沙路)"},{"poiid":"B2094655D268A4FE499E","title":"塔城东路495弄小区(北门)","lon":"121.26253","lat":"31.38705","category":"47","category_name":"住宅区","address":"塔城东路495弄"},{"poiid":"B2094655D268A4FD499D","title":"塔城东路492-496弄小区","lon":"121.26263","lat":"31.38769","category":"47","category_name":"住宅区","address":"塔城东路492-496弄"},{"poiid":"B2094757D06AA0FE4398","title":"夏天形象设计中心(金沙路店)","lon":"121.25784","lat":"31.38462","category":"148","category_name":"美容美发店","address":"嘉定区金沙路(近塔城路)"},{"poiid":"B2094655D26FABF8419A","title":"迎园新村五、八坊","lon":"121.26623","lat":"31.38359","category":"47","category_name":"住宅区","address":"上海嘉定区迎园中路"},{"poiid":"B2094655D268A4FE409B","title":"迎园新村十坊","lon":"121.26323","lat":"31.385235","category":"47","category_name":"住宅区","address":"新成路街道迎园路277弄"},{"poiid":"B2094654D469A5F5499B","title":"西村小区(北门)","lon":"121.26326","lat":"31.38722","category":"47","category_name":"住宅区","address":"塔城东路491-495弄"},{"poiid":"B209475DD665A0F8419E","title":"三花奶奶甜品店","lon":"121.26371","lat":"31.385597","category":"247","category_name":"餐饮美食","address":"上海市 塔城路210号"},{"poiid":"B2094757D66BA2FB469D","title":"道草日本料理","lon":"121.25798","lat":"31.3848","category":"95","category_name":"日本料理","address":"嘉定区塔城路257号(金沙路口)"},{"poiid":"B209475DD268A3FA4692","title":"Bella Ciao","lon":"121.262535","lat":"31.386783","category":"500","category_name":"未知分类","address":"上海市 塔城路295号"},{"poiid":"B2094655D268A4FD499C","title":"塔城东路492-496弄小区(南门)","lon":"121.2627","lat":"31.38755","category":"47","category_name":"住宅区","address":"塔城东路492-496弄"},{"poiid":"B2094654D469A4FE4799","title":"嘉乐花园","lon":"121.26138","lat":"31.384384","category":"47","category_name":"住宅区","address":"嘉罗公路485弄"},{"poiid":"B2094655D268A6F4409D","title":"塔城东路550弄小区(南门)","lon":"121.26185","lat":"31.38734","category":"47","category_name":"住宅区","address":"塔城东路550弄1-5号"},{"poiid":"B2094655D36CA0FA4899","title":"嘉罗公路塔城路","lon":"121.26109","lat":"31.38791","category":"38","category_name":"公交车站","address":""},{"poiid":"B2094655D268A4FE409A","title":"迎园十三坊","lon":"121.26463","lat":"31.38655","category":"47","category_name":"住宅区","address":""},{"poiid":"B2094655D268A5FE469A","title":"塔城东路550弄小区","lon":"121.26181","lat":"31.38746","category":"47","category_name":"住宅区","address":"塔城东路550弄1-5号"},{"poiid":"B2094654D469A1F9459D","title":"嘉定别墅","lon":"121.258","lat":"31.3892","category":"47","category_name":"住宅区","address":"嘉定区南大街321号(近法华塔)"},{"poiid":"B2094655D268A5FE4698","title":"天象农家庄","lon":"121.26178","lat":"31.3909","category":"257","category_name":"中餐厅","address":"嘉定区嘉罗公路800弄5号桥东首(近塔城东路)"},{"poiid":"B2094757D064AAF8429C","title":"张太和爊鸭(迎园店)","lon":"121.26682","lat":"31.38407","category":"68","category_name":"快餐厅","address":"嘉定区嘉定镇迎园中路616号(迎园北路迎园路)"},{"poiid":"B2094654D469A4FE4699","title":"嘉星绿苑","lon":"121.26098","lat":"31.385723","category":"47","category_name":"住宅区","address":"罗嘉公路531弄"},{"poiid":"B2094654D469ABFD4593","title":"上海嘉定协通别克","lon":"121.26096","lat":"31.38694","category":"158","category_name":"汽车销售","address":"塔城路8号"},{"poiid":"B2094654DB6AA5FD489D","title":"快客","lon":"121.26093","lat":"31.38751","category":"117","category_name":"便民商店/便利店","address":"嘉罗公路657"},{"poiid":"B2094654D469A5F4489E","title":"迎园新村六七坊","lon":"121.26358","lat":"31.38372","category":"47","category_name":"住宅区","address":"新成路"},{"poiid":"B2094757D16CA0FE469E","title":"阿娥汤圆店(金沙路店)","lon":"121.25817","lat":"31.3831844","category":"68","category_name":"快餐厅","address":"嘉定区金沙路(近仓场路)"},{"poiid":"B2094655D268A5FE479D","title":"嘉星绿苑(北门)","lon":"121.26167","lat":"31.3857","category":"47","category_name":"住宅区","address":"嘉罗公路531弄"},{"poiid":"B2094655D26FA1FB479C","title":"迎园十三坊(南门)","lon":"121.26441","lat":"31.38619","category":"47","category_name":"住宅区","address":""},{"poiid":"B2094654D469A4FE439A","title":"和幸日本料理","lon":"121.257507","lat":"31.385252","category":"95","category_name":"日本料理","address":"嘉定区金沙路207号(近塔城路)"},{"poiid":"B2094757D069ABF54698","title":"巴麦隆自助烤肉嘉定店","lon":"121.257041","lat":"31.384297","category":"257","category_name":"中餐厅","address":"嘉定区嘉定区塔城路267号(金沙路欧尚超市对面)"},{"poiid":"B2094655D268A4FE489D","title":"塔城路489弄小区(北门)","lon":"121.26467","lat":"31.38763","category":"47","category_name":"住宅区","address":"塔城路489弄"}]