[{"poiid":"B2094757D069A3FE4798","title":"爱磨工坊 IMO Factory","lon":"121.2500655","lat":"31.3680121","category":"67","category_name":"甜品店","address":"嘉定区福海路280-1号"},{"poiid":"B2094757D06FA0F5479E","title":"白银路地铁站","lon":"121.24574053","lat":"31.344687124","category":"36","category_name":"地铁站","address":"上海轨道交通 十一号线 轨交白银路站 11"},{"poiid":"B2094750D26EABFF439C","title":"嘉定妇幼保健医院","lon":"121.250595","lat":"31.356437","category":"162","category_name":"医院","address":"高台路1216号"},{"poiid":"B2094757D068A1FC4792","title":"两季烧烤","lon":"121.25017","lat":"31.36805","category":"68","category_name":"快餐厅","address":"嘉定区福海路276、278号(联华超市和来伊份中间)"},{"poiid":"B2094757D06FA4F8439B","title":"清水颐园","lon":"121.2375","lat":"31.368086","category":"47","category_name":"住宅区","address":"上海裕民路1000弄"},{"poiid":"B2094757D06BA0FF489E","title":"保利家园","lon":"121.25768","lat":"31.355701","category":"47","category_name":"住宅区","address":"上海嘉定区嘉定新城洪德路333弄"},{"poiid":"B2094654D469A1FE4798","title":"嘉定区国家税务局第八税务所","lon":"121.24925","lat":"31.36447","category":"250","category_name":"公园户外","address":"叶城路912"},{"poiid":"B2094757D06AA6FD4792","title":"老盛昌 苏州汤包馆","lon":"121.249237","lat":"31.367495","category":"247","category_name":"餐饮美食","address":"上海嘉定区福海路313号"},{"poiid":"B2094750D66FAAF4469F","title":"上海市嘉定区妇幼保健院","lon":"121.247322","lat":"31.349636","category":"162","category_name":"医院","address":"嘉定区高台路1216号"},{"poiid":"B2094655D36DA0F44393","title":"永盛路回城南路","lon":"121.24788","lat":"31.35812","category":"38","category_name":"公交车站","address":""},{"poiid":"B2094757D16FA2FB429C","title":"新城金郡","lon":"121.239354289","lat":"31.3435560224","category":"47","category_name":"住宅区","address":"上海白银路地铁站"},{"poiid":"B2094750D26CA6FF479D","title":"嘉定妇幼保健院","lon":"121.2448935449492","lat":"31.35352901311892","category":"162","category_name":"医院","address":"高台路"},{"poiid":"B2094655D268ABFF479F","title":"Ａ３０永盛路收费站","lon":"121.24566","lat":"31.35415","category":"267","category_name":"收费站","address":""},{"poiid":"B2094757D165A2F5429C","title":"嘉定新城示范性高级中学","lon":"121.245029053","lat":"31.3533350908","category":"500","category_name":"未知分类","address":"上海嘉定区嘉定新城东至合作路，南至洪德路，西至胜辛路，北至城固路"},{"poiid":"B2094757DA64A1F84899","title":"浦发香舍","lon":"121.242668","lat":"31.365507","category":"252","category_name":"楼宇机构","address":"上海市嘉定区福海路800弄"},{"poiid":"B2094654D469A2FF469A","title":"上海采埃孚转向机有限公司","lon":"121.24752","lat":"31.3586","category":"263","category_name":"公司","address":"永盛路2001号"},{"poiid":"B2094655D36DA0F4439F","title":"永盛路白银路","lon":"121.25342","lat":"31.34923","category":"38","category_name":"公交车站","address":""},{"poiid":"B2094757D464A7FC4893","title":"金殿大酒店","lon":"121.24287","lat":"31.36795","category":"76","category_name":"上海菜","address":"嘉定区永盛路2651号(近福海路)"},{"poiid":"B2094654D469A1FD449D","title":"嘉定区南苑中学","lon":"121.24172","lat":"31.36274","category":"55","category_name":"中学","address":"普惠路350"},{"poiid":"B2094751D26BA1FC409F","title":"上海中青旅纽宾凯国际大酒店","lon":"121.244634","lat":"31.362456","category":"251","category_name":"出行住宿","address":"叶城路1128号"},{"poiid":"B2094757D065A1F5469F","title":"G1501永盛路收费站","lon":"121.24659","lat":"31.359232","category":"267","category_name":"收费站","address":"上海近永盛路"},{"poiid":"B2094654DB65A5F8429E","title":"嘉西中学","lon":"121.24593","lat":"31.35911","category":"55","category_name":"中学","address":"嘉定区嘉黄路254号"},{"poiid":"B2094654D469A2FF4798","title":"富士通将军(上海)有限公司","lon":"121.24135","lat":"31.35666","category":"263","category_name":"公司","address":"回城南路1720"},{"poiid":"B2094655D264A3F44792","title":"永盛路桥","lon":"121.249","lat":"31.35678","category":"250","category_name":"公园户外","address":""},{"poiid":"B2094757D16CA4FE489F","title":"伊诺咖啡(回城店)","lon":"121.25564","lat":"31.36112","category":"65","category_name":"咖啡厅","address":"嘉定区回城南路1128号"},{"poiid":"B2094757D064A2FA4792","title":"京东商城华东地区总部","lon":"121.249246","lat":"31.364476","category":"119","category_name":"商场","address":"嘉定区叶城路912号"},{"poiid":"B2094655D36CA4FD4098","title":"白银路阿克苏路","lon":"121.25992","lat":"31.35259","category":"38","category_name":"公交车站","address":""},{"poiid":"B2094654DB6AA6FA4893","title":"钇微(上海)科技有限公司(城固路)","lon":"121.24871","lat":"31.35311","category":"263","category_name":"公司","address":"洪德路918号"},{"poiid":"B2094655D36DA6FC4899","title":"白银路","lon":"121.24572","lat":"31.34468","category":"38","category_name":"公交车站","address":""},{"poiid":"B2094654D469A1FD439F","title":"叶城三街坊小区","lon":"121.23655","lat":"31.36518","category":"47","category_name":"住宅区","address":"裕海路1028弄96"},{"poiid":"B2094750DB6EA7F9489A","title":"上海市嘉定区人民法院","lon":"121.256591","lat":"31.351579","category":"608","category_name":"法院","address":"德富路1221号"},{"poiid":"B2094654D469A2FF4793","title":"上海中科高科技工业园","lon":"121.23872","lat":"31.35872","category":"45","category_name":"产业园区","address":"叶城路1411"},{"poiid":"B2094757D065A4F9499D","title":"浦顺768精菜馆","lon":"121.23912565","lat":"31.360639438","category":"247","category_name":"餐饮美食","address":"上海福海路768号"},{"poiid":"B2094750D564A1FC4798","title":"龙湖蔚澜香醍","lon":"121.253644","lat":"31.351796","category":"47","category_name":"住宅区","address":"上海市嘉定区云谷路1388弄(近塔秀路)"},{"poiid":"B2094757D169ABF44293","title":"上海航天电子有限公司","lon":"121.23249865","lat":"31.360679439","category":"263","category_name":"公司","address":"上海市嘉定区叶城路1518号"},{"poiid":"B2094654D469A2F8419A","title":"嘉定工业区经济城一园区","lon":"121.24845","lat":"31.3626","category":"45","category_name":"产业园区","address":"叶城路925"},{"poiid":"B2094655D36DA0FA409C","title":"叶城路永盛路","lon":"121.24477","lat":"31.36237","category":"38","category_name":"公交车站","address":""},{"poiid":"B2094751D56BA6FC459C","title":"嘉定国资金融大厦","lon":"121.252938","lat":"31.351649","category":"263","category_name":"公司","address":"德富路1288号"},{"poiid":"B2094655D268A7F4429B","title":"右岸嘉园","lon":"121.2473","lat":"31.364386","category":"47","category_name":"住宅区","address":"上海市嘉定区良舍路199弄"},{"poiid":"B2094655D268A1F84992","title":"叶城五街坊","lon":"121.23521","lat":"31.36625","category":"47","category_name":"住宅区","address":"裕民路1180-1182"},{"poiid":"B2094757D66DA0FC499A","title":"盛创企业家园","lon":"121.245934","lat":"31.359114","category":"500","category_name":"未知分类","address":"上海嘉定区嘉罗公路1661弄"},{"poiid":"B2094757D568A4FF449A","title":"新城西尚海","lon":"121.2515539","lat":"31.34901889","category":"47","category_name":"住宅区","address":"嘉定新城轨道交通11号线白银路站"},{"poiid":"B2094757D16FA6F9459E","title":"胜利村餐厅","lon":"121.23987","lat":"31.36224","category":"500","category_name":"未知分类","address":"嘉定区福海路999号查看地图"},{"poiid":"B2094757D169A4FF409C","title":"嘉定区叶城小学","lon":"121.242001653","lat":"31.3617584615","category":"500","category_name":"未知分类","address":"嘉定区普惠路350号(近叶城路)"},{"poiid":"B2094757DA69A2FF479C","title":"西上海沃尔沃","lon":"121.24863623812","lat":"31.358480896323","category":"639","category_name":"汽车交通类公司","address":"嘉定区永盛路2018号3幢(近回城南路)"},{"poiid":"B2094654D469A2FE489B","title":"南苑七村","lon":"121.25069","lat":"31.367052","category":"47","category_name":"住宅区","address":"福海路281弄"},{"poiid":"B2094757D16BA0FC429F","title":"叶城幼儿园","lon":"121.244083","lat":"31.364004","category":"57","category_name":"幼儿园","address":"近郊嘉定区嘉黄公路胜辛路"},{"poiid":"B2094757D66DA6FD4792","title":"盘古天地","lon":"121.246903389","lat":"31.3424915005","category":"500","category_name":"未知分类","address":"上海云屏路1188号"},{"poiid":"B2094654D469A2F84098","title":"上海汽车制动系统有限公司(招贤路)","lon":"121.25074","lat":"31.36069","category":"263","category_name":"公司","address":"招贤路385"},{"poiid":"B2094757D064ABF9429A","title":"张太和(永盛店)","lon":"121.24487107","lat":"31.366340864","category":"68","category_name":"快餐厅","address":"上海永盛路2601弄18号"},{"poiid":"B2094757D069A3FE4798","title":"爱磨工坊 IMO Factory","lon":"121.2500655","lat":"31.3680121","category":"67","category_name":"甜品店","address":"嘉定区福海路280-1号"},{"poiid":"B2094757D06FA0F5479E","title":"白银路地铁站","lon":"121.24574053","lat":"31.344687124","category":"36","category_name":"地铁站","address":"上海轨道交通 十一号线 轨交白银路站 11"},{"poiid":"B2094750D26EABFF439C","title":"嘉定妇幼保健医院","lon":"121.250595","lat":"31.356437","category":"162","category_name":"医院","address":"高台路1216号"},{"poiid":"B2094757D068A1FC4792","title":"两季烧烤","lon":"121.25017","lat":"31.36805","category":"68","category_name":"快餐厅","address":"嘉定区福海路276、278号(联华超市和来伊份中间)"},{"poiid":"B2094757D06FA4F8439B","title":"清水颐园","lon":"121.2375","lat":"31.368086","category":"47","category_name":"住宅区","address":"上海裕民路1000弄"},{"poiid":"B2094757D06BA0FF489E","title":"保利家园","lon":"121.25768","lat":"31.355701","category":"47","category_name":"住宅区","address":"上海嘉定区嘉定新城洪德路333弄"},{"poiid":"B2094654D469A1FE4798","title":"嘉定区国家税务局第八税务所","lon":"121.24925","lat":"31.36447","category":"250","category_name":"公园户外","address":"叶城路912"},{"poiid":"B2094757D06AA6FD4792","title":"老盛昌 苏州汤包馆","lon":"121.249237","lat":"31.367495","category":"247","category_name":"餐饮美食","address":"上海嘉定区福海路313号"},{"poiid":"B2094750D66FAAF4469F","title":"上海市嘉定区妇幼保健院","lon":"121.247322","lat":"31.349636","category":"162","category_name":"医院","address":"嘉定区高台路1216号"},{"poiid":"B2094655D36DA0F44393","title":"永盛路回城南路","lon":"121.24788","lat":"31.35812","category":"38","category_name":"公交车站","address":""},{"poiid":"B2094757D16FA2FB429C","title":"新城金郡","lon":"121.239354289","lat":"31.3435560224","category":"47","category_name":"住宅区","address":"上海白银路地铁站"},{"poiid":"B2094750D26CA6FF479D","title":"嘉定妇幼保健院","lon":"121.2448935449492","lat":"31.35352901311892","category":"162","category_name":"医院","address":"高台路"},{"poiid":"B2094655D268ABFF479F","title":"Ａ３０永盛路收费站","lon":"121.24566","lat":"31.35415","category":"267","category_name":"收费站","address":""},{"poiid":"B2094757D165A2F5429C","title":"嘉定新城示范性高级中学","lon":"121.245029053","lat":"31.3533350908","category":"500","category_name":"未知分类","address":"上海嘉定区嘉定新城东至合作路，南至洪德路，西至胜辛路，北至城固路"},{"poiid":"B2094757DA64A1F84899","title":"浦发香舍","lon":"121.242668","lat":"31.365507","category":"252","category_name":"楼宇机构","address":"上海市嘉定区福海路800弄"},{"poiid":"B2094654D469A2FF469A","title":"上海采埃孚转向机有限公司","lon":"121.24752","lat":"31.3586","category":"263","category_name":"公司","address":"永盛路2001号"},{"poiid":"B2094655D36DA0F4439F","title":"永盛路白银路","lon":"121.25342","lat":"31.34923","category":"38","category_name":"公交车站","address":""},{"poiid":"B2094757D464A7FC4893","title":"金殿大酒店","lon":"121.24287","lat":"31.36795","category":"76","category_name":"上海菜","address":"嘉定区永盛路2651号(近福海路)"},{"poiid":"B2094654D469A1FD449D","title":"嘉定区南苑中学","lon":"121.24172","lat":"31.36274","category":"55","category_name":"中学","address":"普惠路350"},{"poiid":"B2094751D26BA1FC409F","title":"上海中青旅纽宾凯国际大酒店","lon":"121.244634","lat":"31.362456","category":"251","category_name":"出行住宿","address":"叶城路1128号"},{"poiid":"B2094757D065A1F5469F","title":"G1501永盛路收费站","lon":"121.24659","lat":"31.359232","category":"267","category_name":"收费站","address":"上海近永盛路"},{"poiid":"B2094654DB65A5F8429E","title":"嘉西中学","lon":"121.24593","lat":"31.35911","category":"55","category_name":"中学","address":"嘉定区嘉黄路254号"},{"poiid":"B2094654D469A2FF4798","title":"富士通将军(上海)有限公司","lon":"121.24135","lat":"31.35666","category":"263","category_name":"公司","address":"回城南路1720"},{"poiid":"B2094655D264A3F44792","title":"永盛路桥","lon":"121.249","lat":"31.35678","category":"250","category_name":"公园户外","address":""},{"poiid":"B2094757D16CA4FE489F","title":"伊诺咖啡(回城店)","lon":"121.25564","lat":"31.36112","category":"65","category_name":"咖啡厅","address":"嘉定区回城南路1128号"},{"poiid":"B2094757D064A2FA4792","title":"京东商城华东地区总部","lon":"121.249246","lat":"31.364476","category":"119","category_name":"商场","address":"嘉定区叶城路912号"},{"poiid":"B2094655D36CA4FD4098","title":"白银路阿克苏路","lon":"121.25992","lat":"31.35259","category":"38","category_name":"公交车站","address":""},{"poiid":"B2094654DB6AA6FA4893","title":"钇微(上海)科技有限公司(城固路)","lon":"121.24871","lat":"31.35311","category":"263","category_name":"公司","address":"洪德路918号"},{"poiid":"B2094655D36DA6FC4899","title":"白银路","lon":"121.24572","lat":"31.34468","category":"38","category_name":"公交车站","address":""},{"poiid":"B2094654D469A1FD439F","title":"叶城三街坊小区","lon":"121.23655","lat":"31.36518","category":"47","category_name":"住宅区","address":"裕海路1028弄96"},{"poiid":"B2094750DB6EA7F9489A","title":"上海市嘉定区人民法院","lon":"121.256591","lat":"31.351579","category":"608","category_name":"法院","address":"德富路1221号"},{"poiid":"B2094654D469A2FF4793","title":"上海中科高科技工业园","lon":"121.23872","lat":"31.35872","category":"45","category_name":"产业园区","address":"叶城路1411"},{"poiid":"B2094757D065A4F9499D","title":"浦顺768精菜馆","lon":"121.23912565","lat":"31.360639438","category":"247","category_name":"餐饮美食","address":"上海福海路768号"},{"poiid":"B2094750D564A1FC4798","title":"龙湖蔚澜香醍","lon":"121.253644","lat":"31.351796","category":"47","category_name":"住宅区","address":"上海市嘉定区云谷路1388弄(近塔秀路)"},{"poiid":"B2094757D169ABF44293","title":"上海航天电子有限公司","lon":"121.23249865","lat":"31.360679439","category":"263","category_name":"公司","address":"上海市嘉定区叶城路1518号"},{"poiid":"B2094654D469A2F8419A","title":"嘉定工业区经济城一园区","lon":"121.24845","lat":"31.3626","category":"45","category_name":"产业园区","address":"叶城路925"},{"poiid":"B2094655D36DA0FA409C","title":"叶城路永盛路","lon":"121.24477","lat":"31.36237","category":"38","category_name":"公交车站","address":""},{"poiid":"B2094751D56BA6FC459C","title":"嘉定国资金融大厦","lon":"121.252938","lat":"31.351649","category":"263","category_name":"公司","address":"德富路1288号"},{"poiid":"B2094655D268A7F4429B","title":"右岸嘉园","lon":"121.2473","lat":"31.364386","category":"47","category_name":"住宅区","address":"上海市嘉定区良舍路199弄"},{"poiid":"B2094655D268A1F84992","title":"叶城五街坊","lon":"121.23521","lat":"31.36625","category":"47","category_name":"住宅区","address":"裕民路1180-1182"},{"poiid":"B2094757D66DA0FC499A","title":"盛创企业家园","lon":"121.245934","lat":"31.359114","category":"500","category_name":"未知分类","address":"上海嘉定区嘉罗公路1661弄"},{"poiid":"B2094757D568A4FF449A","title":"新城西尚海","lon":"121.2515539","lat":"31.34901889","category":"47","category_name":"住宅区","address":"嘉定新城轨道交通11号线白银路站"},{"poiid":"B2094757D16FA6F9459E","title":"胜利村餐厅","lon":"121.23987","lat":"31.36224","category":"500","category_name":"未知分类","address":"嘉定区福海路999号查看地图"},{"poiid":"B2094757D169A4FF409C","title":"嘉定区叶城小学","lon":"121.242001653","lat":"31.3617584615","category":"500","category_name":"未知分类","address":"嘉定区普惠路350号(近叶城路)"},{"poiid":"B2094757DA69A2FF479C","title":"西上海沃尔沃","lon":"121.24863623812","lat":"31.358480896323","category":"639","category_name":"汽车交通类公司","address":"嘉定区永盛路2018号3幢(近回城南路)"},{"poiid":"B2094654D469A2FE489B","title":"南苑七村","lon":"121.25069","lat":"31.367052","category":"47","category_name":"住宅区","address":"福海路281弄"},{"poiid":"B2094757D16BA0FC429F","title":"叶城幼儿园","lon":"121.244083","lat":"31.364004","category":"57","category_name":"幼儿园","address":"近郊嘉定区嘉黄公路胜辛路"},{"poiid":"B2094757D66DA6FD4792","title":"盘古天地","lon":"121.246903389","lat":"31.3424915005","category":"500","category_name":"未知分类","address":"上海云屏路1188号"},{"poiid":"B2094654D469A2F84098","title":"上海汽车制动系统有限公司(招贤路)","lon":"121.25074","lat":"31.36069","category":"263","category_name":"公司","address":"招贤路385"},{"poiid":"B2094757D064ABF9429A","title":"张太和(永盛店)","lon":"121.24487107","lat":"31.366340864","category":"68","category_name":"快餐厅","address":"上海永盛路2601弄18号"},{"poiid":"B2094757D069A3FE4798","title":"爱磨工坊 IMO Factory","lon":"121.2500655","lat":"31.3680121","category":"67","category_name":"甜品店","address":"嘉定区福海路280-1号"},{"poiid":"B2094757D06FA0F5479E","title":"白银路地铁站","lon":"121.24574053","lat":"31.344687124","category":"36","category_name":"地铁站","address":"上海轨道交通 十一号线 轨交白银路站 11"},{"poiid":"B2094750D26EABFF439C","title":"嘉定妇幼保健医院","lon":"121.250595","lat":"31.356437","category":"162","category_name":"医院","address":"高台路1216号"},{"poiid":"B2094757D068A1FC4792","title":"两季烧烤","lon":"121.25017","lat":"31.36805","category":"68","category_name":"快餐厅","address":"嘉定区福海路276、278号(联华超市和来伊份中间)"},{"poiid":"B2094757D06FA4F8439B","title":"清水颐园","lon":"121.2375","lat":"31.368086","category":"47","category_name":"住宅区","address":"上海裕民路1000弄"},{"poiid":"B2094757D06BA0FF489E","title":"保利家园","lon":"121.25768","lat":"31.355701","category":"47","category_name":"住宅区","address":"上海嘉定区嘉定新城洪德路333弄"},{"poiid":"B2094654D469A1FE4798","title":"嘉定区国家税务局第八税务所","lon":"121.24925","lat":"31.36447","category":"250","category_name":"公园户外","address":"叶城路912"},{"poiid":"B2094757D06AA6FD4792","title":"老盛昌 苏州汤包馆","lon":"121.249237","lat":"31.367495","category":"247","category_name":"餐饮美食","address":"上海嘉定区福海路313号"},{"poiid":"B2094750D66FAAF4469F","title":"上海市嘉定区妇幼保健院","lon":"121.247322","lat":"31.349636","category":"162","category_name":"医院","address":"嘉定区高台路1216号"},{"poiid":"B2094655D36DA0F44393","title":"永盛路回城南路","lon":"121.24788","lat":"31.35812","category":"38","category_name":"公交车站","address":""},{"poiid":"B2094757D16FA2FB429C","title":"新城金郡","lon":"121.239354289","lat":"31.3435560224","category":"47","category_name":"住宅区","address":"上海白银路地铁站"},{"poiid":"B2094750D26CA6FF479D","title":"嘉定妇幼保健院","lon":"121.2448935449492","lat":"31.35352901311892","category":"162","category_name":"医院","address":"高台路"},{"poiid":"B2094655D268ABFF479F","title":"Ａ３０永盛路收费站","lon":"121.24566","lat":"31.35415","category":"267","category_name":"收费站","address":""},{"poiid":"B2094757D165A2F5429C","title":"嘉定新城示范性高级中学","lon":"121.245029053","lat":"31.3533350908","category":"500","category_name":"未知分类","address":"上海嘉定区嘉定新城东至合作路，南至洪德路，西至胜辛路，北至城固路"},{"poiid":"B2094757DA64A1F84899","title":"浦发香舍","lon":"121.242668","lat":"31.365507","category":"252","category_name":"楼宇机构","address":"上海市嘉定区福海路800弄"},{"poiid":"B2094654D469A2FF469A","title":"上海采埃孚转向机有限公司","lon":"121.24752","lat":"31.3586","category":"263","category_name":"公司","address":"永盛路2001号"},{"poiid":"B2094655D36DA0F4439F","title":"永盛路白银路","lon":"121.25342","lat":"31.34923","category":"38","category_name":"公交车站","address":""},{"poiid":"B2094757D464A7FC4893","title":"金殿大酒店","lon":"121.24287","lat":"31.36795","category":"76","category_name":"上海菜","address":"嘉定区永盛路2651号(近福海路)"},{"poiid":"B2094654D469A1FD449D","title":"嘉定区南苑中学","lon":"121.24172","lat":"31.36274","category":"55","category_name":"中学","address":"普惠路350"},{"poiid":"B2094751D26BA1FC409F","title":"上海中青旅纽宾凯国际大酒店","lon":"121.244634","lat":"31.362456","category":"251","category_name":"出行住宿","address":"叶城路1128号"},{"poiid":"B2094757D065A1F5469F","title":"G1501永盛路收费站","lon":"121.24659","lat":"31.359232","category":"267","category_name":"收费站","address":"上海近永盛路"},{"poiid":"B2094654DB65A5F8429E","title":"嘉西中学","lon":"121.24593","lat":"31.35911","category":"55","category_name":"中学","address":"嘉定区嘉黄路254号"},{"poiid":"B2094654D469A2FF4798","title":"富士通将军(上海)有限公司","lon":"121.24135","lat":"31.35666","category":"263","category_name":"公司","address":"回城南路1720"},{"poiid":"B2094655D264A3F44792","title":"永盛路桥","lon":"121.249","lat":"31.35678","category":"250","category_name":"公园户外","address":""},{"poiid":"B2094757D16CA4FE489F","title":"伊诺咖啡(回城店)","lon":"121.25564","lat":"31.36112","category":"65","category_name":"咖啡厅","address":"嘉定区回城南路1128号"},{"poiid":"B2094757D064A2FA4792","title":"京东商城华东地区总部","lon":"121.249246","lat":"31.364476","category":"119","category_name":"商场","address":"嘉定区叶城路912号"},{"poiid":"B2094655D36CA4FD4098","title":"白银路阿克苏路","lon":"121.25992","lat":"31.35259","category":"38","category_name":"公交车站","address":""},{"poiid":"B2094654DB6AA6FA4893","title":"钇微(上海)科技有限公司(城固路)","lon":"121.24871","lat":"31.35311","category":"263","category_name":"公司","address":"洪德路918号"},{"poiid":"B2094655D36DA6FC4899","title":"白银路","lon":"121.24572","lat":"31.34468","category":"38","category_name":"公交车站","address":""},{"poiid":"B2094654D469A1FD439F","title":"叶城三街坊小区","lon":"121.23655","lat":"31.36518","category":"47","category_name":"住宅区","address":"裕海路1028弄96"},{"poiid":"B2094750DB6EA7F9489A","title":"上海市嘉定区人民法院","lon":"121.256591","lat":"31.351579","category":"608","category_name":"法院","address":"德富路1221号"},{"poiid":"B2094654D469A2FF4793","title":"上海中科高科技工业园","lon":"121.23872","lat":"31.35872","category":"45","category_name":"产业园区","address":"叶城路1411"},{"poiid":"B2094757D065A4F9499D","title":"浦顺768精菜馆","lon":"121.23912565","lat":"31.360639438","category":"247","category_name":"餐饮美食","address":"上海福海路768号"},{"poiid":"B2094750D564A1FC4798","title":"龙湖蔚澜香醍","lon":"121.253644","lat":"31.351796","category":"47","category_name":"住宅区","address":"上海市嘉定区云谷路1388弄(近塔秀路)"},{"poiid":"B2094757D169ABF44293","title":"上海航天电子有限公司","lon":"121.23249865","lat":"31.360679439","category":"263","category_name":"公司","address":"上海市嘉定区叶城路1518号"},{"poiid":"B2094654D469A2F8419A","title":"嘉定工业区经济城一园区","lon":"121.24845","lat":"31.3626","category":"45","category_name":"产业园区","address":"叶城路925"},{"poiid":"B2094655D36DA0FA409C","title":"叶城路永盛路","lon":"121.24477","lat":"31.36237","category":"38","category_name":"公交车站","address":""},{"poiid":"B2094751D56BA6FC459C","title":"嘉定国资金融大厦","lon":"121.252938","lat":"31.351649","category":"263","category_name":"公司","address":"德富路1288号"},{"poiid":"B2094655D268A7F4429B","title":"右岸嘉园","lon":"121.2473","lat":"31.364386","category":"47","category_name":"住宅区","address":"上海市嘉定区良舍路199弄"},{"poiid":"B2094655D268A1F84992","title":"叶城五街坊","lon":"121.23521","lat":"31.36625","category":"47","category_name":"住宅区","address":"裕民路1180-1182"},{"poiid":"B2094757D66DA0FC499A","title":"盛创企业家园","lon":"121.245934","lat":"31.359114","category":"500","category_name":"未知分类","address":"上海嘉定区嘉罗公路1661弄"},{"poiid":"B2094757D568A4FF449A","title":"新城西尚海","lon":"121.2515539","lat":"31.34901889","category":"47","category_name":"住宅区","address":"嘉定新城轨道交通11号线白银路站"},{"poiid":"B2094757D16FA6F9459E","title":"胜利村餐厅","lon":"121.23987","lat":"31.36224","category":"500","category_name":"未知分类","address":"嘉定区福海路999号查看地图"},{"poiid":"B2094757D169A4FF409C","title":"嘉定区叶城小学","lon":"121.242001653","lat":"31.3617584615","category":"500","category_name":"未知分类","address":"嘉定区普惠路350号(近叶城路)"},{"poiid":"B2094757DA69A2FF479C","title":"西上海沃尔沃","lon":"121.24863623812","lat":"31.358480896323","category":"639","category_name":"汽车交通类公司","address":"嘉定区永盛路2018号3幢(近回城南路)"},{"poiid":"B2094654D469A2FE489B","title":"南苑七村","lon":"121.25069","lat":"31.367052","category":"47","category_name":"住宅区","address":"福海路281弄"},{"poiid":"B2094757D16BA0FC429F","title":"叶城幼儿园","lon":"121.244083","lat":"31.364004","category":"57","category_name":"幼儿园","address":"近郊嘉定区嘉黄公路胜辛路"},{"poiid":"B2094757D66DA6FD4792","title":"盘古天地","lon":"121.246903389","lat":"31.3424915005","category":"500","category_name":"未知分类","address":"上海云屏路1188号"},{"poiid":"B2094654D469A2F84098","title":"上海汽车制动系统有限公司(招贤路)","lon":"121.25074","lat":"31.36069","category":"263","category_name":"公司","address":"招贤路385"},{"poiid":"B2094757D064ABF9429A","title":"张太和(永盛店)","lon":"121.24487107","lat":"31.366340864","category":"68","category_name":"快餐厅","address":"上海永盛路2601弄18号"},{"poiid":"B2094757D069A3FE4798","title":"爱磨工坊 IMO Factory","lon":"121.2500655","lat":"31.3680121","category":"67","category_name":"甜品店","address":"嘉定区福海路280-1号"},{"poiid":"B2094757D06FA0F5479E","title":"白银路地铁站","lon":"121.24574053","lat":"31.344687124","category":"36","category_name":"地铁站","address":"上海轨道交通 十一号线 轨交白银路站 11"},{"poiid":"B2094750D26EABFF439C","title":"嘉定妇幼保健医院","lon":"121.250595","lat":"31.356437","category":"162","category_name":"医院","address":"高台路1216号"},{"poiid":"B2094757D068A1FC4792","title":"两季烧烤","lon":"121.25017","lat":"31.36805","category":"68","category_name":"快餐厅","address":"嘉定区福海路276、278号(联华超市和来伊份中间)"},{"poiid":"B2094757D06FA4F8439B","title":"清水颐园","lon":"121.2375","lat":"31.368086","category":"47","category_name":"住宅区","address":"上海裕民路1000弄"},{"poiid":"B2094757D06BA0FF489E","title":"保利家园","lon":"121.25768","lat":"31.355701","category":"47","category_name":"住宅区","address":"上海嘉定区嘉定新城洪德路333弄"},{"poiid":"B2094654D469A1FE4798","title":"嘉定区国家税务局第八税务所","lon":"121.24925","lat":"31.36447","category":"250","category_name":"公园户外","address":"叶城路912"},{"poiid":"B2094757D06AA6FD4792","title":"老盛昌 苏州汤包馆","lon":"121.249237","lat":"31.367495","category":"247","category_name":"餐饮美食","address":"上海嘉定区福海路313号"},{"poiid":"B2094750D66FAAF4469F","title":"上海市嘉定区妇幼保健院","lon":"121.247322","lat":"31.349636","category":"162","category_name":"医院","address":"嘉定区高台路1216号"},{"poiid":"B2094655D36DA0F44393","title":"永盛路回城南路","lon":"121.24788","lat":"31.35812","category":"38","category_name":"公交车站","address":""},{"poiid":"B2094757D16FA2FB429C","title":"新城金郡","lon":"121.239354289","lat":"31.3435560224","category":"47","category_name":"住宅区","address":"上海白银路地铁站"},{"poiid":"B2094750D26CA6FF479D","title":"嘉定妇幼保健院","lon":"121.2448935449492","lat":"31.35352901311892","category":"162","category_name":"医院","address":"高台路"},{"poiid":"B2094655D268ABFF479F","title":"Ａ３０永盛路收费站","lon":"121.24566","lat":"31.35415","category":"267","category_name":"收费站","address":""},{"poiid":"B2094757D165A2F5429C","title":"嘉定新城示范性高级中学","lon":"121.245029053","lat":"31.3533350908","category":"500","category_name":"未知分类","address":"上海嘉定区嘉定新城东至合作路，南至洪德路，西至胜辛路，北至城固路"},{"poiid":"B2094757DA64A1F84899","title":"浦发香舍","lon":"121.242668","lat":"31.365507","category":"252","category_name":"楼宇机构","address":"上海市嘉定区福海路800弄"},{"poiid":"B2094654D469A2FF469A","title":"上海采埃孚转向机有限公司","lon":"121.24752","lat":"31.3586","category":"263","category_name":"公司","address":"永盛路2001号"},{"poiid":"B2094655D36DA0F4439F","title":"永盛路白银路","lon":"121.25342","lat":"31.34923","category":"38","category_name":"公交车站","address":""},{"poiid":"B2094757D464A7FC4893","title":"金殿大酒店","lon":"121.24287","lat":"31.36795","category":"76","category_name":"上海菜","address":"嘉定区永盛路2651号(近福海路)"},{"poiid":"B2094654D469A1FD449D","title":"嘉定区南苑中学","lon":"121.24172","lat":"31.36274","category":"55","category_name":"中学","address":"普惠路350"},{"poiid":"B2094751D26BA1FC409F","title":"上海中青旅纽宾凯国际大酒店","lon":"121.244634","lat":"31.362456","category":"251","category_name":"出行住宿","address":"叶城路1128号"},{"poiid":"B2094757D065A1F5469F","title":"G1501永盛路收费站","lon":"121.24659","lat":"31.359232","category":"267","category_name":"收费站","address":"上海近永盛路"},{"poiid":"B2094654DB65A5F8429E","title":"嘉西中学","lon":"121.24593","lat":"31.35911","category":"55","category_name":"中学","address":"嘉定区嘉黄路254号"},{"poiid":"B2094654D469A2FF4798","title":"富士通将军(上海)有限公司","lon":"121.24135","lat":"31.35666","category":"263","category_name":"公司","address":"回城南路1720"},{"poiid":"B2094655D264A3F44792","title":"永盛路桥","lon":"121.249","lat":"31.35678","category":"250","category_name":"公园户外","address":""},{"poiid":"B2094757D16CA4FE489F","title":"伊诺咖啡(回城店)","lon":"121.25564","lat":"31.36112","category":"65","category_name":"咖啡厅","address":"嘉定区回城南路1128号"},{"poiid":"B2094757D064A2FA4792","title":"京东商城华东地区总部","lon":"121.249246","lat":"31.364476","category":"119","category_name":"商场","address":"嘉定区叶城路912号"},{"poiid":"B2094655D36CA4FD4098","title":"白银路阿克苏路","lon":"121.25992","lat":"31.35259","category":"38","category_name":"公交车站","address":""},{"poiid":"B2094654DB6AA6FA4893","title":"钇微(上海)科技有限公司(城固路)","lon":"121.24871","lat":"31.35311","category":"263","category_name":"公司","address":"洪德路918号"},{"poiid":"B2094655D36DA6FC4899","title":"白银路","lon":"121.24572","lat":"31.34468","category":"38","category_name":"公交车站","address":""},{"poiid":"B2094654D469A1FD439F","title":"叶城三街坊小区","lon":"121.23655","lat":"31.36518","category":"47","category_name":"住宅区","address":"裕海路1028弄96"},{"poiid":"B2094750DB6EA7F9489A","title":"上海市嘉定区人民法院","lon":"121.256591","lat":"31.351579","category":"608","category_name":"法院","address":"德富路1221号"},{"poiid":"B2094654D469A2FF4793","title":"上海中科高科技工业园","lon":"121.23872","lat":"31.35872","category":"45","category_name":"产业园区","address":"叶城路1411"},{"poiid":"B2094757D065A4F9499D","title":"浦顺768精菜馆","lon":"121.23912565","lat":"31.360639438","category":"247","category_name":"餐饮美食","address":"上海福海路768号"},{"poiid":"B2094750D564A1FC4798","title":"龙湖蔚澜香醍","lon":"121.253644","lat":"31.351796","category":"47","category_name":"住宅区","address":"上海市嘉定区云谷路1388弄(近塔秀路)"},{"poiid":"B2094757D169ABF44293","title":"上海航天电子有限公司","lon":"121.23249865","lat":"31.360679439","category":"263","category_name":"公司","address":"上海市嘉定区叶城路1518号"},{"poiid":"B2094654D469A2F8419A","title":"嘉定工业区经济城一园区","lon":"121.24845","lat":"31.3626","category":"45","category_name":"产业园区","address":"叶城路925"},{"poiid":"B2094655D36DA0FA409C","title":"叶城路永盛路","lon":"121.24477","lat":"31.36237","category":"38","category_name":"公交车站","address":""},{"poiid":"B2094751D56BA6FC459C","title":"嘉定国资金融大厦","lon":"121.252938","lat":"31.351649","category":"263","category_name":"公司","address":"德富路1288号"},{"poiid":"B2094655D268A7F4429B","title":"右岸嘉园","lon":"121.2473","lat":"31.364386","category":"47","category_name":"住宅区","address":"上海市嘉定区良舍路199弄"},{"poiid":"B2094655D268A1F84992","title":"叶城五街坊","lon":"121.23521","lat":"31.36625","category":"47","category_name":"住宅区","address":"裕民路1180-1182"},{"poiid":"B2094757D66DA0FC499A","title":"盛创企业家园","lon":"121.245934","lat":"31.359114","category":"500","category_name":"未知分类","address":"上海嘉定区嘉罗公路1661弄"},{"poiid":"B2094757D568A4FF449A","title":"新城西尚海","lon":"121.2515539","lat":"31.34901889","category":"47","category_name":"住宅区","address":"嘉定新城轨道交通11号线白银路站"},{"poiid":"B2094757D16FA6F9459E","title":"胜利村餐厅","lon":"121.23987","lat":"31.36224","category":"500","category_name":"未知分类","address":"嘉定区福海路999号查看地图"},{"poiid":"B2094757D169A4FF409C","title":"嘉定区叶城小学","lon":"121.242001653","lat":"31.3617584615","category":"500","category_name":"未知分类","address":"嘉定区普惠路350号(近叶城路)"},{"poiid":"B2094757DA69A2FF479C","title":"西上海沃尔沃","lon":"121.24863623812","lat":"31.358480896323","category":"639","category_name":"汽车交通类公司","address":"嘉定区永盛路2018号3幢(近回城南路)"},{"poiid":"B2094654D469A2FE489B","title":"南苑七村","lon":"121.25069","lat":"31.367052","category":"47","category_name":"住宅区","address":"福海路281弄"},{"poiid":"B2094757D16BA0FC429F","title":"叶城幼儿园","lon":"121.244083","lat":"31.364004","category":"57","category_name":"幼儿园","address":"近郊嘉定区嘉黄公路胜辛路"},{"poiid":"B2094757D66DA6FD4792","title":"盘古天地","lon":"121.246903389","lat":"31.3424915005","category":"500","category_name":"未知分类","address":"上海云屏路1188号"},{"poiid":"B2094654D469A2F84098","title":"上海汽车制动系统有限公司(招贤路)","lon":"121.25074","lat":"31.36069","category":"263","category_name":"公司","address":"招贤路385"},{"poiid":"B2094757D064ABF9429A","title":"张太和(永盛店)","lon":"121.24487107","lat":"31.366340864","category":"68","category_name":"快餐厅","address":"上海永盛路2601弄18号"}]