[{"poiid":"B2094757D06FA2F9489E","title":"嘉定新城地铁站","lon":"121.25468554","lat":"31.329586409","category":"36","category_name":"地铁站","address":"上海轨道交通 十一号线 轨交嘉定新城站 11"},{"poiid":"B2094655D36DA6FD469B","title":"嘉定新城","lon":"121.25464","lat":"31.32956","category":"47","category_name":"住宅区","address":""},{"poiid":"B2094757D06FA6FE4398","title":"马陆地铁站","lon":"121.26968201","lat":"31.319407295","category":"36","category_name":"地铁站","address":"上海轨道交通 十一号线 轨交马陆站 11"},{"poiid":"B2094751D269AAF8409A","title":"瑞金医院嘉定北院","lon":"121.259979","lat":"31.335048","category":"252","category_name":"楼宇机构","address":"瑞金北院位于嘉定区嘉定新城中心区（马陆镇）希望路999号。东至永盛路、南至双丁路、西至合作路、北至希望路。"},{"poiid":"B2094757D168A3F94998","title":"龙湖 郦城国际社区","lon":"121.252030069","lat":"31.3283132785","category":"47","category_name":"住宅区","address":"嘉定新城双单路1509号"},{"poiid":"B2094757DB69A1FB439F","title":"雍记大酒店 嘉定店","lon":"121.2657311","lat":"31.3363438","category":"72","category_name":"广东菜","address":"嘉定区德富路1288号嘉定国资金融大厦2-3楼(近塔秀路)"},{"poiid":"B2094757DB69A2FA439B","title":"麦德龙(宝安公路店)","lon":"121.26497054498293","lat":"31.325341670266745","category":"118","category_name":"超级市场","address":"嘉定区宝安公路3718号"},{"poiid":"B2094654D46BA5FE439D","title":"沁园别墅","lon":"121.2609","lat":"31.30769","category":"47","category_name":"住宅区","address":"上海市嘉定区Ｇ１５沈海高速"},{"poiid":"B2094655D265A1F5489C","title":"永盛公寓","lon":"121.26462","lat":"31.33279","category":"47","category_name":"住宅区","address":"马陆镇"},{"poiid":"B2094654D46BA0FB4798","title":"古树公园","lon":"121.24568","lat":"31.31496","category":"196","category_name":"公园","address":"嘉定区泰海路(近宝安公路嘉金高速入口)"},{"poiid":"B2094757D06BAAFB4399","title":"G15沈海高速宝安公路收费站","lon":"121.251336954","lat":"31.3177422463","category":"267","category_name":"收费站","address":"上海G15沈海高速宝安公路收费站"},{"poiid":"B2094753DB69A4F4499B","title":"美亚影城","lon":"121.268226","lat":"31.325668","category":"178","category_name":"电影院","address":"上海市 宝安公路麦德龙4楼"},{"poiid":"B2094655D36CA4FC419F","title":"宝安公路胜辛路","lon":"121.26076","lat":"31.32395","category":"38","category_name":"公交车站","address":""},{"poiid":"B2094757D06BA4F94799","title":"伟创力电子科技(上海)有限公司","lon":"121.264833","lat":"31.328963","category":"46","category_name":"楼宇","address":"上海市嘉定区马陆镇永盛路77号"},{"poiid":"B2094757D16CA4FA4492","title":"上海希望经济城发展有限公司","lon":"121.26693192","lat":"31.329515986","category":"46","category_name":"楼宇","address":"上海市嘉定区封周路655号"},{"poiid":"B2094757D165AAF44698","title":"龙湖郦城","lon":"121.25251","lat":"31.326742","category":"500","category_name":"未知分类","address":"上海嘉定新城双单路1509弄"},{"poiid":"B2094655D26BA5FF429C","title":"G15宝安公路收费站","lon":"121.25119","lat":"31.31838","category":"267","category_name":"收费站","address":""},{"poiid":"B2094757D568A5F9439D","title":"龙湖蓝湖郡","lon":"121.25377","lat":"31.327015","category":"47","category_name":"住宅区","address":"双单路1509弄"},{"poiid":"B2094655D36DA0F4439C","title":"永盛路宝安公路","lon":"121.26724","lat":"31.32493","category":"38","category_name":"公交车站","address":""},{"poiid":"B2094654D46BA5FD489B","title":"上海包装城弘洲食品交易市场","lon":"121.26745","lat":"31.32572","category":"117","category_name":"便民商店/便利店","address":""},{"poiid":"B2094757D16BA3FF4298","title":"秋霞坊(臻品嘉园)售楼处","lon":"121.26121692","lat":"31.326218918","category":"500","category_name":"未知分类","address":"上海市嘉定区双单路999弄3号"},{"poiid":"B2094757D065ABFE4192","title":"桂园别墅","lon":"121.255081177","lat":"31.3021221161","category":"47","category_name":"住宅区","address":"上海嘉定区安亭镇翔方公路"},{"poiid":"B2094654D46BA5FD479B","title":"上海嘉定汽配科技城","lon":"121.2647","lat":"31.32491","category":"248","category_name":"生活娱乐","address":""},{"poiid":"B2094752DA6BA1FC4198","title":"南翔","lon":"121.254684","lat":"31.329586","category":"500","category_name":"未知分类","address":"上海市 南翔镇解放街民主街"},{"poiid":"B2094655D36DA1FE479C","title":"泰涛路张家桥","lon":"121.25278","lat":"31.31308","category":"250","category_name":"公园户外","address":""},{"poiid":"B2094757D16DA7FA439F","title":"嘉定9路","lon":"121.254691","lat":"31.329595","category":"500","category_name":"未知分类","address":"上海嘉定新城站-菊园车站"},{"poiid":"B2094757D16DA6FC409F","title":"上海科尔本施密特活塞有限公司","lon":"121.250262289","lat":"31.3133203998","category":"263","category_name":"公司","address":"上海泰波路11号"},{"poiid":"B2094750D26EA0FC449E","title":"瑞金医院北院","lon":"121.262123","lat":"31.333534","category":"252","category_name":"楼宇机构","address":"双丁路888号"},{"poiid":"B2094654D46BA4FB479A","title":"大众汽车俱乐部(上海嘉定汽配城)","lon":"121.26551","lat":"31.32312","category":"157","category_name":"汽车俱乐部","address":""},{"poiid":"B2094654D46BA2FF469A","title":"千年古银杏","lon":"121.24497","lat":"31.31728","category":"250","category_name":"公园户外","address":""},{"poiid":"B2094655D36CA6FC409D","title":"古银杏公园","lon":"121.24342","lat":"31.31602","category":"38","category_name":"公交车站","address":""},{"poiid":"B2094654D46BA5FE4392","title":"上海市市级千亩苗木基地","lon":"121.26757","lat":"31.31577","category":"45","category_name":"产业园区","address":""},{"poiid":"B2094757D66EA0FB4493","title":"中信泰富又一城","lon":"121.264","lat":"31.3363","category":"47","category_name":"住宅区","address":"轨交11号线嘉定新城站(嘉定云屏路388弄)"},{"poiid":"B2094655D36DA0F4449A","title":"永盛路双单路","lon":"121.26388","lat":"31.33212","category":"38","category_name":"公交车站","address":""},{"poiid":"B2094655D36DA1F44899","title":"翔方公路胜辛南路","lon":"121.26495","lat":"31.31091","category":"38","category_name":"公交车站","address":""},{"poiid":"B2094757D66FA1FE439E","title":"嘉定","lon":"121.269656","lat":"31.31943","category":"500","category_name":"未知分类","address":"上海马陆"},{"poiid":"B2094757D065AAFC449E","title":"轨道交通11号线(嘉定新城)","lon":"121.266037225","lat":"31.3364427305","category":"500","category_name":"未知分类","address":"上海嘉定区胜辛路(近双丁路、双单路)"},{"poiid":"B209475CD66FA2FF4599","title":"美亚影城","lon":"121.270912","lat":"31.325794","category":"178","category_name":"电影院","address":"上海市 上海市嘉定区马陆镇宝安公路"},{"poiid":"B2094750DA64A7FE479D","title":"麦德龙嘉定商场","lon":"121.268058","lat":"31.326366","category":"249","category_name":"购物服务","address":null},{"poiid":"B2094655D36DA1F44898","title":"翔方公路沁园别墅","lon":"121.26104","lat":"31.30794","category":"38","category_name":"公交车站","address":""},{"poiid":"B2094654D46BA6F5489F","title":"联恒工业(上海)有限公司","lon":"121.26151","lat":"31.33087","category":"263","category_name":"公司","address":""},{"poiid":"B2094751D36BABF8429D","title":"上海养乐多工厂","lon":"121.2590208","lat":"31.3346505","category":"500","category_name":"未知分类","address":"嘉定区"},{"poiid":"B2094757D16EA1F4429E","title":"侬好蛙","lon":"121.26623225","lat":"31.328721231","category":"500","category_name":"未知分类","address":"上海四平路2162号"},{"poiid":"B2094757D16AABF4419F","title":"胜辛南路翔方公路","lon":"121.26595553","lat":"31.309193975","category":"500","category_name":"未知分类","address":"上海胜辛南路翔方公路"},{"poiid":"B2094757D165AAFA419D","title":"嘉定新城规划馆","lon":"121.25833692","lat":"31.339457193","category":"500","category_name":"未知分类","address":"上海市嘉定区伊宁路"},{"poiid":"B2094757D064AAF94392","title":"嘉定马陆办事处","lon":"121.271542925","lat":"31.3255949055","category":"500","category_name":"未知分类","address":"上海市嘉定区马陆镇宝安公路3699弄28号"},{"poiid":"B2094655D36DA7F94698","title":"众百南路桂园别墅","lon":"121.24678","lat":"31.3065","category":"38","category_name":"公交车站","address":""},{"poiid":"B2094655D264A3F44898","title":"安泾桥","lon":"121.25001","lat":"31.3365","category":"250","category_name":"公园户外","address":""},{"poiid":"B2094757D66EA4FB469F","title":"育英街399弄吴杨小区","lon":"121.275336425","lat":"31.3208877079","category":"47","category_name":"住宅区","address":"上海育英街399弄吴杨小区"},{"poiid":"B2094757D66EA4FE4899","title":"陆家巷","lon":"121.251501789","lat":"31.3055286395","category":"500","category_name":"未知分类","address":"上海陆家巷"},{"poiid":"B2094757D06FA2F9489E","title":"嘉定新城地铁站","lon":"121.25468554","lat":"31.329586409","category":"36","category_name":"地铁站","address":"上海轨道交通 十一号线 轨交嘉定新城站 11"},{"poiid":"B2094655D36DA6FD469B","title":"嘉定新城","lon":"121.25464","lat":"31.32956","category":"47","category_name":"住宅区","address":""},{"poiid":"B2094757D06FA6FE4398","title":"马陆地铁站","lon":"121.26968201","lat":"31.319407295","category":"36","category_name":"地铁站","address":"上海轨道交通 十一号线 轨交马陆站 11"},{"poiid":"B2094751D269AAF8409A","title":"瑞金医院嘉定北院","lon":"121.259979","lat":"31.335048","category":"252","category_name":"楼宇机构","address":"瑞金北院位于嘉定区嘉定新城中心区（马陆镇）希望路999号。东至永盛路、南至双丁路、西至合作路、北至希望路。"},{"poiid":"B2094757D168A3F94998","title":"龙湖 郦城国际社区","lon":"121.252030069","lat":"31.3283132785","category":"47","category_name":"住宅区","address":"嘉定新城双单路1509号"},{"poiid":"B2094757DB69A1FB439F","title":"雍记大酒店 嘉定店","lon":"121.2657311","lat":"31.3363438","category":"72","category_name":"广东菜","address":"嘉定区德富路1288号嘉定国资金融大厦2-3楼(近塔秀路)"},{"poiid":"B2094757DB69A2FA439B","title":"麦德龙(宝安公路店)","lon":"121.26497054498293","lat":"31.325341670266745","category":"118","category_name":"超级市场","address":"嘉定区宝安公路3718号"},{"poiid":"B2094654D46BA5FE439D","title":"沁园别墅","lon":"121.2609","lat":"31.30769","category":"47","category_name":"住宅区","address":"上海市嘉定区Ｇ１５沈海高速"},{"poiid":"B2094655D265A1F5489C","title":"永盛公寓","lon":"121.26462","lat":"31.33279","category":"47","category_name":"住宅区","address":"马陆镇"},{"poiid":"B2094654D46BA0FB4798","title":"古树公园","lon":"121.24568","lat":"31.31496","category":"196","category_name":"公园","address":"嘉定区泰海路(近宝安公路嘉金高速入口)"},{"poiid":"B2094757D06BAAFB4399","title":"G15沈海高速宝安公路收费站","lon":"121.251336954","lat":"31.3177422463","category":"267","category_name":"收费站","address":"上海G15沈海高速宝安公路收费站"},{"poiid":"B2094753DB69A4F4499B","title":"美亚影城","lon":"121.268226","lat":"31.325668","category":"178","category_name":"电影院","address":"上海市 宝安公路麦德龙4楼"},{"poiid":"B2094655D36CA4FC419F","title":"宝安公路胜辛路","lon":"121.26076","lat":"31.32395","category":"38","category_name":"公交车站","address":""},{"poiid":"B2094757D06BA4F94799","title":"伟创力电子科技(上海)有限公司","lon":"121.264833","lat":"31.328963","category":"46","category_name":"楼宇","address":"上海市嘉定区马陆镇永盛路77号"},{"poiid":"B2094757D16CA4FA4492","title":"上海希望经济城发展有限公司","lon":"121.26693192","lat":"31.329515986","category":"46","category_name":"楼宇","address":"上海市嘉定区封周路655号"},{"poiid":"B2094757D165AAF44698","title":"龙湖郦城","lon":"121.25251","lat":"31.326742","category":"500","category_name":"未知分类","address":"上海嘉定新城双单路1509弄"},{"poiid":"B2094655D26BA5FF429C","title":"G15宝安公路收费站","lon":"121.25119","lat":"31.31838","category":"267","category_name":"收费站","address":""},{"poiid":"B2094757D568A5F9439D","title":"龙湖蓝湖郡","lon":"121.25377","lat":"31.327015","category":"47","category_name":"住宅区","address":"双单路1509弄"},{"poiid":"B2094655D36DA0F4439C","title":"永盛路宝安公路","lon":"121.26724","lat":"31.32493","category":"38","category_name":"公交车站","address":""},{"poiid":"B2094654D46BA5FD489B","title":"上海包装城弘洲食品交易市场","lon":"121.26745","lat":"31.32572","category":"117","category_name":"便民商店/便利店","address":""},{"poiid":"B2094757D16BA3FF4298","title":"秋霞坊(臻品嘉园)售楼处","lon":"121.26121692","lat":"31.326218918","category":"500","category_name":"未知分类","address":"上海市嘉定区双单路999弄3号"},{"poiid":"B2094757D065ABFE4192","title":"桂园别墅","lon":"121.255081177","lat":"31.3021221161","category":"47","category_name":"住宅区","address":"上海嘉定区安亭镇翔方公路"},{"poiid":"B2094654D46BA5FD479B","title":"上海嘉定汽配科技城","lon":"121.2647","lat":"31.32491","category":"248","category_name":"生活娱乐","address":""},{"poiid":"B2094752DA6BA1FC4198","title":"南翔","lon":"121.254684","lat":"31.329586","category":"500","category_name":"未知分类","address":"上海市 南翔镇解放街民主街"},{"poiid":"B2094655D36DA1FE479C","title":"泰涛路张家桥","lon":"121.25278","lat":"31.31308","category":"250","category_name":"公园户外","address":""},{"poiid":"B2094757D16DA7FA439F","title":"嘉定9路","lon":"121.254691","lat":"31.329595","category":"500","category_name":"未知分类","address":"上海嘉定新城站-菊园车站"},{"poiid":"B2094757D16DA6FC409F","title":"上海科尔本施密特活塞有限公司","lon":"121.250262289","lat":"31.3133203998","category":"263","category_name":"公司","address":"上海泰波路11号"},{"poiid":"B2094750D26EA0FC449E","title":"瑞金医院北院","lon":"121.262123","lat":"31.333534","category":"252","category_name":"楼宇机构","address":"双丁路888号"},{"poiid":"B2094654D46BA4FB479A","title":"大众汽车俱乐部(上海嘉定汽配城)","lon":"121.26551","lat":"31.32312","category":"157","category_name":"汽车俱乐部","address":""},{"poiid":"B2094654D46BA2FF469A","title":"千年古银杏","lon":"121.24497","lat":"31.31728","category":"250","category_name":"公园户外","address":""},{"poiid":"B2094655D36CA6FC409D","title":"古银杏公园","lon":"121.24342","lat":"31.31602","category":"38","category_name":"公交车站","address":""},{"poiid":"B2094654D46BA5FE4392","title":"上海市市级千亩苗木基地","lon":"121.26757","lat":"31.31577","category":"45","category_name":"产业园区","address":""},{"poiid":"B2094757D66EA0FB4493","title":"中信泰富又一城","lon":"121.264","lat":"31.3363","category":"47","category_name":"住宅区","address":"轨交11号线嘉定新城站(嘉定云屏路388弄)"},{"poiid":"B2094655D36DA0F4449A","title":"永盛路双单路","lon":"121.26388","lat":"31.33212","category":"38","category_name":"公交车站","address":""},{"poiid":"B2094655D36DA1F44899","title":"翔方公路胜辛南路","lon":"121.26495","lat":"31.31091","category":"38","category_name":"公交车站","address":""},{"poiid":"B2094757D66FA1FE439E","title":"嘉定","lon":"121.269656","lat":"31.31943","category":"500","category_name":"未知分类","address":"上海马陆"},{"poiid":"B2094757D065AAFC449E","title":"轨道交通11号线(嘉定新城)","lon":"121.266037225","lat":"31.3364427305","category":"500","category_name":"未知分类","address":"上海嘉定区胜辛路(近双丁路、双单路)"},{"poiid":"B209475CD66FA2FF4599","title":"美亚影城","lon":"121.270912","lat":"31.325794","category":"178","category_name":"电影院","address":"上海市 上海市嘉定区马陆镇宝安公路"},{"poiid":"B2094750DA64A7FE479D","title":"麦德龙嘉定商场","lon":"121.268058","lat":"31.326366","category":"249","category_name":"购物服务","address":null},{"poiid":"B2094655D36DA1F44898","title":"翔方公路沁园别墅","lon":"121.26104","lat":"31.30794","category":"38","category_name":"公交车站","address":""},{"poiid":"B2094654D46BA6F5489F","title":"联恒工业(上海)有限公司","lon":"121.26151","lat":"31.33087","category":"263","category_name":"公司","address":""},{"poiid":"B2094751D36BABF8429D","title":"上海养乐多工厂","lon":"121.2590208","lat":"31.3346505","category":"500","category_name":"未知分类","address":"嘉定区"},{"poiid":"B2094757D16EA1F4429E","title":"侬好蛙","lon":"121.26623225","lat":"31.328721231","category":"500","category_name":"未知分类","address":"上海四平路2162号"},{"poiid":"B2094757D16AABF4419F","title":"胜辛南路翔方公路","lon":"121.26595553","lat":"31.309193975","category":"500","category_name":"未知分类","address":"上海胜辛南路翔方公路"},{"poiid":"B2094757D165AAFA419D","title":"嘉定新城规划馆","lon":"121.25833692","lat":"31.339457193","category":"500","category_name":"未知分类","address":"上海市嘉定区伊宁路"},{"poiid":"B2094757D064AAF94392","title":"嘉定马陆办事处","lon":"121.271542925","lat":"31.3255949055","category":"500","category_name":"未知分类","address":"上海市嘉定区马陆镇宝安公路3699弄28号"},{"poiid":"B2094655D36DA7F94698","title":"众百南路桂园别墅","lon":"121.24678","lat":"31.3065","category":"38","category_name":"公交车站","address":""},{"poiid":"B2094655D264A3F44898","title":"安泾桥","lon":"121.25001","lat":"31.3365","category":"250","category_name":"公园户外","address":""},{"poiid":"B2094757D66EA4FB469F","title":"育英街399弄吴杨小区","lon":"121.275336425","lat":"31.3208877079","category":"47","category_name":"住宅区","address":"上海育英街399弄吴杨小区"},{"poiid":"B2094757D66EA4FE4899","title":"陆家巷","lon":"121.251501789","lat":"31.3055286395","category":"500","category_name":"未知分类","address":"上海陆家巷"}]