[{"poiid":"B2094757D06FA0FE439E","title":"马陆葡萄主题公园","lon":"121.31552641","lat":"31.380945212","category":"196","category_name":"公园","address":"嘉定区马陆镇大治路29号(近浏翔公路)"},{"poiid":"B2094654D469A5F84693","title":"东方假日田园","lon":"121.3302","lat":"31.39385","category":"250","category_name":"公园户外","address":"宝山区罗店镇张墅村联杨路3888号(近沪太路)"},{"poiid":"B2094757D065A0F54799","title":"宝山区民兵训练基地","lon":"121.327846","lat":"31.388912","category":"500","category_name":"未知分类","address":"上海张墅一路"},{"poiid":"B2094757D66DA4FF409C","title":"红葡萄餐厅","lon":"121.31696365","lat":"31.379767087","category":"76","category_name":"上海菜","address":"嘉定区马陆镇大治路27A马陆葡萄主题公园内(浏翔公路)"},{"poiid":"B2094654D469A5F9429E","title":"上海市宝山县张士综合厂","lon":"121.32776","lat":"31.38941","category":"263","category_name":"公司","address":"联杨路3606弄117"},{"poiid":"B2094757D168A1F5479C","title":"农家苑葡萄园","lon":"121.31988","lat":"31.39312","category":"260","category_name":"其他","address":"上海近郊嘉庆区马陆镇大裕村半项(近刘村路)  "},{"poiid":"B2094655D36CA6F54793","title":"大裕村","lon":"121.31537","lat":"31.38115","category":"38","category_name":"公交车站","address":""},{"poiid":"B2094654D469A5F94193","title":"上海新星机械工贸有限公司","lon":"121.33168","lat":"31.38956","category":"263","category_name":"公司","address":""},{"poiid":"B2094757D16DA2F9419F","title":"CoCo都可茶饮(城中店)","lon":"121.31953917","lat":"31.377849548","category":"500","category_name":"未知分类","address":"上海嘉定区嘉定镇城中路22-2号"},{"poiid":"B2094655D264A3F5499E","title":"长浜河界山桥","lon":"121.33639","lat":"31.37808","category":"250","category_name":"公园户外","address":""},{"poiid":"B2094757D168A5FC409E","title":"惠佳葡萄园艺场","lon":"121.31225585","lat":"31.385622024","category":"500","category_name":"未知分类","address":"嘉定区马陆镇大裕村张顾路2515号"},{"poiid":"B2094654D469A7F9459C","title":"南周鱼圹","lon":"121.341","lat":"31.38341","category":"248","category_name":"生活娱乐","address":""}]