[{"poiid":"B2094757D06FA7FF4192","title":"阳光威尼斯三期","lon":"121.36702","lat":"31.260181","category":"47","category_name":"住宅区","address":"普陀区靖边路199弄"},{"poiid":"B2094757D068A3FB409D","title":"嘉城-新航域","lon":"121.348728","lat":"31.264511","category":"47","category_name":"住宅区","address":"嘉定区海川路58弄"},{"poiid":"B2094757D06FA7FB489F","title":"沃尔玛(江桥店)","lon":"121.34640592","lat":"31.258225509","category":"118","category_name":"超级市场","address":"嘉定区江桥镇曹安路2200号(曹安公路华江公路)"},{"poiid":"B2094655D268ABF8409D","title":"外环沪宁立交桥","lon":"121.35323","lat":"31.25253","category":"250","category_name":"公园户外","address":""},{"poiid":"B2094757D469A1F9459D","title":"上海大饭堂 江桥店","lon":"121.3475485","lat":"31.2631359","category":"76","category_name":"上海菜","address":"嘉定区嘉怡路233弄嘉尚坊内(近海蓝路)"},{"poiid":"B2094757D06FA2FB439B","title":"大润发(曹安路店)","lon":"121.36147","lat":"31.25241","category":"118","category_name":"超级市场","address":"嘉定区新郁路807号(上海国际鞋城对面)"},{"poiid":"B2094757D06FA7FB459B","title":"江桥二村","lon":"121.35330757127","lat":"31.258862246193","category":"252","category_name":"楼宇机构","address":"江桥二村位于嘉定曹安路,华江路口"},{"poiid":"B2094757D169A0FB439F","title":"嘉尚坊","lon":"121.347542615","lat":"31.2636626924","category":"500","category_name":"未知分类","address":"上海市江桥嘉怡路233栋"},{"poiid":"B2094757D06FA7FE479E","title":"丰庄十四街坊","lon":"121.36180756625","lat":"31.253108907649","category":"47","category_name":"住宅区","address":"上海嘉定区丰庄西路433弄,丰庄西路551弄,丰庄北路151弄"},{"poiid":"B2094757D069AAFF469E","title":"香馥湾","lon":"121.34860102331345","lat":"31.264400999999985","category":"47","category_name":"住宅区","address":"嘉定区海川路77弄"},{"poiid":"B2094654D46BA7FA449A","title":"曹安国际商城","lon":"121.36743760369","lat":"31.259760165281","category":"119","category_name":"商场","address":"上海近郊嘉定区曹安路1877号"},{"poiid":"B2094757D064A3FE439B","title":"自由港量贩式KTV(曹安店)","lon":"121.36219423","lat":"31.2519824959","category":"170","category_name":"KTV","address":"嘉定区新郁路817号大润发B1楼(曹安路口)"},{"poiid":"B2094654D46BA6F54999","title":"恒嘉花园","lon":"121.35422","lat":"31.26169","category":"47","category_name":"住宅区","address":"绥德路曹南路"},{"poiid":"B2094757DA6FA1FE4398","title":"优衣库（曹安公路店）","lon":"121.35896005479","lat":"31.258394376656","category":"249","category_name":"购物服务","address":"嘉定区曹安公路1688号1-2楼(近轻纺市场)"},{"poiid":"B2094757D065A1FE479D","title":"嘉城爱琴海","lon":"121.34626492","lat":"31.267663705","category":"500","category_name":"未知分类","address":"上海市嘉定区海波路"},{"poiid":"B2094654D46BA5FD4093","title":"香槟河畔","lon":"121.34458","lat":"31.26248","category":"47","category_name":"住宅区","address":"上海市嘉定区嘉怡路157号"},{"poiid":"B2094757D16CABF54692","title":"真建花苑","lon":"121.36312","lat":"31.262707","category":"47","category_name":"住宅区","address":"上海普陀区桃浦路1925弄"},{"poiid":"B2094655D36DA2F5469D","title":"外环沪宁沪杭立交桥","lon":"121.36001","lat":"31.2676","category":"250","category_name":"公园户外","address":""},{"poiid":"B2094757D164A1FC489D","title":"南翔公馆","lon":"121.3569443","lat":"31.265073622","category":"500","category_name":"未知分类","address":"上海德华路"},{"poiid":"B2094654D46BA7F9489F","title":"真建花苑(边门)","lon":"121.3617","lat":"31.26387","category":"47","category_name":"住宅区","address":"桃浦路2055弄"},{"poiid":"B2094654D46BA4FC4892","title":"建新浴室(绥德路)","lon":"121.35581","lat":"31.26292","category":"149","category_name":"洗浴推拿场所","address":""},{"poiid":"B2094757D068AAFD4393","title":"a20高速公路","lon":"121.35552215","lat":"31.255931854","category":"260","category_name":"其他","address":"上海沪闵高架—漕宝—虹桥—淞虹路"},{"poiid":"B2094654D46BA4FC4893","title":"嘉定区江桥镇外口教育东方学校","lon":"121.35551","lat":"31.26612","category":"253","category_name":"校园生活","address":"江桥镇建华村建新270"},{"poiid":"B2094655D36CA0FA459D","title":"嘉怡路海川路","lon":"121.34808","lat":"31.26471","category":"38","category_name":"公交车站","address":""},{"poiid":"B2094757D068AAFF489C","title":"嘉城幸福港","lon":"121.35109837509","lat":"31.26865840165","category":"260","category_name":"其他","address":"上海海蓝路318弄"},{"poiid":"B2094757D168AAF8409E","title":"DQ冰雪皇后(嘉城店)","lon":"121.347740925","lat":"31.2645286403","category":"113","category_name":"冷饮店","address":"嘉定区嘉怡路233弄嘉尚坊商业中心30号(近江桥沃尔玛)"},{"poiid":"B2094757D06AABF44293","title":"嘉城 雅颂湾","lon":"121.343768925","lat":"31.2680257127","category":"47","category_name":"住宅区","address":"上海市嘉定区海波路"},{"poiid":"B2094752D764A2FD4898","title":"南翔医院","lon":"121.35391","lat":"31.268615","category":"162","category_name":"医院","address":"银翔路"},{"poiid":"B2094757D06FA6F9409B","title":"肯德基","lon":"121.362805397","lat":"31.2639950759","category":"68","category_name":"快餐厅","address":"上海曹杨路"},{"poiid":"B2094750DB6CAAFC469A","title":"上海虹桥车站","lon":"121.35466","lat":"31.260588","category":"500","category_name":"未知分类","address":null},{"poiid":"B2094751D56DA6F54399","title":"11号线曹杨路","lon":"121.361063","lat":"31.264533","category":"500","category_name":"未知分类","address":"曹杨路"},{"poiid":"B2094757D16BA1FE479D","title":"桃浦路定边路","lon":"121.36154395","lat":"31.263299932","category":"500","category_name":"未知分类","address":"上海桃浦路2055弄33号202室"},{"poiid":"B2094751D264A5F54792","title":"古猗庄园","lon":"121.359139","lat":"31.2607811","category":"500","category_name":"未知分类","address":"嘉定区南翔镇真南路3911号"},{"poiid":"B2094751D36AAAFE459E","title":"板门店自动烧烤","lon":"121.3476","lat":"31.26377","category":"96","category_name":"韩国料理","address":"嘉定区嘉怡路333弄嘉尚坊广场126号商铺(近海川路)"},{"poiid":"B2094757D169A7FA4792","title":"Fly酒吧","lon":"121.351045925","lat":"31.2592795317","category":"247","category_name":"餐饮美食","address":"上海衡山路191"},{"poiid":"B2094654D46BA7F44192","title":"嘉秀新苑","lon":"121.365452","lat":"31.256267","category":"47","category_name":"住宅区","address":"铜川路2655弄1-19号"},{"poiid":"B2094757D068A2F8409E","title":"嘉城桃花岛","lon":"121.34402912","lat":"31.263524269","category":"500","category_name":"未知分类","address":"上海嘉怡路279弄"},{"poiid":"B2094757D065A3F84993","title":"万得城(曹安店)","lon":"121.36307675","lat":"31.2532906409","category":"500","category_name":"未知分类","address":"上海市嘉定区曹安路1688号"},{"poiid":"B2094654D46BAAF84292","title":"春光家园","lon":"121.35783","lat":"31.277744","category":"47","category_name":"住宅区","address":"武威路1019弄"},{"poiid":"B2094750D76DA3FE449D","title":"泰煌火锅(江桥店)","lon":"121.348","lat":"31.2638","category":"86","category_name":"火锅店","address":"嘉定区嘉怡路233弄嘉尚坊内"},{"poiid":"B2094757D16DA2FF459D","title":"老锦江饭店","lon":"121.34990192","lat":"31.266028671","category":"247","category_name":"餐饮美食","address":"上海茂名南路59号"},{"poiid":"B2094655D264A7F94192","title":"华江景城","lon":"121.352744","lat":"31.273247","category":"47","category_name":"住宅区","address":"上海市嘉定区海波路307号"},{"poiid":"B2094654D46BA7FA4393","title":"百佛园","lon":"121.35684","lat":"31.25607","category":"243","category_name":"纪念馆","address":"嘉定区曹安公路1978号(近环西二大道)"},{"poiid":"B2094654DB65A0F4449A","title":"真建花苑(北门)","lon":"121.36431","lat":"31.26372","category":"47","category_name":"住宅区","address":"桃浦路1925弄"},{"poiid":"B2094753D769ABF84598","title":"上海外滩","lon":"121.348396","lat":"31.261188","category":"500","category_name":"未知分类","address":"上海市 上海市外滩"},{"poiid":"B2094655D36CA0F9419F","title":"江桥三村","lon":"121.34829043247","lat":"31.263830673614","category":"38","category_name":"公交车站","address":"临潭路490弄"},{"poiid":"B2094757D164A3FF4393","title":"星巴克Starbucks(淮海路巴黎春天店)","lon":"121.343921925","lat":"31.26161258","category":"247","category_name":"餐饮美食","address":"上海淮海中路陕西南路"},{"poiid":"B2094655D36CA0FA459C","title":"嘉怡路海波路","lon":"121.34792","lat":"31.26669","category":"38","category_name":"公交车站","address":""},{"poiid":"B2094655D36CA5FA4998","title":"曹安路外环线","lon":"121.35321","lat":"31.25671","category":"38","category_name":"公交车站","address":""},{"poiid":"B2094654D46BABF84999","title":"栅桥小区","lon":"121.35278","lat":"31.25657","category":"47","category_name":"住宅区","address":"上海丰江路188弄"},{"poiid":"B2094757D06FA7FF4192","title":"阳光威尼斯三期","lon":"121.36702","lat":"31.260181","category":"47","category_name":"住宅区","address":"普陀区靖边路199弄"},{"poiid":"B2094757D068A3FB409D","title":"嘉城-新航域","lon":"121.348728","lat":"31.264511","category":"47","category_name":"住宅区","address":"嘉定区海川路58弄"},{"poiid":"B2094757D06FA7FB489F","title":"沃尔玛(江桥店)","lon":"121.34640592","lat":"31.258225509","category":"118","category_name":"超级市场","address":"嘉定区江桥镇曹安路2200号(曹安公路华江公路)"},{"poiid":"B2094655D268ABF8409D","title":"外环沪宁立交桥","lon":"121.35323","lat":"31.25253","category":"250","category_name":"公园户外","address":""},{"poiid":"B2094757D469A1F9459D","title":"上海大饭堂 江桥店","lon":"121.3475485","lat":"31.2631359","category":"76","category_name":"上海菜","address":"嘉定区嘉怡路233弄嘉尚坊内(近海蓝路)"},{"poiid":"B2094757D06FA2FB439B","title":"大润发(曹安路店)","lon":"121.36147","lat":"31.25241","category":"118","category_name":"超级市场","address":"嘉定区新郁路807号(上海国际鞋城对面)"},{"poiid":"B2094757D06FA7FB459B","title":"江桥二村","lon":"121.35330757127","lat":"31.258862246193","category":"252","category_name":"楼宇机构","address":"江桥二村位于嘉定曹安路,华江路口"},{"poiid":"B2094757D169A0FB439F","title":"嘉尚坊","lon":"121.347542615","lat":"31.2636626924","category":"500","category_name":"未知分类","address":"上海市江桥嘉怡路233栋"},{"poiid":"B2094757D06FA7FE479E","title":"丰庄十四街坊","lon":"121.36180756625","lat":"31.253108907649","category":"47","category_name":"住宅区","address":"上海嘉定区丰庄西路433弄,丰庄西路551弄,丰庄北路151弄"},{"poiid":"B2094757D069AAFF469E","title":"香馥湾","lon":"121.34860102331345","lat":"31.264400999999985","category":"47","category_name":"住宅区","address":"嘉定区海川路77弄"},{"poiid":"B2094654D46BA7FA449A","title":"曹安国际商城","lon":"121.36743760369","lat":"31.259760165281","category":"119","category_name":"商场","address":"上海近郊嘉定区曹安路1877号"},{"poiid":"B2094757D064A3FE439B","title":"自由港量贩式KTV(曹安店)","lon":"121.36219423","lat":"31.2519824959","category":"170","category_name":"KTV","address":"嘉定区新郁路817号大润发B1楼(曹安路口)"},{"poiid":"B2094654D46BA6F54999","title":"恒嘉花园","lon":"121.35422","lat":"31.26169","category":"47","category_name":"住宅区","address":"绥德路曹南路"},{"poiid":"B2094757DA6FA1FE4398","title":"优衣库（曹安公路店）","lon":"121.35896005479","lat":"31.258394376656","category":"249","category_name":"购物服务","address":"嘉定区曹安公路1688号1-2楼(近轻纺市场)"},{"poiid":"B2094757D065A1FE479D","title":"嘉城爱琴海","lon":"121.34626492","lat":"31.267663705","category":"500","category_name":"未知分类","address":"上海市嘉定区海波路"},{"poiid":"B2094654D46BA5FD4093","title":"香槟河畔","lon":"121.34458","lat":"31.26248","category":"47","category_name":"住宅区","address":"上海市嘉定区嘉怡路157号"},{"poiid":"B2094757D16CABF54692","title":"真建花苑","lon":"121.36312","lat":"31.262707","category":"47","category_name":"住宅区","address":"上海普陀区桃浦路1925弄"},{"poiid":"B2094655D36DA2F5469D","title":"外环沪宁沪杭立交桥","lon":"121.36001","lat":"31.2676","category":"250","category_name":"公园户外","address":""},{"poiid":"B2094757D164A1FC489D","title":"南翔公馆","lon":"121.3569443","lat":"31.265073622","category":"500","category_name":"未知分类","address":"上海德华路"},{"poiid":"B2094654D46BA7F9489F","title":"真建花苑(边门)","lon":"121.3617","lat":"31.26387","category":"47","category_name":"住宅区","address":"桃浦路2055弄"},{"poiid":"B2094654D46BA4FC4892","title":"建新浴室(绥德路)","lon":"121.35581","lat":"31.26292","category":"149","category_name":"洗浴推拿场所","address":""},{"poiid":"B2094757D068AAFD4393","title":"a20高速公路","lon":"121.35552215","lat":"31.255931854","category":"260","category_name":"其他","address":"上海沪闵高架—漕宝—虹桥—淞虹路"},{"poiid":"B2094654D46BA4FC4893","title":"嘉定区江桥镇外口教育东方学校","lon":"121.35551","lat":"31.26612","category":"253","category_name":"校园生活","address":"江桥镇建华村建新270"},{"poiid":"B2094655D36CA0FA459D","title":"嘉怡路海川路","lon":"121.34808","lat":"31.26471","category":"38","category_name":"公交车站","address":""},{"poiid":"B2094757D068AAFF489C","title":"嘉城幸福港","lon":"121.35109837509","lat":"31.26865840165","category":"260","category_name":"其他","address":"上海海蓝路318弄"},{"poiid":"B2094757D168AAF8409E","title":"DQ冰雪皇后(嘉城店)","lon":"121.347740925","lat":"31.2645286403","category":"113","category_name":"冷饮店","address":"嘉定区嘉怡路233弄嘉尚坊商业中心30号(近江桥沃尔玛)"},{"poiid":"B2094757D06AABF44293","title":"嘉城 雅颂湾","lon":"121.343768925","lat":"31.2680257127","category":"47","category_name":"住宅区","address":"上海市嘉定区海波路"},{"poiid":"B2094752D764A2FD4898","title":"南翔医院","lon":"121.35391","lat":"31.268615","category":"162","category_name":"医院","address":"银翔路"},{"poiid":"B2094757D06FA6F9409B","title":"肯德基","lon":"121.362805397","lat":"31.2639950759","category":"68","category_name":"快餐厅","address":"上海曹杨路"},{"poiid":"B2094750DB6CAAFC469A","title":"上海虹桥车站","lon":"121.35466","lat":"31.260588","category":"500","category_name":"未知分类","address":null},{"poiid":"B2094751D56DA6F54399","title":"11号线曹杨路","lon":"121.361063","lat":"31.264533","category":"500","category_name":"未知分类","address":"曹杨路"},{"poiid":"B2094757D16BA1FE479D","title":"桃浦路定边路","lon":"121.36154395","lat":"31.263299932","category":"500","category_name":"未知分类","address":"上海桃浦路2055弄33号202室"},{"poiid":"B2094751D264A5F54792","title":"古猗庄园","lon":"121.359139","lat":"31.2607811","category":"500","category_name":"未知分类","address":"嘉定区南翔镇真南路3911号"},{"poiid":"B2094751D36AAAFE459E","title":"板门店自动烧烤","lon":"121.3476","lat":"31.26377","category":"96","category_name":"韩国料理","address":"嘉定区嘉怡路333弄嘉尚坊广场126号商铺(近海川路)"},{"poiid":"B2094757D169A7FA4792","title":"Fly酒吧","lon":"121.351045925","lat":"31.2592795317","category":"247","category_name":"餐饮美食","address":"上海衡山路191"},{"poiid":"B2094654D46BA7F44192","title":"嘉秀新苑","lon":"121.365452","lat":"31.256267","category":"47","category_name":"住宅区","address":"铜川路2655弄1-19号"},{"poiid":"B2094757D068A2F8409E","title":"嘉城桃花岛","lon":"121.34402912","lat":"31.263524269","category":"500","category_name":"未知分类","address":"上海嘉怡路279弄"},{"poiid":"B2094757D065A3F84993","title":"万得城(曹安店)","lon":"121.36307675","lat":"31.2532906409","category":"500","category_name":"未知分类","address":"上海市嘉定区曹安路1688号"},{"poiid":"B2094654D46BAAF84292","title":"春光家园","lon":"121.35783","lat":"31.277744","category":"47","category_name":"住宅区","address":"武威路1019弄"},{"poiid":"B2094750D76DA3FE449D","title":"泰煌火锅(江桥店)","lon":"121.348","lat":"31.2638","category":"86","category_name":"火锅店","address":"嘉定区嘉怡路233弄嘉尚坊内"},{"poiid":"B2094757D16DA2FF459D","title":"老锦江饭店","lon":"121.34990192","lat":"31.266028671","category":"247","category_name":"餐饮美食","address":"上海茂名南路59号"},{"poiid":"B2094655D264A7F94192","title":"华江景城","lon":"121.352744","lat":"31.273247","category":"47","category_name":"住宅区","address":"上海市嘉定区海波路307号"},{"poiid":"B2094654D46BA7FA4393","title":"百佛园","lon":"121.35684","lat":"31.25607","category":"243","category_name":"纪念馆","address":"嘉定区曹安公路1978号(近环西二大道)"},{"poiid":"B2094654DB65A0F4449A","title":"真建花苑(北门)","lon":"121.36431","lat":"31.26372","category":"47","category_name":"住宅区","address":"桃浦路1925弄"},{"poiid":"B2094753D769ABF84598","title":"上海外滩","lon":"121.348396","lat":"31.261188","category":"500","category_name":"未知分类","address":"上海市 上海市外滩"},{"poiid":"B2094655D36CA0F9419F","title":"江桥三村","lon":"121.34829043247","lat":"31.263830673614","category":"38","category_name":"公交车站","address":"临潭路490弄"},{"poiid":"B2094757D164A3FF4393","title":"星巴克Starbucks(淮海路巴黎春天店)","lon":"121.343921925","lat":"31.26161258","category":"247","category_name":"餐饮美食","address":"上海淮海中路陕西南路"},{"poiid":"B2094655D36CA0FA459C","title":"嘉怡路海波路","lon":"121.34792","lat":"31.26669","category":"38","category_name":"公交车站","address":""},{"poiid":"B2094655D36CA5FA4998","title":"曹安路外环线","lon":"121.35321","lat":"31.25671","category":"38","category_name":"公交车站","address":""},{"poiid":"B2094654D46BABF84999","title":"栅桥小区","lon":"121.35278","lat":"31.25657","category":"47","category_name":"住宅区","address":"上海丰江路188弄"},{"poiid":"B2094757D06FA7FF4192","title":"阳光威尼斯三期","lon":"121.36702","lat":"31.260181","category":"47","category_name":"住宅区","address":"普陀区靖边路199弄"},{"poiid":"B2094757D068A3FB409D","title":"嘉城-新航域","lon":"121.348728","lat":"31.264511","category":"47","category_name":"住宅区","address":"嘉定区海川路58弄"},{"poiid":"B2094757D06FA7FB489F","title":"沃尔玛(江桥店)","lon":"121.34640592","lat":"31.258225509","category":"118","category_name":"超级市场","address":"嘉定区江桥镇曹安路2200号(曹安公路华江公路)"},{"poiid":"B2094655D268ABF8409D","title":"外环沪宁立交桥","lon":"121.35323","lat":"31.25253","category":"250","category_name":"公园户外","address":""},{"poiid":"B2094757D469A1F9459D","title":"上海大饭堂 江桥店","lon":"121.3475485","lat":"31.2631359","category":"76","category_name":"上海菜","address":"嘉定区嘉怡路233弄嘉尚坊内(近海蓝路)"},{"poiid":"B2094757D06FA2FB439B","title":"大润发(曹安路店)","lon":"121.36147","lat":"31.25241","category":"118","category_name":"超级市场","address":"嘉定区新郁路807号(上海国际鞋城对面)"},{"poiid":"B2094757D06FA7FB459B","title":"江桥二村","lon":"121.35330757127","lat":"31.258862246193","category":"252","category_name":"楼宇机构","address":"江桥二村位于嘉定曹安路,华江路口"},{"poiid":"B2094757D169A0FB439F","title":"嘉尚坊","lon":"121.347542615","lat":"31.2636626924","category":"500","category_name":"未知分类","address":"上海市江桥嘉怡路233栋"},{"poiid":"B2094757D06FA7FE479E","title":"丰庄十四街坊","lon":"121.36180756625","lat":"31.253108907649","category":"47","category_name":"住宅区","address":"上海嘉定区丰庄西路433弄,丰庄西路551弄,丰庄北路151弄"},{"poiid":"B2094757D069AAFF469E","title":"香馥湾","lon":"121.34860102331345","lat":"31.264400999999985","category":"47","category_name":"住宅区","address":"嘉定区海川路77弄"},{"poiid":"B2094654D46BA7FA449A","title":"曹安国际商城","lon":"121.36743760369","lat":"31.259760165281","category":"119","category_name":"商场","address":"上海近郊嘉定区曹安路1877号"},{"poiid":"B2094757D064A3FE439B","title":"自由港量贩式KTV(曹安店)","lon":"121.36219423","lat":"31.2519824959","category":"170","category_name":"KTV","address":"嘉定区新郁路817号大润发B1楼(曹安路口)"},{"poiid":"B2094654D46BA6F54999","title":"恒嘉花园","lon":"121.35422","lat":"31.26169","category":"47","category_name":"住宅区","address":"绥德路曹南路"},{"poiid":"B2094757DA6FA1FE4398","title":"优衣库（曹安公路店）","lon":"121.35896005479","lat":"31.258394376656","category":"249","category_name":"购物服务","address":"嘉定区曹安公路1688号1-2楼(近轻纺市场)"},{"poiid":"B2094757D065A1FE479D","title":"嘉城爱琴海","lon":"121.34626492","lat":"31.267663705","category":"500","category_name":"未知分类","address":"上海市嘉定区海波路"},{"poiid":"B2094654D46BA5FD4093","title":"香槟河畔","lon":"121.34458","lat":"31.26248","category":"47","category_name":"住宅区","address":"上海市嘉定区嘉怡路157号"},{"poiid":"B2094757D16CABF54692","title":"真建花苑","lon":"121.36312","lat":"31.262707","category":"47","category_name":"住宅区","address":"上海普陀区桃浦路1925弄"},{"poiid":"B2094655D36DA2F5469D","title":"外环沪宁沪杭立交桥","lon":"121.36001","lat":"31.2676","category":"250","category_name":"公园户外","address":""},{"poiid":"B2094757D164A1FC489D","title":"南翔公馆","lon":"121.3569443","lat":"31.265073622","category":"500","category_name":"未知分类","address":"上海德华路"},{"poiid":"B2094654D46BA7F9489F","title":"真建花苑(边门)","lon":"121.3617","lat":"31.26387","category":"47","category_name":"住宅区","address":"桃浦路2055弄"},{"poiid":"B2094654D46BA4FC4892","title":"建新浴室(绥德路)","lon":"121.35581","lat":"31.26292","category":"149","category_name":"洗浴推拿场所","address":""},{"poiid":"B2094757D068AAFD4393","title":"a20高速公路","lon":"121.35552215","lat":"31.255931854","category":"260","category_name":"其他","address":"上海沪闵高架—漕宝—虹桥—淞虹路"},{"poiid":"B2094654D46BA4FC4893","title":"嘉定区江桥镇外口教育东方学校","lon":"121.35551","lat":"31.26612","category":"253","category_name":"校园生活","address":"江桥镇建华村建新270"},{"poiid":"B2094655D36CA0FA459D","title":"嘉怡路海川路","lon":"121.34808","lat":"31.26471","category":"38","category_name":"公交车站","address":""},{"poiid":"B2094757D068AAFF489C","title":"嘉城幸福港","lon":"121.35109837509","lat":"31.26865840165","category":"260","category_name":"其他","address":"上海海蓝路318弄"},{"poiid":"B2094757D168AAF8409E","title":"DQ冰雪皇后(嘉城店)","lon":"121.347740925","lat":"31.2645286403","category":"113","category_name":"冷饮店","address":"嘉定区嘉怡路233弄嘉尚坊商业中心30号(近江桥沃尔玛)"},{"poiid":"B2094757D06AABF44293","title":"嘉城 雅颂湾","lon":"121.343768925","lat":"31.2680257127","category":"47","category_name":"住宅区","address":"上海市嘉定区海波路"},{"poiid":"B2094752D764A2FD4898","title":"南翔医院","lon":"121.35391","lat":"31.268615","category":"162","category_name":"医院","address":"银翔路"},{"poiid":"B2094757D06FA6F9409B","title":"肯德基","lon":"121.362805397","lat":"31.2639950759","category":"68","category_name":"快餐厅","address":"上海曹杨路"},{"poiid":"B2094750DB6CAAFC469A","title":"上海虹桥车站","lon":"121.35466","lat":"31.260588","category":"500","category_name":"未知分类","address":null},{"poiid":"B2094751D56DA6F54399","title":"11号线曹杨路","lon":"121.361063","lat":"31.264533","category":"500","category_name":"未知分类","address":"曹杨路"},{"poiid":"B2094757D16BA1FE479D","title":"桃浦路定边路","lon":"121.36154395","lat":"31.263299932","category":"500","category_name":"未知分类","address":"上海桃浦路2055弄33号202室"},{"poiid":"B2094751D264A5F54792","title":"古猗庄园","lon":"121.359139","lat":"31.2607811","category":"500","category_name":"未知分类","address":"嘉定区南翔镇真南路3911号"},{"poiid":"B2094751D36AAAFE459E","title":"板门店自动烧烤","lon":"121.3476","lat":"31.26377","category":"96","category_name":"韩国料理","address":"嘉定区嘉怡路333弄嘉尚坊广场126号商铺(近海川路)"},{"poiid":"B2094757D169A7FA4792","title":"Fly酒吧","lon":"121.351045925","lat":"31.2592795317","category":"247","category_name":"餐饮美食","address":"上海衡山路191"},{"poiid":"B2094654D46BA7F44192","title":"嘉秀新苑","lon":"121.365452","lat":"31.256267","category":"47","category_name":"住宅区","address":"铜川路2655弄1-19号"},{"poiid":"B2094757D068A2F8409E","title":"嘉城桃花岛","lon":"121.34402912","lat":"31.263524269","category":"500","category_name":"未知分类","address":"上海嘉怡路279弄"},{"poiid":"B2094757D065A3F84993","title":"万得城(曹安店)","lon":"121.36307675","lat":"31.2532906409","category":"500","category_name":"未知分类","address":"上海市嘉定区曹安路1688号"},{"poiid":"B2094654D46BAAF84292","title":"春光家园","lon":"121.35783","lat":"31.277744","category":"47","category_name":"住宅区","address":"武威路1019弄"},{"poiid":"B2094750D76DA3FE449D","title":"泰煌火锅(江桥店)","lon":"121.348","lat":"31.2638","category":"86","category_name":"火锅店","address":"嘉定区嘉怡路233弄嘉尚坊内"},{"poiid":"B2094757D16DA2FF459D","title":"老锦江饭店","lon":"121.34990192","lat":"31.266028671","category":"247","category_name":"餐饮美食","address":"上海茂名南路59号"},{"poiid":"B2094655D264A7F94192","title":"华江景城","lon":"121.352744","lat":"31.273247","category":"47","category_name":"住宅区","address":"上海市嘉定区海波路307号"},{"poiid":"B2094654D46BA7FA4393","title":"百佛园","lon":"121.35684","lat":"31.25607","category":"243","category_name":"纪念馆","address":"嘉定区曹安公路1978号(近环西二大道)"},{"poiid":"B2094654DB65A0F4449A","title":"真建花苑(北门)","lon":"121.36431","lat":"31.26372","category":"47","category_name":"住宅区","address":"桃浦路1925弄"},{"poiid":"B2094753D769ABF84598","title":"上海外滩","lon":"121.348396","lat":"31.261188","category":"500","category_name":"未知分类","address":"上海市 上海市外滩"},{"poiid":"B2094655D36CA0F9419F","title":"江桥三村","lon":"121.34829043247","lat":"31.263830673614","category":"38","category_name":"公交车站","address":"临潭路490弄"},{"poiid":"B2094757D164A3FF4393","title":"星巴克Starbucks(淮海路巴黎春天店)","lon":"121.343921925","lat":"31.26161258","category":"247","category_name":"餐饮美食","address":"上海淮海中路陕西南路"},{"poiid":"B2094655D36CA0FA459C","title":"嘉怡路海波路","lon":"121.34792","lat":"31.26669","category":"38","category_name":"公交车站","address":""},{"poiid":"B2094655D36CA5FA4998","title":"曹安路外环线","lon":"121.35321","lat":"31.25671","category":"38","category_name":"公交车站","address":""},{"poiid":"B2094654D46BABF84999","title":"栅桥小区","lon":"121.35278","lat":"31.25657","category":"47","category_name":"住宅区","address":"上海丰江路188弄"},{"poiid":"B2094757D06FA7FF4192","title":"阳光威尼斯三期","lon":"121.36702","lat":"31.260181","category":"47","category_name":"住宅区","address":"普陀区靖边路199弄"},{"poiid":"B2094757D068A3FB409D","title":"嘉城-新航域","lon":"121.348728","lat":"31.264511","category":"47","category_name":"住宅区","address":"嘉定区海川路58弄"},{"poiid":"B2094757D06FA7FB489F","title":"沃尔玛(江桥店)","lon":"121.34640592","lat":"31.258225509","category":"118","category_name":"超级市场","address":"嘉定区江桥镇曹安路2200号(曹安公路华江公路)"},{"poiid":"B2094655D268ABF8409D","title":"外环沪宁立交桥","lon":"121.35323","lat":"31.25253","category":"250","category_name":"公园户外","address":""},{"poiid":"B2094757D469A1F9459D","title":"上海大饭堂 江桥店","lon":"121.3475485","lat":"31.2631359","category":"76","category_name":"上海菜","address":"嘉定区嘉怡路233弄嘉尚坊内(近海蓝路)"},{"poiid":"B2094757D06FA2FB439B","title":"大润发(曹安路店)","lon":"121.36147","lat":"31.25241","category":"118","category_name":"超级市场","address":"嘉定区新郁路807号(上海国际鞋城对面)"},{"poiid":"B2094757D06FA7FB459B","title":"江桥二村","lon":"121.35330757127","lat":"31.258862246193","category":"252","category_name":"楼宇机构","address":"江桥二村位于嘉定曹安路,华江路口"},{"poiid":"B2094757D169A0FB439F","title":"嘉尚坊","lon":"121.347542615","lat":"31.2636626924","category":"500","category_name":"未知分类","address":"上海市江桥嘉怡路233栋"},{"poiid":"B2094757D06FA7FE479E","title":"丰庄十四街坊","lon":"121.36180756625","lat":"31.253108907649","category":"47","category_name":"住宅区","address":"上海嘉定区丰庄西路433弄,丰庄西路551弄,丰庄北路151弄"},{"poiid":"B2094757D069AAFF469E","title":"香馥湾","lon":"121.34860102331345","lat":"31.264400999999985","category":"47","category_name":"住宅区","address":"嘉定区海川路77弄"},{"poiid":"B2094654D46BA7FA449A","title":"曹安国际商城","lon":"121.36743760369","lat":"31.259760165281","category":"119","category_name":"商场","address":"上海近郊嘉定区曹安路1877号"},{"poiid":"B2094757D064A3FE439B","title":"自由港量贩式KTV(曹安店)","lon":"121.36219423","lat":"31.2519824959","category":"170","category_name":"KTV","address":"嘉定区新郁路817号大润发B1楼(曹安路口)"},{"poiid":"B2094654D46BA6F54999","title":"恒嘉花园","lon":"121.35422","lat":"31.26169","category":"47","category_name":"住宅区","address":"绥德路曹南路"},{"poiid":"B2094757DA6FA1FE4398","title":"优衣库（曹安公路店）","lon":"121.35896005479","lat":"31.258394376656","category":"249","category_name":"购物服务","address":"嘉定区曹安公路1688号1-2楼(近轻纺市场)"},{"poiid":"B2094757D065A1FE479D","title":"嘉城爱琴海","lon":"121.34626492","lat":"31.267663705","category":"500","category_name":"未知分类","address":"上海市嘉定区海波路"},{"poiid":"B2094654D46BA5FD4093","title":"香槟河畔","lon":"121.34458","lat":"31.26248","category":"47","category_name":"住宅区","address":"上海市嘉定区嘉怡路157号"},{"poiid":"B2094757D16CABF54692","title":"真建花苑","lon":"121.36312","lat":"31.262707","category":"47","category_name":"住宅区","address":"上海普陀区桃浦路1925弄"},{"poiid":"B2094655D36DA2F5469D","title":"外环沪宁沪杭立交桥","lon":"121.36001","lat":"31.2676","category":"250","category_name":"公园户外","address":""},{"poiid":"B2094757D164A1FC489D","title":"南翔公馆","lon":"121.3569443","lat":"31.265073622","category":"500","category_name":"未知分类","address":"上海德华路"},{"poiid":"B2094654D46BA7F9489F","title":"真建花苑(边门)","lon":"121.3617","lat":"31.26387","category":"47","category_name":"住宅区","address":"桃浦路2055弄"},{"poiid":"B2094654D46BA4FC4892","title":"建新浴室(绥德路)","lon":"121.35581","lat":"31.26292","category":"149","category_name":"洗浴推拿场所","address":""},{"poiid":"B2094757D068AAFD4393","title":"a20高速公路","lon":"121.35552215","lat":"31.255931854","category":"260","category_name":"其他","address":"上海沪闵高架—漕宝—虹桥—淞虹路"},{"poiid":"B2094654D46BA4FC4893","title":"嘉定区江桥镇外口教育东方学校","lon":"121.35551","lat":"31.26612","category":"253","category_name":"校园生活","address":"江桥镇建华村建新270"},{"poiid":"B2094655D36CA0FA459D","title":"嘉怡路海川路","lon":"121.34808","lat":"31.26471","category":"38","category_name":"公交车站","address":""},{"poiid":"B2094757D068AAFF489C","title":"嘉城幸福港","lon":"121.35109837509","lat":"31.26865840165","category":"260","category_name":"其他","address":"上海海蓝路318弄"},{"poiid":"B2094757D168AAF8409E","title":"DQ冰雪皇后(嘉城店)","lon":"121.347740925","lat":"31.2645286403","category":"113","category_name":"冷饮店","address":"嘉定区嘉怡路233弄嘉尚坊商业中心30号(近江桥沃尔玛)"},{"poiid":"B2094757D06AABF44293","title":"嘉城 雅颂湾","lon":"121.343768925","lat":"31.2680257127","category":"47","category_name":"住宅区","address":"上海市嘉定区海波路"},{"poiid":"B2094752D764A2FD4898","title":"南翔医院","lon":"121.35391","lat":"31.268615","category":"162","category_name":"医院","address":"银翔路"},{"poiid":"B2094757D06FA6F9409B","title":"肯德基","lon":"121.362805397","lat":"31.2639950759","category":"68","category_name":"快餐厅","address":"上海曹杨路"},{"poiid":"B2094750DB6CAAFC469A","title":"上海虹桥车站","lon":"121.35466","lat":"31.260588","category":"500","category_name":"未知分类","address":null},{"poiid":"B2094751D56DA6F54399","title":"11号线曹杨路","lon":"121.361063","lat":"31.264533","category":"500","category_name":"未知分类","address":"曹杨路"},{"poiid":"B2094757D16BA1FE479D","title":"桃浦路定边路","lon":"121.36154395","lat":"31.263299932","category":"500","category_name":"未知分类","address":"上海桃浦路2055弄33号202室"},{"poiid":"B2094751D264A5F54792","title":"古猗庄园","lon":"121.359139","lat":"31.2607811","category":"500","category_name":"未知分类","address":"嘉定区南翔镇真南路3911号"},{"poiid":"B2094751D36AAAFE459E","title":"板门店自动烧烤","lon":"121.3476","lat":"31.26377","category":"96","category_name":"韩国料理","address":"嘉定区嘉怡路333弄嘉尚坊广场126号商铺(近海川路)"},{"poiid":"B2094757D169A7FA4792","title":"Fly酒吧","lon":"121.351045925","lat":"31.2592795317","category":"247","category_name":"餐饮美食","address":"上海衡山路191"},{"poiid":"B2094654D46BA7F44192","title":"嘉秀新苑","lon":"121.365452","lat":"31.256267","category":"47","category_name":"住宅区","address":"铜川路2655弄1-19号"},{"poiid":"B2094757D068A2F8409E","title":"嘉城桃花岛","lon":"121.34402912","lat":"31.263524269","category":"500","category_name":"未知分类","address":"上海嘉怡路279弄"},{"poiid":"B2094757D065A3F84993","title":"万得城(曹安店)","lon":"121.36307675","lat":"31.2532906409","category":"500","category_name":"未知分类","address":"上海市嘉定区曹安路1688号"},{"poiid":"B2094654D46BAAF84292","title":"春光家园","lon":"121.35783","lat":"31.277744","category":"47","category_name":"住宅区","address":"武威路1019弄"},{"poiid":"B2094750D76DA3FE449D","title":"泰煌火锅(江桥店)","lon":"121.348","lat":"31.2638","category":"86","category_name":"火锅店","address":"嘉定区嘉怡路233弄嘉尚坊内"},{"poiid":"B2094757D16DA2FF459D","title":"老锦江饭店","lon":"121.34990192","lat":"31.266028671","category":"247","category_name":"餐饮美食","address":"上海茂名南路59号"},{"poiid":"B2094655D264A7F94192","title":"华江景城","lon":"121.352744","lat":"31.273247","category":"47","category_name":"住宅区","address":"上海市嘉定区海波路307号"},{"poiid":"B2094654D46BA7FA4393","title":"百佛园","lon":"121.35684","lat":"31.25607","category":"243","category_name":"纪念馆","address":"嘉定区曹安公路1978号(近环西二大道)"},{"poiid":"B2094654DB65A0F4449A","title":"真建花苑(北门)","lon":"121.36431","lat":"31.26372","category":"47","category_name":"住宅区","address":"桃浦路1925弄"},{"poiid":"B2094753D769ABF84598","title":"上海外滩","lon":"121.348396","lat":"31.261188","category":"500","category_name":"未知分类","address":"上海市 上海市外滩"},{"poiid":"B2094655D36CA0F9419F","title":"江桥三村","lon":"121.34829043247","lat":"31.263830673614","category":"38","category_name":"公交车站","address":"临潭路490弄"},{"poiid":"B2094757D164A3FF4393","title":"星巴克Starbucks(淮海路巴黎春天店)","lon":"121.343921925","lat":"31.26161258","category":"247","category_name":"餐饮美食","address":"上海淮海中路陕西南路"},{"poiid":"B2094655D36CA0FA459C","title":"嘉怡路海波路","lon":"121.34792","lat":"31.26669","category":"38","category_name":"公交车站","address":""},{"poiid":"B2094655D36CA5FA4998","title":"曹安路外环线","lon":"121.35321","lat":"31.25671","category":"38","category_name":"公交车站","address":""},{"poiid":"B2094654D46BABF84999","title":"栅桥小区","lon":"121.35278","lat":"31.25657","category":"47","category_name":"住宅区","address":"上海丰江路188弄"}]