[{"poiid":"B2094757D06FA3F8429C","title":"淮海路","lon":"121.46398412","lat":"31.222631868","category":"260","category_name":"其他","address":"上海淮海路"},{"poiid":"B2094654DA6EABFC4898","title":"香港新世界大厦","lon":"121.47351","lat":"31.2236","category":"46","category_name":"楼宇","address":"越秀区广州沿江中路298号"},{"poiid":"B2094757D06FA7F94199","title":"市政大厦","lon":"121.472011","lat":"31.226881","category":"46","category_name":"楼宇","address":"上海市黄浦区大沽路100号"},{"poiid":"B2094753D76FAAFA449C","title":"上海滩国泰旗舰店","lon":"121.466011","lat":"31.216125","category":"249","category_name":"购物服务","address":"淮海中路868号"},{"poiid":"B209475CD564A7F84292","title":"上海滩新天地店","lon":"121.47463","lat":"31.22164","category":"119","category_name":"商场","address":"\"太仓路181弄新天地北里15号\r\n\""},{"poiid":"B209475CD564A7F8439E","title":"上海滩中信泰富店","lon":"121.45602","lat":"31.22851","category":"119","category_name":"商场","address":"\"南京西路1168号中信泰富广场，店铺号221.\r\n\""},{"poiid":"B209475CD564A7F84392","title":"上海滩浦东香格里拉店","lon":"121.50058","lat":"31.23634","category":"119","category_name":"商场","address":"浦东富成路33号香格里拉酒店内大堂层"},{"poiid":"B2094757D06FA2F44299","title":"喜锅饭","lon":"121.472966918","lat":"31.2232093036","category":"68","category_name":"快餐厅","address":"卢湾区淮海中路358弄尚贤坊27号(近马当路)"},{"poiid":"B2094757D068A3F54292","title":"二百永新大厦","lon":"121.472368","lat":"31.226048","category":"46","category_name":"楼宇","address":"上海淮海中路887号"},{"poiid":"B2094654DB6BA4FD489F","title":"新华联大厦","lon":"121.471","lat":"31.2248","category":"46","category_name":"楼宇","address":"越秀区广州沿江中路298号"},{"poiid":"B209475DD16EAAF84492","title":"赵小姐不等位","lon":"121.473152","lat":"31.22327","category":"500","category_name":"未知分类","address":"上海市 太仓路70号"},{"poiid":"B2094757D068A2FF429B","title":"电信大楼","lon":"121.473292093","lat":"31.226889133","category":"46","category_name":"楼宇","address":"上海武胜路333号"},{"poiid":"B2094757D56CA1FE429D","title":"星巴克 力宝广场店 Starbucks Cafe","lon":"121.47456367878","lat":"31.223538465013","category":"247","category_name":"餐饮美食","address":"淮海中路222号力宝广场1楼近嵩山路"},{"poiid":"B2094757D06FAAF5489B","title":"东泰祥生煎馒头馆 重庆北路店","lon":"121.47016","lat":"31.226474","category":"68","category_name":"快餐厅","address":"黄浦区重庆北路188号(近大沽路)"},{"poiid":"B2094654DA6EABFC4599","title":"上海外服门诊部","lon":"121.47341","lat":"31.22458","category":"162","category_name":"医院","address":"金陵西路28号金陵大厦1号楼3层、2号楼1010室"},{"poiid":"B2094752D068A5FD4699","title":"披萨马上诺","lon":"121.474147","lat":"31.223948","category":"247","category_name":"餐饮美食","address":"K11"},{"poiid":"B2094757DB6CA5F84593","title":"Element Fresh","lon":"121.470734","lat":"31.223412","category":"247","category_name":"餐饮美食","address":"Xin tian Di"},{"poiid":"B2094751D564ABF44592","title":"圣诞集市","lon":"121.470834","lat":"31.225767","category":"248","category_name":"生活娱乐","address":"卢湾区新天地太平湖广场"},{"poiid":"B2094752D66FA2F9489B","title":"k11购物艺术中心 鸿星荟","lon":"121.473434","lat":"31.223373","category":"500","category_name":"未知分类","address":"淮海中路 300号"},{"poiid":"B2094757D164A5F54398","title":"望星空宴会厅","lon":"121.47267073","lat":"31.226613223","category":"247","category_name":"餐饮美食","address":"上海大剧院八楼"},{"poiid":"B2094757D068A4F9409E","title":"上海市黄浦区人民法院","lon":"121.47189331","lat":"31.225976944","category":"608","category_name":"法院","address":"上海市延安东路1234号"},{"poiid":"B2094757DA64AAF44398","title":"M&S cafe","lon":"121.473258","lat":"31.227341","category":"247","category_name":"餐饮美食","address":"上海市淮海中路96号金钟广场M&S内"},{"poiid":"B2094757D069A2FD429E","title":"电信世界","lon":"121.47264099","lat":"31.226232528","category":"151","category_name":"电讯营业厅","address":"上海黄浦区延安东路1200号"},{"poiid":"B2094655D36CA6F54598","title":"淡水路","lon":"121.47198","lat":"31.22328","category":"38","category_name":"公交车站","address":""},{"poiid":"B2094757D068A0F54892","title":"林记小厨","lon":"121.470973738","lat":"31.2274302404","category":"247","category_name":"餐饮美食","address":"上海黄浦区黄陂北路227号中区广场二楼"},{"poiid":"B209475CD365A0FF419B","title":"简单生活 K11店","lon":"121.47344","lat":"31.22384","category":"94","category_name":"西餐厅","address":"淮海中路300号上海K11购物艺术中心L1楼107室(近金陵西路)"},{"poiid":"B2094757D068A4F9429C","title":"徐其修凉茶","lon":"121.47148973","lat":"31.222897143","category":"113","category_name":"冷饮店","address":"卢湾区兴安路98弄10号(近雁荡路)"},{"poiid":"B2094753D26DA0FD4298","title":"揽香","lon":"121.474487","lat":"31.22551","category":"247","category_name":"餐饮美食","address":"上海市 上海市淮海中路381号中环广场3楼"},{"poiid":"B2094752D46AA2F8479C","title":"中国农业银行卢湾瑞金二路支行","lon":"121.471698","lat":"31.225296","category":"150","category_name":"银行","address":"上海市卢湾区淮海中路701-721号"},{"poiid":"B2094655D26EABFB4099","title":"上海电信世界大厦","lon":"121.47264","lat":"31.22622","category":"46","category_name":"楼宇","address":"延安东路1200"},{"poiid":"B2094655D26BA4FC429B","title":"EBT苹果专营店","lon":"121.47362","lat":"31.22345","category":"138","category_name":"家电电子卖场","address":"淮海中路300号香港新世界大厦购物广场B1层105号"},{"poiid":"B2094654DA68A3FB4199","title":"黄浦政法大楼","lon":"121.47194","lat":"31.22642","category":"68","category_name":"快餐厅","address":"黄浦区大沽路123号2楼(近重庆北路)"},{"poiid":"B2094757D069A0F84898","title":"外服","lon":"121.473413","lat":"31.224587","category":"190","category_name":"培训机构","address":"上海金陵西路28号"},{"poiid":"B2094757D069AAF4419C","title":"8号线大世界站","lon":"121.47294373","lat":"31.224576179","category":"500","category_name":"未知分类","address":"上海市黄浦区成都北路"},{"poiid":"B2094655D26BA1FA4999","title":"马当路淮海中路","lon":"121.47313","lat":"31.22313","category":"38","category_name":"公交车站","address":""},{"poiid":"B2094752DA6AA6FD4298","title":"鸿星会","lon":"121.474024","lat":"31.223767","category":"500","category_name":"未知分类","address":"上海市 淮海中路300号K11购物艺术中心4楼"},{"poiid":"B2094752D66AA5F54793","title":"Small Spice","lon":"121.470896","lat":"31.223251","category":"247","category_name":"餐饮美食","address":"淡水路250号"},{"poiid":"B2094655D36DA0F8409D","title":"延安东路重庆北路","lon":"121.471","lat":"31.22491","category":"38","category_name":"公交车站","address":""},{"poiid":"B2094757DB68A4FC419D","title":"金裕苑","lon":"121.4715975523","lat":"31.223963185598","category":"47","category_name":"住宅区","address":"卢湾区淡水路66弄2-6号(近金陵西路)"},{"poiid":"B2094757D068A3FA4593","title":"延安路高架龙柱","lon":"121.473599","lat":"31.223453","category":"500","category_name":"未知分类","address":"上海重庆中路延安东路中心"},{"poiid":"B209475CD26AABFB479F","title":"nine thirty","lon":"121.47293","lat":"31.223115","category":"500","category_name":"未知分类","address":"上海市 淮海中路300号K11购物艺术中心306号铺(近黄陂南路)"},{"poiid":"B2094654DA6EABFC459B","title":"延中公园","lon":"121.47138","lat":"31.22321","category":"196","category_name":"公园","address":"延安路黄陂路口"},{"poiid":"B2094654DB6BABFE4699","title":"重庆鸡公煲 重庆北路","lon":"121.470468054","lat":"31.226113793","category":"247","category_name":"餐饮美食","address":"黄浦区重庆北路188号(近大沽路)"},{"poiid":"B2094752D56AA7F4409F","title":"上海K11购物广场","lon":"121.473694","lat":"31.226611","category":"247","category_name":"餐饮美食","address":null},{"poiid":"B209475CD668ABFF459C","title":"查厘士","lon":"121.474128","lat":"31.225408","category":"247","category_name":"餐饮美食","address":"上海市 淮海中路438号"},{"poiid":"B2094757D065AAFB479F","title":"弄堂圈子","lon":"121.47289873","lat":"31.223080147","category":"68","category_name":"快餐厅","address":"卢湾区淮海中路358弄46号"},{"poiid":"B2094750D16BA4F84399","title":"米多寿司","lon":"121.470146","lat":"31.226119","category":"95","category_name":"日本料理","address":"黄浦区重庆北路151号(近大沽路)"},{"poiid":"B2094757D165A6FE459D","title":"广场公园","lon":"121.47233373","lat":"31.224058168","category":"196","category_name":"公园","address":"黄浦区延安东路至延安中路(西藏南路至茂名南路)"},{"poiid":"B2094757D66EA5F8429C","title":"＂韵＂寿司","lon":"121.47289","lat":"31.22262","category":"95","category_name":"日本料理","address":"卢湾区淮海中路358弄47号(近马当路)"},{"poiid":"B2094757D464A0F9499F","title":"百乐餐厅","lon":"121.47151639465","lat":"31.226478273305","category":"77","category_name":"湖南菜","address":"黄浦区大沽路199号(重庆北路口)"},{"poiid":"B2094757D06FA3F8429C","title":"淮海路","lon":"121.46398412","lat":"31.222631868","category":"260","category_name":"其他","address":"上海淮海路"},{"poiid":"B2094654DA6EABFC4898","title":"香港新世界大厦","lon":"121.47351","lat":"31.2236","category":"46","category_name":"楼宇","address":"越秀区广州沿江中路298号"},{"poiid":"B2094757D06FA7F94199","title":"市政大厦","lon":"121.472011","lat":"31.226881","category":"46","category_name":"楼宇","address":"上海市黄浦区大沽路100号"},{"poiid":"B2094753D76FAAFA449C","title":"上海滩国泰旗舰店","lon":"121.466011","lat":"31.216125","category":"249","category_name":"购物服务","address":"淮海中路868号"},{"poiid":"B209475CD564A7F84292","title":"上海滩新天地店","lon":"121.47463","lat":"31.22164","category":"119","category_name":"商场","address":"\"太仓路181弄新天地北里15号\r\n\""},{"poiid":"B209475CD564A7F8439E","title":"上海滩中信泰富店","lon":"121.45602","lat":"31.22851","category":"119","category_name":"商场","address":"\"南京西路1168号中信泰富广场，店铺号221.\r\n\""},{"poiid":"B209475CD564A7F84392","title":"上海滩浦东香格里拉店","lon":"121.50058","lat":"31.23634","category":"119","category_name":"商场","address":"浦东富成路33号香格里拉酒店内大堂层"},{"poiid":"B2094757D06FA2F44299","title":"喜锅饭","lon":"121.472966918","lat":"31.2232093036","category":"68","category_name":"快餐厅","address":"卢湾区淮海中路358弄尚贤坊27号(近马当路)"},{"poiid":"B2094757D068A3F54292","title":"二百永新大厦","lon":"121.472368","lat":"31.226048","category":"46","category_name":"楼宇","address":"上海淮海中路887号"},{"poiid":"B2094654DB6BA4FD489F","title":"新华联大厦","lon":"121.471","lat":"31.2248","category":"46","category_name":"楼宇","address":"越秀区广州沿江中路298号"},{"poiid":"B209475DD16EAAF84492","title":"赵小姐不等位","lon":"121.473152","lat":"31.22327","category":"500","category_name":"未知分类","address":"上海市 太仓路70号"},{"poiid":"B2094757D068A2FF429B","title":"电信大楼","lon":"121.473292093","lat":"31.226889133","category":"46","category_name":"楼宇","address":"上海武胜路333号"},{"poiid":"B2094757D56CA1FE429D","title":"星巴克 力宝广场店 Starbucks Cafe","lon":"121.47456367878","lat":"31.223538465013","category":"247","category_name":"餐饮美食","address":"淮海中路222号力宝广场1楼近嵩山路"},{"poiid":"B2094757D06FAAF5489B","title":"东泰祥生煎馒头馆 重庆北路店","lon":"121.47016","lat":"31.226474","category":"68","category_name":"快餐厅","address":"黄浦区重庆北路188号(近大沽路)"},{"poiid":"B2094654DA6EABFC4599","title":"上海外服门诊部","lon":"121.47341","lat":"31.22458","category":"162","category_name":"医院","address":"金陵西路28号金陵大厦1号楼3层、2号楼1010室"},{"poiid":"B2094752D068A5FD4699","title":"披萨马上诺","lon":"121.474147","lat":"31.223948","category":"247","category_name":"餐饮美食","address":"K11"},{"poiid":"B2094757DB6CA5F84593","title":"Element Fresh","lon":"121.470734","lat":"31.223412","category":"247","category_name":"餐饮美食","address":"Xin tian Di"},{"poiid":"B2094751D564ABF44592","title":"圣诞集市","lon":"121.470834","lat":"31.225767","category":"248","category_name":"生活娱乐","address":"卢湾区新天地太平湖广场"},{"poiid":"B2094752D66FA2F9489B","title":"k11购物艺术中心 鸿星荟","lon":"121.473434","lat":"31.223373","category":"500","category_name":"未知分类","address":"淮海中路 300号"},{"poiid":"B2094757D164A5F54398","title":"望星空宴会厅","lon":"121.47267073","lat":"31.226613223","category":"247","category_name":"餐饮美食","address":"上海大剧院八楼"},{"poiid":"B2094757D068A4F9409E","title":"上海市黄浦区人民法院","lon":"121.47189331","lat":"31.225976944","category":"608","category_name":"法院","address":"上海市延安东路1234号"},{"poiid":"B2094757DA64AAF44398","title":"M&S cafe","lon":"121.473258","lat":"31.227341","category":"247","category_name":"餐饮美食","address":"上海市淮海中路96号金钟广场M&S内"},{"poiid":"B2094757D069A2FD429E","title":"电信世界","lon":"121.47264099","lat":"31.226232528","category":"151","category_name":"电讯营业厅","address":"上海黄浦区延安东路1200号"},{"poiid":"B2094655D36CA6F54598","title":"淡水路","lon":"121.47198","lat":"31.22328","category":"38","category_name":"公交车站","address":""},{"poiid":"B2094757D068A0F54892","title":"林记小厨","lon":"121.470973738","lat":"31.2274302404","category":"247","category_name":"餐饮美食","address":"上海黄浦区黄陂北路227号中区广场二楼"},{"poiid":"B209475CD365A0FF419B","title":"简单生活 K11店","lon":"121.47344","lat":"31.22384","category":"94","category_name":"西餐厅","address":"淮海中路300号上海K11购物艺术中心L1楼107室(近金陵西路)"},{"poiid":"B2094757D068A4F9429C","title":"徐其修凉茶","lon":"121.47148973","lat":"31.222897143","category":"113","category_name":"冷饮店","address":"卢湾区兴安路98弄10号(近雁荡路)"},{"poiid":"B2094753D26DA0FD4298","title":"揽香","lon":"121.474487","lat":"31.22551","category":"247","category_name":"餐饮美食","address":"上海市 上海市淮海中路381号中环广场3楼"},{"poiid":"B2094752D46AA2F8479C","title":"中国农业银行卢湾瑞金二路支行","lon":"121.471698","lat":"31.225296","category":"150","category_name":"银行","address":"上海市卢湾区淮海中路701-721号"},{"poiid":"B2094655D26EABFB4099","title":"上海电信世界大厦","lon":"121.47264","lat":"31.22622","category":"46","category_name":"楼宇","address":"延安东路1200"},{"poiid":"B2094655D26BA4FC429B","title":"EBT苹果专营店","lon":"121.47362","lat":"31.22345","category":"138","category_name":"家电电子卖场","address":"淮海中路300号香港新世界大厦购物广场B1层105号"},{"poiid":"B2094654DA68A3FB4199","title":"黄浦政法大楼","lon":"121.47194","lat":"31.22642","category":"68","category_name":"快餐厅","address":"黄浦区大沽路123号2楼(近重庆北路)"},{"poiid":"B2094757D069A0F84898","title":"外服","lon":"121.473413","lat":"31.224587","category":"190","category_name":"培训机构","address":"上海金陵西路28号"},{"poiid":"B2094757D069AAF4419C","title":"8号线大世界站","lon":"121.47294373","lat":"31.224576179","category":"500","category_name":"未知分类","address":"上海市黄浦区成都北路"},{"poiid":"B2094655D26BA1FA4999","title":"马当路淮海中路","lon":"121.47313","lat":"31.22313","category":"38","category_name":"公交车站","address":""},{"poiid":"B2094752DA6AA6FD4298","title":"鸿星会","lon":"121.474024","lat":"31.223767","category":"500","category_name":"未知分类","address":"上海市 淮海中路300号K11购物艺术中心4楼"},{"poiid":"B2094752D66AA5F54793","title":"Small Spice","lon":"121.470896","lat":"31.223251","category":"247","category_name":"餐饮美食","address":"淡水路250号"},{"poiid":"B2094655D36DA0F8409D","title":"延安东路重庆北路","lon":"121.471","lat":"31.22491","category":"38","category_name":"公交车站","address":""},{"poiid":"B2094757DB68A4FC419D","title":"金裕苑","lon":"121.4715975523","lat":"31.223963185598","category":"47","category_name":"住宅区","address":"卢湾区淡水路66弄2-6号(近金陵西路)"},{"poiid":"B2094757D068A3FA4593","title":"延安路高架龙柱","lon":"121.473599","lat":"31.223453","category":"500","category_name":"未知分类","address":"上海重庆中路延安东路中心"},{"poiid":"B209475CD26AABFB479F","title":"nine thirty","lon":"121.47293","lat":"31.223115","category":"500","category_name":"未知分类","address":"上海市 淮海中路300号K11购物艺术中心306号铺(近黄陂南路)"},{"poiid":"B2094654DA6EABFC459B","title":"延中公园","lon":"121.47138","lat":"31.22321","category":"196","category_name":"公园","address":"延安路黄陂路口"},{"poiid":"B2094654DB6BABFE4699","title":"重庆鸡公煲 重庆北路","lon":"121.470468054","lat":"31.226113793","category":"247","category_name":"餐饮美食","address":"黄浦区重庆北路188号(近大沽路)"},{"poiid":"B2094752D56AA7F4409F","title":"上海K11购物广场","lon":"121.473694","lat":"31.226611","category":"247","category_name":"餐饮美食","address":null},{"poiid":"B209475CD668ABFF459C","title":"查厘士","lon":"121.474128","lat":"31.225408","category":"247","category_name":"餐饮美食","address":"上海市 淮海中路438号"},{"poiid":"B2094757D065AAFB479F","title":"弄堂圈子","lon":"121.47289873","lat":"31.223080147","category":"68","category_name":"快餐厅","address":"卢湾区淮海中路358弄46号"},{"poiid":"B2094750D16BA4F84399","title":"米多寿司","lon":"121.470146","lat":"31.226119","category":"95","category_name":"日本料理","address":"黄浦区重庆北路151号(近大沽路)"},{"poiid":"B2094757D165A6FE459D","title":"广场公园","lon":"121.47233373","lat":"31.224058168","category":"196","category_name":"公园","address":"黄浦区延安东路至延安中路(西藏南路至茂名南路)"},{"poiid":"B2094757D66EA5F8429C","title":"＂韵＂寿司","lon":"121.47289","lat":"31.22262","category":"95","category_name":"日本料理","address":"卢湾区淮海中路358弄47号(近马当路)"},{"poiid":"B2094757D464A0F9499F","title":"百乐餐厅","lon":"121.47151639465","lat":"31.226478273305","category":"77","category_name":"湖南菜","address":"黄浦区大沽路199号(重庆北路口)"},{"poiid":"B2094757D06FA3F8429C","title":"淮海路","lon":"121.46398412","lat":"31.222631868","category":"260","category_name":"其他","address":"上海淮海路"},{"poiid":"B2094654DA6EABFC4898","title":"香港新世界大厦","lon":"121.47351","lat":"31.2236","category":"46","category_name":"楼宇","address":"越秀区广州沿江中路298号"},{"poiid":"B2094757D06FA7F94199","title":"市政大厦","lon":"121.472011","lat":"31.226881","category":"46","category_name":"楼宇","address":"上海市黄浦区大沽路100号"},{"poiid":"B2094753D76FAAFA449C","title":"上海滩国泰旗舰店","lon":"121.466011","lat":"31.216125","category":"249","category_name":"购物服务","address":"淮海中路868号"},{"poiid":"B209475CD564A7F84292","title":"上海滩新天地店","lon":"121.47463","lat":"31.22164","category":"119","category_name":"商场","address":"\"太仓路181弄新天地北里15号\r\n\""},{"poiid":"B209475CD564A7F8439E","title":"上海滩中信泰富店","lon":"121.45602","lat":"31.22851","category":"119","category_name":"商场","address":"\"南京西路1168号中信泰富广场，店铺号221.\r\n\""},{"poiid":"B209475CD564A7F84392","title":"上海滩浦东香格里拉店","lon":"121.50058","lat":"31.23634","category":"119","category_name":"商场","address":"浦东富成路33号香格里拉酒店内大堂层"},{"poiid":"B2094757D06FA2F44299","title":"喜锅饭","lon":"121.472966918","lat":"31.2232093036","category":"68","category_name":"快餐厅","address":"卢湾区淮海中路358弄尚贤坊27号(近马当路)"},{"poiid":"B2094757D068A3F54292","title":"二百永新大厦","lon":"121.472368","lat":"31.226048","category":"46","category_name":"楼宇","address":"上海淮海中路887号"},{"poiid":"B2094654DB6BA4FD489F","title":"新华联大厦","lon":"121.471","lat":"31.2248","category":"46","category_name":"楼宇","address":"越秀区广州沿江中路298号"},{"poiid":"B209475DD16EAAF84492","title":"赵小姐不等位","lon":"121.473152","lat":"31.22327","category":"500","category_name":"未知分类","address":"上海市 太仓路70号"},{"poiid":"B2094757D068A2FF429B","title":"电信大楼","lon":"121.473292093","lat":"31.226889133","category":"46","category_name":"楼宇","address":"上海武胜路333号"},{"poiid":"B2094757D56CA1FE429D","title":"星巴克 力宝广场店 Starbucks Cafe","lon":"121.47456367878","lat":"31.223538465013","category":"247","category_name":"餐饮美食","address":"淮海中路222号力宝广场1楼近嵩山路"},{"poiid":"B2094757D06FAAF5489B","title":"东泰祥生煎馒头馆 重庆北路店","lon":"121.47016","lat":"31.226474","category":"68","category_name":"快餐厅","address":"黄浦区重庆北路188号(近大沽路)"},{"poiid":"B2094654DA6EABFC4599","title":"上海外服门诊部","lon":"121.47341","lat":"31.22458","category":"162","category_name":"医院","address":"金陵西路28号金陵大厦1号楼3层、2号楼1010室"},{"poiid":"B2094752D068A5FD4699","title":"披萨马上诺","lon":"121.474147","lat":"31.223948","category":"247","category_name":"餐饮美食","address":"K11"},{"poiid":"B2094757DB6CA5F84593","title":"Element Fresh","lon":"121.470734","lat":"31.223412","category":"247","category_name":"餐饮美食","address":"Xin tian Di"},{"poiid":"B2094751D564ABF44592","title":"圣诞集市","lon":"121.470834","lat":"31.225767","category":"248","category_name":"生活娱乐","address":"卢湾区新天地太平湖广场"},{"poiid":"B2094752D66FA2F9489B","title":"k11购物艺术中心 鸿星荟","lon":"121.473434","lat":"31.223373","category":"500","category_name":"未知分类","address":"淮海中路 300号"},{"poiid":"B2094757D164A5F54398","title":"望星空宴会厅","lon":"121.47267073","lat":"31.226613223","category":"247","category_name":"餐饮美食","address":"上海大剧院八楼"},{"poiid":"B2094757D068A4F9409E","title":"上海市黄浦区人民法院","lon":"121.47189331","lat":"31.225976944","category":"608","category_name":"法院","address":"上海市延安东路1234号"},{"poiid":"B2094757DA64AAF44398","title":"M&S cafe","lon":"121.473258","lat":"31.227341","category":"247","category_name":"餐饮美食","address":"上海市淮海中路96号金钟广场M&S内"},{"poiid":"B2094757D069A2FD429E","title":"电信世界","lon":"121.47264099","lat":"31.226232528","category":"151","category_name":"电讯营业厅","address":"上海黄浦区延安东路1200号"},{"poiid":"B2094655D36CA6F54598","title":"淡水路","lon":"121.47198","lat":"31.22328","category":"38","category_name":"公交车站","address":""},{"poiid":"B2094757D068A0F54892","title":"林记小厨","lon":"121.470973738","lat":"31.2274302404","category":"247","category_name":"餐饮美食","address":"上海黄浦区黄陂北路227号中区广场二楼"},{"poiid":"B209475CD365A0FF419B","title":"简单生活 K11店","lon":"121.47344","lat":"31.22384","category":"94","category_name":"西餐厅","address":"淮海中路300号上海K11购物艺术中心L1楼107室(近金陵西路)"},{"poiid":"B2094757D068A4F9429C","title":"徐其修凉茶","lon":"121.47148973","lat":"31.222897143","category":"113","category_name":"冷饮店","address":"卢湾区兴安路98弄10号(近雁荡路)"},{"poiid":"B2094753D26DA0FD4298","title":"揽香","lon":"121.474487","lat":"31.22551","category":"247","category_name":"餐饮美食","address":"上海市 上海市淮海中路381号中环广场3楼"},{"poiid":"B2094752D46AA2F8479C","title":"中国农业银行卢湾瑞金二路支行","lon":"121.471698","lat":"31.225296","category":"150","category_name":"银行","address":"上海市卢湾区淮海中路701-721号"},{"poiid":"B2094655D26EABFB4099","title":"上海电信世界大厦","lon":"121.47264","lat":"31.22622","category":"46","category_name":"楼宇","address":"延安东路1200"},{"poiid":"B2094655D26BA4FC429B","title":"EBT苹果专营店","lon":"121.47362","lat":"31.22345","category":"138","category_name":"家电电子卖场","address":"淮海中路300号香港新世界大厦购物广场B1层105号"},{"poiid":"B2094654DA68A3FB4199","title":"黄浦政法大楼","lon":"121.47194","lat":"31.22642","category":"68","category_name":"快餐厅","address":"黄浦区大沽路123号2楼(近重庆北路)"},{"poiid":"B2094757D069A0F84898","title":"外服","lon":"121.473413","lat":"31.224587","category":"190","category_name":"培训机构","address":"上海金陵西路28号"},{"poiid":"B2094757D069AAF4419C","title":"8号线大世界站","lon":"121.47294373","lat":"31.224576179","category":"500","category_name":"未知分类","address":"上海市黄浦区成都北路"},{"poiid":"B2094655D26BA1FA4999","title":"马当路淮海中路","lon":"121.47313","lat":"31.22313","category":"38","category_name":"公交车站","address":""},{"poiid":"B2094752DA6AA6FD4298","title":"鸿星会","lon":"121.474024","lat":"31.223767","category":"500","category_name":"未知分类","address":"上海市 淮海中路300号K11购物艺术中心4楼"},{"poiid":"B2094752D66AA5F54793","title":"Small Spice","lon":"121.470896","lat":"31.223251","category":"247","category_name":"餐饮美食","address":"淡水路250号"},{"poiid":"B2094655D36DA0F8409D","title":"延安东路重庆北路","lon":"121.471","lat":"31.22491","category":"38","category_name":"公交车站","address":""},{"poiid":"B2094757DB68A4FC419D","title":"金裕苑","lon":"121.4715975523","lat":"31.223963185598","category":"47","category_name":"住宅区","address":"卢湾区淡水路66弄2-6号(近金陵西路)"},{"poiid":"B2094757D068A3FA4593","title":"延安路高架龙柱","lon":"121.473599","lat":"31.223453","category":"500","category_name":"未知分类","address":"上海重庆中路延安东路中心"},{"poiid":"B209475CD26AABFB479F","title":"nine thirty","lon":"121.47293","lat":"31.223115","category":"500","category_name":"未知分类","address":"上海市 淮海中路300号K11购物艺术中心306号铺(近黄陂南路)"},{"poiid":"B2094654DA6EABFC459B","title":"延中公园","lon":"121.47138","lat":"31.22321","category":"196","category_name":"公园","address":"延安路黄陂路口"},{"poiid":"B2094654DB6BABFE4699","title":"重庆鸡公煲 重庆北路","lon":"121.470468054","lat":"31.226113793","category":"247","category_name":"餐饮美食","address":"黄浦区重庆北路188号(近大沽路)"},{"poiid":"B2094752D56AA7F4409F","title":"上海K11购物广场","lon":"121.473694","lat":"31.226611","category":"247","category_name":"餐饮美食","address":null},{"poiid":"B209475CD668ABFF459C","title":"查厘士","lon":"121.474128","lat":"31.225408","category":"247","category_name":"餐饮美食","address":"上海市 淮海中路438号"},{"poiid":"B2094757D065AAFB479F","title":"弄堂圈子","lon":"121.47289873","lat":"31.223080147","category":"68","category_name":"快餐厅","address":"卢湾区淮海中路358弄46号"},{"poiid":"B2094750D16BA4F84399","title":"米多寿司","lon":"121.470146","lat":"31.226119","category":"95","category_name":"日本料理","address":"黄浦区重庆北路151号(近大沽路)"},{"poiid":"B2094757D165A6FE459D","title":"广场公园","lon":"121.47233373","lat":"31.224058168","category":"196","category_name":"公园","address":"黄浦区延安东路至延安中路(西藏南路至茂名南路)"},{"poiid":"B2094757D66EA5F8429C","title":"＂韵＂寿司","lon":"121.47289","lat":"31.22262","category":"95","category_name":"日本料理","address":"卢湾区淮海中路358弄47号(近马当路)"},{"poiid":"B2094757D464A0F9499F","title":"百乐餐厅","lon":"121.47151639465","lat":"31.226478273305","category":"77","category_name":"湖南菜","address":"黄浦区大沽路199号(重庆北路口)"},{"poiid":"B2094757D06FA3F8429C","title":"淮海路","lon":"121.46398412","lat":"31.222631868","category":"260","category_name":"其他","address":"上海淮海路"},{"poiid":"B2094654DA6EABFC4898","title":"香港新世界大厦","lon":"121.47351","lat":"31.2236","category":"46","category_name":"楼宇","address":"越秀区广州沿江中路298号"},{"poiid":"B2094757D06FA7F94199","title":"市政大厦","lon":"121.472011","lat":"31.226881","category":"46","category_name":"楼宇","address":"上海市黄浦区大沽路100号"},{"poiid":"B2094753D76FAAFA449C","title":"上海滩国泰旗舰店","lon":"121.466011","lat":"31.216125","category":"249","category_name":"购物服务","address":"淮海中路868号"},{"poiid":"B209475CD564A7F84292","title":"上海滩新天地店","lon":"121.47463","lat":"31.22164","category":"119","category_name":"商场","address":"\"太仓路181弄新天地北里15号\r\n\""},{"poiid":"B209475CD564A7F8439E","title":"上海滩中信泰富店","lon":"121.45602","lat":"31.22851","category":"119","category_name":"商场","address":"\"南京西路1168号中信泰富广场，店铺号221.\r\n\""},{"poiid":"B209475CD564A7F84392","title":"上海滩浦东香格里拉店","lon":"121.50058","lat":"31.23634","category":"119","category_name":"商场","address":"浦东富成路33号香格里拉酒店内大堂层"},{"poiid":"B2094757D06FA2F44299","title":"喜锅饭","lon":"121.472966918","lat":"31.2232093036","category":"68","category_name":"快餐厅","address":"卢湾区淮海中路358弄尚贤坊27号(近马当路)"},{"poiid":"B2094757D068A3F54292","title":"二百永新大厦","lon":"121.472368","lat":"31.226048","category":"46","category_name":"楼宇","address":"上海淮海中路887号"},{"poiid":"B2094654DB6BA4FD489F","title":"新华联大厦","lon":"121.471","lat":"31.2248","category":"46","category_name":"楼宇","address":"越秀区广州沿江中路298号"},{"poiid":"B209475DD16EAAF84492","title":"赵小姐不等位","lon":"121.473152","lat":"31.22327","category":"500","category_name":"未知分类","address":"上海市 太仓路70号"},{"poiid":"B2094757D068A2FF429B","title":"电信大楼","lon":"121.473292093","lat":"31.226889133","category":"46","category_name":"楼宇","address":"上海武胜路333号"},{"poiid":"B2094757D56CA1FE429D","title":"星巴克 力宝广场店 Starbucks Cafe","lon":"121.47456367878","lat":"31.223538465013","category":"247","category_name":"餐饮美食","address":"淮海中路222号力宝广场1楼近嵩山路"},{"poiid":"B2094757D06FAAF5489B","title":"东泰祥生煎馒头馆 重庆北路店","lon":"121.47016","lat":"31.226474","category":"68","category_name":"快餐厅","address":"黄浦区重庆北路188号(近大沽路)"},{"poiid":"B2094654DA6EABFC4599","title":"上海外服门诊部","lon":"121.47341","lat":"31.22458","category":"162","category_name":"医院","address":"金陵西路28号金陵大厦1号楼3层、2号楼1010室"},{"poiid":"B2094752D068A5FD4699","title":"披萨马上诺","lon":"121.474147","lat":"31.223948","category":"247","category_name":"餐饮美食","address":"K11"},{"poiid":"B2094757DB6CA5F84593","title":"Element Fresh","lon":"121.470734","lat":"31.223412","category":"247","category_name":"餐饮美食","address":"Xin tian Di"},{"poiid":"B2094751D564ABF44592","title":"圣诞集市","lon":"121.470834","lat":"31.225767","category":"248","category_name":"生活娱乐","address":"卢湾区新天地太平湖广场"},{"poiid":"B2094752D66FA2F9489B","title":"k11购物艺术中心 鸿星荟","lon":"121.473434","lat":"31.223373","category":"500","category_name":"未知分类","address":"淮海中路 300号"},{"poiid":"B2094757D164A5F54398","title":"望星空宴会厅","lon":"121.47267073","lat":"31.226613223","category":"247","category_name":"餐饮美食","address":"上海大剧院八楼"},{"poiid":"B2094757D068A4F9409E","title":"上海市黄浦区人民法院","lon":"121.47189331","lat":"31.225976944","category":"608","category_name":"法院","address":"上海市延安东路1234号"},{"poiid":"B2094757DA64AAF44398","title":"M&S cafe","lon":"121.473258","lat":"31.227341","category":"247","category_name":"餐饮美食","address":"上海市淮海中路96号金钟广场M&S内"},{"poiid":"B2094757D069A2FD429E","title":"电信世界","lon":"121.47264099","lat":"31.226232528","category":"151","category_name":"电讯营业厅","address":"上海黄浦区延安东路1200号"},{"poiid":"B2094655D36CA6F54598","title":"淡水路","lon":"121.47198","lat":"31.22328","category":"38","category_name":"公交车站","address":""},{"poiid":"B2094757D068A0F54892","title":"林记小厨","lon":"121.470973738","lat":"31.2274302404","category":"247","category_name":"餐饮美食","address":"上海黄浦区黄陂北路227号中区广场二楼"},{"poiid":"B209475CD365A0FF419B","title":"简单生活 K11店","lon":"121.47344","lat":"31.22384","category":"94","category_name":"西餐厅","address":"淮海中路300号上海K11购物艺术中心L1楼107室(近金陵西路)"},{"poiid":"B2094757D068A4F9429C","title":"徐其修凉茶","lon":"121.47148973","lat":"31.222897143","category":"113","category_name":"冷饮店","address":"卢湾区兴安路98弄10号(近雁荡路)"},{"poiid":"B2094753D26DA0FD4298","title":"揽香","lon":"121.474487","lat":"31.22551","category":"247","category_name":"餐饮美食","address":"上海市 上海市淮海中路381号中环广场3楼"},{"poiid":"B2094752D46AA2F8479C","title":"中国农业银行卢湾瑞金二路支行","lon":"121.471698","lat":"31.225296","category":"150","category_name":"银行","address":"上海市卢湾区淮海中路701-721号"},{"poiid":"B2094655D26EABFB4099","title":"上海电信世界大厦","lon":"121.47264","lat":"31.22622","category":"46","category_name":"楼宇","address":"延安东路1200"},{"poiid":"B2094655D26BA4FC429B","title":"EBT苹果专营店","lon":"121.47362","lat":"31.22345","category":"138","category_name":"家电电子卖场","address":"淮海中路300号香港新世界大厦购物广场B1层105号"},{"poiid":"B2094654DA68A3FB4199","title":"黄浦政法大楼","lon":"121.47194","lat":"31.22642","category":"68","category_name":"快餐厅","address":"黄浦区大沽路123号2楼(近重庆北路)"},{"poiid":"B2094757D069A0F84898","title":"外服","lon":"121.473413","lat":"31.224587","category":"190","category_name":"培训机构","address":"上海金陵西路28号"},{"poiid":"B2094757D069AAF4419C","title":"8号线大世界站","lon":"121.47294373","lat":"31.224576179","category":"500","category_name":"未知分类","address":"上海市黄浦区成都北路"},{"poiid":"B2094655D26BA1FA4999","title":"马当路淮海中路","lon":"121.47313","lat":"31.22313","category":"38","category_name":"公交车站","address":""},{"poiid":"B2094752DA6AA6FD4298","title":"鸿星会","lon":"121.474024","lat":"31.223767","category":"500","category_name":"未知分类","address":"上海市 淮海中路300号K11购物艺术中心4楼"},{"poiid":"B2094752D66AA5F54793","title":"Small Spice","lon":"121.470896","lat":"31.223251","category":"247","category_name":"餐饮美食","address":"淡水路250号"},{"poiid":"B2094655D36DA0F8409D","title":"延安东路重庆北路","lon":"121.471","lat":"31.22491","category":"38","category_name":"公交车站","address":""},{"poiid":"B2094757DB68A4FC419D","title":"金裕苑","lon":"121.4715975523","lat":"31.223963185598","category":"47","category_name":"住宅区","address":"卢湾区淡水路66弄2-6号(近金陵西路)"},{"poiid":"B2094757D068A3FA4593","title":"延安路高架龙柱","lon":"121.473599","lat":"31.223453","category":"500","category_name":"未知分类","address":"上海重庆中路延安东路中心"},{"poiid":"B209475CD26AABFB479F","title":"nine thirty","lon":"121.47293","lat":"31.223115","category":"500","category_name":"未知分类","address":"上海市 淮海中路300号K11购物艺术中心306号铺(近黄陂南路)"},{"poiid":"B2094654DA6EABFC459B","title":"延中公园","lon":"121.47138","lat":"31.22321","category":"196","category_name":"公园","address":"延安路黄陂路口"},{"poiid":"B2094654DB6BABFE4699","title":"重庆鸡公煲 重庆北路","lon":"121.470468054","lat":"31.226113793","category":"247","category_name":"餐饮美食","address":"黄浦区重庆北路188号(近大沽路)"},{"poiid":"B2094752D56AA7F4409F","title":"上海K11购物广场","lon":"121.473694","lat":"31.226611","category":"247","category_name":"餐饮美食","address":null},{"poiid":"B209475CD668ABFF459C","title":"查厘士","lon":"121.474128","lat":"31.225408","category":"247","category_name":"餐饮美食","address":"上海市 淮海中路438号"},{"poiid":"B2094757D065AAFB479F","title":"弄堂圈子","lon":"121.47289873","lat":"31.223080147","category":"68","category_name":"快餐厅","address":"卢湾区淮海中路358弄46号"},{"poiid":"B2094750D16BA4F84399","title":"米多寿司","lon":"121.470146","lat":"31.226119","category":"95","category_name":"日本料理","address":"黄浦区重庆北路151号(近大沽路)"},{"poiid":"B2094757D165A6FE459D","title":"广场公园","lon":"121.47233373","lat":"31.224058168","category":"196","category_name":"公园","address":"黄浦区延安东路至延安中路(西藏南路至茂名南路)"},{"poiid":"B2094757D66EA5F8429C","title":"＂韵＂寿司","lon":"121.47289","lat":"31.22262","category":"95","category_name":"日本料理","address":"卢湾区淮海中路358弄47号(近马当路)"},{"poiid":"B2094757D464A0F9499F","title":"百乐餐厅","lon":"121.47151639465","lat":"31.226478273305","category":"77","category_name":"湖南菜","address":"黄浦区大沽路199号(重庆北路口)"},{"poiid":"B2094757D06FA3F8429C","title":"淮海路","lon":"121.46398412","lat":"31.222631868","category":"260","category_name":"其他","address":"上海淮海路"},{"poiid":"B2094654DA6EABFC4898","title":"香港新世界大厦","lon":"121.47351","lat":"31.2236","category":"46","category_name":"楼宇","address":"越秀区广州沿江中路298号"},{"poiid":"B2094757D06FA7F94199","title":"市政大厦","lon":"121.472011","lat":"31.226881","category":"46","category_name":"楼宇","address":"上海市黄浦区大沽路100号"},{"poiid":"B2094753D76FAAFA449C","title":"上海滩国泰旗舰店","lon":"121.466011","lat":"31.216125","category":"249","category_name":"购物服务","address":"淮海中路868号"},{"poiid":"B209475CD564A7F84292","title":"上海滩新天地店","lon":"121.47463","lat":"31.22164","category":"119","category_name":"商场","address":"\"太仓路181弄新天地北里15号\r\n\""},{"poiid":"B209475CD564A7F8439E","title":"上海滩中信泰富店","lon":"121.45602","lat":"31.22851","category":"119","category_name":"商场","address":"\"南京西路1168号中信泰富广场，店铺号221.\r\n\""},{"poiid":"B209475CD564A7F84392","title":"上海滩浦东香格里拉店","lon":"121.50058","lat":"31.23634","category":"119","category_name":"商场","address":"浦东富成路33号香格里拉酒店内大堂层"},{"poiid":"B2094757D06FA2F44299","title":"喜锅饭","lon":"121.472966918","lat":"31.2232093036","category":"68","category_name":"快餐厅","address":"卢湾区淮海中路358弄尚贤坊27号(近马当路)"},{"poiid":"B2094757D068A3F54292","title":"二百永新大厦","lon":"121.472368","lat":"31.226048","category":"46","category_name":"楼宇","address":"上海淮海中路887号"},{"poiid":"B2094654DB6BA4FD489F","title":"新华联大厦","lon":"121.471","lat":"31.2248","category":"46","category_name":"楼宇","address":"越秀区广州沿江中路298号"},{"poiid":"B209475DD16EAAF84492","title":"赵小姐不等位","lon":"121.473152","lat":"31.22327","category":"500","category_name":"未知分类","address":"上海市 太仓路70号"},{"poiid":"B2094757D068A2FF429B","title":"电信大楼","lon":"121.473292093","lat":"31.226889133","category":"46","category_name":"楼宇","address":"上海武胜路333号"},{"poiid":"B2094757D56CA1FE429D","title":"星巴克 力宝广场店 Starbucks Cafe","lon":"121.47456367878","lat":"31.223538465013","category":"247","category_name":"餐饮美食","address":"淮海中路222号力宝广场1楼近嵩山路"},{"poiid":"B2094757D06FAAF5489B","title":"东泰祥生煎馒头馆 重庆北路店","lon":"121.47016","lat":"31.226474","category":"68","category_name":"快餐厅","address":"黄浦区重庆北路188号(近大沽路)"},{"poiid":"B2094654DA6EABFC4599","title":"上海外服门诊部","lon":"121.47341","lat":"31.22458","category":"162","category_name":"医院","address":"金陵西路28号金陵大厦1号楼3层、2号楼1010室"},{"poiid":"B2094752D068A5FD4699","title":"披萨马上诺","lon":"121.474147","lat":"31.223948","category":"247","category_name":"餐饮美食","address":"K11"},{"poiid":"B2094757DB6CA5F84593","title":"Element Fresh","lon":"121.470734","lat":"31.223412","category":"247","category_name":"餐饮美食","address":"Xin tian Di"},{"poiid":"B2094751D564ABF44592","title":"圣诞集市","lon":"121.470834","lat":"31.225767","category":"248","category_name":"生活娱乐","address":"卢湾区新天地太平湖广场"},{"poiid":"B2094752D66FA2F9489B","title":"k11购物艺术中心 鸿星荟","lon":"121.473434","lat":"31.223373","category":"500","category_name":"未知分类","address":"淮海中路 300号"},{"poiid":"B2094757D164A5F54398","title":"望星空宴会厅","lon":"121.47267073","lat":"31.226613223","category":"247","category_name":"餐饮美食","address":"上海大剧院八楼"},{"poiid":"B2094757D068A4F9409E","title":"上海市黄浦区人民法院","lon":"121.47189331","lat":"31.225976944","category":"608","category_name":"法院","address":"上海市延安东路1234号"},{"poiid":"B2094757DA64AAF44398","title":"M&S cafe","lon":"121.473258","lat":"31.227341","category":"247","category_name":"餐饮美食","address":"上海市淮海中路96号金钟广场M&S内"},{"poiid":"B2094757D069A2FD429E","title":"电信世界","lon":"121.47264099","lat":"31.226232528","category":"151","category_name":"电讯营业厅","address":"上海黄浦区延安东路1200号"},{"poiid":"B2094655D36CA6F54598","title":"淡水路","lon":"121.47198","lat":"31.22328","category":"38","category_name":"公交车站","address":""},{"poiid":"B2094757D068A0F54892","title":"林记小厨","lon":"121.470973738","lat":"31.2274302404","category":"247","category_name":"餐饮美食","address":"上海黄浦区黄陂北路227号中区广场二楼"},{"poiid":"B209475CD365A0FF419B","title":"简单生活 K11店","lon":"121.47344","lat":"31.22384","category":"94","category_name":"西餐厅","address":"淮海中路300号上海K11购物艺术中心L1楼107室(近金陵西路)"},{"poiid":"B2094757D068A4F9429C","title":"徐其修凉茶","lon":"121.47148973","lat":"31.222897143","category":"113","category_name":"冷饮店","address":"卢湾区兴安路98弄10号(近雁荡路)"},{"poiid":"B2094753D26DA0FD4298","title":"揽香","lon":"121.474487","lat":"31.22551","category":"247","category_name":"餐饮美食","address":"上海市 上海市淮海中路381号中环广场3楼"},{"poiid":"B2094752D46AA2F8479C","title":"中国农业银行卢湾瑞金二路支行","lon":"121.471698","lat":"31.225296","category":"150","category_name":"银行","address":"上海市卢湾区淮海中路701-721号"},{"poiid":"B2094655D26EABFB4099","title":"上海电信世界大厦","lon":"121.47264","lat":"31.22622","category":"46","category_name":"楼宇","address":"延安东路1200"},{"poiid":"B2094655D26BA4FC429B","title":"EBT苹果专营店","lon":"121.47362","lat":"31.22345","category":"138","category_name":"家电电子卖场","address":"淮海中路300号香港新世界大厦购物广场B1层105号"},{"poiid":"B2094654DA68A3FB4199","title":"黄浦政法大楼","lon":"121.47194","lat":"31.22642","category":"68","category_name":"快餐厅","address":"黄浦区大沽路123号2楼(近重庆北路)"},{"poiid":"B2094757D069A0F84898","title":"外服","lon":"121.473413","lat":"31.224587","category":"190","category_name":"培训机构","address":"上海金陵西路28号"},{"poiid":"B2094757D069AAF4419C","title":"8号线大世界站","lon":"121.47294373","lat":"31.224576179","category":"500","category_name":"未知分类","address":"上海市黄浦区成都北路"},{"poiid":"B2094655D26BA1FA4999","title":"马当路淮海中路","lon":"121.47313","lat":"31.22313","category":"38","category_name":"公交车站","address":""},{"poiid":"B2094752DA6AA6FD4298","title":"鸿星会","lon":"121.474024","lat":"31.223767","category":"500","category_name":"未知分类","address":"上海市 淮海中路300号K11购物艺术中心4楼"},{"poiid":"B2094752D66AA5F54793","title":"Small Spice","lon":"121.470896","lat":"31.223251","category":"247","category_name":"餐饮美食","address":"淡水路250号"},{"poiid":"B2094655D36DA0F8409D","title":"延安东路重庆北路","lon":"121.471","lat":"31.22491","category":"38","category_name":"公交车站","address":""},{"poiid":"B2094757DB68A4FC419D","title":"金裕苑","lon":"121.4715975523","lat":"31.223963185598","category":"47","category_name":"住宅区","address":"卢湾区淡水路66弄2-6号(近金陵西路)"},{"poiid":"B2094757D068A3FA4593","title":"延安路高架龙柱","lon":"121.473599","lat":"31.223453","category":"500","category_name":"未知分类","address":"上海重庆中路延安东路中心"},{"poiid":"B209475CD26AABFB479F","title":"nine thirty","lon":"121.47293","lat":"31.223115","category":"500","category_name":"未知分类","address":"上海市 淮海中路300号K11购物艺术中心306号铺(近黄陂南路)"},{"poiid":"B2094654DA6EABFC459B","title":"延中公园","lon":"121.47138","lat":"31.22321","category":"196","category_name":"公园","address":"延安路黄陂路口"},{"poiid":"B2094654DB6BABFE4699","title":"重庆鸡公煲 重庆北路","lon":"121.470468054","lat":"31.226113793","category":"247","category_name":"餐饮美食","address":"黄浦区重庆北路188号(近大沽路)"},{"poiid":"B2094752D56AA7F4409F","title":"上海K11购物广场","lon":"121.473694","lat":"31.226611","category":"247","category_name":"餐饮美食","address":null},{"poiid":"B209475CD668ABFF459C","title":"查厘士","lon":"121.474128","lat":"31.225408","category":"247","category_name":"餐饮美食","address":"上海市 淮海中路438号"},{"poiid":"B2094757D065AAFB479F","title":"弄堂圈子","lon":"121.47289873","lat":"31.223080147","category":"68","category_name":"快餐厅","address":"卢湾区淮海中路358弄46号"},{"poiid":"B2094750D16BA4F84399","title":"米多寿司","lon":"121.470146","lat":"31.226119","category":"95","category_name":"日本料理","address":"黄浦区重庆北路151号(近大沽路)"},{"poiid":"B2094757D165A6FE459D","title":"广场公园","lon":"121.47233373","lat":"31.224058168","category":"196","category_name":"公园","address":"黄浦区延安东路至延安中路(西藏南路至茂名南路)"},{"poiid":"B2094757D66EA5F8429C","title":"＂韵＂寿司","lon":"121.47289","lat":"31.22262","category":"95","category_name":"日本料理","address":"卢湾区淮海中路358弄47号(近马当路)"},{"poiid":"B2094757D464A0F9499F","title":"百乐餐厅","lon":"121.47151639465","lat":"31.226478273305","category":"77","category_name":"湖南菜","address":"黄浦区大沽路199号(重庆北路口)"}]