[{"poiid":"B2094654DB65A6F94199","title":"小肥羊火锅(黄兴路店)","lon":"121.51995","lat":"31.28888","category":"86","category_name":"火锅店","address":"杨浦区黄兴路1679号(近国权路)"},{"poiid":"B2094654DB6BA2F44498","title":"五角场华美达大酒店","lon":"121.51978","lat":"31.29294","category":"214","category_name":"四星级宾馆","address":"杨浦区黄兴路1888号(近国顺路)"},{"poiid":"B2094757D06FA5FC4392","title":"星晨酒店","lon":"121.51837","lat":"31.29344","category":"76","category_name":"上海菜","address":"杨浦区黄兴路2009号(近国定路)"},{"poiid":"B2094750D365A0FE429E","title":"花嫁丽舍私人婚礼会所（五角场店）","lon":"121.518504","lat":"31.289604","category":"257","category_name":"中餐厅","address":"上海市 国权路49号绿色米栏广场王座4层"},{"poiid":"B2094757D06AA7F5429F","title":"黄兴路国顺路","lon":"121.5196961","lat":"31.29184287","category":"500","category_name":"未知分类","address":"上海杨浦区"},{"poiid":"B2094757D56DA0F8449D","title":"黄兴路营业厅","lon":"121.519906","lat":"31.290535","category":"151","category_name":"电讯营业厅","address":"杨浦区黄兴路1737号145铺（国顺路口）"},{"poiid":"B2094654DB6AA6FF4899","title":"上海五角场快捷假日酒店","lon":"121.519","lat":"31.29037","category":"214","category_name":"四星级宾馆","address":"杨浦区黄兴路1729号"},{"poiid":"B2094654D56EA4F94293","title":"老妈米线","lon":"121.51879","lat":"31.29122","category":"257","category_name":"中餐厅","address":""},{"poiid":"B2094654D56EA4F84398","title":"怡福苑","lon":"121.51873","lat":"31.29183","category":"47","category_name":"住宅区","address":"上海市杨浦区国顺路路66弄"},{"poiid":"B2094654DB6AA6FF489A","title":"上海风声水起大酒店","lon":"121.51819","lat":"31.28801","category":"76","category_name":"上海菜","address":"杨浦区国权路49号财富国际广场2-3楼(近政仁路)"},{"poiid":"B2094757D16EA0FC439E","title":"学习广场","lon":"121.514533","lat":"31.292354","category":"500","category_name":"未知分类","address":"上海国顺路288号"},{"poiid":"B2094757D068A3FB4098","title":"7-ELEVEN(国顺店)","lon":"121.518846","lat":"31.291594","category":"117","category_name":"便民商店/便利店","address":"上海市杨浦区国顺路58号"},{"poiid":"B2094751D26DA0F4459D","title":"MAO LIVEHOUSE SHANGHAI","lon":"121.472193","lat":"31.209893","category":"248","category_name":"生活娱乐","address":"盧灣區重慶南路308號"},{"poiid":"B2094757D66AA0FE4598","title":"华美达大酒店华美厅","lon":"121.519471054","lat":"31.292242793","category":"76","category_name":"上海菜","address":"黄兴路1888号华美达大酒店5楼近国顺东路"},{"poiid":"B2094757D16AA4FE459E","title":"四海游龙(九隆坊店)","lon":"121.517784103","lat":"31.2919618725","category":"500","category_name":"未知分类","address":"杨浦区黄兴路1737号九隆坊1楼151室(近国顺路)"},{"poiid":"B2094757D068A7F8419B","title":"招商银行(五角场支行)","lon":"121.51856231","lat":"31.294193267","category":"150","category_name":"银行","address":"杨浦区黄兴路2000号(国定东路国定路)"},{"poiid":"B2094654D56EA4F9439B","title":"育鹰学校(总部)","lon":"121.51725","lat":"31.29067","category":"56","category_name":"小学","address":"国顺路83号"},{"poiid":"B2094757D66FA0FA449A","title":"同济大学门口","lon":"121.5192921","lat":"31.291052853","category":"500","category_name":"未知分类","address":"上海市杨浦区四平路"},{"poiid":"B2094655D36CA7FB4898","title":"国权路政本路","lon":"121.51657","lat":"31.28805","category":"38","category_name":"公交车站","address":""},{"poiid":"B2094654D56EA4F9429D","title":"南茶园","lon":"121.51849","lat":"31.290527","category":"47","category_name":"住宅区","address":"上海杨浦区国顺路81弄"},{"poiid":"B2094750D26DA4FF4392","title":"弥娜娃海鲜牛排自助餐厅","lon":"121.519407","lat":"31.288783","category":"268","category_name":"自助","address":"国权路39号绿色米兰广场银座1楼近黄兴路"},{"poiid":"B2094757D06BA3FF4693","title":"皇朝新城","lon":"121.51835","lat":"31.292547","category":"47","category_name":"住宅区","address":"上海黄兴路1999弄"},{"poiid":"B2094750D76DA2FC429F","title":"CatEyes猫咪咖啡屋","lon":"121.519","lat":"31.2918","category":"269","category_name":"烧烤","address":"国顺路66弄怡福苑1号楼1804室(近黄兴路)"},{"poiid":"B2094757D06BA0F8439C","title":"杨浦科技大厦","lon":"121.51840972","lat":"31.293193817","category":"47","category_name":"住宅区","address":"上海黄兴路2005弄2号楼"},{"poiid":"B2094757D06AA1FF469F","title":"少云中学","lon":"121.51943","lat":"31.29372","category":"55","category_name":"中学","address":"杨浦区黄兴路1980号(近国顺路)"},{"poiid":"B2094757D66EA5FC409F","title":"慧爵舞蹈","lon":"121.517872603","lat":"31.2909074505","category":"500","category_name":"未知分类","address":"上海黄兴路2005号"},{"poiid":"B2094757D064ABFA4092","title":"黄兴电话局","lon":"121.517032","lat":"31.291017","category":"500","category_name":"未知分类","address":"上海国顺路116号"},{"poiid":"B2094655D26CA6F8469A","title":"国顺路120弄小区(南门)","lon":"121.51631","lat":"31.29082","category":"47","category_name":"住宅区","address":"国顺路120弄"},{"poiid":"B2094654DB6BA3F5499C","title":"国顺路80弄小区","lon":"121.51725","lat":"31.29277","category":"47","category_name":"住宅区","address":"国顺路80弄"},{"poiid":"B2094757D06BA4F9499E","title":"全家便利店","lon":"121.51855194","lat":"31.291795299","category":"500","category_name":"未知分类","address":"杨浦区黄兴路2009号102室(近国定路)"},{"poiid":"B2094655D26CA7F44892","title":"中国电信114呼叫中心客户服务运行二部","lon":"121.51703","lat":"31.29102","category":"263","category_name":"公司","address":"国顺路116"},{"poiid":"B2094655D26FA6F44599","title":"上海电视大学国顺路校区(东门)","lon":"121.51533","lat":"31.2919","category":"52","category_name":"高等院校","address":""},{"poiid":"B2094654D56EA4F9429F","title":"南茶园社区卫生服务点","lon":"121.51851","lat":"31.29058","category":"162","category_name":"医院","address":"国顺路81弄"},{"poiid":"B2094750DA64A7FE429C","title":"花嫁丽舍私人婚礼会所","lon":"121.516189","lat":"31.290575","category":"627","category_name":"一般地点标志","address":"国权路49号"},{"poiid":"B2094654D56EA4F84193","title":"中国电信黄兴电话站","lon":"121.51703","lat":"31.29102","category":"263","category_name":"公司","address":"国顺路116"},{"poiid":"B2094757D165A5F4479E","title":"御足堂","lon":"121.516081103","lat":"31.2913378595","category":"149","category_name":"洗浴推拿场所","address":"上海政本路"},{"poiid":"B2094655D265AAFC469B","title":"多普达国美黄兴店","lon":"121.51873","lat":"31.29184","category":"138","category_name":"家电电子卖场","address":"国顺路66弄"},{"poiid":"B2094752D36CA3FA489E","title":"外滩18号","lon":"121.517062","lat":"31.290292","category":"500","category_name":"未知分类","address":null},{"poiid":"B2094757D16DA6FC4092","title":"国美电器(黄兴店)","lon":"121.518949","lat":"31.291703","category":"138","category_name":"家电电子卖场","address":"杨浦区国顺路50号(近黄兴路)"},{"poiid":"B2094655D26FA0F9499C","title":"国顺路117弄小区(北门)","lon":"121.51624","lat":"31.29045","category":"47","category_name":"住宅区","address":"国顺路117弄"},{"poiid":"B2094655D26AA7FF409F","title":"日鱼文化中心","lon":"121.51819","lat":"31.29287","category":"247","category_name":"餐饮美食","address":"杨浦区黄兴路2005弄1号杨浦大厦11D(近五角场)"},{"poiid":"B2094757D169AAF8489A","title":"空军蓝鸿幼儿园","lon":"121.515678151","lat":"31.2904076104","category":"57","category_name":"幼儿园","address":"上海政本路"},{"poiid":"B2094654D56EA4F9449F","title":"四季绿园","lon":"121.51604","lat":"31.290081","category":"47","category_name":"住宅区","address":"上海市杨浦区国顺路121号"},{"poiid":"B2094757D16BA1FE489D","title":"想象乐幼儿创意教育","lon":"121.519456","lat":"31.290538","category":"500","category_name":"未知分类","address":"杨浦区黄兴路1737号九隆坊4楼(近国顺路)"},{"poiid":"B2094757D16EABFF439B","title":"优格沃自助式酸奶冰淇淋","lon":"121.517134","lat":"31.293074","category":"67","category_name":"甜品店","address":"上海国定路336号"},{"poiid":"B2094654DB6BA2FC4198","title":"良友(国顺路)","lon":"121.51582","lat":"31.29034","category":"117","category_name":"便民商店/便利店","address":"国顺路121-3"},{"poiid":"B2094757D66DA2FD4498","title":"萌芽幼儿园","lon":"121.5181291","lat":"31.289906829","category":"57","category_name":"幼儿园","address":"杨浦区国顺路81弄33号"},{"poiid":"B2094757DA69A1FC4692","title":"上海江城医院皮肤病医院","lon":"121.51821","lat":"31.29334","category":"162","category_name":"医院","address":"上海市杨浦区黄兴路286号"},{"poiid":"B2094757D064A0FA409E","title":"叶子足浴(国顺路二店)","lon":"121.51435","lat":"31.29079","category":"149","category_name":"洗浴推拿场所","address":"杨浦区国顺路138号(近政本路)"},{"poiid":"B2094655D26FA7FE479D","title":"皇朝新城(东门)","lon":"121.51895","lat":"31.29236","category":"47","category_name":"住宅区","address":"黄兴路1999-2001弄"},{"poiid":"B2094654DB65A6F94199","title":"小肥羊火锅(黄兴路店)","lon":"121.51995","lat":"31.28888","category":"86","category_name":"火锅店","address":"杨浦区黄兴路1679号(近国权路)"},{"poiid":"B2094654DB6BA2F44498","title":"五角场华美达大酒店","lon":"121.51978","lat":"31.29294","category":"214","category_name":"四星级宾馆","address":"杨浦区黄兴路1888号(近国顺路)"},{"poiid":"B2094757D06FA5FC4392","title":"星晨酒店","lon":"121.51837","lat":"31.29344","category":"76","category_name":"上海菜","address":"杨浦区黄兴路2009号(近国定路)"},{"poiid":"B2094750D365A0FE429E","title":"花嫁丽舍私人婚礼会所（五角场店）","lon":"121.518504","lat":"31.289604","category":"257","category_name":"中餐厅","address":"上海市 国权路49号绿色米栏广场王座4层"},{"poiid":"B2094757D06AA7F5429F","title":"黄兴路国顺路","lon":"121.5196961","lat":"31.29184287","category":"500","category_name":"未知分类","address":"上海杨浦区"},{"poiid":"B2094757D56DA0F8449D","title":"黄兴路营业厅","lon":"121.519906","lat":"31.290535","category":"151","category_name":"电讯营业厅","address":"杨浦区黄兴路1737号145铺（国顺路口）"},{"poiid":"B2094654DB6AA6FF4899","title":"上海五角场快捷假日酒店","lon":"121.519","lat":"31.29037","category":"214","category_name":"四星级宾馆","address":"杨浦区黄兴路1729号"},{"poiid":"B2094654D56EA4F94293","title":"老妈米线","lon":"121.51879","lat":"31.29122","category":"257","category_name":"中餐厅","address":""},{"poiid":"B2094654D56EA4F84398","title":"怡福苑","lon":"121.51873","lat":"31.29183","category":"47","category_name":"住宅区","address":"上海市杨浦区国顺路路66弄"},{"poiid":"B2094654DB6AA6FF489A","title":"上海风声水起大酒店","lon":"121.51819","lat":"31.28801","category":"76","category_name":"上海菜","address":"杨浦区国权路49号财富国际广场2-3楼(近政仁路)"},{"poiid":"B2094757D16EA0FC439E","title":"学习广场","lon":"121.514533","lat":"31.292354","category":"500","category_name":"未知分类","address":"上海国顺路288号"},{"poiid":"B2094757D068A3FB4098","title":"7-ELEVEN(国顺店)","lon":"121.518846","lat":"31.291594","category":"117","category_name":"便民商店/便利店","address":"上海市杨浦区国顺路58号"},{"poiid":"B2094751D26DA0F4459D","title":"MAO LIVEHOUSE SHANGHAI","lon":"121.472193","lat":"31.209893","category":"248","category_name":"生活娱乐","address":"盧灣區重慶南路308號"},{"poiid":"B2094757D66AA0FE4598","title":"华美达大酒店华美厅","lon":"121.519471054","lat":"31.292242793","category":"76","category_name":"上海菜","address":"黄兴路1888号华美达大酒店5楼近国顺东路"},{"poiid":"B2094757D16AA4FE459E","title":"四海游龙(九隆坊店)","lon":"121.517784103","lat":"31.2919618725","category":"500","category_name":"未知分类","address":"杨浦区黄兴路1737号九隆坊1楼151室(近国顺路)"},{"poiid":"B2094757D068A7F8419B","title":"招商银行(五角场支行)","lon":"121.51856231","lat":"31.294193267","category":"150","category_name":"银行","address":"杨浦区黄兴路2000号(国定东路国定路)"},{"poiid":"B2094654D56EA4F9439B","title":"育鹰学校(总部)","lon":"121.51725","lat":"31.29067","category":"56","category_name":"小学","address":"国顺路83号"},{"poiid":"B2094757D66FA0FA449A","title":"同济大学门口","lon":"121.5192921","lat":"31.291052853","category":"500","category_name":"未知分类","address":"上海市杨浦区四平路"},{"poiid":"B2094655D36CA7FB4898","title":"国权路政本路","lon":"121.51657","lat":"31.28805","category":"38","category_name":"公交车站","address":""},{"poiid":"B2094654D56EA4F9429D","title":"南茶园","lon":"121.51849","lat":"31.290527","category":"47","category_name":"住宅区","address":"上海杨浦区国顺路81弄"},{"poiid":"B2094750D26DA4FF4392","title":"弥娜娃海鲜牛排自助餐厅","lon":"121.519407","lat":"31.288783","category":"268","category_name":"自助","address":"国权路39号绿色米兰广场银座1楼近黄兴路"},{"poiid":"B2094757D06BA3FF4693","title":"皇朝新城","lon":"121.51835","lat":"31.292547","category":"47","category_name":"住宅区","address":"上海黄兴路1999弄"},{"poiid":"B2094750D76DA2FC429F","title":"CatEyes猫咪咖啡屋","lon":"121.519","lat":"31.2918","category":"269","category_name":"烧烤","address":"国顺路66弄怡福苑1号楼1804室(近黄兴路)"},{"poiid":"B2094757D06BA0F8439C","title":"杨浦科技大厦","lon":"121.51840972","lat":"31.293193817","category":"47","category_name":"住宅区","address":"上海黄兴路2005弄2号楼"},{"poiid":"B2094757D06AA1FF469F","title":"少云中学","lon":"121.51943","lat":"31.29372","category":"55","category_name":"中学","address":"杨浦区黄兴路1980号(近国顺路)"},{"poiid":"B2094757D66EA5FC409F","title":"慧爵舞蹈","lon":"121.517872603","lat":"31.2909074505","category":"500","category_name":"未知分类","address":"上海黄兴路2005号"},{"poiid":"B2094757D064ABFA4092","title":"黄兴电话局","lon":"121.517032","lat":"31.291017","category":"500","category_name":"未知分类","address":"上海国顺路116号"},{"poiid":"B2094655D26CA6F8469A","title":"国顺路120弄小区(南门)","lon":"121.51631","lat":"31.29082","category":"47","category_name":"住宅区","address":"国顺路120弄"},{"poiid":"B2094654DB6BA3F5499C","title":"国顺路80弄小区","lon":"121.51725","lat":"31.29277","category":"47","category_name":"住宅区","address":"国顺路80弄"},{"poiid":"B2094757D06BA4F9499E","title":"全家便利店","lon":"121.51855194","lat":"31.291795299","category":"500","category_name":"未知分类","address":"杨浦区黄兴路2009号102室(近国定路)"},{"poiid":"B2094655D26CA7F44892","title":"中国电信114呼叫中心客户服务运行二部","lon":"121.51703","lat":"31.29102","category":"263","category_name":"公司","address":"国顺路116"},{"poiid":"B2094655D26FA6F44599","title":"上海电视大学国顺路校区(东门)","lon":"121.51533","lat":"31.2919","category":"52","category_name":"高等院校","address":""},{"poiid":"B2094654D56EA4F9429F","title":"南茶园社区卫生服务点","lon":"121.51851","lat":"31.29058","category":"162","category_name":"医院","address":"国顺路81弄"},{"poiid":"B2094750DA64A7FE429C","title":"花嫁丽舍私人婚礼会所","lon":"121.516189","lat":"31.290575","category":"627","category_name":"一般地点标志","address":"国权路49号"},{"poiid":"B2094654D56EA4F84193","title":"中国电信黄兴电话站","lon":"121.51703","lat":"31.29102","category":"263","category_name":"公司","address":"国顺路116"},{"poiid":"B2094757D165A5F4479E","title":"御足堂","lon":"121.516081103","lat":"31.2913378595","category":"149","category_name":"洗浴推拿场所","address":"上海政本路"},{"poiid":"B2094655D265AAFC469B","title":"多普达国美黄兴店","lon":"121.51873","lat":"31.29184","category":"138","category_name":"家电电子卖场","address":"国顺路66弄"},{"poiid":"B2094752D36CA3FA489E","title":"外滩18号","lon":"121.517062","lat":"31.290292","category":"500","category_name":"未知分类","address":null},{"poiid":"B2094757D16DA6FC4092","title":"国美电器(黄兴店)","lon":"121.518949","lat":"31.291703","category":"138","category_name":"家电电子卖场","address":"杨浦区国顺路50号(近黄兴路)"},{"poiid":"B2094655D26FA0F9499C","title":"国顺路117弄小区(北门)","lon":"121.51624","lat":"31.29045","category":"47","category_name":"住宅区","address":"国顺路117弄"},{"poiid":"B2094655D26AA7FF409F","title":"日鱼文化中心","lon":"121.51819","lat":"31.29287","category":"247","category_name":"餐饮美食","address":"杨浦区黄兴路2005弄1号杨浦大厦11D(近五角场)"},{"poiid":"B2094757D169AAF8489A","title":"空军蓝鸿幼儿园","lon":"121.515678151","lat":"31.2904076104","category":"57","category_name":"幼儿园","address":"上海政本路"},{"poiid":"B2094654D56EA4F9449F","title":"四季绿园","lon":"121.51604","lat":"31.290081","category":"47","category_name":"住宅区","address":"上海市杨浦区国顺路121号"},{"poiid":"B2094757D16BA1FE489D","title":"想象乐幼儿创意教育","lon":"121.519456","lat":"31.290538","category":"500","category_name":"未知分类","address":"杨浦区黄兴路1737号九隆坊4楼(近国顺路)"},{"poiid":"B2094757D16EABFF439B","title":"优格沃自助式酸奶冰淇淋","lon":"121.517134","lat":"31.293074","category":"67","category_name":"甜品店","address":"上海国定路336号"},{"poiid":"B2094654DB6BA2FC4198","title":"良友(国顺路)","lon":"121.51582","lat":"31.29034","category":"117","category_name":"便民商店/便利店","address":"国顺路121-3"},{"poiid":"B2094757D66DA2FD4498","title":"萌芽幼儿园","lon":"121.5181291","lat":"31.289906829","category":"57","category_name":"幼儿园","address":"杨浦区国顺路81弄33号"},{"poiid":"B2094757DA69A1FC4692","title":"上海江城医院皮肤病医院","lon":"121.51821","lat":"31.29334","category":"162","category_name":"医院","address":"上海市杨浦区黄兴路286号"},{"poiid":"B2094757D064A0FA409E","title":"叶子足浴(国顺路二店)","lon":"121.51435","lat":"31.29079","category":"149","category_name":"洗浴推拿场所","address":"杨浦区国顺路138号(近政本路)"},{"poiid":"B2094655D26FA7FE479D","title":"皇朝新城(东门)","lon":"121.51895","lat":"31.29236","category":"47","category_name":"住宅区","address":"黄兴路1999-2001弄"},{"poiid":"B2094654DB65A6F94199","title":"小肥羊火锅(黄兴路店)","lon":"121.51995","lat":"31.28888","category":"86","category_name":"火锅店","address":"杨浦区黄兴路1679号(近国权路)"},{"poiid":"B2094654DB6BA2F44498","title":"五角场华美达大酒店","lon":"121.51978","lat":"31.29294","category":"214","category_name":"四星级宾馆","address":"杨浦区黄兴路1888号(近国顺路)"},{"poiid":"B2094757D06FA5FC4392","title":"星晨酒店","lon":"121.51837","lat":"31.29344","category":"76","category_name":"上海菜","address":"杨浦区黄兴路2009号(近国定路)"},{"poiid":"B2094750D365A0FE429E","title":"花嫁丽舍私人婚礼会所（五角场店）","lon":"121.518504","lat":"31.289604","category":"257","category_name":"中餐厅","address":"上海市 国权路49号绿色米栏广场王座4层"},{"poiid":"B2094757D06AA7F5429F","title":"黄兴路国顺路","lon":"121.5196961","lat":"31.29184287","category":"500","category_name":"未知分类","address":"上海杨浦区"},{"poiid":"B2094757D56DA0F8449D","title":"黄兴路营业厅","lon":"121.519906","lat":"31.290535","category":"151","category_name":"电讯营业厅","address":"杨浦区黄兴路1737号145铺（国顺路口）"},{"poiid":"B2094654DB6AA6FF4899","title":"上海五角场快捷假日酒店","lon":"121.519","lat":"31.29037","category":"214","category_name":"四星级宾馆","address":"杨浦区黄兴路1729号"},{"poiid":"B2094654D56EA4F94293","title":"老妈米线","lon":"121.51879","lat":"31.29122","category":"257","category_name":"中餐厅","address":""},{"poiid":"B2094654D56EA4F84398","title":"怡福苑","lon":"121.51873","lat":"31.29183","category":"47","category_name":"住宅区","address":"上海市杨浦区国顺路路66弄"},{"poiid":"B2094654DB6AA6FF489A","title":"上海风声水起大酒店","lon":"121.51819","lat":"31.28801","category":"76","category_name":"上海菜","address":"杨浦区国权路49号财富国际广场2-3楼(近政仁路)"},{"poiid":"B2094757D16EA0FC439E","title":"学习广场","lon":"121.514533","lat":"31.292354","category":"500","category_name":"未知分类","address":"上海国顺路288号"},{"poiid":"B2094757D068A3FB4098","title":"7-ELEVEN(国顺店)","lon":"121.518846","lat":"31.291594","category":"117","category_name":"便民商店/便利店","address":"上海市杨浦区国顺路58号"},{"poiid":"B2094751D26DA0F4459D","title":"MAO LIVEHOUSE SHANGHAI","lon":"121.472193","lat":"31.209893","category":"248","category_name":"生活娱乐","address":"盧灣區重慶南路308號"},{"poiid":"B2094757D66AA0FE4598","title":"华美达大酒店华美厅","lon":"121.519471054","lat":"31.292242793","category":"76","category_name":"上海菜","address":"黄兴路1888号华美达大酒店5楼近国顺东路"},{"poiid":"B2094757D16AA4FE459E","title":"四海游龙(九隆坊店)","lon":"121.517784103","lat":"31.2919618725","category":"500","category_name":"未知分类","address":"杨浦区黄兴路1737号九隆坊1楼151室(近国顺路)"},{"poiid":"B2094757D068A7F8419B","title":"招商银行(五角场支行)","lon":"121.51856231","lat":"31.294193267","category":"150","category_name":"银行","address":"杨浦区黄兴路2000号(国定东路国定路)"},{"poiid":"B2094654D56EA4F9439B","title":"育鹰学校(总部)","lon":"121.51725","lat":"31.29067","category":"56","category_name":"小学","address":"国顺路83号"},{"poiid":"B2094757D66FA0FA449A","title":"同济大学门口","lon":"121.5192921","lat":"31.291052853","category":"500","category_name":"未知分类","address":"上海市杨浦区四平路"},{"poiid":"B2094655D36CA7FB4898","title":"国权路政本路","lon":"121.51657","lat":"31.28805","category":"38","category_name":"公交车站","address":""},{"poiid":"B2094654D56EA4F9429D","title":"南茶园","lon":"121.51849","lat":"31.290527","category":"47","category_name":"住宅区","address":"上海杨浦区国顺路81弄"},{"poiid":"B2094750D26DA4FF4392","title":"弥娜娃海鲜牛排自助餐厅","lon":"121.519407","lat":"31.288783","category":"268","category_name":"自助","address":"国权路39号绿色米兰广场银座1楼近黄兴路"},{"poiid":"B2094757D06BA3FF4693","title":"皇朝新城","lon":"121.51835","lat":"31.292547","category":"47","category_name":"住宅区","address":"上海黄兴路1999弄"},{"poiid":"B2094750D76DA2FC429F","title":"CatEyes猫咪咖啡屋","lon":"121.519","lat":"31.2918","category":"269","category_name":"烧烤","address":"国顺路66弄怡福苑1号楼1804室(近黄兴路)"},{"poiid":"B2094757D06BA0F8439C","title":"杨浦科技大厦","lon":"121.51840972","lat":"31.293193817","category":"47","category_name":"住宅区","address":"上海黄兴路2005弄2号楼"},{"poiid":"B2094757D06AA1FF469F","title":"少云中学","lon":"121.51943","lat":"31.29372","category":"55","category_name":"中学","address":"杨浦区黄兴路1980号(近国顺路)"},{"poiid":"B2094757D66EA5FC409F","title":"慧爵舞蹈","lon":"121.517872603","lat":"31.2909074505","category":"500","category_name":"未知分类","address":"上海黄兴路2005号"},{"poiid":"B2094757D064ABFA4092","title":"黄兴电话局","lon":"121.517032","lat":"31.291017","category":"500","category_name":"未知分类","address":"上海国顺路116号"},{"poiid":"B2094655D26CA6F8469A","title":"国顺路120弄小区(南门)","lon":"121.51631","lat":"31.29082","category":"47","category_name":"住宅区","address":"国顺路120弄"},{"poiid":"B2094654DB6BA3F5499C","title":"国顺路80弄小区","lon":"121.51725","lat":"31.29277","category":"47","category_name":"住宅区","address":"国顺路80弄"},{"poiid":"B2094757D06BA4F9499E","title":"全家便利店","lon":"121.51855194","lat":"31.291795299","category":"500","category_name":"未知分类","address":"杨浦区黄兴路2009号102室(近国定路)"},{"poiid":"B2094655D26CA7F44892","title":"中国电信114呼叫中心客户服务运行二部","lon":"121.51703","lat":"31.29102","category":"263","category_name":"公司","address":"国顺路116"},{"poiid":"B2094655D26FA6F44599","title":"上海电视大学国顺路校区(东门)","lon":"121.51533","lat":"31.2919","category":"52","category_name":"高等院校","address":""},{"poiid":"B2094654D56EA4F9429F","title":"南茶园社区卫生服务点","lon":"121.51851","lat":"31.29058","category":"162","category_name":"医院","address":"国顺路81弄"},{"poiid":"B2094750DA64A7FE429C","title":"花嫁丽舍私人婚礼会所","lon":"121.516189","lat":"31.290575","category":"627","category_name":"一般地点标志","address":"国权路49号"},{"poiid":"B2094654D56EA4F84193","title":"中国电信黄兴电话站","lon":"121.51703","lat":"31.29102","category":"263","category_name":"公司","address":"国顺路116"},{"poiid":"B2094757D165A5F4479E","title":"御足堂","lon":"121.516081103","lat":"31.2913378595","category":"149","category_name":"洗浴推拿场所","address":"上海政本路"},{"poiid":"B2094655D265AAFC469B","title":"多普达国美黄兴店","lon":"121.51873","lat":"31.29184","category":"138","category_name":"家电电子卖场","address":"国顺路66弄"},{"poiid":"B2094752D36CA3FA489E","title":"外滩18号","lon":"121.517062","lat":"31.290292","category":"500","category_name":"未知分类","address":null},{"poiid":"B2094757D16DA6FC4092","title":"国美电器(黄兴店)","lon":"121.518949","lat":"31.291703","category":"138","category_name":"家电电子卖场","address":"杨浦区国顺路50号(近黄兴路)"},{"poiid":"B2094655D26FA0F9499C","title":"国顺路117弄小区(北门)","lon":"121.51624","lat":"31.29045","category":"47","category_name":"住宅区","address":"国顺路117弄"},{"poiid":"B2094655D26AA7FF409F","title":"日鱼文化中心","lon":"121.51819","lat":"31.29287","category":"247","category_name":"餐饮美食","address":"杨浦区黄兴路2005弄1号杨浦大厦11D(近五角场)"},{"poiid":"B2094757D169AAF8489A","title":"空军蓝鸿幼儿园","lon":"121.515678151","lat":"31.2904076104","category":"57","category_name":"幼儿园","address":"上海政本路"},{"poiid":"B2094654D56EA4F9449F","title":"四季绿园","lon":"121.51604","lat":"31.290081","category":"47","category_name":"住宅区","address":"上海市杨浦区国顺路121号"},{"poiid":"B2094757D16BA1FE489D","title":"想象乐幼儿创意教育","lon":"121.519456","lat":"31.290538","category":"500","category_name":"未知分类","address":"杨浦区黄兴路1737号九隆坊4楼(近国顺路)"},{"poiid":"B2094757D16EABFF439B","title":"优格沃自助式酸奶冰淇淋","lon":"121.517134","lat":"31.293074","category":"67","category_name":"甜品店","address":"上海国定路336号"},{"poiid":"B2094654DB6BA2FC4198","title":"良友(国顺路)","lon":"121.51582","lat":"31.29034","category":"117","category_name":"便民商店/便利店","address":"国顺路121-3"},{"poiid":"B2094757D66DA2FD4498","title":"萌芽幼儿园","lon":"121.5181291","lat":"31.289906829","category":"57","category_name":"幼儿园","address":"杨浦区国顺路81弄33号"},{"poiid":"B2094757DA69A1FC4692","title":"上海江城医院皮肤病医院","lon":"121.51821","lat":"31.29334","category":"162","category_name":"医院","address":"上海市杨浦区黄兴路286号"},{"poiid":"B2094757D064A0FA409E","title":"叶子足浴(国顺路二店)","lon":"121.51435","lat":"31.29079","category":"149","category_name":"洗浴推拿场所","address":"杨浦区国顺路138号(近政本路)"},{"poiid":"B2094655D26FA7FE479D","title":"皇朝新城(东门)","lon":"121.51895","lat":"31.29236","category":"47","category_name":"住宅区","address":"黄兴路1999-2001弄"},{"poiid":"B2094654DB65A6F94199","title":"小肥羊火锅(黄兴路店)","lon":"121.51995","lat":"31.28888","category":"86","category_name":"火锅店","address":"杨浦区黄兴路1679号(近国权路)"},{"poiid":"B2094654DB6BA2F44498","title":"五角场华美达大酒店","lon":"121.51978","lat":"31.29294","category":"214","category_name":"四星级宾馆","address":"杨浦区黄兴路1888号(近国顺路)"},{"poiid":"B2094757D06FA5FC4392","title":"星晨酒店","lon":"121.51837","lat":"31.29344","category":"76","category_name":"上海菜","address":"杨浦区黄兴路2009号(近国定路)"},{"poiid":"B2094750D365A0FE429E","title":"花嫁丽舍私人婚礼会所（五角场店）","lon":"121.518504","lat":"31.289604","category":"257","category_name":"中餐厅","address":"上海市 国权路49号绿色米栏广场王座4层"},{"poiid":"B2094757D06AA7F5429F","title":"黄兴路国顺路","lon":"121.5196961","lat":"31.29184287","category":"500","category_name":"未知分类","address":"上海杨浦区"},{"poiid":"B2094757D56DA0F8449D","title":"黄兴路营业厅","lon":"121.519906","lat":"31.290535","category":"151","category_name":"电讯营业厅","address":"杨浦区黄兴路1737号145铺（国顺路口）"},{"poiid":"B2094654DB6AA6FF4899","title":"上海五角场快捷假日酒店","lon":"121.519","lat":"31.29037","category":"214","category_name":"四星级宾馆","address":"杨浦区黄兴路1729号"},{"poiid":"B2094654D56EA4F94293","title":"老妈米线","lon":"121.51879","lat":"31.29122","category":"257","category_name":"中餐厅","address":""},{"poiid":"B2094654D56EA4F84398","title":"怡福苑","lon":"121.51873","lat":"31.29183","category":"47","category_name":"住宅区","address":"上海市杨浦区国顺路路66弄"},{"poiid":"B2094654DB6AA6FF489A","title":"上海风声水起大酒店","lon":"121.51819","lat":"31.28801","category":"76","category_name":"上海菜","address":"杨浦区国权路49号财富国际广场2-3楼(近政仁路)"},{"poiid":"B2094757D16EA0FC439E","title":"学习广场","lon":"121.514533","lat":"31.292354","category":"500","category_name":"未知分类","address":"上海国顺路288号"},{"poiid":"B2094757D068A3FB4098","title":"7-ELEVEN(国顺店)","lon":"121.518846","lat":"31.291594","category":"117","category_name":"便民商店/便利店","address":"上海市杨浦区国顺路58号"},{"poiid":"B2094751D26DA0F4459D","title":"MAO LIVEHOUSE SHANGHAI","lon":"121.472193","lat":"31.209893","category":"248","category_name":"生活娱乐","address":"盧灣區重慶南路308號"},{"poiid":"B2094757D66AA0FE4598","title":"华美达大酒店华美厅","lon":"121.519471054","lat":"31.292242793","category":"76","category_name":"上海菜","address":"黄兴路1888号华美达大酒店5楼近国顺东路"},{"poiid":"B2094757D16AA4FE459E","title":"四海游龙(九隆坊店)","lon":"121.517784103","lat":"31.2919618725","category":"500","category_name":"未知分类","address":"杨浦区黄兴路1737号九隆坊1楼151室(近国顺路)"},{"poiid":"B2094757D068A7F8419B","title":"招商银行(五角场支行)","lon":"121.51856231","lat":"31.294193267","category":"150","category_name":"银行","address":"杨浦区黄兴路2000号(国定东路国定路)"},{"poiid":"B2094654D56EA4F9439B","title":"育鹰学校(总部)","lon":"121.51725","lat":"31.29067","category":"56","category_name":"小学","address":"国顺路83号"},{"poiid":"B2094757D66FA0FA449A","title":"同济大学门口","lon":"121.5192921","lat":"31.291052853","category":"500","category_name":"未知分类","address":"上海市杨浦区四平路"},{"poiid":"B2094655D36CA7FB4898","title":"国权路政本路","lon":"121.51657","lat":"31.28805","category":"38","category_name":"公交车站","address":""},{"poiid":"B2094654D56EA4F9429D","title":"南茶园","lon":"121.51849","lat":"31.290527","category":"47","category_name":"住宅区","address":"上海杨浦区国顺路81弄"},{"poiid":"B2094750D26DA4FF4392","title":"弥娜娃海鲜牛排自助餐厅","lon":"121.519407","lat":"31.288783","category":"268","category_name":"自助","address":"国权路39号绿色米兰广场银座1楼近黄兴路"},{"poiid":"B2094757D06BA3FF4693","title":"皇朝新城","lon":"121.51835","lat":"31.292547","category":"47","category_name":"住宅区","address":"上海黄兴路1999弄"},{"poiid":"B2094750D76DA2FC429F","title":"CatEyes猫咪咖啡屋","lon":"121.519","lat":"31.2918","category":"269","category_name":"烧烤","address":"国顺路66弄怡福苑1号楼1804室(近黄兴路)"},{"poiid":"B2094757D06BA0F8439C","title":"杨浦科技大厦","lon":"121.51840972","lat":"31.293193817","category":"47","category_name":"住宅区","address":"上海黄兴路2005弄2号楼"},{"poiid":"B2094757D06AA1FF469F","title":"少云中学","lon":"121.51943","lat":"31.29372","category":"55","category_name":"中学","address":"杨浦区黄兴路1980号(近国顺路)"},{"poiid":"B2094757D66EA5FC409F","title":"慧爵舞蹈","lon":"121.517872603","lat":"31.2909074505","category":"500","category_name":"未知分类","address":"上海黄兴路2005号"},{"poiid":"B2094757D064ABFA4092","title":"黄兴电话局","lon":"121.517032","lat":"31.291017","category":"500","category_name":"未知分类","address":"上海国顺路116号"},{"poiid":"B2094655D26CA6F8469A","title":"国顺路120弄小区(南门)","lon":"121.51631","lat":"31.29082","category":"47","category_name":"住宅区","address":"国顺路120弄"},{"poiid":"B2094654DB6BA3F5499C","title":"国顺路80弄小区","lon":"121.51725","lat":"31.29277","category":"47","category_name":"住宅区","address":"国顺路80弄"},{"poiid":"B2094757D06BA4F9499E","title":"全家便利店","lon":"121.51855194","lat":"31.291795299","category":"500","category_name":"未知分类","address":"杨浦区黄兴路2009号102室(近国定路)"},{"poiid":"B2094655D26CA7F44892","title":"中国电信114呼叫中心客户服务运行二部","lon":"121.51703","lat":"31.29102","category":"263","category_name":"公司","address":"国顺路116"},{"poiid":"B2094655D26FA6F44599","title":"上海电视大学国顺路校区(东门)","lon":"121.51533","lat":"31.2919","category":"52","category_name":"高等院校","address":""},{"poiid":"B2094654D56EA4F9429F","title":"南茶园社区卫生服务点","lon":"121.51851","lat":"31.29058","category":"162","category_name":"医院","address":"国顺路81弄"},{"poiid":"B2094750DA64A7FE429C","title":"花嫁丽舍私人婚礼会所","lon":"121.516189","lat":"31.290575","category":"627","category_name":"一般地点标志","address":"国权路49号"},{"poiid":"B2094654D56EA4F84193","title":"中国电信黄兴电话站","lon":"121.51703","lat":"31.29102","category":"263","category_name":"公司","address":"国顺路116"},{"poiid":"B2094757D165A5F4479E","title":"御足堂","lon":"121.516081103","lat":"31.2913378595","category":"149","category_name":"洗浴推拿场所","address":"上海政本路"},{"poiid":"B2094655D265AAFC469B","title":"多普达国美黄兴店","lon":"121.51873","lat":"31.29184","category":"138","category_name":"家电电子卖场","address":"国顺路66弄"},{"poiid":"B2094752D36CA3FA489E","title":"外滩18号","lon":"121.517062","lat":"31.290292","category":"500","category_name":"未知分类","address":null},{"poiid":"B2094757D16DA6FC4092","title":"国美电器(黄兴店)","lon":"121.518949","lat":"31.291703","category":"138","category_name":"家电电子卖场","address":"杨浦区国顺路50号(近黄兴路)"},{"poiid":"B2094655D26FA0F9499C","title":"国顺路117弄小区(北门)","lon":"121.51624","lat":"31.29045","category":"47","category_name":"住宅区","address":"国顺路117弄"},{"poiid":"B2094655D26AA7FF409F","title":"日鱼文化中心","lon":"121.51819","lat":"31.29287","category":"247","category_name":"餐饮美食","address":"杨浦区黄兴路2005弄1号杨浦大厦11D(近五角场)"},{"poiid":"B2094757D169AAF8489A","title":"空军蓝鸿幼儿园","lon":"121.515678151","lat":"31.2904076104","category":"57","category_name":"幼儿园","address":"上海政本路"},{"poiid":"B2094654D56EA4F9449F","title":"四季绿园","lon":"121.51604","lat":"31.290081","category":"47","category_name":"住宅区","address":"上海市杨浦区国顺路121号"},{"poiid":"B2094757D16BA1FE489D","title":"想象乐幼儿创意教育","lon":"121.519456","lat":"31.290538","category":"500","category_name":"未知分类","address":"杨浦区黄兴路1737号九隆坊4楼(近国顺路)"},{"poiid":"B2094757D16EABFF439B","title":"优格沃自助式酸奶冰淇淋","lon":"121.517134","lat":"31.293074","category":"67","category_name":"甜品店","address":"上海国定路336号"},{"poiid":"B2094654DB6BA2FC4198","title":"良友(国顺路)","lon":"121.51582","lat":"31.29034","category":"117","category_name":"便民商店/便利店","address":"国顺路121-3"},{"poiid":"B2094757D66DA2FD4498","title":"萌芽幼儿园","lon":"121.5181291","lat":"31.289906829","category":"57","category_name":"幼儿园","address":"杨浦区国顺路81弄33号"},{"poiid":"B2094757DA69A1FC4692","title":"上海江城医院皮肤病医院","lon":"121.51821","lat":"31.29334","category":"162","category_name":"医院","address":"上海市杨浦区黄兴路286号"},{"poiid":"B2094757D064A0FA409E","title":"叶子足浴(国顺路二店)","lon":"121.51435","lat":"31.29079","category":"149","category_name":"洗浴推拿场所","address":"杨浦区国顺路138号(近政本路)"},{"poiid":"B2094655D26FA7FE479D","title":"皇朝新城(东门)","lon":"121.51895","lat":"31.29236","category":"47","category_name":"住宅区","address":"黄兴路1999-2001弄"}]