[{"poiid":"B2094655D26EA1F4449E","title":"四季酒店","lon":"121.46235","lat":"31.22727","category":"213","category_name":"五星级宾馆","address":"静安区威海路500号(近石门一路)"},{"poiid":"B2094757D06FA1F54392","title":"上海广播电视台(上海东方传媒集团有限公司)","lon":"121.465393908","lat":"31.2278577286","category":"46","category_name":"楼宇","address":"上海市静安区威海路298号"},{"poiid":"B2094757D06FA2F4439B","title":"上海市中医医院(石门分院)","lon":"121.4631687","lat":"31.225289","category":"162","category_name":"医院","address":"静安区石门一路67弄1号(近大沽路)"},{"poiid":"B2094753D76FAAFA449C","title":"上海滩国泰旗舰店","lon":"121.466011","lat":"31.216125","category":"249","category_name":"购物服务","address":"淮海中路868号"},{"poiid":"B209475CD564A7F84292","title":"上海滩新天地店","lon":"121.47463","lat":"31.22164","category":"119","category_name":"商场","address":"\"太仓路181弄新天地北里15号\r\n\""},{"poiid":"B209475CD564A7F8439E","title":"上海滩中信泰富店","lon":"121.45602","lat":"31.22851","category":"119","category_name":"商场","address":"\"南京西路1168号中信泰富广场，店铺号221.\r\n\""},{"poiid":"B2094655D26DA2F54493","title":"星巴克(威海路店)","lon":"121.4629758","lat":"31.22691","category":"65","category_name":"咖啡厅","address":"静安区威海路433、439号(石门一路口)"},{"poiid":"B2094654DA6CA2F44193","title":"上海电视台(青海路)","lon":"121.4654","lat":"31.22782","category":"59","category_name":"电视台","address":"威海路298"},{"poiid":"B2094757D068A3F9479B","title":"娘惹情(大沽路店)","lon":"121.46488","lat":"31.22493","category":"110","category_name":"其他亚洲菜","address":"静安区大沽路417号(近成都北路)"},{"poiid":"B2094757D069A1FD469B","title":"四季酒店宴会厅","lon":"121.46264","lat":"31.227","category":"76","category_name":"上海菜","address":"静安区威海路500号四季酒店3楼(近石门一路)"},{"poiid":"B2094757D06FABFF489E","title":"上视大厦","lon":"121.46522522","lat":"31.227647781","category":"46","category_name":"楼宇","address":"上海威海路298号"},{"poiid":"B2094654DB69A7FD479A","title":"四季咖啡厅","lon":"121.46246127811","lat":"31.227011244415","category":"268","category_name":"自助","address":"静安区威海路500号四季酒店1楼(近石门一路)"},{"poiid":"B2094757D06BA7F8409C","title":"威海路","lon":"121.46253204","lat":"31.226638793","category":"500","category_name":"未知分类","address":"静安区威海路"},{"poiid":"B2094654DA6CA2F54993","title":"萄醉(大沽路)","lon":"121.46442","lat":"31.2255","category":"94","category_name":"西餐厅","address":"静安区大沽路462号(近石门一路)"},{"poiid":"B2094757D068A0F54492","title":"中凯豪生酒店","lon":"121.46336","lat":"31.22589","category":"217","category_name":"旅馆招待所","address":"上海静安区石门一路118号(威海路口)  "},{"poiid":"B2094752D164A0FC439D","title":"港汇恒隆广场","lon":"121.463596","lat":"31.229129","category":"500","category_name":"未知分类","address":"徐家汇"},{"poiid":"B2094654DA6CA1F9479F","title":"上海市中医医院门诊部","lon":"121.4627","lat":"31.22518","category":"162","category_name":"医院","address":"石门一路67弄1乙"},{"poiid":"B2094757D66BA3F94593","title":"香料艺术印度餐厅 大沽路店 Masala Art","lon":"121.4643078311","lat":"31.225489783646","category":"102","category_name":"印度风味","address":"静安区大沽路397号(近成都北路)"},{"poiid":"B2094757D06BA6FD499C","title":"新太郎","lon":"121.46246127811","lat":"31.227011244415","category":"95","category_name":"日本料理","address":"静安区威海路500号四季酒店2楼(近石门一路)"},{"poiid":"B2094750D26EAAF4409F","title":"Y-in Lounge","lon":"121.465675","lat":"31.225568","category":"260","category_name":"其他","address":"静安区大沽路392号(近中凯城市之光)"},{"poiid":"B2094757D068A0FB459C","title":"上海国际集团大厦","lon":"121.461769104","lat":"31.2266635895","category":"46","category_name":"楼宇","address":"上海威海路511号"},{"poiid":"B2094654DB65A7F9489F","title":"汉庭酒店(南京西路店)","lon":"121.46238","lat":"31.22823","category":"216","category_name":"经济型连锁酒店","address":"静安区石门一路239号(近吴江路)"},{"poiid":"B2094757D064A5FF429E","title":"荣府","lon":"121.46617","lat":"31.22708","category":"72","category_name":"广东菜","address":"静安区威海路289弄12号(近上海电视台)"},{"poiid":"B2094751D26EA1FA449B","title":"思南路 查餐厅","lon":"121.465454","lat":"31.225442","category":"247","category_name":"餐饮美食","address":"淮海中路思南路"},{"poiid":"B2094757D16CABFB4599","title":"上汽大厦","lon":"121.462093738","lat":"31.2264542196","category":"46","category_name":"楼宇","address":"上海市静安区威海路489号"},{"poiid":"B2094750D664A6FD489C","title":"瑞美尔特面包房(石门一路店)","lon":"121.463","lat":"31.2262","category":"112","category_name":"糕饼店","address":"静安区石门一路88号(近威海路)"},{"poiid":"B2094654DA6CA2F4469C","title":"云海苑办公楼","lon":"121.46428","lat":"31.22911","category":"46","category_name":"楼宇","address":"朝阳区亚运村北3公里北苑居住区"},{"poiid":"B2094654D564AAF8449C","title":"欣广大厦","lon":"121.464","lat":"31.2283","category":"46","category_name":"楼宇","address":"徐汇区冠生园路223号"},{"poiid":"B2094757D069A0FF4899","title":"青海路","lon":"121.46367273","lat":"31.228550264","category":"260","category_name":"其他","address":"上海市静安区青海路"},{"poiid":"B2094654DA6CA1FC4093","title":"上海第九人民医院上海交通大学医学院","lon":"121.46572","lat":"31.22563","category":"52","category_name":"高等院校","address":"静安区大沽路388-390"},{"poiid":"B209475CD76CA7F4479C","title":"一风堂","lon":"121.462356","lat":"31.225759","category":"500","category_name":"未知分类","address":"上海市 静安区吴江路169号1层142号"},{"poiid":"B2094655D26FA6F5439B","title":"四方新城","lon":"121.462","lat":"31.2277","category":"47","category_name":"住宅区","address":"四方新城位于静安巨鹿路568弄"},{"poiid":"B2094654DA6CA1F84598","title":"绅士大厦","lon":"121.46167","lat":"31.22651","category":"46","category_name":"楼宇","address":"静安区上海市威海路511号"},{"poiid":"B209475CD665A0FC4798","title":"元气寿司","lon":"121.465019","lat":"31.228212","category":"247","category_name":"餐饮美食","address":"上海市 吴江路"},{"poiid":"B2094757D464A7F9459D","title":"沧浪亭 静安店","lon":"121.463390054","lat":"31.225013793","category":"87","category_name":"特色／地方风味餐厅","address":"静安区大沽路509号(近石门一路)"},{"poiid":"B2094757D66EA5FE449A","title":"岳阳医院推拿科","lon":"121.46427273","lat":"31.22885627","category":"162","category_name":"医院","address":"上海市静安区青海路南京西路"},{"poiid":"B2094655D265A6FE489F","title":"上海汽车工业大厦配套工程综合楼(Shanghai)","lon":"121.46284","lat":"31.22605","category":"46","category_name":"楼宇","address":"石门一路89号"},{"poiid":"B2094757D065A2FD4292","title":"上海汽车集团股份有限公司","lon":"121.46233623","lat":"31.22651422","category":"46","category_name":"楼宇","address":"上海静安区威海路489号"},{"poiid":"B2094654DA6CA1FC4793","title":"多福里","lon":"121.46441","lat":"31.22471","category":"47","category_name":"住宅区","address":"延安中路504弄7-62号"},{"poiid":"B2094757D06BAAF8419F","title":"心一代(大沽路店)","lon":"121.46383","lat":"31.22479","category":"68","category_name":"快餐厅","address":"静安区大沽路547-3号(近石门一路)"},{"poiid":"B2094750D768A3FE4293","title":"杜六房茶餐部","lon":"121.464","lat":"31.2252","category":"72","category_name":"广东菜","address":"静安区大沽路517号-519号(石门一路口)"},{"poiid":"B2094753D764A0F54298","title":"日本力士相扑烧肉","lon":"121.464515","lat":"31.227705","category":"247","category_name":"餐饮美食","address":"上海市 静安区南京西路吴江路169号"},{"poiid":"B2094654DA6CA1F9479C","title":"上海市名老中医诊疗所","lon":"121.4627","lat":"31.22519","category":"162","category_name":"医院","address":"石门一路67弄1乙"},{"poiid":"B2094753DA6AA6F8449C","title":"PAPA PASTA 大叔意面","lon":"121.463432","lat":"31.22739","category":"247","category_name":"餐饮美食","address":"上海市 上海市静安区吴江路"},{"poiid":"B2094752D26FABFF499B","title":"Mr.&Mrs. Bund","lon":"121.464956","lat":"31.226435","category":"247","category_name":"餐饮美食","address":"外滩18号6楼"},{"poiid":"B2094757D664AAFA449F","title":"阿牛嫂桂林米粉 大沽路店","lon":"121.463638054","lat":"31.225131793","category":"68","category_name":"快餐厅","address":"静安区大沽路545号(近石门一路)"},{"poiid":"B2094757D06AA0FC4899","title":"Mio cafe","lon":"121.46308173","lat":"31.224672181","category":"260","category_name":"其他","address":"静安区延安中路632弄8号"},{"poiid":"B209475CDA6AA7FA449B","title":"宝燕一号（静安店）","lon":"121.465736","lat":"31.225704","category":"247","category_name":"餐饮美食","address":"静安区石门一路116号"},{"poiid":"B2094757D66AA6F5449B","title":"Beedees Coffee & Bar","lon":"121.464358054","lat":"31.224930793","category":"172","category_name":"酒吧","address":"静安区大沽路433号(近石门一路)"},{"poiid":"B2094753D46CA3F84592","title":"恒隆广场","lon":"121.46305","lat":"31.227308","category":"500","category_name":"未知分类","address":"上海市 南京西路1299号"},{"poiid":"B2094655D26EA1F4449E","title":"四季酒店","lon":"121.46235","lat":"31.22727","category":"213","category_name":"五星级宾馆","address":"静安区威海路500号(近石门一路)"},{"poiid":"B2094757D06FA1F54392","title":"上海广播电视台(上海东方传媒集团有限公司)","lon":"121.465393908","lat":"31.2278577286","category":"46","category_name":"楼宇","address":"上海市静安区威海路298号"},{"poiid":"B2094757D06FA2F4439B","title":"上海市中医医院(石门分院)","lon":"121.4631687","lat":"31.225289","category":"162","category_name":"医院","address":"静安区石门一路67弄1号(近大沽路)"},{"poiid":"B2094753D76FAAFA449C","title":"上海滩国泰旗舰店","lon":"121.466011","lat":"31.216125","category":"249","category_name":"购物服务","address":"淮海中路868号"},{"poiid":"B209475CD564A7F84292","title":"上海滩新天地店","lon":"121.47463","lat":"31.22164","category":"119","category_name":"商场","address":"\"太仓路181弄新天地北里15号\r\n\""},{"poiid":"B209475CD564A7F8439E","title":"上海滩中信泰富店","lon":"121.45602","lat":"31.22851","category":"119","category_name":"商场","address":"\"南京西路1168号中信泰富广场，店铺号221.\r\n\""},{"poiid":"B2094655D26DA2F54493","title":"星巴克(威海路店)","lon":"121.4629758","lat":"31.22691","category":"65","category_name":"咖啡厅","address":"静安区威海路433、439号(石门一路口)"},{"poiid":"B2094654DA6CA2F44193","title":"上海电视台(青海路)","lon":"121.4654","lat":"31.22782","category":"59","category_name":"电视台","address":"威海路298"},{"poiid":"B2094757D068A3F9479B","title":"娘惹情(大沽路店)","lon":"121.46488","lat":"31.22493","category":"110","category_name":"其他亚洲菜","address":"静安区大沽路417号(近成都北路)"},{"poiid":"B2094757D069A1FD469B","title":"四季酒店宴会厅","lon":"121.46264","lat":"31.227","category":"76","category_name":"上海菜","address":"静安区威海路500号四季酒店3楼(近石门一路)"},{"poiid":"B2094757D06FABFF489E","title":"上视大厦","lon":"121.46522522","lat":"31.227647781","category":"46","category_name":"楼宇","address":"上海威海路298号"},{"poiid":"B2094654DB69A7FD479A","title":"四季咖啡厅","lon":"121.46246127811","lat":"31.227011244415","category":"268","category_name":"自助","address":"静安区威海路500号四季酒店1楼(近石门一路)"},{"poiid":"B2094757D06BA7F8409C","title":"威海路","lon":"121.46253204","lat":"31.226638793","category":"500","category_name":"未知分类","address":"静安区威海路"},{"poiid":"B2094654DA6CA2F54993","title":"萄醉(大沽路)","lon":"121.46442","lat":"31.2255","category":"94","category_name":"西餐厅","address":"静安区大沽路462号(近石门一路)"},{"poiid":"B2094757D068A0F54492","title":"中凯豪生酒店","lon":"121.46336","lat":"31.22589","category":"217","category_name":"旅馆招待所","address":"上海静安区石门一路118号(威海路口)  "},{"poiid":"B2094752D164A0FC439D","title":"港汇恒隆广场","lon":"121.463596","lat":"31.229129","category":"500","category_name":"未知分类","address":"徐家汇"},{"poiid":"B2094654DA6CA1F9479F","title":"上海市中医医院门诊部","lon":"121.4627","lat":"31.22518","category":"162","category_name":"医院","address":"石门一路67弄1乙"},{"poiid":"B2094757D66BA3F94593","title":"香料艺术印度餐厅 大沽路店 Masala Art","lon":"121.4643078311","lat":"31.225489783646","category":"102","category_name":"印度风味","address":"静安区大沽路397号(近成都北路)"},{"poiid":"B2094757D06BA6FD499C","title":"新太郎","lon":"121.46246127811","lat":"31.227011244415","category":"95","category_name":"日本料理","address":"静安区威海路500号四季酒店2楼(近石门一路)"},{"poiid":"B2094750D26EAAF4409F","title":"Y-in Lounge","lon":"121.465675","lat":"31.225568","category":"260","category_name":"其他","address":"静安区大沽路392号(近中凯城市之光)"},{"poiid":"B2094757D068A0FB459C","title":"上海国际集团大厦","lon":"121.461769104","lat":"31.2266635895","category":"46","category_name":"楼宇","address":"上海威海路511号"},{"poiid":"B2094654DB65A7F9489F","title":"汉庭酒店(南京西路店)","lon":"121.46238","lat":"31.22823","category":"216","category_name":"经济型连锁酒店","address":"静安区石门一路239号(近吴江路)"},{"poiid":"B2094757D064A5FF429E","title":"荣府","lon":"121.46617","lat":"31.22708","category":"72","category_name":"广东菜","address":"静安区威海路289弄12号(近上海电视台)"},{"poiid":"B2094751D26EA1FA449B","title":"思南路 查餐厅","lon":"121.465454","lat":"31.225442","category":"247","category_name":"餐饮美食","address":"淮海中路思南路"},{"poiid":"B2094757D16CABFB4599","title":"上汽大厦","lon":"121.462093738","lat":"31.2264542196","category":"46","category_name":"楼宇","address":"上海市静安区威海路489号"},{"poiid":"B2094750D664A6FD489C","title":"瑞美尔特面包房(石门一路店)","lon":"121.463","lat":"31.2262","category":"112","category_name":"糕饼店","address":"静安区石门一路88号(近威海路)"},{"poiid":"B2094654DA6CA2F4469C","title":"云海苑办公楼","lon":"121.46428","lat":"31.22911","category":"46","category_name":"楼宇","address":"朝阳区亚运村北3公里北苑居住区"},{"poiid":"B2094654D564AAF8449C","title":"欣广大厦","lon":"121.464","lat":"31.2283","category":"46","category_name":"楼宇","address":"徐汇区冠生园路223号"},{"poiid":"B2094757D069A0FF4899","title":"青海路","lon":"121.46367273","lat":"31.228550264","category":"260","category_name":"其他","address":"上海市静安区青海路"},{"poiid":"B2094654DA6CA1FC4093","title":"上海第九人民医院上海交通大学医学院","lon":"121.46572","lat":"31.22563","category":"52","category_name":"高等院校","address":"静安区大沽路388-390"},{"poiid":"B209475CD76CA7F4479C","title":"一风堂","lon":"121.462356","lat":"31.225759","category":"500","category_name":"未知分类","address":"上海市 静安区吴江路169号1层142号"},{"poiid":"B2094655D26FA6F5439B","title":"四方新城","lon":"121.462","lat":"31.2277","category":"47","category_name":"住宅区","address":"四方新城位于静安巨鹿路568弄"},{"poiid":"B2094654DA6CA1F84598","title":"绅士大厦","lon":"121.46167","lat":"31.22651","category":"46","category_name":"楼宇","address":"静安区上海市威海路511号"},{"poiid":"B209475CD665A0FC4798","title":"元气寿司","lon":"121.465019","lat":"31.228212","category":"247","category_name":"餐饮美食","address":"上海市 吴江路"},{"poiid":"B2094757D464A7F9459D","title":"沧浪亭 静安店","lon":"121.463390054","lat":"31.225013793","category":"87","category_name":"特色／地方风味餐厅","address":"静安区大沽路509号(近石门一路)"},{"poiid":"B2094757D66EA5FE449A","title":"岳阳医院推拿科","lon":"121.46427273","lat":"31.22885627","category":"162","category_name":"医院","address":"上海市静安区青海路南京西路"},{"poiid":"B2094655D265A6FE489F","title":"上海汽车工业大厦配套工程综合楼(Shanghai)","lon":"121.46284","lat":"31.22605","category":"46","category_name":"楼宇","address":"石门一路89号"},{"poiid":"B2094757D065A2FD4292","title":"上海汽车集团股份有限公司","lon":"121.46233623","lat":"31.22651422","category":"46","category_name":"楼宇","address":"上海静安区威海路489号"},{"poiid":"B2094654DA6CA1FC4793","title":"多福里","lon":"121.46441","lat":"31.22471","category":"47","category_name":"住宅区","address":"延安中路504弄7-62号"},{"poiid":"B2094757D06BAAF8419F","title":"心一代(大沽路店)","lon":"121.46383","lat":"31.22479","category":"68","category_name":"快餐厅","address":"静安区大沽路547-3号(近石门一路)"},{"poiid":"B2094750D768A3FE4293","title":"杜六房茶餐部","lon":"121.464","lat":"31.2252","category":"72","category_name":"广东菜","address":"静安区大沽路517号-519号(石门一路口)"},{"poiid":"B2094753D764A0F54298","title":"日本力士相扑烧肉","lon":"121.464515","lat":"31.227705","category":"247","category_name":"餐饮美食","address":"上海市 静安区南京西路吴江路169号"},{"poiid":"B2094654DA6CA1F9479C","title":"上海市名老中医诊疗所","lon":"121.4627","lat":"31.22519","category":"162","category_name":"医院","address":"石门一路67弄1乙"},{"poiid":"B2094753DA6AA6F8449C","title":"PAPA PASTA 大叔意面","lon":"121.463432","lat":"31.22739","category":"247","category_name":"餐饮美食","address":"上海市 上海市静安区吴江路"},{"poiid":"B2094752D26FABFF499B","title":"Mr.&Mrs. Bund","lon":"121.464956","lat":"31.226435","category":"247","category_name":"餐饮美食","address":"外滩18号6楼"},{"poiid":"B2094757D664AAFA449F","title":"阿牛嫂桂林米粉 大沽路店","lon":"121.463638054","lat":"31.225131793","category":"68","category_name":"快餐厅","address":"静安区大沽路545号(近石门一路)"},{"poiid":"B2094757D06AA0FC4899","title":"Mio cafe","lon":"121.46308173","lat":"31.224672181","category":"260","category_name":"其他","address":"静安区延安中路632弄8号"},{"poiid":"B209475CDA6AA7FA449B","title":"宝燕一号（静安店）","lon":"121.465736","lat":"31.225704","category":"247","category_name":"餐饮美食","address":"静安区石门一路116号"},{"poiid":"B2094757D66AA6F5449B","title":"Beedees Coffee & Bar","lon":"121.464358054","lat":"31.224930793","category":"172","category_name":"酒吧","address":"静安区大沽路433号(近石门一路)"},{"poiid":"B2094753D46CA3F84592","title":"恒隆广场","lon":"121.46305","lat":"31.227308","category":"500","category_name":"未知分类","address":"上海市 南京西路1299号"},{"poiid":"B2094655D26EA1F4449E","title":"四季酒店","lon":"121.46235","lat":"31.22727","category":"213","category_name":"五星级宾馆","address":"静安区威海路500号(近石门一路)"},{"poiid":"B2094757D06FA1F54392","title":"上海广播电视台(上海东方传媒集团有限公司)","lon":"121.465393908","lat":"31.2278577286","category":"46","category_name":"楼宇","address":"上海市静安区威海路298号"},{"poiid":"B2094757D06FA2F4439B","title":"上海市中医医院(石门分院)","lon":"121.4631687","lat":"31.225289","category":"162","category_name":"医院","address":"静安区石门一路67弄1号(近大沽路)"},{"poiid":"B2094753D76FAAFA449C","title":"上海滩国泰旗舰店","lon":"121.466011","lat":"31.216125","category":"249","category_name":"购物服务","address":"淮海中路868号"},{"poiid":"B209475CD564A7F84292","title":"上海滩新天地店","lon":"121.47463","lat":"31.22164","category":"119","category_name":"商场","address":"\"太仓路181弄新天地北里15号\r\n\""},{"poiid":"B209475CD564A7F8439E","title":"上海滩中信泰富店","lon":"121.45602","lat":"31.22851","category":"119","category_name":"商场","address":"\"南京西路1168号中信泰富广场，店铺号221.\r\n\""},{"poiid":"B2094655D26DA2F54493","title":"星巴克(威海路店)","lon":"121.4629758","lat":"31.22691","category":"65","category_name":"咖啡厅","address":"静安区威海路433、439号(石门一路口)"},{"poiid":"B2094654DA6CA2F44193","title":"上海电视台(青海路)","lon":"121.4654","lat":"31.22782","category":"59","category_name":"电视台","address":"威海路298"},{"poiid":"B2094757D068A3F9479B","title":"娘惹情(大沽路店)","lon":"121.46488","lat":"31.22493","category":"110","category_name":"其他亚洲菜","address":"静安区大沽路417号(近成都北路)"},{"poiid":"B2094757D069A1FD469B","title":"四季酒店宴会厅","lon":"121.46264","lat":"31.227","category":"76","category_name":"上海菜","address":"静安区威海路500号四季酒店3楼(近石门一路)"},{"poiid":"B2094757D06FABFF489E","title":"上视大厦","lon":"121.46522522","lat":"31.227647781","category":"46","category_name":"楼宇","address":"上海威海路298号"},{"poiid":"B2094654DB69A7FD479A","title":"四季咖啡厅","lon":"121.46246127811","lat":"31.227011244415","category":"268","category_name":"自助","address":"静安区威海路500号四季酒店1楼(近石门一路)"},{"poiid":"B2094757D06BA7F8409C","title":"威海路","lon":"121.46253204","lat":"31.226638793","category":"500","category_name":"未知分类","address":"静安区威海路"},{"poiid":"B2094654DA6CA2F54993","title":"萄醉(大沽路)","lon":"121.46442","lat":"31.2255","category":"94","category_name":"西餐厅","address":"静安区大沽路462号(近石门一路)"},{"poiid":"B2094757D068A0F54492","title":"中凯豪生酒店","lon":"121.46336","lat":"31.22589","category":"217","category_name":"旅馆招待所","address":"上海静安区石门一路118号(威海路口)  "},{"poiid":"B2094752D164A0FC439D","title":"港汇恒隆广场","lon":"121.463596","lat":"31.229129","category":"500","category_name":"未知分类","address":"徐家汇"},{"poiid":"B2094654DA6CA1F9479F","title":"上海市中医医院门诊部","lon":"121.4627","lat":"31.22518","category":"162","category_name":"医院","address":"石门一路67弄1乙"},{"poiid":"B2094757D66BA3F94593","title":"香料艺术印度餐厅 大沽路店 Masala Art","lon":"121.4643078311","lat":"31.225489783646","category":"102","category_name":"印度风味","address":"静安区大沽路397号(近成都北路)"},{"poiid":"B2094757D06BA6FD499C","title":"新太郎","lon":"121.46246127811","lat":"31.227011244415","category":"95","category_name":"日本料理","address":"静安区威海路500号四季酒店2楼(近石门一路)"},{"poiid":"B2094750D26EAAF4409F","title":"Y-in Lounge","lon":"121.465675","lat":"31.225568","category":"260","category_name":"其他","address":"静安区大沽路392号(近中凯城市之光)"},{"poiid":"B2094757D068A0FB459C","title":"上海国际集团大厦","lon":"121.461769104","lat":"31.2266635895","category":"46","category_name":"楼宇","address":"上海威海路511号"},{"poiid":"B2094654DB65A7F9489F","title":"汉庭酒店(南京西路店)","lon":"121.46238","lat":"31.22823","category":"216","category_name":"经济型连锁酒店","address":"静安区石门一路239号(近吴江路)"},{"poiid":"B2094757D064A5FF429E","title":"荣府","lon":"121.46617","lat":"31.22708","category":"72","category_name":"广东菜","address":"静安区威海路289弄12号(近上海电视台)"},{"poiid":"B2094751D26EA1FA449B","title":"思南路 查餐厅","lon":"121.465454","lat":"31.225442","category":"247","category_name":"餐饮美食","address":"淮海中路思南路"},{"poiid":"B2094757D16CABFB4599","title":"上汽大厦","lon":"121.462093738","lat":"31.2264542196","category":"46","category_name":"楼宇","address":"上海市静安区威海路489号"},{"poiid":"B2094750D664A6FD489C","title":"瑞美尔特面包房(石门一路店)","lon":"121.463","lat":"31.2262","category":"112","category_name":"糕饼店","address":"静安区石门一路88号(近威海路)"},{"poiid":"B2094654DA6CA2F4469C","title":"云海苑办公楼","lon":"121.46428","lat":"31.22911","category":"46","category_name":"楼宇","address":"朝阳区亚运村北3公里北苑居住区"},{"poiid":"B2094654D564AAF8449C","title":"欣广大厦","lon":"121.464","lat":"31.2283","category":"46","category_name":"楼宇","address":"徐汇区冠生园路223号"},{"poiid":"B2094757D069A0FF4899","title":"青海路","lon":"121.46367273","lat":"31.228550264","category":"260","category_name":"其他","address":"上海市静安区青海路"},{"poiid":"B2094654DA6CA1FC4093","title":"上海第九人民医院上海交通大学医学院","lon":"121.46572","lat":"31.22563","category":"52","category_name":"高等院校","address":"静安区大沽路388-390"},{"poiid":"B209475CD76CA7F4479C","title":"一风堂","lon":"121.462356","lat":"31.225759","category":"500","category_name":"未知分类","address":"上海市 静安区吴江路169号1层142号"},{"poiid":"B2094655D26FA6F5439B","title":"四方新城","lon":"121.462","lat":"31.2277","category":"47","category_name":"住宅区","address":"四方新城位于静安巨鹿路568弄"},{"poiid":"B2094654DA6CA1F84598","title":"绅士大厦","lon":"121.46167","lat":"31.22651","category":"46","category_name":"楼宇","address":"静安区上海市威海路511号"},{"poiid":"B209475CD665A0FC4798","title":"元气寿司","lon":"121.465019","lat":"31.228212","category":"247","category_name":"餐饮美食","address":"上海市 吴江路"},{"poiid":"B2094757D464A7F9459D","title":"沧浪亭 静安店","lon":"121.463390054","lat":"31.225013793","category":"87","category_name":"特色／地方风味餐厅","address":"静安区大沽路509号(近石门一路)"},{"poiid":"B2094757D66EA5FE449A","title":"岳阳医院推拿科","lon":"121.46427273","lat":"31.22885627","category":"162","category_name":"医院","address":"上海市静安区青海路南京西路"},{"poiid":"B2094655D265A6FE489F","title":"上海汽车工业大厦配套工程综合楼(Shanghai)","lon":"121.46284","lat":"31.22605","category":"46","category_name":"楼宇","address":"石门一路89号"},{"poiid":"B2094757D065A2FD4292","title":"上海汽车集团股份有限公司","lon":"121.46233623","lat":"31.22651422","category":"46","category_name":"楼宇","address":"上海静安区威海路489号"},{"poiid":"B2094654DA6CA1FC4793","title":"多福里","lon":"121.46441","lat":"31.22471","category":"47","category_name":"住宅区","address":"延安中路504弄7-62号"},{"poiid":"B2094757D06BAAF8419F","title":"心一代(大沽路店)","lon":"121.46383","lat":"31.22479","category":"68","category_name":"快餐厅","address":"静安区大沽路547-3号(近石门一路)"},{"poiid":"B2094750D768A3FE4293","title":"杜六房茶餐部","lon":"121.464","lat":"31.2252","category":"72","category_name":"广东菜","address":"静安区大沽路517号-519号(石门一路口)"},{"poiid":"B2094753D764A0F54298","title":"日本力士相扑烧肉","lon":"121.464515","lat":"31.227705","category":"247","category_name":"餐饮美食","address":"上海市 静安区南京西路吴江路169号"},{"poiid":"B2094654DA6CA1F9479C","title":"上海市名老中医诊疗所","lon":"121.4627","lat":"31.22519","category":"162","category_name":"医院","address":"石门一路67弄1乙"},{"poiid":"B2094753DA6AA6F8449C","title":"PAPA PASTA 大叔意面","lon":"121.463432","lat":"31.22739","category":"247","category_name":"餐饮美食","address":"上海市 上海市静安区吴江路"},{"poiid":"B2094752D26FABFF499B","title":"Mr.&Mrs. Bund","lon":"121.464956","lat":"31.226435","category":"247","category_name":"餐饮美食","address":"外滩18号6楼"},{"poiid":"B2094757D664AAFA449F","title":"阿牛嫂桂林米粉 大沽路店","lon":"121.463638054","lat":"31.225131793","category":"68","category_name":"快餐厅","address":"静安区大沽路545号(近石门一路)"},{"poiid":"B2094757D06AA0FC4899","title":"Mio cafe","lon":"121.46308173","lat":"31.224672181","category":"260","category_name":"其他","address":"静安区延安中路632弄8号"},{"poiid":"B209475CDA6AA7FA449B","title":"宝燕一号（静安店）","lon":"121.465736","lat":"31.225704","category":"247","category_name":"餐饮美食","address":"静安区石门一路116号"},{"poiid":"B2094757D66AA6F5449B","title":"Beedees Coffee & Bar","lon":"121.464358054","lat":"31.224930793","category":"172","category_name":"酒吧","address":"静安区大沽路433号(近石门一路)"},{"poiid":"B2094753D46CA3F84592","title":"恒隆广场","lon":"121.46305","lat":"31.227308","category":"500","category_name":"未知分类","address":"上海市 南京西路1299号"},{"poiid":"B2094655D26EA1F4449E","title":"四季酒店","lon":"121.46235","lat":"31.22727","category":"213","category_name":"五星级宾馆","address":"静安区威海路500号(近石门一路)"},{"poiid":"B2094757D06FA1F54392","title":"上海广播电视台(上海东方传媒集团有限公司)","lon":"121.465393908","lat":"31.2278577286","category":"46","category_name":"楼宇","address":"上海市静安区威海路298号"},{"poiid":"B2094757D06FA2F4439B","title":"上海市中医医院(石门分院)","lon":"121.4631687","lat":"31.225289","category":"162","category_name":"医院","address":"静安区石门一路67弄1号(近大沽路)"},{"poiid":"B2094753D76FAAFA449C","title":"上海滩国泰旗舰店","lon":"121.466011","lat":"31.216125","category":"249","category_name":"购物服务","address":"淮海中路868号"},{"poiid":"B209475CD564A7F84292","title":"上海滩新天地店","lon":"121.47463","lat":"31.22164","category":"119","category_name":"商场","address":"\"太仓路181弄新天地北里15号\r\n\""},{"poiid":"B209475CD564A7F8439E","title":"上海滩中信泰富店","lon":"121.45602","lat":"31.22851","category":"119","category_name":"商场","address":"\"南京西路1168号中信泰富广场，店铺号221.\r\n\""},{"poiid":"B2094655D26DA2F54493","title":"星巴克(威海路店)","lon":"121.4629758","lat":"31.22691","category":"65","category_name":"咖啡厅","address":"静安区威海路433、439号(石门一路口)"},{"poiid":"B2094654DA6CA2F44193","title":"上海电视台(青海路)","lon":"121.4654","lat":"31.22782","category":"59","category_name":"电视台","address":"威海路298"},{"poiid":"B2094757D068A3F9479B","title":"娘惹情(大沽路店)","lon":"121.46488","lat":"31.22493","category":"110","category_name":"其他亚洲菜","address":"静安区大沽路417号(近成都北路)"},{"poiid":"B2094757D069A1FD469B","title":"四季酒店宴会厅","lon":"121.46264","lat":"31.227","category":"76","category_name":"上海菜","address":"静安区威海路500号四季酒店3楼(近石门一路)"},{"poiid":"B2094757D06FABFF489E","title":"上视大厦","lon":"121.46522522","lat":"31.227647781","category":"46","category_name":"楼宇","address":"上海威海路298号"},{"poiid":"B2094654DB69A7FD479A","title":"四季咖啡厅","lon":"121.46246127811","lat":"31.227011244415","category":"268","category_name":"自助","address":"静安区威海路500号四季酒店1楼(近石门一路)"},{"poiid":"B2094757D06BA7F8409C","title":"威海路","lon":"121.46253204","lat":"31.226638793","category":"500","category_name":"未知分类","address":"静安区威海路"},{"poiid":"B2094654DA6CA2F54993","title":"萄醉(大沽路)","lon":"121.46442","lat":"31.2255","category":"94","category_name":"西餐厅","address":"静安区大沽路462号(近石门一路)"},{"poiid":"B2094757D068A0F54492","title":"中凯豪生酒店","lon":"121.46336","lat":"31.22589","category":"217","category_name":"旅馆招待所","address":"上海静安区石门一路118号(威海路口)  "},{"poiid":"B2094752D164A0FC439D","title":"港汇恒隆广场","lon":"121.463596","lat":"31.229129","category":"500","category_name":"未知分类","address":"徐家汇"},{"poiid":"B2094654DA6CA1F9479F","title":"上海市中医医院门诊部","lon":"121.4627","lat":"31.22518","category":"162","category_name":"医院","address":"石门一路67弄1乙"},{"poiid":"B2094757D66BA3F94593","title":"香料艺术印度餐厅 大沽路店 Masala Art","lon":"121.4643078311","lat":"31.225489783646","category":"102","category_name":"印度风味","address":"静安区大沽路397号(近成都北路)"},{"poiid":"B2094757D06BA6FD499C","title":"新太郎","lon":"121.46246127811","lat":"31.227011244415","category":"95","category_name":"日本料理","address":"静安区威海路500号四季酒店2楼(近石门一路)"},{"poiid":"B2094750D26EAAF4409F","title":"Y-in Lounge","lon":"121.465675","lat":"31.225568","category":"260","category_name":"其他","address":"静安区大沽路392号(近中凯城市之光)"},{"poiid":"B2094757D068A0FB459C","title":"上海国际集团大厦","lon":"121.461769104","lat":"31.2266635895","category":"46","category_name":"楼宇","address":"上海威海路511号"},{"poiid":"B2094654DB65A7F9489F","title":"汉庭酒店(南京西路店)","lon":"121.46238","lat":"31.22823","category":"216","category_name":"经济型连锁酒店","address":"静安区石门一路239号(近吴江路)"},{"poiid":"B2094757D064A5FF429E","title":"荣府","lon":"121.46617","lat":"31.22708","category":"72","category_name":"广东菜","address":"静安区威海路289弄12号(近上海电视台)"},{"poiid":"B2094751D26EA1FA449B","title":"思南路 查餐厅","lon":"121.465454","lat":"31.225442","category":"247","category_name":"餐饮美食","address":"淮海中路思南路"},{"poiid":"B2094757D16CABFB4599","title":"上汽大厦","lon":"121.462093738","lat":"31.2264542196","category":"46","category_name":"楼宇","address":"上海市静安区威海路489号"},{"poiid":"B2094750D664A6FD489C","title":"瑞美尔特面包房(石门一路店)","lon":"121.463","lat":"31.2262","category":"112","category_name":"糕饼店","address":"静安区石门一路88号(近威海路)"},{"poiid":"B2094654DA6CA2F4469C","title":"云海苑办公楼","lon":"121.46428","lat":"31.22911","category":"46","category_name":"楼宇","address":"朝阳区亚运村北3公里北苑居住区"},{"poiid":"B2094654D564AAF8449C","title":"欣广大厦","lon":"121.464","lat":"31.2283","category":"46","category_name":"楼宇","address":"徐汇区冠生园路223号"},{"poiid":"B2094757D069A0FF4899","title":"青海路","lon":"121.46367273","lat":"31.228550264","category":"260","category_name":"其他","address":"上海市静安区青海路"},{"poiid":"B2094654DA6CA1FC4093","title":"上海第九人民医院上海交通大学医学院","lon":"121.46572","lat":"31.22563","category":"52","category_name":"高等院校","address":"静安区大沽路388-390"},{"poiid":"B209475CD76CA7F4479C","title":"一风堂","lon":"121.462356","lat":"31.225759","category":"500","category_name":"未知分类","address":"上海市 静安区吴江路169号1层142号"},{"poiid":"B2094655D26FA6F5439B","title":"四方新城","lon":"121.462","lat":"31.2277","category":"47","category_name":"住宅区","address":"四方新城位于静安巨鹿路568弄"},{"poiid":"B2094654DA6CA1F84598","title":"绅士大厦","lon":"121.46167","lat":"31.22651","category":"46","category_name":"楼宇","address":"静安区上海市威海路511号"},{"poiid":"B209475CD665A0FC4798","title":"元气寿司","lon":"121.465019","lat":"31.228212","category":"247","category_name":"餐饮美食","address":"上海市 吴江路"},{"poiid":"B2094757D464A7F9459D","title":"沧浪亭 静安店","lon":"121.463390054","lat":"31.225013793","category":"87","category_name":"特色／地方风味餐厅","address":"静安区大沽路509号(近石门一路)"},{"poiid":"B2094757D66EA5FE449A","title":"岳阳医院推拿科","lon":"121.46427273","lat":"31.22885627","category":"162","category_name":"医院","address":"上海市静安区青海路南京西路"},{"poiid":"B2094655D265A6FE489F","title":"上海汽车工业大厦配套工程综合楼(Shanghai)","lon":"121.46284","lat":"31.22605","category":"46","category_name":"楼宇","address":"石门一路89号"},{"poiid":"B2094757D065A2FD4292","title":"上海汽车集团股份有限公司","lon":"121.46233623","lat":"31.22651422","category":"46","category_name":"楼宇","address":"上海静安区威海路489号"},{"poiid":"B2094654DA6CA1FC4793","title":"多福里","lon":"121.46441","lat":"31.22471","category":"47","category_name":"住宅区","address":"延安中路504弄7-62号"},{"poiid":"B2094757D06BAAF8419F","title":"心一代(大沽路店)","lon":"121.46383","lat":"31.22479","category":"68","category_name":"快餐厅","address":"静安区大沽路547-3号(近石门一路)"},{"poiid":"B2094750D768A3FE4293","title":"杜六房茶餐部","lon":"121.464","lat":"31.2252","category":"72","category_name":"广东菜","address":"静安区大沽路517号-519号(石门一路口)"},{"poiid":"B2094753D764A0F54298","title":"日本力士相扑烧肉","lon":"121.464515","lat":"31.227705","category":"247","category_name":"餐饮美食","address":"上海市 静安区南京西路吴江路169号"},{"poiid":"B2094654DA6CA1F9479C","title":"上海市名老中医诊疗所","lon":"121.4627","lat":"31.22519","category":"162","category_name":"医院","address":"石门一路67弄1乙"},{"poiid":"B2094753DA6AA6F8449C","title":"PAPA PASTA 大叔意面","lon":"121.463432","lat":"31.22739","category":"247","category_name":"餐饮美食","address":"上海市 上海市静安区吴江路"},{"poiid":"B2094752D26FABFF499B","title":"Mr.&Mrs. Bund","lon":"121.464956","lat":"31.226435","category":"247","category_name":"餐饮美食","address":"外滩18号6楼"},{"poiid":"B2094757D664AAFA449F","title":"阿牛嫂桂林米粉 大沽路店","lon":"121.463638054","lat":"31.225131793","category":"68","category_name":"快餐厅","address":"静安区大沽路545号(近石门一路)"},{"poiid":"B2094757D06AA0FC4899","title":"Mio cafe","lon":"121.46308173","lat":"31.224672181","category":"260","category_name":"其他","address":"静安区延安中路632弄8号"},{"poiid":"B209475CDA6AA7FA449B","title":"宝燕一号（静安店）","lon":"121.465736","lat":"31.225704","category":"247","category_name":"餐饮美食","address":"静安区石门一路116号"},{"poiid":"B2094757D66AA6F5449B","title":"Beedees Coffee & Bar","lon":"121.464358054","lat":"31.224930793","category":"172","category_name":"酒吧","address":"静安区大沽路433号(近石门一路)"},{"poiid":"B2094753D46CA3F84592","title":"恒隆广场","lon":"121.46305","lat":"31.227308","category":"500","category_name":"未知分类","address":"上海市 南京西路1299号"}]