[{"poiid":"B2094757D66FA6FA479D","title":"七浦路","lon":"121.48266","lat":"31.244241","category":"141","category_name":"服装鞋帽皮具店","address":"上海七浦路,兴旺服饰城"},{"poiid":"B2094654DA6FA6FD4399","title":"广莲香","lon":"121.48293","lat":"31.24713","category":"72","category_name":"广东菜","address":"虹口区塘沽路649号(近江西北路)"},{"poiid":"B2094757D06FA0FF4798","title":"妯娌老鸭粉丝汤(七浦路店)","lon":"121.48442","lat":"31.24678","category":"257","category_name":"中餐厅","address":"虹口区武昌路579号(近江西北路)"},{"poiid":"B209475CD564A7F84292","title":"上海滩新天地店","lon":"121.47463","lat":"31.22164","category":"119","category_name":"商场","address":"\"太仓路181弄新天地北里15号\r\n\""},{"poiid":"B209475CD564A7F84392","title":"上海滩浦东香格里拉店","lon":"121.50058","lat":"31.23634","category":"119","category_name":"商场","address":"浦东富成路33号香格里拉酒店内大堂层"},{"poiid":"B2094757D06FA2FC439B","title":"天潼路地铁站","lon":"121.482454","lat":"31.244087","category":"36","category_name":"地铁站","address":"虹口区河南北路天潼路"},{"poiid":"B2094757D06FA0F44093","title":"七浦兴旺服饰市场(老兴旺)","lon":"121.482180096","lat":"31.245859573","category":"249","category_name":"购物服务","address":"上海七浦路168号"},{"poiid":"B2094757D66FA6FA459C","title":"七浦路市场","lon":"121.48208","lat":"31.24561","category":"249","category_name":"购物服务","address":"虹口区七浦路(近河南北路)"},{"poiid":"B2094757D06FA1FB4392","title":"港陆黄浦中心","lon":"121.482","lat":"31.2421","category":"46","category_name":"楼宇","address":"上海市杨浦区邯郸路近淞沪路口"},{"poiid":"B2094757D06FA7FE409D","title":"新七浦服装批发商场","lon":"121.48184542","lat":"31.245351726","category":"141","category_name":"服装鞋帽皮具店","address":"虹口区七浦路179号(近河南北路)"},{"poiid":"B2094757D06FA0FD469F","title":"东银大厦","lon":"121.484","lat":"31.2438","category":"46","category_name":"楼宇","address":"丰台学城海鹰路1号,3号"},{"poiid":"B2094757D068A1FD479F","title":"一米香潮汕砂锅粥（海宁店）","lon":"121.48431","lat":"31.24975","category":"72","category_name":"广东菜","address":"虹口区海宁路468号(近四川北路)"},{"poiid":"B2094757D068A0FF4398","title":"麦当劳(天潼路店)","lon":"121.48337","lat":"31.24366","category":"68","category_name":"快餐厅","address":"虹口区河南北路79-81号联富商场2楼(近天潼路)"},{"poiid":"B2094655D26CAAFE4799","title":"胖阿姨正宗朝鲜冷面","lon":"121.48268","lat":"31.24711","category":"96","category_name":"韩国料理","address":"虹口区塘沽路667号(近七浦路)"},{"poiid":"B2094757D06FA4FD479C","title":"河南北路海宁路","lon":"121.48192792","lat":"31.247266453","category":"500","category_name":"未知分类","address":"上海河南北路海宁路"},{"poiid":"B2094757D068A0FA4698","title":"肯德基(七浦路店)","lon":"121.480537","lat":"31.24559","category":"68","category_name":"快餐厅","address":"虹口区七浦路133号兴旺国际服饰城1楼(近河南北路)"},{"poiid":"B2094757D06FA0F8419B","title":"芋贵人(七浦路店)","lon":"121.482102","lat":"31.245791","category":"67","category_name":"甜品店","address":"虹口区七浦路133号兴旺美食城5楼29号(近天潼路)"},{"poiid":"B2094655D264A0FE4099","title":"圣和圣韩国馆","lon":"121.48016","lat":"31.24638","category":"141","category_name":"服装鞋帽皮具店","address":""},{"poiid":"B2094655D26CABF4409A","title":"七浦商业街","lon":"121.48107","lat":"31.24392","category":"116","category_name":"特色商业街","address":""},{"poiid":"B2094654DA6FA6FC4992","title":"心乐汤面馆","lon":"121.483543054","lat":"31.246675793","category":"68","category_name":"快餐厅","address":"虹口区武昌路581号(近江西北路)"},{"poiid":"B2094757D069A3FA479D","title":"六合大厦","lon":"121.481","lat":"31.2432","category":"46","category_name":"楼宇","address":"上海市四川北路1851号"},{"poiid":"B2094654DA6FA7F44693","title":"肯德基(天潼路)","lon":"121.48289","lat":"31.24421","category":"68","category_name":"快餐厅","address":"天潼路538"},{"poiid":"B2094655D26EABFA4693","title":"上海城市管理职业技术学院(河南北路)","lon":"121.48128","lat":"31.2474","category":"52","category_name":"高等院校","address":"河南北路301"},{"poiid":"B2094757D068ABF44393","title":"美欣大厦","lon":"121.48","lat":"31.2461","category":"46","category_name":"楼宇","address":"浦东临港新城主城区申港大道200号"},{"poiid":"B2094654DA6FA7F5489E","title":"河滨大楼","lon":"121.48352","lat":"31.243284","category":"47","category_name":"住宅区","address":"浦东区崂山东路410号"},{"poiid":"B2094654DA6FA7F44692","title":"七浦街","lon":"121.48304","lat":"31.24425","category":"120","category_name":"小商品市场","address":""},{"poiid":"B2094654DA6FA2FB4493","title":"安基商厦","lon":"121.483","lat":"31.244","category":"46","category_name":"楼宇","address":"上海市黄浦区浙江中路535号"},{"poiid":"B2094757D16EA4FD409B","title":"麦麦屋寿司店","lon":"121.483406738","lat":"31.2470976596","category":"95","category_name":"日本料理","address":"虹口区武昌路589号-A(近七浦路)"},{"poiid":"B2094757D068A7FB4092","title":"中国电信上海公司川北大楼","lon":"121.48471143","lat":"31.2456520332","category":"46","category_name":"楼宇","address":"上海四川北路61号"},{"poiid":"B2094757D06AA0F9459C","title":"河南路桥","lon":"121.483150858","lat":"31.2429705716","category":"234","category_name":"海滨浴场","address":"上海河南中路苏州河"},{"poiid":"B2094654DB6BABFC499C","title":"味千拉面七浦店","lon":"121.48136","lat":"31.24656","category":"68","category_name":"快餐厅","address":"塘沽路730号圣和圣时尚汇5层"},{"poiid":"B2094757D065ABFC439F","title":"七浦路重庆酸辣粉","lon":"121.48245","lat":"31.24566","category":"68","category_name":"快餐厅","address":"虹口区七浦路168号兴旺服装市场(近河南北路)"},{"poiid":"B2094750D56FA6FD4299","title":"鲁迅公园","lon":"121.482696","lat":"31.242994","category":"500","category_name":"未知分类","address":null},{"poiid":"B2094654DA6FA7F4469F","title":"万丰盛景大厦","lon":"121.48316","lat":"31.24428","category":"47","category_name":"住宅区","address":"上海市虹口区七浦路133号"},{"poiid":"B2094757D468A6F8429F","title":"樱子美食屋","lon":"121.483928054","lat":"31.246633793","category":"68","category_name":"快餐厅","address":"虹口区武昌路560号(近四川北路)"},{"poiid":"B2094752D069A7FD4093","title":"Shanghai Rose Bar","lon":"121.483453","lat":"31.245994","category":"247","category_name":"餐饮美食","address":"南苏州路76号（近外白渡桥）"},{"poiid":"B2094757D464AAF54499","title":"仙佳老鸭粉丝汤馆","lon":"121.483376054","lat":"31.245241793","category":"68","category_name":"快餐厅","address":"虹口区江西北路202号(近七浦路)"},{"poiid":"B2094655D26EA2FF4393","title":"兴旺国际美食城","lon":"121.48249","lat":"31.2456","category":"257","category_name":"中餐厅","address":"七浦路133号上海兴旺国际服饰城5层"},{"poiid":"B2094757D16CA1F94299","title":"新國際展覽中心","lon":"121.48387873","lat":"31.243333579","category":"500","category_name":"未知分类","address":"上海浦東龍陽路"},{"poiid":"B2094757D16FA2FB459C","title":"永和豆浆","lon":"121.483202738","lat":"31.2455496266","category":"247","category_name":"餐饮美食","address":"上海七浦路"},{"poiid":"B2094757D468AAF94193","title":"CHAI Living Lounge","lon":"121.482989","lat":"31.242648","category":"260","category_name":"其他","address":"虹口区北苏州路410号C座1楼(近河南路)"},{"poiid":"B2094750D76FABFE4299","title":"OASE釜山料理","lon":"121.481","lat":"31.2466","category":"96","category_name":"韩国料理","address":"虹口区河南北路233号圣和圣时尚汇5楼(新七浦对面)"},{"poiid":"B209475CD464ABFD4798","title":"上海南京路","lon":"121.482337","lat":"31.244924","category":"500","category_name":"未知分类","address":"上海市 上海南京路"},{"poiid":"B2094757D16AA0F84699","title":"真功夫 金浦店","lon":"121.480173054","lat":"31.245301793","category":"68","category_name":"快餐厅","address":"虹口区七浦路258号(山西北路口)"},{"poiid":"B2094654DA6FA6F54592","title":"联富假日公寓","lon":"121.48061","lat":"31.24444","category":"47","category_name":"住宅区","address":"山西北路222弄"},{"poiid":"B2094654DA6FA5FE409E","title":"上海新七浦服装市场(七浦路)","lon":"121.48179","lat":"31.24553","category":"141","category_name":"服装鞋帽皮具店","address":"闸北区七浦路179"},{"poiid":"B209475CD76DA3F8409D","title":"上海外滩","lon":"121.483093","lat":"31.245466","category":"500","category_name":"未知分类","address":"上海市 外滩"},{"poiid":"B2094757D16EA5FA4498","title":"上海市邮政公司","lon":"121.481540738","lat":"31.2437235877","category":"500","category_name":"未知分类","address":"上海市虹口区北苏州路276号"},{"poiid":"B2094654DB6BABFC4892","title":"上海联富服饰市场","lon":"121.48185","lat":"31.24465","category":"141","category_name":"服装鞋帽皮具店","address":""},{"poiid":"B2094750D66BAAF8419C","title":"梅记大块头爆鱼店(江西北路店)","lon":"121.483","lat":"31.2475","category":"68","category_name":"快餐厅","address":"虹口区江西北路245号(近七浦路)"},{"poiid":"B2094757D66FA6FA479D","title":"七浦路","lon":"121.48266","lat":"31.244241","category":"141","category_name":"服装鞋帽皮具店","address":"上海七浦路,兴旺服饰城"},{"poiid":"B2094654DA6FA6FD4399","title":"广莲香","lon":"121.48293","lat":"31.24713","category":"72","category_name":"广东菜","address":"虹口区塘沽路649号(近江西北路)"},{"poiid":"B2094757D06FA0FF4798","title":"妯娌老鸭粉丝汤(七浦路店)","lon":"121.48442","lat":"31.24678","category":"257","category_name":"中餐厅","address":"虹口区武昌路579号(近江西北路)"},{"poiid":"B209475CD564A7F84292","title":"上海滩新天地店","lon":"121.47463","lat":"31.22164","category":"119","category_name":"商场","address":"\"太仓路181弄新天地北里15号\r\n\""},{"poiid":"B209475CD564A7F84392","title":"上海滩浦东香格里拉店","lon":"121.50058","lat":"31.23634","category":"119","category_name":"商场","address":"浦东富成路33号香格里拉酒店内大堂层"},{"poiid":"B2094757D06FA2FC439B","title":"天潼路地铁站","lon":"121.482454","lat":"31.244087","category":"36","category_name":"地铁站","address":"虹口区河南北路天潼路"},{"poiid":"B2094757D06FA0F44093","title":"七浦兴旺服饰市场(老兴旺)","lon":"121.482180096","lat":"31.245859573","category":"249","category_name":"购物服务","address":"上海七浦路168号"},{"poiid":"B2094757D66FA6FA459C","title":"七浦路市场","lon":"121.48208","lat":"31.24561","category":"249","category_name":"购物服务","address":"虹口区七浦路(近河南北路)"},{"poiid":"B2094757D06FA1FB4392","title":"港陆黄浦中心","lon":"121.482","lat":"31.2421","category":"46","category_name":"楼宇","address":"上海市杨浦区邯郸路近淞沪路口"},{"poiid":"B2094757D06FA7FE409D","title":"新七浦服装批发商场","lon":"121.48184542","lat":"31.245351726","category":"141","category_name":"服装鞋帽皮具店","address":"虹口区七浦路179号(近河南北路)"},{"poiid":"B2094757D06FA0FD469F","title":"东银大厦","lon":"121.484","lat":"31.2438","category":"46","category_name":"楼宇","address":"丰台学城海鹰路1号,3号"},{"poiid":"B2094757D068A1FD479F","title":"一米香潮汕砂锅粥（海宁店）","lon":"121.48431","lat":"31.24975","category":"72","category_name":"广东菜","address":"虹口区海宁路468号(近四川北路)"},{"poiid":"B2094757D068A0FF4398","title":"麦当劳(天潼路店)","lon":"121.48337","lat":"31.24366","category":"68","category_name":"快餐厅","address":"虹口区河南北路79-81号联富商场2楼(近天潼路)"},{"poiid":"B2094655D26CAAFE4799","title":"胖阿姨正宗朝鲜冷面","lon":"121.48268","lat":"31.24711","category":"96","category_name":"韩国料理","address":"虹口区塘沽路667号(近七浦路)"},{"poiid":"B2094757D06FA4FD479C","title":"河南北路海宁路","lon":"121.48192792","lat":"31.247266453","category":"500","category_name":"未知分类","address":"上海河南北路海宁路"},{"poiid":"B2094757D068A0FA4698","title":"肯德基(七浦路店)","lon":"121.480537","lat":"31.24559","category":"68","category_name":"快餐厅","address":"虹口区七浦路133号兴旺国际服饰城1楼(近河南北路)"},{"poiid":"B2094757D06FA0F8419B","title":"芋贵人(七浦路店)","lon":"121.482102","lat":"31.245791","category":"67","category_name":"甜品店","address":"虹口区七浦路133号兴旺美食城5楼29号(近天潼路)"},{"poiid":"B2094655D264A0FE4099","title":"圣和圣韩国馆","lon":"121.48016","lat":"31.24638","category":"141","category_name":"服装鞋帽皮具店","address":""},{"poiid":"B2094655D26CABF4409A","title":"七浦商业街","lon":"121.48107","lat":"31.24392","category":"116","category_name":"特色商业街","address":""},{"poiid":"B2094654DA6FA6FC4992","title":"心乐汤面馆","lon":"121.483543054","lat":"31.246675793","category":"68","category_name":"快餐厅","address":"虹口区武昌路581号(近江西北路)"},{"poiid":"B2094757D069A3FA479D","title":"六合大厦","lon":"121.481","lat":"31.2432","category":"46","category_name":"楼宇","address":"上海市四川北路1851号"},{"poiid":"B2094654DA6FA7F44693","title":"肯德基(天潼路)","lon":"121.48289","lat":"31.24421","category":"68","category_name":"快餐厅","address":"天潼路538"},{"poiid":"B2094655D26EABFA4693","title":"上海城市管理职业技术学院(河南北路)","lon":"121.48128","lat":"31.2474","category":"52","category_name":"高等院校","address":"河南北路301"},{"poiid":"B2094757D068ABF44393","title":"美欣大厦","lon":"121.48","lat":"31.2461","category":"46","category_name":"楼宇","address":"浦东临港新城主城区申港大道200号"},{"poiid":"B2094654DA6FA7F5489E","title":"河滨大楼","lon":"121.48352","lat":"31.243284","category":"47","category_name":"住宅区","address":"浦东区崂山东路410号"},{"poiid":"B2094654DA6FA7F44692","title":"七浦街","lon":"121.48304","lat":"31.24425","category":"120","category_name":"小商品市场","address":""},{"poiid":"B2094654DA6FA2FB4493","title":"安基商厦","lon":"121.483","lat":"31.244","category":"46","category_name":"楼宇","address":"上海市黄浦区浙江中路535号"},{"poiid":"B2094757D16EA4FD409B","title":"麦麦屋寿司店","lon":"121.483406738","lat":"31.2470976596","category":"95","category_name":"日本料理","address":"虹口区武昌路589号-A(近七浦路)"},{"poiid":"B2094757D068A7FB4092","title":"中国电信上海公司川北大楼","lon":"121.48471143","lat":"31.2456520332","category":"46","category_name":"楼宇","address":"上海四川北路61号"},{"poiid":"B2094757D06AA0F9459C","title":"河南路桥","lon":"121.483150858","lat":"31.2429705716","category":"234","category_name":"海滨浴场","address":"上海河南中路苏州河"},{"poiid":"B2094654DB6BABFC499C","title":"味千拉面七浦店","lon":"121.48136","lat":"31.24656","category":"68","category_name":"快餐厅","address":"塘沽路730号圣和圣时尚汇5层"},{"poiid":"B2094757D065ABFC439F","title":"七浦路重庆酸辣粉","lon":"121.48245","lat":"31.24566","category":"68","category_name":"快餐厅","address":"虹口区七浦路168号兴旺服装市场(近河南北路)"},{"poiid":"B2094750D56FA6FD4299","title":"鲁迅公园","lon":"121.482696","lat":"31.242994","category":"500","category_name":"未知分类","address":null},{"poiid":"B2094654DA6FA7F4469F","title":"万丰盛景大厦","lon":"121.48316","lat":"31.24428","category":"47","category_name":"住宅区","address":"上海市虹口区七浦路133号"},{"poiid":"B2094757D468A6F8429F","title":"樱子美食屋","lon":"121.483928054","lat":"31.246633793","category":"68","category_name":"快餐厅","address":"虹口区武昌路560号(近四川北路)"},{"poiid":"B2094752D069A7FD4093","title":"Shanghai Rose Bar","lon":"121.483453","lat":"31.245994","category":"247","category_name":"餐饮美食","address":"南苏州路76号（近外白渡桥）"},{"poiid":"B2094757D464AAF54499","title":"仙佳老鸭粉丝汤馆","lon":"121.483376054","lat":"31.245241793","category":"68","category_name":"快餐厅","address":"虹口区江西北路202号(近七浦路)"},{"poiid":"B2094655D26EA2FF4393","title":"兴旺国际美食城","lon":"121.48249","lat":"31.2456","category":"257","category_name":"中餐厅","address":"七浦路133号上海兴旺国际服饰城5层"},{"poiid":"B2094757D16CA1F94299","title":"新國際展覽中心","lon":"121.48387873","lat":"31.243333579","category":"500","category_name":"未知分类","address":"上海浦東龍陽路"},{"poiid":"B2094757D16FA2FB459C","title":"永和豆浆","lon":"121.483202738","lat":"31.2455496266","category":"247","category_name":"餐饮美食","address":"上海七浦路"},{"poiid":"B2094757D468AAF94193","title":"CHAI Living Lounge","lon":"121.482989","lat":"31.242648","category":"260","category_name":"其他","address":"虹口区北苏州路410号C座1楼(近河南路)"},{"poiid":"B2094750D76FABFE4299","title":"OASE釜山料理","lon":"121.481","lat":"31.2466","category":"96","category_name":"韩国料理","address":"虹口区河南北路233号圣和圣时尚汇5楼(新七浦对面)"},{"poiid":"B209475CD464ABFD4798","title":"上海南京路","lon":"121.482337","lat":"31.244924","category":"500","category_name":"未知分类","address":"上海市 上海南京路"},{"poiid":"B2094757D16AA0F84699","title":"真功夫 金浦店","lon":"121.480173054","lat":"31.245301793","category":"68","category_name":"快餐厅","address":"虹口区七浦路258号(山西北路口)"},{"poiid":"B2094654DA6FA6F54592","title":"联富假日公寓","lon":"121.48061","lat":"31.24444","category":"47","category_name":"住宅区","address":"山西北路222弄"},{"poiid":"B2094654DA6FA5FE409E","title":"上海新七浦服装市场(七浦路)","lon":"121.48179","lat":"31.24553","category":"141","category_name":"服装鞋帽皮具店","address":"闸北区七浦路179"},{"poiid":"B209475CD76DA3F8409D","title":"上海外滩","lon":"121.483093","lat":"31.245466","category":"500","category_name":"未知分类","address":"上海市 外滩"},{"poiid":"B2094757D16EA5FA4498","title":"上海市邮政公司","lon":"121.481540738","lat":"31.2437235877","category":"500","category_name":"未知分类","address":"上海市虹口区北苏州路276号"},{"poiid":"B2094654DB6BABFC4892","title":"上海联富服饰市场","lon":"121.48185","lat":"31.24465","category":"141","category_name":"服装鞋帽皮具店","address":""},{"poiid":"B2094750D66BAAF8419C","title":"梅记大块头爆鱼店(江西北路店)","lon":"121.483","lat":"31.2475","category":"68","category_name":"快餐厅","address":"虹口区江西北路245号(近七浦路)"},{"poiid":"B2094757D66FA6FA479D","title":"七浦路","lon":"121.48266","lat":"31.244241","category":"141","category_name":"服装鞋帽皮具店","address":"上海七浦路,兴旺服饰城"},{"poiid":"B2094654DA6FA6FD4399","title":"广莲香","lon":"121.48293","lat":"31.24713","category":"72","category_name":"广东菜","address":"虹口区塘沽路649号(近江西北路)"},{"poiid":"B2094757D06FA0FF4798","title":"妯娌老鸭粉丝汤(七浦路店)","lon":"121.48442","lat":"31.24678","category":"257","category_name":"中餐厅","address":"虹口区武昌路579号(近江西北路)"},{"poiid":"B209475CD564A7F84292","title":"上海滩新天地店","lon":"121.47463","lat":"31.22164","category":"119","category_name":"商场","address":"\"太仓路181弄新天地北里15号\r\n\""},{"poiid":"B209475CD564A7F84392","title":"上海滩浦东香格里拉店","lon":"121.50058","lat":"31.23634","category":"119","category_name":"商场","address":"浦东富成路33号香格里拉酒店内大堂层"},{"poiid":"B2094757D06FA2FC439B","title":"天潼路地铁站","lon":"121.482454","lat":"31.244087","category":"36","category_name":"地铁站","address":"虹口区河南北路天潼路"},{"poiid":"B2094757D06FA0F44093","title":"七浦兴旺服饰市场(老兴旺)","lon":"121.482180096","lat":"31.245859573","category":"249","category_name":"购物服务","address":"上海七浦路168号"},{"poiid":"B2094757D66FA6FA459C","title":"七浦路市场","lon":"121.48208","lat":"31.24561","category":"249","category_name":"购物服务","address":"虹口区七浦路(近河南北路)"},{"poiid":"B2094757D06FA1FB4392","title":"港陆黄浦中心","lon":"121.482","lat":"31.2421","category":"46","category_name":"楼宇","address":"上海市杨浦区邯郸路近淞沪路口"},{"poiid":"B2094757D06FA7FE409D","title":"新七浦服装批发商场","lon":"121.48184542","lat":"31.245351726","category":"141","category_name":"服装鞋帽皮具店","address":"虹口区七浦路179号(近河南北路)"},{"poiid":"B2094757D06FA0FD469F","title":"东银大厦","lon":"121.484","lat":"31.2438","category":"46","category_name":"楼宇","address":"丰台学城海鹰路1号,3号"},{"poiid":"B2094757D068A1FD479F","title":"一米香潮汕砂锅粥（海宁店）","lon":"121.48431","lat":"31.24975","category":"72","category_name":"广东菜","address":"虹口区海宁路468号(近四川北路)"},{"poiid":"B2094757D068A0FF4398","title":"麦当劳(天潼路店)","lon":"121.48337","lat":"31.24366","category":"68","category_name":"快餐厅","address":"虹口区河南北路79-81号联富商场2楼(近天潼路)"},{"poiid":"B2094655D26CAAFE4799","title":"胖阿姨正宗朝鲜冷面","lon":"121.48268","lat":"31.24711","category":"96","category_name":"韩国料理","address":"虹口区塘沽路667号(近七浦路)"},{"poiid":"B2094757D06FA4FD479C","title":"河南北路海宁路","lon":"121.48192792","lat":"31.247266453","category":"500","category_name":"未知分类","address":"上海河南北路海宁路"},{"poiid":"B2094757D068A0FA4698","title":"肯德基(七浦路店)","lon":"121.480537","lat":"31.24559","category":"68","category_name":"快餐厅","address":"虹口区七浦路133号兴旺国际服饰城1楼(近河南北路)"},{"poiid":"B2094757D06FA0F8419B","title":"芋贵人(七浦路店)","lon":"121.482102","lat":"31.245791","category":"67","category_name":"甜品店","address":"虹口区七浦路133号兴旺美食城5楼29号(近天潼路)"},{"poiid":"B2094655D264A0FE4099","title":"圣和圣韩国馆","lon":"121.48016","lat":"31.24638","category":"141","category_name":"服装鞋帽皮具店","address":""},{"poiid":"B2094655D26CABF4409A","title":"七浦商业街","lon":"121.48107","lat":"31.24392","category":"116","category_name":"特色商业街","address":""},{"poiid":"B2094654DA6FA6FC4992","title":"心乐汤面馆","lon":"121.483543054","lat":"31.246675793","category":"68","category_name":"快餐厅","address":"虹口区武昌路581号(近江西北路)"},{"poiid":"B2094757D069A3FA479D","title":"六合大厦","lon":"121.481","lat":"31.2432","category":"46","category_name":"楼宇","address":"上海市四川北路1851号"},{"poiid":"B2094654DA6FA7F44693","title":"肯德基(天潼路)","lon":"121.48289","lat":"31.24421","category":"68","category_name":"快餐厅","address":"天潼路538"},{"poiid":"B2094655D26EABFA4693","title":"上海城市管理职业技术学院(河南北路)","lon":"121.48128","lat":"31.2474","category":"52","category_name":"高等院校","address":"河南北路301"},{"poiid":"B2094757D068ABF44393","title":"美欣大厦","lon":"121.48","lat":"31.2461","category":"46","category_name":"楼宇","address":"浦东临港新城主城区申港大道200号"},{"poiid":"B2094654DA6FA7F5489E","title":"河滨大楼","lon":"121.48352","lat":"31.243284","category":"47","category_name":"住宅区","address":"浦东区崂山东路410号"},{"poiid":"B2094654DA6FA7F44692","title":"七浦街","lon":"121.48304","lat":"31.24425","category":"120","category_name":"小商品市场","address":""},{"poiid":"B2094654DA6FA2FB4493","title":"安基商厦","lon":"121.483","lat":"31.244","category":"46","category_name":"楼宇","address":"上海市黄浦区浙江中路535号"},{"poiid":"B2094757D16EA4FD409B","title":"麦麦屋寿司店","lon":"121.483406738","lat":"31.2470976596","category":"95","category_name":"日本料理","address":"虹口区武昌路589号-A(近七浦路)"},{"poiid":"B2094757D068A7FB4092","title":"中国电信上海公司川北大楼","lon":"121.48471143","lat":"31.2456520332","category":"46","category_name":"楼宇","address":"上海四川北路61号"},{"poiid":"B2094757D06AA0F9459C","title":"河南路桥","lon":"121.483150858","lat":"31.2429705716","category":"234","category_name":"海滨浴场","address":"上海河南中路苏州河"},{"poiid":"B2094654DB6BABFC499C","title":"味千拉面七浦店","lon":"121.48136","lat":"31.24656","category":"68","category_name":"快餐厅","address":"塘沽路730号圣和圣时尚汇5层"},{"poiid":"B2094757D065ABFC439F","title":"七浦路重庆酸辣粉","lon":"121.48245","lat":"31.24566","category":"68","category_name":"快餐厅","address":"虹口区七浦路168号兴旺服装市场(近河南北路)"},{"poiid":"B2094750D56FA6FD4299","title":"鲁迅公园","lon":"121.482696","lat":"31.242994","category":"500","category_name":"未知分类","address":null},{"poiid":"B2094654DA6FA7F4469F","title":"万丰盛景大厦","lon":"121.48316","lat":"31.24428","category":"47","category_name":"住宅区","address":"上海市虹口区七浦路133号"},{"poiid":"B2094757D468A6F8429F","title":"樱子美食屋","lon":"121.483928054","lat":"31.246633793","category":"68","category_name":"快餐厅","address":"虹口区武昌路560号(近四川北路)"},{"poiid":"B2094752D069A7FD4093","title":"Shanghai Rose Bar","lon":"121.483453","lat":"31.245994","category":"247","category_name":"餐饮美食","address":"南苏州路76号（近外白渡桥）"},{"poiid":"B2094757D464AAF54499","title":"仙佳老鸭粉丝汤馆","lon":"121.483376054","lat":"31.245241793","category":"68","category_name":"快餐厅","address":"虹口区江西北路202号(近七浦路)"},{"poiid":"B2094655D26EA2FF4393","title":"兴旺国际美食城","lon":"121.48249","lat":"31.2456","category":"257","category_name":"中餐厅","address":"七浦路133号上海兴旺国际服饰城5层"},{"poiid":"B2094757D16CA1F94299","title":"新國際展覽中心","lon":"121.48387873","lat":"31.243333579","category":"500","category_name":"未知分类","address":"上海浦東龍陽路"},{"poiid":"B2094757D16FA2FB459C","title":"永和豆浆","lon":"121.483202738","lat":"31.2455496266","category":"247","category_name":"餐饮美食","address":"上海七浦路"},{"poiid":"B2094757D468AAF94193","title":"CHAI Living Lounge","lon":"121.482989","lat":"31.242648","category":"260","category_name":"其他","address":"虹口区北苏州路410号C座1楼(近河南路)"},{"poiid":"B2094750D76FABFE4299","title":"OASE釜山料理","lon":"121.481","lat":"31.2466","category":"96","category_name":"韩国料理","address":"虹口区河南北路233号圣和圣时尚汇5楼(新七浦对面)"},{"poiid":"B209475CD464ABFD4798","title":"上海南京路","lon":"121.482337","lat":"31.244924","category":"500","category_name":"未知分类","address":"上海市 上海南京路"},{"poiid":"B2094757D16AA0F84699","title":"真功夫 金浦店","lon":"121.480173054","lat":"31.245301793","category":"68","category_name":"快餐厅","address":"虹口区七浦路258号(山西北路口)"},{"poiid":"B2094654DA6FA6F54592","title":"联富假日公寓","lon":"121.48061","lat":"31.24444","category":"47","category_name":"住宅区","address":"山西北路222弄"},{"poiid":"B2094654DA6FA5FE409E","title":"上海新七浦服装市场(七浦路)","lon":"121.48179","lat":"31.24553","category":"141","category_name":"服装鞋帽皮具店","address":"闸北区七浦路179"},{"poiid":"B209475CD76DA3F8409D","title":"上海外滩","lon":"121.483093","lat":"31.245466","category":"500","category_name":"未知分类","address":"上海市 外滩"},{"poiid":"B2094757D16EA5FA4498","title":"上海市邮政公司","lon":"121.481540738","lat":"31.2437235877","category":"500","category_name":"未知分类","address":"上海市虹口区北苏州路276号"},{"poiid":"B2094654DB6BABFC4892","title":"上海联富服饰市场","lon":"121.48185","lat":"31.24465","category":"141","category_name":"服装鞋帽皮具店","address":""},{"poiid":"B2094750D66BAAF8419C","title":"梅记大块头爆鱼店(江西北路店)","lon":"121.483","lat":"31.2475","category":"68","category_name":"快餐厅","address":"虹口区江西北路245号(近七浦路)"},{"poiid":"B2094757D66FA6FA479D","title":"七浦路","lon":"121.48266","lat":"31.244241","category":"141","category_name":"服装鞋帽皮具店","address":"上海七浦路,兴旺服饰城"},{"poiid":"B2094654DA6FA6FD4399","title":"广莲香","lon":"121.48293","lat":"31.24713","category":"72","category_name":"广东菜","address":"虹口区塘沽路649号(近江西北路)"},{"poiid":"B2094757D06FA0FF4798","title":"妯娌老鸭粉丝汤(七浦路店)","lon":"121.48442","lat":"31.24678","category":"257","category_name":"中餐厅","address":"虹口区武昌路579号(近江西北路)"},{"poiid":"B209475CD564A7F84292","title":"上海滩新天地店","lon":"121.47463","lat":"31.22164","category":"119","category_name":"商场","address":"\"太仓路181弄新天地北里15号\r\n\""},{"poiid":"B209475CD564A7F84392","title":"上海滩浦东香格里拉店","lon":"121.50058","lat":"31.23634","category":"119","category_name":"商场","address":"浦东富成路33号香格里拉酒店内大堂层"},{"poiid":"B2094757D06FA2FC439B","title":"天潼路地铁站","lon":"121.482454","lat":"31.244087","category":"36","category_name":"地铁站","address":"虹口区河南北路天潼路"},{"poiid":"B2094757D06FA0F44093","title":"七浦兴旺服饰市场(老兴旺)","lon":"121.482180096","lat":"31.245859573","category":"249","category_name":"购物服务","address":"上海七浦路168号"},{"poiid":"B2094757D66FA6FA459C","title":"七浦路市场","lon":"121.48208","lat":"31.24561","category":"249","category_name":"购物服务","address":"虹口区七浦路(近河南北路)"},{"poiid":"B2094757D06FA1FB4392","title":"港陆黄浦中心","lon":"121.482","lat":"31.2421","category":"46","category_name":"楼宇","address":"上海市杨浦区邯郸路近淞沪路口"},{"poiid":"B2094757D06FA7FE409D","title":"新七浦服装批发商场","lon":"121.48184542","lat":"31.245351726","category":"141","category_name":"服装鞋帽皮具店","address":"虹口区七浦路179号(近河南北路)"},{"poiid":"B2094757D06FA0FD469F","title":"东银大厦","lon":"121.484","lat":"31.2438","category":"46","category_name":"楼宇","address":"丰台学城海鹰路1号,3号"},{"poiid":"B2094757D068A1FD479F","title":"一米香潮汕砂锅粥（海宁店）","lon":"121.48431","lat":"31.24975","category":"72","category_name":"广东菜","address":"虹口区海宁路468号(近四川北路)"},{"poiid":"B2094757D068A0FF4398","title":"麦当劳(天潼路店)","lon":"121.48337","lat":"31.24366","category":"68","category_name":"快餐厅","address":"虹口区河南北路79-81号联富商场2楼(近天潼路)"},{"poiid":"B2094655D26CAAFE4799","title":"胖阿姨正宗朝鲜冷面","lon":"121.48268","lat":"31.24711","category":"96","category_name":"韩国料理","address":"虹口区塘沽路667号(近七浦路)"},{"poiid":"B2094757D06FA4FD479C","title":"河南北路海宁路","lon":"121.48192792","lat":"31.247266453","category":"500","category_name":"未知分类","address":"上海河南北路海宁路"},{"poiid":"B2094757D068A0FA4698","title":"肯德基(七浦路店)","lon":"121.480537","lat":"31.24559","category":"68","category_name":"快餐厅","address":"虹口区七浦路133号兴旺国际服饰城1楼(近河南北路)"},{"poiid":"B2094757D06FA0F8419B","title":"芋贵人(七浦路店)","lon":"121.482102","lat":"31.245791","category":"67","category_name":"甜品店","address":"虹口区七浦路133号兴旺美食城5楼29号(近天潼路)"},{"poiid":"B2094655D264A0FE4099","title":"圣和圣韩国馆","lon":"121.48016","lat":"31.24638","category":"141","category_name":"服装鞋帽皮具店","address":""},{"poiid":"B2094655D26CABF4409A","title":"七浦商业街","lon":"121.48107","lat":"31.24392","category":"116","category_name":"特色商业街","address":""},{"poiid":"B2094654DA6FA6FC4992","title":"心乐汤面馆","lon":"121.483543054","lat":"31.246675793","category":"68","category_name":"快餐厅","address":"虹口区武昌路581号(近江西北路)"},{"poiid":"B2094757D069A3FA479D","title":"六合大厦","lon":"121.481","lat":"31.2432","category":"46","category_name":"楼宇","address":"上海市四川北路1851号"},{"poiid":"B2094654DA6FA7F44693","title":"肯德基(天潼路)","lon":"121.48289","lat":"31.24421","category":"68","category_name":"快餐厅","address":"天潼路538"},{"poiid":"B2094655D26EABFA4693","title":"上海城市管理职业技术学院(河南北路)","lon":"121.48128","lat":"31.2474","category":"52","category_name":"高等院校","address":"河南北路301"},{"poiid":"B2094757D068ABF44393","title":"美欣大厦","lon":"121.48","lat":"31.2461","category":"46","category_name":"楼宇","address":"浦东临港新城主城区申港大道200号"},{"poiid":"B2094654DA6FA7F5489E","title":"河滨大楼","lon":"121.48352","lat":"31.243284","category":"47","category_name":"住宅区","address":"浦东区崂山东路410号"},{"poiid":"B2094654DA6FA7F44692","title":"七浦街","lon":"121.48304","lat":"31.24425","category":"120","category_name":"小商品市场","address":""},{"poiid":"B2094654DA6FA2FB4493","title":"安基商厦","lon":"121.483","lat":"31.244","category":"46","category_name":"楼宇","address":"上海市黄浦区浙江中路535号"},{"poiid":"B2094757D16EA4FD409B","title":"麦麦屋寿司店","lon":"121.483406738","lat":"31.2470976596","category":"95","category_name":"日本料理","address":"虹口区武昌路589号-A(近七浦路)"},{"poiid":"B2094757D068A7FB4092","title":"中国电信上海公司川北大楼","lon":"121.48471143","lat":"31.2456520332","category":"46","category_name":"楼宇","address":"上海四川北路61号"},{"poiid":"B2094757D06AA0F9459C","title":"河南路桥","lon":"121.483150858","lat":"31.2429705716","category":"234","category_name":"海滨浴场","address":"上海河南中路苏州河"},{"poiid":"B2094654DB6BABFC499C","title":"味千拉面七浦店","lon":"121.48136","lat":"31.24656","category":"68","category_name":"快餐厅","address":"塘沽路730号圣和圣时尚汇5层"},{"poiid":"B2094757D065ABFC439F","title":"七浦路重庆酸辣粉","lon":"121.48245","lat":"31.24566","category":"68","category_name":"快餐厅","address":"虹口区七浦路168号兴旺服装市场(近河南北路)"},{"poiid":"B2094750D56FA6FD4299","title":"鲁迅公园","lon":"121.482696","lat":"31.242994","category":"500","category_name":"未知分类","address":null},{"poiid":"B2094654DA6FA7F4469F","title":"万丰盛景大厦","lon":"121.48316","lat":"31.24428","category":"47","category_name":"住宅区","address":"上海市虹口区七浦路133号"},{"poiid":"B2094757D468A6F8429F","title":"樱子美食屋","lon":"121.483928054","lat":"31.246633793","category":"68","category_name":"快餐厅","address":"虹口区武昌路560号(近四川北路)"},{"poiid":"B2094752D069A7FD4093","title":"Shanghai Rose Bar","lon":"121.483453","lat":"31.245994","category":"247","category_name":"餐饮美食","address":"南苏州路76号（近外白渡桥）"},{"poiid":"B2094757D464AAF54499","title":"仙佳老鸭粉丝汤馆","lon":"121.483376054","lat":"31.245241793","category":"68","category_name":"快餐厅","address":"虹口区江西北路202号(近七浦路)"},{"poiid":"B2094655D26EA2FF4393","title":"兴旺国际美食城","lon":"121.48249","lat":"31.2456","category":"257","category_name":"中餐厅","address":"七浦路133号上海兴旺国际服饰城5层"},{"poiid":"B2094757D16CA1F94299","title":"新國際展覽中心","lon":"121.48387873","lat":"31.243333579","category":"500","category_name":"未知分类","address":"上海浦東龍陽路"},{"poiid":"B2094757D16FA2FB459C","title":"永和豆浆","lon":"121.483202738","lat":"31.2455496266","category":"247","category_name":"餐饮美食","address":"上海七浦路"},{"poiid":"B2094757D468AAF94193","title":"CHAI Living Lounge","lon":"121.482989","lat":"31.242648","category":"260","category_name":"其他","address":"虹口区北苏州路410号C座1楼(近河南路)"},{"poiid":"B2094750D76FABFE4299","title":"OASE釜山料理","lon":"121.481","lat":"31.2466","category":"96","category_name":"韩国料理","address":"虹口区河南北路233号圣和圣时尚汇5楼(新七浦对面)"},{"poiid":"B209475CD464ABFD4798","title":"上海南京路","lon":"121.482337","lat":"31.244924","category":"500","category_name":"未知分类","address":"上海市 上海南京路"},{"poiid":"B2094757D16AA0F84699","title":"真功夫 金浦店","lon":"121.480173054","lat":"31.245301793","category":"68","category_name":"快餐厅","address":"虹口区七浦路258号(山西北路口)"},{"poiid":"B2094654DA6FA6F54592","title":"联富假日公寓","lon":"121.48061","lat":"31.24444","category":"47","category_name":"住宅区","address":"山西北路222弄"},{"poiid":"B2094654DA6FA5FE409E","title":"上海新七浦服装市场(七浦路)","lon":"121.48179","lat":"31.24553","category":"141","category_name":"服装鞋帽皮具店","address":"闸北区七浦路179"},{"poiid":"B209475CD76DA3F8409D","title":"上海外滩","lon":"121.483093","lat":"31.245466","category":"500","category_name":"未知分类","address":"上海市 外滩"},{"poiid":"B2094757D16EA5FA4498","title":"上海市邮政公司","lon":"121.481540738","lat":"31.2437235877","category":"500","category_name":"未知分类","address":"上海市虹口区北苏州路276号"},{"poiid":"B2094654DB6BABFC4892","title":"上海联富服饰市场","lon":"121.48185","lat":"31.24465","category":"141","category_name":"服装鞋帽皮具店","address":""},{"poiid":"B2094750D66BAAF8419C","title":"梅记大块头爆鱼店(江西北路店)","lon":"121.483","lat":"31.2475","category":"68","category_name":"快餐厅","address":"虹口区江西北路245号(近七浦路)"}]