[{"poiid":"B2094757D06FA3F8429C","title":"淮海路","lon":"121.46398412","lat":"31.222631868","category":"260","category_name":"其他","address":"上海淮海路"},{"poiid":"B2094750D364A0FE439B","title":"上海K11购物艺术中心","lon":"121.47371262158","lat":"31.223102757531","category":"119","category_name":"商场","address":"黄浦区淮海中路300号(近黄陂南路)"},{"poiid":"B2094654DA6EABFC4898","title":"香港新世界大厦","lon":"121.47351","lat":"31.2236","category":"46","category_name":"楼宇","address":"越秀区广州沿江中路298号"},{"poiid":"B2094753D76FAAFA449C","title":"上海滩国泰旗舰店","lon":"121.466011","lat":"31.216125","category":"249","category_name":"购物服务","address":"淮海中路868号"},{"poiid":"B209475CD564A7F84292","title":"上海滩新天地店","lon":"121.47463","lat":"31.22164","category":"119","category_name":"商场","address":"\"太仓路181弄新天地北里15号\r\n\""},{"poiid":"B209475CD564A7F8439E","title":"上海滩中信泰富店","lon":"121.45602","lat":"31.22851","category":"119","category_name":"商场","address":"\"南京西路1168号中信泰富广场，店铺号221.\r\n\""},{"poiid":"B2094757D06FA6FC419C","title":"Wagas 中环广场店","lon":"121.47261473","lat":"31.22224613","category":"94","category_name":"西餐厅","address":"上海卢湾区淮海中路淡水路中环广场"},{"poiid":"B2094753D76AA1FA419D","title":"Home,Thai","lon":"121.47351","lat":"31.22307","category":"99","category_name":"泰国／越南菜品餐厅","address":"上海市卢湾区淮海中路300号K11购物艺术中心401号铺(近黄陂南路)"},{"poiid":"B2094752D664A4FE4992","title":"极食","lon":"121.473869","lat":"31.223094","category":"247","category_name":"餐饮美食","address":"淮海中路300号K11购物艺术中心303号铺"},{"poiid":"B2094757D06EAAF4429C","title":"黄陂南路地铁站","lon":"121.473293","lat":"31.222725","category":"36","category_name":"地铁站","address":"上海轨道交通,一号线,轨交黄陂南路站,1"},{"poiid":"B2094757D06FA2F44299","title":"喜锅饭","lon":"121.472966918","lat":"31.2232093036","category":"68","category_name":"快餐厅","address":"卢湾区淮海中路358弄尚贤坊27号(近马当路)"},{"poiid":"B2094752D269A2FF4493","title":"阿吾罗日料（上海K11店）","lon":"121.473785","lat":"31.223022","category":"247","category_name":"餐饮美食","address":null},{"poiid":"B2094752D664A4F94799","title":"九点半by awfully chocolate","lon":"121.473909","lat":"31.223152","category":"247","category_name":"餐饮美食","address":"淮海中路300号K11 L3 306"},{"poiid":"B2094757D068A3F54292","title":"二百永新大厦","lon":"121.472368","lat":"31.226048","category":"46","category_name":"楼宇","address":"上海淮海中路887号"},{"poiid":"B2094757D16FA2FF499E","title":"颐东海港名厨","lon":"121.472683038","lat":"31.222152028","category":"72","category_name":"广东菜","address":"卢湾区淮海中路381号中环广场4楼(近淡水路)"},{"poiid":"B2094654DB6BA4FD489F","title":"新华联大厦","lon":"121.471","lat":"31.2248","category":"46","category_name":"楼宇","address":"越秀区广州沿江中路298号"},{"poiid":"B2094757D069A7FC449B","title":"禾绿寿司","lon":"121.47373373","lat":"31.223064147","category":"247","category_name":"餐饮美食","address":"上海市黄浦区淮海中路马当路"},{"poiid":"B209475DD16EAAF84492","title":"赵小姐不等位","lon":"121.473152","lat":"31.22327","category":"500","category_name":"未知分类","address":"上海市 太仓路70号"},{"poiid":"B2094752D168A4F94492","title":"Azul Urban","lon":"121.473545","lat":"31.22322","category":"247","category_name":"餐饮美食","address":"上海市 淮海中路300号K11购物艺术中心404号铺"},{"poiid":"B2094757D06FA2FC489D","title":"禾绿回转寿司(淮海店)","lon":"121.471866738","lat":"31.2220071249","category":"95","category_name":"日本料理","address":"卢湾区淮海中路352号(近马当路)"},{"poiid":"B2094757D068A2F5449F","title":"世纪巴士大厦","lon":"121.47163462","lat":"31.222440357","category":"46","category_name":"楼宇","address":"上海淮海中路398号"},{"poiid":"B2094757D064A5F44598","title":"Le Diamant堤雅梦香港广场店","lon":"121.473455338","lat":"31.2232045504","category":"67","category_name":"甜品店","address":"卢湾区淮海中路283号香港广场3楼"},{"poiid":"B2094654DA6EABFC4599","title":"上海外服门诊部","lon":"121.47341","lat":"31.22458","category":"162","category_name":"医院","address":"金陵西路28号金陵大厦1号楼3层、2号楼1010室"},{"poiid":"B2094757D06AA3F8489C","title":"中環廣場Delifrance","lon":"121.472848","lat":"31.222364","category":"119","category_name":"商场","address":"上海中環廣場"},{"poiid":"B2094752D068A5FD4699","title":"披萨马上诺","lon":"121.474147","lat":"31.223948","category":"247","category_name":"餐饮美食","address":"K11"},{"poiid":"B2094757DB6CA5F84593","title":"Element Fresh","lon":"121.470734","lat":"31.223412","category":"247","category_name":"餐饮美食","address":"Xin tian Di"},{"poiid":"B2094751D564ABF44592","title":"圣诞集市","lon":"121.470834","lat":"31.225767","category":"248","category_name":"生活娱乐","address":"卢湾区新天地太平湖广场"},{"poiid":"B2094752D66FA2F9489B","title":"k11购物艺术中心 鸿星荟","lon":"121.473434","lat":"31.223373","category":"500","category_name":"未知分类","address":"淮海中路 300号"},{"poiid":"B209475CD064A3F94092","title":"港丽餐厅 K11店","lon":"121.47351","lat":"31.22306","category":"72","category_name":"广东菜","address":"淮海中路300号K11购物艺术中心301-307号铺(近黄陂南路地铁站)"},{"poiid":"B2094757D16FA6FB459A","title":"雁荡路","lon":"121.47324523","lat":"31.222686139","category":"500","category_name":"未知分类","address":"上海雁荡路"},{"poiid":"B209475CD76EA0F54692","title":"环贸iapm","lon":"121.469993","lat":"31.223688","category":"500","category_name":"未知分类","address":"上海市 卢湾区淮海中路999号"},{"poiid":"B2094757D068A4F9409E","title":"上海市黄浦区人民法院","lon":"121.47189331","lat":"31.225976944","category":"608","category_name":"法院","address":"上海市延安东路1234号"},{"poiid":"B2094757D069A6F94393","title":"马当路","lon":"121.473116","lat":"31.222885","category":"500","category_name":"未知分类","address":"上海淮海中路马当路"},{"poiid":"B2094655D36CA6F54598","title":"淡水路","lon":"121.47198","lat":"31.22328","category":"38","category_name":"公交车站","address":""},{"poiid":"B209475CD06FABF5439C","title":"鸿星荟 K11店","lon":"121.47351","lat":"31.22306","category":"72","category_name":"广东菜","address":"淮海中路300号K11购物艺术中心405-501号铺(近黄陂南路)"},{"poiid":"B209475CD66EA0F9499D","title":"新元素（K11店）","lon":"121.473884","lat":"31.223064","category":"500","category_name":"未知分类","address":"上海市 淮海中路300号K11购物艺术中心402号铺(近黄陂南路)"},{"poiid":"B209475CD06DA6F44792","title":"极食 K11店","lon":"121.47351","lat":"31.22306","category":"87","category_name":"特色／地方风味餐厅","address":"淮海中路300号K11购物艺术中心303号铺(近黄陂南路)"},{"poiid":"B2094757D06AAAFD409D","title":"米香园","lon":"121.473457838","lat":"31.2231203486","category":"76","category_name":"上海菜","address":"卢湾区淮海中路358弄24号(马当路口)"},{"poiid":"B2094654DA6EABFD4898","title":"帼苑桌球俱乐部","lon":"121.47306","lat":"31.2228","category":"171","category_name":"台球厅","address":"淮海中路344号3层"},{"poiid":"B209475CD365A0FF419B","title":"简单生活 K11店","lon":"121.47344","lat":"31.22384","category":"94","category_name":"西餐厅","address":"淮海中路300号上海K11购物艺术中心L1楼107室(近金陵西路)"},{"poiid":"B2094757D068A4F9429C","title":"徐其修凉茶","lon":"121.47148973","lat":"31.222897143","category":"113","category_name":"冷饮店","address":"卢湾区兴安路98弄10号(近雁荡路)"},{"poiid":"B2094752D46AA2F8479C","title":"中国农业银行卢湾瑞金二路支行","lon":"121.471698","lat":"31.225296","category":"150","category_name":"银行","address":"上海市卢湾区淮海中路701-721号"},{"poiid":"B2094757D068A0FA419F","title":"招商银行(淮中支行)","lon":"121.47235","lat":"31.2223","category":"46","category_name":"楼宇","address":"卢湾区淮海中路398号(淡水路淮海中路)"},{"poiid":"B2094654DB64AAFB4299","title":"大旺旺特色馄饨 淮海中路店","lon":"121.473097054","lat":"31.222434793","category":"68","category_name":"快餐厅","address":"卢湾区淮海中路358弄20号(招商银行对面)"},{"poiid":"B2094750D76DA6F5439C","title":"阿姨虾肉馄饨","lon":"121.473","lat":"31.2228","category":"68","category_name":"快餐厅","address":"卢湾区淮海中路358弄28号(近热风)"},{"poiid":"B2094655D26BA4FC429B","title":"EBT苹果专营店","lon":"121.47362","lat":"31.22345","category":"138","category_name":"家电电子卖场","address":"淮海中路300号香港新世界大厦购物广场B1层105号"},{"poiid":"B2094757D069A0F84898","title":"外服","lon":"121.473413","lat":"31.224587","category":"190","category_name":"培训机构","address":"上海金陵西路28号"},{"poiid":"B2094757DB6AA5F54293","title":"东田造型（上海中环广场店）","lon":"121.473","lat":"31.2223","category":"148","category_name":"美容美发店","address":"上海卢湾区淮海中路381号 上海中环广场二层"},{"poiid":"B2094757D069AAF4419C","title":"8号线大世界站","lon":"121.47294373","lat":"31.224576179","category":"500","category_name":"未知分类","address":"上海市黄浦区成都北路"},{"poiid":"B2094757D06FABFC499C","title":"多利川菜馆 淮海店","lon":"121.47301868191","lat":"31.222765842216","category":"71","category_name":"四川菜","address":"卢湾区淮海中路344号2楼(近马当路)"},{"poiid":"B2094757D06FA3F8429C","title":"淮海路","lon":"121.46398412","lat":"31.222631868","category":"260","category_name":"其他","address":"上海淮海路"},{"poiid":"B2094750D364A0FE439B","title":"上海K11购物艺术中心","lon":"121.47371262158","lat":"31.223102757531","category":"119","category_name":"商场","address":"黄浦区淮海中路300号(近黄陂南路)"},{"poiid":"B2094654DA6EABFC4898","title":"香港新世界大厦","lon":"121.47351","lat":"31.2236","category":"46","category_name":"楼宇","address":"越秀区广州沿江中路298号"},{"poiid":"B2094753D76FAAFA449C","title":"上海滩国泰旗舰店","lon":"121.466011","lat":"31.216125","category":"249","category_name":"购物服务","address":"淮海中路868号"},{"poiid":"B209475CD564A7F84292","title":"上海滩新天地店","lon":"121.47463","lat":"31.22164","category":"119","category_name":"商场","address":"\"太仓路181弄新天地北里15号\r\n\""},{"poiid":"B209475CD564A7F8439E","title":"上海滩中信泰富店","lon":"121.45602","lat":"31.22851","category":"119","category_name":"商场","address":"\"南京西路1168号中信泰富广场，店铺号221.\r\n\""},{"poiid":"B2094757D06FA6FC419C","title":"Wagas 中环广场店","lon":"121.47261473","lat":"31.22224613","category":"94","category_name":"西餐厅","address":"上海卢湾区淮海中路淡水路中环广场"},{"poiid":"B2094753D76AA1FA419D","title":"Home,Thai","lon":"121.47351","lat":"31.22307","category":"99","category_name":"泰国／越南菜品餐厅","address":"上海市卢湾区淮海中路300号K11购物艺术中心401号铺(近黄陂南路)"},{"poiid":"B2094752D664A4FE4992","title":"极食","lon":"121.473869","lat":"31.223094","category":"247","category_name":"餐饮美食","address":"淮海中路300号K11购物艺术中心303号铺"},{"poiid":"B2094757D06EAAF4429C","title":"黄陂南路地铁站","lon":"121.473293","lat":"31.222725","category":"36","category_name":"地铁站","address":"上海轨道交通,一号线,轨交黄陂南路站,1"},{"poiid":"B2094757D06FA2F44299","title":"喜锅饭","lon":"121.472966918","lat":"31.2232093036","category":"68","category_name":"快餐厅","address":"卢湾区淮海中路358弄尚贤坊27号(近马当路)"},{"poiid":"B2094752D269A2FF4493","title":"阿吾罗日料（上海K11店）","lon":"121.473785","lat":"31.223022","category":"247","category_name":"餐饮美食","address":null},{"poiid":"B2094752D664A4F94799","title":"九点半by awfully chocolate","lon":"121.473909","lat":"31.223152","category":"247","category_name":"餐饮美食","address":"淮海中路300号K11 L3 306"},{"poiid":"B2094757D068A3F54292","title":"二百永新大厦","lon":"121.472368","lat":"31.226048","category":"46","category_name":"楼宇","address":"上海淮海中路887号"},{"poiid":"B2094757D16FA2FF499E","title":"颐东海港名厨","lon":"121.472683038","lat":"31.222152028","category":"72","category_name":"广东菜","address":"卢湾区淮海中路381号中环广场4楼(近淡水路)"},{"poiid":"B2094654DB6BA4FD489F","title":"新华联大厦","lon":"121.471","lat":"31.2248","category":"46","category_name":"楼宇","address":"越秀区广州沿江中路298号"},{"poiid":"B2094757D069A7FC449B","title":"禾绿寿司","lon":"121.47373373","lat":"31.223064147","category":"247","category_name":"餐饮美食","address":"上海市黄浦区淮海中路马当路"},{"poiid":"B209475DD16EAAF84492","title":"赵小姐不等位","lon":"121.473152","lat":"31.22327","category":"500","category_name":"未知分类","address":"上海市 太仓路70号"},{"poiid":"B2094752D168A4F94492","title":"Azul Urban","lon":"121.473545","lat":"31.22322","category":"247","category_name":"餐饮美食","address":"上海市 淮海中路300号K11购物艺术中心404号铺"},{"poiid":"B2094757D06FA2FC489D","title":"禾绿回转寿司(淮海店)","lon":"121.471866738","lat":"31.2220071249","category":"95","category_name":"日本料理","address":"卢湾区淮海中路352号(近马当路)"},{"poiid":"B2094757D068A2F5449F","title":"世纪巴士大厦","lon":"121.47163462","lat":"31.222440357","category":"46","category_name":"楼宇","address":"上海淮海中路398号"},{"poiid":"B2094757D064A5F44598","title":"Le Diamant堤雅梦香港广场店","lon":"121.473455338","lat":"31.2232045504","category":"67","category_name":"甜品店","address":"卢湾区淮海中路283号香港广场3楼"},{"poiid":"B2094654DA6EABFC4599","title":"上海外服门诊部","lon":"121.47341","lat":"31.22458","category":"162","category_name":"医院","address":"金陵西路28号金陵大厦1号楼3层、2号楼1010室"},{"poiid":"B2094757D06AA3F8489C","title":"中環廣場Delifrance","lon":"121.472848","lat":"31.222364","category":"119","category_name":"商场","address":"上海中環廣場"},{"poiid":"B2094752D068A5FD4699","title":"披萨马上诺","lon":"121.474147","lat":"31.223948","category":"247","category_name":"餐饮美食","address":"K11"},{"poiid":"B2094757DB6CA5F84593","title":"Element Fresh","lon":"121.470734","lat":"31.223412","category":"247","category_name":"餐饮美食","address":"Xin tian Di"},{"poiid":"B2094751D564ABF44592","title":"圣诞集市","lon":"121.470834","lat":"31.225767","category":"248","category_name":"生活娱乐","address":"卢湾区新天地太平湖广场"},{"poiid":"B2094752D66FA2F9489B","title":"k11购物艺术中心 鸿星荟","lon":"121.473434","lat":"31.223373","category":"500","category_name":"未知分类","address":"淮海中路 300号"},{"poiid":"B209475CD064A3F94092","title":"港丽餐厅 K11店","lon":"121.47351","lat":"31.22306","category":"72","category_name":"广东菜","address":"淮海中路300号K11购物艺术中心301-307号铺(近黄陂南路地铁站)"},{"poiid":"B2094757D16FA6FB459A","title":"雁荡路","lon":"121.47324523","lat":"31.222686139","category":"500","category_name":"未知分类","address":"上海雁荡路"},{"poiid":"B209475CD76EA0F54692","title":"环贸iapm","lon":"121.469993","lat":"31.223688","category":"500","category_name":"未知分类","address":"上海市 卢湾区淮海中路999号"},{"poiid":"B2094757D068A4F9409E","title":"上海市黄浦区人民法院","lon":"121.47189331","lat":"31.225976944","category":"608","category_name":"法院","address":"上海市延安东路1234号"},{"poiid":"B2094757D069A6F94393","title":"马当路","lon":"121.473116","lat":"31.222885","category":"500","category_name":"未知分类","address":"上海淮海中路马当路"},{"poiid":"B2094655D36CA6F54598","title":"淡水路","lon":"121.47198","lat":"31.22328","category":"38","category_name":"公交车站","address":""},{"poiid":"B209475CD06FABF5439C","title":"鸿星荟 K11店","lon":"121.47351","lat":"31.22306","category":"72","category_name":"广东菜","address":"淮海中路300号K11购物艺术中心405-501号铺(近黄陂南路)"},{"poiid":"B209475CD66EA0F9499D","title":"新元素（K11店）","lon":"121.473884","lat":"31.223064","category":"500","category_name":"未知分类","address":"上海市 淮海中路300号K11购物艺术中心402号铺(近黄陂南路)"},{"poiid":"B209475CD06DA6F44792","title":"极食 K11店","lon":"121.47351","lat":"31.22306","category":"87","category_name":"特色／地方风味餐厅","address":"淮海中路300号K11购物艺术中心303号铺(近黄陂南路)"},{"poiid":"B2094757D06AAAFD409D","title":"米香园","lon":"121.473457838","lat":"31.2231203486","category":"76","category_name":"上海菜","address":"卢湾区淮海中路358弄24号(马当路口)"},{"poiid":"B2094654DA6EABFD4898","title":"帼苑桌球俱乐部","lon":"121.47306","lat":"31.2228","category":"171","category_name":"台球厅","address":"淮海中路344号3层"},{"poiid":"B209475CD365A0FF419B","title":"简单生活 K11店","lon":"121.47344","lat":"31.22384","category":"94","category_name":"西餐厅","address":"淮海中路300号上海K11购物艺术中心L1楼107室(近金陵西路)"},{"poiid":"B2094757D068A4F9429C","title":"徐其修凉茶","lon":"121.47148973","lat":"31.222897143","category":"113","category_name":"冷饮店","address":"卢湾区兴安路98弄10号(近雁荡路)"},{"poiid":"B2094752D46AA2F8479C","title":"中国农业银行卢湾瑞金二路支行","lon":"121.471698","lat":"31.225296","category":"150","category_name":"银行","address":"上海市卢湾区淮海中路701-721号"},{"poiid":"B2094757D068A0FA419F","title":"招商银行(淮中支行)","lon":"121.47235","lat":"31.2223","category":"46","category_name":"楼宇","address":"卢湾区淮海中路398号(淡水路淮海中路)"},{"poiid":"B2094654DB64AAFB4299","title":"大旺旺特色馄饨 淮海中路店","lon":"121.473097054","lat":"31.222434793","category":"68","category_name":"快餐厅","address":"卢湾区淮海中路358弄20号(招商银行对面)"},{"poiid":"B2094750D76DA6F5439C","title":"阿姨虾肉馄饨","lon":"121.473","lat":"31.2228","category":"68","category_name":"快餐厅","address":"卢湾区淮海中路358弄28号(近热风)"},{"poiid":"B2094655D26BA4FC429B","title":"EBT苹果专营店","lon":"121.47362","lat":"31.22345","category":"138","category_name":"家电电子卖场","address":"淮海中路300号香港新世界大厦购物广场B1层105号"},{"poiid":"B2094757D069A0F84898","title":"外服","lon":"121.473413","lat":"31.224587","category":"190","category_name":"培训机构","address":"上海金陵西路28号"},{"poiid":"B2094757DB6AA5F54293","title":"东田造型（上海中环广场店）","lon":"121.473","lat":"31.2223","category":"148","category_name":"美容美发店","address":"上海卢湾区淮海中路381号 上海中环广场二层"},{"poiid":"B2094757D069AAF4419C","title":"8号线大世界站","lon":"121.47294373","lat":"31.224576179","category":"500","category_name":"未知分类","address":"上海市黄浦区成都北路"},{"poiid":"B2094757D06FABFC499C","title":"多利川菜馆 淮海店","lon":"121.47301868191","lat":"31.222765842216","category":"71","category_name":"四川菜","address":"卢湾区淮海中路344号2楼(近马当路)"},{"poiid":"B2094757D06FA3F8429C","title":"淮海路","lon":"121.46398412","lat":"31.222631868","category":"260","category_name":"其他","address":"上海淮海路"},{"poiid":"B2094750D364A0FE439B","title":"上海K11购物艺术中心","lon":"121.47371262158","lat":"31.223102757531","category":"119","category_name":"商场","address":"黄浦区淮海中路300号(近黄陂南路)"},{"poiid":"B2094654DA6EABFC4898","title":"香港新世界大厦","lon":"121.47351","lat":"31.2236","category":"46","category_name":"楼宇","address":"越秀区广州沿江中路298号"},{"poiid":"B2094753D76FAAFA449C","title":"上海滩国泰旗舰店","lon":"121.466011","lat":"31.216125","category":"249","category_name":"购物服务","address":"淮海中路868号"},{"poiid":"B209475CD564A7F84292","title":"上海滩新天地店","lon":"121.47463","lat":"31.22164","category":"119","category_name":"商场","address":"\"太仓路181弄新天地北里15号\r\n\""},{"poiid":"B209475CD564A7F8439E","title":"上海滩中信泰富店","lon":"121.45602","lat":"31.22851","category":"119","category_name":"商场","address":"\"南京西路1168号中信泰富广场，店铺号221.\r\n\""},{"poiid":"B2094757D06FA6FC419C","title":"Wagas 中环广场店","lon":"121.47261473","lat":"31.22224613","category":"94","category_name":"西餐厅","address":"上海卢湾区淮海中路淡水路中环广场"},{"poiid":"B2094753D76AA1FA419D","title":"Home,Thai","lon":"121.47351","lat":"31.22307","category":"99","category_name":"泰国／越南菜品餐厅","address":"上海市卢湾区淮海中路300号K11购物艺术中心401号铺(近黄陂南路)"},{"poiid":"B2094752D664A4FE4992","title":"极食","lon":"121.473869","lat":"31.223094","category":"247","category_name":"餐饮美食","address":"淮海中路300号K11购物艺术中心303号铺"},{"poiid":"B2094757D06EAAF4429C","title":"黄陂南路地铁站","lon":"121.473293","lat":"31.222725","category":"36","category_name":"地铁站","address":"上海轨道交通,一号线,轨交黄陂南路站,1"},{"poiid":"B2094757D06FA2F44299","title":"喜锅饭","lon":"121.472966918","lat":"31.2232093036","category":"68","category_name":"快餐厅","address":"卢湾区淮海中路358弄尚贤坊27号(近马当路)"},{"poiid":"B2094752D269A2FF4493","title":"阿吾罗日料（上海K11店）","lon":"121.473785","lat":"31.223022","category":"247","category_name":"餐饮美食","address":null},{"poiid":"B2094752D664A4F94799","title":"九点半by awfully chocolate","lon":"121.473909","lat":"31.223152","category":"247","category_name":"餐饮美食","address":"淮海中路300号K11 L3 306"},{"poiid":"B2094757D068A3F54292","title":"二百永新大厦","lon":"121.472368","lat":"31.226048","category":"46","category_name":"楼宇","address":"上海淮海中路887号"},{"poiid":"B2094757D16FA2FF499E","title":"颐东海港名厨","lon":"121.472683038","lat":"31.222152028","category":"72","category_name":"广东菜","address":"卢湾区淮海中路381号中环广场4楼(近淡水路)"},{"poiid":"B2094654DB6BA4FD489F","title":"新华联大厦","lon":"121.471","lat":"31.2248","category":"46","category_name":"楼宇","address":"越秀区广州沿江中路298号"},{"poiid":"B2094757D069A7FC449B","title":"禾绿寿司","lon":"121.47373373","lat":"31.223064147","category":"247","category_name":"餐饮美食","address":"上海市黄浦区淮海中路马当路"},{"poiid":"B209475DD16EAAF84492","title":"赵小姐不等位","lon":"121.473152","lat":"31.22327","category":"500","category_name":"未知分类","address":"上海市 太仓路70号"},{"poiid":"B2094752D168A4F94492","title":"Azul Urban","lon":"121.473545","lat":"31.22322","category":"247","category_name":"餐饮美食","address":"上海市 淮海中路300号K11购物艺术中心404号铺"},{"poiid":"B2094757D06FA2FC489D","title":"禾绿回转寿司(淮海店)","lon":"121.471866738","lat":"31.2220071249","category":"95","category_name":"日本料理","address":"卢湾区淮海中路352号(近马当路)"},{"poiid":"B2094757D068A2F5449F","title":"世纪巴士大厦","lon":"121.47163462","lat":"31.222440357","category":"46","category_name":"楼宇","address":"上海淮海中路398号"},{"poiid":"B2094757D064A5F44598","title":"Le Diamant堤雅梦香港广场店","lon":"121.473455338","lat":"31.2232045504","category":"67","category_name":"甜品店","address":"卢湾区淮海中路283号香港广场3楼"},{"poiid":"B2094654DA6EABFC4599","title":"上海外服门诊部","lon":"121.47341","lat":"31.22458","category":"162","category_name":"医院","address":"金陵西路28号金陵大厦1号楼3层、2号楼1010室"},{"poiid":"B2094757D06AA3F8489C","title":"中環廣場Delifrance","lon":"121.472848","lat":"31.222364","category":"119","category_name":"商场","address":"上海中環廣場"},{"poiid":"B2094752D068A5FD4699","title":"披萨马上诺","lon":"121.474147","lat":"31.223948","category":"247","category_name":"餐饮美食","address":"K11"},{"poiid":"B2094757DB6CA5F84593","title":"Element Fresh","lon":"121.470734","lat":"31.223412","category":"247","category_name":"餐饮美食","address":"Xin tian Di"},{"poiid":"B2094751D564ABF44592","title":"圣诞集市","lon":"121.470834","lat":"31.225767","category":"248","category_name":"生活娱乐","address":"卢湾区新天地太平湖广场"},{"poiid":"B2094752D66FA2F9489B","title":"k11购物艺术中心 鸿星荟","lon":"121.473434","lat":"31.223373","category":"500","category_name":"未知分类","address":"淮海中路 300号"},{"poiid":"B209475CD064A3F94092","title":"港丽餐厅 K11店","lon":"121.47351","lat":"31.22306","category":"72","category_name":"广东菜","address":"淮海中路300号K11购物艺术中心301-307号铺(近黄陂南路地铁站)"},{"poiid":"B2094757D16FA6FB459A","title":"雁荡路","lon":"121.47324523","lat":"31.222686139","category":"500","category_name":"未知分类","address":"上海雁荡路"},{"poiid":"B209475CD76EA0F54692","title":"环贸iapm","lon":"121.469993","lat":"31.223688","category":"500","category_name":"未知分类","address":"上海市 卢湾区淮海中路999号"},{"poiid":"B2094757D068A4F9409E","title":"上海市黄浦区人民法院","lon":"121.47189331","lat":"31.225976944","category":"608","category_name":"法院","address":"上海市延安东路1234号"},{"poiid":"B2094757D069A6F94393","title":"马当路","lon":"121.473116","lat":"31.222885","category":"500","category_name":"未知分类","address":"上海淮海中路马当路"},{"poiid":"B2094655D36CA6F54598","title":"淡水路","lon":"121.47198","lat":"31.22328","category":"38","category_name":"公交车站","address":""},{"poiid":"B209475CD06FABF5439C","title":"鸿星荟 K11店","lon":"121.47351","lat":"31.22306","category":"72","category_name":"广东菜","address":"淮海中路300号K11购物艺术中心405-501号铺(近黄陂南路)"},{"poiid":"B209475CD66EA0F9499D","title":"新元素（K11店）","lon":"121.473884","lat":"31.223064","category":"500","category_name":"未知分类","address":"上海市 淮海中路300号K11购物艺术中心402号铺(近黄陂南路)"},{"poiid":"B209475CD06DA6F44792","title":"极食 K11店","lon":"121.47351","lat":"31.22306","category":"87","category_name":"特色／地方风味餐厅","address":"淮海中路300号K11购物艺术中心303号铺(近黄陂南路)"},{"poiid":"B2094757D06AAAFD409D","title":"米香园","lon":"121.473457838","lat":"31.2231203486","category":"76","category_name":"上海菜","address":"卢湾区淮海中路358弄24号(马当路口)"},{"poiid":"B2094654DA6EABFD4898","title":"帼苑桌球俱乐部","lon":"121.47306","lat":"31.2228","category":"171","category_name":"台球厅","address":"淮海中路344号3层"},{"poiid":"B209475CD365A0FF419B","title":"简单生活 K11店","lon":"121.47344","lat":"31.22384","category":"94","category_name":"西餐厅","address":"淮海中路300号上海K11购物艺术中心L1楼107室(近金陵西路)"},{"poiid":"B2094757D068A4F9429C","title":"徐其修凉茶","lon":"121.47148973","lat":"31.222897143","category":"113","category_name":"冷饮店","address":"卢湾区兴安路98弄10号(近雁荡路)"},{"poiid":"B2094752D46AA2F8479C","title":"中国农业银行卢湾瑞金二路支行","lon":"121.471698","lat":"31.225296","category":"150","category_name":"银行","address":"上海市卢湾区淮海中路701-721号"},{"poiid":"B2094757D068A0FA419F","title":"招商银行(淮中支行)","lon":"121.47235","lat":"31.2223","category":"46","category_name":"楼宇","address":"卢湾区淮海中路398号(淡水路淮海中路)"},{"poiid":"B2094654DB64AAFB4299","title":"大旺旺特色馄饨 淮海中路店","lon":"121.473097054","lat":"31.222434793","category":"68","category_name":"快餐厅","address":"卢湾区淮海中路358弄20号(招商银行对面)"},{"poiid":"B2094750D76DA6F5439C","title":"阿姨虾肉馄饨","lon":"121.473","lat":"31.2228","category":"68","category_name":"快餐厅","address":"卢湾区淮海中路358弄28号(近热风)"},{"poiid":"B2094655D26BA4FC429B","title":"EBT苹果专营店","lon":"121.47362","lat":"31.22345","category":"138","category_name":"家电电子卖场","address":"淮海中路300号香港新世界大厦购物广场B1层105号"},{"poiid":"B2094757D069A0F84898","title":"外服","lon":"121.473413","lat":"31.224587","category":"190","category_name":"培训机构","address":"上海金陵西路28号"},{"poiid":"B2094757DB6AA5F54293","title":"东田造型（上海中环广场店）","lon":"121.473","lat":"31.2223","category":"148","category_name":"美容美发店","address":"上海卢湾区淮海中路381号 上海中环广场二层"},{"poiid":"B2094757D069AAF4419C","title":"8号线大世界站","lon":"121.47294373","lat":"31.224576179","category":"500","category_name":"未知分类","address":"上海市黄浦区成都北路"},{"poiid":"B2094757D06FABFC499C","title":"多利川菜馆 淮海店","lon":"121.47301868191","lat":"31.222765842216","category":"71","category_name":"四川菜","address":"卢湾区淮海中路344号2楼(近马当路)"},{"poiid":"B2094757D06FA3F8429C","title":"淮海路","lon":"121.46398412","lat":"31.222631868","category":"260","category_name":"其他","address":"上海淮海路"},{"poiid":"B2094750D364A0FE439B","title":"上海K11购物艺术中心","lon":"121.47371262158","lat":"31.223102757531","category":"119","category_name":"商场","address":"黄浦区淮海中路300号(近黄陂南路)"},{"poiid":"B2094654DA6EABFC4898","title":"香港新世界大厦","lon":"121.47351","lat":"31.2236","category":"46","category_name":"楼宇","address":"越秀区广州沿江中路298号"},{"poiid":"B2094753D76FAAFA449C","title":"上海滩国泰旗舰店","lon":"121.466011","lat":"31.216125","category":"249","category_name":"购物服务","address":"淮海中路868号"},{"poiid":"B209475CD564A7F84292","title":"上海滩新天地店","lon":"121.47463","lat":"31.22164","category":"119","category_name":"商场","address":"\"太仓路181弄新天地北里15号\r\n\""},{"poiid":"B209475CD564A7F8439E","title":"上海滩中信泰富店","lon":"121.45602","lat":"31.22851","category":"119","category_name":"商场","address":"\"南京西路1168号中信泰富广场，店铺号221.\r\n\""},{"poiid":"B2094757D06FA6FC419C","title":"Wagas 中环广场店","lon":"121.47261473","lat":"31.22224613","category":"94","category_name":"西餐厅","address":"上海卢湾区淮海中路淡水路中环广场"},{"poiid":"B2094753D76AA1FA419D","title":"Home,Thai","lon":"121.47351","lat":"31.22307","category":"99","category_name":"泰国／越南菜品餐厅","address":"上海市卢湾区淮海中路300号K11购物艺术中心401号铺(近黄陂南路)"},{"poiid":"B2094752D664A4FE4992","title":"极食","lon":"121.473869","lat":"31.223094","category":"247","category_name":"餐饮美食","address":"淮海中路300号K11购物艺术中心303号铺"},{"poiid":"B2094757D06EAAF4429C","title":"黄陂南路地铁站","lon":"121.473293","lat":"31.222725","category":"36","category_name":"地铁站","address":"上海轨道交通,一号线,轨交黄陂南路站,1"},{"poiid":"B2094757D06FA2F44299","title":"喜锅饭","lon":"121.472966918","lat":"31.2232093036","category":"68","category_name":"快餐厅","address":"卢湾区淮海中路358弄尚贤坊27号(近马当路)"},{"poiid":"B2094752D269A2FF4493","title":"阿吾罗日料（上海K11店）","lon":"121.473785","lat":"31.223022","category":"247","category_name":"餐饮美食","address":null},{"poiid":"B2094752D664A4F94799","title":"九点半by awfully chocolate","lon":"121.473909","lat":"31.223152","category":"247","category_name":"餐饮美食","address":"淮海中路300号K11 L3 306"},{"poiid":"B2094757D068A3F54292","title":"二百永新大厦","lon":"121.472368","lat":"31.226048","category":"46","category_name":"楼宇","address":"上海淮海中路887号"},{"poiid":"B2094757D16FA2FF499E","title":"颐东海港名厨","lon":"121.472683038","lat":"31.222152028","category":"72","category_name":"广东菜","address":"卢湾区淮海中路381号中环广场4楼(近淡水路)"},{"poiid":"B2094654DB6BA4FD489F","title":"新华联大厦","lon":"121.471","lat":"31.2248","category":"46","category_name":"楼宇","address":"越秀区广州沿江中路298号"},{"poiid":"B2094757D069A7FC449B","title":"禾绿寿司","lon":"121.47373373","lat":"31.223064147","category":"247","category_name":"餐饮美食","address":"上海市黄浦区淮海中路马当路"},{"poiid":"B209475DD16EAAF84492","title":"赵小姐不等位","lon":"121.473152","lat":"31.22327","category":"500","category_name":"未知分类","address":"上海市 太仓路70号"},{"poiid":"B2094752D168A4F94492","title":"Azul Urban","lon":"121.473545","lat":"31.22322","category":"247","category_name":"餐饮美食","address":"上海市 淮海中路300号K11购物艺术中心404号铺"},{"poiid":"B2094757D06FA2FC489D","title":"禾绿回转寿司(淮海店)","lon":"121.471866738","lat":"31.2220071249","category":"95","category_name":"日本料理","address":"卢湾区淮海中路352号(近马当路)"},{"poiid":"B2094757D068A2F5449F","title":"世纪巴士大厦","lon":"121.47163462","lat":"31.222440357","category":"46","category_name":"楼宇","address":"上海淮海中路398号"},{"poiid":"B2094757D064A5F44598","title":"Le Diamant堤雅梦香港广场店","lon":"121.473455338","lat":"31.2232045504","category":"67","category_name":"甜品店","address":"卢湾区淮海中路283号香港广场3楼"},{"poiid":"B2094654DA6EABFC4599","title":"上海外服门诊部","lon":"121.47341","lat":"31.22458","category":"162","category_name":"医院","address":"金陵西路28号金陵大厦1号楼3层、2号楼1010室"},{"poiid":"B2094757D06AA3F8489C","title":"中環廣場Delifrance","lon":"121.472848","lat":"31.222364","category":"119","category_name":"商场","address":"上海中環廣場"},{"poiid":"B2094752D068A5FD4699","title":"披萨马上诺","lon":"121.474147","lat":"31.223948","category":"247","category_name":"餐饮美食","address":"K11"},{"poiid":"B2094757DB6CA5F84593","title":"Element Fresh","lon":"121.470734","lat":"31.223412","category":"247","category_name":"餐饮美食","address":"Xin tian Di"},{"poiid":"B2094751D564ABF44592","title":"圣诞集市","lon":"121.470834","lat":"31.225767","category":"248","category_name":"生活娱乐","address":"卢湾区新天地太平湖广场"},{"poiid":"B2094752D66FA2F9489B","title":"k11购物艺术中心 鸿星荟","lon":"121.473434","lat":"31.223373","category":"500","category_name":"未知分类","address":"淮海中路 300号"},{"poiid":"B209475CD064A3F94092","title":"港丽餐厅 K11店","lon":"121.47351","lat":"31.22306","category":"72","category_name":"广东菜","address":"淮海中路300号K11购物艺术中心301-307号铺(近黄陂南路地铁站)"},{"poiid":"B2094757D16FA6FB459A","title":"雁荡路","lon":"121.47324523","lat":"31.222686139","category":"500","category_name":"未知分类","address":"上海雁荡路"},{"poiid":"B209475CD76EA0F54692","title":"环贸iapm","lon":"121.469993","lat":"31.223688","category":"500","category_name":"未知分类","address":"上海市 卢湾区淮海中路999号"},{"poiid":"B2094757D068A4F9409E","title":"上海市黄浦区人民法院","lon":"121.47189331","lat":"31.225976944","category":"608","category_name":"法院","address":"上海市延安东路1234号"},{"poiid":"B2094757D069A6F94393","title":"马当路","lon":"121.473116","lat":"31.222885","category":"500","category_name":"未知分类","address":"上海淮海中路马当路"},{"poiid":"B2094655D36CA6F54598","title":"淡水路","lon":"121.47198","lat":"31.22328","category":"38","category_name":"公交车站","address":""},{"poiid":"B209475CD06FABF5439C","title":"鸿星荟 K11店","lon":"121.47351","lat":"31.22306","category":"72","category_name":"广东菜","address":"淮海中路300号K11购物艺术中心405-501号铺(近黄陂南路)"},{"poiid":"B209475CD66EA0F9499D","title":"新元素（K11店）","lon":"121.473884","lat":"31.223064","category":"500","category_name":"未知分类","address":"上海市 淮海中路300号K11购物艺术中心402号铺(近黄陂南路)"},{"poiid":"B209475CD06DA6F44792","title":"极食 K11店","lon":"121.47351","lat":"31.22306","category":"87","category_name":"特色／地方风味餐厅","address":"淮海中路300号K11购物艺术中心303号铺(近黄陂南路)"},{"poiid":"B2094757D06AAAFD409D","title":"米香园","lon":"121.473457838","lat":"31.2231203486","category":"76","category_name":"上海菜","address":"卢湾区淮海中路358弄24号(马当路口)"},{"poiid":"B2094654DA6EABFD4898","title":"帼苑桌球俱乐部","lon":"121.47306","lat":"31.2228","category":"171","category_name":"台球厅","address":"淮海中路344号3层"},{"poiid":"B209475CD365A0FF419B","title":"简单生活 K11店","lon":"121.47344","lat":"31.22384","category":"94","category_name":"西餐厅","address":"淮海中路300号上海K11购物艺术中心L1楼107室(近金陵西路)"},{"poiid":"B2094757D068A4F9429C","title":"徐其修凉茶","lon":"121.47148973","lat":"31.222897143","category":"113","category_name":"冷饮店","address":"卢湾区兴安路98弄10号(近雁荡路)"},{"poiid":"B2094752D46AA2F8479C","title":"中国农业银行卢湾瑞金二路支行","lon":"121.471698","lat":"31.225296","category":"150","category_name":"银行","address":"上海市卢湾区淮海中路701-721号"},{"poiid":"B2094757D068A0FA419F","title":"招商银行(淮中支行)","lon":"121.47235","lat":"31.2223","category":"46","category_name":"楼宇","address":"卢湾区淮海中路398号(淡水路淮海中路)"},{"poiid":"B2094654DB64AAFB4299","title":"大旺旺特色馄饨 淮海中路店","lon":"121.473097054","lat":"31.222434793","category":"68","category_name":"快餐厅","address":"卢湾区淮海中路358弄20号(招商银行对面)"},{"poiid":"B2094750D76DA6F5439C","title":"阿姨虾肉馄饨","lon":"121.473","lat":"31.2228","category":"68","category_name":"快餐厅","address":"卢湾区淮海中路358弄28号(近热风)"},{"poiid":"B2094655D26BA4FC429B","title":"EBT苹果专营店","lon":"121.47362","lat":"31.22345","category":"138","category_name":"家电电子卖场","address":"淮海中路300号香港新世界大厦购物广场B1层105号"},{"poiid":"B2094757D069A0F84898","title":"外服","lon":"121.473413","lat":"31.224587","category":"190","category_name":"培训机构","address":"上海金陵西路28号"},{"poiid":"B2094757DB6AA5F54293","title":"东田造型（上海中环广场店）","lon":"121.473","lat":"31.2223","category":"148","category_name":"美容美发店","address":"上海卢湾区淮海中路381号 上海中环广场二层"},{"poiid":"B2094757D069AAF4419C","title":"8号线大世界站","lon":"121.47294373","lat":"31.224576179","category":"500","category_name":"未知分类","address":"上海市黄浦区成都北路"},{"poiid":"B2094757D06FABFC499C","title":"多利川菜馆 淮海店","lon":"121.47301868191","lat":"31.222765842216","category":"71","category_name":"四川菜","address":"卢湾区淮海中路344号2楼(近马当路)"},{"poiid":"B2094757D06FA3F8429C","title":"淮海路","lon":"121.46398412","lat":"31.222631868","category":"260","category_name":"其他","address":"上海淮海路"},{"poiid":"B2094750D364A0FE439B","title":"上海K11购物艺术中心","lon":"121.47371262158","lat":"31.223102757531","category":"119","category_name":"商场","address":"黄浦区淮海中路300号(近黄陂南路)"},{"poiid":"B2094654DA6EABFC4898","title":"香港新世界大厦","lon":"121.47351","lat":"31.2236","category":"46","category_name":"楼宇","address":"越秀区广州沿江中路298号"},{"poiid":"B2094753D76FAAFA449C","title":"上海滩国泰旗舰店","lon":"121.466011","lat":"31.216125","category":"249","category_name":"购物服务","address":"淮海中路868号"},{"poiid":"B209475CD564A7F84292","title":"上海滩新天地店","lon":"121.47463","lat":"31.22164","category":"119","category_name":"商场","address":"\"太仓路181弄新天地北里15号\r\n\""},{"poiid":"B209475CD564A7F8439E","title":"上海滩中信泰富店","lon":"121.45602","lat":"31.22851","category":"119","category_name":"商场","address":"\"南京西路1168号中信泰富广场，店铺号221.\r\n\""},{"poiid":"B2094757D06FA6FC419C","title":"Wagas 中环广场店","lon":"121.47261473","lat":"31.22224613","category":"94","category_name":"西餐厅","address":"上海卢湾区淮海中路淡水路中环广场"},{"poiid":"B2094753D76AA1FA419D","title":"Home,Thai","lon":"121.47351","lat":"31.22307","category":"99","category_name":"泰国／越南菜品餐厅","address":"上海市卢湾区淮海中路300号K11购物艺术中心401号铺(近黄陂南路)"},{"poiid":"B2094752D664A4FE4992","title":"极食","lon":"121.473869","lat":"31.223094","category":"247","category_name":"餐饮美食","address":"淮海中路300号K11购物艺术中心303号铺"},{"poiid":"B2094757D06EAAF4429C","title":"黄陂南路地铁站","lon":"121.473293","lat":"31.222725","category":"36","category_name":"地铁站","address":"上海轨道交通,一号线,轨交黄陂南路站,1"},{"poiid":"B2094757D06FA2F44299","title":"喜锅饭","lon":"121.472966918","lat":"31.2232093036","category":"68","category_name":"快餐厅","address":"卢湾区淮海中路358弄尚贤坊27号(近马当路)"},{"poiid":"B2094752D269A2FF4493","title":"阿吾罗日料（上海K11店）","lon":"121.473785","lat":"31.223022","category":"247","category_name":"餐饮美食","address":null},{"poiid":"B2094752D664A4F94799","title":"九点半by awfully chocolate","lon":"121.473909","lat":"31.223152","category":"247","category_name":"餐饮美食","address":"淮海中路300号K11 L3 306"},{"poiid":"B2094757D068A3F54292","title":"二百永新大厦","lon":"121.472368","lat":"31.226048","category":"46","category_name":"楼宇","address":"上海淮海中路887号"},{"poiid":"B2094757D16FA2FF499E","title":"颐东海港名厨","lon":"121.472683038","lat":"31.222152028","category":"72","category_name":"广东菜","address":"卢湾区淮海中路381号中环广场4楼(近淡水路)"},{"poiid":"B2094654DB6BA4FD489F","title":"新华联大厦","lon":"121.471","lat":"31.2248","category":"46","category_name":"楼宇","address":"越秀区广州沿江中路298号"},{"poiid":"B2094757D069A7FC449B","title":"禾绿寿司","lon":"121.47373373","lat":"31.223064147","category":"247","category_name":"餐饮美食","address":"上海市黄浦区淮海中路马当路"},{"poiid":"B209475DD16EAAF84492","title":"赵小姐不等位","lon":"121.473152","lat":"31.22327","category":"500","category_name":"未知分类","address":"上海市 太仓路70号"},{"poiid":"B2094752D168A4F94492","title":"Azul Urban","lon":"121.473545","lat":"31.22322","category":"247","category_name":"餐饮美食","address":"上海市 淮海中路300号K11购物艺术中心404号铺"},{"poiid":"B2094757D06FA2FC489D","title":"禾绿回转寿司(淮海店)","lon":"121.471866738","lat":"31.2220071249","category":"95","category_name":"日本料理","address":"卢湾区淮海中路352号(近马当路)"},{"poiid":"B2094757D068A2F5449F","title":"世纪巴士大厦","lon":"121.47163462","lat":"31.222440357","category":"46","category_name":"楼宇","address":"上海淮海中路398号"},{"poiid":"B2094757D064A5F44598","title":"Le Diamant堤雅梦香港广场店","lon":"121.473455338","lat":"31.2232045504","category":"67","category_name":"甜品店","address":"卢湾区淮海中路283号香港广场3楼"},{"poiid":"B2094654DA6EABFC4599","title":"上海外服门诊部","lon":"121.47341","lat":"31.22458","category":"162","category_name":"医院","address":"金陵西路28号金陵大厦1号楼3层、2号楼1010室"},{"poiid":"B2094757D06AA3F8489C","title":"中環廣場Delifrance","lon":"121.472848","lat":"31.222364","category":"119","category_name":"商场","address":"上海中環廣場"},{"poiid":"B2094752D068A5FD4699","title":"披萨马上诺","lon":"121.474147","lat":"31.223948","category":"247","category_name":"餐饮美食","address":"K11"},{"poiid":"B2094757DB6CA5F84593","title":"Element Fresh","lon":"121.470734","lat":"31.223412","category":"247","category_name":"餐饮美食","address":"Xin tian Di"},{"poiid":"B2094751D564ABF44592","title":"圣诞集市","lon":"121.470834","lat":"31.225767","category":"248","category_name":"生活娱乐","address":"卢湾区新天地太平湖广场"},{"poiid":"B2094752D66FA2F9489B","title":"k11购物艺术中心 鸿星荟","lon":"121.473434","lat":"31.223373","category":"500","category_name":"未知分类","address":"淮海中路 300号"},{"poiid":"B209475CD064A3F94092","title":"港丽餐厅 K11店","lon":"121.47351","lat":"31.22306","category":"72","category_name":"广东菜","address":"淮海中路300号K11购物艺术中心301-307号铺(近黄陂南路地铁站)"},{"poiid":"B2094757D16FA6FB459A","title":"雁荡路","lon":"121.47324523","lat":"31.222686139","category":"500","category_name":"未知分类","address":"上海雁荡路"},{"poiid":"B209475CD76EA0F54692","title":"环贸iapm","lon":"121.469993","lat":"31.223688","category":"500","category_name":"未知分类","address":"上海市 卢湾区淮海中路999号"},{"poiid":"B2094757D068A4F9409E","title":"上海市黄浦区人民法院","lon":"121.47189331","lat":"31.225976944","category":"608","category_name":"法院","address":"上海市延安东路1234号"},{"poiid":"B2094757D069A6F94393","title":"马当路","lon":"121.473116","lat":"31.222885","category":"500","category_name":"未知分类","address":"上海淮海中路马当路"},{"poiid":"B2094655D36CA6F54598","title":"淡水路","lon":"121.47198","lat":"31.22328","category":"38","category_name":"公交车站","address":""},{"poiid":"B209475CD06FABF5439C","title":"鸿星荟 K11店","lon":"121.47351","lat":"31.22306","category":"72","category_name":"广东菜","address":"淮海中路300号K11购物艺术中心405-501号铺(近黄陂南路)"},{"poiid":"B209475CD66EA0F9499D","title":"新元素（K11店）","lon":"121.473884","lat":"31.223064","category":"500","category_name":"未知分类","address":"上海市 淮海中路300号K11购物艺术中心402号铺(近黄陂南路)"},{"poiid":"B209475CD06DA6F44792","title":"极食 K11店","lon":"121.47351","lat":"31.22306","category":"87","category_name":"特色／地方风味餐厅","address":"淮海中路300号K11购物艺术中心303号铺(近黄陂南路)"},{"poiid":"B2094757D06AAAFD409D","title":"米香园","lon":"121.473457838","lat":"31.2231203486","category":"76","category_name":"上海菜","address":"卢湾区淮海中路358弄24号(马当路口)"},{"poiid":"B2094654DA6EABFD4898","title":"帼苑桌球俱乐部","lon":"121.47306","lat":"31.2228","category":"171","category_name":"台球厅","address":"淮海中路344号3层"},{"poiid":"B209475CD365A0FF419B","title":"简单生活 K11店","lon":"121.47344","lat":"31.22384","category":"94","category_name":"西餐厅","address":"淮海中路300号上海K11购物艺术中心L1楼107室(近金陵西路)"},{"poiid":"B2094757D068A4F9429C","title":"徐其修凉茶","lon":"121.47148973","lat":"31.222897143","category":"113","category_name":"冷饮店","address":"卢湾区兴安路98弄10号(近雁荡路)"},{"poiid":"B2094752D46AA2F8479C","title":"中国农业银行卢湾瑞金二路支行","lon":"121.471698","lat":"31.225296","category":"150","category_name":"银行","address":"上海市卢湾区淮海中路701-721号"},{"poiid":"B2094757D068A0FA419F","title":"招商银行(淮中支行)","lon":"121.47235","lat":"31.2223","category":"46","category_name":"楼宇","address":"卢湾区淮海中路398号(淡水路淮海中路)"},{"poiid":"B2094654DB64AAFB4299","title":"大旺旺特色馄饨 淮海中路店","lon":"121.473097054","lat":"31.222434793","category":"68","category_name":"快餐厅","address":"卢湾区淮海中路358弄20号(招商银行对面)"},{"poiid":"B2094750D76DA6F5439C","title":"阿姨虾肉馄饨","lon":"121.473","lat":"31.2228","category":"68","category_name":"快餐厅","address":"卢湾区淮海中路358弄28号(近热风)"},{"poiid":"B2094655D26BA4FC429B","title":"EBT苹果专营店","lon":"121.47362","lat":"31.22345","category":"138","category_name":"家电电子卖场","address":"淮海中路300号香港新世界大厦购物广场B1层105号"},{"poiid":"B2094757D069A0F84898","title":"外服","lon":"121.473413","lat":"31.224587","category":"190","category_name":"培训机构","address":"上海金陵西路28号"},{"poiid":"B2094757DB6AA5F54293","title":"东田造型（上海中环广场店）","lon":"121.473","lat":"31.2223","category":"148","category_name":"美容美发店","address":"上海卢湾区淮海中路381号 上海中环广场二层"},{"poiid":"B2094757D069AAF4419C","title":"8号线大世界站","lon":"121.47294373","lat":"31.224576179","category":"500","category_name":"未知分类","address":"上海市黄浦区成都北路"},{"poiid":"B2094757D06FABFC499C","title":"多利川菜馆 淮海店","lon":"121.47301868191","lat":"31.222765842216","category":"71","category_name":"四川菜","address":"卢湾区淮海中路344号2楼(近马当路)"}]