[{"poiid":"B2094655D269ABFD469B","title":"静安寺","lon":"121.44552","lat":"31.22324","category":"244","category_name":"寺庙道观","address":"静安区南京西路1686号(近静安寺)"},{"poiid":"B2094757D06FA6FE4392","title":"芮欧百货(上海)","lon":"121.44795308","lat":"31.223756204","category":"119","category_name":"商场","address":"静安区南京西路1601号"},{"poiid":"B2094654DB69A0FA449C","title":"椰香天堂泰国料理","lon":"121.44991","lat":"31.22092","category":"99","category_name":"泰国／越南菜品餐厅","address":"静安区富民路38号(近延安中路)"},{"poiid":"B2094753D76FAAFA449C","title":"上海滩国泰旗舰店","lon":"121.466011","lat":"31.216125","category":"249","category_name":"购物服务","address":"淮海中路868号"},{"poiid":"B209475CD564A7F84292","title":"上海滩新天地店","lon":"121.47463","lat":"31.22164","category":"119","category_name":"商场","address":"\"太仓路181弄新天地北里15号\r\n\""},{"poiid":"B209475CD564A7F8439E","title":"上海滩中信泰富店","lon":"121.45602","lat":"31.22851","category":"119","category_name":"商场","address":"\"南京西路1168号中信泰富广场，店铺号221.\r\n\""},{"poiid":"B2094757D06FA0F44593","title":"柒寿司(富民路店)","lon":"121.45014813109981","lat":"31.221289026267844","category":"95","category_name":"日本料理","address":"上海静安寺富民路51号"},{"poiid":"B2094655D26FA2FA429D","title":"越洋廣場","lon":"121.44767667724614","lat":"31.223172433526056","category":"249","category_name":"购物服务","address":"上海市静安区常德路"},{"poiid":"B2094757D06FA2FE479F","title":"哈根达斯(久光二店)","lon":"121.447189586","lat":"31.2235192998","category":"113","category_name":"冷饮店","address":"静安区南京西路1618号久光百货2楼S223号商铺(近静安寺)"},{"poiid":"B2094655D26CAAF44692","title":"璞丽酒店(常德路)","lon":"121.44858","lat":"31.22251","category":"250","category_name":"公园户外","address":"静安区常德路1号(近延安中路)"},{"poiid":"B2094655D26EA1FE449F","title":"上海延安饭店","lon":"121.44827","lat":"31.22062","category":"214","category_name":"四星级宾馆","address":"静安区延安中路1111号(近华山路)"},{"poiid":"B2094757D46EABFF449B","title":"Réel Kitchen","lon":"121.4476342","lat":"31.2238135","category":"68","category_name":"快餐厅","address":"静安区南京西路1601号芮欧百货B2楼(近地铁静安寺站)"},{"poiid":"B2094757D068AAF54793","title":"葡京制造 芮欧百货店","lon":"121.4476342","lat":"31.2238135","category":"72","category_name":"广东菜","address":"静安区南京西路1601号芮欧百货B2楼B213号(近地铁2号线10号口)"},{"poiid":"B2094757D06FA6F8499C","title":"小南国烧烤(久光店)","lon":"121.44737","lat":"31.22351","category":"95","category_name":"日本料理","address":"静安区南京西路1618号久光百货8楼(近静安寺)"},{"poiid":"B209475CD66BABF4409F","title":"大董烤鸭店","lon":"121.448539","lat":"31.223339","category":"247","category_name":"餐饮美食","address":"上海市 南京西路1601号越洋广场芮欧百货5楼"},{"poiid":"B2094655D264A1FF479D","title":"上海静安嘉里商务中心(北区)","lon":"121.44928","lat":"31.22384","category":"46","category_name":"楼宇","address":""},{"poiid":"B209475CD56BA2F44892","title":"翠园","lon":"121.449012","lat":"31.22355","category":"500","category_name":"未知分类","address":"上海市 延安西路1238号嘉里中心S4—01"},{"poiid":"B2094757D068A7FD4199","title":"釜山料理(越洋广场店)","lon":"121.447444586","lat":"31.2233062956","category":"247","category_name":"餐饮美食","address":"上海静安区南京西路1601号越洋广场B2楼"},{"poiid":"B2094757D06FA1F54799","title":"上海人家精作坊(航站店)","lon":"121.44726","lat":"31.22342","category":"76","category_name":"上海菜","address":"静安区南京西路1600号机场航站楼4楼(近常德路)"},{"poiid":"B2094757D064A5FA4193","title":"满记甜品(越洋广场店)","lon":"121.447362586","lat":"31.2237613045","category":"247","category_name":"餐饮美食","address":"南京西路1601号越洋广场B211—B212"},{"poiid":"B2094757D068A3FF409D","title":"Lavazza Espression","lon":"121.44862558","lat":"31.224293314","category":"260","category_name":"其他","address":"静安区南京西路1486号197幢A座(近铜仁路)"},{"poiid":"B2094750DA69ABF4499D","title":"酷姆思CRUMBS","lon":"121.447448","lat":"31.22384","category":"111","category_name":"休闲餐饮场所","address":"静安区南京西路1601号越洋广场芮欧百货B2楼(近静安寺地铁站)"},{"poiid":"B2094757D468AAFD409E","title":"饥饿吐司","lon":"121.4476216","lat":"31.2238243","category":"112","category_name":"糕饼店","address":"静安区南京西路1601号芮欧百货B205号(近静安公园)"},{"poiid":"B2094757D06FABFC459B","title":"鹤舞","lon":"121.44711","lat":"31.22347","category":"95","category_name":"日本料理","address":"静安区南京西路1618号久光百货8楼(近静安寺)"},{"poiid":"B2094757D068A0F84292","title":"小杨生煎(越洋广场店)","lon":"121.447493586","lat":"31.2238833069","category":"257","category_name":"中餐厅","address":"静安区南京西路"},{"poiid":"B2094757D069A7FA4698","title":"宝珠奶酪","lon":"121.447335586","lat":"31.2236733028","category":"67","category_name":"甜品店","address":"静安区南京西路1601号芮欧百货B2楼B244号(近地铁二号线七号线静安寺站10号口)"},{"poiid":"B2094757D068A4FB419A","title":"富民路巨鹿路","lon":"121.45020024","lat":"31.221579561","category":"260","category_name":"其他","address":"上海静安区富民路巨鹿路口"},{"poiid":"B2094753DA65ABFB459F","title":"小贝壳海鲜火锅","lon":"121.448814","lat":"31.222833","category":"247","category_name":"餐饮美食","address":"上海市 万航渡路1号"},{"poiid":"B209475DD16EA4FC499F","title":"百美汇影城","lon":"121.448913","lat":"31.223381","category":"178","category_name":"电影院","address":"上海市 上海市静安区南京西路1551号静安嘉里中心商场N4-01室"},{"poiid":"B209475CDA6CABF4429E","title":"myst","lon":"121.447692","lat":"31.220817","category":"500","category_name":"未知分类","address":"上海市 静安区延安中路"},{"poiid":"B2094752D068A5FF479F","title":"RAT TAR ART BAR","lon":"121.446869","lat":"31.223206","category":"248","category_name":"生活娱乐","address":"南京西路1601号芮欧百货109室"},{"poiid":"B2094757D06FA7FC419C","title":"Blink","lon":"121.44824058","lat":"31.224166312","category":"113","category_name":"冷饮店","address":"静安区南京西路1601号芮欧百货B2楼B202室(近常德路)"},{"poiid":"B2094757D66DA5FF4798","title":"苏浙汇","lon":"121.44903058","lat":"31.221403258","category":"500","category_name":"未知分类","address":"上海延安西路"},{"poiid":"B2094752D664A7F94498","title":"Henkes","lon":"121.44739","lat":"31.222622","category":"247","category_name":"餐饮美食","address":"芮欧百货"},{"poiid":"B2094757D16AA7FC439F","title":"莹七餐厅","lon":"121.449147586","lat":"31.221130253","category":"500","category_name":"未知分类","address":"上海巨鹿路805号"},{"poiid":"B2094757D06BABFC429C","title":"wagas(越洋广场)","lon":"121.447297586","lat":"31.2236533024","category":"500","category_name":"未知分类","address":"上海市静安区北京西路"},{"poiid":"B209475CD26FA2FC4392","title":"La Creperie","lon":"121.447349","lat":"31.223041","category":"500","category_name":"未知分类","address":"上海市 南京西路1601号芮欧百货1楼D座"},{"poiid":"B2094750D26EA4FE409E","title":"满记甜品 芮欧百货店","lon":"121.4476342","lat":"31.2238135","category":"67","category_name":"甜品店","address":"静安区南京西路1601号芮欧百货B2楼(近久光百货)"},{"poiid":"B2094757D069A5FC499B","title":"翠华","lon":"121.44918058","lat":"31.221185254","category":"249","category_name":"购物服务","address":"上海静安区华山路"},{"poiid":"B2094757DA6FA3FB409C","title":"锦官城麻辣香锅","lon":"121.447634200002","lat":"31.2238134999997","category":"71","category_name":"四川菜","address":"静安区南京西路1601号芮欧百货B2楼(近常德路)"},{"poiid":"B2094753DB69ABFD4893","title":"Dazzling Cafe","lon":"121.447517","lat":"31.223768","category":"500","category_name":"未知分类","address":"上海市 芮欧地下一楼"},{"poiid":"B2094757D06FA6FC4999","title":"COSTA COFFEE(越洋广场店)","lon":"121.44875","lat":"31.2223","category":"65","category_name":"咖啡厅","address":"静安区南京西路1601号越洋广场1楼B单元(近常德路)"},{"poiid":"B2094757D065A3FA459D","title":"coconut paradise","lon":"121.449070586","lat":"31.2214652596","category":"500","category_name":"未知分类","address":"上海市静安区富民路38号近巨鹿路"},{"poiid":"B2094752D268AAF9429F","title":"上海静安区出入境办理中心","lon":"121.447999","lat":"31.224241","category":"252","category_name":"楼宇机构","address":"上海南京西路1566号"},{"poiid":"B209475CD16AA1FC459C","title":"艾米1895电影街","lon":"121.447013","lat":"31.222036","category":"178","category_name":"电影院","address":"上海市 上海市北京西路1829号4楼 靠近愚园路"},{"poiid":"B2094750D66CABFA429C","title":"筑地银章鱼烧Gindaco","lon":"121.447265","lat":"31.22351","category":"68","category_name":"快餐厅","address":"静安区南京西路1601号芮欧百货B2楼ReelKitchen内(近静安寺)"},{"poiid":"B209475DD06EA7FC4498","title":"KABB","lon":"121.449417","lat":"31.223478","category":"500","category_name":"未知分类","address":"上海市 靜安嘉里中心"},{"poiid":"B2094753D26EA6F8429E","title":"上海展览中心","lon":"121.448048","lat":"31.22397","category":"500","category_name":"未知分类","address":"上海市 延安中路1000号"},{"poiid":"B209475CD76FA3F4429E","title":"dazzling cafe","lon":"121.447532","lat":"31.223806","category":"500","category_name":"未知分类","address":"上海市 南京西路1601号越洋广场芮欧百货B2楼01铺位"},{"poiid":"B2094757D069A2F5479E","title":"和兴汤馆","lon":"121.44792946","lat":"31.221589774","category":"72","category_name":"广东菜","address":"静安区延安中路1123号(近富民路)"},{"poiid":"B2094655D269ABFD469B","title":"静安寺","lon":"121.44552","lat":"31.22324","category":"244","category_name":"寺庙道观","address":"静安区南京西路1686号(近静安寺)"},{"poiid":"B2094757D06FA6FE4392","title":"芮欧百货(上海)","lon":"121.44795308","lat":"31.223756204","category":"119","category_name":"商场","address":"静安区南京西路1601号"},{"poiid":"B2094654DB69A0FA449C","title":"椰香天堂泰国料理","lon":"121.44991","lat":"31.22092","category":"99","category_name":"泰国／越南菜品餐厅","address":"静安区富民路38号(近延安中路)"},{"poiid":"B2094753D76FAAFA449C","title":"上海滩国泰旗舰店","lon":"121.466011","lat":"31.216125","category":"249","category_name":"购物服务","address":"淮海中路868号"},{"poiid":"B209475CD564A7F84292","title":"上海滩新天地店","lon":"121.47463","lat":"31.22164","category":"119","category_name":"商场","address":"\"太仓路181弄新天地北里15号\r\n\""},{"poiid":"B209475CD564A7F8439E","title":"上海滩中信泰富店","lon":"121.45602","lat":"31.22851","category":"119","category_name":"商场","address":"\"南京西路1168号中信泰富广场，店铺号221.\r\n\""},{"poiid":"B2094757D06FA0F44593","title":"柒寿司(富民路店)","lon":"121.45014813109981","lat":"31.221289026267844","category":"95","category_name":"日本料理","address":"上海静安寺富民路51号"},{"poiid":"B2094655D26FA2FA429D","title":"越洋廣場","lon":"121.44767667724614","lat":"31.223172433526056","category":"249","category_name":"购物服务","address":"上海市静安区常德路"},{"poiid":"B2094757D06FA2FE479F","title":"哈根达斯(久光二店)","lon":"121.447189586","lat":"31.2235192998","category":"113","category_name":"冷饮店","address":"静安区南京西路1618号久光百货2楼S223号商铺(近静安寺)"},{"poiid":"B2094655D26CAAF44692","title":"璞丽酒店(常德路)","lon":"121.44858","lat":"31.22251","category":"250","category_name":"公园户外","address":"静安区常德路1号(近延安中路)"},{"poiid":"B2094655D26EA1FE449F","title":"上海延安饭店","lon":"121.44827","lat":"31.22062","category":"214","category_name":"四星级宾馆","address":"静安区延安中路1111号(近华山路)"},{"poiid":"B2094757D46EABFF449B","title":"Réel Kitchen","lon":"121.4476342","lat":"31.2238135","category":"68","category_name":"快餐厅","address":"静安区南京西路1601号芮欧百货B2楼(近地铁静安寺站)"},{"poiid":"B2094757D068AAF54793","title":"葡京制造 芮欧百货店","lon":"121.4476342","lat":"31.2238135","category":"72","category_name":"广东菜","address":"静安区南京西路1601号芮欧百货B2楼B213号(近地铁2号线10号口)"},{"poiid":"B2094757D06FA6F8499C","title":"小南国烧烤(久光店)","lon":"121.44737","lat":"31.22351","category":"95","category_name":"日本料理","address":"静安区南京西路1618号久光百货8楼(近静安寺)"},{"poiid":"B209475CD66BABF4409F","title":"大董烤鸭店","lon":"121.448539","lat":"31.223339","category":"247","category_name":"餐饮美食","address":"上海市 南京西路1601号越洋广场芮欧百货5楼"},{"poiid":"B2094655D264A1FF479D","title":"上海静安嘉里商务中心(北区)","lon":"121.44928","lat":"31.22384","category":"46","category_name":"楼宇","address":""},{"poiid":"B209475CD56BA2F44892","title":"翠园","lon":"121.449012","lat":"31.22355","category":"500","category_name":"未知分类","address":"上海市 延安西路1238号嘉里中心S4—01"},{"poiid":"B2094757D068A7FD4199","title":"釜山料理(越洋广场店)","lon":"121.447444586","lat":"31.2233062956","category":"247","category_name":"餐饮美食","address":"上海静安区南京西路1601号越洋广场B2楼"},{"poiid":"B2094757D06FA1F54799","title":"上海人家精作坊(航站店)","lon":"121.44726","lat":"31.22342","category":"76","category_name":"上海菜","address":"静安区南京西路1600号机场航站楼4楼(近常德路)"},{"poiid":"B2094757D064A5FA4193","title":"满记甜品(越洋广场店)","lon":"121.447362586","lat":"31.2237613045","category":"247","category_name":"餐饮美食","address":"南京西路1601号越洋广场B211—B212"},{"poiid":"B2094757D068A3FF409D","title":"Lavazza Espression","lon":"121.44862558","lat":"31.224293314","category":"260","category_name":"其他","address":"静安区南京西路1486号197幢A座(近铜仁路)"},{"poiid":"B2094750DA69ABF4499D","title":"酷姆思CRUMBS","lon":"121.447448","lat":"31.22384","category":"111","category_name":"休闲餐饮场所","address":"静安区南京西路1601号越洋广场芮欧百货B2楼(近静安寺地铁站)"},{"poiid":"B2094757D468AAFD409E","title":"饥饿吐司","lon":"121.4476216","lat":"31.2238243","category":"112","category_name":"糕饼店","address":"静安区南京西路1601号芮欧百货B205号(近静安公园)"},{"poiid":"B2094757D06FABFC459B","title":"鹤舞","lon":"121.44711","lat":"31.22347","category":"95","category_name":"日本料理","address":"静安区南京西路1618号久光百货8楼(近静安寺)"},{"poiid":"B2094757D068A0F84292","title":"小杨生煎(越洋广场店)","lon":"121.447493586","lat":"31.2238833069","category":"257","category_name":"中餐厅","address":"静安区南京西路"},{"poiid":"B2094757D069A7FA4698","title":"宝珠奶酪","lon":"121.447335586","lat":"31.2236733028","category":"67","category_name":"甜品店","address":"静安区南京西路1601号芮欧百货B2楼B244号(近地铁二号线七号线静安寺站10号口)"},{"poiid":"B2094757D068A4FB419A","title":"富民路巨鹿路","lon":"121.45020024","lat":"31.221579561","category":"260","category_name":"其他","address":"上海静安区富民路巨鹿路口"},{"poiid":"B2094753DA65ABFB459F","title":"小贝壳海鲜火锅","lon":"121.448814","lat":"31.222833","category":"247","category_name":"餐饮美食","address":"上海市 万航渡路1号"},{"poiid":"B209475DD16EA4FC499F","title":"百美汇影城","lon":"121.448913","lat":"31.223381","category":"178","category_name":"电影院","address":"上海市 上海市静安区南京西路1551号静安嘉里中心商场N4-01室"},{"poiid":"B209475CDA6CABF4429E","title":"myst","lon":"121.447692","lat":"31.220817","category":"500","category_name":"未知分类","address":"上海市 静安区延安中路"},{"poiid":"B2094752D068A5FF479F","title":"RAT TAR ART BAR","lon":"121.446869","lat":"31.223206","category":"248","category_name":"生活娱乐","address":"南京西路1601号芮欧百货109室"},{"poiid":"B2094757D06FA7FC419C","title":"Blink","lon":"121.44824058","lat":"31.224166312","category":"113","category_name":"冷饮店","address":"静安区南京西路1601号芮欧百货B2楼B202室(近常德路)"},{"poiid":"B2094757D66DA5FF4798","title":"苏浙汇","lon":"121.44903058","lat":"31.221403258","category":"500","category_name":"未知分类","address":"上海延安西路"},{"poiid":"B2094752D664A7F94498","title":"Henkes","lon":"121.44739","lat":"31.222622","category":"247","category_name":"餐饮美食","address":"芮欧百货"},{"poiid":"B2094757D16AA7FC439F","title":"莹七餐厅","lon":"121.449147586","lat":"31.221130253","category":"500","category_name":"未知分类","address":"上海巨鹿路805号"},{"poiid":"B2094757D06BABFC429C","title":"wagas(越洋广场)","lon":"121.447297586","lat":"31.2236533024","category":"500","category_name":"未知分类","address":"上海市静安区北京西路"},{"poiid":"B209475CD26FA2FC4392","title":"La Creperie","lon":"121.447349","lat":"31.223041","category":"500","category_name":"未知分类","address":"上海市 南京西路1601号芮欧百货1楼D座"},{"poiid":"B2094750D26EA4FE409E","title":"满记甜品 芮欧百货店","lon":"121.4476342","lat":"31.2238135","category":"67","category_name":"甜品店","address":"静安区南京西路1601号芮欧百货B2楼(近久光百货)"},{"poiid":"B2094757D069A5FC499B","title":"翠华","lon":"121.44918058","lat":"31.221185254","category":"249","category_name":"购物服务","address":"上海静安区华山路"},{"poiid":"B2094757DA6FA3FB409C","title":"锦官城麻辣香锅","lon":"121.447634200002","lat":"31.2238134999997","category":"71","category_name":"四川菜","address":"静安区南京西路1601号芮欧百货B2楼(近常德路)"},{"poiid":"B2094753DB69ABFD4893","title":"Dazzling Cafe","lon":"121.447517","lat":"31.223768","category":"500","category_name":"未知分类","address":"上海市 芮欧地下一楼"},{"poiid":"B2094757D06FA6FC4999","title":"COSTA COFFEE(越洋广场店)","lon":"121.44875","lat":"31.2223","category":"65","category_name":"咖啡厅","address":"静安区南京西路1601号越洋广场1楼B单元(近常德路)"},{"poiid":"B2094757D065A3FA459D","title":"coconut paradise","lon":"121.449070586","lat":"31.2214652596","category":"500","category_name":"未知分类","address":"上海市静安区富民路38号近巨鹿路"},{"poiid":"B2094752D268AAF9429F","title":"上海静安区出入境办理中心","lon":"121.447999","lat":"31.224241","category":"252","category_name":"楼宇机构","address":"上海南京西路1566号"},{"poiid":"B209475CD16AA1FC459C","title":"艾米1895电影街","lon":"121.447013","lat":"31.222036","category":"178","category_name":"电影院","address":"上海市 上海市北京西路1829号4楼 靠近愚园路"},{"poiid":"B2094750D66CABFA429C","title":"筑地银章鱼烧Gindaco","lon":"121.447265","lat":"31.22351","category":"68","category_name":"快餐厅","address":"静安区南京西路1601号芮欧百货B2楼ReelKitchen内(近静安寺)"},{"poiid":"B209475DD06EA7FC4498","title":"KABB","lon":"121.449417","lat":"31.223478","category":"500","category_name":"未知分类","address":"上海市 靜安嘉里中心"},{"poiid":"B2094753D26EA6F8429E","title":"上海展览中心","lon":"121.448048","lat":"31.22397","category":"500","category_name":"未知分类","address":"上海市 延安中路1000号"},{"poiid":"B209475CD76FA3F4429E","title":"dazzling cafe","lon":"121.447532","lat":"31.223806","category":"500","category_name":"未知分类","address":"上海市 南京西路1601号越洋广场芮欧百货B2楼01铺位"},{"poiid":"B2094757D069A2F5479E","title":"和兴汤馆","lon":"121.44792946","lat":"31.221589774","category":"72","category_name":"广东菜","address":"静安区延安中路1123号(近富民路)"},{"poiid":"B2094655D269ABFD469B","title":"静安寺","lon":"121.44552","lat":"31.22324","category":"244","category_name":"寺庙道观","address":"静安区南京西路1686号(近静安寺)"},{"poiid":"B2094757D06FA6FE4392","title":"芮欧百货(上海)","lon":"121.44795308","lat":"31.223756204","category":"119","category_name":"商场","address":"静安区南京西路1601号"},{"poiid":"B2094654DB69A0FA449C","title":"椰香天堂泰国料理","lon":"121.44991","lat":"31.22092","category":"99","category_name":"泰国／越南菜品餐厅","address":"静安区富民路38号(近延安中路)"},{"poiid":"B2094753D76FAAFA449C","title":"上海滩国泰旗舰店","lon":"121.466011","lat":"31.216125","category":"249","category_name":"购物服务","address":"淮海中路868号"},{"poiid":"B209475CD564A7F84292","title":"上海滩新天地店","lon":"121.47463","lat":"31.22164","category":"119","category_name":"商场","address":"\"太仓路181弄新天地北里15号\r\n\""},{"poiid":"B209475CD564A7F8439E","title":"上海滩中信泰富店","lon":"121.45602","lat":"31.22851","category":"119","category_name":"商场","address":"\"南京西路1168号中信泰富广场，店铺号221.\r\n\""},{"poiid":"B2094757D06FA0F44593","title":"柒寿司(富民路店)","lon":"121.45014813109981","lat":"31.221289026267844","category":"95","category_name":"日本料理","address":"上海静安寺富民路51号"},{"poiid":"B2094655D26FA2FA429D","title":"越洋廣場","lon":"121.44767667724614","lat":"31.223172433526056","category":"249","category_name":"购物服务","address":"上海市静安区常德路"},{"poiid":"B2094757D06FA2FE479F","title":"哈根达斯(久光二店)","lon":"121.447189586","lat":"31.2235192998","category":"113","category_name":"冷饮店","address":"静安区南京西路1618号久光百货2楼S223号商铺(近静安寺)"},{"poiid":"B2094655D26CAAF44692","title":"璞丽酒店(常德路)","lon":"121.44858","lat":"31.22251","category":"250","category_name":"公园户外","address":"静安区常德路1号(近延安中路)"},{"poiid":"B2094655D26EA1FE449F","title":"上海延安饭店","lon":"121.44827","lat":"31.22062","category":"214","category_name":"四星级宾馆","address":"静安区延安中路1111号(近华山路)"},{"poiid":"B2094757D46EABFF449B","title":"Réel Kitchen","lon":"121.4476342","lat":"31.2238135","category":"68","category_name":"快餐厅","address":"静安区南京西路1601号芮欧百货B2楼(近地铁静安寺站)"},{"poiid":"B2094757D068AAF54793","title":"葡京制造 芮欧百货店","lon":"121.4476342","lat":"31.2238135","category":"72","category_name":"广东菜","address":"静安区南京西路1601号芮欧百货B2楼B213号(近地铁2号线10号口)"},{"poiid":"B2094757D06FA6F8499C","title":"小南国烧烤(久光店)","lon":"121.44737","lat":"31.22351","category":"95","category_name":"日本料理","address":"静安区南京西路1618号久光百货8楼(近静安寺)"},{"poiid":"B209475CD66BABF4409F","title":"大董烤鸭店","lon":"121.448539","lat":"31.223339","category":"247","category_name":"餐饮美食","address":"上海市 南京西路1601号越洋广场芮欧百货5楼"},{"poiid":"B2094655D264A1FF479D","title":"上海静安嘉里商务中心(北区)","lon":"121.44928","lat":"31.22384","category":"46","category_name":"楼宇","address":""},{"poiid":"B209475CD56BA2F44892","title":"翠园","lon":"121.449012","lat":"31.22355","category":"500","category_name":"未知分类","address":"上海市 延安西路1238号嘉里中心S4—01"},{"poiid":"B2094757D068A7FD4199","title":"釜山料理(越洋广场店)","lon":"121.447444586","lat":"31.2233062956","category":"247","category_name":"餐饮美食","address":"上海静安区南京西路1601号越洋广场B2楼"},{"poiid":"B2094757D06FA1F54799","title":"上海人家精作坊(航站店)","lon":"121.44726","lat":"31.22342","category":"76","category_name":"上海菜","address":"静安区南京西路1600号机场航站楼4楼(近常德路)"},{"poiid":"B2094757D064A5FA4193","title":"满记甜品(越洋广场店)","lon":"121.447362586","lat":"31.2237613045","category":"247","category_name":"餐饮美食","address":"南京西路1601号越洋广场B211—B212"},{"poiid":"B2094757D068A3FF409D","title":"Lavazza Espression","lon":"121.44862558","lat":"31.224293314","category":"260","category_name":"其他","address":"静安区南京西路1486号197幢A座(近铜仁路)"},{"poiid":"B2094750DA69ABF4499D","title":"酷姆思CRUMBS","lon":"121.447448","lat":"31.22384","category":"111","category_name":"休闲餐饮场所","address":"静安区南京西路1601号越洋广场芮欧百货B2楼(近静安寺地铁站)"},{"poiid":"B2094757D468AAFD409E","title":"饥饿吐司","lon":"121.4476216","lat":"31.2238243","category":"112","category_name":"糕饼店","address":"静安区南京西路1601号芮欧百货B205号(近静安公园)"},{"poiid":"B2094757D06FABFC459B","title":"鹤舞","lon":"121.44711","lat":"31.22347","category":"95","category_name":"日本料理","address":"静安区南京西路1618号久光百货8楼(近静安寺)"},{"poiid":"B2094757D068A0F84292","title":"小杨生煎(越洋广场店)","lon":"121.447493586","lat":"31.2238833069","category":"257","category_name":"中餐厅","address":"静安区南京西路"},{"poiid":"B2094757D069A7FA4698","title":"宝珠奶酪","lon":"121.447335586","lat":"31.2236733028","category":"67","category_name":"甜品店","address":"静安区南京西路1601号芮欧百货B2楼B244号(近地铁二号线七号线静安寺站10号口)"},{"poiid":"B2094757D068A4FB419A","title":"富民路巨鹿路","lon":"121.45020024","lat":"31.221579561","category":"260","category_name":"其他","address":"上海静安区富民路巨鹿路口"},{"poiid":"B2094753DA65ABFB459F","title":"小贝壳海鲜火锅","lon":"121.448814","lat":"31.222833","category":"247","category_name":"餐饮美食","address":"上海市 万航渡路1号"},{"poiid":"B209475DD16EA4FC499F","title":"百美汇影城","lon":"121.448913","lat":"31.223381","category":"178","category_name":"电影院","address":"上海市 上海市静安区南京西路1551号静安嘉里中心商场N4-01室"},{"poiid":"B209475CDA6CABF4429E","title":"myst","lon":"121.447692","lat":"31.220817","category":"500","category_name":"未知分类","address":"上海市 静安区延安中路"},{"poiid":"B2094752D068A5FF479F","title":"RAT TAR ART BAR","lon":"121.446869","lat":"31.223206","category":"248","category_name":"生活娱乐","address":"南京西路1601号芮欧百货109室"},{"poiid":"B2094757D06FA7FC419C","title":"Blink","lon":"121.44824058","lat":"31.224166312","category":"113","category_name":"冷饮店","address":"静安区南京西路1601号芮欧百货B2楼B202室(近常德路)"},{"poiid":"B2094757D66DA5FF4798","title":"苏浙汇","lon":"121.44903058","lat":"31.221403258","category":"500","category_name":"未知分类","address":"上海延安西路"},{"poiid":"B2094752D664A7F94498","title":"Henkes","lon":"121.44739","lat":"31.222622","category":"247","category_name":"餐饮美食","address":"芮欧百货"},{"poiid":"B2094757D16AA7FC439F","title":"莹七餐厅","lon":"121.449147586","lat":"31.221130253","category":"500","category_name":"未知分类","address":"上海巨鹿路805号"},{"poiid":"B2094757D06BABFC429C","title":"wagas(越洋广场)","lon":"121.447297586","lat":"31.2236533024","category":"500","category_name":"未知分类","address":"上海市静安区北京西路"},{"poiid":"B209475CD26FA2FC4392","title":"La Creperie","lon":"121.447349","lat":"31.223041","category":"500","category_name":"未知分类","address":"上海市 南京西路1601号芮欧百货1楼D座"},{"poiid":"B2094750D26EA4FE409E","title":"满记甜品 芮欧百货店","lon":"121.4476342","lat":"31.2238135","category":"67","category_name":"甜品店","address":"静安区南京西路1601号芮欧百货B2楼(近久光百货)"},{"poiid":"B2094757D069A5FC499B","title":"翠华","lon":"121.44918058","lat":"31.221185254","category":"249","category_name":"购物服务","address":"上海静安区华山路"},{"poiid":"B2094757DA6FA3FB409C","title":"锦官城麻辣香锅","lon":"121.447634200002","lat":"31.2238134999997","category":"71","category_name":"四川菜","address":"静安区南京西路1601号芮欧百货B2楼(近常德路)"},{"poiid":"B2094753DB69ABFD4893","title":"Dazzling Cafe","lon":"121.447517","lat":"31.223768","category":"500","category_name":"未知分类","address":"上海市 芮欧地下一楼"},{"poiid":"B2094757D06FA6FC4999","title":"COSTA COFFEE(越洋广场店)","lon":"121.44875","lat":"31.2223","category":"65","category_name":"咖啡厅","address":"静安区南京西路1601号越洋广场1楼B单元(近常德路)"},{"poiid":"B2094757D065A3FA459D","title":"coconut paradise","lon":"121.449070586","lat":"31.2214652596","category":"500","category_name":"未知分类","address":"上海市静安区富民路38号近巨鹿路"},{"poiid":"B2094752D268AAF9429F","title":"上海静安区出入境办理中心","lon":"121.447999","lat":"31.224241","category":"252","category_name":"楼宇机构","address":"上海南京西路1566号"},{"poiid":"B209475CD16AA1FC459C","title":"艾米1895电影街","lon":"121.447013","lat":"31.222036","category":"178","category_name":"电影院","address":"上海市 上海市北京西路1829号4楼 靠近愚园路"},{"poiid":"B2094750D66CABFA429C","title":"筑地银章鱼烧Gindaco","lon":"121.447265","lat":"31.22351","category":"68","category_name":"快餐厅","address":"静安区南京西路1601号芮欧百货B2楼ReelKitchen内(近静安寺)"},{"poiid":"B209475DD06EA7FC4498","title":"KABB","lon":"121.449417","lat":"31.223478","category":"500","category_name":"未知分类","address":"上海市 靜安嘉里中心"},{"poiid":"B2094753D26EA6F8429E","title":"上海展览中心","lon":"121.448048","lat":"31.22397","category":"500","category_name":"未知分类","address":"上海市 延安中路1000号"},{"poiid":"B209475CD76FA3F4429E","title":"dazzling cafe","lon":"121.447532","lat":"31.223806","category":"500","category_name":"未知分类","address":"上海市 南京西路1601号越洋广场芮欧百货B2楼01铺位"},{"poiid":"B2094757D069A2F5479E","title":"和兴汤馆","lon":"121.44792946","lat":"31.221589774","category":"72","category_name":"广东菜","address":"静安区延安中路1123号(近富民路)"},{"poiid":"B2094655D269ABFD469B","title":"静安寺","lon":"121.44552","lat":"31.22324","category":"244","category_name":"寺庙道观","address":"静安区南京西路1686号(近静安寺)"},{"poiid":"B2094757D06FA6FE4392","title":"芮欧百货(上海)","lon":"121.44795308","lat":"31.223756204","category":"119","category_name":"商场","address":"静安区南京西路1601号"},{"poiid":"B2094654DB69A0FA449C","title":"椰香天堂泰国料理","lon":"121.44991","lat":"31.22092","category":"99","category_name":"泰国／越南菜品餐厅","address":"静安区富民路38号(近延安中路)"},{"poiid":"B2094753D76FAAFA449C","title":"上海滩国泰旗舰店","lon":"121.466011","lat":"31.216125","category":"249","category_name":"购物服务","address":"淮海中路868号"},{"poiid":"B209475CD564A7F84292","title":"上海滩新天地店","lon":"121.47463","lat":"31.22164","category":"119","category_name":"商场","address":"\"太仓路181弄新天地北里15号\r\n\""},{"poiid":"B209475CD564A7F8439E","title":"上海滩中信泰富店","lon":"121.45602","lat":"31.22851","category":"119","category_name":"商场","address":"\"南京西路1168号中信泰富广场，店铺号221.\r\n\""},{"poiid":"B2094757D06FA0F44593","title":"柒寿司(富民路店)","lon":"121.45014813109981","lat":"31.221289026267844","category":"95","category_name":"日本料理","address":"上海静安寺富民路51号"},{"poiid":"B2094655D26FA2FA429D","title":"越洋廣場","lon":"121.44767667724614","lat":"31.223172433526056","category":"249","category_name":"购物服务","address":"上海市静安区常德路"},{"poiid":"B2094757D06FA2FE479F","title":"哈根达斯(久光二店)","lon":"121.447189586","lat":"31.2235192998","category":"113","category_name":"冷饮店","address":"静安区南京西路1618号久光百货2楼S223号商铺(近静安寺)"},{"poiid":"B2094655D26CAAF44692","title":"璞丽酒店(常德路)","lon":"121.44858","lat":"31.22251","category":"250","category_name":"公园户外","address":"静安区常德路1号(近延安中路)"},{"poiid":"B2094655D26EA1FE449F","title":"上海延安饭店","lon":"121.44827","lat":"31.22062","category":"214","category_name":"四星级宾馆","address":"静安区延安中路1111号(近华山路)"},{"poiid":"B2094757D46EABFF449B","title":"Réel Kitchen","lon":"121.4476342","lat":"31.2238135","category":"68","category_name":"快餐厅","address":"静安区南京西路1601号芮欧百货B2楼(近地铁静安寺站)"},{"poiid":"B2094757D068AAF54793","title":"葡京制造 芮欧百货店","lon":"121.4476342","lat":"31.2238135","category":"72","category_name":"广东菜","address":"静安区南京西路1601号芮欧百货B2楼B213号(近地铁2号线10号口)"},{"poiid":"B2094757D06FA6F8499C","title":"小南国烧烤(久光店)","lon":"121.44737","lat":"31.22351","category":"95","category_name":"日本料理","address":"静安区南京西路1618号久光百货8楼(近静安寺)"},{"poiid":"B209475CD66BABF4409F","title":"大董烤鸭店","lon":"121.448539","lat":"31.223339","category":"247","category_name":"餐饮美食","address":"上海市 南京西路1601号越洋广场芮欧百货5楼"},{"poiid":"B2094655D264A1FF479D","title":"上海静安嘉里商务中心(北区)","lon":"121.44928","lat":"31.22384","category":"46","category_name":"楼宇","address":""},{"poiid":"B209475CD56BA2F44892","title":"翠园","lon":"121.449012","lat":"31.22355","category":"500","category_name":"未知分类","address":"上海市 延安西路1238号嘉里中心S4—01"},{"poiid":"B2094757D068A7FD4199","title":"釜山料理(越洋广场店)","lon":"121.447444586","lat":"31.2233062956","category":"247","category_name":"餐饮美食","address":"上海静安区南京西路1601号越洋广场B2楼"},{"poiid":"B2094757D06FA1F54799","title":"上海人家精作坊(航站店)","lon":"121.44726","lat":"31.22342","category":"76","category_name":"上海菜","address":"静安区南京西路1600号机场航站楼4楼(近常德路)"},{"poiid":"B2094757D064A5FA4193","title":"满记甜品(越洋广场店)","lon":"121.447362586","lat":"31.2237613045","category":"247","category_name":"餐饮美食","address":"南京西路1601号越洋广场B211—B212"},{"poiid":"B2094757D068A3FF409D","title":"Lavazza Espression","lon":"121.44862558","lat":"31.224293314","category":"260","category_name":"其他","address":"静安区南京西路1486号197幢A座(近铜仁路)"},{"poiid":"B2094750DA69ABF4499D","title":"酷姆思CRUMBS","lon":"121.447448","lat":"31.22384","category":"111","category_name":"休闲餐饮场所","address":"静安区南京西路1601号越洋广场芮欧百货B2楼(近静安寺地铁站)"},{"poiid":"B2094757D468AAFD409E","title":"饥饿吐司","lon":"121.4476216","lat":"31.2238243","category":"112","category_name":"糕饼店","address":"静安区南京西路1601号芮欧百货B205号(近静安公园)"},{"poiid":"B2094757D06FABFC459B","title":"鹤舞","lon":"121.44711","lat":"31.22347","category":"95","category_name":"日本料理","address":"静安区南京西路1618号久光百货8楼(近静安寺)"},{"poiid":"B2094757D068A0F84292","title":"小杨生煎(越洋广场店)","lon":"121.447493586","lat":"31.2238833069","category":"257","category_name":"中餐厅","address":"静安区南京西路"},{"poiid":"B2094757D069A7FA4698","title":"宝珠奶酪","lon":"121.447335586","lat":"31.2236733028","category":"67","category_name":"甜品店","address":"静安区南京西路1601号芮欧百货B2楼B244号(近地铁二号线七号线静安寺站10号口)"},{"poiid":"B2094757D068A4FB419A","title":"富民路巨鹿路","lon":"121.45020024","lat":"31.221579561","category":"260","category_name":"其他","address":"上海静安区富民路巨鹿路口"},{"poiid":"B2094753DA65ABFB459F","title":"小贝壳海鲜火锅","lon":"121.448814","lat":"31.222833","category":"247","category_name":"餐饮美食","address":"上海市 万航渡路1号"},{"poiid":"B209475DD16EA4FC499F","title":"百美汇影城","lon":"121.448913","lat":"31.223381","category":"178","category_name":"电影院","address":"上海市 上海市静安区南京西路1551号静安嘉里中心商场N4-01室"},{"poiid":"B209475CDA6CABF4429E","title":"myst","lon":"121.447692","lat":"31.220817","category":"500","category_name":"未知分类","address":"上海市 静安区延安中路"},{"poiid":"B2094752D068A5FF479F","title":"RAT TAR ART BAR","lon":"121.446869","lat":"31.223206","category":"248","category_name":"生活娱乐","address":"南京西路1601号芮欧百货109室"},{"poiid":"B2094757D06FA7FC419C","title":"Blink","lon":"121.44824058","lat":"31.224166312","category":"113","category_name":"冷饮店","address":"静安区南京西路1601号芮欧百货B2楼B202室(近常德路)"},{"poiid":"B2094757D66DA5FF4798","title":"苏浙汇","lon":"121.44903058","lat":"31.221403258","category":"500","category_name":"未知分类","address":"上海延安西路"},{"poiid":"B2094752D664A7F94498","title":"Henkes","lon":"121.44739","lat":"31.222622","category":"247","category_name":"餐饮美食","address":"芮欧百货"},{"poiid":"B2094757D16AA7FC439F","title":"莹七餐厅","lon":"121.449147586","lat":"31.221130253","category":"500","category_name":"未知分类","address":"上海巨鹿路805号"},{"poiid":"B2094757D06BABFC429C","title":"wagas(越洋广场)","lon":"121.447297586","lat":"31.2236533024","category":"500","category_name":"未知分类","address":"上海市静安区北京西路"},{"poiid":"B209475CD26FA2FC4392","title":"La Creperie","lon":"121.447349","lat":"31.223041","category":"500","category_name":"未知分类","address":"上海市 南京西路1601号芮欧百货1楼D座"},{"poiid":"B2094750D26EA4FE409E","title":"满记甜品 芮欧百货店","lon":"121.4476342","lat":"31.2238135","category":"67","category_name":"甜品店","address":"静安区南京西路1601号芮欧百货B2楼(近久光百货)"},{"poiid":"B2094757D069A5FC499B","title":"翠华","lon":"121.44918058","lat":"31.221185254","category":"249","category_name":"购物服务","address":"上海静安区华山路"},{"poiid":"B2094757DA6FA3FB409C","title":"锦官城麻辣香锅","lon":"121.447634200002","lat":"31.2238134999997","category":"71","category_name":"四川菜","address":"静安区南京西路1601号芮欧百货B2楼(近常德路)"},{"poiid":"B2094753DB69ABFD4893","title":"Dazzling Cafe","lon":"121.447517","lat":"31.223768","category":"500","category_name":"未知分类","address":"上海市 芮欧地下一楼"},{"poiid":"B2094757D06FA6FC4999","title":"COSTA COFFEE(越洋广场店)","lon":"121.44875","lat":"31.2223","category":"65","category_name":"咖啡厅","address":"静安区南京西路1601号越洋广场1楼B单元(近常德路)"},{"poiid":"B2094757D065A3FA459D","title":"coconut paradise","lon":"121.449070586","lat":"31.2214652596","category":"500","category_name":"未知分类","address":"上海市静安区富民路38号近巨鹿路"},{"poiid":"B2094752D268AAF9429F","title":"上海静安区出入境办理中心","lon":"121.447999","lat":"31.224241","category":"252","category_name":"楼宇机构","address":"上海南京西路1566号"},{"poiid":"B209475CD16AA1FC459C","title":"艾米1895电影街","lon":"121.447013","lat":"31.222036","category":"178","category_name":"电影院","address":"上海市 上海市北京西路1829号4楼 靠近愚园路"},{"poiid":"B2094750D66CABFA429C","title":"筑地银章鱼烧Gindaco","lon":"121.447265","lat":"31.22351","category":"68","category_name":"快餐厅","address":"静安区南京西路1601号芮欧百货B2楼ReelKitchen内(近静安寺)"},{"poiid":"B209475DD06EA7FC4498","title":"KABB","lon":"121.449417","lat":"31.223478","category":"500","category_name":"未知分类","address":"上海市 靜安嘉里中心"},{"poiid":"B2094753D26EA6F8429E","title":"上海展览中心","lon":"121.448048","lat":"31.22397","category":"500","category_name":"未知分类","address":"上海市 延安中路1000号"},{"poiid":"B209475CD76FA3F4429E","title":"dazzling cafe","lon":"121.447532","lat":"31.223806","category":"500","category_name":"未知分类","address":"上海市 南京西路1601号越洋广场芮欧百货B2楼01铺位"},{"poiid":"B2094757D069A2F5479E","title":"和兴汤馆","lon":"121.44792946","lat":"31.221589774","category":"72","category_name":"广东菜","address":"静安区延安中路1123号(近富民路)"},{"poiid":"B2094655D269ABFD469B","title":"静安寺","lon":"121.44552","lat":"31.22324","category":"244","category_name":"寺庙道观","address":"静安区南京西路1686号(近静安寺)"},{"poiid":"B2094757D06FA6FE4392","title":"芮欧百货(上海)","lon":"121.44795308","lat":"31.223756204","category":"119","category_name":"商场","address":"静安区南京西路1601号"},{"poiid":"B2094654DB69A0FA449C","title":"椰香天堂泰国料理","lon":"121.44991","lat":"31.22092","category":"99","category_name":"泰国／越南菜品餐厅","address":"静安区富民路38号(近延安中路)"},{"poiid":"B2094753D76FAAFA449C","title":"上海滩国泰旗舰店","lon":"121.466011","lat":"31.216125","category":"249","category_name":"购物服务","address":"淮海中路868号"},{"poiid":"B209475CD564A7F84292","title":"上海滩新天地店","lon":"121.47463","lat":"31.22164","category":"119","category_name":"商场","address":"\"太仓路181弄新天地北里15号\r\n\""},{"poiid":"B209475CD564A7F8439E","title":"上海滩中信泰富店","lon":"121.45602","lat":"31.22851","category":"119","category_name":"商场","address":"\"南京西路1168号中信泰富广场，店铺号221.\r\n\""},{"poiid":"B2094757D06FA0F44593","title":"柒寿司(富民路店)","lon":"121.45014813109981","lat":"31.221289026267844","category":"95","category_name":"日本料理","address":"上海静安寺富民路51号"},{"poiid":"B2094655D26FA2FA429D","title":"越洋廣場","lon":"121.44767667724614","lat":"31.223172433526056","category":"249","category_name":"购物服务","address":"上海市静安区常德路"},{"poiid":"B2094757D06FA2FE479F","title":"哈根达斯(久光二店)","lon":"121.447189586","lat":"31.2235192998","category":"113","category_name":"冷饮店","address":"静安区南京西路1618号久光百货2楼S223号商铺(近静安寺)"},{"poiid":"B2094655D26CAAF44692","title":"璞丽酒店(常德路)","lon":"121.44858","lat":"31.22251","category":"250","category_name":"公园户外","address":"静安区常德路1号(近延安中路)"},{"poiid":"B2094655D26EA1FE449F","title":"上海延安饭店","lon":"121.44827","lat":"31.22062","category":"214","category_name":"四星级宾馆","address":"静安区延安中路1111号(近华山路)"},{"poiid":"B2094757D46EABFF449B","title":"Réel Kitchen","lon":"121.4476342","lat":"31.2238135","category":"68","category_name":"快餐厅","address":"静安区南京西路1601号芮欧百货B2楼(近地铁静安寺站)"},{"poiid":"B2094757D068AAF54793","title":"葡京制造 芮欧百货店","lon":"121.4476342","lat":"31.2238135","category":"72","category_name":"广东菜","address":"静安区南京西路1601号芮欧百货B2楼B213号(近地铁2号线10号口)"},{"poiid":"B2094757D06FA6F8499C","title":"小南国烧烤(久光店)","lon":"121.44737","lat":"31.22351","category":"95","category_name":"日本料理","address":"静安区南京西路1618号久光百货8楼(近静安寺)"},{"poiid":"B209475CD66BABF4409F","title":"大董烤鸭店","lon":"121.448539","lat":"31.223339","category":"247","category_name":"餐饮美食","address":"上海市 南京西路1601号越洋广场芮欧百货5楼"},{"poiid":"B2094655D264A1FF479D","title":"上海静安嘉里商务中心(北区)","lon":"121.44928","lat":"31.22384","category":"46","category_name":"楼宇","address":""},{"poiid":"B209475CD56BA2F44892","title":"翠园","lon":"121.449012","lat":"31.22355","category":"500","category_name":"未知分类","address":"上海市 延安西路1238号嘉里中心S4—01"},{"poiid":"B2094757D068A7FD4199","title":"釜山料理(越洋广场店)","lon":"121.447444586","lat":"31.2233062956","category":"247","category_name":"餐饮美食","address":"上海静安区南京西路1601号越洋广场B2楼"},{"poiid":"B2094757D06FA1F54799","title":"上海人家精作坊(航站店)","lon":"121.44726","lat":"31.22342","category":"76","category_name":"上海菜","address":"静安区南京西路1600号机场航站楼4楼(近常德路)"},{"poiid":"B2094757D064A5FA4193","title":"满记甜品(越洋广场店)","lon":"121.447362586","lat":"31.2237613045","category":"247","category_name":"餐饮美食","address":"南京西路1601号越洋广场B211—B212"},{"poiid":"B2094757D068A3FF409D","title":"Lavazza Espression","lon":"121.44862558","lat":"31.224293314","category":"260","category_name":"其他","address":"静安区南京西路1486号197幢A座(近铜仁路)"},{"poiid":"B2094750DA69ABF4499D","title":"酷姆思CRUMBS","lon":"121.447448","lat":"31.22384","category":"111","category_name":"休闲餐饮场所","address":"静安区南京西路1601号越洋广场芮欧百货B2楼(近静安寺地铁站)"},{"poiid":"B2094757D468AAFD409E","title":"饥饿吐司","lon":"121.4476216","lat":"31.2238243","category":"112","category_name":"糕饼店","address":"静安区南京西路1601号芮欧百货B205号(近静安公园)"},{"poiid":"B2094757D06FABFC459B","title":"鹤舞","lon":"121.44711","lat":"31.22347","category":"95","category_name":"日本料理","address":"静安区南京西路1618号久光百货8楼(近静安寺)"},{"poiid":"B2094757D068A0F84292","title":"小杨生煎(越洋广场店)","lon":"121.447493586","lat":"31.2238833069","category":"257","category_name":"中餐厅","address":"静安区南京西路"},{"poiid":"B2094757D069A7FA4698","title":"宝珠奶酪","lon":"121.447335586","lat":"31.2236733028","category":"67","category_name":"甜品店","address":"静安区南京西路1601号芮欧百货B2楼B244号(近地铁二号线七号线静安寺站10号口)"},{"poiid":"B2094757D068A4FB419A","title":"富民路巨鹿路","lon":"121.45020024","lat":"31.221579561","category":"260","category_name":"其他","address":"上海静安区富民路巨鹿路口"},{"poiid":"B2094753DA65ABFB459F","title":"小贝壳海鲜火锅","lon":"121.448814","lat":"31.222833","category":"247","category_name":"餐饮美食","address":"上海市 万航渡路1号"},{"poiid":"B209475DD16EA4FC499F","title":"百美汇影城","lon":"121.448913","lat":"31.223381","category":"178","category_name":"电影院","address":"上海市 上海市静安区南京西路1551号静安嘉里中心商场N4-01室"},{"poiid":"B209475CDA6CABF4429E","title":"myst","lon":"121.447692","lat":"31.220817","category":"500","category_name":"未知分类","address":"上海市 静安区延安中路"},{"poiid":"B2094752D068A5FF479F","title":"RAT TAR ART BAR","lon":"121.446869","lat":"31.223206","category":"248","category_name":"生活娱乐","address":"南京西路1601号芮欧百货109室"},{"poiid":"B2094757D06FA7FC419C","title":"Blink","lon":"121.44824058","lat":"31.224166312","category":"113","category_name":"冷饮店","address":"静安区南京西路1601号芮欧百货B2楼B202室(近常德路)"},{"poiid":"B2094757D66DA5FF4798","title":"苏浙汇","lon":"121.44903058","lat":"31.221403258","category":"500","category_name":"未知分类","address":"上海延安西路"},{"poiid":"B2094752D664A7F94498","title":"Henkes","lon":"121.44739","lat":"31.222622","category":"247","category_name":"餐饮美食","address":"芮欧百货"},{"poiid":"B2094757D16AA7FC439F","title":"莹七餐厅","lon":"121.449147586","lat":"31.221130253","category":"500","category_name":"未知分类","address":"上海巨鹿路805号"},{"poiid":"B2094757D06BABFC429C","title":"wagas(越洋广场)","lon":"121.447297586","lat":"31.2236533024","category":"500","category_name":"未知分类","address":"上海市静安区北京西路"},{"poiid":"B209475CD26FA2FC4392","title":"La Creperie","lon":"121.447349","lat":"31.223041","category":"500","category_name":"未知分类","address":"上海市 南京西路1601号芮欧百货1楼D座"},{"poiid":"B2094750D26EA4FE409E","title":"满记甜品 芮欧百货店","lon":"121.4476342","lat":"31.2238135","category":"67","category_name":"甜品店","address":"静安区南京西路1601号芮欧百货B2楼(近久光百货)"},{"poiid":"B2094757D069A5FC499B","title":"翠华","lon":"121.44918058","lat":"31.221185254","category":"249","category_name":"购物服务","address":"上海静安区华山路"},{"poiid":"B2094757DA6FA3FB409C","title":"锦官城麻辣香锅","lon":"121.447634200002","lat":"31.2238134999997","category":"71","category_name":"四川菜","address":"静安区南京西路1601号芮欧百货B2楼(近常德路)"},{"poiid":"B2094753DB69ABFD4893","title":"Dazzling Cafe","lon":"121.447517","lat":"31.223768","category":"500","category_name":"未知分类","address":"上海市 芮欧地下一楼"},{"poiid":"B2094757D06FA6FC4999","title":"COSTA COFFEE(越洋广场店)","lon":"121.44875","lat":"31.2223","category":"65","category_name":"咖啡厅","address":"静安区南京西路1601号越洋广场1楼B单元(近常德路)"},{"poiid":"B2094757D065A3FA459D","title":"coconut paradise","lon":"121.449070586","lat":"31.2214652596","category":"500","category_name":"未知分类","address":"上海市静安区富民路38号近巨鹿路"},{"poiid":"B2094752D268AAF9429F","title":"上海静安区出入境办理中心","lon":"121.447999","lat":"31.224241","category":"252","category_name":"楼宇机构","address":"上海南京西路1566号"},{"poiid":"B209475CD16AA1FC459C","title":"艾米1895电影街","lon":"121.447013","lat":"31.222036","category":"178","category_name":"电影院","address":"上海市 上海市北京西路1829号4楼 靠近愚园路"},{"poiid":"B2094750D66CABFA429C","title":"筑地银章鱼烧Gindaco","lon":"121.447265","lat":"31.22351","category":"68","category_name":"快餐厅","address":"静安区南京西路1601号芮欧百货B2楼ReelKitchen内(近静安寺)"},{"poiid":"B209475DD06EA7FC4498","title":"KABB","lon":"121.449417","lat":"31.223478","category":"500","category_name":"未知分类","address":"上海市 靜安嘉里中心"},{"poiid":"B2094753D26EA6F8429E","title":"上海展览中心","lon":"121.448048","lat":"31.22397","category":"500","category_name":"未知分类","address":"上海市 延安中路1000号"},{"poiid":"B209475CD76FA3F4429E","title":"dazzling cafe","lon":"121.447532","lat":"31.223806","category":"500","category_name":"未知分类","address":"上海市 南京西路1601号越洋广场芮欧百货B2楼01铺位"},{"poiid":"B2094757D069A2F5479E","title":"和兴汤馆","lon":"121.44792946","lat":"31.221589774","category":"72","category_name":"广东菜","address":"静安区延安中路1123号(近富民路)"}]