[{"poiid":"B2094757D068A3F94892","title":"上海万体馆","lon":"121.438225586","lat":"31.1821814917","category":"148","category_name":"美容美发店","address":"上海漕溪北路中山西路"},{"poiid":"B2094655D26AABFE429B","title":"辛香汇","lon":"121.43752","lat":"31.18321","category":"71","category_name":"四川菜","address":"徐汇区零陵路899号飞洲国际广场5楼(近漕溪北路)"},{"poiid":"B2094757D06FA2FC439D","title":"飞洲国际大厦","lon":"121.437682","lat":"31.1833079253","category":"46","category_name":"楼宇","address":"上海市徐汇区零陵路899号"},{"poiid":"B2094757D06AA7FB4793","title":"八万人体育场二号扶梯","lon":"121.4418595","lat":"31.183572935","category":"35","category_name":"长途汽车站","address":"上海徐汇区零陵路斜土路八万人体育场北侧"},{"poiid":"B2094654DB69A4F8439D","title":"星巴克咖啡(上海体育馆店)","lon":"121.43912","lat":"31.18313","category":"260","category_name":"其他","address":"徐汇区漕溪北路1111号上海体育馆1楼1号扶梯(近零陵路)"},{"poiid":"B2094757D06FA3F84393","title":"悦蓉香锅牛蛙(飞洲国际店)","lon":"121.43784","lat":"31.18282","category":"71","category_name":"四川菜","address":"徐汇区零陵路899号飞洲国际广场B1楼(近漕溪北路)"},{"poiid":"B2094655D268A2F44993","title":"上海体育场(六号门)","lon":"121.44011","lat":"31.18315","category":"224","category_name":"综合体育馆","address":""},{"poiid":"B2094757D06FA4F5499C","title":"KOTA'S KITCHEN(斜土路店)","lon":"121.44154","lat":"31.18431","category":"269","category_name":"烧烤","address":"徐汇区斜土路2905号(近零陵路)"},{"poiid":"B2094757D068A3F84092","title":"汇翠花园","lon":"121.43794","lat":"31.184582","category":"47","category_name":"住宅区","address":"上海市徐汇区漕溪北路737号"},{"poiid":"B2094757D06AA4FB459E","title":"九车间","lon":"121.43874258","lat":"31.184036527","category":"249","category_name":"购物服务","address":"上海市徐汇区万体馆"},{"poiid":"B2094757D06FA0FE4192","title":"争鲜回转寿司 飞洲国际店","lon":"121.436941054","lat":"31.182774793","category":"95","category_name":"日本料理","address":"徐汇区零陵路899号飞洲国际大厦B1楼(近漕溪北路)"},{"poiid":"B2094757D06FA5FD489E","title":"汇佳量贩桌游咖啡馆(徐家汇旗舰店)","lon":"121.442161703","lat":"31.1850688575","category":"175","category_name":"棋牌室","address":"上海市徐汇区斜土路2899号(星游城钱柜对面)"},{"poiid":"B2094757D06FA6FA459C","title":"汇佳量贩桌游咖啡馆(万体馆店)","lon":"121.44004881","lat":"31.184520998","category":"175","category_name":"棋牌室","address":"上海市零陵路751弄11号"},{"poiid":"B2094757D06FA4F9499A","title":"韩滋源(飞洲国际店)","lon":"121.437596881","lat":"31.1832520759","category":"96","category_name":"韩国料理","address":"徐汇区零陵路899号飞洲国际广场B1楼(近漕溪北路)"},{"poiid":"B2094757D06FAAFC4992","title":"耐克足球公园","lon":"121.44049737","lat":"31.183140289","category":"220","category_name":"运动场所","address":"徐汇区零陵路800号万体馆6号门(近上海游泳馆)"},{"poiid":"B2094757D06FA7FA439D","title":"DQ冰雪皇后(飞洲店)","lon":"121.43757629","lat":"31.183094024","category":"113","category_name":"冷饮店","address":"徐汇区零陵路899号飞洲国际广场B1楼(漕溪北路零陵路)"},{"poiid":"B2094757D06FA6FC4699","title":"橙天锅锅香","lon":"121.43779","lat":"31.18294","category":"68","category_name":"快餐厅","address":"徐汇区零陵路899号飞洲国际广场B1-17号商铺(近漕溪北路)"},{"poiid":"B2094750D464A6F8479B","title":"八万人体育馆","lon":"121.440307","lat":"31.183748","category":"627","category_name":"一般地点标志","address":null},{"poiid":"B2094757D06AAAFF459B","title":"钱柜(万体馆店)","lon":"121.439421","lat":"31.184396","category":"500","category_name":"未知分类","address":"上海星游城"},{"poiid":"B2094655D36CA1F9479A","title":"零陵路上海体育馆","lon":"121.44073","lat":"31.18373","category":"38","category_name":"公交车站","address":""},{"poiid":"B2094757D068A1F94299","title":"上影广场","lon":"121.43943","lat":"31.184267","category":"500","category_name":"未知分类","address":"上海零陵路791弄3号楼"},{"poiid":"B2094655D26FA6FA489B","title":"创世纪花园","lon":"121.4399","lat":"31.185375","category":"47","category_name":"住宅区","address":"上海零陵路789弄"},{"poiid":"B2094757D164A6FE419A","title":"上海东亚体育文化中心","lon":"121.441654386","lat":"31.1828278043","category":"500","category_name":"未知分类","address":"徐汇区漕溪北路1111号"},{"poiid":"B2094757D66AABFC499B","title":"富豪东亚富丽轩","lon":"121.442253","lat":"31.183962","category":"72","category_name":"广东菜","address":"零陵路800号富豪东亚酒店1楼近天钥桥路"},{"poiid":"B209475CD364ABFC419C","title":"多乐之日 零陵路店","lon":"121.439626","lat":"31.18361","category":"67","category_name":"甜品店","address":"零陵路735号"},{"poiid":"B209475CD569AAFE429E","title":"金爸爸","lon":"121.442016","lat":"31.184408","category":"247","category_name":"餐饮美食","address":"上海市 星游城"},{"poiid":"B2094750D66FA2FD449D","title":"阿迪达斯足球公园","lon":"121.441726","lat":"31.184268","category":"230","category_name":"足球场","address":"徐汇区天钥桥路666号八万人体育场外场"},{"poiid":"B2094654DB6AA7FB4098","title":"烟雨江南茶艺酒吧 徐汇店","lon":"121.442678054","lat":"31.185164793","category":"247","category_name":"餐饮美食","address":"天钥桥路580号星游城3楼近零陵路"},{"poiid":"B2094654DB65A6FB4398","title":"徐家汇派出所","lon":"121.44096","lat":"31.18413","category":"609","category_name":"警察局","address":"零陵路721"},{"poiid":"B2094757D069A1F54592","title":"凡凡屋","lon":"121.43762158","lat":"31.183114509","category":"95","category_name":"日本料理","address":"徐汇区零陵路899号飞洲国际B1楼16号(近漕溪北路)"},{"poiid":"B2094757D16CA6FD4493","title":"红轩餐厅私房菜","lon":"121.438609","lat":"31.184721","category":"247","category_name":"餐饮美食","address":"上海漕溪北路930号花园内(近华亭宾馆)"},{"poiid":"B2094654DB64AAF4489B","title":"富驿时尚酒店(上海徐家汇店)","lon":"121.44212","lat":"31.18565","category":"216","category_name":"经济型连锁酒店","address":"上海市徐汇区斜土路2701号(近天钥桥路)"},{"poiid":"B2094757D064A6FF429B","title":"零陵路","lon":"121.44111508","lat":"31.185484806","category":"500","category_name":"未知分类","address":"上海零陵路"},{"poiid":"B2094757DA6EA7F9439D","title":"汇佳桌游咖啡馆(万体馆店)","lon":"121.439287662508","lat":"31.1835811319415","category":"247","category_name":"餐饮美食","address":"徐汇区零陵路751弄电影华苑11号商铺(近星游城钱柜)"},{"poiid":"B2094757D16CAAF9489D","title":"89路 上海体育馆站","lon":"121.44021802","lat":"31.183827203","category":"38","category_name":"公交车站","address":"上海零陵路东角方街"},{"poiid":"B2094655D265A3F4409A","title":"电影华苑西区(东门)","lon":"121.43992","lat":"31.18413","category":"47","category_name":"住宅区","address":"徐家汇"},{"poiid":"B2094753D769A5FC4892","title":"上海大舞台","lon":"121.438751","lat":"31.184947","category":"500","category_name":"未知分类","address":"上海市 上海体育馆"},{"poiid":"B2094757D064ABF44299","title":"橘子酱","lon":"121.43915718","lat":"31.183985726","category":"247","category_name":"餐饮美食","address":"上海市徐汇区零陵路791弄3号楼1804室"},{"poiid":"B2094757D465A4FD449C","title":"四海游龙 天钥桥店 OVERSEAS DRAGON","lon":"121.441559054","lat":"31.185257793","category":"68","category_name":"快餐厅","address":"徐汇区斜土路2701号(近公交15路终点站)"},{"poiid":"B2094757D068ABFE4692","title":"全家便利(零陵路店)","lon":"121.439958543","lat":"31.1837549299","category":"117","category_name":"便民商店/便利店","address":"上海徐汇区零陵路729号(近三角东街)"},{"poiid":"B2094750D56AA1FC469B","title":"创世纪花园――纽约座","lon":"121.4389038","lat":"31.18523788","category":"47","category_name":"住宅区","address":"创世纪花园――纽约座位于徐汇上海零陵路789号"},{"poiid":"B2094655D26AA0F44499","title":"欧乐桌球俱乐部","lon":"121.43884","lat":"31.18528","category":"247","category_name":"餐饮美食","address":"徐汇区零陵路789弄18号创世纪花园2楼(近上海体育馆)"},{"poiid":"B2094757D165A3F8489D","title":"塔哈儿新疆盛宴","lon":"121.44057858","lat":"31.185958565","category":"500","category_name":"未知分类","address":"上海体育馆"},{"poiid":"B2094750D768A1FD429C","title":"R&B世界茶饮(天钥桥路店)","lon":"121.442","lat":"31.1853","category":"113","category_name":"冷饮店","address":"徐汇区天钥桥路580号星游城1楼"},{"poiid":"B2094655D268A2F54098","title":"上海体育场(七号门)","lon":"121.44142","lat":"31.18374","category":"224","category_name":"综合体育馆","address":""},{"poiid":"B2094753D26EA6FD4198","title":"光启城","lon":"121.44014","lat":"31.183273","category":"500","category_name":"未知分类","address":"上海市 徐汇区宜山路455号"},{"poiid":"B2094655D36CA1F9479B","title":"零凌路上海体育场","lon":"121.44086","lat":"31.18384","category":"38","category_name":"公交车站","address":""},{"poiid":"B2094655D36CA1F9469F","title":"零陵路斜土路","lon":"121.44062","lat":"31.18382","category":"38","category_name":"公交车站","address":""},{"poiid":"B2094655D26AABFD409A","title":"SilentMassage","lon":"121.44108","lat":"31.18433","category":"247","category_name":"餐饮美食","address":"徐汇区斜土路2905号(近零陵路)"},{"poiid":"B2094753D26AA2FB4398","title":"TOUS les JOURS","lon":"121.440273","lat":"31.183308","category":"500","category_name":"未知分类","address":"上海市 徐汇区零陵路735号"},{"poiid":"B2094757D068A3F94892","title":"上海万体馆","lon":"121.438225586","lat":"31.1821814917","category":"148","category_name":"美容美发店","address":"上海漕溪北路中山西路"},{"poiid":"B2094655D26AABFE429B","title":"辛香汇","lon":"121.43752","lat":"31.18321","category":"71","category_name":"四川菜","address":"徐汇区零陵路899号飞洲国际广场5楼(近漕溪北路)"},{"poiid":"B2094757D06FA2FC439D","title":"飞洲国际大厦","lon":"121.437682","lat":"31.1833079253","category":"46","category_name":"楼宇","address":"上海市徐汇区零陵路899号"},{"poiid":"B2094757D06AA7FB4793","title":"八万人体育场二号扶梯","lon":"121.4418595","lat":"31.183572935","category":"35","category_name":"长途汽车站","address":"上海徐汇区零陵路斜土路八万人体育场北侧"},{"poiid":"B2094654DB69A4F8439D","title":"星巴克咖啡(上海体育馆店)","lon":"121.43912","lat":"31.18313","category":"260","category_name":"其他","address":"徐汇区漕溪北路1111号上海体育馆1楼1号扶梯(近零陵路)"},{"poiid":"B2094757D06FA3F84393","title":"悦蓉香锅牛蛙(飞洲国际店)","lon":"121.43784","lat":"31.18282","category":"71","category_name":"四川菜","address":"徐汇区零陵路899号飞洲国际广场B1楼(近漕溪北路)"},{"poiid":"B2094655D268A2F44993","title":"上海体育场(六号门)","lon":"121.44011","lat":"31.18315","category":"224","category_name":"综合体育馆","address":""},{"poiid":"B2094757D06FA4F5499C","title":"KOTA'S KITCHEN(斜土路店)","lon":"121.44154","lat":"31.18431","category":"269","category_name":"烧烤","address":"徐汇区斜土路2905号(近零陵路)"},{"poiid":"B2094757D068A3F84092","title":"汇翠花园","lon":"121.43794","lat":"31.184582","category":"47","category_name":"住宅区","address":"上海市徐汇区漕溪北路737号"},{"poiid":"B2094757D06AA4FB459E","title":"九车间","lon":"121.43874258","lat":"31.184036527","category":"249","category_name":"购物服务","address":"上海市徐汇区万体馆"},{"poiid":"B2094757D06FA0FE4192","title":"争鲜回转寿司 飞洲国际店","lon":"121.436941054","lat":"31.182774793","category":"95","category_name":"日本料理","address":"徐汇区零陵路899号飞洲国际大厦B1楼(近漕溪北路)"},{"poiid":"B2094757D06FA5FD489E","title":"汇佳量贩桌游咖啡馆(徐家汇旗舰店)","lon":"121.442161703","lat":"31.1850688575","category":"175","category_name":"棋牌室","address":"上海市徐汇区斜土路2899号(星游城钱柜对面)"},{"poiid":"B2094757D06FA6FA459C","title":"汇佳量贩桌游咖啡馆(万体馆店)","lon":"121.44004881","lat":"31.184520998","category":"175","category_name":"棋牌室","address":"上海市零陵路751弄11号"},{"poiid":"B2094757D06FA4F9499A","title":"韩滋源(飞洲国际店)","lon":"121.437596881","lat":"31.1832520759","category":"96","category_name":"韩国料理","address":"徐汇区零陵路899号飞洲国际广场B1楼(近漕溪北路)"},{"poiid":"B2094757D06FAAFC4992","title":"耐克足球公园","lon":"121.44049737","lat":"31.183140289","category":"220","category_name":"运动场所","address":"徐汇区零陵路800号万体馆6号门(近上海游泳馆)"},{"poiid":"B2094757D06FA7FA439D","title":"DQ冰雪皇后(飞洲店)","lon":"121.43757629","lat":"31.183094024","category":"113","category_name":"冷饮店","address":"徐汇区零陵路899号飞洲国际广场B1楼(漕溪北路零陵路)"},{"poiid":"B2094757D06FA6FC4699","title":"橙天锅锅香","lon":"121.43779","lat":"31.18294","category":"68","category_name":"快餐厅","address":"徐汇区零陵路899号飞洲国际广场B1-17号商铺(近漕溪北路)"},{"poiid":"B2094750D464A6F8479B","title":"八万人体育馆","lon":"121.440307","lat":"31.183748","category":"627","category_name":"一般地点标志","address":null},{"poiid":"B2094757D06AAAFF459B","title":"钱柜(万体馆店)","lon":"121.439421","lat":"31.184396","category":"500","category_name":"未知分类","address":"上海星游城"},{"poiid":"B2094655D36CA1F9479A","title":"零陵路上海体育馆","lon":"121.44073","lat":"31.18373","category":"38","category_name":"公交车站","address":""},{"poiid":"B2094757D068A1F94299","title":"上影广场","lon":"121.43943","lat":"31.184267","category":"500","category_name":"未知分类","address":"上海零陵路791弄3号楼"},{"poiid":"B2094655D26FA6FA489B","title":"创世纪花园","lon":"121.4399","lat":"31.185375","category":"47","category_name":"住宅区","address":"上海零陵路789弄"},{"poiid":"B2094757D164A6FE419A","title":"上海东亚体育文化中心","lon":"121.441654386","lat":"31.1828278043","category":"500","category_name":"未知分类","address":"徐汇区漕溪北路1111号"},{"poiid":"B2094757D66AABFC499B","title":"富豪东亚富丽轩","lon":"121.442253","lat":"31.183962","category":"72","category_name":"广东菜","address":"零陵路800号富豪东亚酒店1楼近天钥桥路"},{"poiid":"B209475CD364ABFC419C","title":"多乐之日 零陵路店","lon":"121.439626","lat":"31.18361","category":"67","category_name":"甜品店","address":"零陵路735号"},{"poiid":"B209475CD569AAFE429E","title":"金爸爸","lon":"121.442016","lat":"31.184408","category":"247","category_name":"餐饮美食","address":"上海市 星游城"},{"poiid":"B2094750D66FA2FD449D","title":"阿迪达斯足球公园","lon":"121.441726","lat":"31.184268","category":"230","category_name":"足球场","address":"徐汇区天钥桥路666号八万人体育场外场"},{"poiid":"B2094654DB6AA7FB4098","title":"烟雨江南茶艺酒吧 徐汇店","lon":"121.442678054","lat":"31.185164793","category":"247","category_name":"餐饮美食","address":"天钥桥路580号星游城3楼近零陵路"},{"poiid":"B2094654DB65A6FB4398","title":"徐家汇派出所","lon":"121.44096","lat":"31.18413","category":"609","category_name":"警察局","address":"零陵路721"},{"poiid":"B2094757D069A1F54592","title":"凡凡屋","lon":"121.43762158","lat":"31.183114509","category":"95","category_name":"日本料理","address":"徐汇区零陵路899号飞洲国际B1楼16号(近漕溪北路)"},{"poiid":"B2094757D16CA6FD4493","title":"红轩餐厅私房菜","lon":"121.438609","lat":"31.184721","category":"247","category_name":"餐饮美食","address":"上海漕溪北路930号花园内(近华亭宾馆)"},{"poiid":"B2094654DB64AAF4489B","title":"富驿时尚酒店(上海徐家汇店)","lon":"121.44212","lat":"31.18565","category":"216","category_name":"经济型连锁酒店","address":"上海市徐汇区斜土路2701号(近天钥桥路)"},{"poiid":"B2094757D064A6FF429B","title":"零陵路","lon":"121.44111508","lat":"31.185484806","category":"500","category_name":"未知分类","address":"上海零陵路"},{"poiid":"B2094757DA6EA7F9439D","title":"汇佳桌游咖啡馆(万体馆店)","lon":"121.439287662508","lat":"31.1835811319415","category":"247","category_name":"餐饮美食","address":"徐汇区零陵路751弄电影华苑11号商铺(近星游城钱柜)"},{"poiid":"B2094757D16CAAF9489D","title":"89路 上海体育馆站","lon":"121.44021802","lat":"31.183827203","category":"38","category_name":"公交车站","address":"上海零陵路东角方街"},{"poiid":"B2094655D265A3F4409A","title":"电影华苑西区(东门)","lon":"121.43992","lat":"31.18413","category":"47","category_name":"住宅区","address":"徐家汇"},{"poiid":"B2094753D769A5FC4892","title":"上海大舞台","lon":"121.438751","lat":"31.184947","category":"500","category_name":"未知分类","address":"上海市 上海体育馆"},{"poiid":"B2094757D064ABF44299","title":"橘子酱","lon":"121.43915718","lat":"31.183985726","category":"247","category_name":"餐饮美食","address":"上海市徐汇区零陵路791弄3号楼1804室"},{"poiid":"B2094757D465A4FD449C","title":"四海游龙 天钥桥店 OVERSEAS DRAGON","lon":"121.441559054","lat":"31.185257793","category":"68","category_name":"快餐厅","address":"徐汇区斜土路2701号(近公交15路终点站)"},{"poiid":"B2094757D068ABFE4692","title":"全家便利(零陵路店)","lon":"121.439958543","lat":"31.1837549299","category":"117","category_name":"便民商店/便利店","address":"上海徐汇区零陵路729号(近三角东街)"},{"poiid":"B2094750D56AA1FC469B","title":"创世纪花园――纽约座","lon":"121.4389038","lat":"31.18523788","category":"47","category_name":"住宅区","address":"创世纪花园――纽约座位于徐汇上海零陵路789号"},{"poiid":"B2094655D26AA0F44499","title":"欧乐桌球俱乐部","lon":"121.43884","lat":"31.18528","category":"247","category_name":"餐饮美食","address":"徐汇区零陵路789弄18号创世纪花园2楼(近上海体育馆)"},{"poiid":"B2094757D165A3F8489D","title":"塔哈儿新疆盛宴","lon":"121.44057858","lat":"31.185958565","category":"500","category_name":"未知分类","address":"上海体育馆"},{"poiid":"B2094750D768A1FD429C","title":"R&B世界茶饮(天钥桥路店)","lon":"121.442","lat":"31.1853","category":"113","category_name":"冷饮店","address":"徐汇区天钥桥路580号星游城1楼"},{"poiid":"B2094655D268A2F54098","title":"上海体育场(七号门)","lon":"121.44142","lat":"31.18374","category":"224","category_name":"综合体育馆","address":""},{"poiid":"B2094753D26EA6FD4198","title":"光启城","lon":"121.44014","lat":"31.183273","category":"500","category_name":"未知分类","address":"上海市 徐汇区宜山路455号"},{"poiid":"B2094655D36CA1F9479B","title":"零凌路上海体育场","lon":"121.44086","lat":"31.18384","category":"38","category_name":"公交车站","address":""},{"poiid":"B2094655D36CA1F9469F","title":"零陵路斜土路","lon":"121.44062","lat":"31.18382","category":"38","category_name":"公交车站","address":""},{"poiid":"B2094655D26AABFD409A","title":"SilentMassage","lon":"121.44108","lat":"31.18433","category":"247","category_name":"餐饮美食","address":"徐汇区斜土路2905号(近零陵路)"},{"poiid":"B2094753D26AA2FB4398","title":"TOUS les JOURS","lon":"121.440273","lat":"31.183308","category":"500","category_name":"未知分类","address":"上海市 徐汇区零陵路735号"},{"poiid":"B2094757D068A3F94892","title":"上海万体馆","lon":"121.438225586","lat":"31.1821814917","category":"148","category_name":"美容美发店","address":"上海漕溪北路中山西路"},{"poiid":"B2094655D26AABFE429B","title":"辛香汇","lon":"121.43752","lat":"31.18321","category":"71","category_name":"四川菜","address":"徐汇区零陵路899号飞洲国际广场5楼(近漕溪北路)"},{"poiid":"B2094757D06FA2FC439D","title":"飞洲国际大厦","lon":"121.437682","lat":"31.1833079253","category":"46","category_name":"楼宇","address":"上海市徐汇区零陵路899号"},{"poiid":"B2094757D06AA7FB4793","title":"八万人体育场二号扶梯","lon":"121.4418595","lat":"31.183572935","category":"35","category_name":"长途汽车站","address":"上海徐汇区零陵路斜土路八万人体育场北侧"},{"poiid":"B2094654DB69A4F8439D","title":"星巴克咖啡(上海体育馆店)","lon":"121.43912","lat":"31.18313","category":"260","category_name":"其他","address":"徐汇区漕溪北路1111号上海体育馆1楼1号扶梯(近零陵路)"},{"poiid":"B2094757D06FA3F84393","title":"悦蓉香锅牛蛙(飞洲国际店)","lon":"121.43784","lat":"31.18282","category":"71","category_name":"四川菜","address":"徐汇区零陵路899号飞洲国际广场B1楼(近漕溪北路)"},{"poiid":"B2094655D268A2F44993","title":"上海体育场(六号门)","lon":"121.44011","lat":"31.18315","category":"224","category_name":"综合体育馆","address":""},{"poiid":"B2094757D06FA4F5499C","title":"KOTA'S KITCHEN(斜土路店)","lon":"121.44154","lat":"31.18431","category":"269","category_name":"烧烤","address":"徐汇区斜土路2905号(近零陵路)"},{"poiid":"B2094757D068A3F84092","title":"汇翠花园","lon":"121.43794","lat":"31.184582","category":"47","category_name":"住宅区","address":"上海市徐汇区漕溪北路737号"},{"poiid":"B2094757D06AA4FB459E","title":"九车间","lon":"121.43874258","lat":"31.184036527","category":"249","category_name":"购物服务","address":"上海市徐汇区万体馆"},{"poiid":"B2094757D06FA0FE4192","title":"争鲜回转寿司 飞洲国际店","lon":"121.436941054","lat":"31.182774793","category":"95","category_name":"日本料理","address":"徐汇区零陵路899号飞洲国际大厦B1楼(近漕溪北路)"},{"poiid":"B2094757D06FA5FD489E","title":"汇佳量贩桌游咖啡馆(徐家汇旗舰店)","lon":"121.442161703","lat":"31.1850688575","category":"175","category_name":"棋牌室","address":"上海市徐汇区斜土路2899号(星游城钱柜对面)"},{"poiid":"B2094757D06FA6FA459C","title":"汇佳量贩桌游咖啡馆(万体馆店)","lon":"121.44004881","lat":"31.184520998","category":"175","category_name":"棋牌室","address":"上海市零陵路751弄11号"},{"poiid":"B2094757D06FA4F9499A","title":"韩滋源(飞洲国际店)","lon":"121.437596881","lat":"31.1832520759","category":"96","category_name":"韩国料理","address":"徐汇区零陵路899号飞洲国际广场B1楼(近漕溪北路)"},{"poiid":"B2094757D06FAAFC4992","title":"耐克足球公园","lon":"121.44049737","lat":"31.183140289","category":"220","category_name":"运动场所","address":"徐汇区零陵路800号万体馆6号门(近上海游泳馆)"},{"poiid":"B2094757D06FA7FA439D","title":"DQ冰雪皇后(飞洲店)","lon":"121.43757629","lat":"31.183094024","category":"113","category_name":"冷饮店","address":"徐汇区零陵路899号飞洲国际广场B1楼(漕溪北路零陵路)"},{"poiid":"B2094757D06FA6FC4699","title":"橙天锅锅香","lon":"121.43779","lat":"31.18294","category":"68","category_name":"快餐厅","address":"徐汇区零陵路899号飞洲国际广场B1-17号商铺(近漕溪北路)"},{"poiid":"B2094750D464A6F8479B","title":"八万人体育馆","lon":"121.440307","lat":"31.183748","category":"627","category_name":"一般地点标志","address":null},{"poiid":"B2094757D06AAAFF459B","title":"钱柜(万体馆店)","lon":"121.439421","lat":"31.184396","category":"500","category_name":"未知分类","address":"上海星游城"},{"poiid":"B2094655D36CA1F9479A","title":"零陵路上海体育馆","lon":"121.44073","lat":"31.18373","category":"38","category_name":"公交车站","address":""},{"poiid":"B2094757D068A1F94299","title":"上影广场","lon":"121.43943","lat":"31.184267","category":"500","category_name":"未知分类","address":"上海零陵路791弄3号楼"},{"poiid":"B2094655D26FA6FA489B","title":"创世纪花园","lon":"121.4399","lat":"31.185375","category":"47","category_name":"住宅区","address":"上海零陵路789弄"},{"poiid":"B2094757D164A6FE419A","title":"上海东亚体育文化中心","lon":"121.441654386","lat":"31.1828278043","category":"500","category_name":"未知分类","address":"徐汇区漕溪北路1111号"},{"poiid":"B2094757D66AABFC499B","title":"富豪东亚富丽轩","lon":"121.442253","lat":"31.183962","category":"72","category_name":"广东菜","address":"零陵路800号富豪东亚酒店1楼近天钥桥路"},{"poiid":"B209475CD364ABFC419C","title":"多乐之日 零陵路店","lon":"121.439626","lat":"31.18361","category":"67","category_name":"甜品店","address":"零陵路735号"},{"poiid":"B209475CD569AAFE429E","title":"金爸爸","lon":"121.442016","lat":"31.184408","category":"247","category_name":"餐饮美食","address":"上海市 星游城"},{"poiid":"B2094750D66FA2FD449D","title":"阿迪达斯足球公园","lon":"121.441726","lat":"31.184268","category":"230","category_name":"足球场","address":"徐汇区天钥桥路666号八万人体育场外场"},{"poiid":"B2094654DB6AA7FB4098","title":"烟雨江南茶艺酒吧 徐汇店","lon":"121.442678054","lat":"31.185164793","category":"247","category_name":"餐饮美食","address":"天钥桥路580号星游城3楼近零陵路"},{"poiid":"B2094654DB65A6FB4398","title":"徐家汇派出所","lon":"121.44096","lat":"31.18413","category":"609","category_name":"警察局","address":"零陵路721"},{"poiid":"B2094757D069A1F54592","title":"凡凡屋","lon":"121.43762158","lat":"31.183114509","category":"95","category_name":"日本料理","address":"徐汇区零陵路899号飞洲国际B1楼16号(近漕溪北路)"},{"poiid":"B2094757D16CA6FD4493","title":"红轩餐厅私房菜","lon":"121.438609","lat":"31.184721","category":"247","category_name":"餐饮美食","address":"上海漕溪北路930号花园内(近华亭宾馆)"},{"poiid":"B2094654DB64AAF4489B","title":"富驿时尚酒店(上海徐家汇店)","lon":"121.44212","lat":"31.18565","category":"216","category_name":"经济型连锁酒店","address":"上海市徐汇区斜土路2701号(近天钥桥路)"},{"poiid":"B2094757D064A6FF429B","title":"零陵路","lon":"121.44111508","lat":"31.185484806","category":"500","category_name":"未知分类","address":"上海零陵路"},{"poiid":"B2094757DA6EA7F9439D","title":"汇佳桌游咖啡馆(万体馆店)","lon":"121.439287662508","lat":"31.1835811319415","category":"247","category_name":"餐饮美食","address":"徐汇区零陵路751弄电影华苑11号商铺(近星游城钱柜)"},{"poiid":"B2094757D16CAAF9489D","title":"89路 上海体育馆站","lon":"121.44021802","lat":"31.183827203","category":"38","category_name":"公交车站","address":"上海零陵路东角方街"},{"poiid":"B2094655D265A3F4409A","title":"电影华苑西区(东门)","lon":"121.43992","lat":"31.18413","category":"47","category_name":"住宅区","address":"徐家汇"},{"poiid":"B2094753D769A5FC4892","title":"上海大舞台","lon":"121.438751","lat":"31.184947","category":"500","category_name":"未知分类","address":"上海市 上海体育馆"},{"poiid":"B2094757D064ABF44299","title":"橘子酱","lon":"121.43915718","lat":"31.183985726","category":"247","category_name":"餐饮美食","address":"上海市徐汇区零陵路791弄3号楼1804室"},{"poiid":"B2094757D465A4FD449C","title":"四海游龙 天钥桥店 OVERSEAS DRAGON","lon":"121.441559054","lat":"31.185257793","category":"68","category_name":"快餐厅","address":"徐汇区斜土路2701号(近公交15路终点站)"},{"poiid":"B2094757D068ABFE4692","title":"全家便利(零陵路店)","lon":"121.439958543","lat":"31.1837549299","category":"117","category_name":"便民商店/便利店","address":"上海徐汇区零陵路729号(近三角东街)"},{"poiid":"B2094750D56AA1FC469B","title":"创世纪花园――纽约座","lon":"121.4389038","lat":"31.18523788","category":"47","category_name":"住宅区","address":"创世纪花园――纽约座位于徐汇上海零陵路789号"},{"poiid":"B2094655D26AA0F44499","title":"欧乐桌球俱乐部","lon":"121.43884","lat":"31.18528","category":"247","category_name":"餐饮美食","address":"徐汇区零陵路789弄18号创世纪花园2楼(近上海体育馆)"},{"poiid":"B2094757D165A3F8489D","title":"塔哈儿新疆盛宴","lon":"121.44057858","lat":"31.185958565","category":"500","category_name":"未知分类","address":"上海体育馆"},{"poiid":"B2094750D768A1FD429C","title":"R&B世界茶饮(天钥桥路店)","lon":"121.442","lat":"31.1853","category":"113","category_name":"冷饮店","address":"徐汇区天钥桥路580号星游城1楼"},{"poiid":"B2094655D268A2F54098","title":"上海体育场(七号门)","lon":"121.44142","lat":"31.18374","category":"224","category_name":"综合体育馆","address":""},{"poiid":"B2094753D26EA6FD4198","title":"光启城","lon":"121.44014","lat":"31.183273","category":"500","category_name":"未知分类","address":"上海市 徐汇区宜山路455号"},{"poiid":"B2094655D36CA1F9479B","title":"零凌路上海体育场","lon":"121.44086","lat":"31.18384","category":"38","category_name":"公交车站","address":""},{"poiid":"B2094655D36CA1F9469F","title":"零陵路斜土路","lon":"121.44062","lat":"31.18382","category":"38","category_name":"公交车站","address":""},{"poiid":"B2094655D26AABFD409A","title":"SilentMassage","lon":"121.44108","lat":"31.18433","category":"247","category_name":"餐饮美食","address":"徐汇区斜土路2905号(近零陵路)"},{"poiid":"B2094753D26AA2FB4398","title":"TOUS les JOURS","lon":"121.440273","lat":"31.183308","category":"500","category_name":"未知分类","address":"上海市 徐汇区零陵路735号"},{"poiid":"B2094757D068A3F94892","title":"上海万体馆","lon":"121.438225586","lat":"31.1821814917","category":"148","category_name":"美容美发店","address":"上海漕溪北路中山西路"},{"poiid":"B2094655D26AABFE429B","title":"辛香汇","lon":"121.43752","lat":"31.18321","category":"71","category_name":"四川菜","address":"徐汇区零陵路899号飞洲国际广场5楼(近漕溪北路)"},{"poiid":"B2094757D06FA2FC439D","title":"飞洲国际大厦","lon":"121.437682","lat":"31.1833079253","category":"46","category_name":"楼宇","address":"上海市徐汇区零陵路899号"},{"poiid":"B2094757D06AA7FB4793","title":"八万人体育场二号扶梯","lon":"121.4418595","lat":"31.183572935","category":"35","category_name":"长途汽车站","address":"上海徐汇区零陵路斜土路八万人体育场北侧"},{"poiid":"B2094654DB69A4F8439D","title":"星巴克咖啡(上海体育馆店)","lon":"121.43912","lat":"31.18313","category":"260","category_name":"其他","address":"徐汇区漕溪北路1111号上海体育馆1楼1号扶梯(近零陵路)"},{"poiid":"B2094757D06FA3F84393","title":"悦蓉香锅牛蛙(飞洲国际店)","lon":"121.43784","lat":"31.18282","category":"71","category_name":"四川菜","address":"徐汇区零陵路899号飞洲国际广场B1楼(近漕溪北路)"},{"poiid":"B2094655D268A2F44993","title":"上海体育场(六号门)","lon":"121.44011","lat":"31.18315","category":"224","category_name":"综合体育馆","address":""},{"poiid":"B2094757D06FA4F5499C","title":"KOTA'S KITCHEN(斜土路店)","lon":"121.44154","lat":"31.18431","category":"269","category_name":"烧烤","address":"徐汇区斜土路2905号(近零陵路)"},{"poiid":"B2094757D068A3F84092","title":"汇翠花园","lon":"121.43794","lat":"31.184582","category":"47","category_name":"住宅区","address":"上海市徐汇区漕溪北路737号"},{"poiid":"B2094757D06AA4FB459E","title":"九车间","lon":"121.43874258","lat":"31.184036527","category":"249","category_name":"购物服务","address":"上海市徐汇区万体馆"},{"poiid":"B2094757D06FA0FE4192","title":"争鲜回转寿司 飞洲国际店","lon":"121.436941054","lat":"31.182774793","category":"95","category_name":"日本料理","address":"徐汇区零陵路899号飞洲国际大厦B1楼(近漕溪北路)"},{"poiid":"B2094757D06FA5FD489E","title":"汇佳量贩桌游咖啡馆(徐家汇旗舰店)","lon":"121.442161703","lat":"31.1850688575","category":"175","category_name":"棋牌室","address":"上海市徐汇区斜土路2899号(星游城钱柜对面)"},{"poiid":"B2094757D06FA6FA459C","title":"汇佳量贩桌游咖啡馆(万体馆店)","lon":"121.44004881","lat":"31.184520998","category":"175","category_name":"棋牌室","address":"上海市零陵路751弄11号"},{"poiid":"B2094757D06FA4F9499A","title":"韩滋源(飞洲国际店)","lon":"121.437596881","lat":"31.1832520759","category":"96","category_name":"韩国料理","address":"徐汇区零陵路899号飞洲国际广场B1楼(近漕溪北路)"},{"poiid":"B2094757D06FAAFC4992","title":"耐克足球公园","lon":"121.44049737","lat":"31.183140289","category":"220","category_name":"运动场所","address":"徐汇区零陵路800号万体馆6号门(近上海游泳馆)"},{"poiid":"B2094757D06FA7FA439D","title":"DQ冰雪皇后(飞洲店)","lon":"121.43757629","lat":"31.183094024","category":"113","category_name":"冷饮店","address":"徐汇区零陵路899号飞洲国际广场B1楼(漕溪北路零陵路)"},{"poiid":"B2094757D06FA6FC4699","title":"橙天锅锅香","lon":"121.43779","lat":"31.18294","category":"68","category_name":"快餐厅","address":"徐汇区零陵路899号飞洲国际广场B1-17号商铺(近漕溪北路)"},{"poiid":"B2094750D464A6F8479B","title":"八万人体育馆","lon":"121.440307","lat":"31.183748","category":"627","category_name":"一般地点标志","address":null},{"poiid":"B2094757D06AAAFF459B","title":"钱柜(万体馆店)","lon":"121.439421","lat":"31.184396","category":"500","category_name":"未知分类","address":"上海星游城"},{"poiid":"B2094655D36CA1F9479A","title":"零陵路上海体育馆","lon":"121.44073","lat":"31.18373","category":"38","category_name":"公交车站","address":""},{"poiid":"B2094757D068A1F94299","title":"上影广场","lon":"121.43943","lat":"31.184267","category":"500","category_name":"未知分类","address":"上海零陵路791弄3号楼"},{"poiid":"B2094655D26FA6FA489B","title":"创世纪花园","lon":"121.4399","lat":"31.185375","category":"47","category_name":"住宅区","address":"上海零陵路789弄"},{"poiid":"B2094757D164A6FE419A","title":"上海东亚体育文化中心","lon":"121.441654386","lat":"31.1828278043","category":"500","category_name":"未知分类","address":"徐汇区漕溪北路1111号"},{"poiid":"B2094757D66AABFC499B","title":"富豪东亚富丽轩","lon":"121.442253","lat":"31.183962","category":"72","category_name":"广东菜","address":"零陵路800号富豪东亚酒店1楼近天钥桥路"},{"poiid":"B209475CD364ABFC419C","title":"多乐之日 零陵路店","lon":"121.439626","lat":"31.18361","category":"67","category_name":"甜品店","address":"零陵路735号"},{"poiid":"B209475CD569AAFE429E","title":"金爸爸","lon":"121.442016","lat":"31.184408","category":"247","category_name":"餐饮美食","address":"上海市 星游城"},{"poiid":"B2094750D66FA2FD449D","title":"阿迪达斯足球公园","lon":"121.441726","lat":"31.184268","category":"230","category_name":"足球场","address":"徐汇区天钥桥路666号八万人体育场外场"},{"poiid":"B2094654DB6AA7FB4098","title":"烟雨江南茶艺酒吧 徐汇店","lon":"121.442678054","lat":"31.185164793","category":"247","category_name":"餐饮美食","address":"天钥桥路580号星游城3楼近零陵路"},{"poiid":"B2094654DB65A6FB4398","title":"徐家汇派出所","lon":"121.44096","lat":"31.18413","category":"609","category_name":"警察局","address":"零陵路721"},{"poiid":"B2094757D069A1F54592","title":"凡凡屋","lon":"121.43762158","lat":"31.183114509","category":"95","category_name":"日本料理","address":"徐汇区零陵路899号飞洲国际B1楼16号(近漕溪北路)"},{"poiid":"B2094757D16CA6FD4493","title":"红轩餐厅私房菜","lon":"121.438609","lat":"31.184721","category":"247","category_name":"餐饮美食","address":"上海漕溪北路930号花园内(近华亭宾馆)"},{"poiid":"B2094654DB64AAF4489B","title":"富驿时尚酒店(上海徐家汇店)","lon":"121.44212","lat":"31.18565","category":"216","category_name":"经济型连锁酒店","address":"上海市徐汇区斜土路2701号(近天钥桥路)"},{"poiid":"B2094757D064A6FF429B","title":"零陵路","lon":"121.44111508","lat":"31.185484806","category":"500","category_name":"未知分类","address":"上海零陵路"},{"poiid":"B2094757DA6EA7F9439D","title":"汇佳桌游咖啡馆(万体馆店)","lon":"121.439287662508","lat":"31.1835811319415","category":"247","category_name":"餐饮美食","address":"徐汇区零陵路751弄电影华苑11号商铺(近星游城钱柜)"},{"poiid":"B2094757D16CAAF9489D","title":"89路 上海体育馆站","lon":"121.44021802","lat":"31.183827203","category":"38","category_name":"公交车站","address":"上海零陵路东角方街"},{"poiid":"B2094655D265A3F4409A","title":"电影华苑西区(东门)","lon":"121.43992","lat":"31.18413","category":"47","category_name":"住宅区","address":"徐家汇"},{"poiid":"B2094753D769A5FC4892","title":"上海大舞台","lon":"121.438751","lat":"31.184947","category":"500","category_name":"未知分类","address":"上海市 上海体育馆"},{"poiid":"B2094757D064ABF44299","title":"橘子酱","lon":"121.43915718","lat":"31.183985726","category":"247","category_name":"餐饮美食","address":"上海市徐汇区零陵路791弄3号楼1804室"},{"poiid":"B2094757D465A4FD449C","title":"四海游龙 天钥桥店 OVERSEAS DRAGON","lon":"121.441559054","lat":"31.185257793","category":"68","category_name":"快餐厅","address":"徐汇区斜土路2701号(近公交15路终点站)"},{"poiid":"B2094757D068ABFE4692","title":"全家便利(零陵路店)","lon":"121.439958543","lat":"31.1837549299","category":"117","category_name":"便民商店/便利店","address":"上海徐汇区零陵路729号(近三角东街)"},{"poiid":"B2094750D56AA1FC469B","title":"创世纪花园――纽约座","lon":"121.4389038","lat":"31.18523788","category":"47","category_name":"住宅区","address":"创世纪花园――纽约座位于徐汇上海零陵路789号"},{"poiid":"B2094655D26AA0F44499","title":"欧乐桌球俱乐部","lon":"121.43884","lat":"31.18528","category":"247","category_name":"餐饮美食","address":"徐汇区零陵路789弄18号创世纪花园2楼(近上海体育馆)"},{"poiid":"B2094757D165A3F8489D","title":"塔哈儿新疆盛宴","lon":"121.44057858","lat":"31.185958565","category":"500","category_name":"未知分类","address":"上海体育馆"},{"poiid":"B2094750D768A1FD429C","title":"R&B世界茶饮(天钥桥路店)","lon":"121.442","lat":"31.1853","category":"113","category_name":"冷饮店","address":"徐汇区天钥桥路580号星游城1楼"},{"poiid":"B2094655D268A2F54098","title":"上海体育场(七号门)","lon":"121.44142","lat":"31.18374","category":"224","category_name":"综合体育馆","address":""},{"poiid":"B2094753D26EA6FD4198","title":"光启城","lon":"121.44014","lat":"31.183273","category":"500","category_name":"未知分类","address":"上海市 徐汇区宜山路455号"},{"poiid":"B2094655D36CA1F9479B","title":"零凌路上海体育场","lon":"121.44086","lat":"31.18384","category":"38","category_name":"公交车站","address":""},{"poiid":"B2094655D36CA1F9469F","title":"零陵路斜土路","lon":"121.44062","lat":"31.18382","category":"38","category_name":"公交车站","address":""},{"poiid":"B2094655D26AABFD409A","title":"SilentMassage","lon":"121.44108","lat":"31.18433","category":"247","category_name":"餐饮美食","address":"徐汇区斜土路2905号(近零陵路)"},{"poiid":"B2094753D26AA2FB4398","title":"TOUS les JOURS","lon":"121.440273","lat":"31.183308","category":"500","category_name":"未知分类","address":"上海市 徐汇区零陵路735号"}]