[{"poiid":"B2094757D06FA1FE409E","title":"宋记香辣蟹(天钥桥路店)","lon":"121.44487","lat":"31.17894","category":"71","category_name":"四川菜","address":"徐汇区天钥桥路898号(近中山南二路)"},{"poiid":"B2094655D26EABF94192","title":"世纪联华体育场店","lon":"121.44331","lat":"31.181","category":"118","category_name":"超级市场","address":"徐汇区天钥桥路666号八万人体育场内(近中山南二路)"},{"poiid":"B2094654DA6DA7FE449B","title":"徐汇苑大厦","lon":"121.443064","lat":"31.178863","category":"46","category_name":"楼宇","address":"徐汇区中山南二路1089号"},{"poiid":"B2094655D265A0FA489E","title":"D1国际创意空间","lon":"121.44582","lat":"31.17874","category":"45","category_name":"产业园区","address":"上海徐汇区天钥桥路909号"},{"poiid":"B2094757D06EAAFD4599","title":"鲜芋仙 万体馆店","lon":"121.442313","lat":"31.182856","category":"67","category_name":"甜品店","address":"徐汇区天钥桥路580号星游城B1楼"},{"poiid":"B2094654DB65A1FA489E","title":"扎西达娲藏族演艺餐厅","lon":"121.44264","lat":"31.18043","category":"257","category_name":"中餐厅","address":"上海市天钥桥路666号(八万人体育场5号阶梯,旅游集散中心对面)"},{"poiid":"B2094654DB69A5FF439A","title":"莫泰168连锁旅店(天钥桥路店)","lon":"121.44567","lat":"31.1791","category":"216","category_name":"经济型连锁酒店","address":"上海市徐汇区天钥桥路909号（近中山南二路）"},{"poiid":"B2094654DA6DA7FC419F","title":"八万人撞球馆","lon":"121.44305","lat":"31.18026","category":"171","category_name":"台球厅","address":"徐汇区天钥桥路666号八万人体育场内(近中山南二路)"},{"poiid":"B2094753D569ABFC439D","title":"上海八万人体育场","lon":"121.445259","lat":"31.178665","category":"500","category_name":"未知分类","address":"上海市 上海八万人体育场"},{"poiid":"B2094757D06FA1FE449A","title":"Mvuke Tokyo 布歌东京","lon":"121.443679336","lat":"31.1812833347","category":"67","category_name":"甜品店","address":"徐汇区天钥桥路666号世纪联华超市内"},{"poiid":"B2094751DA65A1FF4693","title":"新奢奢侈品护理","lon":"121.446152","lat":"31.17868","category":"249","category_name":"购物服务","address":"天钥桥路909号D1国际创意空间3号楼218室"},{"poiid":"B2094757D064A2F54692","title":"新石器烤肉•石锅拌饭(上海体育场店)","lon":"121.443159542","lat":"31.1804486708","category":"500","category_name":"未知分类","address":"天钥桥路666号上海体育场5号楼梯旁"},{"poiid":"B2094750DB6BA1F4479D","title":"宜家家居IKEA","lon":"121.443565","lat":"31.17851","category":"249","category_name":"购物服务","address":"漕溪北路中山西路"},{"poiid":"B2094654DB6BA5FA4398","title":"月亮湾酒家","lon":"121.44524","lat":"31.17872","category":"257","category_name":"中餐厅","address":"徐汇区天钥桥路909号(近中山南二路)"},{"poiid":"B2094750D165A6FC409B","title":"鼎辣 徐家汇店","lon":"121.445602","lat":"31.181066","category":"247","category_name":"餐饮美食","address":"星游城三楼"},{"poiid":"B2094654DA6DA7FF4199","title":"宛南六村","lon":"121.44566","lat":"31.179573","category":"47","category_name":"住宅区","address":"上海天钥桥路905弄"},{"poiid":"B2094757D06FAAF8459F","title":"徐汇苑","lon":"121.44469","lat":"31.176945","category":"47","category_name":"住宅区","address":"上海市徐汇区天钥桥路968号"},{"poiid":"B2094654DA6DA7FC4298","title":"肯德基(上海体育场内)","lon":"121.44317","lat":"31.18205","category":"68","category_name":"快餐厅","address":"徐汇区天钥桥路333号腾飞大厦1楼(近南丹东路)"},{"poiid":"B2094757D068A5F8499E","title":"三夫户外用品(天钥桥路店)","lon":"121.44465","lat":"31.17978","category":"140","category_name":"体育用品店","address":"徐汇区天钥桥路859号北海大厦2楼(近零陵路)"},{"poiid":"B2094750D16BA5F8489B","title":"非洲国际","lon":"121.446037","lat":"31.179267","category":"252","category_name":"楼宇机构","address":null},{"poiid":"B2094757D069A1FD439E","title":"姑苏邨","lon":"121.44552307288","lat":"31.176713112403","category":"68","category_name":"快餐厅","address":"徐汇区天钥桥路909号(近中山南二路)"},{"poiid":"B2094757D16EA3FA449C","title":"麦当劳八万人体育场店","lon":"121.44260958","lat":"31.179808445","category":"500","category_name":"未知分类","address":"上海市徐汇区体育馆环路"},{"poiid":"B2094757D06BA4FD4393","title":"食星级美食广场","lon":"121.443836586","lat":"31.1817154826","category":"68","category_name":"快餐厅","address":"徐汇区天钥桥路666号八万人世纪联华体育场店内(近中山南二路)"},{"poiid":"B2094757D06AA2F5449A","title":"新石器烤肉","lon":"121.442313","lat":"31.182856","category":"68","category_name":"快餐厅","address":"徐汇区天钥桥路666号上海体育场5号楼旁边(近中山南二路世纪联华超市)"},{"poiid":"B2094757D06BA7FD4393","title":"扎西达娲西藏演艺餐厅","lon":"121.442103261","lat":"31.1800885308","category":"500","category_name":"未知分类","address":"上海八万人体育场"},{"poiid":"B2094757D069A0F44192","title":"上海市公安局徐汇分局","lon":"121.444672","lat":"31.181537","category":"500","category_name":"未知分类","address":"上海徐汇区天钥桥路901号"},{"poiid":"B2094654DA6DA7FF409C","title":"喜士多便利连锁(天钥桥路)","lon":"121.44519","lat":"31.17903","category":"117","category_name":"便民商店/便利店","address":"徐汇区天钥桥路907号"},{"poiid":"B2094654DA6DA7FE4992","title":"龙华烈士纪念馆(3号门)","lon":"121.44662","lat":"31.17637","category":"680","category_name":"楼宇机构","address":"天钥桥路1155"},{"poiid":"B2094757D068A5FF499D","title":"艳阳红涮肉馆","lon":"121.44558","lat":"31.18003","category":"86","category_name":"火锅店","address":"徐汇区中山南二路999号(近天钥桥路)"},{"poiid":"B2094654DA6DA7FF4098","title":"新惠宾馆","lon":"121.44573","lat":"31.17825","category":"250","category_name":"公园户外","address":"徐汇区天钥桥路1001号"},{"poiid":"B2094654DA6DA7FF419E","title":"永琪美容美发(天钥桥路)","lon":"121.44527","lat":"31.17969","category":"148","category_name":"美容美发店","address":"徐汇区天钥桥路905号"},{"poiid":"B2094750D668AAF8479F","title":"腾飞广场","lon":"121.444862","lat":"31.179262","category":"500","category_name":"未知分类","address":"天钥桥路"},{"poiid":"B2094654DA6DA7FE469E","title":"协昌小区","lon":"121.44444","lat":"31.179728","category":"47","category_name":"住宅区","address":"中山南二路1057弄"},{"poiid":"B2094655D268ABFC439C","title":"宛南六村(西门)","lon":"121.44508","lat":"31.17931","category":"47","category_name":"住宅区","address":"天钥桥路905弄"},{"poiid":"B2094654DB65A1FC4998","title":"中国电信南区电信局","lon":"121.44496","lat":"31.17814","category":"263","category_name":"公司","address":"天钥桥路980号"},{"poiid":"B2094655D264AAF84798","title":"徐汇苑酒店式公寓","lon":"121.44482","lat":"31.17756","category":"250","category_name":"公园户外","address":""},{"poiid":"B2094655D268ABFC4399","title":"协昌小区(东门)","lon":"121.44475","lat":"31.17949","category":"47","category_name":"住宅区","address":"中山南二路1057弄"},{"poiid":"B2094654DA6DA0F54693","title":"上海旅游集散中心(上海体育场南)","lon":"121.44239","lat":"31.17993","category":"248","category_name":"生活娱乐","address":"徐汇区内环高架路附近"},{"poiid":"B2094655D269AAFB449C","title":"DREAMBOX摄影会所","lon":"121.4453","lat":"31.17861","category":"247","category_name":"餐饮美食","address":"徐汇区天钥桥路909号D1国际创意空间3号楼301室(近中山南二路)"},{"poiid":"B2094655D26AA7FF4298","title":"云裳室内设计","lon":"121.4453","lat":"31.17861","category":"247","category_name":"餐饮美食","address":"徐汇区天钥桥路909号1号楼2楼(近中山南二路)"},{"poiid":"B2094655D36DA7F8469D","title":"中山南二路天钥桥路","lon":"121.44353","lat":"31.17958","category":"38","category_name":"公交车站","address":""},{"poiid":"B2094757D66DAAFD469F","title":"玫瑰私人莊園","lon":"121.44563053","lat":"31.179051663","category":"500","category_name":"未知分类","address":null},{"poiid":"B2094750D36EAAF4499C","title":"八万人体育场（17号看台）","lon":"121.44284","lat":"31.181451","category":"500","category_name":"未知分类","address":null},{"poiid":"B2094753D569AAFC429D","title":"上海八万人体育馆","lon":"121.446014","lat":"31.179534","category":"500","category_name":"未知分类","address":"上海市 上海市徐汇区"},{"poiid":"B2094655D26FA1FF479D","title":"公主小厨","lon":"121.444475054","lat":"31.179580793","category":"257","category_name":"中餐厅","address":"天钥桥路890号近中山南二路"},{"poiid":"B2094751D364AAFE409B","title":"星巴克徐汇苑店","lon":"121.442021","lat":"31.179721","category":"247","category_name":"餐饮美食","address":"上海市中山南二路1089号1层101室"},{"poiid":"B2094757D169A4FC4299","title":"徐汇苑健身会所","lon":"121.44497","lat":"31.17836","category":"148","category_name":"美容美发店","address":"徐汇区天钥桥路968号"},{"poiid":"B2094757D168A1F5449D","title":"佘山工商所","lon":"121.445106","lat":"31.179338","category":"500","category_name":"未知分类","address":"上海天新路46号"},{"poiid":"B2094752D66EA7FD409F","title":"徐匯苑","lon":"121.444931","lat":"31.178375","category":"47","category_name":"住宅区","address":null},{"poiid":"B2094654DA6DA7FF4192","title":"梅园新村","lon":"121.44589","lat":"31.18017","category":"47","category_name":"住宅区","address":"中山南二路1023弄1-20号"},{"poiid":"B2094757D06FA1FE409E","title":"宋记香辣蟹(天钥桥路店)","lon":"121.44487","lat":"31.17894","category":"71","category_name":"四川菜","address":"徐汇区天钥桥路898号(近中山南二路)"},{"poiid":"B2094655D26EABF94192","title":"世纪联华体育场店","lon":"121.44331","lat":"31.181","category":"118","category_name":"超级市场","address":"徐汇区天钥桥路666号八万人体育场内(近中山南二路)"},{"poiid":"B2094654DA6DA7FE449B","title":"徐汇苑大厦","lon":"121.443064","lat":"31.178863","category":"46","category_name":"楼宇","address":"徐汇区中山南二路1089号"},{"poiid":"B2094655D265A0FA489E","title":"D1国际创意空间","lon":"121.44582","lat":"31.17874","category":"45","category_name":"产业园区","address":"上海徐汇区天钥桥路909号"},{"poiid":"B2094757D06EAAFD4599","title":"鲜芋仙 万体馆店","lon":"121.442313","lat":"31.182856","category":"67","category_name":"甜品店","address":"徐汇区天钥桥路580号星游城B1楼"},{"poiid":"B2094654DB65A1FA489E","title":"扎西达娲藏族演艺餐厅","lon":"121.44264","lat":"31.18043","category":"257","category_name":"中餐厅","address":"上海市天钥桥路666号(八万人体育场5号阶梯,旅游集散中心对面)"},{"poiid":"B2094654DB69A5FF439A","title":"莫泰168连锁旅店(天钥桥路店)","lon":"121.44567","lat":"31.1791","category":"216","category_name":"经济型连锁酒店","address":"上海市徐汇区天钥桥路909号（近中山南二路）"},{"poiid":"B2094654DA6DA7FC419F","title":"八万人撞球馆","lon":"121.44305","lat":"31.18026","category":"171","category_name":"台球厅","address":"徐汇区天钥桥路666号八万人体育场内(近中山南二路)"},{"poiid":"B2094753D569ABFC439D","title":"上海八万人体育场","lon":"121.445259","lat":"31.178665","category":"500","category_name":"未知分类","address":"上海市 上海八万人体育场"},{"poiid":"B2094757D06FA1FE449A","title":"Mvuke Tokyo 布歌东京","lon":"121.443679336","lat":"31.1812833347","category":"67","category_name":"甜品店","address":"徐汇区天钥桥路666号世纪联华超市内"},{"poiid":"B2094751DA65A1FF4693","title":"新奢奢侈品护理","lon":"121.446152","lat":"31.17868","category":"249","category_name":"购物服务","address":"天钥桥路909号D1国际创意空间3号楼218室"},{"poiid":"B2094757D064A2F54692","title":"新石器烤肉•石锅拌饭(上海体育场店)","lon":"121.443159542","lat":"31.1804486708","category":"500","category_name":"未知分类","address":"天钥桥路666号上海体育场5号楼梯旁"},{"poiid":"B2094750DB6BA1F4479D","title":"宜家家居IKEA","lon":"121.443565","lat":"31.17851","category":"249","category_name":"购物服务","address":"漕溪北路中山西路"},{"poiid":"B2094654DB6BA5FA4398","title":"月亮湾酒家","lon":"121.44524","lat":"31.17872","category":"257","category_name":"中餐厅","address":"徐汇区天钥桥路909号(近中山南二路)"},{"poiid":"B2094750D165A6FC409B","title":"鼎辣 徐家汇店","lon":"121.445602","lat":"31.181066","category":"247","category_name":"餐饮美食","address":"星游城三楼"},{"poiid":"B2094654DA6DA7FF4199","title":"宛南六村","lon":"121.44566","lat":"31.179573","category":"47","category_name":"住宅区","address":"上海天钥桥路905弄"},{"poiid":"B2094757D06FAAF8459F","title":"徐汇苑","lon":"121.44469","lat":"31.176945","category":"47","category_name":"住宅区","address":"上海市徐汇区天钥桥路968号"},{"poiid":"B2094654DA6DA7FC4298","title":"肯德基(上海体育场内)","lon":"121.44317","lat":"31.18205","category":"68","category_name":"快餐厅","address":"徐汇区天钥桥路333号腾飞大厦1楼(近南丹东路)"},{"poiid":"B2094757D068A5F8499E","title":"三夫户外用品(天钥桥路店)","lon":"121.44465","lat":"31.17978","category":"140","category_name":"体育用品店","address":"徐汇区天钥桥路859号北海大厦2楼(近零陵路)"},{"poiid":"B2094750D16BA5F8489B","title":"非洲国际","lon":"121.446037","lat":"31.179267","category":"252","category_name":"楼宇机构","address":null},{"poiid":"B2094757D069A1FD439E","title":"姑苏邨","lon":"121.44552307288","lat":"31.176713112403","category":"68","category_name":"快餐厅","address":"徐汇区天钥桥路909号(近中山南二路)"},{"poiid":"B2094757D16EA3FA449C","title":"麦当劳八万人体育场店","lon":"121.44260958","lat":"31.179808445","category":"500","category_name":"未知分类","address":"上海市徐汇区体育馆环路"},{"poiid":"B2094757D06BA4FD4393","title":"食星级美食广场","lon":"121.443836586","lat":"31.1817154826","category":"68","category_name":"快餐厅","address":"徐汇区天钥桥路666号八万人世纪联华体育场店内(近中山南二路)"},{"poiid":"B2094757D06AA2F5449A","title":"新石器烤肉","lon":"121.442313","lat":"31.182856","category":"68","category_name":"快餐厅","address":"徐汇区天钥桥路666号上海体育场5号楼旁边(近中山南二路世纪联华超市)"},{"poiid":"B2094757D06BA7FD4393","title":"扎西达娲西藏演艺餐厅","lon":"121.442103261","lat":"31.1800885308","category":"500","category_name":"未知分类","address":"上海八万人体育场"},{"poiid":"B2094757D069A0F44192","title":"上海市公安局徐汇分局","lon":"121.444672","lat":"31.181537","category":"500","category_name":"未知分类","address":"上海徐汇区天钥桥路901号"},{"poiid":"B2094654DA6DA7FF409C","title":"喜士多便利连锁(天钥桥路)","lon":"121.44519","lat":"31.17903","category":"117","category_name":"便民商店/便利店","address":"徐汇区天钥桥路907号"},{"poiid":"B2094654DA6DA7FE4992","title":"龙华烈士纪念馆(3号门)","lon":"121.44662","lat":"31.17637","category":"680","category_name":"楼宇机构","address":"天钥桥路1155"},{"poiid":"B2094757D068A5FF499D","title":"艳阳红涮肉馆","lon":"121.44558","lat":"31.18003","category":"86","category_name":"火锅店","address":"徐汇区中山南二路999号(近天钥桥路)"},{"poiid":"B2094654DA6DA7FF4098","title":"新惠宾馆","lon":"121.44573","lat":"31.17825","category":"250","category_name":"公园户外","address":"徐汇区天钥桥路1001号"},{"poiid":"B2094654DA6DA7FF419E","title":"永琪美容美发(天钥桥路)","lon":"121.44527","lat":"31.17969","category":"148","category_name":"美容美发店","address":"徐汇区天钥桥路905号"},{"poiid":"B2094750D668AAF8479F","title":"腾飞广场","lon":"121.444862","lat":"31.179262","category":"500","category_name":"未知分类","address":"天钥桥路"},{"poiid":"B2094654DA6DA7FE469E","title":"协昌小区","lon":"121.44444","lat":"31.179728","category":"47","category_name":"住宅区","address":"中山南二路1057弄"},{"poiid":"B2094655D268ABFC439C","title":"宛南六村(西门)","lon":"121.44508","lat":"31.17931","category":"47","category_name":"住宅区","address":"天钥桥路905弄"},{"poiid":"B2094654DB65A1FC4998","title":"中国电信南区电信局","lon":"121.44496","lat":"31.17814","category":"263","category_name":"公司","address":"天钥桥路980号"},{"poiid":"B2094655D264AAF84798","title":"徐汇苑酒店式公寓","lon":"121.44482","lat":"31.17756","category":"250","category_name":"公园户外","address":""},{"poiid":"B2094655D268ABFC4399","title":"协昌小区(东门)","lon":"121.44475","lat":"31.17949","category":"47","category_name":"住宅区","address":"中山南二路1057弄"},{"poiid":"B2094654DA6DA0F54693","title":"上海旅游集散中心(上海体育场南)","lon":"121.44239","lat":"31.17993","category":"248","category_name":"生活娱乐","address":"徐汇区内环高架路附近"},{"poiid":"B2094655D269AAFB449C","title":"DREAMBOX摄影会所","lon":"121.4453","lat":"31.17861","category":"247","category_name":"餐饮美食","address":"徐汇区天钥桥路909号D1国际创意空间3号楼301室(近中山南二路)"},{"poiid":"B2094655D26AA7FF4298","title":"云裳室内设计","lon":"121.4453","lat":"31.17861","category":"247","category_name":"餐饮美食","address":"徐汇区天钥桥路909号1号楼2楼(近中山南二路)"},{"poiid":"B2094655D36DA7F8469D","title":"中山南二路天钥桥路","lon":"121.44353","lat":"31.17958","category":"38","category_name":"公交车站","address":""},{"poiid":"B2094757D66DAAFD469F","title":"玫瑰私人莊園","lon":"121.44563053","lat":"31.179051663","category":"500","category_name":"未知分类","address":null},{"poiid":"B2094750D36EAAF4499C","title":"八万人体育场（17号看台）","lon":"121.44284","lat":"31.181451","category":"500","category_name":"未知分类","address":null},{"poiid":"B2094753D569AAFC429D","title":"上海八万人体育馆","lon":"121.446014","lat":"31.179534","category":"500","category_name":"未知分类","address":"上海市 上海市徐汇区"},{"poiid":"B2094655D26FA1FF479D","title":"公主小厨","lon":"121.444475054","lat":"31.179580793","category":"257","category_name":"中餐厅","address":"天钥桥路890号近中山南二路"},{"poiid":"B2094751D364AAFE409B","title":"星巴克徐汇苑店","lon":"121.442021","lat":"31.179721","category":"247","category_name":"餐饮美食","address":"上海市中山南二路1089号1层101室"},{"poiid":"B2094757D169A4FC4299","title":"徐汇苑健身会所","lon":"121.44497","lat":"31.17836","category":"148","category_name":"美容美发店","address":"徐汇区天钥桥路968号"},{"poiid":"B2094757D168A1F5449D","title":"佘山工商所","lon":"121.445106","lat":"31.179338","category":"500","category_name":"未知分类","address":"上海天新路46号"},{"poiid":"B2094752D66EA7FD409F","title":"徐匯苑","lon":"121.444931","lat":"31.178375","category":"47","category_name":"住宅区","address":null},{"poiid":"B2094654DA6DA7FF4192","title":"梅园新村","lon":"121.44589","lat":"31.18017","category":"47","category_name":"住宅区","address":"中山南二路1023弄1-20号"},{"poiid":"B2094757D06FA1FE409E","title":"宋记香辣蟹(天钥桥路店)","lon":"121.44487","lat":"31.17894","category":"71","category_name":"四川菜","address":"徐汇区天钥桥路898号(近中山南二路)"},{"poiid":"B2094655D26EABF94192","title":"世纪联华体育场店","lon":"121.44331","lat":"31.181","category":"118","category_name":"超级市场","address":"徐汇区天钥桥路666号八万人体育场内(近中山南二路)"},{"poiid":"B2094654DA6DA7FE449B","title":"徐汇苑大厦","lon":"121.443064","lat":"31.178863","category":"46","category_name":"楼宇","address":"徐汇区中山南二路1089号"},{"poiid":"B2094655D265A0FA489E","title":"D1国际创意空间","lon":"121.44582","lat":"31.17874","category":"45","category_name":"产业园区","address":"上海徐汇区天钥桥路909号"},{"poiid":"B2094757D06EAAFD4599","title":"鲜芋仙 万体馆店","lon":"121.442313","lat":"31.182856","category":"67","category_name":"甜品店","address":"徐汇区天钥桥路580号星游城B1楼"},{"poiid":"B2094654DB65A1FA489E","title":"扎西达娲藏族演艺餐厅","lon":"121.44264","lat":"31.18043","category":"257","category_name":"中餐厅","address":"上海市天钥桥路666号(八万人体育场5号阶梯,旅游集散中心对面)"},{"poiid":"B2094654DB69A5FF439A","title":"莫泰168连锁旅店(天钥桥路店)","lon":"121.44567","lat":"31.1791","category":"216","category_name":"经济型连锁酒店","address":"上海市徐汇区天钥桥路909号（近中山南二路）"},{"poiid":"B2094654DA6DA7FC419F","title":"八万人撞球馆","lon":"121.44305","lat":"31.18026","category":"171","category_name":"台球厅","address":"徐汇区天钥桥路666号八万人体育场内(近中山南二路)"},{"poiid":"B2094753D569ABFC439D","title":"上海八万人体育场","lon":"121.445259","lat":"31.178665","category":"500","category_name":"未知分类","address":"上海市 上海八万人体育场"},{"poiid":"B2094757D06FA1FE449A","title":"Mvuke Tokyo 布歌东京","lon":"121.443679336","lat":"31.1812833347","category":"67","category_name":"甜品店","address":"徐汇区天钥桥路666号世纪联华超市内"},{"poiid":"B2094751DA65A1FF4693","title":"新奢奢侈品护理","lon":"121.446152","lat":"31.17868","category":"249","category_name":"购物服务","address":"天钥桥路909号D1国际创意空间3号楼218室"},{"poiid":"B2094757D064A2F54692","title":"新石器烤肉•石锅拌饭(上海体育场店)","lon":"121.443159542","lat":"31.1804486708","category":"500","category_name":"未知分类","address":"天钥桥路666号上海体育场5号楼梯旁"},{"poiid":"B2094750DB6BA1F4479D","title":"宜家家居IKEA","lon":"121.443565","lat":"31.17851","category":"249","category_name":"购物服务","address":"漕溪北路中山西路"},{"poiid":"B2094654DB6BA5FA4398","title":"月亮湾酒家","lon":"121.44524","lat":"31.17872","category":"257","category_name":"中餐厅","address":"徐汇区天钥桥路909号(近中山南二路)"},{"poiid":"B2094750D165A6FC409B","title":"鼎辣 徐家汇店","lon":"121.445602","lat":"31.181066","category":"247","category_name":"餐饮美食","address":"星游城三楼"},{"poiid":"B2094654DA6DA7FF4199","title":"宛南六村","lon":"121.44566","lat":"31.179573","category":"47","category_name":"住宅区","address":"上海天钥桥路905弄"},{"poiid":"B2094757D06FAAF8459F","title":"徐汇苑","lon":"121.44469","lat":"31.176945","category":"47","category_name":"住宅区","address":"上海市徐汇区天钥桥路968号"},{"poiid":"B2094654DA6DA7FC4298","title":"肯德基(上海体育场内)","lon":"121.44317","lat":"31.18205","category":"68","category_name":"快餐厅","address":"徐汇区天钥桥路333号腾飞大厦1楼(近南丹东路)"},{"poiid":"B2094757D068A5F8499E","title":"三夫户外用品(天钥桥路店)","lon":"121.44465","lat":"31.17978","category":"140","category_name":"体育用品店","address":"徐汇区天钥桥路859号北海大厦2楼(近零陵路)"},{"poiid":"B2094750D16BA5F8489B","title":"非洲国际","lon":"121.446037","lat":"31.179267","category":"252","category_name":"楼宇机构","address":null},{"poiid":"B2094757D069A1FD439E","title":"姑苏邨","lon":"121.44552307288","lat":"31.176713112403","category":"68","category_name":"快餐厅","address":"徐汇区天钥桥路909号(近中山南二路)"},{"poiid":"B2094757D16EA3FA449C","title":"麦当劳八万人体育场店","lon":"121.44260958","lat":"31.179808445","category":"500","category_name":"未知分类","address":"上海市徐汇区体育馆环路"},{"poiid":"B2094757D06BA4FD4393","title":"食星级美食广场","lon":"121.443836586","lat":"31.1817154826","category":"68","category_name":"快餐厅","address":"徐汇区天钥桥路666号八万人世纪联华体育场店内(近中山南二路)"},{"poiid":"B2094757D06AA2F5449A","title":"新石器烤肉","lon":"121.442313","lat":"31.182856","category":"68","category_name":"快餐厅","address":"徐汇区天钥桥路666号上海体育场5号楼旁边(近中山南二路世纪联华超市)"},{"poiid":"B2094757D06BA7FD4393","title":"扎西达娲西藏演艺餐厅","lon":"121.442103261","lat":"31.1800885308","category":"500","category_name":"未知分类","address":"上海八万人体育场"},{"poiid":"B2094757D069A0F44192","title":"上海市公安局徐汇分局","lon":"121.444672","lat":"31.181537","category":"500","category_name":"未知分类","address":"上海徐汇区天钥桥路901号"},{"poiid":"B2094654DA6DA7FF409C","title":"喜士多便利连锁(天钥桥路)","lon":"121.44519","lat":"31.17903","category":"117","category_name":"便民商店/便利店","address":"徐汇区天钥桥路907号"},{"poiid":"B2094654DA6DA7FE4992","title":"龙华烈士纪念馆(3号门)","lon":"121.44662","lat":"31.17637","category":"680","category_name":"楼宇机构","address":"天钥桥路1155"},{"poiid":"B2094757D068A5FF499D","title":"艳阳红涮肉馆","lon":"121.44558","lat":"31.18003","category":"86","category_name":"火锅店","address":"徐汇区中山南二路999号(近天钥桥路)"},{"poiid":"B2094654DA6DA7FF4098","title":"新惠宾馆","lon":"121.44573","lat":"31.17825","category":"250","category_name":"公园户外","address":"徐汇区天钥桥路1001号"},{"poiid":"B2094654DA6DA7FF419E","title":"永琪美容美发(天钥桥路)","lon":"121.44527","lat":"31.17969","category":"148","category_name":"美容美发店","address":"徐汇区天钥桥路905号"},{"poiid":"B2094750D668AAF8479F","title":"腾飞广场","lon":"121.444862","lat":"31.179262","category":"500","category_name":"未知分类","address":"天钥桥路"},{"poiid":"B2094654DA6DA7FE469E","title":"协昌小区","lon":"121.44444","lat":"31.179728","category":"47","category_name":"住宅区","address":"中山南二路1057弄"},{"poiid":"B2094655D268ABFC439C","title":"宛南六村(西门)","lon":"121.44508","lat":"31.17931","category":"47","category_name":"住宅区","address":"天钥桥路905弄"},{"poiid":"B2094654DB65A1FC4998","title":"中国电信南区电信局","lon":"121.44496","lat":"31.17814","category":"263","category_name":"公司","address":"天钥桥路980号"},{"poiid":"B2094655D264AAF84798","title":"徐汇苑酒店式公寓","lon":"121.44482","lat":"31.17756","category":"250","category_name":"公园户外","address":""},{"poiid":"B2094655D268ABFC4399","title":"协昌小区(东门)","lon":"121.44475","lat":"31.17949","category":"47","category_name":"住宅区","address":"中山南二路1057弄"},{"poiid":"B2094654DA6DA0F54693","title":"上海旅游集散中心(上海体育场南)","lon":"121.44239","lat":"31.17993","category":"248","category_name":"生活娱乐","address":"徐汇区内环高架路附近"},{"poiid":"B2094655D269AAFB449C","title":"DREAMBOX摄影会所","lon":"121.4453","lat":"31.17861","category":"247","category_name":"餐饮美食","address":"徐汇区天钥桥路909号D1国际创意空间3号楼301室(近中山南二路)"},{"poiid":"B2094655D26AA7FF4298","title":"云裳室内设计","lon":"121.4453","lat":"31.17861","category":"247","category_name":"餐饮美食","address":"徐汇区天钥桥路909号1号楼2楼(近中山南二路)"},{"poiid":"B2094655D36DA7F8469D","title":"中山南二路天钥桥路","lon":"121.44353","lat":"31.17958","category":"38","category_name":"公交车站","address":""},{"poiid":"B2094757D66DAAFD469F","title":"玫瑰私人莊園","lon":"121.44563053","lat":"31.179051663","category":"500","category_name":"未知分类","address":null},{"poiid":"B2094750D36EAAF4499C","title":"八万人体育场（17号看台）","lon":"121.44284","lat":"31.181451","category":"500","category_name":"未知分类","address":null},{"poiid":"B2094753D569AAFC429D","title":"上海八万人体育馆","lon":"121.446014","lat":"31.179534","category":"500","category_name":"未知分类","address":"上海市 上海市徐汇区"},{"poiid":"B2094655D26FA1FF479D","title":"公主小厨","lon":"121.444475054","lat":"31.179580793","category":"257","category_name":"中餐厅","address":"天钥桥路890号近中山南二路"},{"poiid":"B2094751D364AAFE409B","title":"星巴克徐汇苑店","lon":"121.442021","lat":"31.179721","category":"247","category_name":"餐饮美食","address":"上海市中山南二路1089号1层101室"},{"poiid":"B2094757D169A4FC4299","title":"徐汇苑健身会所","lon":"121.44497","lat":"31.17836","category":"148","category_name":"美容美发店","address":"徐汇区天钥桥路968号"},{"poiid":"B2094757D168A1F5449D","title":"佘山工商所","lon":"121.445106","lat":"31.179338","category":"500","category_name":"未知分类","address":"上海天新路46号"},{"poiid":"B2094752D66EA7FD409F","title":"徐匯苑","lon":"121.444931","lat":"31.178375","category":"47","category_name":"住宅区","address":null},{"poiid":"B2094654DA6DA7FF4192","title":"梅园新村","lon":"121.44589","lat":"31.18017","category":"47","category_name":"住宅区","address":"中山南二路1023弄1-20号"},{"poiid":"B2094757D06FA1FE409E","title":"宋记香辣蟹(天钥桥路店)","lon":"121.44487","lat":"31.17894","category":"71","category_name":"四川菜","address":"徐汇区天钥桥路898号(近中山南二路)"},{"poiid":"B2094655D26EABF94192","title":"世纪联华体育场店","lon":"121.44331","lat":"31.181","category":"118","category_name":"超级市场","address":"徐汇区天钥桥路666号八万人体育场内(近中山南二路)"},{"poiid":"B2094654DA6DA7FE449B","title":"徐汇苑大厦","lon":"121.443064","lat":"31.178863","category":"46","category_name":"楼宇","address":"徐汇区中山南二路1089号"},{"poiid":"B2094655D265A0FA489E","title":"D1国际创意空间","lon":"121.44582","lat":"31.17874","category":"45","category_name":"产业园区","address":"上海徐汇区天钥桥路909号"},{"poiid":"B2094757D06EAAFD4599","title":"鲜芋仙 万体馆店","lon":"121.442313","lat":"31.182856","category":"67","category_name":"甜品店","address":"徐汇区天钥桥路580号星游城B1楼"},{"poiid":"B2094654DB65A1FA489E","title":"扎西达娲藏族演艺餐厅","lon":"121.44264","lat":"31.18043","category":"257","category_name":"中餐厅","address":"上海市天钥桥路666号(八万人体育场5号阶梯,旅游集散中心对面)"},{"poiid":"B2094654DB69A5FF439A","title":"莫泰168连锁旅店(天钥桥路店)","lon":"121.44567","lat":"31.1791","category":"216","category_name":"经济型连锁酒店","address":"上海市徐汇区天钥桥路909号（近中山南二路）"},{"poiid":"B2094654DA6DA7FC419F","title":"八万人撞球馆","lon":"121.44305","lat":"31.18026","category":"171","category_name":"台球厅","address":"徐汇区天钥桥路666号八万人体育场内(近中山南二路)"},{"poiid":"B2094753D569ABFC439D","title":"上海八万人体育场","lon":"121.445259","lat":"31.178665","category":"500","category_name":"未知分类","address":"上海市 上海八万人体育场"},{"poiid":"B2094757D06FA1FE449A","title":"Mvuke Tokyo 布歌东京","lon":"121.443679336","lat":"31.1812833347","category":"67","category_name":"甜品店","address":"徐汇区天钥桥路666号世纪联华超市内"},{"poiid":"B2094751DA65A1FF4693","title":"新奢奢侈品护理","lon":"121.446152","lat":"31.17868","category":"249","category_name":"购物服务","address":"天钥桥路909号D1国际创意空间3号楼218室"},{"poiid":"B2094757D064A2F54692","title":"新石器烤肉•石锅拌饭(上海体育场店)","lon":"121.443159542","lat":"31.1804486708","category":"500","category_name":"未知分类","address":"天钥桥路666号上海体育场5号楼梯旁"},{"poiid":"B2094750DB6BA1F4479D","title":"宜家家居IKEA","lon":"121.443565","lat":"31.17851","category":"249","category_name":"购物服务","address":"漕溪北路中山西路"},{"poiid":"B2094654DB6BA5FA4398","title":"月亮湾酒家","lon":"121.44524","lat":"31.17872","category":"257","category_name":"中餐厅","address":"徐汇区天钥桥路909号(近中山南二路)"},{"poiid":"B2094750D165A6FC409B","title":"鼎辣 徐家汇店","lon":"121.445602","lat":"31.181066","category":"247","category_name":"餐饮美食","address":"星游城三楼"},{"poiid":"B2094654DA6DA7FF4199","title":"宛南六村","lon":"121.44566","lat":"31.179573","category":"47","category_name":"住宅区","address":"上海天钥桥路905弄"},{"poiid":"B2094757D06FAAF8459F","title":"徐汇苑","lon":"121.44469","lat":"31.176945","category":"47","category_name":"住宅区","address":"上海市徐汇区天钥桥路968号"},{"poiid":"B2094654DA6DA7FC4298","title":"肯德基(上海体育场内)","lon":"121.44317","lat":"31.18205","category":"68","category_name":"快餐厅","address":"徐汇区天钥桥路333号腾飞大厦1楼(近南丹东路)"},{"poiid":"B2094757D068A5F8499E","title":"三夫户外用品(天钥桥路店)","lon":"121.44465","lat":"31.17978","category":"140","category_name":"体育用品店","address":"徐汇区天钥桥路859号北海大厦2楼(近零陵路)"},{"poiid":"B2094750D16BA5F8489B","title":"非洲国际","lon":"121.446037","lat":"31.179267","category":"252","category_name":"楼宇机构","address":null},{"poiid":"B2094757D069A1FD439E","title":"姑苏邨","lon":"121.44552307288","lat":"31.176713112403","category":"68","category_name":"快餐厅","address":"徐汇区天钥桥路909号(近中山南二路)"},{"poiid":"B2094757D16EA3FA449C","title":"麦当劳八万人体育场店","lon":"121.44260958","lat":"31.179808445","category":"500","category_name":"未知分类","address":"上海市徐汇区体育馆环路"},{"poiid":"B2094757D06BA4FD4393","title":"食星级美食广场","lon":"121.443836586","lat":"31.1817154826","category":"68","category_name":"快餐厅","address":"徐汇区天钥桥路666号八万人世纪联华体育场店内(近中山南二路)"},{"poiid":"B2094757D06AA2F5449A","title":"新石器烤肉","lon":"121.442313","lat":"31.182856","category":"68","category_name":"快餐厅","address":"徐汇区天钥桥路666号上海体育场5号楼旁边(近中山南二路世纪联华超市)"},{"poiid":"B2094757D06BA7FD4393","title":"扎西达娲西藏演艺餐厅","lon":"121.442103261","lat":"31.1800885308","category":"500","category_name":"未知分类","address":"上海八万人体育场"},{"poiid":"B2094757D069A0F44192","title":"上海市公安局徐汇分局","lon":"121.444672","lat":"31.181537","category":"500","category_name":"未知分类","address":"上海徐汇区天钥桥路901号"},{"poiid":"B2094654DA6DA7FF409C","title":"喜士多便利连锁(天钥桥路)","lon":"121.44519","lat":"31.17903","category":"117","category_name":"便民商店/便利店","address":"徐汇区天钥桥路907号"},{"poiid":"B2094654DA6DA7FE4992","title":"龙华烈士纪念馆(3号门)","lon":"121.44662","lat":"31.17637","category":"680","category_name":"楼宇机构","address":"天钥桥路1155"},{"poiid":"B2094757D068A5FF499D","title":"艳阳红涮肉馆","lon":"121.44558","lat":"31.18003","category":"86","category_name":"火锅店","address":"徐汇区中山南二路999号(近天钥桥路)"},{"poiid":"B2094654DA6DA7FF4098","title":"新惠宾馆","lon":"121.44573","lat":"31.17825","category":"250","category_name":"公园户外","address":"徐汇区天钥桥路1001号"},{"poiid":"B2094654DA6DA7FF419E","title":"永琪美容美发(天钥桥路)","lon":"121.44527","lat":"31.17969","category":"148","category_name":"美容美发店","address":"徐汇区天钥桥路905号"},{"poiid":"B2094750D668AAF8479F","title":"腾飞广场","lon":"121.444862","lat":"31.179262","category":"500","category_name":"未知分类","address":"天钥桥路"},{"poiid":"B2094654DA6DA7FE469E","title":"协昌小区","lon":"121.44444","lat":"31.179728","category":"47","category_name":"住宅区","address":"中山南二路1057弄"},{"poiid":"B2094655D268ABFC439C","title":"宛南六村(西门)","lon":"121.44508","lat":"31.17931","category":"47","category_name":"住宅区","address":"天钥桥路905弄"},{"poiid":"B2094654DB65A1FC4998","title":"中国电信南区电信局","lon":"121.44496","lat":"31.17814","category":"263","category_name":"公司","address":"天钥桥路980号"},{"poiid":"B2094655D264AAF84798","title":"徐汇苑酒店式公寓","lon":"121.44482","lat":"31.17756","category":"250","category_name":"公园户外","address":""},{"poiid":"B2094655D268ABFC4399","title":"协昌小区(东门)","lon":"121.44475","lat":"31.17949","category":"47","category_name":"住宅区","address":"中山南二路1057弄"},{"poiid":"B2094654DA6DA0F54693","title":"上海旅游集散中心(上海体育场南)","lon":"121.44239","lat":"31.17993","category":"248","category_name":"生活娱乐","address":"徐汇区内环高架路附近"},{"poiid":"B2094655D269AAFB449C","title":"DREAMBOX摄影会所","lon":"121.4453","lat":"31.17861","category":"247","category_name":"餐饮美食","address":"徐汇区天钥桥路909号D1国际创意空间3号楼301室(近中山南二路)"},{"poiid":"B2094655D26AA7FF4298","title":"云裳室内设计","lon":"121.4453","lat":"31.17861","category":"247","category_name":"餐饮美食","address":"徐汇区天钥桥路909号1号楼2楼(近中山南二路)"},{"poiid":"B2094655D36DA7F8469D","title":"中山南二路天钥桥路","lon":"121.44353","lat":"31.17958","category":"38","category_name":"公交车站","address":""},{"poiid":"B2094757D66DAAFD469F","title":"玫瑰私人莊園","lon":"121.44563053","lat":"31.179051663","category":"500","category_name":"未知分类","address":null},{"poiid":"B2094750D36EAAF4499C","title":"八万人体育场（17号看台）","lon":"121.44284","lat":"31.181451","category":"500","category_name":"未知分类","address":null},{"poiid":"B2094753D569AAFC429D","title":"上海八万人体育馆","lon":"121.446014","lat":"31.179534","category":"500","category_name":"未知分类","address":"上海市 上海市徐汇区"},{"poiid":"B2094655D26FA1FF479D","title":"公主小厨","lon":"121.444475054","lat":"31.179580793","category":"257","category_name":"中餐厅","address":"天钥桥路890号近中山南二路"},{"poiid":"B2094751D364AAFE409B","title":"星巴克徐汇苑店","lon":"121.442021","lat":"31.179721","category":"247","category_name":"餐饮美食","address":"上海市中山南二路1089号1层101室"},{"poiid":"B2094757D169A4FC4299","title":"徐汇苑健身会所","lon":"121.44497","lat":"31.17836","category":"148","category_name":"美容美发店","address":"徐汇区天钥桥路968号"},{"poiid":"B2094757D168A1F5449D","title":"佘山工商所","lon":"121.445106","lat":"31.179338","category":"500","category_name":"未知分类","address":"上海天新路46号"},{"poiid":"B2094752D66EA7FD409F","title":"徐匯苑","lon":"121.444931","lat":"31.178375","category":"47","category_name":"住宅区","address":null},{"poiid":"B2094654DA6DA7FF4192","title":"梅园新村","lon":"121.44589","lat":"31.18017","category":"47","category_name":"住宅区","address":"中山南二路1023弄1-20号"}]