[{"poiid":"B2094655D265A6FE4898","title":"北美广场","lon":"121.519","lat":"31.2658","category":"46","category_name":"楼宇","address":"上海市杨浦区昆明路508号"},{"poiid":"B2094757D06FA0F8409D","title":"江浦公园","lon":"121.524354472","lat":"31.2657463287","category":"196","category_name":"公园","address":"杨浦区长阳路1111号(江浦路口)"},{"poiid":"B2094757D06FA6F4499C","title":"现代星洲城","lon":"121.518951","lat":"31.269247","category":"47","category_name":"住宅区","address":"上海市杨浦区江浦路1199号"},{"poiid":"B2094757D068A6FA499A","title":"江浦路","lon":"121.521928","lat":"31.2667454","category":"260","category_name":"其他","address":"上海杨浦区江浦路"},{"poiid":"B2094757D06FA5F84593","title":"吴记老锅底麻辣火锅(江浦路店)","lon":"121.52023","lat":"31.27258","category":"86","category_name":"火锅店","address":"上海杨浦区江浦路1380号(近控江路)  "},{"poiid":"B2094751DA64A6F9439A","title":"鲜芋仙","lon":"121.519587","lat":"31.271143","category":"247","category_name":"餐饮美食","address":"杨浦区控江路1720号"},{"poiid":"B2094655D26CA6FB439C","title":"尚凯商务大厦","lon":"121.52232","lat":"31.26661","category":"46","category_name":"楼宇","address":"浦东新区金湘路345号"},{"poiid":"B2094757D068A5FE4793","title":"周家嘴路江浦路站(公交145,716,870,962)","lon":"121.520926","lat":"31.271083","category":"38","category_name":"公交车站","address":"上海周家嘴路江浦路"},{"poiid":"B2094757D06AA6FD4399","title":"合生高尔夫公寓","lon":"121.51923","lat":"31.266729","category":"500","category_name":"未知分类","address":"杨浦区江浦路1095号(靠近周家嘴路)"},{"poiid":"B2094654D56EABF5499A","title":"阳明新城","lon":"121.5214","lat":"31.269705","category":"47","category_name":"住宅区","address":"阳明新城位于杨浦江浦路1188号"},{"poiid":"B2094757D068A0FC439B","title":"现代星洲城三期","lon":"121.52221","lat":"31.267971","category":"47","category_name":"住宅区","address":"上海市杨浦区江浦路1100弄"},{"poiid":"B2094757D068A7F54798","title":"金上海家园","lon":"121.521124","lat":"31.266825","category":"196","category_name":"公园","address":"上海市杨浦区江浦路1057号"},{"poiid":"B2094655D36CA5F8479A","title":"长阳路","lon":"121.52315","lat":"31.26529","category":"38","category_name":"公交车站","address":""},{"poiid":"B2094654D56EABF54799","title":"阳明苑","lon":"121.52218","lat":"31.269125","category":"47","category_name":"住宅区","address":"上海市杨浦区江浦路1178弄"},{"poiid":"B2094757D069A6FE439F","title":"控江中学附属民办学校","lon":"121.521292","lat":"31.264753","category":"500","category_name":"未知分类","address":"上海怀德路1000号"},{"poiid":"B2094757D068A6FA479E","title":"嘉禄新苑","lon":"121.525067","lat":"31.269818","category":"47","category_name":"住宅区","address":"嘉禄新苑位于杨浦区霍山路802号(许昌路路口)"},{"poiid":"B2094654D56EABF5449B","title":"信通浦皓园","lon":"121.52245","lat":"31.270864","category":"47","category_name":"住宅区","address":"上海市杨浦区周家嘴路2408号"},{"poiid":"B2094757D16FA5FE439D","title":"新华医院呼吸监护室","lon":"121.519554103","lat":"31.2708834319","category":"500","category_name":"未知分类","address":null},{"poiid":"B2094757D16EA0F9479F","title":"东北饺子王","lon":"121.52065","lat":"31.27024","category":"82","category_name":"东北菜","address":"杨浦区江浦路1353号(近控江路)"},{"poiid":"B2094655D26FA0FC479C","title":"阳明新城(三号门)","lon":"121.52201","lat":"31.26985","category":"47","category_name":"住宅区","address":"江浦路1188号"},{"poiid":"B2094757D16FA7FC439F","title":"陽朙新城","lon":"121.521419103","lat":"31.2691423955","category":"47","category_name":"住宅区","address":"上海市杨浦区江浦路1188号"},{"poiid":"B2094654D56EABF54893","title":"阳明商务中心","lon":"121.52094","lat":"31.26922","category":"46","category_name":"楼宇","address":"江浦路1188号"},{"poiid":"B2094654D56EABF5479E","title":"上海市杨浦区明园村幼儿园","lon":"121.52227","lat":"31.26945","category":"57","category_name":"幼儿园","address":"杨浦区江浦路1140弄33号"},{"poiid":"B2094757D469A0FA469A","title":"恬妈尚菜","lon":"121.52200699","lat":"31.27110003","category":"91","category_name":"台湾菜","address":"杨浦区周家嘴路2420号(近江浦路)"},{"poiid":"B2094654D56EABF54792","title":"阳明商务多功能会议室","lon":"121.52095","lat":"31.26922","category":"185","category_name":"会展中心","address":"江浦路1188号阳明商务中心1029"},{"poiid":"B2094654D56EABF5479B","title":"曼姝菲尔女子香芬养生馆茭白园路店","lon":"121.52111","lat":"31.26899","category":"148","category_name":"美容美发店","address":""},{"poiid":"B2094757D06AAAFF4893","title":"杨浦区教师进修学院附属中学","lon":"121.52025","lat":"31.27081","category":"253","category_name":"校园生活","address":"杨浦区江浦路1322号(近周家嘴路)"},{"poiid":"B2094757D164A5FF459C","title":"蒋家浜小街","lon":"121.5247951","lat":"31.269289398","category":"47","category_name":"住宅区","address":"上海杨浦区蒋家浜小街"},{"poiid":"B2094757D06FA5F4489A","title":"六艺茶馆(江浦路店)","lon":"121.52067","lat":"31.26832","category":"260","category_name":"其他","address":"杨浦区江浦路1159号(近周家嘴路)"},{"poiid":"B2094655D265A3F8449E","title":"佐登妮丝美容SPA生活馆江浦路店","lon":"121.52054","lat":"31.26803","category":"148","category_name":"美容美发店","address":"杨浦区江浦路1147号(近周家嘴路)"},{"poiid":"B209475CD268A2F5469C","title":"上海市交通大学附属新华医院","lon":"121.522819","lat":"31.269811","category":"162","category_name":"医院","address":"上海市 江浦路"},{"poiid":"B2094654DB6BA2FC4793","title":"自然美","lon":"121.52037","lat":"31.26848","category":"148","category_name":"美容美发店","address":"杨浦区本溪路19号(近凤城路)"},{"poiid":"B2094654D56EAAFC4792","title":"星舟广场","lon":"121.52077","lat":"31.27012","category":"201","category_name":"城市广场","address":""},{"poiid":"B2094757D168A2F9479E","title":"尕瓷滴窝窝","lon":"121.523114503","lat":"31.2694698024","category":"247","category_name":"餐饮美食","address":null},{"poiid":"B2094757D064A4FC409D","title":"浦皓园","lon":"121.520628","lat":"31.269756","category":"500","category_name":"未知分类","address":"上海江浦路1200号"},{"poiid":"B2094655D265A6F8449A","title":"格调星洲","lon":"121.51939","lat":"31.26927","category":"47","category_name":"住宅区","address":"格调星洲位于杨浦江浦路1199号"},{"poiid":"B2094655D26BA2F9439A","title":"提蓝桥","lon":"121.52231","lat":"31.2661","category":"260","category_name":"其他","address":"杨浦区江浦路"},{"poiid":"B2094757D065A0F8439C","title":"中国建设银行(星洲城支行)","lon":"121.52082","lat":"31.2683","category":"150","category_name":"银行","address":"杨浦区江浦路1177号(江浦路茭白园路)"},{"poiid":"B2094757D068A7FF499C","title":"娘家","lon":"121.52110043","lat":"31.269428401","category":"500","category_name":"未知分类","address":"上海许昌路双辽支路"},{"poiid":"B2094757D065A7FD4393","title":"杨浦大桥黄兴路闸口","lon":"121.524628655","lat":"31.2685308252","category":"260","category_name":"其他","address":"上海杨浦大桥黄兴路闸口"},{"poiid":"B2094757D068A3F5449D","title":"长阳路江浦路","lon":"121.52294158","lat":"31.265565872","category":"500","category_name":"未知分类","address":"上海长阳路江浦路"},{"poiid":"B2094757D465A1FB499E","title":"马记川味麻辣烫 江浦路店","lon":"121.520042054","lat":"31.270678793","category":"87","category_name":"特色／地方风味餐厅","address":"杨浦区江浦路(近中山北二路)"},{"poiid":"B2094654D56EABF94593","title":"快客No.1432","lon":"121.51973","lat":"31.27091","category":"117","category_name":"便民商店/便利店","address":"江浦路1283甲"},{"poiid":"B2094757D16FABFC459B","title":"江浦街道经济园区","lon":"121.51863691","lat":"31.270131691","category":"46","category_name":"楼宇","address":"上海周家嘴路2299号"},{"poiid":"B2094752D664AAFC489D","title":"巴黎春天","lon":"121.523984","lat":"31.268512","category":"249","category_name":"购物服务","address":"五角场巴黎春天"},{"poiid":"B2094655D265A2FB499E","title":"上海体育学院附属中学","lon":"121.52173","lat":"31.27177","category":"55","category_name":"中学","address":"周家嘴路2521"},{"poiid":"B2094757D66EAAFE469B","title":"东方证券长阳路营业部","lon":"121.5200073","lat":"31.270216618","category":"500","category_name":"未知分类","address":"上海长阳路1080号2号楼2、4楼"},{"poiid":"B2094655D26DA4F5449A","title":"阳明苑(西门)","lon":"121.52098","lat":"31.26866","category":"656","category_name":"大门","address":"江浦路1178弄"},{"poiid":"B2094655D36DA7FA409A","title":"周家嘴路许昌路","lon":"121.51726","lat":"31.26819","category":"38","category_name":"公交车站","address":""},{"poiid":"B2094654D56EABFB489D","title":"国大药房周家嘴路店","lon":"121.5182","lat":"31.26946","category":"162","category_name":"医院","address":"江浦路"},{"poiid":"B2094655D265A6FE4898","title":"北美广场","lon":"121.519","lat":"31.2658","category":"46","category_name":"楼宇","address":"上海市杨浦区昆明路508号"},{"poiid":"B2094757D06FA0F8409D","title":"江浦公园","lon":"121.524354472","lat":"31.2657463287","category":"196","category_name":"公园","address":"杨浦区长阳路1111号(江浦路口)"},{"poiid":"B2094757D06FA6F4499C","title":"现代星洲城","lon":"121.518951","lat":"31.269247","category":"47","category_name":"住宅区","address":"上海市杨浦区江浦路1199号"},{"poiid":"B2094757D068A6FA499A","title":"江浦路","lon":"121.521928","lat":"31.2667454","category":"260","category_name":"其他","address":"上海杨浦区江浦路"},{"poiid":"B2094757D06FA5F84593","title":"吴记老锅底麻辣火锅(江浦路店)","lon":"121.52023","lat":"31.27258","category":"86","category_name":"火锅店","address":"上海杨浦区江浦路1380号(近控江路)  "},{"poiid":"B2094751DA64A6F9439A","title":"鲜芋仙","lon":"121.519587","lat":"31.271143","category":"247","category_name":"餐饮美食","address":"杨浦区控江路1720号"},{"poiid":"B2094655D26CA6FB439C","title":"尚凯商务大厦","lon":"121.52232","lat":"31.26661","category":"46","category_name":"楼宇","address":"浦东新区金湘路345号"},{"poiid":"B2094757D068A5FE4793","title":"周家嘴路江浦路站(公交145,716,870,962)","lon":"121.520926","lat":"31.271083","category":"38","category_name":"公交车站","address":"上海周家嘴路江浦路"},{"poiid":"B2094757D06AA6FD4399","title":"合生高尔夫公寓","lon":"121.51923","lat":"31.266729","category":"500","category_name":"未知分类","address":"杨浦区江浦路1095号(靠近周家嘴路)"},{"poiid":"B2094654D56EABF5499A","title":"阳明新城","lon":"121.5214","lat":"31.269705","category":"47","category_name":"住宅区","address":"阳明新城位于杨浦江浦路1188号"},{"poiid":"B2094757D068A0FC439B","title":"现代星洲城三期","lon":"121.52221","lat":"31.267971","category":"47","category_name":"住宅区","address":"上海市杨浦区江浦路1100弄"},{"poiid":"B2094757D068A7F54798","title":"金上海家园","lon":"121.521124","lat":"31.266825","category":"196","category_name":"公园","address":"上海市杨浦区江浦路1057号"},{"poiid":"B2094655D36CA5F8479A","title":"长阳路","lon":"121.52315","lat":"31.26529","category":"38","category_name":"公交车站","address":""},{"poiid":"B2094654D56EABF54799","title":"阳明苑","lon":"121.52218","lat":"31.269125","category":"47","category_name":"住宅区","address":"上海市杨浦区江浦路1178弄"},{"poiid":"B2094757D069A6FE439F","title":"控江中学附属民办学校","lon":"121.521292","lat":"31.264753","category":"500","category_name":"未知分类","address":"上海怀德路1000号"},{"poiid":"B2094757D068A6FA479E","title":"嘉禄新苑","lon":"121.525067","lat":"31.269818","category":"47","category_name":"住宅区","address":"嘉禄新苑位于杨浦区霍山路802号(许昌路路口)"},{"poiid":"B2094654D56EABF5449B","title":"信通浦皓园","lon":"121.52245","lat":"31.270864","category":"47","category_name":"住宅区","address":"上海市杨浦区周家嘴路2408号"},{"poiid":"B2094757D16FA5FE439D","title":"新华医院呼吸监护室","lon":"121.519554103","lat":"31.2708834319","category":"500","category_name":"未知分类","address":null},{"poiid":"B2094757D16EA0F9479F","title":"东北饺子王","lon":"121.52065","lat":"31.27024","category":"82","category_name":"东北菜","address":"杨浦区江浦路1353号(近控江路)"},{"poiid":"B2094655D26FA0FC479C","title":"阳明新城(三号门)","lon":"121.52201","lat":"31.26985","category":"47","category_name":"住宅区","address":"江浦路1188号"},{"poiid":"B2094757D16FA7FC439F","title":"陽朙新城","lon":"121.521419103","lat":"31.2691423955","category":"47","category_name":"住宅区","address":"上海市杨浦区江浦路1188号"},{"poiid":"B2094654D56EABF54893","title":"阳明商务中心","lon":"121.52094","lat":"31.26922","category":"46","category_name":"楼宇","address":"江浦路1188号"},{"poiid":"B2094654D56EABF5479E","title":"上海市杨浦区明园村幼儿园","lon":"121.52227","lat":"31.26945","category":"57","category_name":"幼儿园","address":"杨浦区江浦路1140弄33号"},{"poiid":"B2094757D469A0FA469A","title":"恬妈尚菜","lon":"121.52200699","lat":"31.27110003","category":"91","category_name":"台湾菜","address":"杨浦区周家嘴路2420号(近江浦路)"},{"poiid":"B2094654D56EABF54792","title":"阳明商务多功能会议室","lon":"121.52095","lat":"31.26922","category":"185","category_name":"会展中心","address":"江浦路1188号阳明商务中心1029"},{"poiid":"B2094654D56EABF5479B","title":"曼姝菲尔女子香芬养生馆茭白园路店","lon":"121.52111","lat":"31.26899","category":"148","category_name":"美容美发店","address":""},{"poiid":"B2094757D06AAAFF4893","title":"杨浦区教师进修学院附属中学","lon":"121.52025","lat":"31.27081","category":"253","category_name":"校园生活","address":"杨浦区江浦路1322号(近周家嘴路)"},{"poiid":"B2094757D164A5FF459C","title":"蒋家浜小街","lon":"121.5247951","lat":"31.269289398","category":"47","category_name":"住宅区","address":"上海杨浦区蒋家浜小街"},{"poiid":"B2094757D06FA5F4489A","title":"六艺茶馆(江浦路店)","lon":"121.52067","lat":"31.26832","category":"260","category_name":"其他","address":"杨浦区江浦路1159号(近周家嘴路)"},{"poiid":"B2094655D265A3F8449E","title":"佐登妮丝美容SPA生活馆江浦路店","lon":"121.52054","lat":"31.26803","category":"148","category_name":"美容美发店","address":"杨浦区江浦路1147号(近周家嘴路)"},{"poiid":"B209475CD268A2F5469C","title":"上海市交通大学附属新华医院","lon":"121.522819","lat":"31.269811","category":"162","category_name":"医院","address":"上海市 江浦路"},{"poiid":"B2094654DB6BA2FC4793","title":"自然美","lon":"121.52037","lat":"31.26848","category":"148","category_name":"美容美发店","address":"杨浦区本溪路19号(近凤城路)"},{"poiid":"B2094654D56EAAFC4792","title":"星舟广场","lon":"121.52077","lat":"31.27012","category":"201","category_name":"城市广场","address":""},{"poiid":"B2094757D168A2F9479E","title":"尕瓷滴窝窝","lon":"121.523114503","lat":"31.2694698024","category":"247","category_name":"餐饮美食","address":null},{"poiid":"B2094757D064A4FC409D","title":"浦皓园","lon":"121.520628","lat":"31.269756","category":"500","category_name":"未知分类","address":"上海江浦路1200号"},{"poiid":"B2094655D265A6F8449A","title":"格调星洲","lon":"121.51939","lat":"31.26927","category":"47","category_name":"住宅区","address":"格调星洲位于杨浦江浦路1199号"},{"poiid":"B2094655D26BA2F9439A","title":"提蓝桥","lon":"121.52231","lat":"31.2661","category":"260","category_name":"其他","address":"杨浦区江浦路"},{"poiid":"B2094757D065A0F8439C","title":"中国建设银行(星洲城支行)","lon":"121.52082","lat":"31.2683","category":"150","category_name":"银行","address":"杨浦区江浦路1177号(江浦路茭白园路)"},{"poiid":"B2094757D068A7FF499C","title":"娘家","lon":"121.52110043","lat":"31.269428401","category":"500","category_name":"未知分类","address":"上海许昌路双辽支路"},{"poiid":"B2094757D065A7FD4393","title":"杨浦大桥黄兴路闸口","lon":"121.524628655","lat":"31.2685308252","category":"260","category_name":"其他","address":"上海杨浦大桥黄兴路闸口"},{"poiid":"B2094757D068A3F5449D","title":"长阳路江浦路","lon":"121.52294158","lat":"31.265565872","category":"500","category_name":"未知分类","address":"上海长阳路江浦路"},{"poiid":"B2094757D465A1FB499E","title":"马记川味麻辣烫 江浦路店","lon":"121.520042054","lat":"31.270678793","category":"87","category_name":"特色／地方风味餐厅","address":"杨浦区江浦路(近中山北二路)"},{"poiid":"B2094654D56EABF94593","title":"快客No.1432","lon":"121.51973","lat":"31.27091","category":"117","category_name":"便民商店/便利店","address":"江浦路1283甲"},{"poiid":"B2094757D16FABFC459B","title":"江浦街道经济园区","lon":"121.51863691","lat":"31.270131691","category":"46","category_name":"楼宇","address":"上海周家嘴路2299号"},{"poiid":"B2094752D664AAFC489D","title":"巴黎春天","lon":"121.523984","lat":"31.268512","category":"249","category_name":"购物服务","address":"五角场巴黎春天"},{"poiid":"B2094655D265A2FB499E","title":"上海体育学院附属中学","lon":"121.52173","lat":"31.27177","category":"55","category_name":"中学","address":"周家嘴路2521"},{"poiid":"B2094757D66EAAFE469B","title":"东方证券长阳路营业部","lon":"121.5200073","lat":"31.270216618","category":"500","category_name":"未知分类","address":"上海长阳路1080号2号楼2、4楼"},{"poiid":"B2094655D26DA4F5449A","title":"阳明苑(西门)","lon":"121.52098","lat":"31.26866","category":"656","category_name":"大门","address":"江浦路1178弄"},{"poiid":"B2094655D36DA7FA409A","title":"周家嘴路许昌路","lon":"121.51726","lat":"31.26819","category":"38","category_name":"公交车站","address":""},{"poiid":"B2094654D56EABFB489D","title":"国大药房周家嘴路店","lon":"121.5182","lat":"31.26946","category":"162","category_name":"医院","address":"江浦路"},{"poiid":"B2094655D265A6FE4898","title":"北美广场","lon":"121.519","lat":"31.2658","category":"46","category_name":"楼宇","address":"上海市杨浦区昆明路508号"},{"poiid":"B2094757D06FA0F8409D","title":"江浦公园","lon":"121.524354472","lat":"31.2657463287","category":"196","category_name":"公园","address":"杨浦区长阳路1111号(江浦路口)"},{"poiid":"B2094757D06FA6F4499C","title":"现代星洲城","lon":"121.518951","lat":"31.269247","category":"47","category_name":"住宅区","address":"上海市杨浦区江浦路1199号"},{"poiid":"B2094757D068A6FA499A","title":"江浦路","lon":"121.521928","lat":"31.2667454","category":"260","category_name":"其他","address":"上海杨浦区江浦路"},{"poiid":"B2094757D06FA5F84593","title":"吴记老锅底麻辣火锅(江浦路店)","lon":"121.52023","lat":"31.27258","category":"86","category_name":"火锅店","address":"上海杨浦区江浦路1380号(近控江路)  "},{"poiid":"B2094751DA64A6F9439A","title":"鲜芋仙","lon":"121.519587","lat":"31.271143","category":"247","category_name":"餐饮美食","address":"杨浦区控江路1720号"},{"poiid":"B2094655D26CA6FB439C","title":"尚凯商务大厦","lon":"121.52232","lat":"31.26661","category":"46","category_name":"楼宇","address":"浦东新区金湘路345号"},{"poiid":"B2094757D068A5FE4793","title":"周家嘴路江浦路站(公交145,716,870,962)","lon":"121.520926","lat":"31.271083","category":"38","category_name":"公交车站","address":"上海周家嘴路江浦路"},{"poiid":"B2094757D06AA6FD4399","title":"合生高尔夫公寓","lon":"121.51923","lat":"31.266729","category":"500","category_name":"未知分类","address":"杨浦区江浦路1095号(靠近周家嘴路)"},{"poiid":"B2094654D56EABF5499A","title":"阳明新城","lon":"121.5214","lat":"31.269705","category":"47","category_name":"住宅区","address":"阳明新城位于杨浦江浦路1188号"},{"poiid":"B2094757D068A0FC439B","title":"现代星洲城三期","lon":"121.52221","lat":"31.267971","category":"47","category_name":"住宅区","address":"上海市杨浦区江浦路1100弄"},{"poiid":"B2094757D068A7F54798","title":"金上海家园","lon":"121.521124","lat":"31.266825","category":"196","category_name":"公园","address":"上海市杨浦区江浦路1057号"},{"poiid":"B2094655D36CA5F8479A","title":"长阳路","lon":"121.52315","lat":"31.26529","category":"38","category_name":"公交车站","address":""},{"poiid":"B2094654D56EABF54799","title":"阳明苑","lon":"121.52218","lat":"31.269125","category":"47","category_name":"住宅区","address":"上海市杨浦区江浦路1178弄"},{"poiid":"B2094757D069A6FE439F","title":"控江中学附属民办学校","lon":"121.521292","lat":"31.264753","category":"500","category_name":"未知分类","address":"上海怀德路1000号"},{"poiid":"B2094757D068A6FA479E","title":"嘉禄新苑","lon":"121.525067","lat":"31.269818","category":"47","category_name":"住宅区","address":"嘉禄新苑位于杨浦区霍山路802号(许昌路路口)"},{"poiid":"B2094654D56EABF5449B","title":"信通浦皓园","lon":"121.52245","lat":"31.270864","category":"47","category_name":"住宅区","address":"上海市杨浦区周家嘴路2408号"},{"poiid":"B2094757D16FA5FE439D","title":"新华医院呼吸监护室","lon":"121.519554103","lat":"31.2708834319","category":"500","category_name":"未知分类","address":null},{"poiid":"B2094757D16EA0F9479F","title":"东北饺子王","lon":"121.52065","lat":"31.27024","category":"82","category_name":"东北菜","address":"杨浦区江浦路1353号(近控江路)"},{"poiid":"B2094655D26FA0FC479C","title":"阳明新城(三号门)","lon":"121.52201","lat":"31.26985","category":"47","category_name":"住宅区","address":"江浦路1188号"},{"poiid":"B2094757D16FA7FC439F","title":"陽朙新城","lon":"121.521419103","lat":"31.2691423955","category":"47","category_name":"住宅区","address":"上海市杨浦区江浦路1188号"},{"poiid":"B2094654D56EABF54893","title":"阳明商务中心","lon":"121.52094","lat":"31.26922","category":"46","category_name":"楼宇","address":"江浦路1188号"},{"poiid":"B2094654D56EABF5479E","title":"上海市杨浦区明园村幼儿园","lon":"121.52227","lat":"31.26945","category":"57","category_name":"幼儿园","address":"杨浦区江浦路1140弄33号"},{"poiid":"B2094757D469A0FA469A","title":"恬妈尚菜","lon":"121.52200699","lat":"31.27110003","category":"91","category_name":"台湾菜","address":"杨浦区周家嘴路2420号(近江浦路)"},{"poiid":"B2094654D56EABF54792","title":"阳明商务多功能会议室","lon":"121.52095","lat":"31.26922","category":"185","category_name":"会展中心","address":"江浦路1188号阳明商务中心1029"},{"poiid":"B2094654D56EABF5479B","title":"曼姝菲尔女子香芬养生馆茭白园路店","lon":"121.52111","lat":"31.26899","category":"148","category_name":"美容美发店","address":""},{"poiid":"B2094757D06AAAFF4893","title":"杨浦区教师进修学院附属中学","lon":"121.52025","lat":"31.27081","category":"253","category_name":"校园生活","address":"杨浦区江浦路1322号(近周家嘴路)"},{"poiid":"B2094757D164A5FF459C","title":"蒋家浜小街","lon":"121.5247951","lat":"31.269289398","category":"47","category_name":"住宅区","address":"上海杨浦区蒋家浜小街"},{"poiid":"B2094757D06FA5F4489A","title":"六艺茶馆(江浦路店)","lon":"121.52067","lat":"31.26832","category":"260","category_name":"其他","address":"杨浦区江浦路1159号(近周家嘴路)"},{"poiid":"B2094655D265A3F8449E","title":"佐登妮丝美容SPA生活馆江浦路店","lon":"121.52054","lat":"31.26803","category":"148","category_name":"美容美发店","address":"杨浦区江浦路1147号(近周家嘴路)"},{"poiid":"B209475CD268A2F5469C","title":"上海市交通大学附属新华医院","lon":"121.522819","lat":"31.269811","category":"162","category_name":"医院","address":"上海市 江浦路"},{"poiid":"B2094654DB6BA2FC4793","title":"自然美","lon":"121.52037","lat":"31.26848","category":"148","category_name":"美容美发店","address":"杨浦区本溪路19号(近凤城路)"},{"poiid":"B2094654D56EAAFC4792","title":"星舟广场","lon":"121.52077","lat":"31.27012","category":"201","category_name":"城市广场","address":""},{"poiid":"B2094757D168A2F9479E","title":"尕瓷滴窝窝","lon":"121.523114503","lat":"31.2694698024","category":"247","category_name":"餐饮美食","address":null},{"poiid":"B2094757D064A4FC409D","title":"浦皓园","lon":"121.520628","lat":"31.269756","category":"500","category_name":"未知分类","address":"上海江浦路1200号"},{"poiid":"B2094655D265A6F8449A","title":"格调星洲","lon":"121.51939","lat":"31.26927","category":"47","category_name":"住宅区","address":"格调星洲位于杨浦江浦路1199号"},{"poiid":"B2094655D26BA2F9439A","title":"提蓝桥","lon":"121.52231","lat":"31.2661","category":"260","category_name":"其他","address":"杨浦区江浦路"},{"poiid":"B2094757D065A0F8439C","title":"中国建设银行(星洲城支行)","lon":"121.52082","lat":"31.2683","category":"150","category_name":"银行","address":"杨浦区江浦路1177号(江浦路茭白园路)"},{"poiid":"B2094757D068A7FF499C","title":"娘家","lon":"121.52110043","lat":"31.269428401","category":"500","category_name":"未知分类","address":"上海许昌路双辽支路"},{"poiid":"B2094757D065A7FD4393","title":"杨浦大桥黄兴路闸口","lon":"121.524628655","lat":"31.2685308252","category":"260","category_name":"其他","address":"上海杨浦大桥黄兴路闸口"},{"poiid":"B2094757D068A3F5449D","title":"长阳路江浦路","lon":"121.52294158","lat":"31.265565872","category":"500","category_name":"未知分类","address":"上海长阳路江浦路"},{"poiid":"B2094757D465A1FB499E","title":"马记川味麻辣烫 江浦路店","lon":"121.520042054","lat":"31.270678793","category":"87","category_name":"特色／地方风味餐厅","address":"杨浦区江浦路(近中山北二路)"},{"poiid":"B2094654D56EABF94593","title":"快客No.1432","lon":"121.51973","lat":"31.27091","category":"117","category_name":"便民商店/便利店","address":"江浦路1283甲"},{"poiid":"B2094757D16FABFC459B","title":"江浦街道经济园区","lon":"121.51863691","lat":"31.270131691","category":"46","category_name":"楼宇","address":"上海周家嘴路2299号"},{"poiid":"B2094752D664AAFC489D","title":"巴黎春天","lon":"121.523984","lat":"31.268512","category":"249","category_name":"购物服务","address":"五角场巴黎春天"},{"poiid":"B2094655D265A2FB499E","title":"上海体育学院附属中学","lon":"121.52173","lat":"31.27177","category":"55","category_name":"中学","address":"周家嘴路2521"},{"poiid":"B2094757D66EAAFE469B","title":"东方证券长阳路营业部","lon":"121.5200073","lat":"31.270216618","category":"500","category_name":"未知分类","address":"上海长阳路1080号2号楼2、4楼"},{"poiid":"B2094655D26DA4F5449A","title":"阳明苑(西门)","lon":"121.52098","lat":"31.26866","category":"656","category_name":"大门","address":"江浦路1178弄"},{"poiid":"B2094655D36DA7FA409A","title":"周家嘴路许昌路","lon":"121.51726","lat":"31.26819","category":"38","category_name":"公交车站","address":""},{"poiid":"B2094654D56EABFB489D","title":"国大药房周家嘴路店","lon":"121.5182","lat":"31.26946","category":"162","category_name":"医院","address":"江浦路"}]