[{"poiid":"B2094757D06FA1FD4592","title":"上海外滩浦华大酒店","lon":"121.50274","lat":"31.25086","category":"213","category_name":"五星级宾馆","address":"上海市虹口区高阳路168号(北外滩地区 近东大名路)"},{"poiid":"B2094757D06FA7FA4993","title":"北外滩","lon":"121.50491413","lat":"31.250150968","category":"260","category_name":"其他","address":"虹口区高阳路(近东大名路)"},{"poiid":"B2094757D06FA5F94593","title":"前城酒家","lon":"121.50457","lat":"31.25358","category":"68","category_name":"快餐厅","address":"虹口区唐山路408号(近丹徒路)"},{"poiid":"B209475CD564A7F84392","title":"上海滩浦东香格里拉店","lon":"121.50058","lat":"31.23634","category":"119","category_name":"商场","address":"浦东富成路33号香格里拉酒店内大堂层"},{"poiid":"B2094654DA6FA7F8429D","title":"远洋大厦","lon":"121.503","lat":"31.2527","category":"46","category_name":"楼宇","address":"静安区长寿路(万航渡路口)"},{"poiid":"B2094757D068ABFF429C","title":"老船长酒吧","lon":"121.502755758","lat":"31.2507747333","category":"172","category_name":"酒吧","address":"虹口区高阳路168号外滩浦华大酒店(东长治路高阳路)"},{"poiid":"B2094757D06FA6F54893","title":"上海港国际客运中心","lon":"121.50271","lat":"31.24954","category":"35","category_name":"长途汽车站","address":"虹口区东大名路800号(近高阳路)"},{"poiid":"B2094750DA6FA7FB4198","title":"桔子水晶酒店","lon":"121.502227","lat":"31.252765","category":"251","category_name":"出行住宿","address":"上海市虹口区公平路369号"},{"poiid":"B2094757D068A3F54592","title":"金岸大厦","lon":"121.50537716","lat":"31.250616563","category":"46","category_name":"楼宇","address":"丰台学城海鹰路1号,3号"},{"poiid":"B2094757D068A0F9459E","title":"澄衷高级中学","lon":"121.50316","lat":"31.25529","category":"55","category_name":"中学","address":"虹口区东余杭路800号(近下海庙)"},{"poiid":"B2094757D068A6F4459F","title":"芳庭海鲜酒店","lon":"121.50299835","lat":"31.25","category":"88","category_name":"海鲜酒楼","address":"虹口区东大名路809号(近高阳路)"},{"poiid":"B2094757D068A7FE4598","title":"东大名路","lon":"121.504487","lat":"31.250967","category":"247","category_name":"餐饮美食","address":"上海东大名路"},{"poiid":"B2094654D56DA4FA409E","title":"高阳商务中心","lon":"121.50376","lat":"31.25102","category":"46","category_name":"楼宇","address":"虹口区东大名路879号"},{"poiid":"B2094757D069A0FC479D","title":"长青学校","lon":"121.502249","lat":"31.253862","category":"55","category_name":"中学","address":"虹口区唐山路333号(近高阳路)"},{"poiid":"B2094654D56DA4FB459E","title":"晟隆大厦","lon":"121.50245","lat":"31.25159","category":"46","category_name":"楼宇","address":"鲁尔大厦位于铁西兴华南街5号"},{"poiid":"B2094655D26FA6FC479D","title":"章氏 唐山店","lon":"121.50104949388","lat":"31.253911762853","category":"68","category_name":"快餐厅","address":"虹口区唐山路216号(近高阳路)"},{"poiid":"B2094654D56DA4FF4192","title":"丹徒住宅小区","lon":"121.50292","lat":"31.25338","category":"47","category_name":"住宅区","address":"丹徒路167弄1-30号"},{"poiid":"B2094654DA6FA7F84598","title":"北外滩开业园区","lon":"121.503","lat":"31.2531","category":"45","category_name":"产业园区","address":"东大名路391号"},{"poiid":"B2094757D068AAFC4698","title":"公平路唐山路","lon":"121.5008606","lat":"31.253434067","category":"500","category_name":"未知分类","address":"上海公平路唐山路"},{"poiid":"B2094757D06AA3FF499C","title":"中国海运","lon":"121.50300508","lat":"31.249953241","category":"46","category_name":"楼宇","address":"上海东大名路700号"},{"poiid":"B2094757D065A3FA4399","title":"晟隆大厦北楼","lon":"121.502421","lat":"31.252072","category":"46","category_name":"楼宇","address":"上海虹口区东长治路777号"},{"poiid":"B2094757D06AA7FA409D","title":"东长治路","lon":"121.5008371","lat":"31.250816012","category":"500","category_name":"未知分类","address":"上海东长治路"},{"poiid":"B2094654DA6FA7F84599","title":"华联集团大厦","lon":"121.503","lat":"31.2534","category":"46","category_name":"楼宇","address":"上海市虹口区东大名路359号"},{"poiid":"B2094757D16DABF44892","title":"香格里拉浦江楼","lon":"121.504036","lat":"31.252688","category":"247","category_name":"餐饮美食","address":"上海浦东富城路33号老楼3楼"},{"poiid":"B2094654D56DA4F9409D","title":"澄衷初级中学","lon":"121.50317","lat":"31.2518","category":"55","category_name":"中学","address":"虹口区东长治路770号"},{"poiid":"B2094654DB64ABFF459A","title":"晟隆大厦北楼管理处","lon":"121.5026","lat":"31.25218","category":"46","category_name":"楼宇","address":"东长治路777号1号楼208"},{"poiid":"B2094752D565A1F94699","title":"k11购物艺术中心","lon":"121.503207","lat":"31.254123","category":"247","category_name":"餐饮美食","address":null},{"poiid":"B2094757D068A3F5479F","title":"和泰玫瑰园","lon":"121.50043","lat":"31.251926","category":"500","category_name":"未知分类","address":"和泰玫瑰园位于虹口东长治路655号"},{"poiid":"B2094757D464A0F9459A","title":"台南担仔面","lon":"121.50247","lat":"31.25113","category":"91","category_name":"台湾菜","address":"虹口区高阳路168号外滩浦华大酒店2楼(近东长治路)"},{"poiid":"B2094757D16EA3F5459D","title":"小三饭店","lon":"121.50431","lat":"31.25237","category":"68","category_name":"快餐厅","address":"虹口区东长治路853号(近丹徒路)"},{"poiid":"B2094757D06AA2F4479B","title":"航交所","lon":"121.50562865","lat":"31.250870177","category":"500","category_name":"未知分类","address":"上海航交所"},{"poiid":"B2094757D069A1F4489D","title":"丹徒路小区","lon":"121.503836","lat":"31.253199","category":"47","category_name":"住宅区","address":"上海丹徒路"},{"poiid":"B2094654D56DA4FA479F","title":"长治大楼中房LBOX","lon":"121.50173","lat":"31.25219","category":"46","category_name":"楼宇","address":"高阳路233号"},{"poiid":"B2094655D26EA2FB4399","title":"祥光里(北门)","lon":"121.50354","lat":"31.25222","category":"47","category_name":"住宅区","address":"东长治路810弄1-101号"},{"poiid":"B2094654DB6BA3FF4999","title":"良友","lon":"121.50347","lat":"31.25313","category":"117","category_name":"便民商店/便利店","address":"丹徒路153"},{"poiid":"B2094654D56DA4FB459F","title":"万恒大厦","lon":"121.5018","lat":"31.25256","category":"46","category_name":"楼宇","address":"高阳路246"},{"poiid":"B2094757D66BA0FB439F","title":"苏州藏书羊肉馆 唐山路店","lon":"121.50388","lat":"31.25389","category":"86","category_name":"火锅店","address":"虹口区唐山路422号(丹徒路公平路间)"},{"poiid":"B2094655D26FA0F9459F","title":"祥光里","lon":"121.50369","lat":"31.25173","category":"47","category_name":"住宅区","address":"东长治路810弄1-101号"},{"poiid":"B2094757D66BA2FB419F","title":"松涛","lon":"121.502962","lat":"31.250636","category":"95","category_name":"日本料理","address":"虹口区高阳路168号上海外滩浦华大酒店2楼(近东长治路)"},{"poiid":"B2094757D06BA3FA4298","title":"帝海沈家门海鲜","lon":"121.50094874946","lat":"31.255188994862","category":"76","category_name":"上海菜","address":"虹口区东余杭路716号(东余杭路高阳路)"},{"poiid":"B2094655D26EA4F94698","title":"小鱼儿餐馆","lon":"121.50087331278","lat":"31.257012995841","category":"247","category_name":"餐饮美食","address":"虹口区保定路408号(近唐山路)"},{"poiid":"B2094655D26BA2F9479D","title":"唐山路高阳路","lon":"121.50148","lat":"31.25339","category":"38","category_name":"公交车站","address":""},{"poiid":"B2094654D56DA4F94192","title":"可的No.147","lon":"121.50192","lat":"31.25185","category":"117","category_name":"便民商店/便利店","address":"虹口区东长治路721号(近高阳路)"},{"poiid":"B2094757D169AAFF4892","title":"Jian Home","lon":"121.5025338","lat":"31.252522748","category":"500","category_name":"未知分类","address":null},{"poiid":"B2094757D065A3F4469B","title":"紫苏养身会所","lon":"121.501509044","lat":"31.2536483218","category":"148","category_name":"美容美发店","address":"上海四川北路2185号"},{"poiid":"B2094757D16EA4F8439B","title":"珊珊小笼","lon":"121.5012588","lat":"31.252850155","category":"247","category_name":"餐饮美食","address":"上海唐山路408号"},{"poiid":"B2094750DA6EA7F8479C","title":"北外滩公园","lon":"121.501632","lat":"31.252376","category":"250","category_name":"公园户外","address":"东大名路旅顺路口"},{"poiid":"B2094757D664A2FF4098","title":"赞铁板烧","lon":"121.50242","lat":"31.25135","category":"269","category_name":"烧烤","address":"高阳路168号外滩浦华大酒店近东大名路"},{"poiid":"B2094654D56DA4F8469F","title":"快客No.1387","lon":"121.50431","lat":"31.2528","category":"117","category_name":"便民商店/便利店","address":"东长治路867"},{"poiid":"B2094655D26CA1FF409E","title":"丹徒住宅小区(东门)","lon":"121.50334","lat":"31.25336","category":"47","category_name":"住宅区","address":"丹徒路167弄1-30号"},{"poiid":"B2094757D06FA1FD4592","title":"上海外滩浦华大酒店","lon":"121.50274","lat":"31.25086","category":"213","category_name":"五星级宾馆","address":"上海市虹口区高阳路168号(北外滩地区 近东大名路)"},{"poiid":"B2094757D06FA7FA4993","title":"北外滩","lon":"121.50491413","lat":"31.250150968","category":"260","category_name":"其他","address":"虹口区高阳路(近东大名路)"},{"poiid":"B2094757D06FA5F94593","title":"前城酒家","lon":"121.50457","lat":"31.25358","category":"68","category_name":"快餐厅","address":"虹口区唐山路408号(近丹徒路)"},{"poiid":"B209475CD564A7F84392","title":"上海滩浦东香格里拉店","lon":"121.50058","lat":"31.23634","category":"119","category_name":"商场","address":"浦东富成路33号香格里拉酒店内大堂层"},{"poiid":"B2094654DA6FA7F8429D","title":"远洋大厦","lon":"121.503","lat":"31.2527","category":"46","category_name":"楼宇","address":"静安区长寿路(万航渡路口)"},{"poiid":"B2094757D068ABFF429C","title":"老船长酒吧","lon":"121.502755758","lat":"31.2507747333","category":"172","category_name":"酒吧","address":"虹口区高阳路168号外滩浦华大酒店(东长治路高阳路)"},{"poiid":"B2094757D06FA6F54893","title":"上海港国际客运中心","lon":"121.50271","lat":"31.24954","category":"35","category_name":"长途汽车站","address":"虹口区东大名路800号(近高阳路)"},{"poiid":"B2094750DA6FA7FB4198","title":"桔子水晶酒店","lon":"121.502227","lat":"31.252765","category":"251","category_name":"出行住宿","address":"上海市虹口区公平路369号"},{"poiid":"B2094757D068A3F54592","title":"金岸大厦","lon":"121.50537716","lat":"31.250616563","category":"46","category_name":"楼宇","address":"丰台学城海鹰路1号,3号"},{"poiid":"B2094757D068A0F9459E","title":"澄衷高级中学","lon":"121.50316","lat":"31.25529","category":"55","category_name":"中学","address":"虹口区东余杭路800号(近下海庙)"},{"poiid":"B2094757D068A6F4459F","title":"芳庭海鲜酒店","lon":"121.50299835","lat":"31.25","category":"88","category_name":"海鲜酒楼","address":"虹口区东大名路809号(近高阳路)"},{"poiid":"B2094757D068A7FE4598","title":"东大名路","lon":"121.504487","lat":"31.250967","category":"247","category_name":"餐饮美食","address":"上海东大名路"},{"poiid":"B2094654D56DA4FA409E","title":"高阳商务中心","lon":"121.50376","lat":"31.25102","category":"46","category_name":"楼宇","address":"虹口区东大名路879号"},{"poiid":"B2094757D069A0FC479D","title":"长青学校","lon":"121.502249","lat":"31.253862","category":"55","category_name":"中学","address":"虹口区唐山路333号(近高阳路)"},{"poiid":"B2094654D56DA4FB459E","title":"晟隆大厦","lon":"121.50245","lat":"31.25159","category":"46","category_name":"楼宇","address":"鲁尔大厦位于铁西兴华南街5号"},{"poiid":"B2094655D26FA6FC479D","title":"章氏 唐山店","lon":"121.50104949388","lat":"31.253911762853","category":"68","category_name":"快餐厅","address":"虹口区唐山路216号(近高阳路)"},{"poiid":"B2094654D56DA4FF4192","title":"丹徒住宅小区","lon":"121.50292","lat":"31.25338","category":"47","category_name":"住宅区","address":"丹徒路167弄1-30号"},{"poiid":"B2094654DA6FA7F84598","title":"北外滩开业园区","lon":"121.503","lat":"31.2531","category":"45","category_name":"产业园区","address":"东大名路391号"},{"poiid":"B2094757D068AAFC4698","title":"公平路唐山路","lon":"121.5008606","lat":"31.253434067","category":"500","category_name":"未知分类","address":"上海公平路唐山路"},{"poiid":"B2094757D06AA3FF499C","title":"中国海运","lon":"121.50300508","lat":"31.249953241","category":"46","category_name":"楼宇","address":"上海东大名路700号"},{"poiid":"B2094757D065A3FA4399","title":"晟隆大厦北楼","lon":"121.502421","lat":"31.252072","category":"46","category_name":"楼宇","address":"上海虹口区东长治路777号"},{"poiid":"B2094757D06AA7FA409D","title":"东长治路","lon":"121.5008371","lat":"31.250816012","category":"500","category_name":"未知分类","address":"上海东长治路"},{"poiid":"B2094654DA6FA7F84599","title":"华联集团大厦","lon":"121.503","lat":"31.2534","category":"46","category_name":"楼宇","address":"上海市虹口区东大名路359号"},{"poiid":"B2094757D16DABF44892","title":"香格里拉浦江楼","lon":"121.504036","lat":"31.252688","category":"247","category_name":"餐饮美食","address":"上海浦东富城路33号老楼3楼"},{"poiid":"B2094654D56DA4F9409D","title":"澄衷初级中学","lon":"121.50317","lat":"31.2518","category":"55","category_name":"中学","address":"虹口区东长治路770号"},{"poiid":"B2094654DB64ABFF459A","title":"晟隆大厦北楼管理处","lon":"121.5026","lat":"31.25218","category":"46","category_name":"楼宇","address":"东长治路777号1号楼208"},{"poiid":"B2094752D565A1F94699","title":"k11购物艺术中心","lon":"121.503207","lat":"31.254123","category":"247","category_name":"餐饮美食","address":null},{"poiid":"B2094757D068A3F5479F","title":"和泰玫瑰园","lon":"121.50043","lat":"31.251926","category":"500","category_name":"未知分类","address":"和泰玫瑰园位于虹口东长治路655号"},{"poiid":"B2094757D464A0F9459A","title":"台南担仔面","lon":"121.50247","lat":"31.25113","category":"91","category_name":"台湾菜","address":"虹口区高阳路168号外滩浦华大酒店2楼(近东长治路)"},{"poiid":"B2094757D16EA3F5459D","title":"小三饭店","lon":"121.50431","lat":"31.25237","category":"68","category_name":"快餐厅","address":"虹口区东长治路853号(近丹徒路)"},{"poiid":"B2094757D06AA2F4479B","title":"航交所","lon":"121.50562865","lat":"31.250870177","category":"500","category_name":"未知分类","address":"上海航交所"},{"poiid":"B2094757D069A1F4489D","title":"丹徒路小区","lon":"121.503836","lat":"31.253199","category":"47","category_name":"住宅区","address":"上海丹徒路"},{"poiid":"B2094654D56DA4FA479F","title":"长治大楼中房LBOX","lon":"121.50173","lat":"31.25219","category":"46","category_name":"楼宇","address":"高阳路233号"},{"poiid":"B2094655D26EA2FB4399","title":"祥光里(北门)","lon":"121.50354","lat":"31.25222","category":"47","category_name":"住宅区","address":"东长治路810弄1-101号"},{"poiid":"B2094654DB6BA3FF4999","title":"良友","lon":"121.50347","lat":"31.25313","category":"117","category_name":"便民商店/便利店","address":"丹徒路153"},{"poiid":"B2094654D56DA4FB459F","title":"万恒大厦","lon":"121.5018","lat":"31.25256","category":"46","category_name":"楼宇","address":"高阳路246"},{"poiid":"B2094757D66BA0FB439F","title":"苏州藏书羊肉馆 唐山路店","lon":"121.50388","lat":"31.25389","category":"86","category_name":"火锅店","address":"虹口区唐山路422号(丹徒路公平路间)"},{"poiid":"B2094655D26FA0F9459F","title":"祥光里","lon":"121.50369","lat":"31.25173","category":"47","category_name":"住宅区","address":"东长治路810弄1-101号"},{"poiid":"B2094757D66BA2FB419F","title":"松涛","lon":"121.502962","lat":"31.250636","category":"95","category_name":"日本料理","address":"虹口区高阳路168号上海外滩浦华大酒店2楼(近东长治路)"},{"poiid":"B2094757D06BA3FA4298","title":"帝海沈家门海鲜","lon":"121.50094874946","lat":"31.255188994862","category":"76","category_name":"上海菜","address":"虹口区东余杭路716号(东余杭路高阳路)"},{"poiid":"B2094655D26EA4F94698","title":"小鱼儿餐馆","lon":"121.50087331278","lat":"31.257012995841","category":"247","category_name":"餐饮美食","address":"虹口区保定路408号(近唐山路)"},{"poiid":"B2094655D26BA2F9479D","title":"唐山路高阳路","lon":"121.50148","lat":"31.25339","category":"38","category_name":"公交车站","address":""},{"poiid":"B2094654D56DA4F94192","title":"可的No.147","lon":"121.50192","lat":"31.25185","category":"117","category_name":"便民商店/便利店","address":"虹口区东长治路721号(近高阳路)"},{"poiid":"B2094757D169AAFF4892","title":"Jian Home","lon":"121.5025338","lat":"31.252522748","category":"500","category_name":"未知分类","address":null},{"poiid":"B2094757D065A3F4469B","title":"紫苏养身会所","lon":"121.501509044","lat":"31.2536483218","category":"148","category_name":"美容美发店","address":"上海四川北路2185号"},{"poiid":"B2094757D16EA4F8439B","title":"珊珊小笼","lon":"121.5012588","lat":"31.252850155","category":"247","category_name":"餐饮美食","address":"上海唐山路408号"},{"poiid":"B2094750DA6EA7F8479C","title":"北外滩公园","lon":"121.501632","lat":"31.252376","category":"250","category_name":"公园户外","address":"东大名路旅顺路口"},{"poiid":"B2094757D664A2FF4098","title":"赞铁板烧","lon":"121.50242","lat":"31.25135","category":"269","category_name":"烧烤","address":"高阳路168号外滩浦华大酒店近东大名路"},{"poiid":"B2094654D56DA4F8469F","title":"快客No.1387","lon":"121.50431","lat":"31.2528","category":"117","category_name":"便民商店/便利店","address":"东长治路867"},{"poiid":"B2094655D26CA1FF409E","title":"丹徒住宅小区(东门)","lon":"121.50334","lat":"31.25336","category":"47","category_name":"住宅区","address":"丹徒路167弄1-30号"},{"poiid":"B2094757D06FA1FD4592","title":"上海外滩浦华大酒店","lon":"121.50274","lat":"31.25086","category":"213","category_name":"五星级宾馆","address":"上海市虹口区高阳路168号(北外滩地区 近东大名路)"},{"poiid":"B2094757D06FA7FA4993","title":"北外滩","lon":"121.50491413","lat":"31.250150968","category":"260","category_name":"其他","address":"虹口区高阳路(近东大名路)"},{"poiid":"B2094757D06FA5F94593","title":"前城酒家","lon":"121.50457","lat":"31.25358","category":"68","category_name":"快餐厅","address":"虹口区唐山路408号(近丹徒路)"},{"poiid":"B209475CD564A7F84392","title":"上海滩浦东香格里拉店","lon":"121.50058","lat":"31.23634","category":"119","category_name":"商场","address":"浦东富成路33号香格里拉酒店内大堂层"},{"poiid":"B2094654DA6FA7F8429D","title":"远洋大厦","lon":"121.503","lat":"31.2527","category":"46","category_name":"楼宇","address":"静安区长寿路(万航渡路口)"},{"poiid":"B2094757D068ABFF429C","title":"老船长酒吧","lon":"121.502755758","lat":"31.2507747333","category":"172","category_name":"酒吧","address":"虹口区高阳路168号外滩浦华大酒店(东长治路高阳路)"},{"poiid":"B2094757D06FA6F54893","title":"上海港国际客运中心","lon":"121.50271","lat":"31.24954","category":"35","category_name":"长途汽车站","address":"虹口区东大名路800号(近高阳路)"},{"poiid":"B2094750DA6FA7FB4198","title":"桔子水晶酒店","lon":"121.502227","lat":"31.252765","category":"251","category_name":"出行住宿","address":"上海市虹口区公平路369号"},{"poiid":"B2094757D068A3F54592","title":"金岸大厦","lon":"121.50537716","lat":"31.250616563","category":"46","category_name":"楼宇","address":"丰台学城海鹰路1号,3号"},{"poiid":"B2094757D068A0F9459E","title":"澄衷高级中学","lon":"121.50316","lat":"31.25529","category":"55","category_name":"中学","address":"虹口区东余杭路800号(近下海庙)"},{"poiid":"B2094757D068A6F4459F","title":"芳庭海鲜酒店","lon":"121.50299835","lat":"31.25","category":"88","category_name":"海鲜酒楼","address":"虹口区东大名路809号(近高阳路)"},{"poiid":"B2094757D068A7FE4598","title":"东大名路","lon":"121.504487","lat":"31.250967","category":"247","category_name":"餐饮美食","address":"上海东大名路"},{"poiid":"B2094654D56DA4FA409E","title":"高阳商务中心","lon":"121.50376","lat":"31.25102","category":"46","category_name":"楼宇","address":"虹口区东大名路879号"},{"poiid":"B2094757D069A0FC479D","title":"长青学校","lon":"121.502249","lat":"31.253862","category":"55","category_name":"中学","address":"虹口区唐山路333号(近高阳路)"},{"poiid":"B2094654D56DA4FB459E","title":"晟隆大厦","lon":"121.50245","lat":"31.25159","category":"46","category_name":"楼宇","address":"鲁尔大厦位于铁西兴华南街5号"},{"poiid":"B2094655D26FA6FC479D","title":"章氏 唐山店","lon":"121.50104949388","lat":"31.253911762853","category":"68","category_name":"快餐厅","address":"虹口区唐山路216号(近高阳路)"},{"poiid":"B2094654D56DA4FF4192","title":"丹徒住宅小区","lon":"121.50292","lat":"31.25338","category":"47","category_name":"住宅区","address":"丹徒路167弄1-30号"},{"poiid":"B2094654DA6FA7F84598","title":"北外滩开业园区","lon":"121.503","lat":"31.2531","category":"45","category_name":"产业园区","address":"东大名路391号"},{"poiid":"B2094757D068AAFC4698","title":"公平路唐山路","lon":"121.5008606","lat":"31.253434067","category":"500","category_name":"未知分类","address":"上海公平路唐山路"},{"poiid":"B2094757D06AA3FF499C","title":"中国海运","lon":"121.50300508","lat":"31.249953241","category":"46","category_name":"楼宇","address":"上海东大名路700号"},{"poiid":"B2094757D065A3FA4399","title":"晟隆大厦北楼","lon":"121.502421","lat":"31.252072","category":"46","category_name":"楼宇","address":"上海虹口区东长治路777号"},{"poiid":"B2094757D06AA7FA409D","title":"东长治路","lon":"121.5008371","lat":"31.250816012","category":"500","category_name":"未知分类","address":"上海东长治路"},{"poiid":"B2094654DA6FA7F84599","title":"华联集团大厦","lon":"121.503","lat":"31.2534","category":"46","category_name":"楼宇","address":"上海市虹口区东大名路359号"},{"poiid":"B2094757D16DABF44892","title":"香格里拉浦江楼","lon":"121.504036","lat":"31.252688","category":"247","category_name":"餐饮美食","address":"上海浦东富城路33号老楼3楼"},{"poiid":"B2094654D56DA4F9409D","title":"澄衷初级中学","lon":"121.50317","lat":"31.2518","category":"55","category_name":"中学","address":"虹口区东长治路770号"},{"poiid":"B2094654DB64ABFF459A","title":"晟隆大厦北楼管理处","lon":"121.5026","lat":"31.25218","category":"46","category_name":"楼宇","address":"东长治路777号1号楼208"},{"poiid":"B2094752D565A1F94699","title":"k11购物艺术中心","lon":"121.503207","lat":"31.254123","category":"247","category_name":"餐饮美食","address":null},{"poiid":"B2094757D068A3F5479F","title":"和泰玫瑰园","lon":"121.50043","lat":"31.251926","category":"500","category_name":"未知分类","address":"和泰玫瑰园位于虹口东长治路655号"},{"poiid":"B2094757D464A0F9459A","title":"台南担仔面","lon":"121.50247","lat":"31.25113","category":"91","category_name":"台湾菜","address":"虹口区高阳路168号外滩浦华大酒店2楼(近东长治路)"},{"poiid":"B2094757D16EA3F5459D","title":"小三饭店","lon":"121.50431","lat":"31.25237","category":"68","category_name":"快餐厅","address":"虹口区东长治路853号(近丹徒路)"},{"poiid":"B2094757D06AA2F4479B","title":"航交所","lon":"121.50562865","lat":"31.250870177","category":"500","category_name":"未知分类","address":"上海航交所"},{"poiid":"B2094757D069A1F4489D","title":"丹徒路小区","lon":"121.503836","lat":"31.253199","category":"47","category_name":"住宅区","address":"上海丹徒路"},{"poiid":"B2094654D56DA4FA479F","title":"长治大楼中房LBOX","lon":"121.50173","lat":"31.25219","category":"46","category_name":"楼宇","address":"高阳路233号"},{"poiid":"B2094655D26EA2FB4399","title":"祥光里(北门)","lon":"121.50354","lat":"31.25222","category":"47","category_name":"住宅区","address":"东长治路810弄1-101号"},{"poiid":"B2094654DB6BA3FF4999","title":"良友","lon":"121.50347","lat":"31.25313","category":"117","category_name":"便民商店/便利店","address":"丹徒路153"},{"poiid":"B2094654D56DA4FB459F","title":"万恒大厦","lon":"121.5018","lat":"31.25256","category":"46","category_name":"楼宇","address":"高阳路246"},{"poiid":"B2094757D66BA0FB439F","title":"苏州藏书羊肉馆 唐山路店","lon":"121.50388","lat":"31.25389","category":"86","category_name":"火锅店","address":"虹口区唐山路422号(丹徒路公平路间)"},{"poiid":"B2094655D26FA0F9459F","title":"祥光里","lon":"121.50369","lat":"31.25173","category":"47","category_name":"住宅区","address":"东长治路810弄1-101号"},{"poiid":"B2094757D66BA2FB419F","title":"松涛","lon":"121.502962","lat":"31.250636","category":"95","category_name":"日本料理","address":"虹口区高阳路168号上海外滩浦华大酒店2楼(近东长治路)"},{"poiid":"B2094757D06BA3FA4298","title":"帝海沈家门海鲜","lon":"121.50094874946","lat":"31.255188994862","category":"76","category_name":"上海菜","address":"虹口区东余杭路716号(东余杭路高阳路)"},{"poiid":"B2094655D26EA4F94698","title":"小鱼儿餐馆","lon":"121.50087331278","lat":"31.257012995841","category":"247","category_name":"餐饮美食","address":"虹口区保定路408号(近唐山路)"},{"poiid":"B2094655D26BA2F9479D","title":"唐山路高阳路","lon":"121.50148","lat":"31.25339","category":"38","category_name":"公交车站","address":""},{"poiid":"B2094654D56DA4F94192","title":"可的No.147","lon":"121.50192","lat":"31.25185","category":"117","category_name":"便民商店/便利店","address":"虹口区东长治路721号(近高阳路)"},{"poiid":"B2094757D169AAFF4892","title":"Jian Home","lon":"121.5025338","lat":"31.252522748","category":"500","category_name":"未知分类","address":null},{"poiid":"B2094757D065A3F4469B","title":"紫苏养身会所","lon":"121.501509044","lat":"31.2536483218","category":"148","category_name":"美容美发店","address":"上海四川北路2185号"},{"poiid":"B2094757D16EA4F8439B","title":"珊珊小笼","lon":"121.5012588","lat":"31.252850155","category":"247","category_name":"餐饮美食","address":"上海唐山路408号"},{"poiid":"B2094750DA6EA7F8479C","title":"北外滩公园","lon":"121.501632","lat":"31.252376","category":"250","category_name":"公园户外","address":"东大名路旅顺路口"},{"poiid":"B2094757D664A2FF4098","title":"赞铁板烧","lon":"121.50242","lat":"31.25135","category":"269","category_name":"烧烤","address":"高阳路168号外滩浦华大酒店近东大名路"},{"poiid":"B2094654D56DA4F8469F","title":"快客No.1387","lon":"121.50431","lat":"31.2528","category":"117","category_name":"便民商店/便利店","address":"东长治路867"},{"poiid":"B2094655D26CA1FF409E","title":"丹徒住宅小区(东门)","lon":"121.50334","lat":"31.25336","category":"47","category_name":"住宅区","address":"丹徒路167弄1-30号"},{"poiid":"B2094757D06FA1FD4592","title":"上海外滩浦华大酒店","lon":"121.50274","lat":"31.25086","category":"213","category_name":"五星级宾馆","address":"上海市虹口区高阳路168号(北外滩地区 近东大名路)"},{"poiid":"B2094757D06FA7FA4993","title":"北外滩","lon":"121.50491413","lat":"31.250150968","category":"260","category_name":"其他","address":"虹口区高阳路(近东大名路)"},{"poiid":"B2094757D06FA5F94593","title":"前城酒家","lon":"121.50457","lat":"31.25358","category":"68","category_name":"快餐厅","address":"虹口区唐山路408号(近丹徒路)"},{"poiid":"B209475CD564A7F84392","title":"上海滩浦东香格里拉店","lon":"121.50058","lat":"31.23634","category":"119","category_name":"商场","address":"浦东富成路33号香格里拉酒店内大堂层"},{"poiid":"B2094654DA6FA7F8429D","title":"远洋大厦","lon":"121.503","lat":"31.2527","category":"46","category_name":"楼宇","address":"静安区长寿路(万航渡路口)"},{"poiid":"B2094757D068ABFF429C","title":"老船长酒吧","lon":"121.502755758","lat":"31.2507747333","category":"172","category_name":"酒吧","address":"虹口区高阳路168号外滩浦华大酒店(东长治路高阳路)"},{"poiid":"B2094757D06FA6F54893","title":"上海港国际客运中心","lon":"121.50271","lat":"31.24954","category":"35","category_name":"长途汽车站","address":"虹口区东大名路800号(近高阳路)"},{"poiid":"B2094750DA6FA7FB4198","title":"桔子水晶酒店","lon":"121.502227","lat":"31.252765","category":"251","category_name":"出行住宿","address":"上海市虹口区公平路369号"},{"poiid":"B2094757D068A3F54592","title":"金岸大厦","lon":"121.50537716","lat":"31.250616563","category":"46","category_name":"楼宇","address":"丰台学城海鹰路1号,3号"},{"poiid":"B2094757D068A0F9459E","title":"澄衷高级中学","lon":"121.50316","lat":"31.25529","category":"55","category_name":"中学","address":"虹口区东余杭路800号(近下海庙)"},{"poiid":"B2094757D068A6F4459F","title":"芳庭海鲜酒店","lon":"121.50299835","lat":"31.25","category":"88","category_name":"海鲜酒楼","address":"虹口区东大名路809号(近高阳路)"},{"poiid":"B2094757D068A7FE4598","title":"东大名路","lon":"121.504487","lat":"31.250967","category":"247","category_name":"餐饮美食","address":"上海东大名路"},{"poiid":"B2094654D56DA4FA409E","title":"高阳商务中心","lon":"121.50376","lat":"31.25102","category":"46","category_name":"楼宇","address":"虹口区东大名路879号"},{"poiid":"B2094757D069A0FC479D","title":"长青学校","lon":"121.502249","lat":"31.253862","category":"55","category_name":"中学","address":"虹口区唐山路333号(近高阳路)"},{"poiid":"B2094654D56DA4FB459E","title":"晟隆大厦","lon":"121.50245","lat":"31.25159","category":"46","category_name":"楼宇","address":"鲁尔大厦位于铁西兴华南街5号"},{"poiid":"B2094655D26FA6FC479D","title":"章氏 唐山店","lon":"121.50104949388","lat":"31.253911762853","category":"68","category_name":"快餐厅","address":"虹口区唐山路216号(近高阳路)"},{"poiid":"B2094654D56DA4FF4192","title":"丹徒住宅小区","lon":"121.50292","lat":"31.25338","category":"47","category_name":"住宅区","address":"丹徒路167弄1-30号"},{"poiid":"B2094654DA6FA7F84598","title":"北外滩开业园区","lon":"121.503","lat":"31.2531","category":"45","category_name":"产业园区","address":"东大名路391号"},{"poiid":"B2094757D068AAFC4698","title":"公平路唐山路","lon":"121.5008606","lat":"31.253434067","category":"500","category_name":"未知分类","address":"上海公平路唐山路"},{"poiid":"B2094757D06AA3FF499C","title":"中国海运","lon":"121.50300508","lat":"31.249953241","category":"46","category_name":"楼宇","address":"上海东大名路700号"},{"poiid":"B2094757D065A3FA4399","title":"晟隆大厦北楼","lon":"121.502421","lat":"31.252072","category":"46","category_name":"楼宇","address":"上海虹口区东长治路777号"},{"poiid":"B2094757D06AA7FA409D","title":"东长治路","lon":"121.5008371","lat":"31.250816012","category":"500","category_name":"未知分类","address":"上海东长治路"},{"poiid":"B2094654DA6FA7F84599","title":"华联集团大厦","lon":"121.503","lat":"31.2534","category":"46","category_name":"楼宇","address":"上海市虹口区东大名路359号"},{"poiid":"B2094757D16DABF44892","title":"香格里拉浦江楼","lon":"121.504036","lat":"31.252688","category":"247","category_name":"餐饮美食","address":"上海浦东富城路33号老楼3楼"},{"poiid":"B2094654D56DA4F9409D","title":"澄衷初级中学","lon":"121.50317","lat":"31.2518","category":"55","category_name":"中学","address":"虹口区东长治路770号"},{"poiid":"B2094654DB64ABFF459A","title":"晟隆大厦北楼管理处","lon":"121.5026","lat":"31.25218","category":"46","category_name":"楼宇","address":"东长治路777号1号楼208"},{"poiid":"B2094752D565A1F94699","title":"k11购物艺术中心","lon":"121.503207","lat":"31.254123","category":"247","category_name":"餐饮美食","address":null},{"poiid":"B2094757D068A3F5479F","title":"和泰玫瑰园","lon":"121.50043","lat":"31.251926","category":"500","category_name":"未知分类","address":"和泰玫瑰园位于虹口东长治路655号"},{"poiid":"B2094757D464A0F9459A","title":"台南担仔面","lon":"121.50247","lat":"31.25113","category":"91","category_name":"台湾菜","address":"虹口区高阳路168号外滩浦华大酒店2楼(近东长治路)"},{"poiid":"B2094757D16EA3F5459D","title":"小三饭店","lon":"121.50431","lat":"31.25237","category":"68","category_name":"快餐厅","address":"虹口区东长治路853号(近丹徒路)"},{"poiid":"B2094757D06AA2F4479B","title":"航交所","lon":"121.50562865","lat":"31.250870177","category":"500","category_name":"未知分类","address":"上海航交所"},{"poiid":"B2094757D069A1F4489D","title":"丹徒路小区","lon":"121.503836","lat":"31.253199","category":"47","category_name":"住宅区","address":"上海丹徒路"},{"poiid":"B2094654D56DA4FA479F","title":"长治大楼中房LBOX","lon":"121.50173","lat":"31.25219","category":"46","category_name":"楼宇","address":"高阳路233号"},{"poiid":"B2094655D26EA2FB4399","title":"祥光里(北门)","lon":"121.50354","lat":"31.25222","category":"47","category_name":"住宅区","address":"东长治路810弄1-101号"},{"poiid":"B2094654DB6BA3FF4999","title":"良友","lon":"121.50347","lat":"31.25313","category":"117","category_name":"便民商店/便利店","address":"丹徒路153"},{"poiid":"B2094654D56DA4FB459F","title":"万恒大厦","lon":"121.5018","lat":"31.25256","category":"46","category_name":"楼宇","address":"高阳路246"},{"poiid":"B2094757D66BA0FB439F","title":"苏州藏书羊肉馆 唐山路店","lon":"121.50388","lat":"31.25389","category":"86","category_name":"火锅店","address":"虹口区唐山路422号(丹徒路公平路间)"},{"poiid":"B2094655D26FA0F9459F","title":"祥光里","lon":"121.50369","lat":"31.25173","category":"47","category_name":"住宅区","address":"东长治路810弄1-101号"},{"poiid":"B2094757D66BA2FB419F","title":"松涛","lon":"121.502962","lat":"31.250636","category":"95","category_name":"日本料理","address":"虹口区高阳路168号上海外滩浦华大酒店2楼(近东长治路)"},{"poiid":"B2094757D06BA3FA4298","title":"帝海沈家门海鲜","lon":"121.50094874946","lat":"31.255188994862","category":"76","category_name":"上海菜","address":"虹口区东余杭路716号(东余杭路高阳路)"},{"poiid":"B2094655D26EA4F94698","title":"小鱼儿餐馆","lon":"121.50087331278","lat":"31.257012995841","category":"247","category_name":"餐饮美食","address":"虹口区保定路408号(近唐山路)"},{"poiid":"B2094655D26BA2F9479D","title":"唐山路高阳路","lon":"121.50148","lat":"31.25339","category":"38","category_name":"公交车站","address":""},{"poiid":"B2094654D56DA4F94192","title":"可的No.147","lon":"121.50192","lat":"31.25185","category":"117","category_name":"便民商店/便利店","address":"虹口区东长治路721号(近高阳路)"},{"poiid":"B2094757D169AAFF4892","title":"Jian Home","lon":"121.5025338","lat":"31.252522748","category":"500","category_name":"未知分类","address":null},{"poiid":"B2094757D065A3F4469B","title":"紫苏养身会所","lon":"121.501509044","lat":"31.2536483218","category":"148","category_name":"美容美发店","address":"上海四川北路2185号"},{"poiid":"B2094757D16EA4F8439B","title":"珊珊小笼","lon":"121.5012588","lat":"31.252850155","category":"247","category_name":"餐饮美食","address":"上海唐山路408号"},{"poiid":"B2094750DA6EA7F8479C","title":"北外滩公园","lon":"121.501632","lat":"31.252376","category":"250","category_name":"公园户外","address":"东大名路旅顺路口"},{"poiid":"B2094757D664A2FF4098","title":"赞铁板烧","lon":"121.50242","lat":"31.25135","category":"269","category_name":"烧烤","address":"高阳路168号外滩浦华大酒店近东大名路"},{"poiid":"B2094654D56DA4F8469F","title":"快客No.1387","lon":"121.50431","lat":"31.2528","category":"117","category_name":"便民商店/便利店","address":"东长治路867"},{"poiid":"B2094655D26CA1FF409E","title":"丹徒住宅小区(东门)","lon":"121.50334","lat":"31.25336","category":"47","category_name":"住宅区","address":"丹徒路167弄1-30号"}]