[{"poiid":"B2094654D56EA0F5489A","title":"同济大学(1号门)","lon":"121.51099","lat":"31.28125","category":"52","category_name":"高等院校","address":"杨浦区彰武路69号"},{"poiid":"B2094757D06FA5F54493","title":"同济戴斯大酒店","lon":"121.50742","lat":"31.28193","category":"217","category_name":"旅馆招待所","address":"杨浦区彰武路50号(近四平路)"},{"poiid":"B2094757D06FA7FF4992","title":"咕咕猫咖啡餐馆(彰武路店)","lon":"121.50783","lat":"31.28138","category":"94","category_name":"西餐厅","address":"杨浦区彰武路18号同济联合广场E楼206室(近四平路)"},{"poiid":"B2094757D06FA5FA4398","title":"杨浦区教师进修学院","lon":"121.5124424","lat":"31.279319668","category":"253","category_name":"校园生活","address":"上海抚顺路340号"},{"poiid":"B2094757D06FA7F9469D","title":"同济新村","lon":"121.50906","lat":"31.281937","category":"47","category_name":"住宅区","address":"上海市杨浦区彰武路13号(近四平路)"},{"poiid":"B2094757D06FA5FE449B","title":"骏丰国际财富广场","lon":"121.508","lat":"31.28","category":"119","category_name":"商场","address":"杨浦区大连路1599号骏丰国际广场内(近四平路)"},{"poiid":"B2094757D065A4F5419F","title":"鞍山路抚顺路","lon":"121.510213557","lat":"31.2779602159","category":"500","category_name":"未知分类","address":"上海鞍山路抚顺路"},{"poiid":"B2094654D56CA0FC4293","title":"莱克大厦","lon":"121.510659","lat":"31.278984","category":"46","category_name":"楼宇","address":"上海市杨浦区大连路1548号"},{"poiid":"B2094757D66DABFE489C","title":"唐朝大酒店","lon":"121.5088421","lat":"31.279450611","category":"500","category_name":"未知分类","address":"上海市四平路"},{"poiid":"B2094757D065A7F8479F","title":"同济大学 留德预备部","lon":"121.51239013","lat":"31.282131195","category":"52","category_name":"高等院校","address":"上海杨浦区彰武路100号"},{"poiid":"B2094757D06FA5F5479B","title":"莫卡 MoreCa Cafe &amp; Bar","lon":"121.507575989","lat":"31.2817420959","category":"260","category_name":"其他","address":"杨浦区彰武路18号同济联合广场B楼(近四平路)"},{"poiid":"B2094757D169A1F84098","title":"妙亭涮羊肉","lon":"121.512509603","lat":"31.2801730261","category":"86","category_name":"火锅店","address":"杨浦区抚顺路263号(近铁岭路)"},{"poiid":"B2094757D16BA3FD419C","title":"同济大学彰武校区宿舍6号楼","lon":"121.5131464","lat":"31.281310049","category":"500","category_name":"未知分类","address":"上海杨浦区彰武路100号"},{"poiid":"B2094757D068A5F44398","title":"大秦富贵(彰武路店)","lon":"121.507450843","lat":"31.2805954779","category":"68","category_name":"快餐厅","address":"杨浦区彰武路18号同济联合广场1楼(近四平路)"},{"poiid":"B2094654D56EA7FE409C","title":"铁岭中学","lon":"121.51239","lat":"31.27947","category":"55","category_name":"中学","address":"杨浦区鞍山路300号(鞍山路鞍山支路)"},{"poiid":"B2094751D469A7FA409F","title":"上海交通大学医学院附属新华医院","lon":"121.5100586","lat":"31.2797893","category":"162","category_name":"医院","address":null},{"poiid":"B2094654D56EA0F54793","title":"同济迎宾馆","lon":"121.51093","lat":"31.28172","category":"250","category_name":"公园户外","address":"杨浦区彰武路69号(近四平路)"},{"poiid":"B2094757D16FA6FF4599","title":"小天鹅麻辣烫","lon":"121.511811","lat":"31.280789","category":"68","category_name":"快餐厅","address":"杨浦区铁岭路117号(近彰武路)"},{"poiid":"B2094654DB6BA3F4409E","title":"小山东 阜新路店","lon":"121.508263054","lat":"31.279889793","category":"257","category_name":"中餐厅","address":"上海杨浦区阜新路同济新村(近鞍山路)  "},{"poiid":"B2094654D56EA7FD489F","title":"鞍山八村住宅小区","lon":"121.51059","lat":"31.28061","category":"47","category_name":"住宅区","address":"彰武路"},{"poiid":"B2094655D26DABF5439E","title":"干杯楼","lon":"121.50795","lat":"31.28152","category":"71","category_name":"四川菜","address":"杨浦区彰武路18号同济联合广场E座(近四平路)"},{"poiid":"B2094757D06BABF8449B","title":"宝德莱(四平路店)","lon":"121.50798034","lat":"31.281553268","category":"95","category_name":"日本料理","address":"上海四平路彰武路同济联合广场二楼"},{"poiid":"B2094655D36CA6FF4193","title":"阜新路","lon":"121.50838","lat":"31.27995","category":"38","category_name":"公交车站","address":""},{"poiid":"B2094757D16DA2FA459B","title":"吉祥食坊","lon":"121.51092","lat":"31.28171","category":"68","category_name":"快餐厅","address":"杨浦区彰武路同济大学正门对面(近四平路)"},{"poiid":"B2094655D26BA2F8429D","title":"铁岭路","lon":"121.51233","lat":"31.28042","category":"38","category_name":"公交车站","address":""},{"poiid":"B2094757D165A4FC489E","title":"农工商(鞍山支路店)","lon":"121.51016","lat":"31.28041","category":"117","category_name":"便民商店/便利店","address":"杨浦区鞍山支路21号(近阜新路)"},{"poiid":"B2094757D16DA7FA4393","title":"同济大学研究生一号楼","lon":"121.51331517","lat":"31.281972624","category":"500","category_name":"未知分类","address":"上海杨浦区彰武路100号校内"},{"poiid":"B2094757D065AAFD4599","title":"杭州第四中学","lon":"121.510745953","lat":"31.2808029392","category":"55","category_name":"中学","address":"杭州市河坊街396号"},{"poiid":"B2094757D065A1FD499E","title":"铁岭中学羽毛球馆","lon":"121.51011","lat":"31.27877","category":"220","category_name":"运动场所","address":"杨浦区鞍山路(近鞍山支路)"},{"poiid":"B2094654D56EA7FD4498","title":"同济大学第一附属中学","lon":"121.50985","lat":"31.27906","category":"55","category_name":"中学","address":"鞍山路300"},{"poiid":"B2094654D56EA7FD4399","title":"康源美食","lon":"121.51021137545","lat":"31.278297500009","category":"76","category_name":"上海菜","address":"杨浦区鞍山路220号(近抚顺路)"},{"poiid":"B2094757D064A4F4429E","title":"上海特色小笼店","lon":"121.512729","lat":"31.280161","category":"68","category_name":"快餐厅","address":"杨浦区铁岭路90弄小区门口"},{"poiid":"B2094757D469A5F9469F","title":"巴山夜雨","lon":"121.50798","lat":"31.28155","category":"170","category_name":"KTV","address":"杨浦区彰武路18号同济联合广场107室(近四平路)"},{"poiid":"B209475DD26DA6FA419B","title":"同济大学彰武路校区北大楼","lon":"121.510604","lat":"31.279415","category":"500","category_name":"未知分类","address":"上海市 杨浦区彰武路100号同济大学彰武路校区内"},{"poiid":"B2094757D065A7F84299","title":"建筑书吧","lon":"121.511128","lat":"31.281265","category":"181","category_name":"图书馆","address":"海上海创意园 飞虹路568弄17号三楼"},{"poiid":"B2094757D16CA0FA4798","title":"彰武大楼","lon":"121.50936","lat":"31.28104","category":"47","category_name":"住宅区","address":"上海杨浦区彰武路72号"},{"poiid":"B2094655D26CA6F9479F","title":"彰武大楼(北门)","lon":"121.50978","lat":"31.28101","category":"47","category_name":"住宅区","address":"彰武路72"},{"poiid":"B2094654D56EA7FD4592","title":"良友金伴No.207","lon":"121.50948","lat":"31.28106","category":"117","category_name":"便民商店/便利店","address":"彰武路68"},{"poiid":"B2094654D56EA0F54699","title":"铁岭路110弄住宅小区","lon":"121.51229","lat":"31.2812","category":"47","category_name":"住宅区","address":"铁岭路110弄"},{"poiid":"B2094750DB6FA4F84693","title":"聚点韩国时尚烧烤主题餐厅","lon":"121.508682","lat":"31.281763","category":"247","category_name":"餐饮美食","address":"杨浦区彰武路20号209室"},{"poiid":"B2094751D26CAAFA439C","title":"创新瑞典全球巡展上海站","lon":"121.508791","lat":"31.281006","category":"183","category_name":"展览馆","address":"杨浦区阜新路281号同济大学创意设计学院"},{"poiid":"B2094654D56EA7FD4992","title":"鞍山八村住宅小区(2号门)","lon":"121.51227","lat":"31.28023","category":"47","category_name":"住宅区","address":""},{"poiid":"B2094655D26CA6FC4398","title":"鞍山路310弄小区","lon":"121.50904","lat":"31.27964","category":"47","category_name":"住宅区","address":"鞍山路310弄"},{"poiid":"B2094654D56EA7FC429B","title":"申之春(阜新路)","lon":"121.50917","lat":"31.28116","category":"148","category_name":"美容美发店","address":""},{"poiid":"B2094654DB6BA3F4409A","title":"同济新村(南一门)","lon":"121.50933","lat":"31.28185","category":"47","category_name":"住宅区","address":""},{"poiid":"B2094654D56EA0F54893","title":"东方网点彰武店","lon":"121.50999","lat":"31.28124","category":"176","category_name":"网吧","address":"杨浦区彰武路63号(近四平路)"},{"poiid":"B2094757DA6FA3F44292","title":"牛藏烧肉","lon":"121.507630999998","lat":"31.281704","category":"95","category_name":"日本料理","address":"杨浦区彰武路24号(四平路口)"},{"poiid":"B2094757D16DAAF5489A","title":"阜新路184弄10号","lon":"121.509643555","lat":"31.2803115845","category":"500","category_name":"未知分类","address":"上海杨浦区阜新路鞍山路"},{"poiid":"B2094757D065A1FB489F","title":"天天加班无奈中","lon":"121.5111162","lat":"31.280761317","category":"500","category_name":"未知分类","address":"上海没有加班工资的某处"},{"poiid":"B2094757D06AA0F44499","title":"福井日本料理 同济店","lon":"121.5079032","lat":"31.2818297","category":"95","category_name":"日本料理","address":"普陀区延长西路350号3楼(近宜川路)"},{"poiid":"B2094654D56EA0F5489A","title":"同济大学(1号门)","lon":"121.51099","lat":"31.28125","category":"52","category_name":"高等院校","address":"杨浦区彰武路69号"},{"poiid":"B2094757D06FA5F54493","title":"同济戴斯大酒店","lon":"121.50742","lat":"31.28193","category":"217","category_name":"旅馆招待所","address":"杨浦区彰武路50号(近四平路)"},{"poiid":"B2094757D06FA7FF4992","title":"咕咕猫咖啡餐馆(彰武路店)","lon":"121.50783","lat":"31.28138","category":"94","category_name":"西餐厅","address":"杨浦区彰武路18号同济联合广场E楼206室(近四平路)"},{"poiid":"B2094757D06FA5FA4398","title":"杨浦区教师进修学院","lon":"121.5124424","lat":"31.279319668","category":"253","category_name":"校园生活","address":"上海抚顺路340号"},{"poiid":"B2094757D06FA7F9469D","title":"同济新村","lon":"121.50906","lat":"31.281937","category":"47","category_name":"住宅区","address":"上海市杨浦区彰武路13号(近四平路)"},{"poiid":"B2094757D06FA5FE449B","title":"骏丰国际财富广场","lon":"121.508","lat":"31.28","category":"119","category_name":"商场","address":"杨浦区大连路1599号骏丰国际广场内(近四平路)"},{"poiid":"B2094757D065A4F5419F","title":"鞍山路抚顺路","lon":"121.510213557","lat":"31.2779602159","category":"500","category_name":"未知分类","address":"上海鞍山路抚顺路"},{"poiid":"B2094654D56CA0FC4293","title":"莱克大厦","lon":"121.510659","lat":"31.278984","category":"46","category_name":"楼宇","address":"上海市杨浦区大连路1548号"},{"poiid":"B2094757D66DABFE489C","title":"唐朝大酒店","lon":"121.5088421","lat":"31.279450611","category":"500","category_name":"未知分类","address":"上海市四平路"},{"poiid":"B2094757D065A7F8479F","title":"同济大学 留德预备部","lon":"121.51239013","lat":"31.282131195","category":"52","category_name":"高等院校","address":"上海杨浦区彰武路100号"},{"poiid":"B2094757D06FA5F5479B","title":"莫卡 MoreCa Cafe &amp; Bar","lon":"121.507575989","lat":"31.2817420959","category":"260","category_name":"其他","address":"杨浦区彰武路18号同济联合广场B楼(近四平路)"},{"poiid":"B2094757D169A1F84098","title":"妙亭涮羊肉","lon":"121.512509603","lat":"31.2801730261","category":"86","category_name":"火锅店","address":"杨浦区抚顺路263号(近铁岭路)"},{"poiid":"B2094757D16BA3FD419C","title":"同济大学彰武校区宿舍6号楼","lon":"121.5131464","lat":"31.281310049","category":"500","category_name":"未知分类","address":"上海杨浦区彰武路100号"},{"poiid":"B2094757D068A5F44398","title":"大秦富贵(彰武路店)","lon":"121.507450843","lat":"31.2805954779","category":"68","category_name":"快餐厅","address":"杨浦区彰武路18号同济联合广场1楼(近四平路)"},{"poiid":"B2094654D56EA7FE409C","title":"铁岭中学","lon":"121.51239","lat":"31.27947","category":"55","category_name":"中学","address":"杨浦区鞍山路300号(鞍山路鞍山支路)"},{"poiid":"B2094751D469A7FA409F","title":"上海交通大学医学院附属新华医院","lon":"121.5100586","lat":"31.2797893","category":"162","category_name":"医院","address":null},{"poiid":"B2094654D56EA0F54793","title":"同济迎宾馆","lon":"121.51093","lat":"31.28172","category":"250","category_name":"公园户外","address":"杨浦区彰武路69号(近四平路)"},{"poiid":"B2094757D16FA6FF4599","title":"小天鹅麻辣烫","lon":"121.511811","lat":"31.280789","category":"68","category_name":"快餐厅","address":"杨浦区铁岭路117号(近彰武路)"},{"poiid":"B2094654DB6BA3F4409E","title":"小山东 阜新路店","lon":"121.508263054","lat":"31.279889793","category":"257","category_name":"中餐厅","address":"上海杨浦区阜新路同济新村(近鞍山路)  "},{"poiid":"B2094654D56EA7FD489F","title":"鞍山八村住宅小区","lon":"121.51059","lat":"31.28061","category":"47","category_name":"住宅区","address":"彰武路"},{"poiid":"B2094655D26DABF5439E","title":"干杯楼","lon":"121.50795","lat":"31.28152","category":"71","category_name":"四川菜","address":"杨浦区彰武路18号同济联合广场E座(近四平路)"},{"poiid":"B2094757D06BABF8449B","title":"宝德莱(四平路店)","lon":"121.50798034","lat":"31.281553268","category":"95","category_name":"日本料理","address":"上海四平路彰武路同济联合广场二楼"},{"poiid":"B2094655D36CA6FF4193","title":"阜新路","lon":"121.50838","lat":"31.27995","category":"38","category_name":"公交车站","address":""},{"poiid":"B2094757D16DA2FA459B","title":"吉祥食坊","lon":"121.51092","lat":"31.28171","category":"68","category_name":"快餐厅","address":"杨浦区彰武路同济大学正门对面(近四平路)"},{"poiid":"B2094655D26BA2F8429D","title":"铁岭路","lon":"121.51233","lat":"31.28042","category":"38","category_name":"公交车站","address":""},{"poiid":"B2094757D165A4FC489E","title":"农工商(鞍山支路店)","lon":"121.51016","lat":"31.28041","category":"117","category_name":"便民商店/便利店","address":"杨浦区鞍山支路21号(近阜新路)"},{"poiid":"B2094757D16DA7FA4393","title":"同济大学研究生一号楼","lon":"121.51331517","lat":"31.281972624","category":"500","category_name":"未知分类","address":"上海杨浦区彰武路100号校内"},{"poiid":"B2094757D065AAFD4599","title":"杭州第四中学","lon":"121.510745953","lat":"31.2808029392","category":"55","category_name":"中学","address":"杭州市河坊街396号"},{"poiid":"B2094757D065A1FD499E","title":"铁岭中学羽毛球馆","lon":"121.51011","lat":"31.27877","category":"220","category_name":"运动场所","address":"杨浦区鞍山路(近鞍山支路)"},{"poiid":"B2094654D56EA7FD4498","title":"同济大学第一附属中学","lon":"121.50985","lat":"31.27906","category":"55","category_name":"中学","address":"鞍山路300"},{"poiid":"B2094654D56EA7FD4399","title":"康源美食","lon":"121.51021137545","lat":"31.278297500009","category":"76","category_name":"上海菜","address":"杨浦区鞍山路220号(近抚顺路)"},{"poiid":"B2094757D064A4F4429E","title":"上海特色小笼店","lon":"121.512729","lat":"31.280161","category":"68","category_name":"快餐厅","address":"杨浦区铁岭路90弄小区门口"},{"poiid":"B2094757D469A5F9469F","title":"巴山夜雨","lon":"121.50798","lat":"31.28155","category":"170","category_name":"KTV","address":"杨浦区彰武路18号同济联合广场107室(近四平路)"},{"poiid":"B209475DD26DA6FA419B","title":"同济大学彰武路校区北大楼","lon":"121.510604","lat":"31.279415","category":"500","category_name":"未知分类","address":"上海市 杨浦区彰武路100号同济大学彰武路校区内"},{"poiid":"B2094757D065A7F84299","title":"建筑书吧","lon":"121.511128","lat":"31.281265","category":"181","category_name":"图书馆","address":"海上海创意园 飞虹路568弄17号三楼"},{"poiid":"B2094757D16CA0FA4798","title":"彰武大楼","lon":"121.50936","lat":"31.28104","category":"47","category_name":"住宅区","address":"上海杨浦区彰武路72号"},{"poiid":"B2094655D26CA6F9479F","title":"彰武大楼(北门)","lon":"121.50978","lat":"31.28101","category":"47","category_name":"住宅区","address":"彰武路72"},{"poiid":"B2094654D56EA7FD4592","title":"良友金伴No.207","lon":"121.50948","lat":"31.28106","category":"117","category_name":"便民商店/便利店","address":"彰武路68"},{"poiid":"B2094654D56EA0F54699","title":"铁岭路110弄住宅小区","lon":"121.51229","lat":"31.2812","category":"47","category_name":"住宅区","address":"铁岭路110弄"},{"poiid":"B2094750DB6FA4F84693","title":"聚点韩国时尚烧烤主题餐厅","lon":"121.508682","lat":"31.281763","category":"247","category_name":"餐饮美食","address":"杨浦区彰武路20号209室"},{"poiid":"B2094751D26CAAFA439C","title":"创新瑞典全球巡展上海站","lon":"121.508791","lat":"31.281006","category":"183","category_name":"展览馆","address":"杨浦区阜新路281号同济大学创意设计学院"},{"poiid":"B2094654D56EA7FD4992","title":"鞍山八村住宅小区(2号门)","lon":"121.51227","lat":"31.28023","category":"47","category_name":"住宅区","address":""},{"poiid":"B2094655D26CA6FC4398","title":"鞍山路310弄小区","lon":"121.50904","lat":"31.27964","category":"47","category_name":"住宅区","address":"鞍山路310弄"},{"poiid":"B2094654D56EA7FC429B","title":"申之春(阜新路)","lon":"121.50917","lat":"31.28116","category":"148","category_name":"美容美发店","address":""},{"poiid":"B2094654DB6BA3F4409A","title":"同济新村(南一门)","lon":"121.50933","lat":"31.28185","category":"47","category_name":"住宅区","address":""},{"poiid":"B2094654D56EA0F54893","title":"东方网点彰武店","lon":"121.50999","lat":"31.28124","category":"176","category_name":"网吧","address":"杨浦区彰武路63号(近四平路)"},{"poiid":"B2094757DA6FA3F44292","title":"牛藏烧肉","lon":"121.507630999998","lat":"31.281704","category":"95","category_name":"日本料理","address":"杨浦区彰武路24号(四平路口)"},{"poiid":"B2094757D16DAAF5489A","title":"阜新路184弄10号","lon":"121.509643555","lat":"31.2803115845","category":"500","category_name":"未知分类","address":"上海杨浦区阜新路鞍山路"},{"poiid":"B2094757D065A1FB489F","title":"天天加班无奈中","lon":"121.5111162","lat":"31.280761317","category":"500","category_name":"未知分类","address":"上海没有加班工资的某处"},{"poiid":"B2094757D06AA0F44499","title":"福井日本料理 同济店","lon":"121.5079032","lat":"31.2818297","category":"95","category_name":"日本料理","address":"普陀区延长西路350号3楼(近宜川路)"},{"poiid":"B2094654D56EA0F5489A","title":"同济大学(1号门)","lon":"121.51099","lat":"31.28125","category":"52","category_name":"高等院校","address":"杨浦区彰武路69号"},{"poiid":"B2094757D06FA5F54493","title":"同济戴斯大酒店","lon":"121.50742","lat":"31.28193","category":"217","category_name":"旅馆招待所","address":"杨浦区彰武路50号(近四平路)"},{"poiid":"B2094757D06FA7FF4992","title":"咕咕猫咖啡餐馆(彰武路店)","lon":"121.50783","lat":"31.28138","category":"94","category_name":"西餐厅","address":"杨浦区彰武路18号同济联合广场E楼206室(近四平路)"},{"poiid":"B2094757D06FA5FA4398","title":"杨浦区教师进修学院","lon":"121.5124424","lat":"31.279319668","category":"253","category_name":"校园生活","address":"上海抚顺路340号"},{"poiid":"B2094757D06FA7F9469D","title":"同济新村","lon":"121.50906","lat":"31.281937","category":"47","category_name":"住宅区","address":"上海市杨浦区彰武路13号(近四平路)"},{"poiid":"B2094757D06FA5FE449B","title":"骏丰国际财富广场","lon":"121.508","lat":"31.28","category":"119","category_name":"商场","address":"杨浦区大连路1599号骏丰国际广场内(近四平路)"},{"poiid":"B2094757D065A4F5419F","title":"鞍山路抚顺路","lon":"121.510213557","lat":"31.2779602159","category":"500","category_name":"未知分类","address":"上海鞍山路抚顺路"},{"poiid":"B2094654D56CA0FC4293","title":"莱克大厦","lon":"121.510659","lat":"31.278984","category":"46","category_name":"楼宇","address":"上海市杨浦区大连路1548号"},{"poiid":"B2094757D66DABFE489C","title":"唐朝大酒店","lon":"121.5088421","lat":"31.279450611","category":"500","category_name":"未知分类","address":"上海市四平路"},{"poiid":"B2094757D065A7F8479F","title":"同济大学 留德预备部","lon":"121.51239013","lat":"31.282131195","category":"52","category_name":"高等院校","address":"上海杨浦区彰武路100号"},{"poiid":"B2094757D06FA5F5479B","title":"莫卡 MoreCa Cafe &amp; Bar","lon":"121.507575989","lat":"31.2817420959","category":"260","category_name":"其他","address":"杨浦区彰武路18号同济联合广场B楼(近四平路)"},{"poiid":"B2094757D169A1F84098","title":"妙亭涮羊肉","lon":"121.512509603","lat":"31.2801730261","category":"86","category_name":"火锅店","address":"杨浦区抚顺路263号(近铁岭路)"},{"poiid":"B2094757D16BA3FD419C","title":"同济大学彰武校区宿舍6号楼","lon":"121.5131464","lat":"31.281310049","category":"500","category_name":"未知分类","address":"上海杨浦区彰武路100号"},{"poiid":"B2094757D068A5F44398","title":"大秦富贵(彰武路店)","lon":"121.507450843","lat":"31.2805954779","category":"68","category_name":"快餐厅","address":"杨浦区彰武路18号同济联合广场1楼(近四平路)"},{"poiid":"B2094654D56EA7FE409C","title":"铁岭中学","lon":"121.51239","lat":"31.27947","category":"55","category_name":"中学","address":"杨浦区鞍山路300号(鞍山路鞍山支路)"},{"poiid":"B2094751D469A7FA409F","title":"上海交通大学医学院附属新华医院","lon":"121.5100586","lat":"31.2797893","category":"162","category_name":"医院","address":null},{"poiid":"B2094654D56EA0F54793","title":"同济迎宾馆","lon":"121.51093","lat":"31.28172","category":"250","category_name":"公园户外","address":"杨浦区彰武路69号(近四平路)"},{"poiid":"B2094757D16FA6FF4599","title":"小天鹅麻辣烫","lon":"121.511811","lat":"31.280789","category":"68","category_name":"快餐厅","address":"杨浦区铁岭路117号(近彰武路)"},{"poiid":"B2094654DB6BA3F4409E","title":"小山东 阜新路店","lon":"121.508263054","lat":"31.279889793","category":"257","category_name":"中餐厅","address":"上海杨浦区阜新路同济新村(近鞍山路)  "},{"poiid":"B2094654D56EA7FD489F","title":"鞍山八村住宅小区","lon":"121.51059","lat":"31.28061","category":"47","category_name":"住宅区","address":"彰武路"},{"poiid":"B2094655D26DABF5439E","title":"干杯楼","lon":"121.50795","lat":"31.28152","category":"71","category_name":"四川菜","address":"杨浦区彰武路18号同济联合广场E座(近四平路)"},{"poiid":"B2094757D06BABF8449B","title":"宝德莱(四平路店)","lon":"121.50798034","lat":"31.281553268","category":"95","category_name":"日本料理","address":"上海四平路彰武路同济联合广场二楼"},{"poiid":"B2094655D36CA6FF4193","title":"阜新路","lon":"121.50838","lat":"31.27995","category":"38","category_name":"公交车站","address":""},{"poiid":"B2094757D16DA2FA459B","title":"吉祥食坊","lon":"121.51092","lat":"31.28171","category":"68","category_name":"快餐厅","address":"杨浦区彰武路同济大学正门对面(近四平路)"},{"poiid":"B2094655D26BA2F8429D","title":"铁岭路","lon":"121.51233","lat":"31.28042","category":"38","category_name":"公交车站","address":""},{"poiid":"B2094757D165A4FC489E","title":"农工商(鞍山支路店)","lon":"121.51016","lat":"31.28041","category":"117","category_name":"便民商店/便利店","address":"杨浦区鞍山支路21号(近阜新路)"},{"poiid":"B2094757D16DA7FA4393","title":"同济大学研究生一号楼","lon":"121.51331517","lat":"31.281972624","category":"500","category_name":"未知分类","address":"上海杨浦区彰武路100号校内"},{"poiid":"B2094757D065AAFD4599","title":"杭州第四中学","lon":"121.510745953","lat":"31.2808029392","category":"55","category_name":"中学","address":"杭州市河坊街396号"},{"poiid":"B2094757D065A1FD499E","title":"铁岭中学羽毛球馆","lon":"121.51011","lat":"31.27877","category":"220","category_name":"运动场所","address":"杨浦区鞍山路(近鞍山支路)"},{"poiid":"B2094654D56EA7FD4498","title":"同济大学第一附属中学","lon":"121.50985","lat":"31.27906","category":"55","category_name":"中学","address":"鞍山路300"},{"poiid":"B2094654D56EA7FD4399","title":"康源美食","lon":"121.51021137545","lat":"31.278297500009","category":"76","category_name":"上海菜","address":"杨浦区鞍山路220号(近抚顺路)"},{"poiid":"B2094757D064A4F4429E","title":"上海特色小笼店","lon":"121.512729","lat":"31.280161","category":"68","category_name":"快餐厅","address":"杨浦区铁岭路90弄小区门口"},{"poiid":"B2094757D469A5F9469F","title":"巴山夜雨","lon":"121.50798","lat":"31.28155","category":"170","category_name":"KTV","address":"杨浦区彰武路18号同济联合广场107室(近四平路)"},{"poiid":"B209475DD26DA6FA419B","title":"同济大学彰武路校区北大楼","lon":"121.510604","lat":"31.279415","category":"500","category_name":"未知分类","address":"上海市 杨浦区彰武路100号同济大学彰武路校区内"},{"poiid":"B2094757D065A7F84299","title":"建筑书吧","lon":"121.511128","lat":"31.281265","category":"181","category_name":"图书馆","address":"海上海创意园 飞虹路568弄17号三楼"},{"poiid":"B2094757D16CA0FA4798","title":"彰武大楼","lon":"121.50936","lat":"31.28104","category":"47","category_name":"住宅区","address":"上海杨浦区彰武路72号"},{"poiid":"B2094655D26CA6F9479F","title":"彰武大楼(北门)","lon":"121.50978","lat":"31.28101","category":"47","category_name":"住宅区","address":"彰武路72"},{"poiid":"B2094654D56EA7FD4592","title":"良友金伴No.207","lon":"121.50948","lat":"31.28106","category":"117","category_name":"便民商店/便利店","address":"彰武路68"},{"poiid":"B2094654D56EA0F54699","title":"铁岭路110弄住宅小区","lon":"121.51229","lat":"31.2812","category":"47","category_name":"住宅区","address":"铁岭路110弄"},{"poiid":"B2094750DB6FA4F84693","title":"聚点韩国时尚烧烤主题餐厅","lon":"121.508682","lat":"31.281763","category":"247","category_name":"餐饮美食","address":"杨浦区彰武路20号209室"},{"poiid":"B2094751D26CAAFA439C","title":"创新瑞典全球巡展上海站","lon":"121.508791","lat":"31.281006","category":"183","category_name":"展览馆","address":"杨浦区阜新路281号同济大学创意设计学院"},{"poiid":"B2094654D56EA7FD4992","title":"鞍山八村住宅小区(2号门)","lon":"121.51227","lat":"31.28023","category":"47","category_name":"住宅区","address":""},{"poiid":"B2094655D26CA6FC4398","title":"鞍山路310弄小区","lon":"121.50904","lat":"31.27964","category":"47","category_name":"住宅区","address":"鞍山路310弄"},{"poiid":"B2094654D56EA7FC429B","title":"申之春(阜新路)","lon":"121.50917","lat":"31.28116","category":"148","category_name":"美容美发店","address":""},{"poiid":"B2094654DB6BA3F4409A","title":"同济新村(南一门)","lon":"121.50933","lat":"31.28185","category":"47","category_name":"住宅区","address":""},{"poiid":"B2094654D56EA0F54893","title":"东方网点彰武店","lon":"121.50999","lat":"31.28124","category":"176","category_name":"网吧","address":"杨浦区彰武路63号(近四平路)"},{"poiid":"B2094757DA6FA3F44292","title":"牛藏烧肉","lon":"121.507630999998","lat":"31.281704","category":"95","category_name":"日本料理","address":"杨浦区彰武路24号(四平路口)"},{"poiid":"B2094757D16DAAF5489A","title":"阜新路184弄10号","lon":"121.509643555","lat":"31.2803115845","category":"500","category_name":"未知分类","address":"上海杨浦区阜新路鞍山路"},{"poiid":"B2094757D065A1FB489F","title":"天天加班无奈中","lon":"121.5111162","lat":"31.280761317","category":"500","category_name":"未知分类","address":"上海没有加班工资的某处"},{"poiid":"B2094757D06AA0F44499","title":"福井日本料理 同济店","lon":"121.5079032","lat":"31.2818297","category":"95","category_name":"日本料理","address":"普陀区延长西路350号3楼(近宜川路)"},{"poiid":"B2094654D56EA0F5489A","title":"同济大学(1号门)","lon":"121.51099","lat":"31.28125","category":"52","category_name":"高等院校","address":"杨浦区彰武路69号"},{"poiid":"B2094757D06FA5F54493","title":"同济戴斯大酒店","lon":"121.50742","lat":"31.28193","category":"217","category_name":"旅馆招待所","address":"杨浦区彰武路50号(近四平路)"},{"poiid":"B2094757D06FA7FF4992","title":"咕咕猫咖啡餐馆(彰武路店)","lon":"121.50783","lat":"31.28138","category":"94","category_name":"西餐厅","address":"杨浦区彰武路18号同济联合广场E楼206室(近四平路)"},{"poiid":"B2094757D06FA5FA4398","title":"杨浦区教师进修学院","lon":"121.5124424","lat":"31.279319668","category":"253","category_name":"校园生活","address":"上海抚顺路340号"},{"poiid":"B2094757D06FA7F9469D","title":"同济新村","lon":"121.50906","lat":"31.281937","category":"47","category_name":"住宅区","address":"上海市杨浦区彰武路13号(近四平路)"},{"poiid":"B2094757D06FA5FE449B","title":"骏丰国际财富广场","lon":"121.508","lat":"31.28","category":"119","category_name":"商场","address":"杨浦区大连路1599号骏丰国际广场内(近四平路)"},{"poiid":"B2094757D065A4F5419F","title":"鞍山路抚顺路","lon":"121.510213557","lat":"31.2779602159","category":"500","category_name":"未知分类","address":"上海鞍山路抚顺路"},{"poiid":"B2094654D56CA0FC4293","title":"莱克大厦","lon":"121.510659","lat":"31.278984","category":"46","category_name":"楼宇","address":"上海市杨浦区大连路1548号"},{"poiid":"B2094757D66DABFE489C","title":"唐朝大酒店","lon":"121.5088421","lat":"31.279450611","category":"500","category_name":"未知分类","address":"上海市四平路"},{"poiid":"B2094757D065A7F8479F","title":"同济大学 留德预备部","lon":"121.51239013","lat":"31.282131195","category":"52","category_name":"高等院校","address":"上海杨浦区彰武路100号"},{"poiid":"B2094757D06FA5F5479B","title":"莫卡 MoreCa Cafe &amp; Bar","lon":"121.507575989","lat":"31.2817420959","category":"260","category_name":"其他","address":"杨浦区彰武路18号同济联合广场B楼(近四平路)"},{"poiid":"B2094757D169A1F84098","title":"妙亭涮羊肉","lon":"121.512509603","lat":"31.2801730261","category":"86","category_name":"火锅店","address":"杨浦区抚顺路263号(近铁岭路)"},{"poiid":"B2094757D16BA3FD419C","title":"同济大学彰武校区宿舍6号楼","lon":"121.5131464","lat":"31.281310049","category":"500","category_name":"未知分类","address":"上海杨浦区彰武路100号"},{"poiid":"B2094757D068A5F44398","title":"大秦富贵(彰武路店)","lon":"121.507450843","lat":"31.2805954779","category":"68","category_name":"快餐厅","address":"杨浦区彰武路18号同济联合广场1楼(近四平路)"},{"poiid":"B2094654D56EA7FE409C","title":"铁岭中学","lon":"121.51239","lat":"31.27947","category":"55","category_name":"中学","address":"杨浦区鞍山路300号(鞍山路鞍山支路)"},{"poiid":"B2094751D469A7FA409F","title":"上海交通大学医学院附属新华医院","lon":"121.5100586","lat":"31.2797893","category":"162","category_name":"医院","address":null},{"poiid":"B2094654D56EA0F54793","title":"同济迎宾馆","lon":"121.51093","lat":"31.28172","category":"250","category_name":"公园户外","address":"杨浦区彰武路69号(近四平路)"},{"poiid":"B2094757D16FA6FF4599","title":"小天鹅麻辣烫","lon":"121.511811","lat":"31.280789","category":"68","category_name":"快餐厅","address":"杨浦区铁岭路117号(近彰武路)"},{"poiid":"B2094654DB6BA3F4409E","title":"小山东 阜新路店","lon":"121.508263054","lat":"31.279889793","category":"257","category_name":"中餐厅","address":"上海杨浦区阜新路同济新村(近鞍山路)  "},{"poiid":"B2094654D56EA7FD489F","title":"鞍山八村住宅小区","lon":"121.51059","lat":"31.28061","category":"47","category_name":"住宅区","address":"彰武路"},{"poiid":"B2094655D26DABF5439E","title":"干杯楼","lon":"121.50795","lat":"31.28152","category":"71","category_name":"四川菜","address":"杨浦区彰武路18号同济联合广场E座(近四平路)"},{"poiid":"B2094757D06BABF8449B","title":"宝德莱(四平路店)","lon":"121.50798034","lat":"31.281553268","category":"95","category_name":"日本料理","address":"上海四平路彰武路同济联合广场二楼"},{"poiid":"B2094655D36CA6FF4193","title":"阜新路","lon":"121.50838","lat":"31.27995","category":"38","category_name":"公交车站","address":""},{"poiid":"B2094757D16DA2FA459B","title":"吉祥食坊","lon":"121.51092","lat":"31.28171","category":"68","category_name":"快餐厅","address":"杨浦区彰武路同济大学正门对面(近四平路)"},{"poiid":"B2094655D26BA2F8429D","title":"铁岭路","lon":"121.51233","lat":"31.28042","category":"38","category_name":"公交车站","address":""},{"poiid":"B2094757D165A4FC489E","title":"农工商(鞍山支路店)","lon":"121.51016","lat":"31.28041","category":"117","category_name":"便民商店/便利店","address":"杨浦区鞍山支路21号(近阜新路)"},{"poiid":"B2094757D16DA7FA4393","title":"同济大学研究生一号楼","lon":"121.51331517","lat":"31.281972624","category":"500","category_name":"未知分类","address":"上海杨浦区彰武路100号校内"},{"poiid":"B2094757D065AAFD4599","title":"杭州第四中学","lon":"121.510745953","lat":"31.2808029392","category":"55","category_name":"中学","address":"杭州市河坊街396号"},{"poiid":"B2094757D065A1FD499E","title":"铁岭中学羽毛球馆","lon":"121.51011","lat":"31.27877","category":"220","category_name":"运动场所","address":"杨浦区鞍山路(近鞍山支路)"},{"poiid":"B2094654D56EA7FD4498","title":"同济大学第一附属中学","lon":"121.50985","lat":"31.27906","category":"55","category_name":"中学","address":"鞍山路300"},{"poiid":"B2094654D56EA7FD4399","title":"康源美食","lon":"121.51021137545","lat":"31.278297500009","category":"76","category_name":"上海菜","address":"杨浦区鞍山路220号(近抚顺路)"},{"poiid":"B2094757D064A4F4429E","title":"上海特色小笼店","lon":"121.512729","lat":"31.280161","category":"68","category_name":"快餐厅","address":"杨浦区铁岭路90弄小区门口"},{"poiid":"B2094757D469A5F9469F","title":"巴山夜雨","lon":"121.50798","lat":"31.28155","category":"170","category_name":"KTV","address":"杨浦区彰武路18号同济联合广场107室(近四平路)"},{"poiid":"B209475DD26DA6FA419B","title":"同济大学彰武路校区北大楼","lon":"121.510604","lat":"31.279415","category":"500","category_name":"未知分类","address":"上海市 杨浦区彰武路100号同济大学彰武路校区内"},{"poiid":"B2094757D065A7F84299","title":"建筑书吧","lon":"121.511128","lat":"31.281265","category":"181","category_name":"图书馆","address":"海上海创意园 飞虹路568弄17号三楼"},{"poiid":"B2094757D16CA0FA4798","title":"彰武大楼","lon":"121.50936","lat":"31.28104","category":"47","category_name":"住宅区","address":"上海杨浦区彰武路72号"},{"poiid":"B2094655D26CA6F9479F","title":"彰武大楼(北门)","lon":"121.50978","lat":"31.28101","category":"47","category_name":"住宅区","address":"彰武路72"},{"poiid":"B2094654D56EA7FD4592","title":"良友金伴No.207","lon":"121.50948","lat":"31.28106","category":"117","category_name":"便民商店/便利店","address":"彰武路68"},{"poiid":"B2094654D56EA0F54699","title":"铁岭路110弄住宅小区","lon":"121.51229","lat":"31.2812","category":"47","category_name":"住宅区","address":"铁岭路110弄"},{"poiid":"B2094750DB6FA4F84693","title":"聚点韩国时尚烧烤主题餐厅","lon":"121.508682","lat":"31.281763","category":"247","category_name":"餐饮美食","address":"杨浦区彰武路20号209室"},{"poiid":"B2094751D26CAAFA439C","title":"创新瑞典全球巡展上海站","lon":"121.508791","lat":"31.281006","category":"183","category_name":"展览馆","address":"杨浦区阜新路281号同济大学创意设计学院"},{"poiid":"B2094654D56EA7FD4992","title":"鞍山八村住宅小区(2号门)","lon":"121.51227","lat":"31.28023","category":"47","category_name":"住宅区","address":""},{"poiid":"B2094655D26CA6FC4398","title":"鞍山路310弄小区","lon":"121.50904","lat":"31.27964","category":"47","category_name":"住宅区","address":"鞍山路310弄"},{"poiid":"B2094654D56EA7FC429B","title":"申之春(阜新路)","lon":"121.50917","lat":"31.28116","category":"148","category_name":"美容美发店","address":""},{"poiid":"B2094654DB6BA3F4409A","title":"同济新村(南一门)","lon":"121.50933","lat":"31.28185","category":"47","category_name":"住宅区","address":""},{"poiid":"B2094654D56EA0F54893","title":"东方网点彰武店","lon":"121.50999","lat":"31.28124","category":"176","category_name":"网吧","address":"杨浦区彰武路63号(近四平路)"},{"poiid":"B2094757DA6FA3F44292","title":"牛藏烧肉","lon":"121.507630999998","lat":"31.281704","category":"95","category_name":"日本料理","address":"杨浦区彰武路24号(四平路口)"},{"poiid":"B2094757D16DAAF5489A","title":"阜新路184弄10号","lon":"121.509643555","lat":"31.2803115845","category":"500","category_name":"未知分类","address":"上海杨浦区阜新路鞍山路"},{"poiid":"B2094757D065A1FB489F","title":"天天加班无奈中","lon":"121.5111162","lat":"31.280761317","category":"500","category_name":"未知分类","address":"上海没有加班工资的某处"},{"poiid":"B2094757D06AA0F44499","title":"福井日本料理 同济店","lon":"121.5079032","lat":"31.2818297","category":"95","category_name":"日本料理","address":"普陀区延长西路350号3楼(近宜川路)"}]