[{"poiid":"B2094654DB65A6FA429E","title":"上海长途客运南站","lon":"121.43361","lat":"31.15276","category":"35","category_name":"长途汽车站","address":"徐汇区石龙路666号(近柳州路)"},{"poiid":"B2094655D36CA1FD4492","title":"石龙路地铁站","lon":"121.44431","lat":"31.15736","category":"36","category_name":"地铁站","address":"上海轨道交通 三号线 轨交石龙路站 轻轨 3"},{"poiid":"B2094757D06FA1F84399","title":"上海南站候车室","lon":"121.43352508","lat":"31.152164459","category":"22","category_name":"火车站","address":"上海南站"},{"poiid":"B2094757D06FA7F94893","title":"柳州螺蛳粉 石龙路店","lon":"121.44338","lat":"31.15687","category":"257","category_name":"中餐厅","address":"徐汇区石龙路121号(近3号线石龙站)"},{"poiid":"B2094757D469A0FB429C","title":"肯德基 上海南站店 KFC","lon":"121.434433054","lat":"31.153030793","category":"68","category_name":"快餐厅","address":"石龙路750-3号银泰购物中心南2-A1近龙川北路"},{"poiid":"B2094757D068A6FF4593","title":"正大综艺摄影棚","lon":"121.43657","lat":"31.15854","category":"500","category_name":"未知分类","address":"徐汇区老沪闵路166号(近漕宝路地铁站)"},{"poiid":"B2094757D06BA3FC4592","title":"桔子摄影","lon":"121.43903099","lat":"31.154246876","category":"500","category_name":"未知分类","address":"上海市徐汇区石龙路411弄18号3楼"},{"poiid":"B2094757D06FA5F44492","title":"呷哺呷哺 徐汇盛泰店","lon":"121.43451","lat":"31.153133","category":"86","category_name":"火锅店","address":"徐汇区石龙路750号-3号地B2楼A区2-A5号商铺(近石龙路)"},{"poiid":"B2094757D06AA7F94292","title":"德林酸菜鱼(罗城路店)","lon":"121.435704","lat":"31.152392","category":"86","category_name":"火锅店","address":"上海市徐汇区罗城路429号"},{"poiid":"B2094757D16CA6F84693","title":"沪闵高架南站上匝道","lon":"121.43315058","lat":"31.164494146","category":"500","category_name":"未知分类","address":"上海市徐汇区漕宝路"},{"poiid":"B2094750D06CA1FD429C","title":"新石器烤肉","lon":"121.43589","lat":"31.15396","category":"68","category_name":"快餐厅","address":"徐汇区石龙路750号上海南站地下商场南馆B2楼A区南2-A16铺"},{"poiid":"B2094654DB65A1F44193","title":"东泉小区","lon":"121.44322","lat":"31.156372","category":"47","category_name":"住宅区","address":"东泉路50弄1-30号,64弄11-16号,104弄1-33号"},{"poiid":"B2094757D464A4F9499D","title":"禾绿回转寿司 上海南站店","lon":"121.434433054","lat":"31.153030793","category":"95","category_name":"日本料理","address":"徐汇区沪闵路9001-3号银泰购物中心南商场2-A15号铺(近上海南站)"},{"poiid":"B2094750D26EA3FC479F","title":"徐家汇地铁站","lon":"121.439998","lat":"31.156708","category":"36","category_name":"地铁站","address":null},{"poiid":"B2094655D26AA0F9419F","title":"地铁石龙路站","lon":"121.44113","lat":"31.15672","category":"36","category_name":"地铁站","address":""},{"poiid":"B2094655D36DA6FE4492","title":"石龙路","lon":"121.44113","lat":"31.15672","category":"38","category_name":"公交车站","address":""},{"poiid":"B2094654DB6CA6FB459D","title":"三江小区","lon":"121.44025","lat":"31.164818","category":"47","category_name":"住宅区","address":"上海徐汇区三江路301弄"},{"poiid":"B2094757D465A7F5419A","title":"巴贝拉 上海南站店 Babela's Kitchen","lon":"121.434433054","lat":"31.153030793","category":"247","category_name":"餐饮美食","address":"石龙路750-3号银泰购物中心南2-A17近龙川北路"},{"poiid":"B2094757D06BA6FC4298","title":"上海汽车南站","lon":"121.43401","lat":"31.152771","category":"35","category_name":"长途汽车站","address":"上海市徐汇区石龙路666号"},{"poiid":"B2094757D464ABF84393","title":"吉野家 上海南站店","lon":"121.434433054","lat":"31.153019793","category":"95","category_name":"日本料理","address":"徐汇区沪闵路9001-3号银泰购物中心南商场内(近上海南站)"},{"poiid":"B2094757D168A7FE449C","title":"上海南动车运用所","lon":"121.4371464","lat":"31.1605879","category":"500","category_name":"未知分类","address":"上海市徐汇区南宁路661号"},{"poiid":"B2094654DA65AAFF4592","title":"保利星苑","lon":"121.43556","lat":"31.164545","category":"47","category_name":"住宅区","address":"上海市徐汇区宾阳路28弄"},{"poiid":"B2094750D26DA7FF479C","title":"万体馆","lon":"121.43970054","lat":"31.15793687","category":"500","category_name":"未知分类","address":null},{"poiid":"B2094750DA6EABFC469C","title":"徐家汇美罗城","lon":"121.4346","lat":"31.165288","category":"500","category_name":"未知分类","address":null},{"poiid":"B2094757D464ABF94498","title":"棒约翰比萨 上海南站店 Papa John's Pizza","lon":"121.434433054","lat":"31.153030793","category":"94","category_name":"西餐厅","address":"徐汇区石龙路750-3号银泰购物中心南2-A8号(近上海南站)"},{"poiid":"B2094654DA65AAFF4599","title":"上海正大综艺电视制作有限公司","lon":"121.43714","lat":"31.15896","category":"252","category_name":"楼宇机构","address":"老沪闵路166"},{"poiid":"B209475DD26CAAFC489D","title":"馨逸公寓","lon":"121.4356","lat":"31.159698","category":"47","category_name":"住宅区","address":"上海市 上海市徐汇区宾南路36弄"},{"poiid":"B2094454D268A7FD459A","title":"龙猫咖啡1号店","lon":"121.439781","lat":"31.151071","category":"247","category_name":"餐饮美食","address":"上海市 上海市石龙路581号"},{"poiid":"B2094654DA65A6F94899","title":"上海沪申五官科医院","lon":"121.44297","lat":"31.15646","category":"162","category_name":"医院","address":"徐汇区石龙路269号(东泉路石龙路)"},{"poiid":"B209475CD66CA6F94698","title":"馨逸公寓","lon":"121.440589","lat":"31.160362","category":"47","category_name":"住宅区","address":"上海市 徐汇区宾南路36弄"},{"poiid":"B2094654DA65AAF84098","title":"乾骏大厦","lon":"121.43819","lat":"31.164591","category":"47","category_name":"住宅区","address":"宾阳路62弄1-4"},{"poiid":"B2094655D26FA6FE449C","title":"上岛咖啡(石龙路)","lon":"121.43614","lat":"31.15385","category":"260","category_name":"其他","address":"徐汇区石龙路567号(近上海南站)"},{"poiid":"B2094757D465A6FA489A","title":"天香麻辣工坊","lon":"121.434433054","lat":"31.153030793","category":"247","category_name":"餐饮美食","address":"徐汇区沪闵路9001-3号银泰购物中心南商场B1楼(近上海南站)"},{"poiid":"B2094655D265ABFA449A","title":"钦州路烧烤摊","lon":"121.43185","lat":"31.16248","category":"68","category_name":"快餐厅","address":"徐汇区钦州路111弄门口(近冠生园路)"},{"poiid":"B2094757D069A5F44392","title":"上海光大会展","lon":"121.43766058","lat":"31.163745131","category":"500","category_name":"未知分类","address":"上海市徐汇区康健路"},{"poiid":"B2094757D76AA6FD429A","title":"欧凯萨铁板烧","lon":"121.43377685547","lat":"31.151927947998","category":"269","category_name":"烧烤","address":"徐汇区沪闵路9001-3号银泰购物中心南商场2-A10号商铺(近上海南站)"},{"poiid":"B2094655D26BA3FA469E","title":"广翰小厨","lon":"121.434252054","lat":"31.152614793","category":"72","category_name":"广东菜","address":"徐汇区石龙路569号2号楼1楼OK宾馆内(近上海南站)"},{"poiid":"B2094757D16DA7FF439E","title":"上海划船俱乐部羽毛球馆","lon":"121.44098408","lat":"31.155976529","category":"220","category_name":"运动场所","address":"徐汇区龙吴路1594号(近罗秀路)"},{"poiid":"B2094750D56FA5FB4092","title":"易园国际新媒体产业园","lon":"121.44068851520535","lat":"31.154803408220406","category":"45","category_name":"产业园区","address":"徐汇区石龙路345弄23-27号"},{"poiid":"B2094655D265A3FB429D","title":"上海市徐汇区公共就业(人才)服务中心","lon":"121.43146","lat":"31.16093","category":"252","category_name":"楼宇机构","address":"沪闵路9118号"},{"poiid":"B209475CD268A3F54698","title":"大悦城","lon":"121.436088","lat":"31.159049","category":"500","category_name":"未知分类","address":"上海市 大悦城"},{"poiid":"B2094654DA65AAF8429F","title":"光明乳业港口块配送站","lon":"121.43944","lat":"31.15593","category":"117","category_name":"便民商店/便利店","address":""},{"poiid":"B2094750D76FA1F4419C","title":"澎溪河酸菜鱼","lon":"121.432","lat":"31.1611","category":"71","category_name":"四川菜","address":"徐汇区沪闵路9168号(近钦州路)"},{"poiid":"B2094654DA65AAF84292","title":"浦南畜禽处理站石龙路收集点","lon":"121.43959","lat":"31.15598","category":"162","category_name":"医院","address":"石龙路346-3"},{"poiid":"B2094654DA65AAFF4899","title":"梦蝶苑","lon":"121.43734","lat":"31.164413","category":"47","category_name":"住宅区","address":"梦蝶苑位于徐汇徐汇区老沪闵路110弄8号"},{"poiid":"B2094757D16DA1FA429E","title":"东上海影视基地","lon":"121.440484","lat":"31.155373","category":"500","category_name":"未知分类","address":"上海石龙路345弄"},{"poiid":"B2094757D66DA1FC469F","title":"伊娃烘焙坊","lon":"121.433611586","lat":"31.1527439168","category":"112","category_name":"糕饼店","address":"徐汇区石龙路666号"},{"poiid":"B2094757D66EA1FD479A","title":"上海三电贝洱","lon":"121.44098828","lat":"31.154186145","category":"500","category_name":"未知分类","address":"徐汇区石龙路285号(近东泉路)"},{"poiid":"B2094654DB64A1FE479A","title":"徐汇公寓","lon":"121.43272","lat":"31.162075","category":"47","category_name":"住宅区","address":"沪闵路9260弄1-5号"},{"poiid":"B2094757DA69A2F5469C","title":"桔子摄影国际店","lon":"121.426907","lat":"31.182223","category":"611","category_name":"照相馆","address":"中山西路2020号华宜大厦二层（近宜山路）"},{"poiid":"B2094752DA6DA4F8409E","title":"锦江乐园","lon":"121.441741","lat":"31.156694","category":"250","category_name":"公园户外","address":null},{"poiid":"B2094757D06AAAF44093","title":"徐汇区公共卫生中心","lon":"121.44313","lat":"31.153243","category":"500","category_name":"未知分类","address":"上海徐汇区永川路50号"},{"poiid":"B2094757D069A5F54999","title":"市八急救站","lon":"121.43133318","lat":"31.160132361","category":"162","category_name":"医院","address":"上海徐汇区市八医院内"},{"poiid":"B2094655D26FA3FD419E","title":"钦州大厦","lon":"121.43138","lat":"31.161547","category":"47","category_name":"住宅区","address":"钦州路111弄6号"},{"poiid":"B2094757D469A7FD499B","title":"黑森林 石龙路店 Black Forest","lon":"121.442605","lat":"31.157226","category":"67","category_name":"甜品店","address":"徐汇区石龙路128号(近地铁3号线石龙路站)"},{"poiid":"B2094654DB69A6FA449F","title":"康师傅私房牛肉面(老沪闵路店)","lon":"121.43358","lat":"31.15347","category":"68","category_name":"快餐厅","address":"徐汇区沪闵路9001-3号(近石龙路)"},{"poiid":"B2094654DA65A6FD4499","title":"海之杰大酒店","lon":"121.43341","lat":"31.15207","category":"250","category_name":"公园户外","address":"徐汇区石龙路728号(近上海南站)"},{"poiid":"B2094655D26EA1F9439E","title":"南京灌汤包东泉路分店","lon":"121.44403","lat":"31.15652","category":"68","category_name":"快餐厅","address":"徐汇区东泉路6号(近石龙路)"},{"poiid":"B2094654DA65A6F94698","title":"春天商务楼","lon":"121.44101","lat":"31.15472","category":"46","category_name":"楼宇","address":"石龙路345弄7号春天商务楼内(石龙路永川路)"},{"poiid":"B2094757D469A2F84092","title":"红椒娘麻辣烫","lon":"121.43124","lat":"31.15251","category":"68","category_name":"快餐厅","address":"徐汇区沪闵路9001-3号盛泰购物中心B2楼A22号(近上海南站)"},{"poiid":"B2094654DB6CA6F84398","title":"上海市科技创业中心孵化基地","lon":"121.43096","lat":"31.16045","category":"45","category_name":"产业园区","address":"钦州路100号"},{"poiid":"B2094654DA65A6FA469E","title":"龙隆酒家","lon":"121.44499","lat":"31.15736","category":"76","category_name":"上海菜","address":"徐汇区石龙路103号(近轻轨石龙路站)"},{"poiid":"B2094655D26FA6F5439D","title":"汇成宾阳苑(正门)","lon":"121.43725","lat":"31.1633","category":"47","category_name":"住宅区","address":"宾阳路9弄10-18号"},{"poiid":"B2094753D064A7FE4299","title":"漕河泾街道社区卫生服务中心新院","lon":"121.43651","lat":"31.16375","category":"162","category_name":"医院","address":"徐汇区宾阳路38号"},{"poiid":"B2094757D16AA0FB4393","title":"豪大大香鸡排(石龙路店)","lon":"121.441412586","lat":"31.1556359733","category":"247","category_name":"餐饮美食","address":"上海市石龙路158号"},{"poiid":"B2094750D665A7FA479E","title":"永和大王(沪闵路店)","lon":"121.434","lat":"31.1532","category":"68","category_name":"快餐厅","address":"徐汇区沪闵路9001-3号银泰购物中心北广场B1楼(近地铁一号线5号出口)"},{"poiid":"B2094757D064A6FF4593","title":"古韵摄影","lon":"121.43865","lat":"31.1535","category":"611","category_name":"照相馆","address":"徐汇区石龙路411弄28号201室(近上海电子艺术中心)"},{"poiid":"B2094655D265A3F8499D","title":"快客","lon":"121.43678","lat":"31.16346","category":"117","category_name":"便民商店/便利店","address":"宾阳路9-3临"},{"poiid":"B2094757D16BAAF84992","title":"徐汇万科中心","lon":"121.4337875","lat":"31.158845","category":"500","category_name":"未知分类","address":"徐汇区漕河泾街道348街坊沪闵路柳州路交汇处"},{"poiid":"B2094654DA65AAF8429E","title":"地铁运营有限公司石龙路基地(石龙路)","lon":"121.43573","lat":"31.15492","category":"263","category_name":"公司","address":"石龙路588"},{"poiid":"B2094757D66CA3FD499E","title":"阿里妈妈烧烤摊","lon":"121.43095448","lat":"31.161593707","category":"247","category_name":"餐饮美食","address":"上海钦州路 冠生园路"},{"poiid":"B2094757D16FA6FC469D","title":"漕河泾派出所","lon":"121.438737686","lat":"31.1655311465","category":"609","category_name":"警察局","address":"上海南宁路668号"},{"poiid":"B2094454D26DAAFA4199","title":"龙猫咖啡","lon":"121.439735","lat":"31.151138","category":"247","category_name":"餐饮美食","address":"上海市 上海南站"},{"poiid":"B2094654DB64A1FE4692","title":"科苑新村","lon":"121.43298","lat":"31.163055","category":"47","category_name":"住宅区","address":"科苑新村"},{"poiid":"B2094757D168A4F54699","title":"空视觉","lon":"121.441765","lat":"31.156172","category":"500","category_name":"未知分类","address":"徐汇区石龙路329号110室(近东泉路)"},{"poiid":"B2094654DB64A1FE4398","title":"康强坊","lon":"121.432","lat":"31.1618","category":"47","category_name":"住宅区","address":"桂林东街51弄2-59号"},{"poiid":"B2094655D36CA1F8469A","title":"龙川北路石龙路","lon":"121.43572","lat":"31.15244","category":"38","category_name":"公交车站","address":""},{"poiid":"B2094654DA65A6F8479E","title":"漕河泾街道社区卫生服务中心(石龙路)","lon":"121.43544","lat":"31.15311","category":"162","category_name":"医院","address":"徐汇区石龙路581号(龙川北路石龙路)"},{"poiid":"B2094655D26FA5FE419C","title":"圣骊家园","lon":"121.4317","lat":"31.1613","category":"47","category_name":"住宅区","address":"沪闵路9116-9120号"},{"poiid":"B2094655D26DA0F8439C","title":"三江小区(正门)","lon":"121.43952","lat":"31.16421","category":"47","category_name":"住宅区","address":"三江路301弄"},{"poiid":"B2094654DB69A5FB4699","title":"重庆鸡公煲 冠生园路店","lon":"121.432037054","lat":"31.163099793","category":"247","category_name":"餐饮美食","address":"冠生园路9号近沪闵路"},{"poiid":"B2094655D268A4F5429A","title":"东泉小区(北门)","lon":"121.44306","lat":"31.15677","category":"47","category_name":"住宅区","address":""},{"poiid":"B2094655D265A2FC439C","title":"上海百姓装潢有限公司","lon":"121.43989","lat":"31.15612","category":"263","category_name":"公司","address":"石龙路344-1、346"},{"poiid":"B2094757D164A5FE459C","title":"联华超市(宾阳路店)","lon":"121.437439","lat":"31.164","category":"118","category_name":"超级市场","address":"上海徐汇区宾阳路54号"},{"poiid":"B2094757D569A6FD419C","title":"挹翠名门","lon":"121.444335","lat":"31.15659","category":"47","category_name":"住宅区","address":"挹翠名门位于徐汇东泉路、百龙路(路口)"},{"poiid":"B2094750D664A2FD419F","title":"广西一绝螺丝粉","lon":"121.445","lat":"31.1575","category":"68","category_name":"快餐厅","address":"徐汇区石龙路500号(近地铁3号线石龙路站)"},{"poiid":"B2094654DA65AAF84093","title":"光明便利三江店","lon":"121.43905","lat":"31.16428","category":"117","category_name":"便民商店/便利店","address":"徐汇区三江路301弄8号"},{"poiid":"B2094654DA65A6F8479D","title":"宜家便利No.001","lon":"121.43608","lat":"31.1538","category":"117","category_name":"便民商店/便利店","address":"石龙路567"},{"poiid":"B2094751D56AA3F5469D","title":"浦东老八样","lon":"121.4448","lat":"31.16167","category":"76","category_name":"上海菜","address":"徐汇区南宁路660号(近三江路)"},{"poiid":"B2094654DB65A0FD449A","title":"地铁运营有限公司石龙路基地(正门)","lon":"121.4356","lat":"31.15406","category":"263","category_name":"公司","address":"石龙路588"},{"poiid":"B2094752D068A0FB4698","title":"世博中心","lon":"121.43689","lat":"31.155888","category":"500","category_name":"未知分类","address":null},{"poiid":"B2094654DA65A6F9489F","title":"徐汇区石龙菜市场","lon":"121.44314","lat":"31.15648","category":"117","category_name":"便民商店/便利店","address":""},{"poiid":"B2094655D265A2FE469B","title":"望德幼儿园","lon":"121.43249","lat":"31.16348","category":"57","category_name":"幼儿园","address":"徐汇区冠生园路28号(近沪闵路)"},{"poiid":"B2094757D16BABFE4999","title":"徐汇社保中心","lon":"121.431697586","lat":"31.1609290766","category":"500","category_name":"未知分类","address":"上海沪闵路9118号"},{"poiid":"B2094757D169A4FF449E","title":"石龙路工业园区","lon":"121.43670458","lat":"31.154402949","category":"252","category_name":"楼宇机构","address":"上海石龙路411号"},{"poiid":"B2094654DB6CA6F9429E","title":"闵冠商务中心","lon":"121.43319","lat":"31.16357","category":"46","category_name":"楼宇","address":"冠生园路8"},{"poiid":"B2094655D26DA0F8439F","title":"乾骏大厦(正门)","lon":"121.43822","lat":"31.1642","category":"47","category_name":"住宅区","address":"宾阳路62弄1-4"},{"poiid":"B2094654DA65AAF84199","title":"好德便利No.349","lon":"121.43933","lat":"31.16433","category":"117","category_name":"便民商店/便利店","address":"三江路301弄10识别"},{"poiid":"B2094753DA6AABFA4093","title":"香格里拉大酒店","lon":"121.438713","lat":"31.163246","category":"500","category_name":"未知分类","address":"上海市 浦东富城路33号"},{"poiid":"B2094757D465ABFC4499","title":"兴达餐厅","lon":"121.433852054","lat":"31.165282793","category":"76","category_name":"上海菜","address":"徐汇区康健路5号(沪闵路口)"},{"poiid":"B2094654DA65A6F9479F","title":"上海呈捷燃气助动车特约维修(石龙路)","lon":"121.44178","lat":"31.15635","category":"133","category_name":"自行车专卖店","address":"石龙路329号"},{"poiid":"B2094654DA65A6FA449D","title":"良友金伴便利连锁No.529","lon":"121.4444","lat":"31.15649","category":"117","category_name":"便民商店/便利店","address":"东泉路10-12"},{"poiid":"B2094654DB6CA6F9459A","title":"闵行农资大楼","lon":"121.4336","lat":"31.16407","category":"46","category_name":"楼宇","address":"沪闵路9450"},{"poiid":"B2094655D268A5FA409A","title":"上海理财专修学院","lon":"121.43045","lat":"31.161","category":"52","category_name":"高等院校","address":"钦州南路71临"},{"poiid":"B2094757D169A1FB499F","title":"闵行供销百货","lon":"121.437709486","lat":"31.1652348607","category":"46","category_name":"楼宇","address":"上海市徐汇区东漕河泾路57号"},{"poiid":"B2094753DA64A0F5499D","title":"上海师范大学","lon":"121.433837","lat":"31.163248","category":"500","category_name":"未知分类","address":"上海市 桂林路100号"},{"poiid":"B2094752D064A7FF449B","title":"浦东老八样（徐汇店）","lon":"121.439821","lat":"31.163445","category":"247","category_name":"餐饮美食","address":"徐汇区南宁路660号"},{"poiid":"B2094757D16FA7F8469E","title":"上海师范大学旅游学院","lon":"121.438460586","lat":"31.1643181428","category":"500","category_name":"未知分类","address":"上海市师范大学(徐汇区)"},{"poiid":"B2094757D66DA5FF489D","title":"文峰美容美发(罗秀路店)","lon":"121.43998","lat":"31.1623","category":"148","category_name":"美容美发店","address":"上海闵行区罗秀路1869号(近一号线莲花路站)  "},{"poiid":"B2094757D068A4F44799","title":"石龍路","lon":"121.44387817","lat":"31.156946182","category":"500","category_name":"未知分类","address":"上海東泉"},{"poiid":"B2094654DB64ABF8469B","title":"漕河泾地段医院","lon":"121.43582","lat":"31.15271","category":"162","category_name":"医院","address":"徐汇区石龙路581号"},{"poiid":"B2094654DA65A6FE4698","title":"可的(龙川北路)","lon":"121.43527","lat":"31.15261","category":"117","category_name":"便民商店/便利店","address":"徐汇区龙川北路910号(龙川北路石龙路)"},{"poiid":"B2094757D06AA1FE4992","title":"宾阳路","lon":"121.43592071","lat":"31.164302825","category":"500","category_name":"未知分类","address":"上海保利星苑"},{"poiid":"B2094654DA65A6F94093","title":"上海华谊集团建设有限公司","lon":"121.43998","lat":"31.15528","category":"263","category_name":"公司","address":"石龙路345弄2"},{"poiid":"B2094757D16BA4FB469F","title":"上海多灵沃森机械设备有限公司","lon":"121.437832586","lat":"31.154853958","category":"263","category_name":"公司","address":"上海石龙路555号"},{"poiid":"B2094654DB64A2F94893","title":"住大商务楼(罗城路)","lon":"121.43865","lat":"31.15109","category":"46","category_name":"楼宇","address":"罗城路530"},{"poiid":"B2094757D06AA3FA4692","title":"屈臣氏(南站银泰店)","lon":"121.43451","lat":"31.15345","category":"122","category_name":"个人用品/化妆品店","address":"徐汇区上海南站银泰购物中心北广场B1楼(近地铁一号线上海南站5号口)"},{"poiid":"B2094757D568A5F9449A","title":"南站创意园","lon":"121.433215","lat":"31.15247889","category":"47","category_name":"住宅区","address":"北一环与亳州路交叉口(庐阳区政府对面)"},{"poiid":"B2094757D16FA2FD4098","title":"馨汇南苑21号楼","lon":"121.436692086","lat":"31.1543467481","category":"252","category_name":"楼宇机构","address":null},{"poiid":"B2094752D664AAF4469C","title":"徐汇滨江","lon":"121.44139","lat":"31.164899","category":"47","category_name":"住宅区","address":null},{"poiid":"B2094757D16FABF5499E","title":"梵灵瑜伽(钦州路店)","lon":"121.43139","lat":"31.16273","category":"148","category_name":"美容美发店","address":"徐汇区钦州路262弄23号(近光大会展中心)"},{"poiid":"B2094654DB6CA6F9429F","title":"家得利超市沪闵店","lon":"121.43346","lat":"31.16353","category":"118","category_name":"超级市场","address":"徐汇区沪闵路9450号(桂林路沪闵路)"},{"poiid":"B2094757D06AA2FB4198","title":"沪闵路漕河泾站","lon":"121.43486785","lat":"31.163513183","category":"500","category_name":"未知分类","address":"上海八五医院漕河泾分院旁沪闵路9585号"},{"poiid":"B2094654DA65A6FA449F","title":"东泉卫生服务站","lon":"121.44466","lat":"31.15616","category":"162","category_name":"医院","address":""},{"poiid":"B2094757D069A3FA4899","title":"全家便利(冠生园路店)","lon":"121.432142","lat":"31.16354","category":"117","category_name":"便民商店/便利店","address":"上海徐汇区冠生园路229号(近光大会展中心)"},{"poiid":"B2094654DB64A2F94898","title":"金牛苑(北2号门)","lon":"121.43421","lat":"31.15197","category":"47","category_name":"住宅区","address":"石龙路731弄"},{"poiid":"B2094654DB6CA6F84492","title":"上海市软件行业协会","lon":"121.43087","lat":"31.16045","category":"250","category_name":"公园户外","address":"钦州路100号上海市科技创业中心7层706-707"},{"poiid":"B2094655D26AABFA459D","title":"上海达旺商务酒店","lon":"121.43158","lat":"31.16068","category":"250","category_name":"公园户外","address":"徐汇区钦州路107号(近沪闵路)"},{"poiid":"B2094655D268A4FB429F","title":"圣骊家园(西一号门)","lon":"121.43123","lat":"31.16136","category":"47","category_name":"住宅区","address":"沪闵路9116-9120号"},{"poiid":"B209475CDA6EA1FE4793","title":"上海南站","lon":"121.432144","lat":"31.161508","category":"500","category_name":"未知分类","address":"上海市 上海南站"},{"poiid":"B2094757D164A0FB479B","title":"东泉佳苑","lon":"121.44413","lat":"31.154181","category":"47","category_name":"住宅区","address":"上海东泉路185弄"},{"poiid":"B2094654DB6CA6F94193","title":"滬华公寓(南门)","lon":"121.43312","lat":"31.16364","category":"47","category_name":"住宅区","address":"冠生园路20号"},{"poiid":"B2094757D66CA0FE459E","title":"石龙基地","lon":"121.43493408","lat":"31.154176444","category":"500","category_name":"未知分类","address":"上海石龙路"},{"poiid":"B2094751D269A0FA4099","title":"7-11便利店(南站店)","lon":"121.43043021160884","lat":"31.15671903707674","category":"117","category_name":"便民商店/便利店","address":"徐汇区沪闵路9001-3号盛泰购物商场北馆C区1-C2"},{"poiid":"B2094757D068A4FB4799","title":"钦州路111弄","lon":"121.432005","lat":"31.162408","category":"500","category_name":"未知分类","address":"钦州路111弄8-26号"},{"poiid":"B2094654DA65AAFF449C","title":"上海马克华菲企业发展有限公司","lon":"121.43529","lat":"31.16265","category":"263","category_name":"公司","address":"老沪闵路120号6号楼"},{"poiid":"B2094757D568A2F94193","title":"镕鑫旅馆","lon":"121.439346","lat":"31.154052","category":"217","category_name":"旅馆招待所","address":"永川路161"},{"poiid":"B2094757D568A2F8459F","title":"上海旅游集散中心南站分站","lon":"121.433555","lat":"31.15327194","category":"604","category_name":"旅游咨询","address":"柳州路36号上海南站长途客运站"},{"poiid":"B2094654DB6CA6F84998","title":"钦州路111弄小区(西门)","lon":"121.43124","lat":"31.16263","category":"47","category_name":"住宅区","address":"钦州路111弄8-26号"},{"poiid":"B2094655D268A4FB4299","title":"科苑新村北块(南门)","lon":"121.43307","lat":"31.16364","category":"47","category_name":"住宅区","address":""},{"poiid":"B2094757D16AA2FA409A","title":"Esprit(银泰折扣店)","lon":"121.43078","lat":"31.15731","category":"141","category_name":"服装鞋帽皮具店","address":"徐汇区沪闵路9001-3号银泰购物中心北商场B1楼(近上海南站)"},{"poiid":"B2094654DA65A6FA449E","title":"东泉小区(1号门)","lon":"121.44472","lat":"31.1557","category":"47","category_name":"住宅区","address":"东泉路50弄1-30号、64弄11-16号、104弄1-33号"},{"poiid":"B2094654DA65A6F84599","title":"好德(石龙路)","lon":"121.43429","lat":"31.15207","category":"117","category_name":"便民商店/便利店","address":"石龙路661-663识别"},{"poiid":"B2094655D268A4F54192","title":"石龙路95弄小区","lon":"121.44532","lat":"31.1571","category":"47","category_name":"住宅区","address":"石龙路95弄"},{"poiid":"B2094757D16FA0F44299","title":"旬阳新村","lon":"121.44479958","lat":"31.161077079","category":"47","category_name":"住宅区","address":"上海旬阳"},{"poiid":"B2094654DB65A1FB449B","title":"科苑新村北块","lon":"121.43289","lat":"31.16372","category":"47","category_name":"住宅区","address":""},{"poiid":"B2094757D06BA7F9479E","title":"VW School(大众学院)","lon":"121.435587","lat":"31.153561","category":"158","category_name":"汽车销售","address":"上海徐汇区石龙路573-575号"},{"poiid":"B2094757D169ABF4439A","title":"冠生园路钦州路","lon":"121.431331786","lat":"31.1602960643","category":"500","category_name":"未知分类","address":"上海冠生园路"},{"poiid":"B2094757D164A5F4409C","title":"上师大五教","lon":"121.442588586","lat":"31.1622151017","category":"500","category_name":"未知分类","address":"上海徐汇校区"},{"poiid":"B2094654DA6DA2FA409E","title":"金湖世纪华联沪闵店","lon":"121.43473","lat":"31.16546","category":"117","category_name":"便民商店/便利店","address":"漕河泾镇"},{"poiid":"B2094757D06AA6FB449E","title":"东泉路","lon":"121.44448124","lat":"31.155834057","category":"500","category_name":"未知分类","address":"上海东泉新村"},{"poiid":"B2094757D16BA2FA4498","title":"上广电会展中心","lon":"121.437959586","lat":"31.1640931384","category":"500","category_name":"未知分类","address":"上海宜山路757号"},{"poiid":"B2094757D064A0FA4099","title":"徐汇区社会保险事业管理中心南站分部","lon":"121.431428","lat":"31.16088","category":"500","category_name":"未知分类","address":"上海徐汇区钦州路"},{"poiid":"B2094757D66CA5FE449F","title":"上师大计算机中心","lon":"121.43142674","lat":"31.157679119","category":"253","category_name":"校园生活","address":"上海徐汇区桂林路100号上师大内"},{"poiid":"B2094757D164A0FB429D","title":"梦碟苑","lon":"121.43751304","lat":"31.16472832","category":"500","category_name":"未知分类","address":"上海宾阳路50弄"},{"poiid":"B2094757D165A7F44799","title":"上海市计量测试研究院","lon":"121.438490586","lat":"31.1643001425","category":"500","category_name":"未知分类","address":"上海市徐汇区宜山路716号"},{"poiid":"B2094757D165A5FE4592","title":"沪华公寓","lon":"121.43333","lat":"31.163887","category":"252","category_name":"楼宇机构","address":"沪华公寓位于徐汇冠生园路20号"},{"poiid":"B2094757D16DA0FB4993","title":"恒龙苑","lon":"121.43777","lat":"31.150768","category":"500","category_name":"未知分类","address":"上海罗城路570弄"},{"poiid":"B2094757D66EA1F44292","title":"金太龙形象设计美容连锁机构","lon":"121.44437258","lat":"31.157284005","category":"148","category_name":"美容美发店","address":"上海市徐汇区石龙路113号"},{"poiid":"B2094654DB6CA6F8469F","title":"上海职业介绍徐汇分中心","lon":"121.43148","lat":"31.16086","category":"252","category_name":"楼宇机构","address":"钦州路107"},{"poiid":"B2094757D66CA5FD489B","title":"上海南站一号出口","lon":"121.432173","lat":"31.153544","category":"500","category_name":"未知分类","address":"上海柳州路40号"},{"poiid":"B2094750DB65A6F9429A","title":"漕河泾开发区凤凰大楼","lon":"121.439704","lat":"31.164636","category":"500","category_name":"未知分类","address":"古美路1515号"},{"poiid":"B2094654DA65AAF9409E","title":"上海市人民检察院汽车修理检测站","lon":"121.44406","lat":"31.15754","category":"159","category_name":"汽车维修","address":"石龙路110"},{"poiid":"B2094757D16AA7F54799","title":"逸安商务楼","lon":"121.431183","lat":"31.162303","category":"252","category_name":"楼宇机构","address":"上海钦州路109号"},{"poiid":"B2094757D16DA7FC4999","title":"中国石化石龙路加油站","lon":"121.4391908","lat":"31.152008801","category":"500","category_name":"未知分类","address":"上海徐汇区石龙路577号"},{"poiid":"B2094757D16CA5F9459A","title":"ssb","lon":"121.44269609","lat":"31.153731903","category":"249","category_name":"购物服务","address":"上海石龙路285号"},{"poiid":"B2094655D26FA7FF409F","title":"梦蝶苑(南门)","lon":"121.4373","lat":"31.16396","category":"48","category_name":"楼宇大门","address":"宾阳路50弄1-11号"},{"poiid":"B2094757D16EA7F9469F","title":"斯瑪特","lon":"121.43815558","lat":"31.164085138","category":"249","category_name":"购物服务","address":"上海市徐汇区冠生園路227號"},{"poiid":"B2094757D16DA0FA439F","title":"Siren's sea","lon":"121.439764586","lat":"31.164226141","category":"500","category_name":"未知分类","address":"上海三江路宾阳路"},{"poiid":"B2094757D169ABFE419A","title":"冠生园路科苑新村","lon":"121.432983","lat":"31.163055","category":"500","category_name":"未知分类","address":"上海冠生园路科苑新村"},{"poiid":"B2094654DA65A6FF469A","title":"上海玛萨美容美发有限公司","lon":"121.43865","lat":"31.15109","category":"148","category_name":"美容美发店","address":"罗城路530号住大商务楼4层"},{"poiid":"B2094654DA65A6F9429F","title":"上海市环境工程设计科学研究院","lon":"121.44152","lat":"31.15416","category":"191","category_name":"科研机构","address":"石龙路345弄11"},{"poiid":"B2094753D66CA3FA4998","title":"徐汇区","lon":"121.438217","lat":"31.151657","category":"500","category_name":"未知分类","address":"上海市 徐汇区徐家汇"},{"poiid":"B2094654DA65A6F8449D","title":"威莎酒吧","lon":"121.43447","lat":"31.15224","category":"172","category_name":"酒吧","address":"石龙路637识别"},{"poiid":"B2094654DA65A6FF499A","title":"恒龙苑(边门)","lon":"121.43778","lat":"31.15077","category":"47","category_name":"住宅区","address":"罗城路570弄1-32号"},{"poiid":"B2094757D66EA3F8489C","title":"Linko's home","lon":"121.432979086","lat":"31.1633883246","category":"500","category_name":"未知分类","address":null},{"poiid":"B2094757D16BA4F54198","title":"徐汇区石龙路345弄3号6楼","lon":"121.44501693","lat":"31.15755121","category":"500","category_name":"未知分类","address":"上海石龙路345弄3号"},{"poiid":"B2094757D165A0FC4399","title":"无语家","lon":"121.430058686","lat":"31.1588678364","category":"500","category_name":"未知分类","address":null},{"poiid":"B2094753D26EA1FE479B","title":"世博会中国馆","lon":"121.442369","lat":"31.164631","category":"263","category_name":"公司","address":"上海市 中国 上海市 世博大道1200号梅赛德斯奔驰文化演艺中心"},{"poiid":"B2094654DB6CA6F94492","title":"上海农村商业银行漕河泾支行","lon":"121.43362","lat":"31.16395","category":"150","category_name":"银行","address":"沪闵路9450号闵行农资大楼1层"},{"poiid":"B2094654DB6CA6F8439F","title":"上海科学院","lon":"121.43087","lat":"31.16045","category":"191","category_name":"科研机构","address":"钦州路100号上海市科技创业中心5层"},{"poiid":"B2094757D66CA4FF4498","title":"上海南站一号候车室","lon":"121.433509","lat":"31.152328","category":"500","category_name":"未知分类","address":"上海南站候车大厅"},{"poiid":"B2094655D26EA4FF4499","title":"保利星苑(东南门)","lon":"121.43592","lat":"31.1643","category":"48","category_name":"楼宇大门","address":"宾阳路28弄1-5"},{"poiid":"B2094757D165A2FF419E","title":"富人居地产","lon":"121.43296728","lat":"31.163934535","category":"500","category_name":"未知分类","address":"上海康健路73号"},{"poiid":"B2094655D26FA4F44692","title":"徐汇公寓(东一门)","lon":"121.43334","lat":"31.16292","category":"48","category_name":"楼宇大门","address":"沪闵路9260弄1-5号"},{"poiid":"B2094757D16FA2FC4098","title":"石龙路车库","lon":"121.43527818","lat":"31.154263646","category":"262","category_name":"停车场","address":"上海石龙路"},{"poiid":"B2094654DA65A6FA469A","title":"石龙路邮政所","lon":"121.44483","lat":"31.15732","category":"248","category_name":"生活娱乐","address":"徐汇区石龙路105号"},{"poiid":"B2094757D16CA4F8419A","title":"MoTaTa’S  Paradise","lon":"121.43350058","lat":"31.164977155","category":"500","category_name":"未知分类","address":"上海闵行区漕宝路"},{"poiid":"B2094654DB6CA6F84698","title":"上海生物信息技术研究中心","lon":"121.43087","lat":"31.16045","category":"191","category_name":"科研机构","address":"钦州路100号上海市科技创业中心12层"},{"poiid":"B2094757D065A4F9439A","title":"霓","lon":"121.43356958","lat":"31.164964155","category":"500","category_name":"未知分类","address":null},{"poiid":"B2094757D569A3FA4793","title":"楚香阁湘菜馆","lon":"121.4341492","lat":"31.15233139","category":"260","category_name":"其他","address":"徐汇区石龙路688号(近上海南站)"},{"poiid":"B2094757D065A3FC489A","title":"街盟斗秀场","lon":"121.43740081","lat":"31.151147842","category":"148","category_name":"美容美发店","address":"徐汇区龙川北路739弄5号(汾阳中学正对面)"},{"poiid":"B2094757D16BA5FA4093","title":"保盛汽车服务有限公司","lon":"121.43470645","lat":"31.165499385","category":"500","category_name":"未知分类","address":"上海沪闵路9505号"},{"poiid":"B2094757D568AAF5499C","title":"中国元素","lon":"121.4386589","lat":"31.1511","category":"255","category_name":"专卖店","address":"罗城路530号"},{"poiid":"B2094654DA6DA2FA409A","title":"中国石化加油卡上海闵行服务部","lon":"121.43511","lat":"31.16528","category":"248","category_name":"生活娱乐","address":"沪闵路9501号"},{"poiid":"B2094654DB6CA6F9449F","title":"圣骊家园(南门)","lon":"121.43202","lat":"31.16082","category":"656","category_name":"大门","address":"沪闵路9116-9120号"},{"poiid":"B2094654DB64A2F9479B","title":"中国建设银行24小时自助银行","lon":"121.43354","lat":"31.15243","category":"152","category_name":"ATM","address":"石龙路716"},{"poiid":"B2094654DB6CA6F8469C","title":"圣骊家园(西门)","lon":"121.43183","lat":"31.1611","category":"656","category_name":"大门","address":"沪闵路9116-9120号"},{"poiid":"B2094655D268A4F54193","title":"石龙路95弄小区(侧门)","lon":"121.44465","lat":"31.15725","category":"656","category_name":"大门","address":"石龙路95弄"},{"poiid":"B2094655D268A4F5419D","title":"石龙路95弄小区(北门)","lon":"121.4452","lat":"31.15744","category":"656","category_name":"大门","address":"石龙路95弄"}]