[{"poiid":"B2094654DA6FAAFC499F","title":"黄浦区中心医院","lon":"121.48899","lat":"31.23428","category":"162","category_name":"医院","address":"黄浦区四川中路109号(近广东路)"},{"poiid":"B2094654DA6FABF9429D","title":"港陆广场","lon":"121.485","lat":"31.2353","category":"46","category_name":"楼宇","address":"黄浦区西藏中路18号(近延安东路)"},{"poiid":"B2094654DA6FAAFD499A","title":"港泰广场","lon":"121.486","lat":"31.2358","category":"46","category_name":"楼宇","address":"延安东路700号"},{"poiid":"B2094753D76FAAFA449C","title":"上海滩国泰旗舰店","lon":"121.466011","lat":"31.216125","category":"249","category_name":"购物服务","address":"淮海中路868号"},{"poiid":"B209475CD564A7F84292","title":"上海滩新天地店","lon":"121.47463","lat":"31.22164","category":"119","category_name":"商场","address":"\"太仓路181弄新天地北里15号\r\n\""},{"poiid":"B209475CD564A7F84392","title":"上海滩浦东香格里拉店","lon":"121.50058","lat":"31.23634","category":"119","category_name":"商场","address":"浦东富成路33号香格里拉酒店内大堂层"},{"poiid":"B2094655D26BA1FF479F","title":"南京东路","lon":"121.48534","lat":"31.23632","category":"38","category_name":"公交车站","address":""},{"poiid":"B2094757D068A4F9469A","title":"成隆行蟹王府","lon":"121.485942537","lat":"31.2369416306","category":"257","category_name":"中餐厅","address":"黄浦区九江路216号(河南中路口)"},{"poiid":"B2094757D06FABFF479B","title":"新城饭店","lon":"121.4878","lat":"31.23495","category":"216","category_name":"经济型连锁酒店","address":"黄浦区江西中路180号(近福州路)"},{"poiid":"B2094757D06AA1F4489F","title":"上海姥姥 原吉禾餐饮","lon":"121.48908099613","lat":"31.235419801894","category":"76","category_name":"上海菜","address":"黄浦区福州路70号(近四川中路永和豆浆对面)"},{"poiid":"B2094655D26DA3FE419B","title":"上海外滩花园酒店(南门)","lon":"121.48571","lat":"31.2361","category":"250","category_name":"公园户外","address":"上海市黄浦区汉口路200号（河南中路路口）"},{"poiid":"B2094757D068A1F8449B","title":"House of Blues & Jazz","lon":"121.4892425","lat":"31.235561077","category":"172","category_name":"酒吧","address":"上海市黄浦区福州路60号(近四川中路)"},{"poiid":"B2094757D068A0F5439E","title":"上海国际商品拍卖有限公司","lon":"121.488583332","lat":"31.2353396094","category":"46","category_name":"楼宇","address":"黄浦区福州路108号(近四川中路)"},{"poiid":"B2094757D16BABFD4593","title":"麦当劳","lon":"121.48739973","lat":"31.235250407","category":"500","category_name":"未知分类","address":"上海市黄浦区南京路步行街"},{"poiid":"B2094757D06FA6F9459A","title":"米氏西餐厅","lon":"121.48839983","lat":"31.235365447","category":"94","category_name":"西餐厅","address":"黄浦区广东路20号外滩5号7楼(近中山东一路)"},{"poiid":"B2094757D06FAAF84399","title":"申鑫大厦","lon":"121.488143","lat":"31.234771","category":"46","category_name":"楼宇","address":"上海市黄浦区宁海东路200号(北依南京路,南临淮海路)"},{"poiid":"B2094751D56BA3F9469E","title":"南麓浙里","lon":"121.488525","lat":"31.235992","category":"76","category_name":"上海菜","address":"黄浦区四川中路216号(近福州路)"},{"poiid":"B2094757D065AAFC469E","title":"外滩私房菜","lon":"121.48534973","lat":"31.234815397","category":"76","category_name":"上海菜","address":"黄浦区河南中路256号(近福州路)"},{"poiid":"B2094757D06AA5FA4993","title":"华东建筑设计研究院有限公司","lon":"121.487157492","lat":"31.2361457026","category":"46","category_name":"楼宇","address":"上海市黄浦区汉口路151号"},{"poiid":"B2094757D068A4FC409D","title":"外滩花园酒店","lon":"121.48874013","lat":"31.236291039","category":"74","category_name":"江苏菜","address":"黄浦区汉口路200号(近河南中路)"},{"poiid":"B2094757D068A3FB469A","title":"交通银行上海市分行","lon":"121.487329","lat":"31.235579","category":"46","category_name":"楼宇","address":"上海黄浦区江西中路200号"},{"poiid":"B2094655D26CAAFC419A","title":"如家酒店(外滩中心店)","lon":"121.48662","lat":"31.23375","category":"216","category_name":"经济型连锁酒店","address":"上海市黄浦区江西中路135弄11号(泗泾路26弄内)"},{"poiid":"B2094757D069AAFD449E","title":"九江路外滩","lon":"121.485418907","lat":"31.233909491","category":"500","category_name":"未知分类","address":"上海九江路四川中路"},{"poiid":"B2094757D069A5FA429F","title":"国拍大楼","lon":"121.488578","lat":"31.234969","category":"46","category_name":"楼宇","address":"上海福州路108号"},{"poiid":"B2094751D468ABFB469B","title":"环球金融中心100层","lon":"121.486472","lat":"31.236774","category":"500","category_name":"未知分类","address":null},{"poiid":"B2094757D069A6F4479B","title":"上海市民政局","lon":"121.48800659","lat":"31.236328125","category":"252","category_name":"楼宇机构","address":"上海江西中路215号汉口路口"},{"poiid":"B2094750DA6BA1FD469D","title":"forever21","lon":"121.489219","lat":"31.235349","category":"500","category_name":"未知分类","address":"南京東路"},{"poiid":"B209475CD36BA2FC489F","title":"Tock's","lon":"121.4859","lat":"31.2345","category":"94","category_name":"西餐厅","address":"河南中路221号(近福州路)"},{"poiid":"B2094757D069A0FE469D","title":"黄浦区中心医院中医门诊部","lon":"121.48898882","lat":"31.2342839927","category":"162","category_name":"医院","address":"上海黄浦区宁波路109号(近河南中路)"},{"poiid":"B2094655D26DAAFC4798","title":"宜兰贵斯酒店","lon":"121.48826","lat":"31.23394","category":"250","category_name":"公园户外","address":"黄浦区广东路138号(近河南中路)"},{"poiid":"B2094757D06AA1FD469A","title":"华东医院(市府大厦门诊部)","lon":"121.4873588","lat":"31.235038242","category":"162","category_name":"医院","address":"黄浦区江西中路187号(近新城饭店)"},{"poiid":"B2094655D26BA4F8489F","title":"外滩艺术馆(边门)","lon":"121.4864","lat":"31.23599","category":"183","category_name":"展览馆","address":"汉口路193"},{"poiid":"B2094655D268A6F8439C","title":"宾龙商务酒店","lon":"121.48831","lat":"31.23514","category":"250","category_name":"公园户外","address":"黄浦区福州路105-1号(近四川中路)"},{"poiid":"B2094757DA65A5FB419F","title":"海上小喔（上海外滩店）","lon":"121.4882863","lat":"31.23535294","category":"216","category_name":"经济型连锁酒店","address":"黄浦区福州路120号4-5楼(近江西中路)"},{"poiid":"B2094757D068A0F84798","title":"上海市国家安全局","lon":"121.48662337","lat":"31.234723797","category":"252","category_name":"楼宇机构","address":"上海市黄浦区福州路185号"},{"poiid":"B2094757D46EABFC4998","title":"旬鲜","lon":"121.48562","lat":"31.23411","category":"95","category_name":"日本料理","address":"黄浦区昭通路24号(河南中路昭通路)"},{"poiid":"B2094757D16CA4F94092","title":"黄埔区中心医院住院部","lon":"121.488849738","lat":"31.234963401","category":"162","category_name":"医院","address":"上海市黄浦区山东中路"},{"poiid":"B2094757DB69A7F54398","title":"大众书局","lon":"121.4893333","lat":"31.2348979","category":"248","category_name":"生活娱乐","address":"正大广场七楼"},{"poiid":"B2094757D06AAAFE4699","title":"49路汉口路江西中路终点站","lon":"121.48606126","lat":"31.236072386","category":"38","category_name":"公交车站","address":"上海黄浦区汉口路201号(对面)"},{"poiid":"B2094757D168A5F44893","title":"外经贸教育培训中心","lon":"121.488707","lat":"31.235114","category":"253","category_name":"校园生活","address":"上海福州路89号6楼"},{"poiid":"B209475CD66CA5F5459E","title":"上井•井寿司","lon":"121.489189","lat":"31.235569","category":"247","category_name":"餐饮美食","address":"上海市 南京东路300号名人购物中心4楼"},{"poiid":"B2094757DB68A6FD469A","title":"上海华尔道夫酒店","lon":"121.485093","lat":"31.235814","category":"500","category_name":"未知分类","address":"中山东一路2号"},{"poiid":"B2094655D36CA7F9459C","title":"河南中路南京东路","lon":"121.48531","lat":"31.23659","category":"38","category_name":"公交车站","address":""},{"poiid":"B2094753DA65A7FA439F","title":"东方明珠塔","lon":"121.486999","lat":"31.2359","category":"500","category_name":"未知分类","address":"上海市 上海市东方明珠塔"},{"poiid":"B2094757D06AAAFB4393","title":"上海市文化广播影视管理局","lon":"121.48869379","lat":"31.236775364","category":"500","category_name":"未知分类","address":"上海四川中路276号"},{"poiid":"B2094750DB6DA5F5449B","title":"花子形象","lon":"121.486069","lat":"31.234283","category":"148","category_name":"美容美发店","address":"黄浦区云南中路246号(近福州路)"},{"poiid":"B2094750DA6DA2FF449B","title":"大长安","lon":"121.485397","lat":"31.234226","category":"84","category_name":"西北菜","address":"黄浦区福州路259号福驿时尚酒店1楼(河南南路口)"},{"poiid":"B2094655D26CAAFB479E","title":"南麓碧乡","lon":"121.48892","lat":"31.23578","category":"257","category_name":"中餐厅","address":"四川中路220号1楼"},{"poiid":"B2094655D264A5FF429A","title":"85度C汉口路店","lon":"121.48526","lat":"31.23585","category":"112","category_name":"糕饼店","address":"汉口路266号101室"},{"poiid":"B2094654DA6FABFB4499","title":"上海市黄浦区外滩地段医院分院","lon":"121.48816","lat":"31.23337","category":"162","category_name":"医院","address":"黄浦区广东路附近"},{"poiid":"B2094757D06AA4FD4893","title":"卡娃咖啡 福州路店 Cova coffee","lon":"121.487656054","lat":"31.235107793","category":"260","category_name":"其他","address":"黄浦区福州路106号(近四川中路)"},{"poiid":"B2094752D46EA6FA469D","title":"朋朋烘焙体验馆（人民广场店）","lon":"121.485357","lat":"31.235555","category":"247","category_name":"餐饮美食","address":"上海市 上海市黄浦区浙江中路229号百米香榭302、307"},{"poiid":"B2094655D26DA3FE4093","title":"爱建金融大楼","lon":"121.48801","lat":"31.23662","category":"46","category_name":"楼宇","address":"广益路与江海东路交汇处(五洲·中华美食城)"},{"poiid":"B2094757D164A4FC449E","title":"富驿时尚酒店(上海外滩店)","lon":"121.485554","lat":"31.234623","category":"217","category_name":"旅馆招待所","address":"黄浦区福州路257号(近河南中路)"},{"poiid":"B2094757D66BA6F9469E","title":"丰裕生煎 四川中路店","lon":"121.4890322985","lat":"31.235184517851","category":"68","category_name":"快餐厅","address":"四川中路148号黄浦中心医院对面近福州路"},{"poiid":"B2094753D664A3F54199","title":"寿司王子","lon":"121.488761","lat":"31.236028","category":"500","category_name":"未知分类","address":"上海市 南京东路300号恒基名人购物中心5楼516(河南中路)"},{"poiid":"B2094654DA6FAAFD429A","title":"福州路107号大楼","lon":"121.48807","lat":"31.23499","category":"46","category_name":"楼宇","address":"福州路107号"},{"poiid":"B2094654DA6FAAFC4999","title":"黄浦区中心医院门诊部","lon":"121.4887","lat":"31.2338","category":"162","category_name":"医院","address":"广东路128"},{"poiid":"B2094655D26AA2F8469C","title":"新城饭店中餐厅","lon":"121.48758","lat":"31.23519","category":"76","category_name":"上海菜","address":"黄浦区江西中路180号新城饭店1楼(福州路口)"},{"poiid":"B2094750D664A4FF4192","title":"大富贵酒楼小吃部(江西中路店)","lon":"121.487","lat":"31.2375","category":"68","category_name":"快餐厅","address":"黄浦区江西中路265号(近九江路)"},{"poiid":"B2094757D069A5F84093","title":"66路河南中路南京东路站","lon":"121.485597","lat":"31.235147","category":"38","category_name":"公交车站","address":"上海河南中路(近九江路)"},{"poiid":"B2094757D16AA5F94592","title":"江西中路汉口路","lon":"121.48693413","lat":"31.236503133","category":"500","category_name":"未知分类","address":"上海江西中路汉口路"},{"poiid":"B209475DD669A4FF479B","title":"比萨马上诺","lon":"121.489028","lat":"31.23471","category":"247","category_name":"餐饮美食","address":"上海市 南京东路299号宏伊国际广场2层S－211(近河南中路)"},{"poiid":"B2094757D06AA4FE409F","title":"杏花楼黄河路店","lon":"121.4877395","lat":"31.236298862","category":"500","category_name":"未知分类","address":"上海黄河路21号鸿翔大厦3F、4F"},{"poiid":"B2094757D06FA0FA4892","title":"Hamilton House","lon":"121.48718","lat":"31.2349","category":"94","category_name":"西餐厅","address":"上海黄浦区福州路137号(近江西路)  "},{"poiid":"B2094757D56CA6F44592","title":"鸿峰餐厅","lon":"121.48773910176","lat":"31.234357085858","category":"68","category_name":"快餐厅","address":"黄浦区江西中路147号(近福州路)"},{"poiid":"B2094757D068A2FD419C","title":"上海市保密局","lon":"121.48677063","lat":"31.234815597","category":"252","category_name":"楼宇机构","address":"上海市福州路185号"},{"poiid":"B209475CD26DA4FB4292","title":"成隆行蟹王府","lon":"121.485855","lat":"31.23682","category":"247","category_name":"餐饮美食","address":"上海市 上海市黄埔区九江路216号"},{"poiid":"B2094655D26CAAFB489A","title":"圣三一堂","lon":"121.48594","lat":"31.23673","category":"245","category_name":"教堂","address":"九江路219号"},{"poiid":"B2094757D069AAFE449D","title":"49路终点站","lon":"121.48498747","lat":"31.235824213","category":"38","category_name":"公交车站","address":"上海汉口路河南路"},{"poiid":"B2094757D568AAF54599","title":"老市府","lon":"121.4869789","lat":"31.23572857","category":"46","category_name":"楼宇","address":"江西中路209号"},{"poiid":"B2094655D264A6F84692","title":"东亚大楼","lon":"121.48812","lat":"31.23726","category":"46","category_name":"楼宇","address":"四川中路299号"},{"poiid":"B209475CD669A7FF4393","title":"Animate上海专柜","lon":"121.485422","lat":"31.234711","category":"139","category_name":"文化用品店","address":"福州路390号外文书店4F"},{"poiid":"B2094757D16AA0F84993","title":"cova coffee","lon":"121.48760543","lat":"31.23539331","category":"65","category_name":"咖啡厅","address":"上海福州路四川中路106号"},{"poiid":"B2094757D16AA3FB4892","title":"国药控股股份有限公司","lon":"121.48618316","lat":"31.234680175","category":"263","category_name":"公司","address":"上海福州路221号"},{"poiid":"B2094752D465A0FB499B","title":"上海虹桥机场","lon":"121.487549","lat":"31.235199","category":"500","category_name":"未知分类","address":null},{"poiid":"B2094757D06BA0FD4892","title":"黄浦区牙病防治所(江西中路分所)","lon":"121.48794","lat":"31.23393","category":"500","category_name":"未知分类","address":"黄浦区江西中路136弄2号(近广东路)"},{"poiid":"B2094654DA6FA5FA4698","title":"汉光大楼","lon":"121.48532","lat":"31.23568","category":"46","category_name":"楼宇","address":"汉口路271"},{"poiid":"B2094654DA6FAAFC499D","title":"四川中路133号大楼","lon":"121.48885","lat":"31.2346","category":"46","category_name":"楼宇","address":"四川中路133号"},{"poiid":"B2094654DA6FA4F94992","title":"华辉商务楼","lon":"121.48637","lat":"31.23737","category":"46","category_name":"楼宇","address":"江西中路261"},{"poiid":"B2094654DA6FA4FA4892","title":"九江大楼","lon":"121.4876","lat":"31.23711","category":"46","category_name":"楼宇","address":"九江路137"},{"poiid":"B2094655D26DA4F9409A","title":"华侨大楼","lon":"121.48752","lat":"31.23752","category":"46","category_name":"楼宇","address":"沙市一路24"},{"poiid":"B2094757D065A1FC4693","title":"东新大厦","lon":"121.489","lat":"31.2348","category":"500","category_name":"未知分类","address":"上海市黄浦区浙江南路78号"},{"poiid":"B2094752DA6BAAF9409B","title":"名轩会所","lon":"121.487548","lat":"31.23549","category":"500","category_name":"未知分类","address":"上海市 滨江大道3888号"},{"poiid":"B2094654DA6FAAFD419F","title":"上海市对外经济贸易教育培训中心(福州路)","lon":"121.48866","lat":"31.23519","category":"190","category_name":"培训机构","address":"黄浦区福州路89号4楼(福州路四川中路)"},{"poiid":"B2094654DA6FAAFD409D","title":"四川中路145-147号大楼","lon":"121.48882","lat":"31.23476","category":"46","category_name":"楼宇","address":"四川中路145-147号"},{"poiid":"B2094655D264A6F8469C","title":"飞利普大厦","lon":"121.48828","lat":"31.23608","category":"46","category_name":"楼宇","address":"四川中路215"},{"poiid":"B2094757D169A0FE459A","title":"韩一拌饭馆","lon":"121.48567873","lat":"31.23400338","category":"247","category_name":"餐饮美食","address":"上海市黄浦区山东中路222号"},{"poiid":"B2094753D76AA0FC479B","title":"太平洋咖啡(福州路店)","lon":"121.489064","lat":"31.235454","category":"65","category_name":"咖啡厅","address":"上海市黄浦区福州路68号(近四川中路)"},{"poiid":"B2094752D46AA6F8429E","title":"百味园Grand Brasserie","lon":"121.488181","lat":"31.236347","category":"247","category_name":"餐饮美食","address":"中山东一路2号华尔道夫酒店新塔楼(近延安东路)"},{"poiid":"B2094654DA6FABFF4098","title":"黄浦区牙病防治所","lon":"121.48793","lat":"31.23414","category":"162","category_name":"医院","address":"江西中路136弄"},{"poiid":"B2094757D165A5FE4593","title":"Bund Center","lon":"121.48590773","lat":"31.234733396","category":"500","category_name":"未知分类","address":"上海延安东路河南路"},{"poiid":"B2094655D36CA7FA479B","title":"汉口路四川中路","lon":"121.48741","lat":"31.23639","category":"38","category_name":"公交车站","address":""},{"poiid":"B2094654DB64A5F54499","title":"上海手表七厂东楼","lon":"121.48876","lat":"31.23549","category":"46","category_name":"楼宇","address":"四川中路175号"},{"poiid":"B2094655D265A5F8419C","title":"飞利普大厦(北一门)","lon":"121.48758","lat":"31.23626","category":"46","category_name":"楼宇","address":"四川中路215"},{"poiid":"B2094654DA6FA4FA499D","title":"联合大楼","lon":"121.4883","lat":"31.23685","category":"46","category_name":"楼宇","address":"四川中路261"},{"poiid":"B2094655D265A7FF469A","title":"飞利普大厦(北二门)","lon":"121.48805","lat":"31.23638","category":"46","category_name":"楼宇","address":""},{"poiid":"B2094655D26DAAF44193","title":"新泰大楼","lon":"121.48635","lat":"31.2335","category":"46","category_name":"楼宇","address":""},{"poiid":"B2094654DA6FA4F8459B","title":"紫檀黄花梨雕刻尊品展示厅","lon":"121.48886","lat":"31.2357","category":"183","category_name":"展览馆","address":"四川中路200号森联木业3层303室"},{"poiid":"B2094757D065AAF5409E","title":"延安西路凯旋路公交车站","lon":"121.485686538","lat":"31.2345974932","category":"38","category_name":"公交车站","address":"上海延安西路近凯旋路"},{"poiid":"B2094757D06BA0FE409F","title":"864汉口路站","lon":"121.4870188","lat":"31.2362747","category":"38","category_name":"公交车站","address":"上海汉口路江西中路"},{"poiid":"B2094654DA6FA4FB409C","title":"可的(汉口路)","lon":"121.48768","lat":"31.23656","category":"117","category_name":"便民商店/便利店","address":"黄浦区汉口路126号(汉口路四川中路)"},{"poiid":"B2094753DA6FA7FD409C","title":"年代秀饭堂","lon":"121.488395","lat":"31.236131","category":"247","category_name":"餐饮美食","address":"上海市 天津路118号"},{"poiid":"B2094655D26DA3FE419A","title":"良友(汉口路)","lon":"121.48769","lat":"31.23656","category":"117","category_name":"便民商店/便利店","address":""},{"poiid":"B2094654DA6FA4FA4599","title":"好德No.3067","lon":"121.48605","lat":"31.23485","category":"117","category_name":"便民商店/便利店","address":"外滩街道居委"},{"poiid":"B2094654DB69A5FB4098","title":"中国电信(中区公话组营业厅)","lon":"121.48709","lat":"31.23653","category":"151","category_name":"电讯营业厅","address":"黄浦区江西中路232号5楼"},{"poiid":"B2094753D76DA1FC4593","title":"上海外滩美术馆","lon":"121.484977","lat":"31.234899","category":"500","category_name":"未知分类","address":"上海市 上海市黄浦区虎丘路20号"},{"poiid":"B2094654DA6FABFB449F","title":"光明便利No.170","lon":"121.48851","lat":"31.23353","category":"117","category_name":"便民商店/便利店","address":"广东路137-1"},{"poiid":"B2094654DA6FABFB4498","title":"外滩社区卫生服务中心","lon":"121.48816","lat":"31.23336","category":"162","category_name":"医院","address":"黄浦区广西北路230号(近福州路)"},{"poiid":"B2094655D26DA2FC479A","title":"雷允上总店","lon":"121.48532","lat":"31.23563","category":"162","category_name":"医院","address":""},{"poiid":"B2094751D568A3FB449F","title":"上海姥姥","lon":"121.486028","lat":"31.237077","category":"247","category_name":"餐饮美食","address":null},{"poiid":"B2094655D264A1F4439E","title":"TheWineLibrary","lon":"121.48837","lat":"31.23522","category":"181","category_name":"图书馆","address":"福州路106号"},{"poiid":"B2094753D46AA7FC419D","title":"Ciao巧","lon":"121.485046","lat":"31.234935","category":"500","category_name":"未知分类","address":"上海市 汉口路740号"},{"poiid":"B2094757D66EA5F4449F","title":"基督教书刊门市部","lon":"121.486334","lat":"31.236809","category":"125","category_name":"书店","address":"上海黄浦区九江路203号(近江西中路)"},{"poiid":"B2094757D16FA7FA469E","title":"外滩中心21F","lon":"121.48678573","lat":"31.23307536","category":"500","category_name":"未知分类","address":"上海市黄浦区延安东路222号"},{"poiid":"B2094757D06AA7FF459C","title":"东海老年护理医院.","lon":"121.485401845","lat":"31.233900825","category":"162","category_name":"医院","address":"上海近郊南汇东海农场场部(近三三公路)  "},{"poiid":"B2094654DA6FA4FA4392","title":"上海市府大厦门诊部特诊部","lon":"121.48705","lat":"31.23547","category":"162","category_name":"医院","address":"江西中路189"},{"poiid":"B2094757D16CABFF439C","title":"全家便利(福州三店)","lon":"121.48551353","lat":"31.234582063","category":"117","category_name":"便民商店/便利店","address":"上海黄浦区福州路259号(近河南中路)"},{"poiid":"B2094655D26DA4FC4998","title":"泗泾小区(东门)","lon":"121.48747","lat":"31.23413","category":"47","category_name":"住宅区","address":""},{"poiid":"B2094655D26CAAFB489B","title":"汉口小区","lon":"121.48596","lat":"31.237232","category":"47","category_name":"住宅区","address":"九江路18弄1-22号"},{"poiid":"B2094655D26DA3FE419E","title":"汉口小区(南门)","lon":"121.48585","lat":"31.23692","category":"47","category_name":"住宅区","address":"九江路18弄1-22号"},{"poiid":"B2094757D064ABF9419F","title":"上海银行","lon":"121.488466968","lat":"31.2352829278","category":"150","category_name":"银行","address":"上海福州路120号"},{"poiid":"B2094655D26DA2F8459B","title":"昭通小区南门(福州路)","lon":"121.48518","lat":"31.23464","category":"47","category_name":"住宅区","address":"福州路272弄4-18号"},{"poiid":"B2094654DA6FAAFD4098","title":"上海新华书店","lon":"121.48886","lat":"31.23461","category":"125","category_name":"书店","address":"四川中路133号"},{"poiid":"B2094757D66CA6F94092","title":"上海国拍","lon":"121.48835273","lat":"31.235178405","category":"500","category_name":"未知分类","address":"上海福州路108号"},{"poiid":"B2094757D06BA2F9499D","title":"东亚银行","lon":"121.488118","lat":"31.237258","category":"150","category_name":"银行","address":"上海四川中路299号"},{"poiid":"B2094757D16FAAFF439A","title":"The Bund Brewery","lon":"121.48897473","lat":"31.236718438","category":"500","category_name":"未知分类","address":"上海市黄浦区天津路"},{"poiid":"B2094757D169AAFE499A","title":"上海医疗器械批发部","lon":"121.486151","lat":"31.234694","category":"500","category_name":"未知分类","address":"黄浦区河南中路220号(福州路口)"},{"poiid":"B2094757D169A5FD499B","title":"可的便利(河南中路店)","lon":"121.48576","lat":"31.23513","category":"117","category_name":"便民商店/便利店","address":"上海黄浦区河南中路277号  "},{"poiid":"B2094751DA65A2FF439C","title":"光明大廈","lon":"121.48776","lat":"31.233885","category":"252","category_name":"楼宇机构","address":"金陵東路2號"},{"poiid":"B2094757D16AA7F4419B","title":"广发银行","lon":"121.485935838","lat":"31.23444809","category":"500","category_name":"未知分类","address":"黄浦区福州路318号102B室、501室(近山东中路)"},{"poiid":"B2094757D168A2F54692","title":"929路河南中路延安东路","lon":"121.486098888","lat":"31.2335706713","category":"500","category_name":"未知分类","address":"上海929路河南中路延安东路"},{"poiid":"B2094757D065A0F44592","title":"伍缘折扣店(河南路店)","lon":"121.48569756","lat":"31.234171003","category":"117","category_name":"便民商店/便利店","address":"黄浦区昭通路18号(河南路口)"},{"poiid":"B2094757D16EA0FA469A","title":"汤姆室内高尔夫健身中心","lon":"121.487352838","lat":"31.2366428368","category":"148","category_name":"美容美发店","address":"上海浦东新区张杨路3611弄8座306室"},{"poiid":"B2094655D26DA3FE4199","title":"黄浦区质量技术监督稽查队","lon":"121.48539","lat":"31.23664","category":"250","category_name":"公园户外","address":"九江路249号"},{"poiid":"B209475CD76AAAF44598","title":"恒基名人广场","lon":"121.488677","lat":"31.236072","category":"500","category_name":"未知分类","address":"上海市 恒基名人广场"},{"poiid":"B209475CD66AA5FC4093","title":"外滩源","lon":"121.485023","lat":"31.234914","category":"500","category_name":"未知分类","address":"上海市 圆明园路"},{"poiid":"B2094757D068A2FB4698","title":"周大福珠宝商行","lon":"121.48600769","lat":"31.234172821","category":"249","category_name":"购物服务","address":"上海南京东路438号"},{"poiid":"B2094654DA6FA4FA449C","title":"上海市市政公路工程行业协会","lon":"121.48647","lat":"31.23605","category":"250","category_name":"公园户外","address":"汉口路193"},{"poiid":"B2094750D164A7F5449D","title":"船长之家国际青年旅社(日租公寓)","lon":"121.4894516029","lat":"31.235312484937","category":"215","category_name":"三星级宾馆","address":"上海市黄浦区福州路"},{"poiid":"B2094753D468A5F54399","title":"东瀛国际造型","lon":"121.489181","lat":"31.235572","category":"500","category_name":"未知分类","address":"上海市 上海市黄浦区南京东路300号名人购物中心5楼"},{"poiid":"B2094654DA6FA4FA449F","title":"上海市燃气行业协会","lon":"121.48647","lat":"31.23604","category":"250","category_name":"公园户外","address":"汉口路193"},{"poiid":"B2094757D16EA0F44398","title":"福州路四川中路","lon":"121.4889091","lat":"31.2353189","category":"500","category_name":"未知分类","address":"上海福州路四川中路"},{"poiid":"B2094654DA6FABFB4492","title":"亚光书刊电脑经营部小学部","lon":"121.48856","lat":"31.23355","category":"125","category_name":"书店","address":"广东路123-1"},{"poiid":"B2094753D56EA0FF469D","title":"南京东路","lon":"121.487991","lat":"31.2336","category":"500","category_name":"未知分类","address":"上海市 南京东路"},{"poiid":"B2094757D165AAFB409E","title":"江西中路福州路","lon":"121.487296738","lat":"31.2350334025","category":"500","category_name":"未知分类","address":"上海江西中路福州路路口"},{"poiid":"B2094753D164A6FA4593","title":"九久日本料理","lon":"121.485637","lat":"31.237035","category":"500","category_name":"未知分类","address":"上海市 江宁路428号静安体育中心1楼(近武定路)"},{"poiid":"B2094654DA6FA4FA439F","title":"上海银行黄浦支行","lon":"121.48805","lat":"31.2353","category":"150","category_name":"银行","address":"福州路120号"},{"poiid":"B2094757D569A2F8459A","title":"中国基督教两会书刊门市部","lon":"121.4862272","lat":"31.23680013","category":"125","category_name":"书店","address":"黄浦区九江路203号(近江西中路)"},{"poiid":"B2094757D66EA5FE419C","title":"ELAND龙之梦店","lon":"121.485769738","lat":"31.2365694352","category":"141","category_name":"服装鞋帽皮具店","address":"上海龙之梦2楼"},{"poiid":"B2094753D66BABF4489B","title":"四川北路公园","lon":"121.486999","lat":"31.23306","category":"500","category_name":"未知分类","address":"上海市 四川北路"},{"poiid":"B2094751D26CAAF5479C","title":"上海市文广局","lon":"121.489059","lat":"31.235771","category":"500","category_name":"未知分类","address":null},{"poiid":"B2094757D168A7FE449B","title":"瑞福大楼","lon":"121.487","lat":"31.235","category":"252","category_name":"楼宇机构","address":"上海市黄浦区永寿路"},{"poiid":"B2094757D16EA5FE429C","title":"上海银行(江西中路)","lon":"121.4870758","lat":"31.236997604","category":"150","category_name":"银行","address":"上海江西中路250号"},{"poiid":"B2094757D168A4FB4493","title":"自忠路","lon":"121.48688507","lat":"31.23313713","category":"500","category_name":"未知分类","address":"上海古玩市场"},{"poiid":"B2094757D16EA2F5459B","title":"芷江西路共和新路","lon":"121.48923","lat":"31.234692","category":"500","category_name":"未知分类","address":"上海136号"},{"poiid":"B2094750D269A1F9439B","title":"南京路APPLE","lon":"121.488822","lat":"31.235437","category":"500","category_name":"未知分类","address":null},{"poiid":"B2094757D169A3FE4599","title":"江西中路181号","lon":"121.486967","lat":"31.235206","category":"500","category_name":"未知分类","address":"上海福州大厦"},{"poiid":"B2094752DA6AA4F54898","title":"MUSK CAT COFFEE","lon":"121.488549","lat":"31.235306","category":"500","category_name":"未知分类","address":"上海市 滨江店（滨江店）"},{"poiid":"B2094757D16BA4F5489A","title":"moscot来富士","lon":"121.486634","lat":"31.236909","category":"500","category_name":"未知分类","address":"上海西藏中路268号一楼"},{"poiid":"B2094750D26EA2F8499F","title":"交通银行分行营业部","lon":"121.485496","lat":"31.234676","category":"263","category_name":"公司","address":"江西中路200号"},{"poiid":"B2094750D56FA4FE449A","title":"华东建筑设计研究院","lon":"121.485336","lat":"31.23442","category":"263","category_name":"公司","address":"黄浦区汉口路151号"},{"poiid":"B2094757D16EABFA4492","title":"泗泾路","lon":"121.487711429","lat":"31.2336204193","category":"500","category_name":"未知分类","address":"上海泗泾路河南路"},{"poiid":"B2094757D168ABFD419A","title":"17路江西中路汉口路站","lon":"121.48715763","lat":"31.236484533","category":"500","category_name":"未知分类","address":"上海江西中路汉口路"},{"poiid":"B2094654DB64A7F84492","title":"上海市公安局(福州路)","lon":"121.48677","lat":"31.23478","category":"248","category_name":"生活娱乐","address":""},{"poiid":"B2094757D065A7FB4998","title":"泾惠路","lon":"121.48539773","lat":"31.2338854905","category":"500","category_name":"未知分类","address":"上海泾惠路24弄"},{"poiid":"B2094655D265A1FF429B","title":"百分之八十酒吧","lon":"121.4875","lat":"31.23526","category":"172","category_name":"酒吧","address":"江西中路180号"},{"poiid":"B2094757D168A2FC4293","title":"976莲溪路莲园路站","lon":"121.48491303","lat":"31.234888399","category":"500","category_name":"未知分类","address":"上海莲溪路 近莲园路"},{"poiid":"B2094757D16BABF4489A","title":"东亚银行卡中心","lon":"121.488101","lat":"31.237381","category":"500","category_name":"未知分类","address":"厦门四川中路299号"},{"poiid":"B2094757D16DA7F4429A","title":"黄浦区外滩街道社区卫生服务中心金陵分中心","lon":"121.489295959","lat":"31.2354507446","category":"500","category_name":"未知分类","address":"上海广西北路230-1"},{"poiid":"B2094757D16BA7F94192","title":"惠罗商厦","lon":"121.488567712","lat":"31.2369545346","category":"249","category_name":"购物服务","address":"黄浦区南京东路100号(四川中路口)"},{"poiid":"B2094757D165A2FB449F","title":"天下玉家","lon":"121.486908738","lat":"31.2349834014","category":"131","category_name":"珠宝首饰工艺品","address":"上海福州路(近四川路)"},{"poiid":"B2094654DA6FABFF409A","title":"上海化轻染料有限公司(江西中路)","lon":"121.48772","lat":"31.23399","category":"255","category_name":"专卖店","address":"江西中路132号甲"},{"poiid":"B2094757D16CA0F84899","title":"宝寿司昭通路店","lon":"121.48564117","lat":"31.234010971","category":"500","category_name":"未知分类","address":"上海黄浦区昭通路25号(近河南中路)"},{"poiid":"B2094757D065A2FF4998","title":"炼狱火坑","lon":"121.488767625","lat":"31.235032371","category":"500","category_name":"未知分类","address":"宇宙太阳系银河系地球亚洲中国上海黄浦区"},{"poiid":"B2094757D168A2F84193","title":"My daughter is my job","lon":"121.487057738","lat":"31.2350024018","category":"500","category_name":"未知分类","address":"上海每个妈妈的心里"},{"poiid":"B2094757D165A4F5439D","title":"Mistletoe","lon":"121.48685473","lat":"31.2349514","category":"500","category_name":"未知分类","address":"上海Merry Christmas Eilin"},{"poiid":"B2094757D16DABF94499","title":"因为爱情","lon":"121.487250375","lat":"31.23621975","category":"249","category_name":"购物服务","address":"上海将爱情进行到底"},{"poiid":"B2094757D16AA2FA459C","title":"Y&amp;R wunderman Shanghai","lon":"121.488401","lat":"31.236929","category":"500","category_name":"未知分类","address":"上海延安东路550号海洋大厦2201室"},{"poiid":"B2094757D06AA2FC4293","title":"bRuce hOuse","lon":"121.48606513","lat":"31.233792908","category":"500","category_name":"未知分类","address":"上海广东路山东路"},{"poiid":"B2094757D165A4FF4199","title":"四爷党聚集点","lon":"121.487063738","lat":"31.2350284024","category":"500","category_name":"未知分类","address":"上海四爷四爷四爷！"},{"poiid":"B2094757D16AAAFE4492","title":"DKHYB劳动纪律打卡机","lon":"121.486411438","lat":"31.2358455198","category":"500","category_name":"未知分类","address":null},{"poiid":"B2094757D16BA0FA4898","title":"801路中山南路复兴东路站","lon":"121.48717763","lat":"31.236534034","category":"500","category_name":"未知分类","address":"上海中山南路复兴东路"},{"poiid":"B2094654DA6FABFB429A","title":"上海外滩律师事务所","lon":"121.4869","lat":"31.23379","category":"623","category_name":"律师事务所","address":"江西中路135弄9号"},{"poiid":"B2094757D065A1F54699","title":"Pray  &amp;  Bless","lon":"121.48737673","lat":"31.234996401","category":"500","category_name":"未知分类","address":null},{"poiid":"B2094757D16BA1F44692","title":"上海手表厂","lon":"121.488227","lat":"31.23539","category":"500","category_name":"未知分类","address":"上海愉林路201号"},{"poiid":"B2094750D16BABFC499E","title":"爱咪创意美甲","lon":"121.48543191667181","lat":"31.234114871110492","category":"248","category_name":"生活娱乐","address":"黄浦区昭通路23号"},{"poiid":"B2094655D264A6F5489F","title":"博印堂","lon":"121.48513","lat":"31.23461","category":"131","category_name":"珠宝首饰工艺品","address":"黄浦区福州路280号(近河南路)"},{"poiid":"B2094654DA6FAAFD4499","title":"国药集团化学试剂有限公司(福州路)","lon":"121.48796","lat":"31.23505","category":"263","category_name":"公司","address":"福州路123"},{"poiid":"B2094654DA6FA4FA4493","title":"上海华宇药业有限公司(汉口路)","lon":"121.48571","lat":"31.23583","category":"263","category_name":"公司","address":"汉口路239"},{"poiid":"B2094654DA6FA4F8469C","title":"中粮上海粮油进出口有限公司","lon":"121.48889","lat":"31.23661","category":"263","category_name":"公司","address":"汉口路11号"},{"poiid":"B2094654DB6AA1F44493","title":"国药集团化学试剂有限公司生命科学部","lon":"121.48796","lat":"31.23505","category":"263","category_name":"公司","address":"福州路123号"},{"poiid":"B2094654DA6FA4FA469F","title":"上海华瀛建筑科技有限公司","lon":"121.48706","lat":"31.23677","category":"263","category_name":"公司","address":"江西中路246号5层"},{"poiid":"B2094654DA6FA4FA469D","title":"上海电力多种经营有限公司(江西中路)","lon":"121.48706","lat":"31.23677","category":"263","category_name":"公司","address":"江西中路246号3层309"},{"poiid":"B2094654DA6FA4F9489C","title":"上海标准联合国际投资管理有限公司","lon":"121.48638","lat":"31.23738","category":"263","category_name":"公司","address":"江西中路261号华辉商务楼411、405"},{"poiid":"B2094655D26EA0FD4499","title":"上海市公安局(上海市水上公安局东南)","lon":"121.48677","lat":"31.23478","category":"248","category_name":"生活娱乐","address":""},{"poiid":"B2094654DA6FAAFD4099","title":"上海新华发行集团","lon":"121.48885","lat":"31.23461","category":"263","category_name":"公司","address":"四川中路133号"},{"poiid":"B2094654DA6FA4F8469B","title":"上海五矿金沪国际货运有限公司(四川中路)","lon":"121.48884","lat":"31.23607","category":"248","category_name":"生活娱乐","address":"四川中路220"},{"poiid":"B2094654DA6FA4FA449D","title":"上海市水利工程设计研究院","lon":"121.48648","lat":"31.23604","category":"191","category_name":"科研机构","address":"汉口路193"},{"poiid":"B2094655D264A5FD4393","title":"天津银行上海分行24小时自助银行","lon":"121.48797","lat":"31.23666","category":"152","category_name":"ATM","address":"汉口路110号爱建金融大楼"},{"poiid":"B2094654DA6FA4FA4893","title":"上海国际信托有限公司","lon":"121.48783","lat":"31.2372","category":"219","category_name":"其他","address":"九江路111号上投大厦"},{"poiid":"B2094757D169A4F94498","title":"864路(龙华机场~汉口路江西中路)","lon":"121.48697803","lat":"31.23634403","category":"260","category_name":"其他","address":"上海龙华机场~汉口路江西中路"},{"poiid":"B2094655D26DA2F8459A","title":"昭通小区(东门)","lon":"121.48546","lat":"31.23514","category":"656","category_name":"大门","address":""}]