[{"poiid":"B2094757D66EAAFD429D","title":"陶加湾休闲农庄","lon":"121.507575645","lat":"31.0074748201","category":"500","category_name":"未知分类","address":"上海闵行娶浦江镇永南路2018号"},{"poiid":"B2094655D26BA2F4469D","title":"浦星公路永南路","lon":"121.51367","lat":"31.00463","category":"38","category_name":"公交车站","address":""},{"poiid":"B2094655D26BA2F4469E","title":"浦星公路金汇大道","lon":"121.51544","lat":"30.99277","category":"38","category_name":"公交车站","address":""},{"poiid":"B2094654DB68A2FA439C","title":"上海中华职业技术学院","lon":"121.50714","lat":"30.97792","category":"671","category_name":"高校中心点","address":"近郊大叶公路5225号(近浦星公路)"},{"poiid":"B2094757D66CA2FB4692","title":"工业路","lon":"121.50961164","lat":"30.992382483","category":"500","category_name":"未知分类","address":"上海金汇镇工业路"},{"poiid":"B2094655D26DA6FD489E","title":"金汇东街小区(金汇·东街)","lon":"121.50548","lat":"30.98745","category":"47","category_name":"住宅区","address":""},{"poiid":"B2094654DB64AAFB439F","title":"金汇中街小区","lon":"121.50148","lat":"30.98596","category":"47","category_name":"住宅区","address":"金汇镇"},{"poiid":"B2094654DB68A2FA4498","title":"上海玻璃钢研究所","lon":"121.51432","lat":"30.99781","category":"191","category_name":"科研机构","address":"金汇镇"},{"poiid":"B2094654DB6FA0F84099","title":"兰宝科技园","lon":"121.50835","lat":"31.00155","category":"45","category_name":"产业园区","address":""},{"poiid":"B2094654DB64AAFB439C","title":"上海金汇剧院","lon":"121.50174","lat":"30.98806","category":"180","category_name":"剧场","address":""},{"poiid":"B2094757D66CA3F8459C","title":"联智工厂","lon":"121.510167645","lat":"30.9991956356","category":"263","category_name":"公司","address":"上海市奉贤区金碧路"},{"poiid":"B2094757D06BA4F5489D","title":"陶家湾","lon":"121.50774191","lat":"31.008830961","category":"500","category_name":"未知分类","address":"上海闵行区永南路2018号，(近浦星公路)"},{"poiid":"B2094757DA6AA4FB469A","title":"申亚会所","lon":"121.5319228","lat":"30.9977609","category":"500","category_name":"未知分类","address":"奉贤区金汇镇沿浦公路"},{"poiid":"B2094654DB6AA1FA499D","title":"奉贤区金汇中学","lon":"121.50442","lat":"30.98747","category":"55","category_name":"中学","address":"奉贤区金汇镇中学路1号"},{"poiid":"B2094655D36DA7FF479C","title":"中发科技园","lon":"121.51365","lat":"31.00508","category":"38","category_name":"公交车站","address":""},{"poiid":"B2094757D06BA2F84098","title":"奉贤区头桥镇","lon":"121.5275","lat":"30.991001","category":"500","category_name":"未知分类","address":"上海奉贤区"},{"poiid":"B2094654DB65A2FD4693","title":"金汇学校","lon":"121.50328","lat":"30.98763","category":"56","category_name":"小学","address":"近郊奉贤区金汇镇中学路1号"},{"poiid":"B2094654DB6FA0F9479B","title":"闵行区水产技术示范基地","lon":"121.52603","lat":"30.99985","category":"45","category_name":"产业园区","address":""},{"poiid":"B2094757D56EA6FE4398","title":"釜山料理(金汇店)","lon":"121.501253","lat":"30.989461","category":"247","category_name":"餐饮美食","address":"金汇路528号世贸虹桥购物中心1楼"},{"poiid":"B2094757D069A5FC479D","title":"上海市特种设备监督检验技术研究院港口起重机械型式试验中心","lon":"121.50108","lat":"30.988927","category":"52","category_name":"高等院校","address":"上海奉贤区金汇镇金碧路665号"},{"poiid":"B2094655D26BA2F44693","title":"浦星公路大叶公路","lon":"121.51619","lat":"30.97768","category":"38","category_name":"公交车站","address":""},{"poiid":"B2094757D164A3FE449C","title":"上海玻璃钢研究院有限公司","lon":"121.51325224","lat":"31.005430474","category":"500","category_name":"未知分类","address":"上海奉贤区金汇镇迎金路88号"},{"poiid":"B2094654DB6FA0F94392","title":"闵行区鲁汇苗木基地","lon":"121.51288","lat":"31.00728","category":"45","category_name":"产业园区","address":""},{"poiid":"B2094757D56EA4F4419D","title":"奕婷(金汇店)","lon":"121.5011756","lat":"30.9883312","category":"249","category_name":"购物服务","address":"奉贤区金汇镇中街222号"},{"poiid":"B2094655D26FA4F9419D","title":"上海中华学院(南门)","lon":"121.50634","lat":"30.97725","category":"52","category_name":"高等院校","address":""},{"poiid":"B2094757D66DA5FD4898","title":"浦江市民农园","lon":"121.513474945","lat":"31.0100385772","category":"500","category_name":"未知分类","address":"上海浦星公路丰南路"},{"poiid":"B2094654DB64ABF54998","title":"上海农村商业商业银行金汇支行","lon":"121.49881","lat":"30.98837","category":"150","category_name":"银行","address":"金汇镇"},{"poiid":"B2094757D168A4FE409A","title":"上海建设路桥机械设备有限公司","lon":"121.532883978","lat":"30.9880069531","category":"500","category_name":"未知分类","address":"上海金汇工业路188号"},{"poiid":"B2094655D26EA0FA499E","title":"上海农村商业商业银行金汇支行ATM取款机","lon":"121.49881","lat":"30.98837","category":"152","category_name":"ATM","address":""},{"poiid":"B2094757D06BA6F4409E","title":"金汇镇金碧汇虹苑","lon":"121.51505504","lat":"30.974070476","category":"500","category_name":"未知分类","address":"上海大叶路口"},{"poiid":"B2094654DB69A7F84498","title":"金汇派出所","lon":"121.50329","lat":"30.97991","category":"609","category_name":"警察局","address":"奉贤区金闸公路111号"},{"poiid":"B2094757D164A6FD419B","title":"Intel","lon":"121.50351164","lat":"31.009238859","category":"500","category_name":"未知分类","address":"上海紫竹科技园区 紫星路880号"}]