[{"poiid":"B2094655D36CA1FD4492","title":"石龙路地铁站","lon":"121.44431","lat":"31.15736","category":"36","category_name":"地铁站","address":"上海轨道交通 三号线 轨交石龙路站 轻轨 3"},{"poiid":"B2094757D06FA7F94893","title":"柳州螺蛳粉 石龙路店","lon":"121.44338","lat":"31.15687","category":"257","category_name":"中餐厅","address":"徐汇区石龙路121号(近3号线石龙站)"},{"poiid":"B2094654DA65A6FA4199","title":"上海植物园(4号门)","lon":"121.44595","lat":"31.15189","category":"680","category_name":"楼宇机构","address":"罗城路"},{"poiid":"B2094757D06BA3FC4592","title":"桔子摄影","lon":"121.43903099","lat":"31.154246876","category":"500","category_name":"未知分类","address":"上海市徐汇区石龙路411弄18号3楼"},{"poiid":"B2094654DB65A1F44193","title":"东泉小区","lon":"121.44322","lat":"31.156372","category":"47","category_name":"住宅区","address":"东泉路50弄1-30号,64弄11-16号,104弄1-33号"},{"poiid":"B2094757D068A6FF4593","title":"正大综艺摄影棚","lon":"121.43657","lat":"31.15854","category":"500","category_name":"未知分类","address":"徐汇区老沪闵路166号(近漕宝路地铁站)"},{"poiid":"B2094750D06CA1FD429C","title":"新石器烤肉","lon":"121.43589","lat":"31.15396","category":"68","category_name":"快餐厅","address":"徐汇区石龙路750号上海南站地下商场南馆B2楼A区南2-A16铺"},{"poiid":"B2094655D26AA0F9419F","title":"地铁石龙路站","lon":"121.44113","lat":"31.15672","category":"36","category_name":"地铁站","address":""},{"poiid":"B2094757D068A4FD4298","title":"龙吴路龙水南路","lon":"121.447162286","lat":"31.155482737","category":"500","category_name":"未知分类","address":"上海龙吴路龙水南路"},{"poiid":"B2094750D26EA3FC479F","title":"徐家汇地铁站","lon":"121.439998","lat":"31.156708","category":"36","category_name":"地铁站","address":null},{"poiid":"B2094655D36DA6FE4492","title":"石龙路","lon":"121.44113","lat":"31.15672","category":"38","category_name":"公交车站","address":""},{"poiid":"B2094654DB69A4FD499E","title":"锦江之星(铁路南站店)","lon":"121.44915","lat":"31.15936","category":"216","category_name":"经济型连锁酒店","address":"上海市徐汇区龙吴路488号(靠近石龙路口)"},{"poiid":"B2094654DA65A6F94899","title":"上海沪申五官科医院","lon":"121.44297","lat":"31.15646","category":"162","category_name":"医院","address":"徐汇区石龙路269号(东泉路石龙路)"},{"poiid":"B2094654DA65A6FA499B","title":"绿邑翠苑","lon":"121.44838","lat":"31.156845","category":"47","category_name":"住宅区","address":"绿邑翠苑位于徐汇龙吴路555号"},{"poiid":"B2094757D069A2F9419A","title":"挹翠苑","lon":"121.44592","lat":"31.154007","category":"47","category_name":"住宅区","address":"上海东泉路188弄"},{"poiid":"B2094757D06AAAF44093","title":"徐汇区公共卫生中心","lon":"121.44313","lat":"31.153243","category":"500","category_name":"未知分类","address":"上海徐汇区永川路50号"},{"poiid":"B2094655D26EA1F9439E","title":"南京灌汤包东泉路分店","lon":"121.44403","lat":"31.15652","category":"68","category_name":"快餐厅","address":"徐汇区东泉路6号(近石龙路)"},{"poiid":"B2094454D268A7FD459A","title":"龙猫咖啡1号店","lon":"121.439781","lat":"31.151071","category":"247","category_name":"餐饮美食","address":"上海市 上海市石龙路581号"},{"poiid":"B2094750D56FA5FB4092","title":"易园国际新媒体产业园","lon":"121.44068851520535","lat":"31.154803408220406","category":"45","category_name":"产业园区","address":"徐汇区石龙路345弄23-27号"},{"poiid":"B2094757D16DA7FF439E","title":"上海划船俱乐部羽毛球馆","lon":"121.44098408","lat":"31.155976529","category":"220","category_name":"运动场所","address":"徐汇区龙吴路1594号(近罗秀路)"},{"poiid":"B2094654DA65A6FA469E","title":"龙隆酒家","lon":"121.44499","lat":"31.15736","category":"76","category_name":"上海菜","address":"徐汇区石龙路103号(近轻轨石龙路站)"},{"poiid":"B2094757D66EA1FD479A","title":"上海三电贝洱","lon":"121.44098828","lat":"31.154186145","category":"500","category_name":"未知分类","address":"徐汇区石龙路285号(近东泉路)"},{"poiid":"B2094757D569A6FD419C","title":"挹翠名门","lon":"121.444335","lat":"31.15659","category":"47","category_name":"住宅区","address":"挹翠名门位于徐汇东泉路、百龙路(路口)"},{"poiid":"B2094654DA65A6FA449D","title":"良友金伴便利连锁No.529","lon":"121.4444","lat":"31.15649","category":"117","category_name":"便民商店/便利店","address":"东泉路10-12"},{"poiid":"B2094757D065A2F9419E","title":"创意媒体产业园","lon":"121.44791412","lat":"31.153657913","category":"500","category_name":"未知分类","address":"上海龙吴路777号"},{"poiid":"B2094654DA65A6F9489F","title":"徐汇区石龙菜市场","lon":"121.44314","lat":"31.15648","category":"117","category_name":"便民商店/便利店","address":""},{"poiid":"B2094757D469A7FD499B","title":"黑森林 石龙路店 Black Forest","lon":"121.442605","lat":"31.157226","category":"67","category_name":"甜品店","address":"徐汇区石龙路128号(近地铁3号线石龙路站)"},{"poiid":"B2094757D164A0FB479B","title":"东泉佳苑","lon":"121.44413","lat":"31.154181","category":"47","category_name":"住宅区","address":"上海东泉路185弄"},{"poiid":"B2094654DA65A6FA449F","title":"东泉卫生服务站","lon":"121.44466","lat":"31.15616","category":"162","category_name":"医院","address":""},{"poiid":"B2094654DA65A6FA439C","title":"基伟餐厅","lon":"121.44496","lat":"31.15511","category":"71","category_name":"四川菜","address":"徐汇区东泉路(近罗城路)"},{"poiid":"B2094757D169A3FC429F","title":"龙耀路隧道","lon":"121.449241586","lat":"31.1587610343","category":"500","category_name":"未知分类","address":"上海市徐汇区石龙支路"},{"poiid":"B2094655D268A4F5429A","title":"东泉小区(北门)","lon":"121.44306","lat":"31.15677","category":"47","category_name":"住宅区","address":""},{"poiid":"B2094752DA6DA4F8409E","title":"锦江乐园","lon":"121.441741","lat":"31.156694","category":"250","category_name":"公园户外","address":null},{"poiid":"B2094654DA65A6FA449E","title":"东泉小区(1号门)","lon":"121.44472","lat":"31.1557","category":"47","category_name":"住宅区","address":"东泉路50弄1-30号、64弄11-16号、104弄1-33号"},{"poiid":"B2094654DA65A6F94698","title":"春天商务楼","lon":"121.44101","lat":"31.15472","category":"46","category_name":"楼宇","address":"石龙路345弄7号春天商务楼内(石龙路永川路)"},{"poiid":"B2094750D664A2FD419F","title":"广西一绝螺丝粉","lon":"121.445","lat":"31.1575","category":"68","category_name":"快餐厅","address":"徐汇区石龙路500号(近地铁3号线石龙路站)"},{"poiid":"B2094655D26FABF5459E","title":"挹翠苑(侧门)","lon":"121.44516","lat":"31.15448","category":"47","category_name":"住宅区","address":"东泉路188弄1-80号"},{"poiid":"B2094757D16AA0FB4393","title":"豪大大香鸡排(石龙路店)","lon":"121.441412586","lat":"31.1556359733","category":"247","category_name":"餐饮美食","address":"上海市石龙路158号"},{"poiid":"B2094757D16DA1FA429E","title":"东上海影视基地","lon":"121.440484","lat":"31.155373","category":"500","category_name":"未知分类","address":"上海石龙路345弄"},{"poiid":"B2094757D06AA6FB449E","title":"东泉路","lon":"121.44448124","lat":"31.155834057","category":"500","category_name":"未知分类","address":"上海东泉新村"},{"poiid":"B2094757D16AABFB4199","title":"龙腾大道","lon":"121.43878058","lat":"31.150743877","category":"500","category_name":"未知分类","address":"上海市徐汇区龙腾大道"},{"poiid":"B2094757D16FA2F5499A","title":"新疆喀什烤肉王","lon":"121.438118586","lat":"31.1503038692","category":"90","category_name":"清真餐馆","address":"徐汇区罗城路403号(近龙川路)"},{"poiid":"B2094757D068A4F44799","title":"石龍路","lon":"121.44387817","lat":"31.156946182","category":"500","category_name":"未知分类","address":"上海東泉"},{"poiid":"B2094654DA65ABFF419E","title":"黄石饭店","lon":"121.45031","lat":"31.15706","category":"76","category_name":"上海菜","address":"徐汇区龙吴路555弄黄石宾馆2楼(黄石路龙吴路)"},{"poiid":"B2094654DA65A6FA429E","title":"快客(东泉路)","lon":"121.44525","lat":"31.1542","category":"117","category_name":"便民商店/便利店","address":"东泉路186识别"},{"poiid":"B2094757D168A4F54699","title":"空视觉","lon":"121.441765","lat":"31.156172","category":"500","category_name":"未知分类","address":"徐汇区石龙路329号110室(近东泉路)"},{"poiid":"B2094655D268A4F54192","title":"石龙路95弄小区","lon":"121.44532","lat":"31.1571","category":"47","category_name":"住宅区","address":"石龙路95弄"},{"poiid":"B2094757D06AA4FE4999","title":"大众徐汇4S","lon":"121.450896","lat":"31.153296","category":"47","category_name":"住宅区","address":"上海龙水南路386号"},{"poiid":"B2094654DA65A6F9479F","title":"上海呈捷燃气助动车特约维修(石龙路)","lon":"121.44178","lat":"31.15635","category":"133","category_name":"自行车专卖店","address":"石龙路329号"},{"poiid":"B2094750D26DA7FF479C","title":"万体馆","lon":"121.43970054","lat":"31.15793687","category":"500","category_name":"未知分类","address":null},{"poiid":"B2094757D06AA7FF409E","title":"俊龙酒楼","lon":"121.45072","lat":"31.15653","category":"76","category_name":"上海菜","address":"徐汇区黄石路8号(龙吴路口)"},{"poiid":"B2094757D16CA5F9459A","title":"ssb","lon":"121.44269609","lat":"31.153731903","category":"249","category_name":"购物服务","address":"上海石龙路285号"},{"poiid":"B2094655D36CA1F8419C","title":"龙吴路黄石路","lon":"121.44999","lat":"31.15579","category":"38","category_name":"公交车站","address":"上海178大站车"},{"poiid":"B2094753D66CA0FE459B","title":"徐汇德必易园","lon":"121.443203","lat":"31.15218","category":"47","category_name":"住宅区","address":"上海市 上海市徐汇区石龙路345弄27号"},{"poiid":"B2094654DA65AAF84292","title":"浦南畜禽处理站石龙路收集点","lon":"121.43959","lat":"31.15598","category":"162","category_name":"医院","address":"石龙路346-3"},{"poiid":"B2094654DA65AAF8429F","title":"光明乳业港口块配送站","lon":"121.43944","lat":"31.15593","category":"117","category_name":"便民商店/便利店","address":""},{"poiid":"B2094454D26DAAFA4199","title":"龙猫咖啡","lon":"121.439735","lat":"31.151138","category":"247","category_name":"餐饮美食","address":"上海市 上海南站"},{"poiid":"B2094757D06AA1F84692","title":"广汽本田亚欧4S店","lon":"121.45074069","lat":"31.152941037","category":"500","category_name":"未知分类","address":"上海徐汇区龙吴路900号"},{"poiid":"B2094655D26FA6FE449C","title":"上岛咖啡(石龙路)","lon":"121.43614","lat":"31.15385","category":"260","category_name":"其他","address":"徐汇区石龙路567号(近上海南站)"},{"poiid":"B2094757D16DA1FF449B","title":"上海大众交运起元","lon":"121.450696586","lat":"31.1534796312","category":"260","category_name":"其他","address":"徐汇区龙水南路386号"},{"poiid":"B2094757D16FABF4409A","title":"上海通远汽车销售服务有限公司","lon":"121.449349323","lat":"31.1596874665","category":"500","category_name":"未知分类","address":"徐汇区龙吴路420号(近石龙路)"},{"poiid":"B2094655D268A0FF479C","title":"上海西南工程学校(南门)","lon":"121.44764","lat":"31.15289","category":"52","category_name":"高等院校","address":"龙吴路779"},{"poiid":"B2094757D66EA1F44292","title":"金太龙形象设计美容连锁机构","lon":"121.44437258","lat":"31.157284005","category":"148","category_name":"美容美发店","address":"上海市徐汇区石龙路113号"},{"poiid":"B2094757DA69A2F5469C","title":"桔子摄影国际店","lon":"121.426907","lat":"31.182223","category":"611","category_name":"照相馆","address":"中山西路2020号华宜大厦二层（近宜山路）"},{"poiid":"B2094654DA65AAF94198","title":"石龙商务中心","lon":"121.44669","lat":"31.15826","category":"46","category_name":"楼宇","address":"石龙路38"},{"poiid":"B2094757D06BA0F44793","title":"汇成三村","lon":"121.441","lat":"31.1509","category":"252","category_name":"楼宇机构","address":"上海百色路"},{"poiid":"B2094655D26DA7F5429B","title":"龙华花园","lon":"121.44831","lat":"31.155005","category":"47","category_name":"住宅区","address":"龙吴路585弄1-34号,587弄1-30号,589弄1-21号"},{"poiid":"B2094757D164AAFD459D","title":"东方翻译中心","lon":"121.44540028","lat":"31.156600192","category":"500","category_name":"未知分类","address":"上海石龙路345弄"},{"poiid":"B2094757D06AABFD449C","title":"长桥花鸟市场","lon":"121.438987","lat":"31.150205","category":"249","category_name":"购物服务","address":"上海徐汇区罗城路389号"},{"poiid":"B2094655D26BA3FA469E","title":"广翰小厨","lon":"121.434252054","lat":"31.152614793","category":"72","category_name":"广东菜","address":"徐汇区石龙路569号2号楼1楼OK宾馆内(近上海南站)"},{"poiid":"B2094654DA65A6FA439A","title":"徐汇区来沪人员计划生育宣传服务培训中心","lon":"121.44549","lat":"31.1544","category":"190","category_name":"培训机构","address":"东泉路182识别"},{"poiid":"B2094654DA65AAF9409E","title":"上海市人民检察院汽车修理检测站","lon":"121.44406","lat":"31.15754","category":"159","category_name":"汽车维修","address":"石龙路110"},{"poiid":"B209475CD66CA6F94698","title":"馨逸公寓","lon":"121.440589","lat":"31.160362","category":"47","category_name":"住宅区","address":"上海市 徐汇区宾南路36弄"},{"poiid":"B2094757D16BA1FC489B","title":"徐家桥","lon":"121.44570158","lat":"31.154772956","category":"500","category_name":"未知分类","address":"上海市徐汇区罗城路永川路"},{"poiid":"B2094655D264A0F5479F","title":"绿邑叠翠","lon":"121.44838","lat":"31.15685","category":"47","category_name":"住宅区","address":"上海市徐汇区龙吴路555弄"},{"poiid":"B2094654DA65A6F9429F","title":"上海市环境工程设计科学研究院","lon":"121.44152","lat":"31.15416","category":"191","category_name":"科研机构","address":"石龙路345弄11"},{"poiid":"B2094757D064A6FF4593","title":"古韵摄影","lon":"121.43865","lat":"31.1535","category":"611","category_name":"照相馆","address":"徐汇区石龙路411弄28号201室(近上海电子艺术中心)"},{"poiid":"B2094757D16BA4F54198","title":"徐汇区石龙路345弄3号6楼","lon":"121.44501693","lat":"31.15755121","category":"500","category_name":"未知分类","address":"上海石龙路345弄3号"},{"poiid":"B2094654DA65A6FB409E","title":"上海市西南工程学校(龙吴路)","lon":"121.44683","lat":"31.15401","category":"253","category_name":"校园生活","address":"龙吴路779"},{"poiid":"B2094654DA65ABFF4299","title":"伊加伊(黄石路)","lon":"121.45083","lat":"31.15708","category":"68","category_name":"快餐厅","address":"徐汇区黄石路15号(近喜泰北路)"},{"poiid":"B2094654DA65A6FB409D","title":"挹翠苑(2号门)","lon":"121.44645","lat":"31.15256","category":"47","category_name":"住宅区","address":""},{"poiid":"B2094750D56DA4FD4598","title":"徐家汇 港汇","lon":"121.44712","lat":"31.16105","category":"500","category_name":"未知分类","address":null},{"poiid":"B2094655D268A3F9439E","title":"潘李家宅(北门)","lon":"121.44445","lat":"31.15177","category":"47","category_name":"住宅区","address":""},{"poiid":"B2094654DA65A6FA469A","title":"石龙路邮政所","lon":"121.44483","lat":"31.15732","category":"248","category_name":"生活娱乐","address":"徐汇区石龙路105号"},{"poiid":"B2094655D268A3F9439F","title":"潘李家宅","lon":"121.44462","lat":"31.15121","category":"47","category_name":"住宅区","address":""},{"poiid":"B2094757D169A4FF4899","title":"天龙苑","lon":"121.44769","lat":"31.157635","category":"500","category_name":"未知分类","address":"上海市徐汇区石龙路33号"},{"poiid":"B2094757D66DA5F44398","title":"华氏大药房(南站店)","lon":"121.44774","lat":"31.15814","category":"162","category_name":"医院","address":"徐汇区石龙路38号(石龙路石龙支路)"},{"poiid":"B2094757D16AAAFC459D","title":"黄石路烧烤摊","lon":"121.45042","lat":"31.15671","category":"68","category_name":"快餐厅","address":"徐汇区黄石路口(近龙吴路)"},{"poiid":"B2094654DA65A6F94093","title":"上海华谊集团建设有限公司","lon":"121.43998","lat":"31.15528","category":"263","category_name":"公司","address":"石龙路345弄2"},{"poiid":"B2094654DA65A6FA4898","title":"无限极(石龙路)","lon":"121.44796","lat":"31.15809","category":"162","category_name":"医院","address":"石龙路25"},{"poiid":"B2094654DB64A2F94893","title":"住大商务楼(罗城路)","lon":"121.43865","lat":"31.15109","category":"46","category_name":"楼宇","address":"罗城路530"},{"poiid":"B2094655D26EA3F44693","title":"商务楼","lon":"121.44958","lat":"31.15592","category":"46","category_name":"楼宇","address":"龙吴路575-577"},{"poiid":"B2094655D265A2FC439C","title":"上海百姓装潢有限公司","lon":"121.43989","lat":"31.15612","category":"263","category_name":"公司","address":"石龙路344-1、346"},{"poiid":"B2094654DB64A2FA4099","title":"黑森林食品(石龙路)","lon":"121.44638","lat":"31.15712","category":"263","category_name":"公司","address":"石龙路83"},{"poiid":"B2094655D268A1FF4093","title":"南站治安派出所","lon":"121.44697","lat":"31.15724","category":"609","category_name":"警察局","address":"石龙路79弄1"},{"poiid":"B2094751D56AA3F5469D","title":"浦东老八样","lon":"121.4448","lat":"31.16167","category":"76","category_name":"上海菜","address":"徐汇区南宁路660号(近三江路)"},{"poiid":"B2094757D568A2F94193","title":"镕鑫旅馆","lon":"121.439346","lat":"31.154052","category":"217","category_name":"旅馆招待所","address":"永川路161"},{"poiid":"B2094757D168A7FE449C","title":"上海南动车运用所","lon":"121.4371464","lat":"31.1605879","category":"500","category_name":"未知分类","address":"上海市徐汇区南宁路661号"},{"poiid":"B2094750D76FAAFC499B","title":"豪门石龙大酒店","lon":"121.447","lat":"31.1582","category":"260","category_name":"其他","address":"徐汇区石龙路38号(近龙吴路)"},{"poiid":"B2094655D268A4F54193","title":"石龙路95弄小区(侧门)","lon":"121.44465","lat":"31.15725","category":"656","category_name":"大门","address":"石龙路95弄"},{"poiid":"B2094655D268A4F54892","title":"龙华花园(侧门)","lon":"121.4497","lat":"31.15566","category":"47","category_name":"住宅区","address":""},{"poiid":"B2094757D16DA7FC4999","title":"中国石化石龙路加油站","lon":"121.4391908","lat":"31.152008801","category":"500","category_name":"未知分类","address":"上海徐汇区石龙路577号"},{"poiid":"B2094654DB64A2FA409D","title":"鑫龙苑(龙吴路)","lon":"121.44926","lat":"31.15768","category":"47","category_name":"住宅区","address":"龙吴路515号"},{"poiid":"B2094655D26AA4F8449B","title":"北京现代汽车通现特约销售服务店","lon":"121.44911","lat":"31.16009","category":"247","category_name":"餐饮美食","address":"徐汇区龙吴路420号(近石龙路)"},{"poiid":"B2094654DA65A6FA499C","title":"徐汇公安分局交通警察支队六中队","lon":"121.44953","lat":"31.15441","category":"250","category_name":"公园户外","address":"龙吴路665号"},{"poiid":"B2094757D16FA0F44299","title":"旬阳新村","lon":"121.44479958","lat":"31.161077079","category":"47","category_name":"住宅区","address":"上海旬阳"},{"poiid":"B2094753D66AA3FF439C","title":"新天地","lon":"121.439453","lat":"31.149948","category":"500","category_name":"未知分类","address":"上海市 淮海路"},{"poiid":"B2094757D065ABFA469F","title":"三菱汽车嘉顺4S店","lon":"121.45018","lat":"31.154738","category":"158","category_name":"汽车销售","address":"上海龙吴路580号"},{"poiid":"B2094757D16CA0FF4898","title":"鑫龙苑","lon":"121.44917458","lat":"31.158446028","category":"500","category_name":"未知分类","address":"上海市徐汇区石龙支路"},{"poiid":"B2094654DA65ABFF4199","title":"快客(黄石饭店北)","lon":"121.45028","lat":"31.15711","category":"117","category_name":"便民商店/便利店","address":""},{"poiid":"B2094654DA65A6FF469A","title":"上海玛萨美容美发有限公司","lon":"121.43865","lat":"31.15109","category":"148","category_name":"美容美发店","address":"罗城路530号住大商务楼4层"},{"poiid":"B2094751DA6FA2F8469D","title":"衡山路","lon":"121.449785","lat":"31.154893","category":"500","category_name":"未知分类","address":null},{"poiid":"B2094757D16BA5FE489C","title":"932路龙吴路黄石路站","lon":"121.44944113","lat":"31.155682474","category":"500","category_name":"未知分类","address":"上海龙吴路"},{"poiid":"B2094655D268A4F5419D","title":"石龙路95弄小区(北门)","lon":"121.4452","lat":"31.15744","category":"656","category_name":"大门","address":"石龙路95弄"},{"poiid":"B209475CD16EAAF94292","title":"徐汇滨江","lon":"121.437988","lat":"31.150661","category":"47","category_name":"住宅区","address":"上海市 龙腾大道"},{"poiid":"B2094655D268A4F5489D","title":"恒龙苑(侧门)","lon":"121.43799","lat":"31.15027","category":"47","category_name":"住宅区","address":"罗城路570弄1-32号"},{"poiid":"B2094757D16DA0FB4993","title":"恒龙苑","lon":"121.43777","lat":"31.150768","category":"500","category_name":"未知分类","address":"上海罗城路570弄"},{"poiid":"B2094757D16DAAFE4698","title":"178路终点站","lon":"121.44947638","lat":"31.155124063","category":"500","category_name":"未知分类","address":"上海龙华"},{"poiid":"B2094654DB64A2F9499A","title":"快客(罗城路)","lon":"121.43814","lat":"31.15033","category":"117","category_name":"便民商店/便利店","address":""},{"poiid":"B2094757D16FA4F8439A","title":"上海通现现代4S店","lon":"121.449223","lat":"31.159709","category":"500","category_name":"未知分类","address":"上海徐汇区龙吴路420号"},{"poiid":"B2094753D66CA3FA4998","title":"徐汇区","lon":"121.438217","lat":"31.151657","category":"500","category_name":"未知分类","address":"上海市 徐汇区徐家汇"},{"poiid":"B2094654DA65AAFF4599","title":"上海正大综艺电视制作有限公司","lon":"121.43714","lat":"31.15896","category":"252","category_name":"楼宇机构","address":"老沪闵路166"},{"poiid":"B2094757D16DA0FB439F","title":"素芝齋","lon":"121.44992771","lat":"31.15912817","category":"247","category_name":"餐饮美食","address":"上海喜泰北路"},{"poiid":"B2094757D16BA4FB469F","title":"上海多灵沃森机械设备有限公司","lon":"121.437832586","lat":"31.154853958","category":"263","category_name":"公司","address":"上海石龙路555号"},{"poiid":"B2094757D16BA2FC4598","title":"上海大众汽车龙华特约维修站","lon":"121.44855458","lat":"31.160986077","category":"500","category_name":"未知分类","address":"上海市徐汇区龙吴路"},{"poiid":"B2094654DA65ABFE419C","title":"西南物流商务楼","lon":"121.44811","lat":"31.16157","category":"46","category_name":"楼宇","address":"龙吴路400-5临"},{"poiid":"B2094654DA65A6F8479D","title":"宜家便利No.001","lon":"121.43608","lat":"31.1538","category":"117","category_name":"便民商店/便利店","address":"石龙路567"},{"poiid":"B2094757D06AABFC489F","title":"聚龙新苑","lon":"121.45094","lat":"31.156487","category":"252","category_name":"楼宇机构","address":"上海市徐汇区黄石路8号"},{"poiid":"B2094654DB64A2F9489D","title":"中国电信","lon":"121.43821","lat":"31.14996","category":"151","category_name":"电讯营业厅","address":"徐汇区罗城路413号(龙川北路)"},{"poiid":"B2094654DA65A6FF499A","title":"恒龙苑(边门)","lon":"121.43778","lat":"31.15077","category":"47","category_name":"住宅区","address":"罗城路570弄1-32号"},{"poiid":"B2094654DA65ABFE419E","title":"快客No.6726","lon":"121.44799","lat":"31.16163","category":"117","category_name":"便民商店/便利店","address":"龙吴路400-1识别"},{"poiid":"B2094655D26BA7FF449C","title":"上海巴士六汽公共交通有限公司第三分公司","lon":"121.44619","lat":"31.15994","category":"263","category_name":"公司","address":""},{"poiid":"B2094757D169A4FF449E","title":"石龙路工业园区","lon":"121.43670458","lat":"31.154402949","category":"252","category_name":"楼宇机构","address":"上海石龙路411号"},{"poiid":"B2094654DB64ABF8469B","title":"漕河泾地段医院","lon":"121.43582","lat":"31.15271","category":"162","category_name":"医院","address":"徐汇区石龙路581号"},{"poiid":"B2094757D66CA3F94499","title":"锦鹰台球会所","lon":"121.45035658","lat":"31.157152002","category":"171","category_name":"台球厅","address":"徐汇区黄石路538号"},{"poiid":"B2094654DA65ABFF429B","title":"黄石宾馆","lon":"121.45056","lat":"31.15703","category":"250","category_name":"公园户外","address":"徐汇区黄石路1号(近龙吴路)"},{"poiid":"B2094757D16EABFC409B","title":"中石化龙吴路站","lon":"121.44829758","lat":"31.158941037","category":"500","category_name":"未知分类","address":"上海市徐汇区龙吴路罗城路"},{"poiid":"B209475CD168AAFB499A","title":"上海南站","lon":"121.448028","lat":"31.160726","category":"500","category_name":"未知分类","address":"上海市 上海南站"},{"poiid":"B2094654DA65AAF8429E","title":"地铁运营有限公司石龙路基地(石龙路)","lon":"121.43573","lat":"31.15492","category":"263","category_name":"公司","address":"石龙路588"},{"poiid":"B2094654DA65AAF9499C","title":"新龙华站","lon":"121.44576","lat":"31.16097","category":"248","category_name":"生活娱乐","address":"石龙支路8"},{"poiid":"B2094757D165A4FE4992","title":"754终点站","lon":"121.450238586","lat":"31.1560409812","category":"500","category_name":"未知分类","address":"上海体育场"},{"poiid":"B2094654DB65A0FD449A","title":"地铁运营有限公司石龙路基地(正门)","lon":"121.4356","lat":"31.15406","category":"263","category_name":"公司","address":"石龙路588"},{"poiid":"B2094655D268A0FF4798","title":"汇达苑小区(侧门)","lon":"121.43805","lat":"31.14991","category":"47","category_name":"住宅区","address":""},{"poiid":"B2094757D16FA2FD4098","title":"馨汇南苑21号楼","lon":"121.436692086","lat":"31.1543467481","category":"252","category_name":"楼宇机构","address":null},{"poiid":"B2094757D568AAF5499C","title":"中国元素","lon":"121.4386589","lat":"31.1511","category":"255","category_name":"专卖店","address":"罗城路530号"},{"poiid":"B2094654DA65ABF8449D","title":"小刘车行(龙吴路)","lon":"121.45034","lat":"31.15641","category":"133","category_name":"自行车专卖店","address":""},{"poiid":"B209475CD268A3F54698","title":"大悦城","lon":"121.436088","lat":"31.159049","category":"500","category_name":"未知分类","address":"上海市 大悦城"},{"poiid":"B2094752D068A0FB4698","title":"世博中心","lon":"121.43689","lat":"31.155888","category":"500","category_name":"未知分类","address":null},{"poiid":"B2094654DA65AAF94792","title":"龙大车行","lon":"121.44767","lat":"31.16079","category":"133","category_name":"自行车专卖店","address":"龙吴路315"},{"poiid":"B2094757D164A5F4409C","title":"上师大五教","lon":"121.442588586","lat":"31.1622151017","category":"500","category_name":"未知分类","address":"上海徐汇校区"},{"poiid":"B2094757D065A3FC489A","title":"街盟斗秀场","lon":"121.43740081","lat":"31.151147842","category":"148","category_name":"美容美发店","address":"徐汇区龙川北路739弄5号(汾阳中学正对面)"},{"poiid":"B2094757D06BA7F9479E","title":"VW School(大众学院)","lon":"121.435587","lat":"31.153561","category":"158","category_name":"汽车销售","address":"上海徐汇区石龙路573-575号"},{"poiid":"B2094757D164A4F5479A","title":"公路规费征收管理办公室第二征稽所","lon":"121.448495","lat":"31.16069","category":"500","category_name":"未知分类","address":"上海龙吴路17号"},{"poiid":"B2094654DA65ABFE479C","title":"上海大众汽车龙华特约维修站有限公司","lon":"121.44931","lat":"31.16072","category":"159","category_name":"汽车维修","address":"徐汇区龙吴路410弄8号(近石龙路)"},{"poiid":"B2094757D66DA5FF489D","title":"文峰美容美发(罗秀路店)","lon":"121.43998","lat":"31.1623","category":"148","category_name":"美容美发店","address":"上海闵行区罗秀路1869号(近一号线莲花路站)  "},{"poiid":"B2094757D169A6FF4193","title":"Intertek","lon":"121.446963252","lat":"31.149218298","category":"500","category_name":"未知分类","address":"上海市宜山路889号齐来工业城四号楼2楼"},{"poiid":"B2094757D66DA3FA409C","title":"皮诺曹 Home","lon":"121.44975058","lat":"31.160128061","category":"500","category_name":"未知分类","address":"上海闸北区安庆路510弄"},{"poiid":"B2094654DA65ABFE4492","title":"上海大晃泵业公司技术中心","lon":"121.44812","lat":"31.16158","category":"263","category_name":"公司","address":"龙吴路400-5临西南物流商务楼7层709室"},{"poiid":"B2094757DA6EAAF84099","title":"龙华环卫所","lon":"121.447869000003","lat":"31.1614943000002","category":"248","category_name":"生活娱乐","address":null},{"poiid":"B2094757D16FA2FC4098","title":"石龙路车库","lon":"121.43527818","lat":"31.154263646","category":"262","category_name":"停车场","address":"上海石龙路"}]