[{"poiid":"B2094655D26BA0FD479D","title":"世博洲际酒店","lon":"121.50538","lat":"31.19933","category":"213","category_name":"五星级宾馆","address":"浦东新区雪野路1188号(近南码头路)"},{"poiid":"B2094757D06FA0F8439A","title":"宝莱纳餐厅(世博店)","lon":"121.504113332","lat":"31.1982851473","category":"260","category_name":"其他","address":"浦东新区世博大道555号1-2楼(近雪野路)"},{"poiid":"B2094751D26CA1F84692","title":"上海当代艺术博物馆","lon":"121.498542","lat":"31.200687","category":"500","category_name":"未知分类","address":"西藏南路世博园区"},{"poiid":"B2094655D26DA7FA489C","title":"浦南医院","lon":"121.51039","lat":"31.19795","category":"162","category_name":"医院","address":"上海浦东新区浦东南路2400号"},{"poiid":"B2094757D06FA1F94793","title":"南码头轮渡","lon":"121.50582772","lat":"31.202802396","category":"260","category_name":"其他","address":"上海浦东新区南码头路1号摆渡口"},{"poiid":"B2094757D06FA5F9429C","title":"多利萝玛(Tony Roma's)","lon":"121.5040196","lat":"31.196038751","category":"94","category_name":"西餐厅","address":"浦东新区世博村B地块雪野路1057号B9-101C室(近沂南路)"},{"poiid":"B2094757D068A6F5439B","title":"世博会城市未来馆","lon":"121.49785","lat":"31.20127","category":"500","category_name":"未知分类","address":"上海世博会E片区"},{"poiid":"B2094757D168AAF4469C","title":"上海世博园","lon":"121.506916","lat":"31.193412","category":"500","category_name":"未知分类","address":"中国上海"},{"poiid":"B2094757D468AAFE419C","title":"蜀府 世博店","lon":"121.50602","lat":"31.19398","category":"71","category_name":"四川菜","address":"浦东新区世博大道1200号梅赛德斯奔驰中心6楼"},{"poiid":"B2094757D66CA4FE479B","title":"滨江大道-世博段","lon":"121.502270053","lat":"31.1976926018","category":"500","category_name":"未知分类","address":"上海世博大道沿江段"},{"poiid":"B2094757D065A0FD4493","title":"Bubba's Texas-style BBQ(世博村店)","lon":"121.504977","lat":"31.196236","category":"94","category_name":"西餐厅","address":"浦东新区雪野路240号(近沂南路)"},{"poiid":"B2094757D16DAAF4429E","title":"仙炙轩 世博店 Ambrosia","lon":"121.504652","lat":"31.200724","category":"247","category_name":"餐饮美食","address":"浦东新区世博大道555号4楼(雪野路口)"},{"poiid":"B2094655D26BA2F54492","title":"浦东南路华丰路","lon":"121.50691","lat":"31.19281","category":"38","category_name":"公交车站","address":""},{"poiid":"B2094757D068A3FB4892","title":"云餐厅(世博店)","lon":"121.49891375","lat":"31.200957366","category":"260","category_name":"其他","address":"黄浦区南车站路世博园城市未来馆7-8楼(近半淞园路9月份营业)"},{"poiid":"B2094757D068ABFE4999","title":"上海世博东湖公寓酒店","lon":"121.505364591","lat":"31.1967514842","category":"217","category_name":"旅馆招待所","address":"浦东新区雪野路999号"},{"poiid":"B2094757D069A6FB4698","title":"汉庭快捷浦东南路店(原世博村店)","lon":"121.50672","lat":"31.19234","category":"217","category_name":"旅馆招待所","address":"上海浦东新区浦东南路3500号(近华丰路)  "},{"poiid":"B2094750DB69A3FD4993","title":"镭战大联盟","lon":"121.501408","lat":"31.204725","category":"248","category_name":"生活娱乐","address":"黄浦区外马路1353号(近南浦大桥)"},{"poiid":"B2094750DB6CA6FA409A","title":"上海当代艺术博物馆","lon":"121.498191","lat":"31.200557","category":"248","category_name":"生活娱乐","address":"黄浦区花园港路"},{"poiid":"B2094654DB65A7FA4298","title":"格林豪泰上海世博园酒店","lon":"121.50691","lat":"31.19341","category":"216","category_name":"经济型连锁酒店","address":"上海市浦东新区浦东南路3500号(近南码头路)"},{"poiid":"B2094655D26EA2F44199","title":"山城烤鱼浦三店","lon":"121.51065","lat":"31.19831","category":"88","category_name":"海鲜酒楼","address":"浦东新区浦东南路浦南医院附近(近临沂路)"},{"poiid":"B2094757D068ABF8419D","title":"南码头小区","lon":"121.509275732","lat":"31.1982065693","category":"47","category_name":"住宅区","address":"上海浦东南路浦三路"},{"poiid":"B2094753D46CA6F4459C","title":"梅赛德斯奔驰文化中心","lon":"121.507537","lat":"31.193929","category":"500","category_name":"未知分类","address":"上海市 上海世博园"},{"poiid":"B2094757D06AA6F54493","title":"世博村","lon":"121.50436693","lat":"31.197464102","category":"47","category_name":"住宅区","address":"上海浦东新区雪野路(近沂南路)"},{"poiid":"B2094750DA64ABFE469E","title":"上海当代艺术博物馆","lon":"121.499153","lat":"31.200927","category":"500","category_name":"未知分类","address":null},{"poiid":"B2094757D064A0F8459B","title":"一一八八 Cafe 1188","lon":"121.505704","lat":"31.2001","category":"247","category_name":"餐饮美食","address":"雪野路1188号世博洲际酒店1楼内近南码头路"},{"poiid":"B2094757D068A3FC439D","title":"陈记烧烤","lon":"121.51050259","lat":"31.197492468","category":"68","category_name":"快餐厅","address":"浦东新区南码头支路81号(胶南路口)"},{"poiid":"B2094757D76DA0F4439B","title":"巴赛丽意大利餐厅 Basilico","lon":"121.505704","lat":"31.20014","category":"94","category_name":"西餐厅","address":"浦东新区雪野路1188号世博洲际酒店内(近世博大道)"},{"poiid":"B209475CD768A0FF4499","title":"pulupulu主题游戏馆","lon":"121.504699","lat":"31.203042","category":"500","category_name":"未知分类","address":"上海市 苗江路139号"},{"poiid":"B2094750DB6BA0FA469A","title":"上海当代艺术博物馆","lon":"121.498847","lat":"31.199577","category":"500","category_name":"未知分类","address":"黄浦区花园港路200号上海当代艺术博物馆1楼(近苗江路)"},{"poiid":"B2094757D06BA3F5499A","title":"世博会L1码头","lon":"121.50177002","lat":"31.195886611","category":"500","category_name":"未知分类","address":"上海世博会L1码头"},{"poiid":"B2094654DA6AA3F84898","title":"风味小吃","lon":"121.50752","lat":"31.20025","category":"68","category_name":"快餐厅","address":"浦东新区浦东南路2386号(近胶南路)"},{"poiid":"B2094757D66AA0F8469A","title":"盛会堂","lon":"121.50567","lat":"31.20018","category":"87","category_name":"特色／地方风味餐厅","address":"浦东新区雪野路1188号洲际酒店2楼(南码头渡口)"},{"poiid":"B2094654DB69A7F94299","title":"西三小区","lon":"121.50658","lat":"31.200727","category":"47","category_name":"住宅区","address":"浦东新区西三小区"},{"poiid":"B2094654DB6AA6FF419F","title":"南码头渡口","lon":"121.50591","lat":"31.20227","category":"34","category_name":"港口码头","address":""},{"poiid":"B2094757D065A5F9499F","title":"Lavazza红磡意大利餐厅","lon":"121.50086773","lat":"31.194968549","category":"500","category_name":"未知分类","address":"浦东新区世博大道690号(近白莲泾公园)"},{"poiid":"B2094757D169A6F9429E","title":"Masala Art(雪野路店)","lon":"121.50549158","lat":"31.195461483","category":"102","category_name":"印度风味","address":"浦东新区世博村雪野路1057号101b(近世博大道)"},{"poiid":"B2094654DA6AA3F9429D","title":"江天宾馆","lon":"121.50792","lat":"31.19542","category":"215","category_name":"三星级宾馆","address":"浦东新区浦东南路3456号(近南码头路)"},{"poiid":"B2094750DB68A0F9429D","title":"龙阳路地铁站","lon":"121.507537","lat":"31.197134","category":"36","category_name":"地铁站","address":null},{"poiid":"B2094750D26FA0F84493","title":"乐芙国际母婴护理月子会所","lon":"121.50415","lat":"31.198289","category":"248","category_name":"生活娱乐","address":"浦东新区陆家嘴昌邑路588弄1号401室（近地铁4号线浦东大道站）"},{"poiid":"B2094655D26BA6FA479F","title":"NEWYORKPIZZA","lon":"121.50505","lat":"31.19765","category":"68","category_name":"快餐厅","address":"上海世博园区"},{"poiid":"B2094757D068A2F4479A","title":"南码头社区市民中心","lon":"121.50903","lat":"31.19601","category":"260","category_name":"其他","address":"浦东新区南码头路400号(近浦东南路)"},{"poiid":"B2094655D26BA6FA479E","title":"上海世博东湖公寓酒店(北门)","lon":"121.50502","lat":"31.19576","category":"656","category_name":"大门","address":"上海市浦东新区雪野路999号（近世博大道）"},{"poiid":"B2094757D165AAFA4592","title":"Grand Ballroom","lon":"121.50541059","lat":"31.199083308","category":"500","category_name":"未知分类","address":"上海世博洲际大酒店"},{"poiid":"B2094752D06DA0FB499D","title":"初鱼坊巫山烤全鱼","lon":"121.507796","lat":"31.197813","category":"247","category_name":"餐饮美食","address":"浦三路"},{"poiid":"B2094654DA6AA3FF479F","title":"银河小区","lon":"121.50822","lat":"31.196613","category":"47","category_name":"住宅区","address":"南码头路240,260弄"},{"poiid":"B2094750DB65A2F4499F","title":"上海当代艺术馆","lon":"121.49842","lat":"31.200689","category":"500","category_name":"未知分类","address":null},{"poiid":"B2094757D66AA0F84999","title":"世博洲际酒店大堂吧 Lobby Lounge","lon":"121.505602","lat":"31.200317","category":"260","category_name":"其他","address":"浦东新区雪野路1188号洲际酒店内(雪野路云台路)"},{"poiid":"B2094655D265A4F5489B","title":"上海世博东湖公寓酒店(北一门)","lon":"121.50512","lat":"31.19736","category":"656","category_name":"大门","address":"上海市浦东新区雪野路999号（近世博大道）"},{"poiid":"B2094757D465A5FB4199","title":"方师傅小笼 南码头路店","lon":"121.508044054","lat":"31.199132793","category":"68","category_name":"快餐厅","address":"浦东新区南码头路175号(东三里桥与沂南路间)"},{"poiid":"B2094753DB68A4FF499F","title":"上海环球金融中心","lon":"121.507179","lat":"31.199951","category":"500","category_name":"未知分类","address":"上海市 上海市陆家嘴"},{"poiid":"B2094655D36CA3FD4598","title":"世博村景观水街(2)","lon":"121.50372","lat":"31.19658","category":"47","category_name":"住宅区","address":"上海世博园区"},{"poiid":"B2094757D16AA5F4489B","title":"The MEET •聚","lon":"121.50507773","lat":"31.198867632","category":"500","category_name":"未知分类","address":"上海KERRY HOTEL二楼"},{"poiid":"B2094752D669A6FA429D","title":"昌里路夜市","lon":"121.502655","lat":"31.195737","category":"247","category_name":"餐饮美食","address":null},{"poiid":"B2094750D16BA1FD409D","title":"虹口足球场","lon":"121.5032644966952","lat":"31.20336783101407","category":"220","category_name":"运动场所","address":null},{"poiid":"B2094753DB6CAAF4429A","title":"上海世博洲际酒店","lon":"121.505012","lat":"31.196907","category":"500","category_name":"未知分类","address":"上海市 浦东新区雪野路"},{"poiid":"B2094655D26BA2F5459D","title":"浦东南路","lon":"121.50846","lat":"31.19786","category":"38","category_name":"公交车站","address":""},{"poiid":"B2094752D669ABFE4198","title":"上海浦东机场","lon":"121.505568","lat":"31.196902","category":"251","category_name":"出行住宿","address":"上海浦东机场"},{"poiid":"B2094655D264A1FF409B","title":"世博村9号大堂","lon":"121.50498","lat":"31.19624","category":"47","category_name":"住宅区","address":"上海世博园区"},{"poiid":"B2094655D26FA7FA489B","title":"上海市东方阶梯双语学校","lon":"121.50703","lat":"31.19991","category":"55","category_name":"中学","address":"浦东新区胶南路169号"},{"poiid":"B2094654DA6AA3F8459B","title":"南码头小学","lon":"121.50871","lat":"31.19947","category":"56","category_name":"小学","address":"浦东新区东三里桥路16号(东三里桥路胶南路)"},{"poiid":"B2094751D268A6FA489A","title":"上海地产集团办公楼","lon":"121.506034","lat":"31.19392","category":"46","category_name":"楼宇","address":"浦东新区雪野路928号"},{"poiid":"B2094757D469A0F44499","title":"沙华多利 世博店","lon":"121.5067261","lat":"31.1972621","category":"98","category_name":"意式菜品餐厅","address":"浦东新区世博村路268号4号楼104B室"},{"poiid":"B2094750D164A5FE499B","title":"富驿商旅酒店上海世博店","lon":"121.5074","lat":"31.2009","category":"216","category_name":"经济型连锁酒店","address":"浦东新区南码头路101号(近东三里桥路)"},{"poiid":"B2094655D265A1F84793","title":"步行广场","lon":"121.50629","lat":"31.19651","category":"201","category_name":"城市广场","address":"上海世博园区"},{"poiid":"B2094655D268A4FD499E","title":"西三里桥小区","lon":"121.50751","lat":"31.19902","category":"47","category_name":"住宅区","address":""},{"poiid":"B2094654DA6AA3FF4893","title":"金谷商厦","lon":"121.50791","lat":"31.19848","category":"46","category_name":"楼宇","address":""},{"poiid":"B2094750D364A0FD4198","title":"美月美家国际VIP月子会所","lon":"121.50416946802","lat":"31.196502453804","category":"622","category_name":"医疗健康类公司","address":"浦东新区雪野路999号6A1201室(沂南路口)"},{"poiid":"B2094753D36FA2F54998","title":"香辣汇","lon":"121.507911","lat":"31.197949","category":"247","category_name":"餐饮美食","address":"上海市 浦三路70号"},{"poiid":"B2094655D265A5FF419D","title":"麦尔肯咖啡","lon":"121.50623","lat":"31.19622","category":"65","category_name":"咖啡厅","address":"上海世博园区"},{"poiid":"B2094750D66EABFB449D","title":"浦东游泳馆","lon":"121.507072","lat":"31.201353","category":"220","category_name":"运动场所","address":null},{"poiid":"B2094655D265A4F94692","title":"世博锦江公寓酒店6号楼","lon":"121.50609","lat":"31.19686","category":"250","category_name":"公园户外","address":"上海世博园区"},{"poiid":"B2094654DA6AA3F9409E","title":"好德便利No.069","lon":"121.50779","lat":"31.19964","category":"117","category_name":"便民商店/便利店","address":"南码头路157"},{"poiid":"B2094655D26DA1F44893","title":"南码头路160弄小区(南门)","lon":"121.50743","lat":"31.19869","category":"47","category_name":"住宅区","address":"南码头路160弄"},{"poiid":"B2094654DB64A3FF459F","title":"可的","lon":"121.50682","lat":"31.20144","category":"117","category_name":"便民商店/便利店","address":"南码头路47"},{"poiid":"B2094655D26DA1F44892","title":"南码头路160弄小区","lon":"121.50738","lat":"31.19891","category":"47","category_name":"住宅区","address":"南码头路160弄"},{"poiid":"B2094753D765A1F4459B","title":"巿府综合办事大厅","lon":"121.50624","lat":"31.196069","category":"500","category_name":"未知分类","address":"上海市 世博村路300号"},{"poiid":"B2094757D168A4F9429D","title":"来吧面道","lon":"121.510538","lat":"31.197409","category":"68","category_name":"快餐厅","address":"浦东新区浦东南路2661号(近浦三路)"},{"poiid":"B2094654DA6AA3F84499","title":"快客联华便利连锁No.1214","lon":"121.50785","lat":"31.19997","category":"117","category_name":"便民商店/便利店","address":"东三里桥路11识别"},{"poiid":"B2094655D264AAFA429C","title":"浦东新区市南养老院","lon":"121.50715","lat":"31.19919","category":"207","category_name":"度假疗养场所","address":"西三里桥6号"},{"poiid":"B2094752D768A3FA4299","title":"梅赛德斯奔驰文化中心","lon":"121.499401","lat":"31.194805","category":"500","category_name":"未知分类","address":null},{"poiid":"B2094654DA6AA3F94292","title":"江天大厦","lon":"121.50792","lat":"31.19542","category":"46","category_name":"楼宇","address":"浦东南路3456"},{"poiid":"B2094757D06BA3FC469A","title":"同济.蓬莱家园","lon":"121.501052856","lat":"31.1994228363","category":"252","category_name":"楼宇机构","address":"上海瞿溪路301弄"},{"poiid":"B2094757D16BA5F4429A","title":"老北京涮羊肉","lon":"121.510728","lat":"31.198508","category":"86","category_name":"火锅店","address":"浦东新区浦东南路2384号(近浦三路)"},{"poiid":"B2094654DA6AA3F84998","title":"流金岁月专业美发美容","lon":"121.50829","lat":"31.19868","category":"148","category_name":"美容美发店","address":"南码头路223-1"},{"poiid":"B2094655D268A4FF4899","title":"西三里桥小区(侧门)","lon":"121.50779","lat":"31.19893","category":"47","category_name":"住宅区","address":""},{"poiid":"B2094757D064A6FD4098","title":"南码头路 海博大厦","lon":"121.507323","lat":"31.20091","category":"500","category_name":"未知分类","address":"上海南码头路101号"},{"poiid":"B2094655D268A6FA4693","title":"东三里桥路小区(西门)","lon":"121.50811","lat":"31.19902","category":"47","category_name":"住宅区","address":""},{"poiid":"B2094655D268A1FD479E","title":"东三大楼(南门)","lon":"121.50741","lat":"31.20067","category":"47","category_name":"住宅区","address":"南码头路101号"},{"poiid":"B2094757D66FA3FD499E","title":"640路浦南医院站","lon":"121.508703232","lat":"31.1979451289","category":"38","category_name":"公交车站","address":"上海南码头路浦东南路路口"},{"poiid":"B2094757D16CA6F44498","title":"辛湘汇","lon":"121.508355938","lat":"31.197506603","category":"247","category_name":"餐饮美食","address":"上海八百伴"},{"poiid":"B2094750D768A2FA4293","title":"爱咖屋","lon":"121.506","lat":"31.2001","category":"260","category_name":"其他","address":"浦东新区南码头路105号海博大厦1楼(近世博大道)"},{"poiid":"B2094757DB6DA6FA499F","title":"富驿时尚酒店(上海世博展览馆店)(雅鑫商务酒店)","lon":"121.508285","lat":"31.194472","category":"214","category_name":"四星级宾馆","address":"上海市浦东新区靠近浦东南路3500号(近华丰路)"},{"poiid":"B2094655D268A6FA479A","title":"东三里桥路小区","lon":"121.50857","lat":"31.19923","category":"47","category_name":"住宅区","address":""},{"poiid":"B2094757D165A0F84593","title":"一兆韦德。世博店","lon":"121.50469273","lat":"31.194940548","category":"500","category_name":"未知分类","address":"上海市浦东新区世博大道"},{"poiid":"B2094757D06BA7F4499E","title":"_瑶瑶瑶瑶瑶瑶瑶s' House","lon":"121.506908495","lat":"31.1997428222","category":"500","category_name":"未知分类","address":null},{"poiid":"B2094655D268A1FA439E","title":"东三大楼","lon":"121.5077","lat":"31.20074","category":"47","category_name":"住宅区","address":"南码头路101号"},{"poiid":"B2094655D26FAAF94798","title":"银河小区(边门)","lon":"121.50839","lat":"31.19764","category":"47","category_name":"住宅区","address":"南码头路238弄"},{"poiid":"B2094757D569A2FF4693","title":"金海马家具南码头路店","lon":"121.5073469","lat":"31.19991611","category":"123","category_name":"家具建材市场","address":"南码头路120号"},{"poiid":"B2094757D065A3FD4392","title":"上海振华重工(集团)股份有限公司","lon":"121.507832584","lat":"31.1942854768","category":"263","category_name":"公司","address":"上海浦东南路3470号"},{"poiid":"B2094757D16EA2F9499C","title":"上海雅客世博滨江酒店公寓","lon":"121.507251738","lat":"31.197784609","category":"217","category_name":"旅馆招待所","address":"浦东新区雪野路1125号"},{"poiid":"B2094757D66DA4FE4498","title":"联华超市(南码头店)","lon":"121.50844013","lat":"31.197953912","category":"118","category_name":"超级市场","address":"浦东新区南码头路218号(近沂南路)"},{"poiid":"B209475DD769A6FA419C","title":"星巴克南车站路店","lon":"121.498313","lat":"31.200071","category":"247","category_name":"餐饮美食","address":"南车站路564号"},{"poiid":"B2094757D66CA4FF499D","title":"菌菇王","lon":"121.507098","lat":"31.199954","category":"500","category_name":"未知分类","address":"上海浦东新区浦三路"},{"poiid":"B2094655D26DA1F44999","title":"东三小区","lon":"121.5102","lat":"31.201494","category":"47","category_name":"住宅区","address":"东三街102弄"},{"poiid":"B2094757D66FA2F8429F","title":"The Fat Olive","lon":"121.50599373","lat":"31.196403579","category":"500","category_name":"未知分类","address":"上海世博村路222弄12号"},{"poiid":"B2094654DA6AA3F94199","title":"新华书店教材书店NO.020","lon":"121.50856","lat":"31.19796","category":"125","category_name":"书店","address":"南码头路231"},{"poiid":"B2094654DB65A1F44092","title":"浦东新区医疗急救中心浦南分站","lon":"121.509","lat":"31.19695","category":"162","category_name":"医院","address":""},{"poiid":"B2094655D26DA7FA4892","title":"桥南玉亭小区","lon":"121.50743","lat":"31.20161","category":"47","category_name":"住宅区","address":"东三街35弄"},{"poiid":"B2094757D66EA7F54698","title":"南浦大桥引桥","lon":"121.50467189","lat":"31.205788251","category":"500","category_name":"未知分类","address":"上海南浦大桥"},{"poiid":"B2094757D168A6FB449E","title":"黄浦区出入境管理办公室","lon":"121.504542738","lat":"31.2036637341","category":"500","category_name":"未知分类","address":"上海市黄浦区陆家浜路88号"},{"poiid":"B209475CDA6BA6FC4198","title":"倪同学炸猪排","lon":"121.509658","lat":"31.199125","category":"247","category_name":"餐饮美食","address":"上海市 浦东新区南码头胶南路路口"},{"poiid":"B2094757D66FA7F84993","title":"Sherry's Home","lon":"121.507463738","lat":"31.1979836132","category":"500","category_name":"未知分类","address":null},{"poiid":"B2094757D165A0FC489E","title":"浦南医院口腔科","lon":"121.50949223","lat":"31.197426601","category":"162","category_name":"医院","address":"上海浦东南路胶南路口"},{"poiid":"B2094654DA6AA3FF479C","title":"银河小区(东门)","lon":"121.50875","lat":"31.19687","category":"47","category_name":"住宅区","address":"南码头路240、260弄"},{"poiid":"B2094654DA6AA3F8449C","title":"大桥菜市场","lon":"121.50853","lat":"31.20021","category":"117","category_name":"便民商店/便利店","address":""},{"poiid":"B2094655D26DABFA4493","title":"东三小区(边门)","lon":"121.50942","lat":"31.20057","category":"47","category_name":"住宅区","address":"东三街102弄"},{"poiid":"B2094757D568A5FE449E","title":"胶南路烧烤摊","lon":"121.5098869","lat":"31.19931889","category":"87","category_name":"特色／地方风味餐厅","address":"胶南路66号新亚大包附近"},{"poiid":"B2094757D66DA3FF4398","title":"中国工商银行(南码头支行)","lon":"121.508288738","lat":"31.1980506146","category":"150","category_name":"银行","address":"上海市浦东新区南码头路189号"},{"poiid":"B2094655D268A2F54998","title":"东三里桥路79弄小区(侧门)","lon":"121.50867","lat":"31.20082","category":"47","category_name":"住宅区","address":"东三里桥路79弄"},{"poiid":"B2094654DB65A7FB469D","title":"家得利(胶南店)","lon":"121.50893","lat":"31.20037","category":"118","category_name":"超级市场","address":"浦东新区东三里桥路79弄1-6号"},{"poiid":"B2094654DA6AA3F94299","title":"浦南医院泌尿外科","lon":"121.50931","lat":"31.19709","category":"162","category_name":"医院","address":"浦东南路2388号"},{"poiid":"B2094757D06BA4FD4499","title":"南码头144弄","lon":"121.50793973","lat":"31.199126637","category":"500","category_name":"未知分类","address":"上海市浦东新区世博大道"},{"poiid":"B2094757D165A7F94999","title":"齐岸健身浦东游泳馆店","lon":"121.50009633","lat":"31.195798366","category":"500","category_name":"未知分类","address":"上海浦东南路"},{"poiid":"B2094655D264A0FA439D","title":"金茂盛融游艇俱乐部","lon":"121.50694","lat":"31.20071","category":"208","category_name":"休闲场所","address":"南码头路54号3层"},{"poiid":"B2094750D16AA2FB479C","title":"世博凌睿试驾体验中心","lon":"121.50827","lat":"31.203342","category":"500","category_name":"未知分类","address":"世博大道138号"},{"poiid":"B2094654DA6AA3F8489B","title":"好德便利No.477","lon":"121.51012","lat":"31.19914","category":"117","category_name":"便民商店/便利店","address":"南码头"},{"poiid":"B2094750DB6DA4FF4493","title":"上海地产集团","lon":"121.5001827362335","lat":"31.1954312401603","category":"263","category_name":"公司","address":"雪野路928号"},{"poiid":"B2094757D064ABFF469A","title":"新安江野味馆","lon":"121.50968973","lat":"31.196814588","category":"260","category_name":"其他","address":"浦东新区浦东南路2805号"},{"poiid":"B2094757D165A3FB429C","title":"福建千里香馄饨","lon":"121.50975","lat":"31.19955","category":"247","category_name":"餐饮美食","address":"上海浦东新区胶南路  "},{"poiid":"B2094654DB64A3FF439B","title":"重庆鸡公煲 南码头店","lon":"121.510032054","lat":"31.194368793","category":"247","category_name":"餐饮美食","address":"南码头路440号近临沂路"},{"poiid":"B2094654DA6AA3F8459D","title":"良友金伴(东三里桥路)","lon":"121.50967","lat":"31.20063","category":"117","category_name":"便民商店/便利店","address":"东三里桥路151-5"},{"poiid":"B2094757D16EABFF479E","title":"流金岁月专业美容美发","lon":"121.50857","lat":"31.19836","category":"148","category_name":"美容美发店","address":"上海浦东新区南码头路223号(近沂南路)  "},{"poiid":"B2094655D26BA1FF449B","title":"南码头路浦东南路","lon":"121.50957","lat":"31.19542","category":"38","category_name":"公交车站","address":""},{"poiid":"B2094655D265A1F8489A","title":"和谐广场","lon":"121.50688","lat":"31.19387","category":"201","category_name":"城市广场","address":"上海世博园区"},{"poiid":"B2094757D16AA5FB4998","title":"周南线南码头渡口终点站","lon":"121.505867","lat":"31.202531","category":"500","category_name":"未知分类","address":"上海市浦东新区南码头路世博大道"},{"poiid":"B2094757D169A7FF499B","title":"欧偌妍SPA八佰伴旗舰店","lon":"121.508465","lat":"31.197864","category":"500","category_name":"未知分类","address":"上海浦东南路1038弄3号301室"},{"poiid":"B2094757D66CA7FA419A","title":"云台路","lon":"121.50841973","lat":"31.19456554","category":"500","category_name":"未知分类","address":"上海市浦东新区云台路"},{"poiid":"B2094757D16FA3FC4792","title":"丰记码头街","lon":"121.50515423","lat":"31.203827737","category":"500","category_name":"未知分类","address":"上海黄埔区交警违章处理点"},{"poiid":"B2094654DA6AA3F9429A","title":"保健足浴","lon":"121.5087","lat":"31.19769","category":"149","category_name":"洗浴推拿场所","address":"南码头路237-1识别"},{"poiid":"B2094655D26EA7F8419F","title":"浦南医院眼科诊治门诊(浦东南路)","lon":"121.51039","lat":"31.19795","category":"162","category_name":"医院","address":"浦东南路2388"},{"poiid":"B2094751D56BA4FC409F","title":"淮海路","lon":"121.499028","lat":"31.196439","category":"249","category_name":"购物服务","address":null},{"poiid":"B2094757D06AA5F54693","title":"胶南小区","lon":"121.51067","lat":"31.199404","category":"252","category_name":"楼宇机构","address":"上海东三里桥路160弄"},{"poiid":"B2094654DA6AA3F9439F","title":"上海振华港机宾馆","lon":"121.50762","lat":"31.19472","category":"250","category_name":"公园户外","address":"浦东南路3470"},{"poiid":"B2094757D56EA6FF499B","title":"伊姿三日瘦（浦东八佰伴店）","lon":"121.508465","lat":"31.197864","category":"249","category_name":"购物服务","address":"浦东新区浦东南路商城路口八佰伴对面1036号隆宇大厦2102室(近商城路)"},{"poiid":"B2094757D569A2FF489C","title":"南码头社区文化活动中心","lon":"121.5084342","lat":"31.19599943","category":"188","category_name":"文化宫","address":"南码头路400"},{"poiid":"B2094654DA6AA3F8469F","title":"南码头社区学校沂南分校","lon":"121.50885","lat":"31.19872","category":"253","category_name":"校园生活","address":""},{"poiid":"B2094654DA69AAF5499F","title":"好德便利No.3091","lon":"121.50942","lat":"31.1952","category":"117","category_name":"便民商店/便利店","address":"南码头路430识别"},{"poiid":"B2094654DA69AAF5489D","title":"光明便利No.295","lon":"121.50947","lat":"31.19511","category":"117","category_name":"便民商店/便利店","address":"南码头路434"},{"poiid":"B2094757D168A0FB4093","title":"世博治安派出所","lon":"121.50418573","lat":"31.192779502","category":"609","category_name":"警察局","address":"上海雪野路华丰路"},{"poiid":"B2094655D26DA1F4489C","title":"贸御雅鑫商务酒店","lon":"121.50704","lat":"31.19405","category":"250","category_name":"公园户外","address":"浦东新区世博村路375弄6号(华丰路浦东南路)"},{"poiid":"B2094757D168A4FB4793","title":"43路终点站","lon":"121.505664","lat":"31.20537","category":"38","category_name":"公交车站","address":"上海南浦大桥"},{"poiid":"B2094655D265ABF44899","title":"媒体注册中心","lon":"121.50519","lat":"31.19173","category":"185","category_name":"会展中心","address":"上海世博园区"},{"poiid":"B2094757D568A2FB449D","title":"上岛咖啡(世博店)","lon":"121.506687829999","lat":"31.19289686","category":"260","category_name":"其他","address":"浦东新区浦东南路3500号(近世博园区)"},{"poiid":"B209475CD66DA0FA469B","title":"上海老码头","lon":"121.497016","lat":"31.196842","category":"500","category_name":"未知分类","address":"上海市 中山南路"},{"poiid":"B2094757D16FA6F5469A","title":"上海振华重工","lon":"121.507425","lat":"31.194982","category":"500","category_name":"未知分类","address":"上海浦东南路3470号"},{"poiid":"B2094757D168A3FB459F","title":"糖果屋","lon":"121.509073038","lat":"31.197083994","category":"500","category_name":"未知分类","address":"上海浦东南路"},{"poiid":"B2094757D464A7F8459F","title":"CAFE  2009","lon":"121.506331054","lat":"31.192509793","category":"65","category_name":"咖啡厅","address":"浦东新区浦东南路3631号(世博大厦对面)"},{"poiid":"B2094757D16FA7F44499","title":"箸香 明珠店","lon":"121.49882073","lat":"31.203306726","category":"247","category_name":"餐饮美食","address":"上海肇嘉浜路212号3楼"},{"poiid":"B2094655D26DA7FA4799","title":"仙桃林茶吧","lon":"121.50952","lat":"31.19503","category":"66","category_name":"茶艺馆","address":"南码头路436"},{"poiid":"B2094757D66DA4FA4893","title":"浦三路","lon":"121.509324738","lat":"31.1966405846","category":"500","category_name":"未知分类","address":"上海市浦东新区雪野路"},{"poiid":"B2094757D66EA7FA4692","title":"和睦家医疗 浦东","lon":"121.50928173","lat":"31.197253597","category":"500","category_name":"未知分类","address":"上海红枫路525号"},{"poiid":"B2094654DA6AA3F9439E","title":"上海振华港机公司","lon":"121.50742","lat":"31.19498","category":"263","category_name":"公司","address":"浦东南路3470"},{"poiid":"B2094655D268A6FE4493","title":"西三小区(东门)","lon":"121.50698","lat":"31.20055","category":"656","category_name":"大门","address":""},{"poiid":"B2094655D268ABFD409E","title":"西三小区(东一门)","lon":"121.50662","lat":"31.20098","category":"656","category_name":"大门","address":""},{"poiid":"B2094757D065A7FF409F","title":"浦东南路3500号世博村J地块","lon":"121.507266","lat":"31.194043","category":"500","category_name":"未知分类","address":"上海浦东南路3500号"},{"poiid":"B2094750DB65AAF8419F","title":"喜马拉雅中心","lon":"121.499755","lat":"31.203878","category":"627","category_name":"一般地点标志","address":"芳甸路"},{"poiid":"B2094655D268ABFD409C","title":"西三小区(东二门)","lon":"121.50634","lat":"31.20154","category":"656","category_name":"大门","address":""},{"poiid":"B2094654DA6AA3FF4692","title":"柯达快速彩色(南码头路)","lon":"121.50889","lat":"31.19654","category":"248","category_name":"生活娱乐","address":""},{"poiid":"B2094757D06BA4F5449F","title":"南码头街道社区学校","lon":"121.50846862","lat":"31.197864532","category":"260","category_name":"其他","address":"上海华丰路50弄11号（近浦东南路）"},{"poiid":"B2094655D268A6FF4993","title":"黄浦交通违章受理队","lon":"121.5033","lat":"31.20581","category":"250","category_name":"公园户外","address":""},{"poiid":"B2094655D265A6FC499E","title":"世博治安派出所","lon":"121.50415","lat":"31.19282","category":"609","category_name":"警察局","address":"雪野路853"},{"poiid":"B2094757D168A5F54393","title":"浦三路454路车站","lon":"121.508510738","lat":"31.1945865409","category":"500","category_name":"未知分类","address":"上海浦三路"},{"poiid":"B2094757D16BABFE459A","title":"青啤宝贝之家","lon":"121.508701","lat":"31.19509","category":"500","category_name":"未知分类","address":"上海浦东南路3405号"},{"poiid":"B2094757D16FA2FE489E","title":"锦越坊","lon":"121.50997161","lat":"31.196706771","category":"500","category_name":"未知分类","address":"浦东南路2805号近南码头路"},{"poiid":"B2094757D069A6F5459E","title":"华丰路576路车站","lon":"121.507005","lat":"31.192889","category":"500","category_name":"未知分类","address":"上海华丰路浦东南路，955、576、82、818、981、177、周南綫公車站"},{"poiid":"B2094753D56FA5FA4498","title":"必维国际检验集团","lon":"121.507011","lat":"31.204816","category":"500","category_name":"未知分类","address":"上海市 外马路1288号"},{"poiid":"B2094655D26DA1F4499A","title":"桥南玉亭小区(南门)","lon":"121.50752","lat":"31.20142","category":"656","category_name":"大门","address":"东三街35弄"},{"poiid":"B2094757D16AA0F8419C","title":"上海建工集团","lon":"121.50479973","lat":"31.191990375","category":"500","category_name":"未知分类","address":"上海东大名路666号"},{"poiid":"B2094655D268A4FF489C","title":"桥南玉亭小区(侧门)","lon":"121.50732","lat":"31.20179","category":"656","category_name":"大门","address":""},{"poiid":"B2094757D16CA7FB4198","title":"温馨小筑","lon":"121.50980243","lat":"31.195062251","category":"500","category_name":"未知分类","address":"上海浦东南路浦三路"},{"poiid":"B2094655D26EA0FF4099","title":"东三小区(西门)","lon":"121.50878","lat":"31.20164","category":"656","category_name":"大门","address":"东三街102弄1-45号"},{"poiid":"B2094655D26EA2F4419B","title":"临沂三村(西门)","lon":"121.5087","lat":"31.19502","category":"656","category_name":"大门","address":"浦东南路3405弄"},{"poiid":"B2094654DA6AA3F8469B","title":"东三小区(南门)","lon":"121.51036","lat":"31.20089","category":"656","category_name":"大门","address":"东三街102弄1-45号"}]