[{"poiid":"B2094757D068A4F5419A","title":"帕缇欧香苑","lon":"121.1250559","lat":"31.141070094","category":"252","category_name":"楼宇机构","address":"上海青浦区外青松公路6666弄"},{"poiid":"B2094655D36DA6FF499C","title":"上海青浦影城","lon":"121.11842","lat":"31.13721","category":"178","category_name":"电影院","address":"上海市青浦区沪青平公路5669弄(金域广场)63栋22号"},{"poiid":"B2094757D06BA3FF479E","title":"仁恒运杰河滨花苑","lon":"121.12885939","lat":"31.140946384","category":"252","category_name":"楼宇机构","address":"上海青浦区外青松公路6999弄"},{"poiid":"B2094655D36CA5FF4392","title":"城中东路保安路","lon":"121.12422","lat":"31.14644","category":"38","category_name":"公交车站","address":""},{"poiid":"B2094757D069A2F5489D","title":"G50沪渝高速青浦城区收费站","lon":"121.124441394","lat":"31.130823627","category":"267","category_name":"收费站","address":"上海G50沪渝高速青浦城区收费站"},{"poiid":"B2094750D568A0F94392","title":"香港纯Kparyt","lon":"121.126731","lat":"31.146087","category":"170","category_name":"KTV","address":"青浦区青湖路晨兴国际"},{"poiid":"B2094757D16DAAFF419E","title":"青浦热浪游泳健身会所","lon":"121.12440467","lat":"31.141178186","category":"500","category_name":"未知分类","address":"青浦区外青松公路6666号(近沪青平公路)"},{"poiid":"B2094757D16CA4FD429A","title":"小外灘","lon":"121.114895071","lat":"31.1407699787","category":"500","category_name":"未知分类","address":"上海近郊青浦區"},{"poiid":"B2094654DA6BA5F94393","title":"青浦东方中学","lon":"121.12189","lat":"31.14408","category":"55","category_name":"中学","address":"上海青浦区浦仓路88号"},{"poiid":"B2094654DA6BA5FB449B","title":"上海市公安局青浦分局交通警察支队","lon":"121.11951","lat":"31.13749","category":"250","category_name":"公园户外","address":"沪青平公路5540"},{"poiid":"B2094757D16FABFB4798","title":"小木屋农家菜","lon":"121.124215671","lat":"31.131902901","category":"76","category_name":"上海菜","address":"青浦区外青松公路6666弄68-69号(近热浪健身俱乐部)"},{"poiid":"B2094654DA6BA5FB4499","title":"上海大众汽车青浦销售服务有限公司","lon":"121.12095","lat":"31.13812","category":"159","category_name":"汽车维修","address":"青浦区沪青平公路5528号"},{"poiid":"B2094655D26FABFF489C","title":"上海电视大学青浦分校(东门)","lon":"121.11849","lat":"31.14401","category":"52","category_name":"高等院校","address":"章浜路118"},{"poiid":"B2094751D56CA1F8419F","title":"Ms Chen's Restaurant & Bar","lon":"121.12579","lat":"31.14401","category":"172","category_name":"酒吧","address":"青浦区外青松公路6666弄16号帕缇欧香小区内"},{"poiid":"B2094655D36CA2F8449E","title":"青松路","lon":"121.11723","lat":"31.13711","category":"38","category_name":"公交车站","address":""},{"poiid":"B2094751D26AAAF5499B","title":"青浦茶物语","lon":"121.11671","lat":"31.1446","category":"111","category_name":"休闲餐饮场所","address":"青浦区城中南路174-4号(近太阳花幼儿园)"},{"poiid":"B2094757D665ABF84599","title":"红宝石 城中东路店 Ruby","lon":"121.12091","lat":"31.14668","category":"67","category_name":"甜品店","address":"青浦区城中东路218号(城中东路浦仓路)"},{"poiid":"B2094655D268A2FB429E","title":"热浪健身会所","lon":"121.12445","lat":"31.14017","category":"221","category_name":"健身中心","address":"青浦区公园路629号"},{"poiid":"B2094654DA6BA7F9479C","title":"千味红景庭","lon":"121.11569","lat":"31.14271","category":"47","category_name":"住宅区","address":"青浦区青松路288号(青浦湖滨路青松路)"},{"poiid":"B2094655D268A2FB429F","title":"世纪华联No.2138","lon":"121.12464","lat":"31.14073","category":"117","category_name":"便民商店/便利店","address":""},{"poiid":"B2094654DB69AAFB469E","title":"青浦区交警支队","lon":"121.11951","lat":"31.13749","category":"250","category_name":"公园户外","address":"青浦区沪青平公路5540号"},{"poiid":"B2094753D768A2FF4299","title":"上井精致料理","lon":"121.130928","lat":"31.14208","category":"247","category_name":"餐饮美食","address":"上海市 青浦区华青南路"},{"poiid":"B2094757D064AAF9419F","title":"城东新村","lon":"121.12563357","lat":"31.143727738","category":"500","category_name":"未知分类","address":"上海市青浦区"},{"poiid":"B2094757D66AA0F54898","title":"丑小鸭家常菜馆","lon":"121.12565","lat":"31.12875","category":"76","category_name":"上海菜","address":"青浦区青松路7199号一区12-16号(近福寿园)"},{"poiid":"B2094757D065ABFD479F","title":"318国道","lon":"121.118341","lat":"31.137428","category":"260","category_name":"其他","address":"上海318国道(青浦至西藏)"},{"poiid":"B2094655D268A3F4419E","title":"基督教堂","lon":"121.11913","lat":"31.1398","category":"245","category_name":"教堂","address":""},{"poiid":"B2094655D268A6FE469C","title":"帕缇欧香苑(南门)","lon":"121.12403","lat":"31.13778","category":"656","category_name":"大门","address":""},{"poiid":"B2094757D56EA0F44198","title":"车水马廷","lon":"121.1253619","lat":"31.13135855","category":"76","category_name":"上海菜","address":"青浦区外青松公路6677号(近福寿园)"},{"poiid":"B2094757D164A0F9489C","title":"塔湾新村","lon":"121.118450321","lat":"31.1373831108","category":"47","category_name":"住宅区","address":"上海沪青平公路479弄"},{"poiid":"B2094753D764AAF8459E","title":"鹭鹭小馆","lon":"121.120201","lat":"31.143415","category":"247","category_name":"餐饮美食","address":"上海市 公园路544号稻香村1楼"},{"poiid":"B2094654DB69AAF9409B","title":"巷深酒楼","lon":"121.121047054","lat":"31.147857793","category":"76","category_name":"上海菜","address":"青浦区浦仓路250号(城中东路浦仓路)"},{"poiid":"B2094654DA6BA5FA4892","title":"上海电视大学青浦分校","lon":"121.11769","lat":"31.14385","category":"52","category_name":"高等院校","address":"青浦区青浦镇章浜路118号"},{"poiid":"B2094655D36CA2F8419F","title":"青湖路外青松公路","lon":"121.12826","lat":"31.14603","category":"38","category_name":"公交车站","address":""},{"poiid":"B2094655D265A5F8499E","title":"索尼食堂","lon":"121.12344","lat":"31.14277","category":"257","category_name":"中餐厅","address":"卢湾区湖滨路222号企业天地1号楼7楼(近济南路)"},{"poiid":"B2094654DA6BA0F8429F","title":"晨兴公寓","lon":"121.1284","lat":"31.145359","category":"47","category_name":"住宅区","address":"青湖路997弄"},{"poiid":"B2094655D26FABFE499A","title":"帕缇欧香苑(东门)","lon":"121.12461","lat":"31.13988","category":"656","category_name":"大门","address":"外青松公路6666弄"},{"poiid":"B2094654DA6BA7F94798","title":"青城苑","lon":"121.11543","lat":"31.143129","category":"47","category_name":"住宅区","address":"上海市青松路270号"},{"poiid":"B2094757D16AA0FA499F","title":"农业银行青浦支行","lon":"121.12511974","lat":"31.140914941","category":"150","category_name":"银行","address":"上海青浦区城中北路城中西路"},{"poiid":"B2094655D268A3F4409D","title":"塔湾新村一区","lon":"121.1183","lat":"31.13811","category":"47","category_name":"住宅区","address":""},{"poiid":"B2094753D56FABFC4793","title":"Shoes Cafe","lon":"121.128005","lat":"31.140201","category":"500","category_name":"未知分类","address":"上海市 上海市青浦区外青松公路6999弄91号商铺"},{"poiid":"B2094654DA6BA1F4449A","title":"上海青海建材市场","lon":"121.1269","lat":"31.14109","category":"123","category_name":"家具建材市场","address":""},{"poiid":"B2094757D568A7FD4898","title":"轩和坊","lon":"121.1264411","lat":"31.132295","category":"46","category_name":"楼宇","address":"朱家角镇新风路185弄"},{"poiid":"B2094655D268A3F44198","title":"青松路447弄小区","lon":"121.11808","lat":"31.13872","category":"47","category_name":"住宅区","address":"青松路447弄"},{"poiid":"B2094655D268A6FE469D","title":"帕缇欧香苑(西门)","lon":"121.12496","lat":"31.13775","category":"656","category_name":"大门","address":""},{"poiid":"B2094655D36CA7FF4192","title":"湖滨路章浜路","lon":"121.11829","lat":"31.14239","category":"38","category_name":"公交车站","address":""},{"poiid":"B2094654DA6BA0FF419C","title":"轻钢龙骨石膏板批发(青浦建材市场内)","lon":"121.12683","lat":"31.14178","category":"123","category_name":"家具建材市场","address":""},{"poiid":"B2094757D66EA5F9459A","title":"Quiksilver(青浦奥特莱斯店)","lon":"121.11634","lat":"31.13666","category":"141","category_name":"服装鞋帽皮具店","address":"上海近郊青浦区沪青平公路2888号奥特莱斯B113(近嘉松中路)  "},{"poiid":"B2094757D16FA0FE4898","title":"青浦区桂花苑","lon":"121.127376171","lat":"31.1456536766","category":"252","category_name":"楼宇机构","address":"上海青浦区青湖路1070弄"},{"poiid":"B2094654DA6BA5F94199","title":"保安新村","lon":"121.12564","lat":"31.145197","category":"47","category_name":"住宅区","address":"淀浦河东路225号"},{"poiid":"B2094654DA6BA0FF419E","title":"百和陶瓷(上海青浦建材市场)","lon":"121.12728","lat":"31.14178","category":"123","category_name":"家具建材市场","address":"外青松公路6969号14幢169号"},{"poiid":"B2094757D068A4F5419A","title":"帕缇欧香苑","lon":"121.1250559","lat":"31.141070094","category":"252","category_name":"楼宇机构","address":"上海青浦区外青松公路6666弄"},{"poiid":"B2094655D36DA6FF499C","title":"上海青浦影城","lon":"121.11842","lat":"31.13721","category":"178","category_name":"电影院","address":"上海市青浦区沪青平公路5669弄(金域广场)63栋22号"},{"poiid":"B2094757D06BA3FF479E","title":"仁恒运杰河滨花苑","lon":"121.12885939","lat":"31.140946384","category":"252","category_name":"楼宇机构","address":"上海青浦区外青松公路6999弄"},{"poiid":"B2094655D36CA5FF4392","title":"城中东路保安路","lon":"121.12422","lat":"31.14644","category":"38","category_name":"公交车站","address":""},{"poiid":"B2094757D069A2F5489D","title":"G50沪渝高速青浦城区收费站","lon":"121.124441394","lat":"31.130823627","category":"267","category_name":"收费站","address":"上海G50沪渝高速青浦城区收费站"},{"poiid":"B2094750D568A0F94392","title":"香港纯Kparyt","lon":"121.126731","lat":"31.146087","category":"170","category_name":"KTV","address":"青浦区青湖路晨兴国际"},{"poiid":"B2094757D16DAAFF419E","title":"青浦热浪游泳健身会所","lon":"121.12440467","lat":"31.141178186","category":"500","category_name":"未知分类","address":"青浦区外青松公路6666号(近沪青平公路)"},{"poiid":"B2094757D16CA4FD429A","title":"小外灘","lon":"121.114895071","lat":"31.1407699787","category":"500","category_name":"未知分类","address":"上海近郊青浦區"},{"poiid":"B2094654DA6BA5F94393","title":"青浦东方中学","lon":"121.12189","lat":"31.14408","category":"55","category_name":"中学","address":"上海青浦区浦仓路88号"},{"poiid":"B2094654DA6BA5FB449B","title":"上海市公安局青浦分局交通警察支队","lon":"121.11951","lat":"31.13749","category":"250","category_name":"公园户外","address":"沪青平公路5540"},{"poiid":"B2094757D16FABFB4798","title":"小木屋农家菜","lon":"121.124215671","lat":"31.131902901","category":"76","category_name":"上海菜","address":"青浦区外青松公路6666弄68-69号(近热浪健身俱乐部)"},{"poiid":"B2094654DA6BA5FB4499","title":"上海大众汽车青浦销售服务有限公司","lon":"121.12095","lat":"31.13812","category":"159","category_name":"汽车维修","address":"青浦区沪青平公路5528号"},{"poiid":"B2094655D26FABFF489C","title":"上海电视大学青浦分校(东门)","lon":"121.11849","lat":"31.14401","category":"52","category_name":"高等院校","address":"章浜路118"},{"poiid":"B2094751D56CA1F8419F","title":"Ms Chen's Restaurant & Bar","lon":"121.12579","lat":"31.14401","category":"172","category_name":"酒吧","address":"青浦区外青松公路6666弄16号帕缇欧香小区内"},{"poiid":"B2094655D36CA2F8449E","title":"青松路","lon":"121.11723","lat":"31.13711","category":"38","category_name":"公交车站","address":""},{"poiid":"B2094751D26AAAF5499B","title":"青浦茶物语","lon":"121.11671","lat":"31.1446","category":"111","category_name":"休闲餐饮场所","address":"青浦区城中南路174-4号(近太阳花幼儿园)"},{"poiid":"B2094757D665ABF84599","title":"红宝石 城中东路店 Ruby","lon":"121.12091","lat":"31.14668","category":"67","category_name":"甜品店","address":"青浦区城中东路218号(城中东路浦仓路)"},{"poiid":"B2094655D268A2FB429E","title":"热浪健身会所","lon":"121.12445","lat":"31.14017","category":"221","category_name":"健身中心","address":"青浦区公园路629号"},{"poiid":"B2094654DA6BA7F9479C","title":"千味红景庭","lon":"121.11569","lat":"31.14271","category":"47","category_name":"住宅区","address":"青浦区青松路288号(青浦湖滨路青松路)"},{"poiid":"B2094655D268A2FB429F","title":"世纪华联No.2138","lon":"121.12464","lat":"31.14073","category":"117","category_name":"便民商店/便利店","address":""},{"poiid":"B2094654DB69AAFB469E","title":"青浦区交警支队","lon":"121.11951","lat":"31.13749","category":"250","category_name":"公园户外","address":"青浦区沪青平公路5540号"},{"poiid":"B2094753D768A2FF4299","title":"上井精致料理","lon":"121.130928","lat":"31.14208","category":"247","category_name":"餐饮美食","address":"上海市 青浦区华青南路"},{"poiid":"B2094757D064AAF9419F","title":"城东新村","lon":"121.12563357","lat":"31.143727738","category":"500","category_name":"未知分类","address":"上海市青浦区"},{"poiid":"B2094757D66AA0F54898","title":"丑小鸭家常菜馆","lon":"121.12565","lat":"31.12875","category":"76","category_name":"上海菜","address":"青浦区青松路7199号一区12-16号(近福寿园)"},{"poiid":"B2094757D065ABFD479F","title":"318国道","lon":"121.118341","lat":"31.137428","category":"260","category_name":"其他","address":"上海318国道(青浦至西藏)"},{"poiid":"B2094655D268A3F4419E","title":"基督教堂","lon":"121.11913","lat":"31.1398","category":"245","category_name":"教堂","address":""},{"poiid":"B2094655D268A6FE469C","title":"帕缇欧香苑(南门)","lon":"121.12403","lat":"31.13778","category":"656","category_name":"大门","address":""},{"poiid":"B2094757D56EA0F44198","title":"车水马廷","lon":"121.1253619","lat":"31.13135855","category":"76","category_name":"上海菜","address":"青浦区外青松公路6677号(近福寿园)"},{"poiid":"B2094757D164A0F9489C","title":"塔湾新村","lon":"121.118450321","lat":"31.1373831108","category":"47","category_name":"住宅区","address":"上海沪青平公路479弄"},{"poiid":"B2094753D764AAF8459E","title":"鹭鹭小馆","lon":"121.120201","lat":"31.143415","category":"247","category_name":"餐饮美食","address":"上海市 公园路544号稻香村1楼"},{"poiid":"B2094654DB69AAF9409B","title":"巷深酒楼","lon":"121.121047054","lat":"31.147857793","category":"76","category_name":"上海菜","address":"青浦区浦仓路250号(城中东路浦仓路)"},{"poiid":"B2094654DA6BA5FA4892","title":"上海电视大学青浦分校","lon":"121.11769","lat":"31.14385","category":"52","category_name":"高等院校","address":"青浦区青浦镇章浜路118号"},{"poiid":"B2094655D36CA2F8419F","title":"青湖路外青松公路","lon":"121.12826","lat":"31.14603","category":"38","category_name":"公交车站","address":""},{"poiid":"B2094655D265A5F8499E","title":"索尼食堂","lon":"121.12344","lat":"31.14277","category":"257","category_name":"中餐厅","address":"卢湾区湖滨路222号企业天地1号楼7楼(近济南路)"},{"poiid":"B2094654DA6BA0F8429F","title":"晨兴公寓","lon":"121.1284","lat":"31.145359","category":"47","category_name":"住宅区","address":"青湖路997弄"},{"poiid":"B2094655D26FABFE499A","title":"帕缇欧香苑(东门)","lon":"121.12461","lat":"31.13988","category":"656","category_name":"大门","address":"外青松公路6666弄"},{"poiid":"B2094654DA6BA7F94798","title":"青城苑","lon":"121.11543","lat":"31.143129","category":"47","category_name":"住宅区","address":"上海市青松路270号"},{"poiid":"B2094757D16AA0FA499F","title":"农业银行青浦支行","lon":"121.12511974","lat":"31.140914941","category":"150","category_name":"银行","address":"上海青浦区城中北路城中西路"},{"poiid":"B2094655D268A3F4409D","title":"塔湾新村一区","lon":"121.1183","lat":"31.13811","category":"47","category_name":"住宅区","address":""},{"poiid":"B2094753D56FABFC4793","title":"Shoes Cafe","lon":"121.128005","lat":"31.140201","category":"500","category_name":"未知分类","address":"上海市 上海市青浦区外青松公路6999弄91号商铺"},{"poiid":"B2094654DA6BA1F4449A","title":"上海青海建材市场","lon":"121.1269","lat":"31.14109","category":"123","category_name":"家具建材市场","address":""},{"poiid":"B2094757D568A7FD4898","title":"轩和坊","lon":"121.1264411","lat":"31.132295","category":"46","category_name":"楼宇","address":"朱家角镇新风路185弄"},{"poiid":"B2094655D268A3F44198","title":"青松路447弄小区","lon":"121.11808","lat":"31.13872","category":"47","category_name":"住宅区","address":"青松路447弄"},{"poiid":"B2094655D268A6FE469D","title":"帕缇欧香苑(西门)","lon":"121.12496","lat":"31.13775","category":"656","category_name":"大门","address":""},{"poiid":"B2094655D36CA7FF4192","title":"湖滨路章浜路","lon":"121.11829","lat":"31.14239","category":"38","category_name":"公交车站","address":""},{"poiid":"B2094654DA6BA0FF419C","title":"轻钢龙骨石膏板批发(青浦建材市场内)","lon":"121.12683","lat":"31.14178","category":"123","category_name":"家具建材市场","address":""},{"poiid":"B2094757D66EA5F9459A","title":"Quiksilver(青浦奥特莱斯店)","lon":"121.11634","lat":"31.13666","category":"141","category_name":"服装鞋帽皮具店","address":"上海近郊青浦区沪青平公路2888号奥特莱斯B113(近嘉松中路)  "},{"poiid":"B2094757D16FA0FE4898","title":"青浦区桂花苑","lon":"121.127376171","lat":"31.1456536766","category":"252","category_name":"楼宇机构","address":"上海青浦区青湖路1070弄"},{"poiid":"B2094654DA6BA5F94199","title":"保安新村","lon":"121.12564","lat":"31.145197","category":"47","category_name":"住宅区","address":"淀浦河东路225号"},{"poiid":"B2094654DA6BA0FF419E","title":"百和陶瓷(上海青浦建材市场)","lon":"121.12728","lat":"31.14178","category":"123","category_name":"家具建材市场","address":"外青松公路6969号14幢169号"},{"poiid":"B2094757D068A4F5419A","title":"帕缇欧香苑","lon":"121.1250559","lat":"31.141070094","category":"252","category_name":"楼宇机构","address":"上海青浦区外青松公路6666弄"},{"poiid":"B2094655D36DA6FF499C","title":"上海青浦影城","lon":"121.11842","lat":"31.13721","category":"178","category_name":"电影院","address":"上海市青浦区沪青平公路5669弄(金域广场)63栋22号"},{"poiid":"B2094757D06BA3FF479E","title":"仁恒运杰河滨花苑","lon":"121.12885939","lat":"31.140946384","category":"252","category_name":"楼宇机构","address":"上海青浦区外青松公路6999弄"},{"poiid":"B2094655D36CA5FF4392","title":"城中东路保安路","lon":"121.12422","lat":"31.14644","category":"38","category_name":"公交车站","address":""},{"poiid":"B2094757D069A2F5489D","title":"G50沪渝高速青浦城区收费站","lon":"121.124441394","lat":"31.130823627","category":"267","category_name":"收费站","address":"上海G50沪渝高速青浦城区收费站"},{"poiid":"B2094750D568A0F94392","title":"香港纯Kparyt","lon":"121.126731","lat":"31.146087","category":"170","category_name":"KTV","address":"青浦区青湖路晨兴国际"},{"poiid":"B2094757D16DAAFF419E","title":"青浦热浪游泳健身会所","lon":"121.12440467","lat":"31.141178186","category":"500","category_name":"未知分类","address":"青浦区外青松公路6666号(近沪青平公路)"},{"poiid":"B2094757D16CA4FD429A","title":"小外灘","lon":"121.114895071","lat":"31.1407699787","category":"500","category_name":"未知分类","address":"上海近郊青浦區"},{"poiid":"B2094654DA6BA5F94393","title":"青浦东方中学","lon":"121.12189","lat":"31.14408","category":"55","category_name":"中学","address":"上海青浦区浦仓路88号"},{"poiid":"B2094654DA6BA5FB449B","title":"上海市公安局青浦分局交通警察支队","lon":"121.11951","lat":"31.13749","category":"250","category_name":"公园户外","address":"沪青平公路5540"},{"poiid":"B2094757D16FABFB4798","title":"小木屋农家菜","lon":"121.124215671","lat":"31.131902901","category":"76","category_name":"上海菜","address":"青浦区外青松公路6666弄68-69号(近热浪健身俱乐部)"},{"poiid":"B2094654DA6BA5FB4499","title":"上海大众汽车青浦销售服务有限公司","lon":"121.12095","lat":"31.13812","category":"159","category_name":"汽车维修","address":"青浦区沪青平公路5528号"},{"poiid":"B2094655D26FABFF489C","title":"上海电视大学青浦分校(东门)","lon":"121.11849","lat":"31.14401","category":"52","category_name":"高等院校","address":"章浜路118"},{"poiid":"B2094751D56CA1F8419F","title":"Ms Chen's Restaurant & Bar","lon":"121.12579","lat":"31.14401","category":"172","category_name":"酒吧","address":"青浦区外青松公路6666弄16号帕缇欧香小区内"},{"poiid":"B2094655D36CA2F8449E","title":"青松路","lon":"121.11723","lat":"31.13711","category":"38","category_name":"公交车站","address":""},{"poiid":"B2094751D26AAAF5499B","title":"青浦茶物语","lon":"121.11671","lat":"31.1446","category":"111","category_name":"休闲餐饮场所","address":"青浦区城中南路174-4号(近太阳花幼儿园)"},{"poiid":"B2094757D665ABF84599","title":"红宝石 城中东路店 Ruby","lon":"121.12091","lat":"31.14668","category":"67","category_name":"甜品店","address":"青浦区城中东路218号(城中东路浦仓路)"},{"poiid":"B2094655D268A2FB429E","title":"热浪健身会所","lon":"121.12445","lat":"31.14017","category":"221","category_name":"健身中心","address":"青浦区公园路629号"},{"poiid":"B2094654DA6BA7F9479C","title":"千味红景庭","lon":"121.11569","lat":"31.14271","category":"47","category_name":"住宅区","address":"青浦区青松路288号(青浦湖滨路青松路)"},{"poiid":"B2094655D268A2FB429F","title":"世纪华联No.2138","lon":"121.12464","lat":"31.14073","category":"117","category_name":"便民商店/便利店","address":""},{"poiid":"B2094654DB69AAFB469E","title":"青浦区交警支队","lon":"121.11951","lat":"31.13749","category":"250","category_name":"公园户外","address":"青浦区沪青平公路5540号"},{"poiid":"B2094753D768A2FF4299","title":"上井精致料理","lon":"121.130928","lat":"31.14208","category":"247","category_name":"餐饮美食","address":"上海市 青浦区华青南路"},{"poiid":"B2094757D064AAF9419F","title":"城东新村","lon":"121.12563357","lat":"31.143727738","category":"500","category_name":"未知分类","address":"上海市青浦区"},{"poiid":"B2094757D66AA0F54898","title":"丑小鸭家常菜馆","lon":"121.12565","lat":"31.12875","category":"76","category_name":"上海菜","address":"青浦区青松路7199号一区12-16号(近福寿园)"},{"poiid":"B2094757D065ABFD479F","title":"318国道","lon":"121.118341","lat":"31.137428","category":"260","category_name":"其他","address":"上海318国道(青浦至西藏)"},{"poiid":"B2094655D268A3F4419E","title":"基督教堂","lon":"121.11913","lat":"31.1398","category":"245","category_name":"教堂","address":""},{"poiid":"B2094655D268A6FE469C","title":"帕缇欧香苑(南门)","lon":"121.12403","lat":"31.13778","category":"656","category_name":"大门","address":""},{"poiid":"B2094757D56EA0F44198","title":"车水马廷","lon":"121.1253619","lat":"31.13135855","category":"76","category_name":"上海菜","address":"青浦区外青松公路6677号(近福寿园)"},{"poiid":"B2094757D164A0F9489C","title":"塔湾新村","lon":"121.118450321","lat":"31.1373831108","category":"47","category_name":"住宅区","address":"上海沪青平公路479弄"},{"poiid":"B2094753D764AAF8459E","title":"鹭鹭小馆","lon":"121.120201","lat":"31.143415","category":"247","category_name":"餐饮美食","address":"上海市 公园路544号稻香村1楼"},{"poiid":"B2094654DB69AAF9409B","title":"巷深酒楼","lon":"121.121047054","lat":"31.147857793","category":"76","category_name":"上海菜","address":"青浦区浦仓路250号(城中东路浦仓路)"},{"poiid":"B2094654DA6BA5FA4892","title":"上海电视大学青浦分校","lon":"121.11769","lat":"31.14385","category":"52","category_name":"高等院校","address":"青浦区青浦镇章浜路118号"},{"poiid":"B2094655D36CA2F8419F","title":"青湖路外青松公路","lon":"121.12826","lat":"31.14603","category":"38","category_name":"公交车站","address":""},{"poiid":"B2094655D265A5F8499E","title":"索尼食堂","lon":"121.12344","lat":"31.14277","category":"257","category_name":"中餐厅","address":"卢湾区湖滨路222号企业天地1号楼7楼(近济南路)"},{"poiid":"B2094654DA6BA0F8429F","title":"晨兴公寓","lon":"121.1284","lat":"31.145359","category":"47","category_name":"住宅区","address":"青湖路997弄"},{"poiid":"B2094655D26FABFE499A","title":"帕缇欧香苑(东门)","lon":"121.12461","lat":"31.13988","category":"656","category_name":"大门","address":"外青松公路6666弄"},{"poiid":"B2094654DA6BA7F94798","title":"青城苑","lon":"121.11543","lat":"31.143129","category":"47","category_name":"住宅区","address":"上海市青松路270号"},{"poiid":"B2094757D16AA0FA499F","title":"农业银行青浦支行","lon":"121.12511974","lat":"31.140914941","category":"150","category_name":"银行","address":"上海青浦区城中北路城中西路"},{"poiid":"B2094655D268A3F4409D","title":"塔湾新村一区","lon":"121.1183","lat":"31.13811","category":"47","category_name":"住宅区","address":""},{"poiid":"B2094753D56FABFC4793","title":"Shoes Cafe","lon":"121.128005","lat":"31.140201","category":"500","category_name":"未知分类","address":"上海市 上海市青浦区外青松公路6999弄91号商铺"},{"poiid":"B2094654DA6BA1F4449A","title":"上海青海建材市场","lon":"121.1269","lat":"31.14109","category":"123","category_name":"家具建材市场","address":""},{"poiid":"B2094757D568A7FD4898","title":"轩和坊","lon":"121.1264411","lat":"31.132295","category":"46","category_name":"楼宇","address":"朱家角镇新风路185弄"},{"poiid":"B2094655D268A3F44198","title":"青松路447弄小区","lon":"121.11808","lat":"31.13872","category":"47","category_name":"住宅区","address":"青松路447弄"},{"poiid":"B2094655D268A6FE469D","title":"帕缇欧香苑(西门)","lon":"121.12496","lat":"31.13775","category":"656","category_name":"大门","address":""},{"poiid":"B2094655D36CA7FF4192","title":"湖滨路章浜路","lon":"121.11829","lat":"31.14239","category":"38","category_name":"公交车站","address":""},{"poiid":"B2094654DA6BA0FF419C","title":"轻钢龙骨石膏板批发(青浦建材市场内)","lon":"121.12683","lat":"31.14178","category":"123","category_name":"家具建材市场","address":""},{"poiid":"B2094757D66EA5F9459A","title":"Quiksilver(青浦奥特莱斯店)","lon":"121.11634","lat":"31.13666","category":"141","category_name":"服装鞋帽皮具店","address":"上海近郊青浦区沪青平公路2888号奥特莱斯B113(近嘉松中路)  "},{"poiid":"B2094757D16FA0FE4898","title":"青浦区桂花苑","lon":"121.127376171","lat":"31.1456536766","category":"252","category_name":"楼宇机构","address":"上海青浦区青湖路1070弄"},{"poiid":"B2094654DA6BA5F94199","title":"保安新村","lon":"121.12564","lat":"31.145197","category":"47","category_name":"住宅区","address":"淀浦河东路225号"},{"poiid":"B2094654DA6BA0FF419E","title":"百和陶瓷(上海青浦建材市场)","lon":"121.12728","lat":"31.14178","category":"123","category_name":"家具建材市场","address":"外青松公路6969号14幢169号"}]