[{"poiid":"B2094655D26AA0F84799","title":"上海中医药大学附属曙光医院","lon":"121.47867","lat":"31.22293","category":"162","category_name":"医院","address":"卢湾区普安路185号(近淮海公园)"},{"poiid":"B2094655D36CA1FE409C","title":"寿宁路","lon":"121.48061","lat":"31.22345","category":"38","category_name":"公交车站","address":""},{"poiid":"B2094750D26EABF8459A","title":"上海虹桥机场","lon":"121.48","lat":"31.22","category":"21","category_name":"飞机场","address":"上海长宁区虹桥路2550号"},{"poiid":"B2094753D76FAAFA449C","title":"上海滩国泰旗舰店","lon":"121.466011","lat":"31.216125","category":"249","category_name":"购物服务","address":"淮海中路868号"},{"poiid":"B209475CD564A7F84292","title":"上海滩新天地店","lon":"121.47463","lat":"31.22164","category":"119","category_name":"商场","address":"\"太仓路181弄新天地北里15号\r\n\""},{"poiid":"B209475CD564A7F8439E","title":"上海滩中信泰富店","lon":"121.45602","lat":"31.22851","category":"119","category_name":"商场","address":"\"南京西路1168号中信泰富广场，店铺号221.\r\n\""},{"poiid":"B209475CD564A7F84392","title":"上海滩浦东香格里拉店","lon":"121.50058","lat":"31.23634","category":"119","category_name":"商场","address":"浦东富成路33号香格里拉酒店内大堂层"},{"poiid":"B2094757D06FA1F5439E","title":"一锅鲜","lon":"121.48108643","lat":"31.223254051","category":"76","category_name":"上海菜","address":"黄浦区淮海东路99号新尚数码广场5楼(西藏路淮海东路交叉口)"},{"poiid":"B2094757D064A1FD449A","title":"地铁8号线大世界站","lon":"121.478748638","lat":"31.2230810477","category":"36","category_name":"地铁站","address":"上海大世界站"},{"poiid":"B2094757D06FA5FF499D","title":"新天地太平桥人工湖","lon":"121.479294","lat":"31.222233","category":"196","category_name":"公园","address":"上海济南路"},{"poiid":"B2094757D16AA5F94593","title":"好乐迪","lon":"121.47968292","lat":"31.220613479","category":"500","category_name":"未知分类","address":"上海卢湾区顺昌路2号"},{"poiid":"B2094757D16DA1FB499B","title":"华美国际酒店","lon":"121.481757","lat":"31.22221","category":"217","category_name":"旅馆招待所","address":"黄浦区西藏南路381号(近淮海中路)"},{"poiid":"B2094654DA6EAAFC429C","title":"曙光大厦","lon":"121.47886","lat":"31.22255","category":"46","category_name":"楼宇","address":"静安区西康路946号"},{"poiid":"B2094757D06FA6F8429E","title":"万商花鸟市场","lon":"121.48199","lat":"31.22132","category":"249","category_name":"购物服务","address":"黄浦区西藏南路417号(近东台路)"},{"poiid":"B2094654DA6EABFB4493","title":"东台路古玩市场(自忠路)","lon":"121.48128","lat":"31.22059","category":"134","category_name":"古玩字画店","address":"自忠路28"},{"poiid":"B2094757D66BA3F94698","title":"伊莎贝尔 Trattoria Isabelle","lon":"121.479601054","lat":"31.221654793","category":"98","category_name":"意式菜品餐厅","address":"卢湾区吉安路11号(湖滨路崇德路间)"},{"poiid":"B2094753D46AA1FD459D","title":"环球港","lon":"121.480438","lat":"31.22241","category":"500","category_name":"未知分类","address":"上海市 中山北路"},{"poiid":"B2094654DA6EAAFC469E","title":"上海时光整形外科医院","lon":"121.47886","lat":"31.22255","category":"162","category_name":"医院","address":"卢湾区普安路189号曙光大厦2楼(近淮海公园)"},{"poiid":"B2094757D064A3F44293","title":"Fraser Residence 上海辉盛庭国际公寓","lon":"121.481061948","lat":"31.2234862464","category":"500","category_name":"未知分类","address":"卢湾区寿宁路98号(近淮海中路)"},{"poiid":"B2094654DA6EABFB4198","title":"巴辣子","lon":"121.48039970258","lat":"31.223424021383","category":"71","category_name":"四川菜","address":"卢湾区寿宁路71弄7号(柳林路西藏南路间)"},{"poiid":"B2094654DA6EABFB499B","title":"上海市比乐中学","lon":"121.47971","lat":"31.22154","category":"55","category_name":"中学","address":"卢湾区崇德路43号(近顺昌路)"},{"poiid":"B2094753D76CA2F44598","title":"上海朗庭酒店","lon":"121.479156","lat":"31.22248","category":"500","category_name":"未知分类","address":"上海市 卢湾区马当路"},{"poiid":"B2094751D36BA5FF469F","title":"上海南站","lon":"121.48","lat":"31.22","category":"195","category_name":"游乐场","address":"上海徐家汇"},{"poiid":"B2094757D66CA3FE4198","title":"虎跳峽(下虎跳)","lon":"121.48102943","lat":"31.222836642","category":"234","category_name":"海滨浴场","address":"迪庆州香格里拉县(近大具乡) 下虎跳峡"},{"poiid":"B2094753D768A1F4419C","title":"上海外滩","lon":"121.480438","lat":"31.222406","category":"500","category_name":"未知分类","address":"上海市 外滩"},{"poiid":"B2094757D56CA2FF419C","title":"Love Break","lon":"121.4813558","lat":"31.2231263","category":"260","category_name":"其他","address":"黄浦区西藏南路327号(近寿宁路)"},{"poiid":"B2094757D06BA6FD4992","title":"上海中医药大学附属曙光医院名中医诊疗中心","lon":"121.478672","lat":"31.222935","category":"162","category_name":"医院","address":"上海市卢湾区普安路185号(近淮海公园)"},{"poiid":"B2094655D26BA3FE4392","title":"立欧桌球概念馆","lon":"121.47886","lat":"31.22255","category":"171","category_name":"台球厅","address":"卢湾区普安路189号曙光大厦10楼(近淮海公园)"},{"poiid":"B2094757DB69A7FA4993","title":"李向阳葱油饼","lon":"121.47865","lat":"31.22204","category":"68","category_name":"快餐厅","address":"卢湾区普安路185号(近上海中医大学附属曙光医院)"},{"poiid":"B209475DD76EA1F84799","title":"Blue Car Coffee","lon":"121.480636","lat":"31.222131","category":"247","category_name":"餐饮美食","address":"上海市 淮海中路193-8号"},{"poiid":"B2094654DB65A5FF4393","title":"雅叙屋食府家常菜(自忠路)","lon":"121.48136","lat":"31.22041","category":"76","category_name":"上海菜","address":"卢湾区自忠路13号(近东台路)"},{"poiid":"B2094757D06AA0F44293","title":"原味坊(西藏路店)","lon":"121.48109149","lat":"31.222519552","category":"67","category_name":"甜品店","address":"黄浦区西藏南路251号宏基西门町(寿宁路口)"},{"poiid":"B209475DD669A6F5469B","title":"赵小姐不等位","lon":"121.481353","lat":"31.220138","category":"247","category_name":"餐饮美食","address":"上海市 太仓路70号"},{"poiid":"B2094654DA6EAAFF409D","title":"吉祥馄饨柳林店","lon":"121.48049","lat":"31.22322","category":"68","category_name":"快餐厅","address":"卢湾区柳林路109号(寿宁路口)"},{"poiid":"B2094654DB6BA4FA479B","title":"裕福里(自忠路)","lon":"121.48148","lat":"31.22064","category":"47","category_name":"住宅区","address":"自忠路18弄1-26号"},{"poiid":"B2094757D169ABFB479F","title":"剪约","lon":"121.481085438","lat":"31.2232150506","category":"500","category_name":"未知分类","address":"上海西藏南路322-324号"},{"poiid":"B2094757D16CA5F8479E","title":"势崛私属造型(无限度店)","lon":"121.479872905","lat":"31.2223626324","category":"148","category_name":"美容美发店","address":"卢湾区淮海中路138号无限度广场5楼516室(时代广场对面)"},{"poiid":"B2094655D264A7F54392","title":"相思苑餐厅","lon":"121.480455054","lat":"31.222468793","category":"76","category_name":"上海菜","address":"卢湾区崇德路24号(近太仓路)"},{"poiid":"B2094654DA6EAAFE4192","title":"崇尚麻辣烫","lon":"121.47941","lat":"31.22203","category":"68","category_name":"快餐厅","address":"卢湾区崇德路46号(近柳林路)"},{"poiid":"B209475DD16BA2FB4399","title":"么么mussels","lon":"121.481315","lat":"31.220224","category":"500","category_name":"未知分类","address":"上海市 太仓路70号"},{"poiid":"B2094757D06BA3FE459C","title":"时光整形医院","lon":"121.47886","lat":"31.22229","category":"162","category_name":"医院","address":"上海卢湾区普安路189号曙光大厦6楼(近淮海公园)  "},{"poiid":"B2094757D465A7FF499B","title":"新新美食林","lon":"121.48006393688","lat":"31.219839547289","category":"68","category_name":"快餐厅","address":"卢湾区自忠路75号(近吉安路)"},{"poiid":"B2094654DA6EA6F54792","title":"华美国际酒店商务楼","lon":"121.48176","lat":"31.22185","category":"46","category_name":"楼宇","address":"西藏南路381号"},{"poiid":"B2094750D26AA3FB429E","title":"96广场","lon":"121.481437","lat":"31.223215","category":"500","category_name":"未知分类","address":null},{"poiid":"B2094753D768A3FA4592","title":"浦东新区","lon":"121.480422","lat":"31.222393","category":"500","category_name":"未知分类","address":"上海市 陆家嘴"},{"poiid":"B2094757D465A1F8439B","title":"华美国际酒店餐厅","lon":"121.481435054","lat":"31.222032793","category":"268","category_name":"自助","address":"黄浦区西藏南路381号(浏河口路西藏南路)"},{"poiid":"B209475CD76BA6FB449A","title":"老友螺蛳粉","lon":"121.481895","lat":"31.220659","category":"247","category_name":"餐饮美食","address":"上海市 西藏南路390号"},{"poiid":"B2094757D06BA6FC4992","title":"胡记锅贴(原嵩山路)","lon":"121.47905673","lat":"31.222453134","category":"247","category_name":"餐饮美食","address":"上海市普安路207号"},{"poiid":"B2094750DA6CA2FE4893","title":"新元素，永银大厦","lon":"121.47882","lat":"31.221979","category":"500","category_name":"未知分类","address":null},{"poiid":"B2094655D26AA0F84799","title":"上海中医药大学附属曙光医院","lon":"121.47867","lat":"31.22293","category":"162","category_name":"医院","address":"卢湾区普安路185号(近淮海公园)"},{"poiid":"B2094655D36CA1FE409C","title":"寿宁路","lon":"121.48061","lat":"31.22345","category":"38","category_name":"公交车站","address":""},{"poiid":"B2094750D26EABF8459A","title":"上海虹桥机场","lon":"121.48","lat":"31.22","category":"21","category_name":"飞机场","address":"上海长宁区虹桥路2550号"},{"poiid":"B2094753D76FAAFA449C","title":"上海滩国泰旗舰店","lon":"121.466011","lat":"31.216125","category":"249","category_name":"购物服务","address":"淮海中路868号"},{"poiid":"B209475CD564A7F84292","title":"上海滩新天地店","lon":"121.47463","lat":"31.22164","category":"119","category_name":"商场","address":"\"太仓路181弄新天地北里15号\r\n\""},{"poiid":"B209475CD564A7F8439E","title":"上海滩中信泰富店","lon":"121.45602","lat":"31.22851","category":"119","category_name":"商场","address":"\"南京西路1168号中信泰富广场，店铺号221.\r\n\""},{"poiid":"B209475CD564A7F84392","title":"上海滩浦东香格里拉店","lon":"121.50058","lat":"31.23634","category":"119","category_name":"商场","address":"浦东富成路33号香格里拉酒店内大堂层"},{"poiid":"B2094757D06FA1F5439E","title":"一锅鲜","lon":"121.48108643","lat":"31.223254051","category":"76","category_name":"上海菜","address":"黄浦区淮海东路99号新尚数码广场5楼(西藏路淮海东路交叉口)"},{"poiid":"B2094757D064A1FD449A","title":"地铁8号线大世界站","lon":"121.478748638","lat":"31.2230810477","category":"36","category_name":"地铁站","address":"上海大世界站"},{"poiid":"B2094757D06FA5FF499D","title":"新天地太平桥人工湖","lon":"121.479294","lat":"31.222233","category":"196","category_name":"公园","address":"上海济南路"},{"poiid":"B2094757D16AA5F94593","title":"好乐迪","lon":"121.47968292","lat":"31.220613479","category":"500","category_name":"未知分类","address":"上海卢湾区顺昌路2号"},{"poiid":"B2094757D16DA1FB499B","title":"华美国际酒店","lon":"121.481757","lat":"31.22221","category":"217","category_name":"旅馆招待所","address":"黄浦区西藏南路381号(近淮海中路)"},{"poiid":"B2094654DA6EAAFC429C","title":"曙光大厦","lon":"121.47886","lat":"31.22255","category":"46","category_name":"楼宇","address":"静安区西康路946号"},{"poiid":"B2094757D06FA6F8429E","title":"万商花鸟市场","lon":"121.48199","lat":"31.22132","category":"249","category_name":"购物服务","address":"黄浦区西藏南路417号(近东台路)"},{"poiid":"B2094654DA6EABFB4493","title":"东台路古玩市场(自忠路)","lon":"121.48128","lat":"31.22059","category":"134","category_name":"古玩字画店","address":"自忠路28"},{"poiid":"B2094757D66BA3F94698","title":"伊莎贝尔 Trattoria Isabelle","lon":"121.479601054","lat":"31.221654793","category":"98","category_name":"意式菜品餐厅","address":"卢湾区吉安路11号(湖滨路崇德路间)"},{"poiid":"B2094753D46AA1FD459D","title":"环球港","lon":"121.480438","lat":"31.22241","category":"500","category_name":"未知分类","address":"上海市 中山北路"},{"poiid":"B2094654DA6EAAFC469E","title":"上海时光整形外科医院","lon":"121.47886","lat":"31.22255","category":"162","category_name":"医院","address":"卢湾区普安路189号曙光大厦2楼(近淮海公园)"},{"poiid":"B2094757D064A3F44293","title":"Fraser Residence 上海辉盛庭国际公寓","lon":"121.481061948","lat":"31.2234862464","category":"500","category_name":"未知分类","address":"卢湾区寿宁路98号(近淮海中路)"},{"poiid":"B2094654DA6EABFB4198","title":"巴辣子","lon":"121.48039970258","lat":"31.223424021383","category":"71","category_name":"四川菜","address":"卢湾区寿宁路71弄7号(柳林路西藏南路间)"},{"poiid":"B2094654DA6EABFB499B","title":"上海市比乐中学","lon":"121.47971","lat":"31.22154","category":"55","category_name":"中学","address":"卢湾区崇德路43号(近顺昌路)"},{"poiid":"B2094753D76CA2F44598","title":"上海朗庭酒店","lon":"121.479156","lat":"31.22248","category":"500","category_name":"未知分类","address":"上海市 卢湾区马当路"},{"poiid":"B2094751D36BA5FF469F","title":"上海南站","lon":"121.48","lat":"31.22","category":"195","category_name":"游乐场","address":"上海徐家汇"},{"poiid":"B2094757D66CA3FE4198","title":"虎跳峽(下虎跳)","lon":"121.48102943","lat":"31.222836642","category":"234","category_name":"海滨浴场","address":"迪庆州香格里拉县(近大具乡) 下虎跳峡"},{"poiid":"B2094753D768A1F4419C","title":"上海外滩","lon":"121.480438","lat":"31.222406","category":"500","category_name":"未知分类","address":"上海市 外滩"},{"poiid":"B2094757D56CA2FF419C","title":"Love Break","lon":"121.4813558","lat":"31.2231263","category":"260","category_name":"其他","address":"黄浦区西藏南路327号(近寿宁路)"},{"poiid":"B2094757D06BA6FD4992","title":"上海中医药大学附属曙光医院名中医诊疗中心","lon":"121.478672","lat":"31.222935","category":"162","category_name":"医院","address":"上海市卢湾区普安路185号(近淮海公园)"},{"poiid":"B2094655D26BA3FE4392","title":"立欧桌球概念馆","lon":"121.47886","lat":"31.22255","category":"171","category_name":"台球厅","address":"卢湾区普安路189号曙光大厦10楼(近淮海公园)"},{"poiid":"B2094757DB69A7FA4993","title":"李向阳葱油饼","lon":"121.47865","lat":"31.22204","category":"68","category_name":"快餐厅","address":"卢湾区普安路185号(近上海中医大学附属曙光医院)"},{"poiid":"B209475DD76EA1F84799","title":"Blue Car Coffee","lon":"121.480636","lat":"31.222131","category":"247","category_name":"餐饮美食","address":"上海市 淮海中路193-8号"},{"poiid":"B2094654DB65A5FF4393","title":"雅叙屋食府家常菜(自忠路)","lon":"121.48136","lat":"31.22041","category":"76","category_name":"上海菜","address":"卢湾区自忠路13号(近东台路)"},{"poiid":"B2094757D06AA0F44293","title":"原味坊(西藏路店)","lon":"121.48109149","lat":"31.222519552","category":"67","category_name":"甜品店","address":"黄浦区西藏南路251号宏基西门町(寿宁路口)"},{"poiid":"B209475DD669A6F5469B","title":"赵小姐不等位","lon":"121.481353","lat":"31.220138","category":"247","category_name":"餐饮美食","address":"上海市 太仓路70号"},{"poiid":"B2094654DA6EAAFF409D","title":"吉祥馄饨柳林店","lon":"121.48049","lat":"31.22322","category":"68","category_name":"快餐厅","address":"卢湾区柳林路109号(寿宁路口)"},{"poiid":"B2094654DB6BA4FA479B","title":"裕福里(自忠路)","lon":"121.48148","lat":"31.22064","category":"47","category_name":"住宅区","address":"自忠路18弄1-26号"},{"poiid":"B2094757D169ABFB479F","title":"剪约","lon":"121.481085438","lat":"31.2232150506","category":"500","category_name":"未知分类","address":"上海西藏南路322-324号"},{"poiid":"B2094757D16CA5F8479E","title":"势崛私属造型(无限度店)","lon":"121.479872905","lat":"31.2223626324","category":"148","category_name":"美容美发店","address":"卢湾区淮海中路138号无限度广场5楼516室(时代广场对面)"},{"poiid":"B2094655D264A7F54392","title":"相思苑餐厅","lon":"121.480455054","lat":"31.222468793","category":"76","category_name":"上海菜","address":"卢湾区崇德路24号(近太仓路)"},{"poiid":"B2094654DA6EAAFE4192","title":"崇尚麻辣烫","lon":"121.47941","lat":"31.22203","category":"68","category_name":"快餐厅","address":"卢湾区崇德路46号(近柳林路)"},{"poiid":"B209475DD16BA2FB4399","title":"么么mussels","lon":"121.481315","lat":"31.220224","category":"500","category_name":"未知分类","address":"上海市 太仓路70号"},{"poiid":"B2094757D06BA3FE459C","title":"时光整形医院","lon":"121.47886","lat":"31.22229","category":"162","category_name":"医院","address":"上海卢湾区普安路189号曙光大厦6楼(近淮海公园)  "},{"poiid":"B2094757D465A7FF499B","title":"新新美食林","lon":"121.48006393688","lat":"31.219839547289","category":"68","category_name":"快餐厅","address":"卢湾区自忠路75号(近吉安路)"},{"poiid":"B2094654DA6EA6F54792","title":"华美国际酒店商务楼","lon":"121.48176","lat":"31.22185","category":"46","category_name":"楼宇","address":"西藏南路381号"},{"poiid":"B2094750D26AA3FB429E","title":"96广场","lon":"121.481437","lat":"31.223215","category":"500","category_name":"未知分类","address":null},{"poiid":"B2094753D768A3FA4592","title":"浦东新区","lon":"121.480422","lat":"31.222393","category":"500","category_name":"未知分类","address":"上海市 陆家嘴"},{"poiid":"B2094757D465A1F8439B","title":"华美国际酒店餐厅","lon":"121.481435054","lat":"31.222032793","category":"268","category_name":"自助","address":"黄浦区西藏南路381号(浏河口路西藏南路)"},{"poiid":"B209475CD76BA6FB449A","title":"老友螺蛳粉","lon":"121.481895","lat":"31.220659","category":"247","category_name":"餐饮美食","address":"上海市 西藏南路390号"},{"poiid":"B2094757D06BA6FC4992","title":"胡记锅贴(原嵩山路)","lon":"121.47905673","lat":"31.222453134","category":"247","category_name":"餐饮美食","address":"上海市普安路207号"},{"poiid":"B2094750DA6CA2FE4893","title":"新元素，永银大厦","lon":"121.47882","lat":"31.221979","category":"500","category_name":"未知分类","address":null},{"poiid":"B2094655D26AA0F84799","title":"上海中医药大学附属曙光医院","lon":"121.47867","lat":"31.22293","category":"162","category_name":"医院","address":"卢湾区普安路185号(近淮海公园)"},{"poiid":"B2094655D36CA1FE409C","title":"寿宁路","lon":"121.48061","lat":"31.22345","category":"38","category_name":"公交车站","address":""},{"poiid":"B2094750D26EABF8459A","title":"上海虹桥机场","lon":"121.48","lat":"31.22","category":"21","category_name":"飞机场","address":"上海长宁区虹桥路2550号"},{"poiid":"B2094753D76FAAFA449C","title":"上海滩国泰旗舰店","lon":"121.466011","lat":"31.216125","category":"249","category_name":"购物服务","address":"淮海中路868号"},{"poiid":"B209475CD564A7F84292","title":"上海滩新天地店","lon":"121.47463","lat":"31.22164","category":"119","category_name":"商场","address":"\"太仓路181弄新天地北里15号\r\n\""},{"poiid":"B209475CD564A7F8439E","title":"上海滩中信泰富店","lon":"121.45602","lat":"31.22851","category":"119","category_name":"商场","address":"\"南京西路1168号中信泰富广场，店铺号221.\r\n\""},{"poiid":"B209475CD564A7F84392","title":"上海滩浦东香格里拉店","lon":"121.50058","lat":"31.23634","category":"119","category_name":"商场","address":"浦东富成路33号香格里拉酒店内大堂层"},{"poiid":"B2094757D06FA1F5439E","title":"一锅鲜","lon":"121.48108643","lat":"31.223254051","category":"76","category_name":"上海菜","address":"黄浦区淮海东路99号新尚数码广场5楼(西藏路淮海东路交叉口)"},{"poiid":"B2094757D064A1FD449A","title":"地铁8号线大世界站","lon":"121.478748638","lat":"31.2230810477","category":"36","category_name":"地铁站","address":"上海大世界站"},{"poiid":"B2094757D06FA5FF499D","title":"新天地太平桥人工湖","lon":"121.479294","lat":"31.222233","category":"196","category_name":"公园","address":"上海济南路"},{"poiid":"B2094757D16AA5F94593","title":"好乐迪","lon":"121.47968292","lat":"31.220613479","category":"500","category_name":"未知分类","address":"上海卢湾区顺昌路2号"},{"poiid":"B2094757D16DA1FB499B","title":"华美国际酒店","lon":"121.481757","lat":"31.22221","category":"217","category_name":"旅馆招待所","address":"黄浦区西藏南路381号(近淮海中路)"},{"poiid":"B2094654DA6EAAFC429C","title":"曙光大厦","lon":"121.47886","lat":"31.22255","category":"46","category_name":"楼宇","address":"静安区西康路946号"},{"poiid":"B2094757D06FA6F8429E","title":"万商花鸟市场","lon":"121.48199","lat":"31.22132","category":"249","category_name":"购物服务","address":"黄浦区西藏南路417号(近东台路)"},{"poiid":"B2094654DA6EABFB4493","title":"东台路古玩市场(自忠路)","lon":"121.48128","lat":"31.22059","category":"134","category_name":"古玩字画店","address":"自忠路28"},{"poiid":"B2094757D66BA3F94698","title":"伊莎贝尔 Trattoria Isabelle","lon":"121.479601054","lat":"31.221654793","category":"98","category_name":"意式菜品餐厅","address":"卢湾区吉安路11号(湖滨路崇德路间)"},{"poiid":"B2094753D46AA1FD459D","title":"环球港","lon":"121.480438","lat":"31.22241","category":"500","category_name":"未知分类","address":"上海市 中山北路"},{"poiid":"B2094654DA6EAAFC469E","title":"上海时光整形外科医院","lon":"121.47886","lat":"31.22255","category":"162","category_name":"医院","address":"卢湾区普安路189号曙光大厦2楼(近淮海公园)"},{"poiid":"B2094757D064A3F44293","title":"Fraser Residence 上海辉盛庭国际公寓","lon":"121.481061948","lat":"31.2234862464","category":"500","category_name":"未知分类","address":"卢湾区寿宁路98号(近淮海中路)"},{"poiid":"B2094654DA6EABFB4198","title":"巴辣子","lon":"121.48039970258","lat":"31.223424021383","category":"71","category_name":"四川菜","address":"卢湾区寿宁路71弄7号(柳林路西藏南路间)"},{"poiid":"B2094654DA6EABFB499B","title":"上海市比乐中学","lon":"121.47971","lat":"31.22154","category":"55","category_name":"中学","address":"卢湾区崇德路43号(近顺昌路)"},{"poiid":"B2094753D76CA2F44598","title":"上海朗庭酒店","lon":"121.479156","lat":"31.22248","category":"500","category_name":"未知分类","address":"上海市 卢湾区马当路"},{"poiid":"B2094751D36BA5FF469F","title":"上海南站","lon":"121.48","lat":"31.22","category":"195","category_name":"游乐场","address":"上海徐家汇"},{"poiid":"B2094757D66CA3FE4198","title":"虎跳峽(下虎跳)","lon":"121.48102943","lat":"31.222836642","category":"234","category_name":"海滨浴场","address":"迪庆州香格里拉县(近大具乡) 下虎跳峡"},{"poiid":"B2094753D768A1F4419C","title":"上海外滩","lon":"121.480438","lat":"31.222406","category":"500","category_name":"未知分类","address":"上海市 外滩"},{"poiid":"B2094757D56CA2FF419C","title":"Love Break","lon":"121.4813558","lat":"31.2231263","category":"260","category_name":"其他","address":"黄浦区西藏南路327号(近寿宁路)"},{"poiid":"B2094757D06BA6FD4992","title":"上海中医药大学附属曙光医院名中医诊疗中心","lon":"121.478672","lat":"31.222935","category":"162","category_name":"医院","address":"上海市卢湾区普安路185号(近淮海公园)"},{"poiid":"B2094655D26BA3FE4392","title":"立欧桌球概念馆","lon":"121.47886","lat":"31.22255","category":"171","category_name":"台球厅","address":"卢湾区普安路189号曙光大厦10楼(近淮海公园)"},{"poiid":"B2094757DB69A7FA4993","title":"李向阳葱油饼","lon":"121.47865","lat":"31.22204","category":"68","category_name":"快餐厅","address":"卢湾区普安路185号(近上海中医大学附属曙光医院)"},{"poiid":"B209475DD76EA1F84799","title":"Blue Car Coffee","lon":"121.480636","lat":"31.222131","category":"247","category_name":"餐饮美食","address":"上海市 淮海中路193-8号"},{"poiid":"B2094654DB65A5FF4393","title":"雅叙屋食府家常菜(自忠路)","lon":"121.48136","lat":"31.22041","category":"76","category_name":"上海菜","address":"卢湾区自忠路13号(近东台路)"},{"poiid":"B2094757D06AA0F44293","title":"原味坊(西藏路店)","lon":"121.48109149","lat":"31.222519552","category":"67","category_name":"甜品店","address":"黄浦区西藏南路251号宏基西门町(寿宁路口)"},{"poiid":"B209475DD669A6F5469B","title":"赵小姐不等位","lon":"121.481353","lat":"31.220138","category":"247","category_name":"餐饮美食","address":"上海市 太仓路70号"},{"poiid":"B2094654DA6EAAFF409D","title":"吉祥馄饨柳林店","lon":"121.48049","lat":"31.22322","category":"68","category_name":"快餐厅","address":"卢湾区柳林路109号(寿宁路口)"},{"poiid":"B2094654DB6BA4FA479B","title":"裕福里(自忠路)","lon":"121.48148","lat":"31.22064","category":"47","category_name":"住宅区","address":"自忠路18弄1-26号"},{"poiid":"B2094757D169ABFB479F","title":"剪约","lon":"121.481085438","lat":"31.2232150506","category":"500","category_name":"未知分类","address":"上海西藏南路322-324号"},{"poiid":"B2094757D16CA5F8479E","title":"势崛私属造型(无限度店)","lon":"121.479872905","lat":"31.2223626324","category":"148","category_name":"美容美发店","address":"卢湾区淮海中路138号无限度广场5楼516室(时代广场对面)"},{"poiid":"B2094655D264A7F54392","title":"相思苑餐厅","lon":"121.480455054","lat":"31.222468793","category":"76","category_name":"上海菜","address":"卢湾区崇德路24号(近太仓路)"},{"poiid":"B2094654DA6EAAFE4192","title":"崇尚麻辣烫","lon":"121.47941","lat":"31.22203","category":"68","category_name":"快餐厅","address":"卢湾区崇德路46号(近柳林路)"},{"poiid":"B209475DD16BA2FB4399","title":"么么mussels","lon":"121.481315","lat":"31.220224","category":"500","category_name":"未知分类","address":"上海市 太仓路70号"},{"poiid":"B2094757D06BA3FE459C","title":"时光整形医院","lon":"121.47886","lat":"31.22229","category":"162","category_name":"医院","address":"上海卢湾区普安路189号曙光大厦6楼(近淮海公园)  "},{"poiid":"B2094757D465A7FF499B","title":"新新美食林","lon":"121.48006393688","lat":"31.219839547289","category":"68","category_name":"快餐厅","address":"卢湾区自忠路75号(近吉安路)"},{"poiid":"B2094654DA6EA6F54792","title":"华美国际酒店商务楼","lon":"121.48176","lat":"31.22185","category":"46","category_name":"楼宇","address":"西藏南路381号"},{"poiid":"B2094750D26AA3FB429E","title":"96广场","lon":"121.481437","lat":"31.223215","category":"500","category_name":"未知分类","address":null},{"poiid":"B2094753D768A3FA4592","title":"浦东新区","lon":"121.480422","lat":"31.222393","category":"500","category_name":"未知分类","address":"上海市 陆家嘴"},{"poiid":"B2094757D465A1F8439B","title":"华美国际酒店餐厅","lon":"121.481435054","lat":"31.222032793","category":"268","category_name":"自助","address":"黄浦区西藏南路381号(浏河口路西藏南路)"},{"poiid":"B209475CD76BA6FB449A","title":"老友螺蛳粉","lon":"121.481895","lat":"31.220659","category":"247","category_name":"餐饮美食","address":"上海市 西藏南路390号"},{"poiid":"B2094757D06BA6FC4992","title":"胡记锅贴(原嵩山路)","lon":"121.47905673","lat":"31.222453134","category":"247","category_name":"餐饮美食","address":"上海市普安路207号"},{"poiid":"B2094750DA6CA2FE4893","title":"新元素，永银大厦","lon":"121.47882","lat":"31.221979","category":"500","category_name":"未知分类","address":null},{"poiid":"B2094655D26AA0F84799","title":"上海中医药大学附属曙光医院","lon":"121.47867","lat":"31.22293","category":"162","category_name":"医院","address":"卢湾区普安路185号(近淮海公园)"},{"poiid":"B2094655D36CA1FE409C","title":"寿宁路","lon":"121.48061","lat":"31.22345","category":"38","category_name":"公交车站","address":""},{"poiid":"B2094750D26EABF8459A","title":"上海虹桥机场","lon":"121.48","lat":"31.22","category":"21","category_name":"飞机场","address":"上海长宁区虹桥路2550号"},{"poiid":"B2094753D76FAAFA449C","title":"上海滩国泰旗舰店","lon":"121.466011","lat":"31.216125","category":"249","category_name":"购物服务","address":"淮海中路868号"},{"poiid":"B209475CD564A7F84292","title":"上海滩新天地店","lon":"121.47463","lat":"31.22164","category":"119","category_name":"商场","address":"\"太仓路181弄新天地北里15号\r\n\""},{"poiid":"B209475CD564A7F8439E","title":"上海滩中信泰富店","lon":"121.45602","lat":"31.22851","category":"119","category_name":"商场","address":"\"南京西路1168号中信泰富广场，店铺号221.\r\n\""},{"poiid":"B209475CD564A7F84392","title":"上海滩浦东香格里拉店","lon":"121.50058","lat":"31.23634","category":"119","category_name":"商场","address":"浦东富成路33号香格里拉酒店内大堂层"},{"poiid":"B2094757D06FA1F5439E","title":"一锅鲜","lon":"121.48108643","lat":"31.223254051","category":"76","category_name":"上海菜","address":"黄浦区淮海东路99号新尚数码广场5楼(西藏路淮海东路交叉口)"},{"poiid":"B2094757D064A1FD449A","title":"地铁8号线大世界站","lon":"121.478748638","lat":"31.2230810477","category":"36","category_name":"地铁站","address":"上海大世界站"},{"poiid":"B2094757D06FA5FF499D","title":"新天地太平桥人工湖","lon":"121.479294","lat":"31.222233","category":"196","category_name":"公园","address":"上海济南路"},{"poiid":"B2094757D16AA5F94593","title":"好乐迪","lon":"121.47968292","lat":"31.220613479","category":"500","category_name":"未知分类","address":"上海卢湾区顺昌路2号"},{"poiid":"B2094757D16DA1FB499B","title":"华美国际酒店","lon":"121.481757","lat":"31.22221","category":"217","category_name":"旅馆招待所","address":"黄浦区西藏南路381号(近淮海中路)"},{"poiid":"B2094654DA6EAAFC429C","title":"曙光大厦","lon":"121.47886","lat":"31.22255","category":"46","category_name":"楼宇","address":"静安区西康路946号"},{"poiid":"B2094757D06FA6F8429E","title":"万商花鸟市场","lon":"121.48199","lat":"31.22132","category":"249","category_name":"购物服务","address":"黄浦区西藏南路417号(近东台路)"},{"poiid":"B2094654DA6EABFB4493","title":"东台路古玩市场(自忠路)","lon":"121.48128","lat":"31.22059","category":"134","category_name":"古玩字画店","address":"自忠路28"},{"poiid":"B2094757D66BA3F94698","title":"伊莎贝尔 Trattoria Isabelle","lon":"121.479601054","lat":"31.221654793","category":"98","category_name":"意式菜品餐厅","address":"卢湾区吉安路11号(湖滨路崇德路间)"},{"poiid":"B2094753D46AA1FD459D","title":"环球港","lon":"121.480438","lat":"31.22241","category":"500","category_name":"未知分类","address":"上海市 中山北路"},{"poiid":"B2094654DA6EAAFC469E","title":"上海时光整形外科医院","lon":"121.47886","lat":"31.22255","category":"162","category_name":"医院","address":"卢湾区普安路189号曙光大厦2楼(近淮海公园)"},{"poiid":"B2094757D064A3F44293","title":"Fraser Residence 上海辉盛庭国际公寓","lon":"121.481061948","lat":"31.2234862464","category":"500","category_name":"未知分类","address":"卢湾区寿宁路98号(近淮海中路)"},{"poiid":"B2094654DA6EABFB4198","title":"巴辣子","lon":"121.48039970258","lat":"31.223424021383","category":"71","category_name":"四川菜","address":"卢湾区寿宁路71弄7号(柳林路西藏南路间)"},{"poiid":"B2094654DA6EABFB499B","title":"上海市比乐中学","lon":"121.47971","lat":"31.22154","category":"55","category_name":"中学","address":"卢湾区崇德路43号(近顺昌路)"},{"poiid":"B2094753D76CA2F44598","title":"上海朗庭酒店","lon":"121.479156","lat":"31.22248","category":"500","category_name":"未知分类","address":"上海市 卢湾区马当路"},{"poiid":"B2094751D36BA5FF469F","title":"上海南站","lon":"121.48","lat":"31.22","category":"195","category_name":"游乐场","address":"上海徐家汇"},{"poiid":"B2094757D66CA3FE4198","title":"虎跳峽(下虎跳)","lon":"121.48102943","lat":"31.222836642","category":"234","category_name":"海滨浴场","address":"迪庆州香格里拉县(近大具乡) 下虎跳峡"},{"poiid":"B2094753D768A1F4419C","title":"上海外滩","lon":"121.480438","lat":"31.222406","category":"500","category_name":"未知分类","address":"上海市 外滩"},{"poiid":"B2094757D56CA2FF419C","title":"Love Break","lon":"121.4813558","lat":"31.2231263","category":"260","category_name":"其他","address":"黄浦区西藏南路327号(近寿宁路)"},{"poiid":"B2094757D06BA6FD4992","title":"上海中医药大学附属曙光医院名中医诊疗中心","lon":"121.478672","lat":"31.222935","category":"162","category_name":"医院","address":"上海市卢湾区普安路185号(近淮海公园)"},{"poiid":"B2094655D26BA3FE4392","title":"立欧桌球概念馆","lon":"121.47886","lat":"31.22255","category":"171","category_name":"台球厅","address":"卢湾区普安路189号曙光大厦10楼(近淮海公园)"},{"poiid":"B2094757DB69A7FA4993","title":"李向阳葱油饼","lon":"121.47865","lat":"31.22204","category":"68","category_name":"快餐厅","address":"卢湾区普安路185号(近上海中医大学附属曙光医院)"},{"poiid":"B209475DD76EA1F84799","title":"Blue Car Coffee","lon":"121.480636","lat":"31.222131","category":"247","category_name":"餐饮美食","address":"上海市 淮海中路193-8号"},{"poiid":"B2094654DB65A5FF4393","title":"雅叙屋食府家常菜(自忠路)","lon":"121.48136","lat":"31.22041","category":"76","category_name":"上海菜","address":"卢湾区自忠路13号(近东台路)"},{"poiid":"B2094757D06AA0F44293","title":"原味坊(西藏路店)","lon":"121.48109149","lat":"31.222519552","category":"67","category_name":"甜品店","address":"黄浦区西藏南路251号宏基西门町(寿宁路口)"},{"poiid":"B209475DD669A6F5469B","title":"赵小姐不等位","lon":"121.481353","lat":"31.220138","category":"247","category_name":"餐饮美食","address":"上海市 太仓路70号"},{"poiid":"B2094654DA6EAAFF409D","title":"吉祥馄饨柳林店","lon":"121.48049","lat":"31.22322","category":"68","category_name":"快餐厅","address":"卢湾区柳林路109号(寿宁路口)"},{"poiid":"B2094654DB6BA4FA479B","title":"裕福里(自忠路)","lon":"121.48148","lat":"31.22064","category":"47","category_name":"住宅区","address":"自忠路18弄1-26号"},{"poiid":"B2094757D169ABFB479F","title":"剪约","lon":"121.481085438","lat":"31.2232150506","category":"500","category_name":"未知分类","address":"上海西藏南路322-324号"},{"poiid":"B2094757D16CA5F8479E","title":"势崛私属造型(无限度店)","lon":"121.479872905","lat":"31.2223626324","category":"148","category_name":"美容美发店","address":"卢湾区淮海中路138号无限度广场5楼516室(时代广场对面)"},{"poiid":"B2094655D264A7F54392","title":"相思苑餐厅","lon":"121.480455054","lat":"31.222468793","category":"76","category_name":"上海菜","address":"卢湾区崇德路24号(近太仓路)"},{"poiid":"B2094654DA6EAAFE4192","title":"崇尚麻辣烫","lon":"121.47941","lat":"31.22203","category":"68","category_name":"快餐厅","address":"卢湾区崇德路46号(近柳林路)"},{"poiid":"B209475DD16BA2FB4399","title":"么么mussels","lon":"121.481315","lat":"31.220224","category":"500","category_name":"未知分类","address":"上海市 太仓路70号"},{"poiid":"B2094757D06BA3FE459C","title":"时光整形医院","lon":"121.47886","lat":"31.22229","category":"162","category_name":"医院","address":"上海卢湾区普安路189号曙光大厦6楼(近淮海公园)  "},{"poiid":"B2094757D465A7FF499B","title":"新新美食林","lon":"121.48006393688","lat":"31.219839547289","category":"68","category_name":"快餐厅","address":"卢湾区自忠路75号(近吉安路)"},{"poiid":"B2094654DA6EA6F54792","title":"华美国际酒店商务楼","lon":"121.48176","lat":"31.22185","category":"46","category_name":"楼宇","address":"西藏南路381号"},{"poiid":"B2094750D26AA3FB429E","title":"96广场","lon":"121.481437","lat":"31.223215","category":"500","category_name":"未知分类","address":null},{"poiid":"B2094753D768A3FA4592","title":"浦东新区","lon":"121.480422","lat":"31.222393","category":"500","category_name":"未知分类","address":"上海市 陆家嘴"},{"poiid":"B2094757D465A1F8439B","title":"华美国际酒店餐厅","lon":"121.481435054","lat":"31.222032793","category":"268","category_name":"自助","address":"黄浦区西藏南路381号(浏河口路西藏南路)"},{"poiid":"B209475CD76BA6FB449A","title":"老友螺蛳粉","lon":"121.481895","lat":"31.220659","category":"247","category_name":"餐饮美食","address":"上海市 西藏南路390号"},{"poiid":"B2094757D06BA6FC4992","title":"胡记锅贴(原嵩山路)","lon":"121.47905673","lat":"31.222453134","category":"247","category_name":"餐饮美食","address":"上海市普安路207号"},{"poiid":"B2094750DA6CA2FE4893","title":"新元素，永银大厦","lon":"121.47882","lat":"31.221979","category":"500","category_name":"未知分类","address":null}]