[{"poiid":"B2094757D165A2F9489E","title":"Mr Pancake House","lon":"121.448","lat":"31.218213","category":"94","category_name":"西餐厅","address":"静安区巨鹿路901号(近华山路)"},{"poiid":"B2094654D564A4FF419E","title":"世纪商贸广场","lon":"121.44701","lat":"31.21528","category":"46","category_name":"楼宇","address":"上海市徐汇区长乐路989号（近常熟路）"},{"poiid":"B2094757D06FA7FB479D","title":"小花咖啡馆LE PETIT FLEURE","lon":"121.447838","lat":"31.215153","category":"65","category_name":"咖啡厅","address":"徐汇区安福路25号(常熟路口)"},{"poiid":"B2094753D76FAAFA449C","title":"上海滩国泰旗舰店","lon":"121.466011","lat":"31.216125","category":"249","category_name":"购物服务","address":"淮海中路868号"},{"poiid":"B209475CD564A7F84292","title":"上海滩新天地店","lon":"121.47463","lat":"31.22164","category":"119","category_name":"商场","address":"\"太仓路181弄新天地北里15号\r\n\""},{"poiid":"B209475CD564A7F8439E","title":"上海滩中信泰富店","lon":"121.45602","lat":"31.22851","category":"119","category_name":"商场","address":"\"南京西路1168号中信泰富广场，店铺号221.\r\n\""},{"poiid":"B2094751D46BA4F54898","title":"Plaza Pizza","lon":"121.447794","lat":"31.216233","category":"94","category_name":"西餐厅","address":"静安区华山路325号-1(常熟路口)"},{"poiid":"B2094750D268A1F54699","title":"宫","lon":"121.450805","lat":"31.217145","category":"260","category_name":"其他","address":"徐汇区长乐路764弄2号前门(近华亭路)"},{"poiid":"B2094757D06FA7FD449A","title":"席家花园(静安店)","lon":"121.44815","lat":"31.21749","category":"47","category_name":"住宅区","address":"静安区巨鹿路889号(近常熟路)"},{"poiid":"B2094757D068A6F9479B","title":"Casanova","lon":"121.448010058","lat":"31.2179782269","category":"94","category_name":"西餐厅","address":"静安区巨鹿路913号(近常熟路)"},{"poiid":"B2094757D06FA5FD4199","title":"PIRO Coffee &amp; Bar","lon":"121.447544","lat":"31.217063","category":"94","category_name":"西餐厅","address":"静安区常熟路89号(近巨鹿路)"},{"poiid":"B2094757D06FA4FB4792","title":"zen cafe","lon":"121.44974","lat":"31.21571","category":"65","category_name":"咖啡厅","address":"徐汇区东平路7-1号(近衡山路)"},{"poiid":"B2094757D06FA4FE499F","title":"锡伯新疆餐厅","lon":"121.44766329","lat":"31.217222182","category":"90","category_name":"清真餐馆","address":"静安区常熟路83号3楼(近巨鹿路)"},{"poiid":"B2094757D06EAAF8489A","title":"星巴克(世纪商贸店)","lon":"121.446549","lat":"31.215735","category":"260","category_name":"其他","address":"徐汇区长乐路989号世纪商贸广场1楼(近常熟路,安福路)"},{"poiid":"B2094757D06FA2FE459A","title":"COSTA COFFEE(常熟路店)","lon":"121.44797","lat":"31.21687","category":"65","category_name":"咖啡厅","address":"静安区常熟路85号1楼A8(近巨鹿路)"},{"poiid":"B2094757D16CA1FA439A","title":"Hilton Hotel Shanghai","lon":"121.447136586","lat":"31.2161231551","category":"500","category_name":"未知分类","address":"上海华山路"},{"poiid":"B2094757D068A0FD469D","title":"Bella Napoli(长乐路店)","lon":"121.4457","lat":"31.21567","category":"94","category_name":"西餐厅","address":"徐汇区长乐路946弄4号(近乌鲁木齐中路)"},{"poiid":"B2094757D068ABFC4098","title":"CLUB VIETNAM","lon":"121.44839","lat":"31.21765","category":"99","category_name":"泰国／越南菜品餐厅","address":"静安区巨鹿路889号11-12号楼(近常熟路)"},{"poiid":"B2094757DB69A2F5449A","title":"il Bambino","lon":"121.44798","lat":"31.21813","category":"94","category_name":"西餐厅","address":"静安区巨鹿路903号(近常熟路)"},{"poiid":"B2094757D06FA0F8489B","title":"Enoterra红酒吧(安福路店)","lon":"121.44748","lat":"31.2147","category":"260","category_name":"其他","address":"徐汇区安福路55号(近常熟路)"},{"poiid":"B209475DD268A6FB489B","title":"香港龙凤楼","lon":"121.448295","lat":"31.217926","category":"247","category_name":"餐饮美食","address":"上海市 巨鹿路889号"},{"poiid":"B2094654D564A4FB449C","title":"上海歌剧院","lon":"121.44642206994058","lat":"31.216509748927887","category":"180","category_name":"剧场","address":"静安区常熟路100弄10号(近长乐路)"},{"poiid":"B2094757D06FAAF54399","title":"鹿苑","lon":"121.447753","lat":"31.218096","category":"46","category_name":"楼宇","address":"上海巨鹿路889號"},{"poiid":"B2094750D26FA7F5469E","title":"避风塘(常熟路店)","lon":"121.447868","lat":"31.216531","category":"72","category_name":"广东菜","address":"静安区常熟路98号(近巨鹿路)"},{"poiid":"B2094757D068A2F94993","title":"和食上都","lon":"121.448460186","lat":"31.2158895505","category":"95","category_name":"日本料理","address":"静安区常熟路87号(近巨鹿路)"},{"poiid":"B2094757D06FA5FB409B","title":"毛豆阿姨","lon":"121.44856","lat":"31.21619","category":"76","category_name":"上海菜","address":"静安区常熟路115弄5号(近长乐路)"},{"poiid":"B2094655D36CA5F9479C","title":"常熟路淮海中路","lon":"121.44888","lat":"31.21397","category":"38","category_name":"公交车站","address":""},{"poiid":"B2094750D66FA4FF469C","title":"Dr.  Beer","lon":"121.447898","lat":"31.216619","category":"248","category_name":"生活娱乐","address":"静安区富民路83号"},{"poiid":"B2094757D068A1F84199","title":"渔人粤菜馆","lon":"121.447517","lat":"31.216825","category":"72","category_name":"广东菜","address":"静安区常熟路98号3楼(近长乐路)"},{"poiid":"B2094750D269A3FF4893","title":"Italian kitchen26","lon":"121.44738","lat":"31.215356","category":"94","category_name":"西餐厅","address":"徐汇区安福路23号(近常熟路)"},{"poiid":"B2094757D06FABF9459A","title":"Velvet Lounge","lon":"121.44758","lat":"31.21781","category":"94","category_name":"西餐厅","address":"静安区巨鹿路913号3-4号楼1楼(近常熟路)"},{"poiid":"B2094757D66AA5F8419F","title":"维也纳西餐厅 常熟路","lon":"121.4478","lat":"31.21693","category":"94","category_name":"西餐厅","address":"静安区常熟路98号4楼(近长乐路)"},{"poiid":"B2094750D26CA1FA4492","title":"玫瑰石时尚餐厅 Incarose Bistro Loun","lon":"121.447913","lat":"31.217215","category":"247","category_name":"餐饮美食","address":"静安区常熟路83号时尚前瞻大厦3楼(近巨鹿路)"},{"poiid":"B2094757D06FAAFF439D","title":"Ogilvy &amp; Mather.奥美广告","lon":"121.44699","lat":"31.215356","category":"46","category_name":"楼宇","address":"上海徐汇区长乐路989号世纪商贸广场26楼"},{"poiid":"B2094757D069A5FF479B","title":"上海市卫生局卫生监督所","lon":"121.448912","lat":"31.213562","category":"162","category_name":"医院","address":"上海徐汇区常熟路280号"},{"poiid":"B2094751D365A6FE429A","title":"2nd floor","lon":"121.447687","lat":"31.215626","category":"94","category_name":"西餐厅","address":"徐汇区长乐路810号2楼(近常熟路)"},{"poiid":"B2094757D06FA6F94698","title":"优纳仕意式休闲餐厅(静安店)","lon":"121.44787965","lat":"31.217260656","category":"94","category_name":"西餐厅","address":"静安区常熟路85号(近巨鹿路)"},{"poiid":"B2094753D66EAAFF469A","title":"千秋膳房常熟店","lon":"121.44784927","lat":"31.21716905","category":"247","category_name":"餐饮美食","address":"上海市静安区常熟路87号"},{"poiid":"B2094655D36CA5F94792","title":"常熟路长乐路","lon":"121.44883","lat":"31.21628","category":"38","category_name":"公交车站","address":""},{"poiid":"B2094757DB69A2FC4393","title":"宴公馆","lon":"121.448713","lat":"31.217807","category":"72","category_name":"广东菜","address":"静安区巨鹿路889号16号楼(近常熟路)"},{"poiid":"B2094757D064A2FB4893","title":"新加坡泰国村鱼翅(巨鹿花园店)","lon":"121.44858384","lat":"31.218204948","category":"110","category_name":"其他亚洲菜","address":"静安区巨鹿路889号7-8号楼(常熟路口)"},{"poiid":"B2094757D069A7FF4798","title":"静安8号","lon":"121.446953795","lat":"31.217401334","category":"252","category_name":"楼宇机构","address":"上海华山路339弄1号"},{"poiid":"B2094655D36CA2FC449D","title":"香所","lon":"121.44727","lat":"31.2148","category":"111","category_name":"休闲餐饮场所","address":"安福路45-47号近常熟路"},{"poiid":"B2094751DA6DA3F9439C","title":"辣府","lon":"121.44941","lat":"31.214892","category":"247","category_name":"餐饮美食","address":"肇嘉浜路嘉善路"},{"poiid":"B2094750DA69AAFE409B","title":"梅赛德斯-奔驰文化中心","lon":"121.448669","lat":"31.217979","category":"500","category_name":"未知分类","address":null},{"poiid":"B2094757D068AAFD499D","title":"吉祥馄饨(常熟路店)","lon":"121.44743","lat":"31.21549","category":"68","category_name":"快餐厅","address":"徐汇区长乐路802号(近常熟路)"},{"poiid":"B2094757D065A0F9419A","title":"满舟中华料理","lon":"121.44922","lat":"31.21761","category":"72","category_name":"广东菜","address":"静安区巨鹿路889号11-12幢3-4楼(近常熟路)"},{"poiid":"B2094757D06AA1F4449F","title":"赛百味(常熟路店)","lon":"121.44780265","lat":"31.217072656","category":"94","category_name":"西餐厅","address":"静安区常熟路81号(近巨鹿路)"},{"poiid":"B2094750D664A2F8429D","title":"VEDAS","lon":"121.448","lat":"31.2172","category":"102","category_name":"印度风味","address":"静安区常熟路83号时尚前瞻大厦3楼(近巨鹿路)"},{"poiid":"B2094750D76FA7F4459F","title":"朧おぼろOBORO","lon":"121.448","lat":"31.2172","category":"95","category_name":"日本料理","address":"静安区常熟路83号时尚前瞻大厦4楼(近巨鹿路)"},{"poiid":"B2094757D165A2F9489E","title":"Mr Pancake House","lon":"121.448","lat":"31.218213","category":"94","category_name":"西餐厅","address":"静安区巨鹿路901号(近华山路)"},{"poiid":"B2094654D564A4FF419E","title":"世纪商贸广场","lon":"121.44701","lat":"31.21528","category":"46","category_name":"楼宇","address":"上海市徐汇区长乐路989号（近常熟路）"},{"poiid":"B2094757D06FA7FB479D","title":"小花咖啡馆LE PETIT FLEURE","lon":"121.447838","lat":"31.215153","category":"65","category_name":"咖啡厅","address":"徐汇区安福路25号(常熟路口)"},{"poiid":"B2094753D76FAAFA449C","title":"上海滩国泰旗舰店","lon":"121.466011","lat":"31.216125","category":"249","category_name":"购物服务","address":"淮海中路868号"},{"poiid":"B209475CD564A7F84292","title":"上海滩新天地店","lon":"121.47463","lat":"31.22164","category":"119","category_name":"商场","address":"\"太仓路181弄新天地北里15号\r\n\""},{"poiid":"B209475CD564A7F8439E","title":"上海滩中信泰富店","lon":"121.45602","lat":"31.22851","category":"119","category_name":"商场","address":"\"南京西路1168号中信泰富广场，店铺号221.\r\n\""},{"poiid":"B2094751D46BA4F54898","title":"Plaza Pizza","lon":"121.447794","lat":"31.216233","category":"94","category_name":"西餐厅","address":"静安区华山路325号-1(常熟路口)"},{"poiid":"B2094750D268A1F54699","title":"宫","lon":"121.450805","lat":"31.217145","category":"260","category_name":"其他","address":"徐汇区长乐路764弄2号前门(近华亭路)"},{"poiid":"B2094757D06FA7FD449A","title":"席家花园(静安店)","lon":"121.44815","lat":"31.21749","category":"47","category_name":"住宅区","address":"静安区巨鹿路889号(近常熟路)"},{"poiid":"B2094757D068A6F9479B","title":"Casanova","lon":"121.448010058","lat":"31.2179782269","category":"94","category_name":"西餐厅","address":"静安区巨鹿路913号(近常熟路)"},{"poiid":"B2094757D06FA5FD4199","title":"PIRO Coffee &amp; Bar","lon":"121.447544","lat":"31.217063","category":"94","category_name":"西餐厅","address":"静安区常熟路89号(近巨鹿路)"},{"poiid":"B2094757D06FA4FB4792","title":"zen cafe","lon":"121.44974","lat":"31.21571","category":"65","category_name":"咖啡厅","address":"徐汇区东平路7-1号(近衡山路)"},{"poiid":"B2094757D06FA4FE499F","title":"锡伯新疆餐厅","lon":"121.44766329","lat":"31.217222182","category":"90","category_name":"清真餐馆","address":"静安区常熟路83号3楼(近巨鹿路)"},{"poiid":"B2094757D06EAAF8489A","title":"星巴克(世纪商贸店)","lon":"121.446549","lat":"31.215735","category":"260","category_name":"其他","address":"徐汇区长乐路989号世纪商贸广场1楼(近常熟路,安福路)"},{"poiid":"B2094757D06FA2FE459A","title":"COSTA COFFEE(常熟路店)","lon":"121.44797","lat":"31.21687","category":"65","category_name":"咖啡厅","address":"静安区常熟路85号1楼A8(近巨鹿路)"},{"poiid":"B2094757D16CA1FA439A","title":"Hilton Hotel Shanghai","lon":"121.447136586","lat":"31.2161231551","category":"500","category_name":"未知分类","address":"上海华山路"},{"poiid":"B2094757D068A0FD469D","title":"Bella Napoli(长乐路店)","lon":"121.4457","lat":"31.21567","category":"94","category_name":"西餐厅","address":"徐汇区长乐路946弄4号(近乌鲁木齐中路)"},{"poiid":"B2094757D068ABFC4098","title":"CLUB VIETNAM","lon":"121.44839","lat":"31.21765","category":"99","category_name":"泰国／越南菜品餐厅","address":"静安区巨鹿路889号11-12号楼(近常熟路)"},{"poiid":"B2094757DB69A2F5449A","title":"il Bambino","lon":"121.44798","lat":"31.21813","category":"94","category_name":"西餐厅","address":"静安区巨鹿路903号(近常熟路)"},{"poiid":"B2094757D06FA0F8489B","title":"Enoterra红酒吧(安福路店)","lon":"121.44748","lat":"31.2147","category":"260","category_name":"其他","address":"徐汇区安福路55号(近常熟路)"},{"poiid":"B209475DD268A6FB489B","title":"香港龙凤楼","lon":"121.448295","lat":"31.217926","category":"247","category_name":"餐饮美食","address":"上海市 巨鹿路889号"},{"poiid":"B2094654D564A4FB449C","title":"上海歌剧院","lon":"121.44642206994058","lat":"31.216509748927887","category":"180","category_name":"剧场","address":"静安区常熟路100弄10号(近长乐路)"},{"poiid":"B2094757D06FAAF54399","title":"鹿苑","lon":"121.447753","lat":"31.218096","category":"46","category_name":"楼宇","address":"上海巨鹿路889號"},{"poiid":"B2094750D26FA7F5469E","title":"避风塘(常熟路店)","lon":"121.447868","lat":"31.216531","category":"72","category_name":"广东菜","address":"静安区常熟路98号(近巨鹿路)"},{"poiid":"B2094757D068A2F94993","title":"和食上都","lon":"121.448460186","lat":"31.2158895505","category":"95","category_name":"日本料理","address":"静安区常熟路87号(近巨鹿路)"},{"poiid":"B2094757D06FA5FB409B","title":"毛豆阿姨","lon":"121.44856","lat":"31.21619","category":"76","category_name":"上海菜","address":"静安区常熟路115弄5号(近长乐路)"},{"poiid":"B2094655D36CA5F9479C","title":"常熟路淮海中路","lon":"121.44888","lat":"31.21397","category":"38","category_name":"公交车站","address":""},{"poiid":"B2094750D66FA4FF469C","title":"Dr.  Beer","lon":"121.447898","lat":"31.216619","category":"248","category_name":"生活娱乐","address":"静安区富民路83号"},{"poiid":"B2094757D068A1F84199","title":"渔人粤菜馆","lon":"121.447517","lat":"31.216825","category":"72","category_name":"广东菜","address":"静安区常熟路98号3楼(近长乐路)"},{"poiid":"B2094750D269A3FF4893","title":"Italian kitchen26","lon":"121.44738","lat":"31.215356","category":"94","category_name":"西餐厅","address":"徐汇区安福路23号(近常熟路)"},{"poiid":"B2094757D06FABF9459A","title":"Velvet Lounge","lon":"121.44758","lat":"31.21781","category":"94","category_name":"西餐厅","address":"静安区巨鹿路913号3-4号楼1楼(近常熟路)"},{"poiid":"B2094757D66AA5F8419F","title":"维也纳西餐厅 常熟路","lon":"121.4478","lat":"31.21693","category":"94","category_name":"西餐厅","address":"静安区常熟路98号4楼(近长乐路)"},{"poiid":"B2094750D26CA1FA4492","title":"玫瑰石时尚餐厅 Incarose Bistro Loun","lon":"121.447913","lat":"31.217215","category":"247","category_name":"餐饮美食","address":"静安区常熟路83号时尚前瞻大厦3楼(近巨鹿路)"},{"poiid":"B2094757D06FAAFF439D","title":"Ogilvy &amp; Mather.奥美广告","lon":"121.44699","lat":"31.215356","category":"46","category_name":"楼宇","address":"上海徐汇区长乐路989号世纪商贸广场26楼"},{"poiid":"B2094757D069A5FF479B","title":"上海市卫生局卫生监督所","lon":"121.448912","lat":"31.213562","category":"162","category_name":"医院","address":"上海徐汇区常熟路280号"},{"poiid":"B2094751D365A6FE429A","title":"2nd floor","lon":"121.447687","lat":"31.215626","category":"94","category_name":"西餐厅","address":"徐汇区长乐路810号2楼(近常熟路)"},{"poiid":"B2094757D06FA6F94698","title":"优纳仕意式休闲餐厅(静安店)","lon":"121.44787965","lat":"31.217260656","category":"94","category_name":"西餐厅","address":"静安区常熟路85号(近巨鹿路)"},{"poiid":"B2094753D66EAAFF469A","title":"千秋膳房常熟店","lon":"121.44784927","lat":"31.21716905","category":"247","category_name":"餐饮美食","address":"上海市静安区常熟路87号"},{"poiid":"B2094655D36CA5F94792","title":"常熟路长乐路","lon":"121.44883","lat":"31.21628","category":"38","category_name":"公交车站","address":""},{"poiid":"B2094757DB69A2FC4393","title":"宴公馆","lon":"121.448713","lat":"31.217807","category":"72","category_name":"广东菜","address":"静安区巨鹿路889号16号楼(近常熟路)"},{"poiid":"B2094757D064A2FB4893","title":"新加坡泰国村鱼翅(巨鹿花园店)","lon":"121.44858384","lat":"31.218204948","category":"110","category_name":"其他亚洲菜","address":"静安区巨鹿路889号7-8号楼(常熟路口)"},{"poiid":"B2094757D069A7FF4798","title":"静安8号","lon":"121.446953795","lat":"31.217401334","category":"252","category_name":"楼宇机构","address":"上海华山路339弄1号"},{"poiid":"B2094655D36CA2FC449D","title":"香所","lon":"121.44727","lat":"31.2148","category":"111","category_name":"休闲餐饮场所","address":"安福路45-47号近常熟路"},{"poiid":"B2094751DA6DA3F9439C","title":"辣府","lon":"121.44941","lat":"31.214892","category":"247","category_name":"餐饮美食","address":"肇嘉浜路嘉善路"},{"poiid":"B2094750DA69AAFE409B","title":"梅赛德斯-奔驰文化中心","lon":"121.448669","lat":"31.217979","category":"500","category_name":"未知分类","address":null},{"poiid":"B2094757D068AAFD499D","title":"吉祥馄饨(常熟路店)","lon":"121.44743","lat":"31.21549","category":"68","category_name":"快餐厅","address":"徐汇区长乐路802号(近常熟路)"},{"poiid":"B2094757D065A0F9419A","title":"满舟中华料理","lon":"121.44922","lat":"31.21761","category":"72","category_name":"广东菜","address":"静安区巨鹿路889号11-12幢3-4楼(近常熟路)"},{"poiid":"B2094757D06AA1F4449F","title":"赛百味(常熟路店)","lon":"121.44780265","lat":"31.217072656","category":"94","category_name":"西餐厅","address":"静安区常熟路81号(近巨鹿路)"},{"poiid":"B2094750D664A2F8429D","title":"VEDAS","lon":"121.448","lat":"31.2172","category":"102","category_name":"印度风味","address":"静安区常熟路83号时尚前瞻大厦3楼(近巨鹿路)"},{"poiid":"B2094750D76FA7F4459F","title":"朧おぼろOBORO","lon":"121.448","lat":"31.2172","category":"95","category_name":"日本料理","address":"静安区常熟路83号时尚前瞻大厦4楼(近巨鹿路)"},{"poiid":"B2094757D165A2F9489E","title":"Mr Pancake House","lon":"121.448","lat":"31.218213","category":"94","category_name":"西餐厅","address":"静安区巨鹿路901号(近华山路)"},{"poiid":"B2094654D564A4FF419E","title":"世纪商贸广场","lon":"121.44701","lat":"31.21528","category":"46","category_name":"楼宇","address":"上海市徐汇区长乐路989号（近常熟路）"},{"poiid":"B2094757D06FA7FB479D","title":"小花咖啡馆LE PETIT FLEURE","lon":"121.447838","lat":"31.215153","category":"65","category_name":"咖啡厅","address":"徐汇区安福路25号(常熟路口)"},{"poiid":"B2094753D76FAAFA449C","title":"上海滩国泰旗舰店","lon":"121.466011","lat":"31.216125","category":"249","category_name":"购物服务","address":"淮海中路868号"},{"poiid":"B209475CD564A7F84292","title":"上海滩新天地店","lon":"121.47463","lat":"31.22164","category":"119","category_name":"商场","address":"\"太仓路181弄新天地北里15号\r\n\""},{"poiid":"B209475CD564A7F8439E","title":"上海滩中信泰富店","lon":"121.45602","lat":"31.22851","category":"119","category_name":"商场","address":"\"南京西路1168号中信泰富广场，店铺号221.\r\n\""},{"poiid":"B2094751D46BA4F54898","title":"Plaza Pizza","lon":"121.447794","lat":"31.216233","category":"94","category_name":"西餐厅","address":"静安区华山路325号-1(常熟路口)"},{"poiid":"B2094750D268A1F54699","title":"宫","lon":"121.450805","lat":"31.217145","category":"260","category_name":"其他","address":"徐汇区长乐路764弄2号前门(近华亭路)"},{"poiid":"B2094757D06FA7FD449A","title":"席家花园(静安店)","lon":"121.44815","lat":"31.21749","category":"47","category_name":"住宅区","address":"静安区巨鹿路889号(近常熟路)"},{"poiid":"B2094757D068A6F9479B","title":"Casanova","lon":"121.448010058","lat":"31.2179782269","category":"94","category_name":"西餐厅","address":"静安区巨鹿路913号(近常熟路)"},{"poiid":"B2094757D06FA5FD4199","title":"PIRO Coffee &amp; Bar","lon":"121.447544","lat":"31.217063","category":"94","category_name":"西餐厅","address":"静安区常熟路89号(近巨鹿路)"},{"poiid":"B2094757D06FA4FB4792","title":"zen cafe","lon":"121.44974","lat":"31.21571","category":"65","category_name":"咖啡厅","address":"徐汇区东平路7-1号(近衡山路)"},{"poiid":"B2094757D06FA4FE499F","title":"锡伯新疆餐厅","lon":"121.44766329","lat":"31.217222182","category":"90","category_name":"清真餐馆","address":"静安区常熟路83号3楼(近巨鹿路)"},{"poiid":"B2094757D06EAAF8489A","title":"星巴克(世纪商贸店)","lon":"121.446549","lat":"31.215735","category":"260","category_name":"其他","address":"徐汇区长乐路989号世纪商贸广场1楼(近常熟路,安福路)"},{"poiid":"B2094757D06FA2FE459A","title":"COSTA COFFEE(常熟路店)","lon":"121.44797","lat":"31.21687","category":"65","category_name":"咖啡厅","address":"静安区常熟路85号1楼A8(近巨鹿路)"},{"poiid":"B2094757D16CA1FA439A","title":"Hilton Hotel Shanghai","lon":"121.447136586","lat":"31.2161231551","category":"500","category_name":"未知分类","address":"上海华山路"},{"poiid":"B2094757D068A0FD469D","title":"Bella Napoli(长乐路店)","lon":"121.4457","lat":"31.21567","category":"94","category_name":"西餐厅","address":"徐汇区长乐路946弄4号(近乌鲁木齐中路)"},{"poiid":"B2094757D068ABFC4098","title":"CLUB VIETNAM","lon":"121.44839","lat":"31.21765","category":"99","category_name":"泰国／越南菜品餐厅","address":"静安区巨鹿路889号11-12号楼(近常熟路)"},{"poiid":"B2094757DB69A2F5449A","title":"il Bambino","lon":"121.44798","lat":"31.21813","category":"94","category_name":"西餐厅","address":"静安区巨鹿路903号(近常熟路)"},{"poiid":"B2094757D06FA0F8489B","title":"Enoterra红酒吧(安福路店)","lon":"121.44748","lat":"31.2147","category":"260","category_name":"其他","address":"徐汇区安福路55号(近常熟路)"},{"poiid":"B209475DD268A6FB489B","title":"香港龙凤楼","lon":"121.448295","lat":"31.217926","category":"247","category_name":"餐饮美食","address":"上海市 巨鹿路889号"},{"poiid":"B2094654D564A4FB449C","title":"上海歌剧院","lon":"121.44642206994058","lat":"31.216509748927887","category":"180","category_name":"剧场","address":"静安区常熟路100弄10号(近长乐路)"},{"poiid":"B2094757D06FAAF54399","title":"鹿苑","lon":"121.447753","lat":"31.218096","category":"46","category_name":"楼宇","address":"上海巨鹿路889號"},{"poiid":"B2094750D26FA7F5469E","title":"避风塘(常熟路店)","lon":"121.447868","lat":"31.216531","category":"72","category_name":"广东菜","address":"静安区常熟路98号(近巨鹿路)"},{"poiid":"B2094757D068A2F94993","title":"和食上都","lon":"121.448460186","lat":"31.2158895505","category":"95","category_name":"日本料理","address":"静安区常熟路87号(近巨鹿路)"},{"poiid":"B2094757D06FA5FB409B","title":"毛豆阿姨","lon":"121.44856","lat":"31.21619","category":"76","category_name":"上海菜","address":"静安区常熟路115弄5号(近长乐路)"},{"poiid":"B2094655D36CA5F9479C","title":"常熟路淮海中路","lon":"121.44888","lat":"31.21397","category":"38","category_name":"公交车站","address":""},{"poiid":"B2094750D66FA4FF469C","title":"Dr.  Beer","lon":"121.447898","lat":"31.216619","category":"248","category_name":"生活娱乐","address":"静安区富民路83号"},{"poiid":"B2094757D068A1F84199","title":"渔人粤菜馆","lon":"121.447517","lat":"31.216825","category":"72","category_name":"广东菜","address":"静安区常熟路98号3楼(近长乐路)"},{"poiid":"B2094750D269A3FF4893","title":"Italian kitchen26","lon":"121.44738","lat":"31.215356","category":"94","category_name":"西餐厅","address":"徐汇区安福路23号(近常熟路)"},{"poiid":"B2094757D06FABF9459A","title":"Velvet Lounge","lon":"121.44758","lat":"31.21781","category":"94","category_name":"西餐厅","address":"静安区巨鹿路913号3-4号楼1楼(近常熟路)"},{"poiid":"B2094757D66AA5F8419F","title":"维也纳西餐厅 常熟路","lon":"121.4478","lat":"31.21693","category":"94","category_name":"西餐厅","address":"静安区常熟路98号4楼(近长乐路)"},{"poiid":"B2094750D26CA1FA4492","title":"玫瑰石时尚餐厅 Incarose Bistro Loun","lon":"121.447913","lat":"31.217215","category":"247","category_name":"餐饮美食","address":"静安区常熟路83号时尚前瞻大厦3楼(近巨鹿路)"},{"poiid":"B2094757D06FAAFF439D","title":"Ogilvy &amp; Mather.奥美广告","lon":"121.44699","lat":"31.215356","category":"46","category_name":"楼宇","address":"上海徐汇区长乐路989号世纪商贸广场26楼"},{"poiid":"B2094757D069A5FF479B","title":"上海市卫生局卫生监督所","lon":"121.448912","lat":"31.213562","category":"162","category_name":"医院","address":"上海徐汇区常熟路280号"},{"poiid":"B2094751D365A6FE429A","title":"2nd floor","lon":"121.447687","lat":"31.215626","category":"94","category_name":"西餐厅","address":"徐汇区长乐路810号2楼(近常熟路)"},{"poiid":"B2094757D06FA6F94698","title":"优纳仕意式休闲餐厅(静安店)","lon":"121.44787965","lat":"31.217260656","category":"94","category_name":"西餐厅","address":"静安区常熟路85号(近巨鹿路)"},{"poiid":"B2094753D66EAAFF469A","title":"千秋膳房常熟店","lon":"121.44784927","lat":"31.21716905","category":"247","category_name":"餐饮美食","address":"上海市静安区常熟路87号"},{"poiid":"B2094655D36CA5F94792","title":"常熟路长乐路","lon":"121.44883","lat":"31.21628","category":"38","category_name":"公交车站","address":""},{"poiid":"B2094757DB69A2FC4393","title":"宴公馆","lon":"121.448713","lat":"31.217807","category":"72","category_name":"广东菜","address":"静安区巨鹿路889号16号楼(近常熟路)"},{"poiid":"B2094757D064A2FB4893","title":"新加坡泰国村鱼翅(巨鹿花园店)","lon":"121.44858384","lat":"31.218204948","category":"110","category_name":"其他亚洲菜","address":"静安区巨鹿路889号7-8号楼(常熟路口)"},{"poiid":"B2094757D069A7FF4798","title":"静安8号","lon":"121.446953795","lat":"31.217401334","category":"252","category_name":"楼宇机构","address":"上海华山路339弄1号"},{"poiid":"B2094655D36CA2FC449D","title":"香所","lon":"121.44727","lat":"31.2148","category":"111","category_name":"休闲餐饮场所","address":"安福路45-47号近常熟路"},{"poiid":"B2094751DA6DA3F9439C","title":"辣府","lon":"121.44941","lat":"31.214892","category":"247","category_name":"餐饮美食","address":"肇嘉浜路嘉善路"},{"poiid":"B2094750DA69AAFE409B","title":"梅赛德斯-奔驰文化中心","lon":"121.448669","lat":"31.217979","category":"500","category_name":"未知分类","address":null},{"poiid":"B2094757D068AAFD499D","title":"吉祥馄饨(常熟路店)","lon":"121.44743","lat":"31.21549","category":"68","category_name":"快餐厅","address":"徐汇区长乐路802号(近常熟路)"},{"poiid":"B2094757D065A0F9419A","title":"满舟中华料理","lon":"121.44922","lat":"31.21761","category":"72","category_name":"广东菜","address":"静安区巨鹿路889号11-12幢3-4楼(近常熟路)"},{"poiid":"B2094757D06AA1F4449F","title":"赛百味(常熟路店)","lon":"121.44780265","lat":"31.217072656","category":"94","category_name":"西餐厅","address":"静安区常熟路81号(近巨鹿路)"},{"poiid":"B2094750D664A2F8429D","title":"VEDAS","lon":"121.448","lat":"31.2172","category":"102","category_name":"印度风味","address":"静安区常熟路83号时尚前瞻大厦3楼(近巨鹿路)"},{"poiid":"B2094750D76FA7F4459F","title":"朧おぼろOBORO","lon":"121.448","lat":"31.2172","category":"95","category_name":"日本料理","address":"静安区常熟路83号时尚前瞻大厦4楼(近巨鹿路)"},{"poiid":"B2094757D165A2F9489E","title":"Mr Pancake House","lon":"121.448","lat":"31.218213","category":"94","category_name":"西餐厅","address":"静安区巨鹿路901号(近华山路)"},{"poiid":"B2094654D564A4FF419E","title":"世纪商贸广场","lon":"121.44701","lat":"31.21528","category":"46","category_name":"楼宇","address":"上海市徐汇区长乐路989号（近常熟路）"},{"poiid":"B2094757D06FA7FB479D","title":"小花咖啡馆LE PETIT FLEURE","lon":"121.447838","lat":"31.215153","category":"65","category_name":"咖啡厅","address":"徐汇区安福路25号(常熟路口)"},{"poiid":"B2094753D76FAAFA449C","title":"上海滩国泰旗舰店","lon":"121.466011","lat":"31.216125","category":"249","category_name":"购物服务","address":"淮海中路868号"},{"poiid":"B209475CD564A7F84292","title":"上海滩新天地店","lon":"121.47463","lat":"31.22164","category":"119","category_name":"商场","address":"\"太仓路181弄新天地北里15号\r\n\""},{"poiid":"B209475CD564A7F8439E","title":"上海滩中信泰富店","lon":"121.45602","lat":"31.22851","category":"119","category_name":"商场","address":"\"南京西路1168号中信泰富广场，店铺号221.\r\n\""},{"poiid":"B2094751D46BA4F54898","title":"Plaza Pizza","lon":"121.447794","lat":"31.216233","category":"94","category_name":"西餐厅","address":"静安区华山路325号-1(常熟路口)"},{"poiid":"B2094750D268A1F54699","title":"宫","lon":"121.450805","lat":"31.217145","category":"260","category_name":"其他","address":"徐汇区长乐路764弄2号前门(近华亭路)"},{"poiid":"B2094757D06FA7FD449A","title":"席家花园(静安店)","lon":"121.44815","lat":"31.21749","category":"47","category_name":"住宅区","address":"静安区巨鹿路889号(近常熟路)"},{"poiid":"B2094757D068A6F9479B","title":"Casanova","lon":"121.448010058","lat":"31.2179782269","category":"94","category_name":"西餐厅","address":"静安区巨鹿路913号(近常熟路)"},{"poiid":"B2094757D06FA5FD4199","title":"PIRO Coffee &amp; Bar","lon":"121.447544","lat":"31.217063","category":"94","category_name":"西餐厅","address":"静安区常熟路89号(近巨鹿路)"},{"poiid":"B2094757D06FA4FB4792","title":"zen cafe","lon":"121.44974","lat":"31.21571","category":"65","category_name":"咖啡厅","address":"徐汇区东平路7-1号(近衡山路)"},{"poiid":"B2094757D06FA4FE499F","title":"锡伯新疆餐厅","lon":"121.44766329","lat":"31.217222182","category":"90","category_name":"清真餐馆","address":"静安区常熟路83号3楼(近巨鹿路)"},{"poiid":"B2094757D06EAAF8489A","title":"星巴克(世纪商贸店)","lon":"121.446549","lat":"31.215735","category":"260","category_name":"其他","address":"徐汇区长乐路989号世纪商贸广场1楼(近常熟路,安福路)"},{"poiid":"B2094757D06FA2FE459A","title":"COSTA COFFEE(常熟路店)","lon":"121.44797","lat":"31.21687","category":"65","category_name":"咖啡厅","address":"静安区常熟路85号1楼A8(近巨鹿路)"},{"poiid":"B2094757D16CA1FA439A","title":"Hilton Hotel Shanghai","lon":"121.447136586","lat":"31.2161231551","category":"500","category_name":"未知分类","address":"上海华山路"},{"poiid":"B2094757D068A0FD469D","title":"Bella Napoli(长乐路店)","lon":"121.4457","lat":"31.21567","category":"94","category_name":"西餐厅","address":"徐汇区长乐路946弄4号(近乌鲁木齐中路)"},{"poiid":"B2094757D068ABFC4098","title":"CLUB VIETNAM","lon":"121.44839","lat":"31.21765","category":"99","category_name":"泰国／越南菜品餐厅","address":"静安区巨鹿路889号11-12号楼(近常熟路)"},{"poiid":"B2094757DB69A2F5449A","title":"il Bambino","lon":"121.44798","lat":"31.21813","category":"94","category_name":"西餐厅","address":"静安区巨鹿路903号(近常熟路)"},{"poiid":"B2094757D06FA0F8489B","title":"Enoterra红酒吧(安福路店)","lon":"121.44748","lat":"31.2147","category":"260","category_name":"其他","address":"徐汇区安福路55号(近常熟路)"},{"poiid":"B209475DD268A6FB489B","title":"香港龙凤楼","lon":"121.448295","lat":"31.217926","category":"247","category_name":"餐饮美食","address":"上海市 巨鹿路889号"},{"poiid":"B2094654D564A4FB449C","title":"上海歌剧院","lon":"121.44642206994058","lat":"31.216509748927887","category":"180","category_name":"剧场","address":"静安区常熟路100弄10号(近长乐路)"},{"poiid":"B2094757D06FAAF54399","title":"鹿苑","lon":"121.447753","lat":"31.218096","category":"46","category_name":"楼宇","address":"上海巨鹿路889號"},{"poiid":"B2094750D26FA7F5469E","title":"避风塘(常熟路店)","lon":"121.447868","lat":"31.216531","category":"72","category_name":"广东菜","address":"静安区常熟路98号(近巨鹿路)"},{"poiid":"B2094757D068A2F94993","title":"和食上都","lon":"121.448460186","lat":"31.2158895505","category":"95","category_name":"日本料理","address":"静安区常熟路87号(近巨鹿路)"},{"poiid":"B2094757D06FA5FB409B","title":"毛豆阿姨","lon":"121.44856","lat":"31.21619","category":"76","category_name":"上海菜","address":"静安区常熟路115弄5号(近长乐路)"},{"poiid":"B2094655D36CA5F9479C","title":"常熟路淮海中路","lon":"121.44888","lat":"31.21397","category":"38","category_name":"公交车站","address":""},{"poiid":"B2094750D66FA4FF469C","title":"Dr.  Beer","lon":"121.447898","lat":"31.216619","category":"248","category_name":"生活娱乐","address":"静安区富民路83号"},{"poiid":"B2094757D068A1F84199","title":"渔人粤菜馆","lon":"121.447517","lat":"31.216825","category":"72","category_name":"广东菜","address":"静安区常熟路98号3楼(近长乐路)"},{"poiid":"B2094750D269A3FF4893","title":"Italian kitchen26","lon":"121.44738","lat":"31.215356","category":"94","category_name":"西餐厅","address":"徐汇区安福路23号(近常熟路)"},{"poiid":"B2094757D06FABF9459A","title":"Velvet Lounge","lon":"121.44758","lat":"31.21781","category":"94","category_name":"西餐厅","address":"静安区巨鹿路913号3-4号楼1楼(近常熟路)"},{"poiid":"B2094757D66AA5F8419F","title":"维也纳西餐厅 常熟路","lon":"121.4478","lat":"31.21693","category":"94","category_name":"西餐厅","address":"静安区常熟路98号4楼(近长乐路)"},{"poiid":"B2094750D26CA1FA4492","title":"玫瑰石时尚餐厅 Incarose Bistro Loun","lon":"121.447913","lat":"31.217215","category":"247","category_name":"餐饮美食","address":"静安区常熟路83号时尚前瞻大厦3楼(近巨鹿路)"},{"poiid":"B2094757D06FAAFF439D","title":"Ogilvy &amp; Mather.奥美广告","lon":"121.44699","lat":"31.215356","category":"46","category_name":"楼宇","address":"上海徐汇区长乐路989号世纪商贸广场26楼"},{"poiid":"B2094757D069A5FF479B","title":"上海市卫生局卫生监督所","lon":"121.448912","lat":"31.213562","category":"162","category_name":"医院","address":"上海徐汇区常熟路280号"},{"poiid":"B2094751D365A6FE429A","title":"2nd floor","lon":"121.447687","lat":"31.215626","category":"94","category_name":"西餐厅","address":"徐汇区长乐路810号2楼(近常熟路)"},{"poiid":"B2094757D06FA6F94698","title":"优纳仕意式休闲餐厅(静安店)","lon":"121.44787965","lat":"31.217260656","category":"94","category_name":"西餐厅","address":"静安区常熟路85号(近巨鹿路)"},{"poiid":"B2094753D66EAAFF469A","title":"千秋膳房常熟店","lon":"121.44784927","lat":"31.21716905","category":"247","category_name":"餐饮美食","address":"上海市静安区常熟路87号"},{"poiid":"B2094655D36CA5F94792","title":"常熟路长乐路","lon":"121.44883","lat":"31.21628","category":"38","category_name":"公交车站","address":""},{"poiid":"B2094757DB69A2FC4393","title":"宴公馆","lon":"121.448713","lat":"31.217807","category":"72","category_name":"广东菜","address":"静安区巨鹿路889号16号楼(近常熟路)"},{"poiid":"B2094757D064A2FB4893","title":"新加坡泰国村鱼翅(巨鹿花园店)","lon":"121.44858384","lat":"31.218204948","category":"110","category_name":"其他亚洲菜","address":"静安区巨鹿路889号7-8号楼(常熟路口)"},{"poiid":"B2094757D069A7FF4798","title":"静安8号","lon":"121.446953795","lat":"31.217401334","category":"252","category_name":"楼宇机构","address":"上海华山路339弄1号"},{"poiid":"B2094655D36CA2FC449D","title":"香所","lon":"121.44727","lat":"31.2148","category":"111","category_name":"休闲餐饮场所","address":"安福路45-47号近常熟路"},{"poiid":"B2094751DA6DA3F9439C","title":"辣府","lon":"121.44941","lat":"31.214892","category":"247","category_name":"餐饮美食","address":"肇嘉浜路嘉善路"},{"poiid":"B2094750DA69AAFE409B","title":"梅赛德斯-奔驰文化中心","lon":"121.448669","lat":"31.217979","category":"500","category_name":"未知分类","address":null},{"poiid":"B2094757D068AAFD499D","title":"吉祥馄饨(常熟路店)","lon":"121.44743","lat":"31.21549","category":"68","category_name":"快餐厅","address":"徐汇区长乐路802号(近常熟路)"},{"poiid":"B2094757D065A0F9419A","title":"满舟中华料理","lon":"121.44922","lat":"31.21761","category":"72","category_name":"广东菜","address":"静安区巨鹿路889号11-12幢3-4楼(近常熟路)"},{"poiid":"B2094757D06AA1F4449F","title":"赛百味(常熟路店)","lon":"121.44780265","lat":"31.217072656","category":"94","category_name":"西餐厅","address":"静安区常熟路81号(近巨鹿路)"},{"poiid":"B2094750D664A2F8429D","title":"VEDAS","lon":"121.448","lat":"31.2172","category":"102","category_name":"印度风味","address":"静安区常熟路83号时尚前瞻大厦3楼(近巨鹿路)"},{"poiid":"B2094750D76FA7F4459F","title":"朧おぼろOBORO","lon":"121.448","lat":"31.2172","category":"95","category_name":"日本料理","address":"静安区常熟路83号时尚前瞻大厦4楼(近巨鹿路)"}]