[{"poiid":"B2094655D36DA2F4499A","title":"翔殷路隧道","lon":"121.56697","lat":"31.30256","category":"250","category_name":"公园户外","address":"上海市杨浦区南翔殷路-浦东新区五洲大道"},{"poiid":"B2094757D068A7FF4493","title":"复兴岛公园","lon":"121.56190431","lat":"31.286679668","category":"196","category_name":"公园","address":"杨浦区共青路386号"},{"poiid":"B2094757D068A2FD489B","title":"浦东大道东波路","lon":"121.575669","lat":"31.283804","category":"500","category_name":"未知分类","address":"上海浦东大道东波路"},{"poiid":"B2094654D568ABF8459A","title":"东沟新村","lon":"121.57725","lat":"31.292421","category":"47","category_name":"住宅区","address":"东沟新村位于浦东东沟镇(东清路)东行路247弄"},{"poiid":"B2094655D36CA6FB469B","title":"东沟","lon":"121.57252","lat":"31.28982","category":"38","category_name":"公交车站","address":""},{"poiid":"B2094654DB6AA6FF439A","title":"晶波坊","lon":"121.57954","lat":"31.285055","category":"47","category_name":"住宅区","address":"东波路195弄1-125号"},{"poiid":"B2094757D16BA2FE459A","title":"浦东大道东靖路","lon":"121.57138033","lat":"31.291400449","category":"500","category_name":"未知分类","address":"上海浦东大道东靖路"},{"poiid":"B2094654D568AAFA459E","title":"景源佳苑","lon":"121.57571","lat":"31.288227","category":"47","category_name":"住宅区","address":"上海市浦东新区浦东大道26弄"},{"poiid":"B2094757D064A7FB4199","title":"610终点站","lon":"121.57315518","lat":"31.288643785","category":"38","category_name":"公交车站","address":"上海浦东大道东靖路路口"},{"poiid":"B2094654D568AAF94199","title":"连城新苑","lon":"121.58142","lat":"31.292423","category":"47","category_name":"住宅区","address":"上海市闵行区昆阳路3388号"},{"poiid":"B2094654D568AAFB4293","title":"上海市新陆职业技术学校(东沟路)","lon":"121.57453","lat":"31.28939","category":"54","category_name":"职业技术学校","address":"东高路81"},{"poiid":"B2094654D568AAF9469B","title":"浦煤新村","lon":"121.57494","lat":"31.291819","category":"47","category_name":"住宅区","address":"东靖路6号"},{"poiid":"B2094757D16EA6FB4992","title":"全顺酒家","lon":"121.571752539","lat":"31.2924183726","category":"247","category_name":"餐饮美食","address":"上海浦东北路1290号"},{"poiid":"B2094654D568AAF9479E","title":"快客No.846","lon":"121.57344","lat":"31.29183","category":"117","category_name":"便民商店/便利店","address":"东沟镇"},{"poiid":"B2094757D065A7F8419A","title":"上海市新陆职校","lon":"121.572359","lat":"31.29031","category":"500","category_name":"未知分类","address":"上海浦东北路1010号"},{"poiid":"B2094654D568AAF94792","title":"新浦煤小区","lon":"121.5732","lat":"31.291834","category":"47","category_name":"住宅区","address":"东靖路34-41"},{"poiid":"B2094757D16FA3F4449F","title":"东沟四村","lon":"121.57421","lat":"31.29084","category":"252","category_name":"楼宇机构","address":"上海市浦东新区东靖路"},{"poiid":"B2094654D568AAF8439C","title":"新全顺","lon":"121.57306","lat":"31.29412","category":"70","category_name":"综合酒楼","address":"浦东新区东葛路1200号(近浦东北路)"},{"poiid":"B2094757D069A2F9499C","title":"邵福楼","lon":"121.582808489","lat":"31.2826636232","category":"76","category_name":"上海菜","address":"浦东新区东波路301号(近兴运路)"},{"poiid":"B2094654DB6BA1F9429E","title":"好德","lon":"121.57499","lat":"31.29027","category":"117","category_name":"便民商店/便利店","address":""},{"poiid":"B2094757D16AA2F5419A","title":"东沟幼儿园","lon":"121.574862339","lat":"31.2915777532","category":"57","category_name":"幼儿园","address":"上海浦煤新村"},{"poiid":"B2094757D16DA0F84999","title":"重庆鸡公煲(东靖路店)","lon":"121.57638","lat":"31.29148","category":"71","category_name":"四川菜","address":"浦东新区东靖路850号(近东沟路)"},{"poiid":"B2094655D36CA6FB449A","title":"东靖路东沟路","lon":"121.57606","lat":"31.29168","category":"38","category_name":"公交车站","address":""},{"poiid":"B2094757D16AAAF44993","title":"JIDONG悸动","lon":"121.57433233","lat":"31.290367725","category":"500","category_name":"未知分类","address":"上海市浦东新区东靖路209号"},{"poiid":"B2094655D264A4FF479C","title":"飘香麻辣烫","lon":"121.57623","lat":"31.29175","category":"257","category_name":"中餐厅","address":"浦东新区东靖路197号"},{"poiid":"B2094654D568ABF8459B","title":"东沟一村","lon":"121.57536","lat":"31.292898","category":"47","category_name":"住宅区","address":"东靖路247弄"},{"poiid":"B2094654D568AAFE469D","title":"上海通华不绣钢压力容器工程有限公司","lon":"121.57168","lat":"31.29039","category":"263","category_name":"公司","address":"浦东北路1039"},{"poiid":"B2094655D26FA0F84892","title":"平凉路2767弄小区","lon":"121.564","lat":"31.2848","category":"47","category_name":"住宅区","address":"上海市杨浦区平凉路平凉路2767弄"},{"poiid":"B2094757D06BA1FF4299","title":"沪东中华造船集团7、8号码头","lon":"121.57068598","lat":"31.291395785","category":"260","category_name":"其他","address":"上海浦东北路1079号 浦东大道东靖路路口"},{"poiid":"B2094654D568AAFB419B","title":"可的(东沟一村东)","lon":"121.57592","lat":"31.29316","category":"117","category_name":"便民商店/便利店","address":"闵行区东沟北路60弄10号(东沟北路东沟路)"},{"poiid":"B2094654D568ABF94998","title":"联华复星药房东沟店","lon":"121.57587","lat":"31.29277","category":"162","category_name":"医院","address":"浦东新区东靖路24号(东靖路浦东北路)"},{"poiid":"B2094655D26CA5FA449F","title":"东波苑二街坊","lon":"121.57686","lat":"31.28503","category":"47","category_name":"住宅区","address":"东波路49弄"},{"poiid":"B2094751DB6CA3F9489C","title":"浦东大道东波路","lon":"121.572434","lat":"31.288077","category":"500","category_name":"未知分类","address":null},{"poiid":"B2094757D16EA7FD4593","title":"东沟六村","lon":"121.57726","lat":"31.290091","category":"252","category_name":"楼宇机构","address":"东高路119号"},{"poiid":"B2094654D568ABF9439E","title":"中国农业银行东沟分理处","lon":"121.57585","lat":"31.29183","category":"150","category_name":"银行","address":"东靖路181"},{"poiid":"B2094654D568A1F54198","title":"静心苑","lon":"121.576546054","lat":"31.284516793","category":"76","category_name":"上海菜","address":"浦东新区东波路69号"},{"poiid":"B2094757D468A2FC4593","title":"福隆坊","lon":"121.57539","lat":"31.29184","category":"76","category_name":"上海菜","address":"浦东新区东靖路178号(近农业银行)"},{"poiid":"B2094655D26CA7FB419B","title":"私家厨","lon":"121.57587","lat":"31.28419","category":"76","category_name":"上海菜","address":"浦东新区东波路2号(近浦东大道)"},{"poiid":"B2094655D36CA6FB4399","title":"东靖路莱阳路","lon":"121.58289","lat":"31.29169","category":"38","category_name":"公交车站","address":""},{"poiid":"B2094655D26BAAFF4592","title":"小胖哥烧烤","lon":"121.57687","lat":"31.28503","category":"68","category_name":"快餐厅","address":"浦东新区东波路49弄口(近浦东大道)"},{"poiid":"B2094751DA6BAAFB479F","title":"东方医院","lon":"121.57177","lat":"31.285564","category":"162","category_name":"医院","address":"上海市即墨路"},{"poiid":"B2094654D568AAFB4093","title":"东沟社区市民学校图书室","lon":"121.57762","lat":"31.29278","category":"181","category_name":"图书馆","address":""},{"poiid":"B2094757D568A5F44598","title":"东靖苑小区","lon":"121.5805393","lat":"31.29142117","category":"47","category_name":"住宅区","address":"上海市浦东新区东靖路237号"},{"poiid":"B2094757D66FA0F84299","title":"新城碧翠会所","lon":"121.576613239","lat":"31.2980174014","category":"47","category_name":"住宅区","address":"上海繁锦路1288弄"},{"poiid":"B2094757D66CA4F84099","title":"古美阳光幼儿园","lon":"121.57726833","lat":"31.287940669","category":"57","category_name":"幼儿园","address":"上海莲花路310弄1号"},{"poiid":"B2094654D568AAF94399","title":"上海农村商业银行东沟支行","lon":"121.57714","lat":"31.29183","category":"150","category_name":"银行","address":"东靖路221"},{"poiid":"B2094757D66FA0FD459A","title":"上海农商银行业务保障二部","lon":"121.577023339","lat":"31.2921457663","category":"500","category_name":"未知分类","address":"上海市浦东新区东靖路221号"},{"poiid":"B2094654DB6BA1F9499F","title":"快客","lon":"121.57905","lat":"31.29185","category":"117","category_name":"便民商店/便利店","address":"东靖路301"},{"poiid":"B209475CD76CAAFE459A","title":"东方明珠旋转餐厅","lon":"121.575836","lat":"31.294921","category":"500","category_name":"未知分类","address":"上海市 陆家嘴"},{"poiid":"B2094654D568AAF9429A","title":"光明便利(东靖苑东)","lon":"121.57913","lat":"31.29185","category":"117","category_name":"便民商店/便利店","address":""},{"poiid":"B2094655D36DA2F4499A","title":"翔殷路隧道","lon":"121.56697","lat":"31.30256","category":"250","category_name":"公园户外","address":"上海市杨浦区南翔殷路-浦东新区五洲大道"},{"poiid":"B2094757D068A7FF4493","title":"复兴岛公园","lon":"121.56190431","lat":"31.286679668","category":"196","category_name":"公园","address":"杨浦区共青路386号"},{"poiid":"B2094757D068A2FD489B","title":"浦东大道东波路","lon":"121.575669","lat":"31.283804","category":"500","category_name":"未知分类","address":"上海浦东大道东波路"},{"poiid":"B2094654D568ABF8459A","title":"东沟新村","lon":"121.57725","lat":"31.292421","category":"47","category_name":"住宅区","address":"东沟新村位于浦东东沟镇(东清路)东行路247弄"},{"poiid":"B2094655D36CA6FB469B","title":"东沟","lon":"121.57252","lat":"31.28982","category":"38","category_name":"公交车站","address":""},{"poiid":"B2094654DB6AA6FF439A","title":"晶波坊","lon":"121.57954","lat":"31.285055","category":"47","category_name":"住宅区","address":"东波路195弄1-125号"},{"poiid":"B2094757D16BA2FE459A","title":"浦东大道东靖路","lon":"121.57138033","lat":"31.291400449","category":"500","category_name":"未知分类","address":"上海浦东大道东靖路"},{"poiid":"B2094654D568AAFA459E","title":"景源佳苑","lon":"121.57571","lat":"31.288227","category":"47","category_name":"住宅区","address":"上海市浦东新区浦东大道26弄"},{"poiid":"B2094757D064A7FB4199","title":"610终点站","lon":"121.57315518","lat":"31.288643785","category":"38","category_name":"公交车站","address":"上海浦东大道东靖路路口"},{"poiid":"B2094654D568AAF94199","title":"连城新苑","lon":"121.58142","lat":"31.292423","category":"47","category_name":"住宅区","address":"上海市闵行区昆阳路3388号"},{"poiid":"B2094654D568AAFB4293","title":"上海市新陆职业技术学校(东沟路)","lon":"121.57453","lat":"31.28939","category":"54","category_name":"职业技术学校","address":"东高路81"},{"poiid":"B2094654D568AAF9469B","title":"浦煤新村","lon":"121.57494","lat":"31.291819","category":"47","category_name":"住宅区","address":"东靖路6号"},{"poiid":"B2094757D16EA6FB4992","title":"全顺酒家","lon":"121.571752539","lat":"31.2924183726","category":"247","category_name":"餐饮美食","address":"上海浦东北路1290号"},{"poiid":"B2094654D568AAF9479E","title":"快客No.846","lon":"121.57344","lat":"31.29183","category":"117","category_name":"便民商店/便利店","address":"东沟镇"},{"poiid":"B2094757D065A7F8419A","title":"上海市新陆职校","lon":"121.572359","lat":"31.29031","category":"500","category_name":"未知分类","address":"上海浦东北路1010号"},{"poiid":"B2094654D568AAF94792","title":"新浦煤小区","lon":"121.5732","lat":"31.291834","category":"47","category_name":"住宅区","address":"东靖路34-41"},{"poiid":"B2094757D16FA3F4449F","title":"东沟四村","lon":"121.57421","lat":"31.29084","category":"252","category_name":"楼宇机构","address":"上海市浦东新区东靖路"},{"poiid":"B2094654D568AAF8439C","title":"新全顺","lon":"121.57306","lat":"31.29412","category":"70","category_name":"综合酒楼","address":"浦东新区东葛路1200号(近浦东北路)"},{"poiid":"B2094757D069A2F9499C","title":"邵福楼","lon":"121.582808489","lat":"31.2826636232","category":"76","category_name":"上海菜","address":"浦东新区东波路301号(近兴运路)"},{"poiid":"B2094654DB6BA1F9429E","title":"好德","lon":"121.57499","lat":"31.29027","category":"117","category_name":"便民商店/便利店","address":""},{"poiid":"B2094757D16AA2F5419A","title":"东沟幼儿园","lon":"121.574862339","lat":"31.2915777532","category":"57","category_name":"幼儿园","address":"上海浦煤新村"},{"poiid":"B2094757D16DA0F84999","title":"重庆鸡公煲(东靖路店)","lon":"121.57638","lat":"31.29148","category":"71","category_name":"四川菜","address":"浦东新区东靖路850号(近东沟路)"},{"poiid":"B2094655D36CA6FB449A","title":"东靖路东沟路","lon":"121.57606","lat":"31.29168","category":"38","category_name":"公交车站","address":""},{"poiid":"B2094757D16AAAF44993","title":"JIDONG悸动","lon":"121.57433233","lat":"31.290367725","category":"500","category_name":"未知分类","address":"上海市浦东新区东靖路209号"},{"poiid":"B2094655D264A4FF479C","title":"飘香麻辣烫","lon":"121.57623","lat":"31.29175","category":"257","category_name":"中餐厅","address":"浦东新区东靖路197号"},{"poiid":"B2094654D568ABF8459B","title":"东沟一村","lon":"121.57536","lat":"31.292898","category":"47","category_name":"住宅区","address":"东靖路247弄"},{"poiid":"B2094654D568AAFE469D","title":"上海通华不绣钢压力容器工程有限公司","lon":"121.57168","lat":"31.29039","category":"263","category_name":"公司","address":"浦东北路1039"},{"poiid":"B2094655D26FA0F84892","title":"平凉路2767弄小区","lon":"121.564","lat":"31.2848","category":"47","category_name":"住宅区","address":"上海市杨浦区平凉路平凉路2767弄"},{"poiid":"B2094757D06BA1FF4299","title":"沪东中华造船集团7、8号码头","lon":"121.57068598","lat":"31.291395785","category":"260","category_name":"其他","address":"上海浦东北路1079号 浦东大道东靖路路口"},{"poiid":"B2094654D568AAFB419B","title":"可的(东沟一村东)","lon":"121.57592","lat":"31.29316","category":"117","category_name":"便民商店/便利店","address":"闵行区东沟北路60弄10号(东沟北路东沟路)"},{"poiid":"B2094654D568ABF94998","title":"联华复星药房东沟店","lon":"121.57587","lat":"31.29277","category":"162","category_name":"医院","address":"浦东新区东靖路24号(东靖路浦东北路)"},{"poiid":"B2094655D26CA5FA449F","title":"东波苑二街坊","lon":"121.57686","lat":"31.28503","category":"47","category_name":"住宅区","address":"东波路49弄"},{"poiid":"B2094751DB6CA3F9489C","title":"浦东大道东波路","lon":"121.572434","lat":"31.288077","category":"500","category_name":"未知分类","address":null},{"poiid":"B2094757D16EA7FD4593","title":"东沟六村","lon":"121.57726","lat":"31.290091","category":"252","category_name":"楼宇机构","address":"东高路119号"},{"poiid":"B2094654D568ABF9439E","title":"中国农业银行东沟分理处","lon":"121.57585","lat":"31.29183","category":"150","category_name":"银行","address":"东靖路181"},{"poiid":"B2094654D568A1F54198","title":"静心苑","lon":"121.576546054","lat":"31.284516793","category":"76","category_name":"上海菜","address":"浦东新区东波路69号"},{"poiid":"B2094757D468A2FC4593","title":"福隆坊","lon":"121.57539","lat":"31.29184","category":"76","category_name":"上海菜","address":"浦东新区东靖路178号(近农业银行)"},{"poiid":"B2094655D26CA7FB419B","title":"私家厨","lon":"121.57587","lat":"31.28419","category":"76","category_name":"上海菜","address":"浦东新区东波路2号(近浦东大道)"},{"poiid":"B2094655D36CA6FB4399","title":"东靖路莱阳路","lon":"121.58289","lat":"31.29169","category":"38","category_name":"公交车站","address":""},{"poiid":"B2094655D26BAAFF4592","title":"小胖哥烧烤","lon":"121.57687","lat":"31.28503","category":"68","category_name":"快餐厅","address":"浦东新区东波路49弄口(近浦东大道)"},{"poiid":"B2094751DA6BAAFB479F","title":"东方医院","lon":"121.57177","lat":"31.285564","category":"162","category_name":"医院","address":"上海市即墨路"},{"poiid":"B2094654D568AAFB4093","title":"东沟社区市民学校图书室","lon":"121.57762","lat":"31.29278","category":"181","category_name":"图书馆","address":""},{"poiid":"B2094757D568A5F44598","title":"东靖苑小区","lon":"121.5805393","lat":"31.29142117","category":"47","category_name":"住宅区","address":"上海市浦东新区东靖路237号"},{"poiid":"B2094757D66FA0F84299","title":"新城碧翠会所","lon":"121.576613239","lat":"31.2980174014","category":"47","category_name":"住宅区","address":"上海繁锦路1288弄"},{"poiid":"B2094757D66CA4F84099","title":"古美阳光幼儿园","lon":"121.57726833","lat":"31.287940669","category":"57","category_name":"幼儿园","address":"上海莲花路310弄1号"},{"poiid":"B2094654D568AAF94399","title":"上海农村商业银行东沟支行","lon":"121.57714","lat":"31.29183","category":"150","category_name":"银行","address":"东靖路221"},{"poiid":"B2094757D66FA0FD459A","title":"上海农商银行业务保障二部","lon":"121.577023339","lat":"31.2921457663","category":"500","category_name":"未知分类","address":"上海市浦东新区东靖路221号"},{"poiid":"B2094654DB6BA1F9499F","title":"快客","lon":"121.57905","lat":"31.29185","category":"117","category_name":"便民商店/便利店","address":"东靖路301"},{"poiid":"B209475CD76CAAFE459A","title":"东方明珠旋转餐厅","lon":"121.575836","lat":"31.294921","category":"500","category_name":"未知分类","address":"上海市 陆家嘴"},{"poiid":"B2094654D568AAF9429A","title":"光明便利(东靖苑东)","lon":"121.57913","lat":"31.29185","category":"117","category_name":"便民商店/便利店","address":""},{"poiid":"B2094655D36DA2F4499A","title":"翔殷路隧道","lon":"121.56697","lat":"31.30256","category":"250","category_name":"公园户外","address":"上海市杨浦区南翔殷路-浦东新区五洲大道"},{"poiid":"B2094757D068A7FF4493","title":"复兴岛公园","lon":"121.56190431","lat":"31.286679668","category":"196","category_name":"公园","address":"杨浦区共青路386号"},{"poiid":"B2094757D068A2FD489B","title":"浦东大道东波路","lon":"121.575669","lat":"31.283804","category":"500","category_name":"未知分类","address":"上海浦东大道东波路"},{"poiid":"B2094654D568ABF8459A","title":"东沟新村","lon":"121.57725","lat":"31.292421","category":"47","category_name":"住宅区","address":"东沟新村位于浦东东沟镇(东清路)东行路247弄"},{"poiid":"B2094655D36CA6FB469B","title":"东沟","lon":"121.57252","lat":"31.28982","category":"38","category_name":"公交车站","address":""},{"poiid":"B2094654DB6AA6FF439A","title":"晶波坊","lon":"121.57954","lat":"31.285055","category":"47","category_name":"住宅区","address":"东波路195弄1-125号"},{"poiid":"B2094757D16BA2FE459A","title":"浦东大道东靖路","lon":"121.57138033","lat":"31.291400449","category":"500","category_name":"未知分类","address":"上海浦东大道东靖路"},{"poiid":"B2094654D568AAFA459E","title":"景源佳苑","lon":"121.57571","lat":"31.288227","category":"47","category_name":"住宅区","address":"上海市浦东新区浦东大道26弄"},{"poiid":"B2094757D064A7FB4199","title":"610终点站","lon":"121.57315518","lat":"31.288643785","category":"38","category_name":"公交车站","address":"上海浦东大道东靖路路口"},{"poiid":"B2094654D568AAF94199","title":"连城新苑","lon":"121.58142","lat":"31.292423","category":"47","category_name":"住宅区","address":"上海市闵行区昆阳路3388号"},{"poiid":"B2094654D568AAFB4293","title":"上海市新陆职业技术学校(东沟路)","lon":"121.57453","lat":"31.28939","category":"54","category_name":"职业技术学校","address":"东高路81"},{"poiid":"B2094654D568AAF9469B","title":"浦煤新村","lon":"121.57494","lat":"31.291819","category":"47","category_name":"住宅区","address":"东靖路6号"},{"poiid":"B2094757D16EA6FB4992","title":"全顺酒家","lon":"121.571752539","lat":"31.2924183726","category":"247","category_name":"餐饮美食","address":"上海浦东北路1290号"},{"poiid":"B2094654D568AAF9479E","title":"快客No.846","lon":"121.57344","lat":"31.29183","category":"117","category_name":"便民商店/便利店","address":"东沟镇"},{"poiid":"B2094757D065A7F8419A","title":"上海市新陆职校","lon":"121.572359","lat":"31.29031","category":"500","category_name":"未知分类","address":"上海浦东北路1010号"},{"poiid":"B2094654D568AAF94792","title":"新浦煤小区","lon":"121.5732","lat":"31.291834","category":"47","category_name":"住宅区","address":"东靖路34-41"},{"poiid":"B2094757D16FA3F4449F","title":"东沟四村","lon":"121.57421","lat":"31.29084","category":"252","category_name":"楼宇机构","address":"上海市浦东新区东靖路"},{"poiid":"B2094654D568AAF8439C","title":"新全顺","lon":"121.57306","lat":"31.29412","category":"70","category_name":"综合酒楼","address":"浦东新区东葛路1200号(近浦东北路)"},{"poiid":"B2094757D069A2F9499C","title":"邵福楼","lon":"121.582808489","lat":"31.2826636232","category":"76","category_name":"上海菜","address":"浦东新区东波路301号(近兴运路)"},{"poiid":"B2094654DB6BA1F9429E","title":"好德","lon":"121.57499","lat":"31.29027","category":"117","category_name":"便民商店/便利店","address":""},{"poiid":"B2094757D16AA2F5419A","title":"东沟幼儿园","lon":"121.574862339","lat":"31.2915777532","category":"57","category_name":"幼儿园","address":"上海浦煤新村"},{"poiid":"B2094757D16DA0F84999","title":"重庆鸡公煲(东靖路店)","lon":"121.57638","lat":"31.29148","category":"71","category_name":"四川菜","address":"浦东新区东靖路850号(近东沟路)"},{"poiid":"B2094655D36CA6FB449A","title":"东靖路东沟路","lon":"121.57606","lat":"31.29168","category":"38","category_name":"公交车站","address":""},{"poiid":"B2094757D16AAAF44993","title":"JIDONG悸动","lon":"121.57433233","lat":"31.290367725","category":"500","category_name":"未知分类","address":"上海市浦东新区东靖路209号"},{"poiid":"B2094655D264A4FF479C","title":"飘香麻辣烫","lon":"121.57623","lat":"31.29175","category":"257","category_name":"中餐厅","address":"浦东新区东靖路197号"},{"poiid":"B2094654D568ABF8459B","title":"东沟一村","lon":"121.57536","lat":"31.292898","category":"47","category_name":"住宅区","address":"东靖路247弄"},{"poiid":"B2094654D568AAFE469D","title":"上海通华不绣钢压力容器工程有限公司","lon":"121.57168","lat":"31.29039","category":"263","category_name":"公司","address":"浦东北路1039"},{"poiid":"B2094655D26FA0F84892","title":"平凉路2767弄小区","lon":"121.564","lat":"31.2848","category":"47","category_name":"住宅区","address":"上海市杨浦区平凉路平凉路2767弄"},{"poiid":"B2094757D06BA1FF4299","title":"沪东中华造船集团7、8号码头","lon":"121.57068598","lat":"31.291395785","category":"260","category_name":"其他","address":"上海浦东北路1079号 浦东大道东靖路路口"},{"poiid":"B2094654D568AAFB419B","title":"可的(东沟一村东)","lon":"121.57592","lat":"31.29316","category":"117","category_name":"便民商店/便利店","address":"闵行区东沟北路60弄10号(东沟北路东沟路)"},{"poiid":"B2094654D568ABF94998","title":"联华复星药房东沟店","lon":"121.57587","lat":"31.29277","category":"162","category_name":"医院","address":"浦东新区东靖路24号(东靖路浦东北路)"},{"poiid":"B2094655D26CA5FA449F","title":"东波苑二街坊","lon":"121.57686","lat":"31.28503","category":"47","category_name":"住宅区","address":"东波路49弄"},{"poiid":"B2094751DB6CA3F9489C","title":"浦东大道东波路","lon":"121.572434","lat":"31.288077","category":"500","category_name":"未知分类","address":null},{"poiid":"B2094757D16EA7FD4593","title":"东沟六村","lon":"121.57726","lat":"31.290091","category":"252","category_name":"楼宇机构","address":"东高路119号"},{"poiid":"B2094654D568ABF9439E","title":"中国农业银行东沟分理处","lon":"121.57585","lat":"31.29183","category":"150","category_name":"银行","address":"东靖路181"},{"poiid":"B2094654D568A1F54198","title":"静心苑","lon":"121.576546054","lat":"31.284516793","category":"76","category_name":"上海菜","address":"浦东新区东波路69号"},{"poiid":"B2094757D468A2FC4593","title":"福隆坊","lon":"121.57539","lat":"31.29184","category":"76","category_name":"上海菜","address":"浦东新区东靖路178号(近农业银行)"},{"poiid":"B2094655D26CA7FB419B","title":"私家厨","lon":"121.57587","lat":"31.28419","category":"76","category_name":"上海菜","address":"浦东新区东波路2号(近浦东大道)"},{"poiid":"B2094655D36CA6FB4399","title":"东靖路莱阳路","lon":"121.58289","lat":"31.29169","category":"38","category_name":"公交车站","address":""},{"poiid":"B2094655D26BAAFF4592","title":"小胖哥烧烤","lon":"121.57687","lat":"31.28503","category":"68","category_name":"快餐厅","address":"浦东新区东波路49弄口(近浦东大道)"},{"poiid":"B2094751DA6BAAFB479F","title":"东方医院","lon":"121.57177","lat":"31.285564","category":"162","category_name":"医院","address":"上海市即墨路"},{"poiid":"B2094654D568AAFB4093","title":"东沟社区市民学校图书室","lon":"121.57762","lat":"31.29278","category":"181","category_name":"图书馆","address":""},{"poiid":"B2094757D568A5F44598","title":"东靖苑小区","lon":"121.5805393","lat":"31.29142117","category":"47","category_name":"住宅区","address":"上海市浦东新区东靖路237号"},{"poiid":"B2094757D66FA0F84299","title":"新城碧翠会所","lon":"121.576613239","lat":"31.2980174014","category":"47","category_name":"住宅区","address":"上海繁锦路1288弄"},{"poiid":"B2094757D66CA4F84099","title":"古美阳光幼儿园","lon":"121.57726833","lat":"31.287940669","category":"57","category_name":"幼儿园","address":"上海莲花路310弄1号"},{"poiid":"B2094654D568AAF94399","title":"上海农村商业银行东沟支行","lon":"121.57714","lat":"31.29183","category":"150","category_name":"银行","address":"东靖路221"},{"poiid":"B2094757D66FA0FD459A","title":"上海农商银行业务保障二部","lon":"121.577023339","lat":"31.2921457663","category":"500","category_name":"未知分类","address":"上海市浦东新区东靖路221号"},{"poiid":"B2094654DB6BA1F9499F","title":"快客","lon":"121.57905","lat":"31.29185","category":"117","category_name":"便民商店/便利店","address":"东靖路301"},{"poiid":"B209475CD76CAAFE459A","title":"东方明珠旋转餐厅","lon":"121.575836","lat":"31.294921","category":"500","category_name":"未知分类","address":"上海市 陆家嘴"},{"poiid":"B2094654D568AAF9429A","title":"光明便利(东靖苑东)","lon":"121.57913","lat":"31.29185","category":"117","category_name":"便民商店/便利店","address":""},{"poiid":"B2094655D36DA2F4499A","title":"翔殷路隧道","lon":"121.56697","lat":"31.30256","category":"250","category_name":"公园户外","address":"上海市杨浦区南翔殷路-浦东新区五洲大道"},{"poiid":"B2094757D068A7FF4493","title":"复兴岛公园","lon":"121.56190431","lat":"31.286679668","category":"196","category_name":"公园","address":"杨浦区共青路386号"},{"poiid":"B2094757D068A2FD489B","title":"浦东大道东波路","lon":"121.575669","lat":"31.283804","category":"500","category_name":"未知分类","address":"上海浦东大道东波路"},{"poiid":"B2094654D568ABF8459A","title":"东沟新村","lon":"121.57725","lat":"31.292421","category":"47","category_name":"住宅区","address":"东沟新村位于浦东东沟镇(东清路)东行路247弄"},{"poiid":"B2094655D36CA6FB469B","title":"东沟","lon":"121.57252","lat":"31.28982","category":"38","category_name":"公交车站","address":""},{"poiid":"B2094654DB6AA6FF439A","title":"晶波坊","lon":"121.57954","lat":"31.285055","category":"47","category_name":"住宅区","address":"东波路195弄1-125号"},{"poiid":"B2094757D16BA2FE459A","title":"浦东大道东靖路","lon":"121.57138033","lat":"31.291400449","category":"500","category_name":"未知分类","address":"上海浦东大道东靖路"},{"poiid":"B2094654D568AAFA459E","title":"景源佳苑","lon":"121.57571","lat":"31.288227","category":"47","category_name":"住宅区","address":"上海市浦东新区浦东大道26弄"},{"poiid":"B2094757D064A7FB4199","title":"610终点站","lon":"121.57315518","lat":"31.288643785","category":"38","category_name":"公交车站","address":"上海浦东大道东靖路路口"},{"poiid":"B2094654D568AAF94199","title":"连城新苑","lon":"121.58142","lat":"31.292423","category":"47","category_name":"住宅区","address":"上海市闵行区昆阳路3388号"},{"poiid":"B2094654D568AAFB4293","title":"上海市新陆职业技术学校(东沟路)","lon":"121.57453","lat":"31.28939","category":"54","category_name":"职业技术学校","address":"东高路81"},{"poiid":"B2094654D568AAF9469B","title":"浦煤新村","lon":"121.57494","lat":"31.291819","category":"47","category_name":"住宅区","address":"东靖路6号"},{"poiid":"B2094757D16EA6FB4992","title":"全顺酒家","lon":"121.571752539","lat":"31.2924183726","category":"247","category_name":"餐饮美食","address":"上海浦东北路1290号"},{"poiid":"B2094654D568AAF9479E","title":"快客No.846","lon":"121.57344","lat":"31.29183","category":"117","category_name":"便民商店/便利店","address":"东沟镇"},{"poiid":"B2094757D065A7F8419A","title":"上海市新陆职校","lon":"121.572359","lat":"31.29031","category":"500","category_name":"未知分类","address":"上海浦东北路1010号"},{"poiid":"B2094654D568AAF94792","title":"新浦煤小区","lon":"121.5732","lat":"31.291834","category":"47","category_name":"住宅区","address":"东靖路34-41"},{"poiid":"B2094757D16FA3F4449F","title":"东沟四村","lon":"121.57421","lat":"31.29084","category":"252","category_name":"楼宇机构","address":"上海市浦东新区东靖路"},{"poiid":"B2094654D568AAF8439C","title":"新全顺","lon":"121.57306","lat":"31.29412","category":"70","category_name":"综合酒楼","address":"浦东新区东葛路1200号(近浦东北路)"},{"poiid":"B2094757D069A2F9499C","title":"邵福楼","lon":"121.582808489","lat":"31.2826636232","category":"76","category_name":"上海菜","address":"浦东新区东波路301号(近兴运路)"},{"poiid":"B2094654DB6BA1F9429E","title":"好德","lon":"121.57499","lat":"31.29027","category":"117","category_name":"便民商店/便利店","address":""},{"poiid":"B2094757D16AA2F5419A","title":"东沟幼儿园","lon":"121.574862339","lat":"31.2915777532","category":"57","category_name":"幼儿园","address":"上海浦煤新村"},{"poiid":"B2094757D16DA0F84999","title":"重庆鸡公煲(东靖路店)","lon":"121.57638","lat":"31.29148","category":"71","category_name":"四川菜","address":"浦东新区东靖路850号(近东沟路)"},{"poiid":"B2094655D36CA6FB449A","title":"东靖路东沟路","lon":"121.57606","lat":"31.29168","category":"38","category_name":"公交车站","address":""},{"poiid":"B2094757D16AAAF44993","title":"JIDONG悸动","lon":"121.57433233","lat":"31.290367725","category":"500","category_name":"未知分类","address":"上海市浦东新区东靖路209号"},{"poiid":"B2094655D264A4FF479C","title":"飘香麻辣烫","lon":"121.57623","lat":"31.29175","category":"257","category_name":"中餐厅","address":"浦东新区东靖路197号"},{"poiid":"B2094654D568ABF8459B","title":"东沟一村","lon":"121.57536","lat":"31.292898","category":"47","category_name":"住宅区","address":"东靖路247弄"},{"poiid":"B2094654D568AAFE469D","title":"上海通华不绣钢压力容器工程有限公司","lon":"121.57168","lat":"31.29039","category":"263","category_name":"公司","address":"浦东北路1039"},{"poiid":"B2094655D26FA0F84892","title":"平凉路2767弄小区","lon":"121.564","lat":"31.2848","category":"47","category_name":"住宅区","address":"上海市杨浦区平凉路平凉路2767弄"},{"poiid":"B2094757D06BA1FF4299","title":"沪东中华造船集团7、8号码头","lon":"121.57068598","lat":"31.291395785","category":"260","category_name":"其他","address":"上海浦东北路1079号 浦东大道东靖路路口"},{"poiid":"B2094654D568AAFB419B","title":"可的(东沟一村东)","lon":"121.57592","lat":"31.29316","category":"117","category_name":"便民商店/便利店","address":"闵行区东沟北路60弄10号(东沟北路东沟路)"},{"poiid":"B2094654D568ABF94998","title":"联华复星药房东沟店","lon":"121.57587","lat":"31.29277","category":"162","category_name":"医院","address":"浦东新区东靖路24号(东靖路浦东北路)"},{"poiid":"B2094655D26CA5FA449F","title":"东波苑二街坊","lon":"121.57686","lat":"31.28503","category":"47","category_name":"住宅区","address":"东波路49弄"},{"poiid":"B2094751DB6CA3F9489C","title":"浦东大道东波路","lon":"121.572434","lat":"31.288077","category":"500","category_name":"未知分类","address":null},{"poiid":"B2094757D16EA7FD4593","title":"东沟六村","lon":"121.57726","lat":"31.290091","category":"252","category_name":"楼宇机构","address":"东高路119号"},{"poiid":"B2094654D568ABF9439E","title":"中国农业银行东沟分理处","lon":"121.57585","lat":"31.29183","category":"150","category_name":"银行","address":"东靖路181"},{"poiid":"B2094654D568A1F54198","title":"静心苑","lon":"121.576546054","lat":"31.284516793","category":"76","category_name":"上海菜","address":"浦东新区东波路69号"},{"poiid":"B2094757D468A2FC4593","title":"福隆坊","lon":"121.57539","lat":"31.29184","category":"76","category_name":"上海菜","address":"浦东新区东靖路178号(近农业银行)"},{"poiid":"B2094655D26CA7FB419B","title":"私家厨","lon":"121.57587","lat":"31.28419","category":"76","category_name":"上海菜","address":"浦东新区东波路2号(近浦东大道)"},{"poiid":"B2094655D36CA6FB4399","title":"东靖路莱阳路","lon":"121.58289","lat":"31.29169","category":"38","category_name":"公交车站","address":""},{"poiid":"B2094655D26BAAFF4592","title":"小胖哥烧烤","lon":"121.57687","lat":"31.28503","category":"68","category_name":"快餐厅","address":"浦东新区东波路49弄口(近浦东大道)"},{"poiid":"B2094751DA6BAAFB479F","title":"东方医院","lon":"121.57177","lat":"31.285564","category":"162","category_name":"医院","address":"上海市即墨路"},{"poiid":"B2094654D568AAFB4093","title":"东沟社区市民学校图书室","lon":"121.57762","lat":"31.29278","category":"181","category_name":"图书馆","address":""},{"poiid":"B2094757D568A5F44598","title":"东靖苑小区","lon":"121.5805393","lat":"31.29142117","category":"47","category_name":"住宅区","address":"上海市浦东新区东靖路237号"},{"poiid":"B2094757D66FA0F84299","title":"新城碧翠会所","lon":"121.576613239","lat":"31.2980174014","category":"47","category_name":"住宅区","address":"上海繁锦路1288弄"},{"poiid":"B2094757D66CA4F84099","title":"古美阳光幼儿园","lon":"121.57726833","lat":"31.287940669","category":"57","category_name":"幼儿园","address":"上海莲花路310弄1号"},{"poiid":"B2094654D568AAF94399","title":"上海农村商业银行东沟支行","lon":"121.57714","lat":"31.29183","category":"150","category_name":"银行","address":"东靖路221"},{"poiid":"B2094757D66FA0FD459A","title":"上海农商银行业务保障二部","lon":"121.577023339","lat":"31.2921457663","category":"500","category_name":"未知分类","address":"上海市浦东新区东靖路221号"},{"poiid":"B2094654DB6BA1F9499F","title":"快客","lon":"121.57905","lat":"31.29185","category":"117","category_name":"便民商店/便利店","address":"东靖路301"},{"poiid":"B209475CD76CAAFE459A","title":"东方明珠旋转餐厅","lon":"121.575836","lat":"31.294921","category":"500","category_name":"未知分类","address":"上海市 陆家嘴"},{"poiid":"B2094654D568AAF9429A","title":"光明便利(东靖苑东)","lon":"121.57913","lat":"31.29185","category":"117","category_name":"便民商店/便利店","address":""}]