[{"poiid":"B2094654D56EA5F5469F","title":"万达商业广场","lon":"121.51384","lat":"31.30029","category":"119","category_name":"商场","address":"杨浦区邯郸路600号(近淞沪路)"},{"poiid":"B2094757D06EAAFB4092","title":"五角场","lon":"121.51545076","lat":"31.299978019","category":"119","category_name":"商场","address":"杨浦区五角场"},{"poiid":"B2094655D26FA0FB4693","title":"巴黎春天","lon":"121.51453","lat":"31.3008","category":"119","category_name":"商场","address":"杨浦区淞沪路1号(近邯郸路)"},{"poiid":"B2094654D56EA5F5419C","title":"广州蕉叶(万达广场店)","lon":"121.51385","lat":"31.30028","category":"99","category_name":"泰国／越南菜品餐厅","address":"杨浦区邯郸路600号万达商业广场B1城中城A18-3号(近淞沪路)"},{"poiid":"B2094654DB6AA6FE479F","title":"星巴克咖啡(万达店)","lon":"121.51365","lat":"31.30002","category":"65","category_name":"咖啡厅","address":"杨浦区邯郸路600号万达商业广场1楼(近淞沪路)"},{"poiid":"B2094655D26AABFF449A","title":"新旺茶餐厅 五角场店","lon":"121.515534054","lat":"31.300292793","category":"247","category_name":"餐饮美食","address":"杨浦区邯郸路660号万达商业广场食品一店3楼(近淞沪路)"},{"poiid":"B2094655D269A4FA479A","title":"哈根达斯(万达店)","lon":"121.51365","lat":"31.30002","category":"113","category_name":"冷饮店","address":"杨浦区邯郸路600号万达商业广场1楼D32-33商铺(近淞沪路)"},{"poiid":"B2094654DB6BA3F5469F","title":"避风塘万达店","lon":"121.51354","lat":"31.30068","category":"111","category_name":"休闲餐饮场所","address":"五角场"},{"poiid":"B2094757DA6EABFF4198","title":"17.5影院(五角场店)","lon":"121.514681","lat":"31.300157","category":"178","category_name":"电影院","address":"杨浦区淞沪路8号上海百联又一城购物中心8楼(近翔殷路)"},{"poiid":"B2094757D06FA3FA439B","title":"食品一店(五角场店)","lon":"121.51364898","lat":"31.30001831","category":"119","category_name":"商场","address":"上海杨浦区邯郸路600号万达商业广场"},{"poiid":"B2094757D06FA3F4419C","title":"权金城(五角场店)","lon":"121.51459","lat":"31.29952","category":"96","category_name":"韩国料理","address":"杨浦区邯郸路600号第一食品5楼503单元(近淞沪路)"},{"poiid":"B2094757D06EAAFD4493","title":"巴黎春天(淞沪路五角场店)","lon":"121.515494341","lat":"31.3003796734","category":"119","category_name":"商场","address":"上海杨浦区淞沪路1号(近邯郸路)"},{"poiid":"B2094750D268AAFB419E","title":"板长寿司","lon":"121.514095","lat":"31.30108","category":"95","category_name":"日本料理","address":"杨浦区淞沪路77号万达商业广场B1楼"},{"poiid":"B2094757D06FA3FB4999","title":"大歌星(五角场万达店)","lon":"121.513449901","lat":"31.2998944599","category":"170","category_name":"KTV","address":"上海杨浦区邯郸路600号万达商业广场3楼(近淞沪路)"},{"poiid":"B2094757D06EAAF44093","title":"望湘园(五角场店)","lon":"121.51403","lat":"31.30101","category":"77","category_name":"湖南菜","address":"杨浦区政通路189号万达商业广场特力时尚汇5楼(近淞沪路)"},{"poiid":"B2094752D264AAFB479F","title":"外婆家","lon":"121.513415","lat":"31.300735","category":"247","category_name":"餐饮美食","address":"杨浦区百联又一城六楼"},{"poiid":"B2094654DB64A6FA4198","title":"洋葱餐厅(巴黎春天)","lon":"121.51406","lat":"31.30015","category":"72","category_name":"广东菜","address":"淞沪路1号巴黎春天5层"},{"poiid":"B2094654DB64A6FE4493","title":"豆捞坊(邯郸路)","lon":"121.51406","lat":"31.30016","category":"86","category_name":"火锅店","address":"淞沪路1号巴黎春天4层"},{"poiid":"B2094654DB65A6FC4092","title":"斗牛士(五角场店)","lon":"121.51371","lat":"31.3","category":"94","category_name":"西餐厅","address":"杨浦区邯郸路600号万达商业广场食品一店3楼(近淞沪路)"},{"poiid":"B2094750D56FAAFD419A","title":"必胜客(万达店)","lon":"121.514","lat":"31.3011","category":"94","category_name":"西餐厅","address":"杨浦区淞沪路77号万达广场B-15号(近邯郸路)"},{"poiid":"B2094655D26AABFD459D","title":"釜山料理 万达店 pankoo","lon":"121.515534054","lat":"31.300292793","category":"247","category_name":"餐饮美食","address":"杨浦区上海市邯郸路600号万达商业广场B1"},{"poiid":"B2094757D06EAAF44192","title":"第一食品商店(万达店)","lon":"121.51483","lat":"31.29984","category":"119","category_name":"商场","address":"上海杨浦区邯郸路600号万达商业广场(近淞沪路)  "},{"poiid":"B2094654DB69A5FF409A","title":"麦当劳(五角场万达店)","lon":"121.51385","lat":"31.30028","category":"68","category_name":"快餐厅","address":"杨浦区邯郸路600号万达商业广场B1楼A05号铺(近淞沪路)"},{"poiid":"B2094757D06FA2F84092","title":"上海书城(五角场店)","lon":"121.5155","lat":"31.30009","category":"125","category_name":"书店","address":"杨浦区邯郸路600号万达商业广场2楼(近淞沪路)"},{"poiid":"B2094757D168A4FD489E","title":"西提牛排","lon":"121.514225103","lat":"31.300780057","category":"247","category_name":"餐饮美食","address":"上海淞沪路"},{"poiid":"B2094750D76DABF54292","title":"家有好面(万达广场店)","lon":"121.514","lat":"31.3005","category":"68","category_name":"快餐厅","address":"杨浦区邯郸路600号万达广场食品一店1楼"},{"poiid":"B2094757D06FA2F44093","title":"山间堂民间瓦缸煨汤(五角场店)","lon":"121.5144","lat":"31.29966","category":"260","category_name":"其他","address":"杨浦区邯郸路600号万达广场第一食品店5楼(近淞沪路)"},{"poiid":"B2094757D06FA2FB499E","title":"一茶一坐(五角场万达店)","lon":"121.514658","lat":"31.300101","category":"260","category_name":"其他","address":"上海杨浦区邯郸路600号万达商业广场A-03号(近淞沪路)"},{"poiid":"B2094757D06FA0FB429B","title":"苏宁电器(五角场店)","lon":"121.514755816","lat":"31.2993222767","category":"138","category_name":"家电电子卖场","address":"杨浦区邯郸路585号(近淞沪路)"},{"poiid":"B2094757D06FA7FC469F","title":"蜀菜行家(万达旗舰店)","lon":"121.51384","lat":"31.29967","category":"71","category_name":"四川菜","address":"杨浦区邯郸路600号万达广场第一食品店5楼(近淞沪路)"},{"poiid":"B2094757D06FA7FB439F","title":"棒约翰比萨(万达店)","lon":"121.513901403","lat":"31.3003163184","category":"94","category_name":"西餐厅","address":"杨浦区邯郸路660号万达商业广场B1楼(近淞沪路)"},{"poiid":"B2094757D06FABFD469F","title":"DQ冰雪皇后(万达新店)","lon":"121.514419198","lat":"31.3002793245","category":"67","category_name":"甜品店","address":"杨浦区淞沪路77号万达商业广场户外大道(近翔殷路)"},{"poiid":"B2094757D06FA1F44099","title":"仙踪林(万达店)","lon":"121.51366424","lat":"31.300052642","category":"113","category_name":"冷饮店","address":"杨浦区淞沪路8号百联又一城3楼(近邯郸路)"},{"poiid":"B2094750D76FAAFD4898","title":"PANKOO釜山料理(五角场万达店)","lon":"121.514","lat":"31.3003","category":"96","category_name":"韩国料理","address":"杨浦区淞沪路77号万达商业广场B1楼(近淞沪路)"},{"poiid":"B2094757D06FA0FA419F","title":"萨莉亚(五角场店)","lon":"121.51504","lat":"31.30006","category":"94","category_name":"西餐厅","address":"杨浦区邯郸路600号万达商业广场第一食品3楼(近淞沪路)"},{"poiid":"B2094654D56EA5F5419F","title":"万达广场写字楼A座","lon":"121.51351","lat":"31.30006","category":"46","category_name":"楼宇","address":"国宾路18"},{"poiid":"B2094757D06FA0F5449D","title":"小杨生煎(万达店)","lon":"121.51513","lat":"31.29983","category":"68","category_name":"快餐厅","address":"杨浦区邯郸路600号万达商业广场食品一店2楼(近淞沪路)"},{"poiid":"B2094655D265A0F9439E","title":"味千拉面(食品城店)","lon":"121.51385","lat":"31.30029","category":"95","category_name":"日本料理","address":"杨浦区邯郸路660号万达商业广场食品一店1楼(近国宾路)"},{"poiid":"B2094752D06DA0FA4892","title":"蜀江烤鱼","lon":"121.515152","lat":"31.300352","category":"247","category_name":"餐饮美食","address":"五角场万达广场"},{"poiid":"B2094757D068A7FF419F","title":"好乐迪又一城","lon":"121.51502591","lat":"31.299089211","category":"500","category_name":"未知分类","address":"上海五角场"},{"poiid":"B2094757D06FA7F4459D","title":"AK147桌球俱乐部(五角场淞沪路店)","lon":"121.515350847","lat":"31.3008366279","category":"171","category_name":"台球厅","address":"上海杨浦区淞沪路8号百联又一城4楼"},{"poiid":"B2094753D66EA4F94892","title":"徹思叔叔烘焙工房","lon":"121.513924","lat":"31.300354","category":"112","category_name":"糕饼店","address":"杨浦区邯郸路600号万达广场食品一店一楼"},{"poiid":"B2094757D06FA6F8489C","title":"东方既白(万达店)","lon":"121.51457","lat":"31.29977","category":"68","category_name":"快餐厅","address":"杨浦区邯郸路600号万达商业广场B1楼A-02号(近淞沪路)"},{"poiid":"B2094757D06FA1FA469D","title":"五角场下沉式广场","lon":"121.515501495","lat":"31.2999310713","category":"250","category_name":"公园户外","address":"上海杨浦区五角场中环路与淞沪路交叉口"},{"poiid":"B2094757D068A6FE4298","title":"Up'S(百联又一城店)","lon":"121.51519351","lat":"31.301128814","category":"94","category_name":"西餐厅","address":"杨浦区凇沪路8号百联又一城购物中心1楼(翔殷路口)"},{"poiid":"B2094757D06FABF44392","title":"玩具反斗城(万达广场店)","lon":"121.51514558","lat":"31.299533435","category":"128","category_name":"儿童用品店","address":"上海杨浦区淞沪路77号万达商业广场B1城中城  "},{"poiid":"B2094757D06FA6FD449F","title":"快乐柠檬(万达店)","lon":"121.51511","lat":"31.29986","category":"113","category_name":"冷饮店","address":"杨浦区邯郸路600号万达商业广场1楼步行街(近淞沪路)"},{"poiid":"B2094757DA6FA3FE489F","title":"1001赞生活牛肉面(万达店)","lon":"121.514453887941","lat":"31.3001882418937","category":"247","category_name":"餐饮美食","address":"杨浦区淞沪路77号五角场万达广场B1楼D16"},{"poiid":"B2094757D465A3F84398","title":"元利香辣蟹 万达店","lon":"121.515534054","lat":"31.300292793","category":"71","category_name":"四川菜","address":"杨浦区政通路189号万达商业广场特力时尚汇5楼(近淞沪路)"},{"poiid":"B2094757D069A0FF409B","title":"地铁十号线(五角场站)","lon":"121.514878103","lat":"31.3002676462","category":"36","category_name":"地铁站","address":"上海五角场站"},{"poiid":"B2094654D56EA5F5469F","title":"万达商业广场","lon":"121.51384","lat":"31.30029","category":"119","category_name":"商场","address":"杨浦区邯郸路600号(近淞沪路)"},{"poiid":"B2094757D06EAAFB4092","title":"五角场","lon":"121.51545076","lat":"31.299978019","category":"119","category_name":"商场","address":"杨浦区五角场"},{"poiid":"B2094655D26FA0FB4693","title":"巴黎春天","lon":"121.51453","lat":"31.3008","category":"119","category_name":"商场","address":"杨浦区淞沪路1号(近邯郸路)"},{"poiid":"B2094654D56EA5F5419C","title":"广州蕉叶(万达广场店)","lon":"121.51385","lat":"31.30028","category":"99","category_name":"泰国／越南菜品餐厅","address":"杨浦区邯郸路600号万达商业广场B1城中城A18-3号(近淞沪路)"},{"poiid":"B2094654DB6AA6FE479F","title":"星巴克咖啡(万达店)","lon":"121.51365","lat":"31.30002","category":"65","category_name":"咖啡厅","address":"杨浦区邯郸路600号万达商业广场1楼(近淞沪路)"},{"poiid":"B2094655D26AABFF449A","title":"新旺茶餐厅 五角场店","lon":"121.515534054","lat":"31.300292793","category":"247","category_name":"餐饮美食","address":"杨浦区邯郸路660号万达商业广场食品一店3楼(近淞沪路)"},{"poiid":"B2094655D269A4FA479A","title":"哈根达斯(万达店)","lon":"121.51365","lat":"31.30002","category":"113","category_name":"冷饮店","address":"杨浦区邯郸路600号万达商业广场1楼D32-33商铺(近淞沪路)"},{"poiid":"B2094654DB6BA3F5469F","title":"避风塘万达店","lon":"121.51354","lat":"31.30068","category":"111","category_name":"休闲餐饮场所","address":"五角场"},{"poiid":"B2094757DA6EABFF4198","title":"17.5影院(五角场店)","lon":"121.514681","lat":"31.300157","category":"178","category_name":"电影院","address":"杨浦区淞沪路8号上海百联又一城购物中心8楼(近翔殷路)"},{"poiid":"B2094757D06FA3FA439B","title":"食品一店(五角场店)","lon":"121.51364898","lat":"31.30001831","category":"119","category_name":"商场","address":"上海杨浦区邯郸路600号万达商业广场"},{"poiid":"B2094757D06FA3F4419C","title":"权金城(五角场店)","lon":"121.51459","lat":"31.29952","category":"96","category_name":"韩国料理","address":"杨浦区邯郸路600号第一食品5楼503单元(近淞沪路)"},{"poiid":"B2094757D06EAAFD4493","title":"巴黎春天(淞沪路五角场店)","lon":"121.515494341","lat":"31.3003796734","category":"119","category_name":"商场","address":"上海杨浦区淞沪路1号(近邯郸路)"},{"poiid":"B2094750D268AAFB419E","title":"板长寿司","lon":"121.514095","lat":"31.30108","category":"95","category_name":"日本料理","address":"杨浦区淞沪路77号万达商业广场B1楼"},{"poiid":"B2094757D06FA3FB4999","title":"大歌星(五角场万达店)","lon":"121.513449901","lat":"31.2998944599","category":"170","category_name":"KTV","address":"上海杨浦区邯郸路600号万达商业广场3楼(近淞沪路)"},{"poiid":"B2094757D06EAAF44093","title":"望湘园(五角场店)","lon":"121.51403","lat":"31.30101","category":"77","category_name":"湖南菜","address":"杨浦区政通路189号万达商业广场特力时尚汇5楼(近淞沪路)"},{"poiid":"B2094752D264AAFB479F","title":"外婆家","lon":"121.513415","lat":"31.300735","category":"247","category_name":"餐饮美食","address":"杨浦区百联又一城六楼"},{"poiid":"B2094654DB64A6FA4198","title":"洋葱餐厅(巴黎春天)","lon":"121.51406","lat":"31.30015","category":"72","category_name":"广东菜","address":"淞沪路1号巴黎春天5层"},{"poiid":"B2094654DB64A6FE4493","title":"豆捞坊(邯郸路)","lon":"121.51406","lat":"31.30016","category":"86","category_name":"火锅店","address":"淞沪路1号巴黎春天4层"},{"poiid":"B2094654DB65A6FC4092","title":"斗牛士(五角场店)","lon":"121.51371","lat":"31.3","category":"94","category_name":"西餐厅","address":"杨浦区邯郸路600号万达商业广场食品一店3楼(近淞沪路)"},{"poiid":"B2094750D56FAAFD419A","title":"必胜客(万达店)","lon":"121.514","lat":"31.3011","category":"94","category_name":"西餐厅","address":"杨浦区淞沪路77号万达广场B-15号(近邯郸路)"},{"poiid":"B2094655D26AABFD459D","title":"釜山料理 万达店 pankoo","lon":"121.515534054","lat":"31.300292793","category":"247","category_name":"餐饮美食","address":"杨浦区上海市邯郸路600号万达商业广场B1"},{"poiid":"B2094757D06EAAF44192","title":"第一食品商店(万达店)","lon":"121.51483","lat":"31.29984","category":"119","category_name":"商场","address":"上海杨浦区邯郸路600号万达商业广场(近淞沪路)  "},{"poiid":"B2094654DB69A5FF409A","title":"麦当劳(五角场万达店)","lon":"121.51385","lat":"31.30028","category":"68","category_name":"快餐厅","address":"杨浦区邯郸路600号万达商业广场B1楼A05号铺(近淞沪路)"},{"poiid":"B2094757D06FA2F84092","title":"上海书城(五角场店)","lon":"121.5155","lat":"31.30009","category":"125","category_name":"书店","address":"杨浦区邯郸路600号万达商业广场2楼(近淞沪路)"},{"poiid":"B2094757D168A4FD489E","title":"西提牛排","lon":"121.514225103","lat":"31.300780057","category":"247","category_name":"餐饮美食","address":"上海淞沪路"},{"poiid":"B2094750D76DABF54292","title":"家有好面(万达广场店)","lon":"121.514","lat":"31.3005","category":"68","category_name":"快餐厅","address":"杨浦区邯郸路600号万达广场食品一店1楼"},{"poiid":"B2094757D06FA2F44093","title":"山间堂民间瓦缸煨汤(五角场店)","lon":"121.5144","lat":"31.29966","category":"260","category_name":"其他","address":"杨浦区邯郸路600号万达广场第一食品店5楼(近淞沪路)"},{"poiid":"B2094757D06FA2FB499E","title":"一茶一坐(五角场万达店)","lon":"121.514658","lat":"31.300101","category":"260","category_name":"其他","address":"上海杨浦区邯郸路600号万达商业广场A-03号(近淞沪路)"},{"poiid":"B2094757D06FA0FB429B","title":"苏宁电器(五角场店)","lon":"121.514755816","lat":"31.2993222767","category":"138","category_name":"家电电子卖场","address":"杨浦区邯郸路585号(近淞沪路)"},{"poiid":"B2094757D06FA7FC469F","title":"蜀菜行家(万达旗舰店)","lon":"121.51384","lat":"31.29967","category":"71","category_name":"四川菜","address":"杨浦区邯郸路600号万达广场第一食品店5楼(近淞沪路)"},{"poiid":"B2094757D06FA7FB439F","title":"棒约翰比萨(万达店)","lon":"121.513901403","lat":"31.3003163184","category":"94","category_name":"西餐厅","address":"杨浦区邯郸路660号万达商业广场B1楼(近淞沪路)"},{"poiid":"B2094757D06FABFD469F","title":"DQ冰雪皇后(万达新店)","lon":"121.514419198","lat":"31.3002793245","category":"67","category_name":"甜品店","address":"杨浦区淞沪路77号万达商业广场户外大道(近翔殷路)"},{"poiid":"B2094757D06FA1F44099","title":"仙踪林(万达店)","lon":"121.51366424","lat":"31.300052642","category":"113","category_name":"冷饮店","address":"杨浦区淞沪路8号百联又一城3楼(近邯郸路)"},{"poiid":"B2094750D76FAAFD4898","title":"PANKOO釜山料理(五角场万达店)","lon":"121.514","lat":"31.3003","category":"96","category_name":"韩国料理","address":"杨浦区淞沪路77号万达商业广场B1楼(近淞沪路)"},{"poiid":"B2094757D06FA0FA419F","title":"萨莉亚(五角场店)","lon":"121.51504","lat":"31.30006","category":"94","category_name":"西餐厅","address":"杨浦区邯郸路600号万达商业广场第一食品3楼(近淞沪路)"},{"poiid":"B2094654D56EA5F5419F","title":"万达广场写字楼A座","lon":"121.51351","lat":"31.30006","category":"46","category_name":"楼宇","address":"国宾路18"},{"poiid":"B2094757D06FA0F5449D","title":"小杨生煎(万达店)","lon":"121.51513","lat":"31.29983","category":"68","category_name":"快餐厅","address":"杨浦区邯郸路600号万达商业广场食品一店2楼(近淞沪路)"},{"poiid":"B2094655D265A0F9439E","title":"味千拉面(食品城店)","lon":"121.51385","lat":"31.30029","category":"95","category_name":"日本料理","address":"杨浦区邯郸路660号万达商业广场食品一店1楼(近国宾路)"},{"poiid":"B2094752D06DA0FA4892","title":"蜀江烤鱼","lon":"121.515152","lat":"31.300352","category":"247","category_name":"餐饮美食","address":"五角场万达广场"},{"poiid":"B2094757D068A7FF419F","title":"好乐迪又一城","lon":"121.51502591","lat":"31.299089211","category":"500","category_name":"未知分类","address":"上海五角场"},{"poiid":"B2094757D06FA7F4459D","title":"AK147桌球俱乐部(五角场淞沪路店)","lon":"121.515350847","lat":"31.3008366279","category":"171","category_name":"台球厅","address":"上海杨浦区淞沪路8号百联又一城4楼"},{"poiid":"B2094753D66EA4F94892","title":"徹思叔叔烘焙工房","lon":"121.513924","lat":"31.300354","category":"112","category_name":"糕饼店","address":"杨浦区邯郸路600号万达广场食品一店一楼"},{"poiid":"B2094757D06FA6F8489C","title":"东方既白(万达店)","lon":"121.51457","lat":"31.29977","category":"68","category_name":"快餐厅","address":"杨浦区邯郸路600号万达商业广场B1楼A-02号(近淞沪路)"},{"poiid":"B2094757D06FA1FA469D","title":"五角场下沉式广场","lon":"121.515501495","lat":"31.2999310713","category":"250","category_name":"公园户外","address":"上海杨浦区五角场中环路与淞沪路交叉口"},{"poiid":"B2094757D068A6FE4298","title":"Up'S(百联又一城店)","lon":"121.51519351","lat":"31.301128814","category":"94","category_name":"西餐厅","address":"杨浦区凇沪路8号百联又一城购物中心1楼(翔殷路口)"},{"poiid":"B2094757D06FABF44392","title":"玩具反斗城(万达广场店)","lon":"121.51514558","lat":"31.299533435","category":"128","category_name":"儿童用品店","address":"上海杨浦区淞沪路77号万达商业广场B1城中城  "},{"poiid":"B2094757D06FA6FD449F","title":"快乐柠檬(万达店)","lon":"121.51511","lat":"31.29986","category":"113","category_name":"冷饮店","address":"杨浦区邯郸路600号万达商业广场1楼步行街(近淞沪路)"},{"poiid":"B2094757DA6FA3FE489F","title":"1001赞生活牛肉面(万达店)","lon":"121.514453887941","lat":"31.3001882418937","category":"247","category_name":"餐饮美食","address":"杨浦区淞沪路77号五角场万达广场B1楼D16"},{"poiid":"B2094757D465A3F84398","title":"元利香辣蟹 万达店","lon":"121.515534054","lat":"31.300292793","category":"71","category_name":"四川菜","address":"杨浦区政通路189号万达商业广场特力时尚汇5楼(近淞沪路)"},{"poiid":"B2094757D069A0FF409B","title":"地铁十号线(五角场站)","lon":"121.514878103","lat":"31.3002676462","category":"36","category_name":"地铁站","address":"上海五角场站"},{"poiid":"B2094654D56EA5F5469F","title":"万达商业广场","lon":"121.51384","lat":"31.30029","category":"119","category_name":"商场","address":"杨浦区邯郸路600号(近淞沪路)"},{"poiid":"B2094757D06EAAFB4092","title":"五角场","lon":"121.51545076","lat":"31.299978019","category":"119","category_name":"商场","address":"杨浦区五角场"},{"poiid":"B2094655D26FA0FB4693","title":"巴黎春天","lon":"121.51453","lat":"31.3008","category":"119","category_name":"商场","address":"杨浦区淞沪路1号(近邯郸路)"},{"poiid":"B2094654D56EA5F5419C","title":"广州蕉叶(万达广场店)","lon":"121.51385","lat":"31.30028","category":"99","category_name":"泰国／越南菜品餐厅","address":"杨浦区邯郸路600号万达商业广场B1城中城A18-3号(近淞沪路)"},{"poiid":"B2094654DB6AA6FE479F","title":"星巴克咖啡(万达店)","lon":"121.51365","lat":"31.30002","category":"65","category_name":"咖啡厅","address":"杨浦区邯郸路600号万达商业广场1楼(近淞沪路)"},{"poiid":"B2094655D26AABFF449A","title":"新旺茶餐厅 五角场店","lon":"121.515534054","lat":"31.300292793","category":"247","category_name":"餐饮美食","address":"杨浦区邯郸路660号万达商业广场食品一店3楼(近淞沪路)"},{"poiid":"B2094655D269A4FA479A","title":"哈根达斯(万达店)","lon":"121.51365","lat":"31.30002","category":"113","category_name":"冷饮店","address":"杨浦区邯郸路600号万达商业广场1楼D32-33商铺(近淞沪路)"},{"poiid":"B2094654DB6BA3F5469F","title":"避风塘万达店","lon":"121.51354","lat":"31.30068","category":"111","category_name":"休闲餐饮场所","address":"五角场"},{"poiid":"B2094757DA6EABFF4198","title":"17.5影院(五角场店)","lon":"121.514681","lat":"31.300157","category":"178","category_name":"电影院","address":"杨浦区淞沪路8号上海百联又一城购物中心8楼(近翔殷路)"},{"poiid":"B2094757D06FA3FA439B","title":"食品一店(五角场店)","lon":"121.51364898","lat":"31.30001831","category":"119","category_name":"商场","address":"上海杨浦区邯郸路600号万达商业广场"},{"poiid":"B2094757D06FA3F4419C","title":"权金城(五角场店)","lon":"121.51459","lat":"31.29952","category":"96","category_name":"韩国料理","address":"杨浦区邯郸路600号第一食品5楼503单元(近淞沪路)"},{"poiid":"B2094757D06EAAFD4493","title":"巴黎春天(淞沪路五角场店)","lon":"121.515494341","lat":"31.3003796734","category":"119","category_name":"商场","address":"上海杨浦区淞沪路1号(近邯郸路)"},{"poiid":"B2094750D268AAFB419E","title":"板长寿司","lon":"121.514095","lat":"31.30108","category":"95","category_name":"日本料理","address":"杨浦区淞沪路77号万达商业广场B1楼"},{"poiid":"B2094757D06FA3FB4999","title":"大歌星(五角场万达店)","lon":"121.513449901","lat":"31.2998944599","category":"170","category_name":"KTV","address":"上海杨浦区邯郸路600号万达商业广场3楼(近淞沪路)"},{"poiid":"B2094757D06EAAF44093","title":"望湘园(五角场店)","lon":"121.51403","lat":"31.30101","category":"77","category_name":"湖南菜","address":"杨浦区政通路189号万达商业广场特力时尚汇5楼(近淞沪路)"},{"poiid":"B2094752D264AAFB479F","title":"外婆家","lon":"121.513415","lat":"31.300735","category":"247","category_name":"餐饮美食","address":"杨浦区百联又一城六楼"},{"poiid":"B2094654DB64A6FA4198","title":"洋葱餐厅(巴黎春天)","lon":"121.51406","lat":"31.30015","category":"72","category_name":"广东菜","address":"淞沪路1号巴黎春天5层"},{"poiid":"B2094654DB64A6FE4493","title":"豆捞坊(邯郸路)","lon":"121.51406","lat":"31.30016","category":"86","category_name":"火锅店","address":"淞沪路1号巴黎春天4层"},{"poiid":"B2094654DB65A6FC4092","title":"斗牛士(五角场店)","lon":"121.51371","lat":"31.3","category":"94","category_name":"西餐厅","address":"杨浦区邯郸路600号万达商业广场食品一店3楼(近淞沪路)"},{"poiid":"B2094750D56FAAFD419A","title":"必胜客(万达店)","lon":"121.514","lat":"31.3011","category":"94","category_name":"西餐厅","address":"杨浦区淞沪路77号万达广场B-15号(近邯郸路)"},{"poiid":"B2094655D26AABFD459D","title":"釜山料理 万达店 pankoo","lon":"121.515534054","lat":"31.300292793","category":"247","category_name":"餐饮美食","address":"杨浦区上海市邯郸路600号万达商业广场B1"},{"poiid":"B2094757D06EAAF44192","title":"第一食品商店(万达店)","lon":"121.51483","lat":"31.29984","category":"119","category_name":"商场","address":"上海杨浦区邯郸路600号万达商业广场(近淞沪路)  "},{"poiid":"B2094654DB69A5FF409A","title":"麦当劳(五角场万达店)","lon":"121.51385","lat":"31.30028","category":"68","category_name":"快餐厅","address":"杨浦区邯郸路600号万达商业广场B1楼A05号铺(近淞沪路)"},{"poiid":"B2094757D06FA2F84092","title":"上海书城(五角场店)","lon":"121.5155","lat":"31.30009","category":"125","category_name":"书店","address":"杨浦区邯郸路600号万达商业广场2楼(近淞沪路)"},{"poiid":"B2094757D168A4FD489E","title":"西提牛排","lon":"121.514225103","lat":"31.300780057","category":"247","category_name":"餐饮美食","address":"上海淞沪路"},{"poiid":"B2094750D76DABF54292","title":"家有好面(万达广场店)","lon":"121.514","lat":"31.3005","category":"68","category_name":"快餐厅","address":"杨浦区邯郸路600号万达广场食品一店1楼"},{"poiid":"B2094757D06FA2F44093","title":"山间堂民间瓦缸煨汤(五角场店)","lon":"121.5144","lat":"31.29966","category":"260","category_name":"其他","address":"杨浦区邯郸路600号万达广场第一食品店5楼(近淞沪路)"},{"poiid":"B2094757D06FA2FB499E","title":"一茶一坐(五角场万达店)","lon":"121.514658","lat":"31.300101","category":"260","category_name":"其他","address":"上海杨浦区邯郸路600号万达商业广场A-03号(近淞沪路)"},{"poiid":"B2094757D06FA0FB429B","title":"苏宁电器(五角场店)","lon":"121.514755816","lat":"31.2993222767","category":"138","category_name":"家电电子卖场","address":"杨浦区邯郸路585号(近淞沪路)"},{"poiid":"B2094757D06FA7FC469F","title":"蜀菜行家(万达旗舰店)","lon":"121.51384","lat":"31.29967","category":"71","category_name":"四川菜","address":"杨浦区邯郸路600号万达广场第一食品店5楼(近淞沪路)"},{"poiid":"B2094757D06FA7FB439F","title":"棒约翰比萨(万达店)","lon":"121.513901403","lat":"31.3003163184","category":"94","category_name":"西餐厅","address":"杨浦区邯郸路660号万达商业广场B1楼(近淞沪路)"},{"poiid":"B2094757D06FABFD469F","title":"DQ冰雪皇后(万达新店)","lon":"121.514419198","lat":"31.3002793245","category":"67","category_name":"甜品店","address":"杨浦区淞沪路77号万达商业广场户外大道(近翔殷路)"},{"poiid":"B2094757D06FA1F44099","title":"仙踪林(万达店)","lon":"121.51366424","lat":"31.300052642","category":"113","category_name":"冷饮店","address":"杨浦区淞沪路8号百联又一城3楼(近邯郸路)"},{"poiid":"B2094750D76FAAFD4898","title":"PANKOO釜山料理(五角场万达店)","lon":"121.514","lat":"31.3003","category":"96","category_name":"韩国料理","address":"杨浦区淞沪路77号万达商业广场B1楼(近淞沪路)"},{"poiid":"B2094757D06FA0FA419F","title":"萨莉亚(五角场店)","lon":"121.51504","lat":"31.30006","category":"94","category_name":"西餐厅","address":"杨浦区邯郸路600号万达商业广场第一食品3楼(近淞沪路)"},{"poiid":"B2094654D56EA5F5419F","title":"万达广场写字楼A座","lon":"121.51351","lat":"31.30006","category":"46","category_name":"楼宇","address":"国宾路18"},{"poiid":"B2094757D06FA0F5449D","title":"小杨生煎(万达店)","lon":"121.51513","lat":"31.29983","category":"68","category_name":"快餐厅","address":"杨浦区邯郸路600号万达商业广场食品一店2楼(近淞沪路)"},{"poiid":"B2094655D265A0F9439E","title":"味千拉面(食品城店)","lon":"121.51385","lat":"31.30029","category":"95","category_name":"日本料理","address":"杨浦区邯郸路660号万达商业广场食品一店1楼(近国宾路)"},{"poiid":"B2094752D06DA0FA4892","title":"蜀江烤鱼","lon":"121.515152","lat":"31.300352","category":"247","category_name":"餐饮美食","address":"五角场万达广场"},{"poiid":"B2094757D068A7FF419F","title":"好乐迪又一城","lon":"121.51502591","lat":"31.299089211","category":"500","category_name":"未知分类","address":"上海五角场"},{"poiid":"B2094757D06FA7F4459D","title":"AK147桌球俱乐部(五角场淞沪路店)","lon":"121.515350847","lat":"31.3008366279","category":"171","category_name":"台球厅","address":"上海杨浦区淞沪路8号百联又一城4楼"},{"poiid":"B2094753D66EA4F94892","title":"徹思叔叔烘焙工房","lon":"121.513924","lat":"31.300354","category":"112","category_name":"糕饼店","address":"杨浦区邯郸路600号万达广场食品一店一楼"},{"poiid":"B2094757D06FA6F8489C","title":"东方既白(万达店)","lon":"121.51457","lat":"31.29977","category":"68","category_name":"快餐厅","address":"杨浦区邯郸路600号万达商业广场B1楼A-02号(近淞沪路)"},{"poiid":"B2094757D06FA1FA469D","title":"五角场下沉式广场","lon":"121.515501495","lat":"31.2999310713","category":"250","category_name":"公园户外","address":"上海杨浦区五角场中环路与淞沪路交叉口"},{"poiid":"B2094757D068A6FE4298","title":"Up'S(百联又一城店)","lon":"121.51519351","lat":"31.301128814","category":"94","category_name":"西餐厅","address":"杨浦区凇沪路8号百联又一城购物中心1楼(翔殷路口)"},{"poiid":"B2094757D06FABF44392","title":"玩具反斗城(万达广场店)","lon":"121.51514558","lat":"31.299533435","category":"128","category_name":"儿童用品店","address":"上海杨浦区淞沪路77号万达商业广场B1城中城  "},{"poiid":"B2094757D06FA6FD449F","title":"快乐柠檬(万达店)","lon":"121.51511","lat":"31.29986","category":"113","category_name":"冷饮店","address":"杨浦区邯郸路600号万达商业广场1楼步行街(近淞沪路)"},{"poiid":"B2094757DA6FA3FE489F","title":"1001赞生活牛肉面(万达店)","lon":"121.514453887941","lat":"31.3001882418937","category":"247","category_name":"餐饮美食","address":"杨浦区淞沪路77号五角场万达广场B1楼D16"},{"poiid":"B2094757D465A3F84398","title":"元利香辣蟹 万达店","lon":"121.515534054","lat":"31.300292793","category":"71","category_name":"四川菜","address":"杨浦区政通路189号万达商业广场特力时尚汇5楼(近淞沪路)"},{"poiid":"B2094757D069A0FF409B","title":"地铁十号线(五角场站)","lon":"121.514878103","lat":"31.3002676462","category":"36","category_name":"地铁站","address":"上海五角场站"},{"poiid":"B2094654D56EA5F5469F","title":"万达商业广场","lon":"121.51384","lat":"31.30029","category":"119","category_name":"商场","address":"杨浦区邯郸路600号(近淞沪路)"},{"poiid":"B2094757D06EAAFB4092","title":"五角场","lon":"121.51545076","lat":"31.299978019","category":"119","category_name":"商场","address":"杨浦区五角场"},{"poiid":"B2094655D26FA0FB4693","title":"巴黎春天","lon":"121.51453","lat":"31.3008","category":"119","category_name":"商场","address":"杨浦区淞沪路1号(近邯郸路)"},{"poiid":"B2094654D56EA5F5419C","title":"广州蕉叶(万达广场店)","lon":"121.51385","lat":"31.30028","category":"99","category_name":"泰国／越南菜品餐厅","address":"杨浦区邯郸路600号万达商业广场B1城中城A18-3号(近淞沪路)"},{"poiid":"B2094654DB6AA6FE479F","title":"星巴克咖啡(万达店)","lon":"121.51365","lat":"31.30002","category":"65","category_name":"咖啡厅","address":"杨浦区邯郸路600号万达商业广场1楼(近淞沪路)"},{"poiid":"B2094655D26AABFF449A","title":"新旺茶餐厅 五角场店","lon":"121.515534054","lat":"31.300292793","category":"247","category_name":"餐饮美食","address":"杨浦区邯郸路660号万达商业广场食品一店3楼(近淞沪路)"},{"poiid":"B2094655D269A4FA479A","title":"哈根达斯(万达店)","lon":"121.51365","lat":"31.30002","category":"113","category_name":"冷饮店","address":"杨浦区邯郸路600号万达商业广场1楼D32-33商铺(近淞沪路)"},{"poiid":"B2094654DB6BA3F5469F","title":"避风塘万达店","lon":"121.51354","lat":"31.30068","category":"111","category_name":"休闲餐饮场所","address":"五角场"},{"poiid":"B2094757DA6EABFF4198","title":"17.5影院(五角场店)","lon":"121.514681","lat":"31.300157","category":"178","category_name":"电影院","address":"杨浦区淞沪路8号上海百联又一城购物中心8楼(近翔殷路)"},{"poiid":"B2094757D06FA3FA439B","title":"食品一店(五角场店)","lon":"121.51364898","lat":"31.30001831","category":"119","category_name":"商场","address":"上海杨浦区邯郸路600号万达商业广场"},{"poiid":"B2094757D06FA3F4419C","title":"权金城(五角场店)","lon":"121.51459","lat":"31.29952","category":"96","category_name":"韩国料理","address":"杨浦区邯郸路600号第一食品5楼503单元(近淞沪路)"},{"poiid":"B2094757D06EAAFD4493","title":"巴黎春天(淞沪路五角场店)","lon":"121.515494341","lat":"31.3003796734","category":"119","category_name":"商场","address":"上海杨浦区淞沪路1号(近邯郸路)"},{"poiid":"B2094750D268AAFB419E","title":"板长寿司","lon":"121.514095","lat":"31.30108","category":"95","category_name":"日本料理","address":"杨浦区淞沪路77号万达商业广场B1楼"},{"poiid":"B2094757D06FA3FB4999","title":"大歌星(五角场万达店)","lon":"121.513449901","lat":"31.2998944599","category":"170","category_name":"KTV","address":"上海杨浦区邯郸路600号万达商业广场3楼(近淞沪路)"},{"poiid":"B2094757D06EAAF44093","title":"望湘园(五角场店)","lon":"121.51403","lat":"31.30101","category":"77","category_name":"湖南菜","address":"杨浦区政通路189号万达商业广场特力时尚汇5楼(近淞沪路)"},{"poiid":"B2094752D264AAFB479F","title":"外婆家","lon":"121.513415","lat":"31.300735","category":"247","category_name":"餐饮美食","address":"杨浦区百联又一城六楼"},{"poiid":"B2094654DB64A6FA4198","title":"洋葱餐厅(巴黎春天)","lon":"121.51406","lat":"31.30015","category":"72","category_name":"广东菜","address":"淞沪路1号巴黎春天5层"},{"poiid":"B2094654DB64A6FE4493","title":"豆捞坊(邯郸路)","lon":"121.51406","lat":"31.30016","category":"86","category_name":"火锅店","address":"淞沪路1号巴黎春天4层"},{"poiid":"B2094654DB65A6FC4092","title":"斗牛士(五角场店)","lon":"121.51371","lat":"31.3","category":"94","category_name":"西餐厅","address":"杨浦区邯郸路600号万达商业广场食品一店3楼(近淞沪路)"},{"poiid":"B2094750D56FAAFD419A","title":"必胜客(万达店)","lon":"121.514","lat":"31.3011","category":"94","category_name":"西餐厅","address":"杨浦区淞沪路77号万达广场B-15号(近邯郸路)"},{"poiid":"B2094655D26AABFD459D","title":"釜山料理 万达店 pankoo","lon":"121.515534054","lat":"31.300292793","category":"247","category_name":"餐饮美食","address":"杨浦区上海市邯郸路600号万达商业广场B1"},{"poiid":"B2094757D06EAAF44192","title":"第一食品商店(万达店)","lon":"121.51483","lat":"31.29984","category":"119","category_name":"商场","address":"上海杨浦区邯郸路600号万达商业广场(近淞沪路)  "},{"poiid":"B2094654DB69A5FF409A","title":"麦当劳(五角场万达店)","lon":"121.51385","lat":"31.30028","category":"68","category_name":"快餐厅","address":"杨浦区邯郸路600号万达商业广场B1楼A05号铺(近淞沪路)"},{"poiid":"B2094757D06FA2F84092","title":"上海书城(五角场店)","lon":"121.5155","lat":"31.30009","category":"125","category_name":"书店","address":"杨浦区邯郸路600号万达商业广场2楼(近淞沪路)"},{"poiid":"B2094757D168A4FD489E","title":"西提牛排","lon":"121.514225103","lat":"31.300780057","category":"247","category_name":"餐饮美食","address":"上海淞沪路"},{"poiid":"B2094750D76DABF54292","title":"家有好面(万达广场店)","lon":"121.514","lat":"31.3005","category":"68","category_name":"快餐厅","address":"杨浦区邯郸路600号万达广场食品一店1楼"},{"poiid":"B2094757D06FA2F44093","title":"山间堂民间瓦缸煨汤(五角场店)","lon":"121.5144","lat":"31.29966","category":"260","category_name":"其他","address":"杨浦区邯郸路600号万达广场第一食品店5楼(近淞沪路)"},{"poiid":"B2094757D06FA2FB499E","title":"一茶一坐(五角场万达店)","lon":"121.514658","lat":"31.300101","category":"260","category_name":"其他","address":"上海杨浦区邯郸路600号万达商业广场A-03号(近淞沪路)"},{"poiid":"B2094757D06FA0FB429B","title":"苏宁电器(五角场店)","lon":"121.514755816","lat":"31.2993222767","category":"138","category_name":"家电电子卖场","address":"杨浦区邯郸路585号(近淞沪路)"},{"poiid":"B2094757D06FA7FC469F","title":"蜀菜行家(万达旗舰店)","lon":"121.51384","lat":"31.29967","category":"71","category_name":"四川菜","address":"杨浦区邯郸路600号万达广场第一食品店5楼(近淞沪路)"},{"poiid":"B2094757D06FA7FB439F","title":"棒约翰比萨(万达店)","lon":"121.513901403","lat":"31.3003163184","category":"94","category_name":"西餐厅","address":"杨浦区邯郸路660号万达商业广场B1楼(近淞沪路)"},{"poiid":"B2094757D06FABFD469F","title":"DQ冰雪皇后(万达新店)","lon":"121.514419198","lat":"31.3002793245","category":"67","category_name":"甜品店","address":"杨浦区淞沪路77号万达商业广场户外大道(近翔殷路)"},{"poiid":"B2094757D06FA1F44099","title":"仙踪林(万达店)","lon":"121.51366424","lat":"31.300052642","category":"113","category_name":"冷饮店","address":"杨浦区淞沪路8号百联又一城3楼(近邯郸路)"},{"poiid":"B2094750D76FAAFD4898","title":"PANKOO釜山料理(五角场万达店)","lon":"121.514","lat":"31.3003","category":"96","category_name":"韩国料理","address":"杨浦区淞沪路77号万达商业广场B1楼(近淞沪路)"},{"poiid":"B2094757D06FA0FA419F","title":"萨莉亚(五角场店)","lon":"121.51504","lat":"31.30006","category":"94","category_name":"西餐厅","address":"杨浦区邯郸路600号万达商业广场第一食品3楼(近淞沪路)"},{"poiid":"B2094654D56EA5F5419F","title":"万达广场写字楼A座","lon":"121.51351","lat":"31.30006","category":"46","category_name":"楼宇","address":"国宾路18"},{"poiid":"B2094757D06FA0F5449D","title":"小杨生煎(万达店)","lon":"121.51513","lat":"31.29983","category":"68","category_name":"快餐厅","address":"杨浦区邯郸路600号万达商业广场食品一店2楼(近淞沪路)"},{"poiid":"B2094655D265A0F9439E","title":"味千拉面(食品城店)","lon":"121.51385","lat":"31.30029","category":"95","category_name":"日本料理","address":"杨浦区邯郸路660号万达商业广场食品一店1楼(近国宾路)"},{"poiid":"B2094752D06DA0FA4892","title":"蜀江烤鱼","lon":"121.515152","lat":"31.300352","category":"247","category_name":"餐饮美食","address":"五角场万达广场"},{"poiid":"B2094757D068A7FF419F","title":"好乐迪又一城","lon":"121.51502591","lat":"31.299089211","category":"500","category_name":"未知分类","address":"上海五角场"},{"poiid":"B2094757D06FA7F4459D","title":"AK147桌球俱乐部(五角场淞沪路店)","lon":"121.515350847","lat":"31.3008366279","category":"171","category_name":"台球厅","address":"上海杨浦区淞沪路8号百联又一城4楼"},{"poiid":"B2094753D66EA4F94892","title":"徹思叔叔烘焙工房","lon":"121.513924","lat":"31.300354","category":"112","category_name":"糕饼店","address":"杨浦区邯郸路600号万达广场食品一店一楼"},{"poiid":"B2094757D06FA6F8489C","title":"东方既白(万达店)","lon":"121.51457","lat":"31.29977","category":"68","category_name":"快餐厅","address":"杨浦区邯郸路600号万达商业广场B1楼A-02号(近淞沪路)"},{"poiid":"B2094757D06FA1FA469D","title":"五角场下沉式广场","lon":"121.515501495","lat":"31.2999310713","category":"250","category_name":"公园户外","address":"上海杨浦区五角场中环路与淞沪路交叉口"},{"poiid":"B2094757D068A6FE4298","title":"Up'S(百联又一城店)","lon":"121.51519351","lat":"31.301128814","category":"94","category_name":"西餐厅","address":"杨浦区凇沪路8号百联又一城购物中心1楼(翔殷路口)"},{"poiid":"B2094757D06FABF44392","title":"玩具反斗城(万达广场店)","lon":"121.51514558","lat":"31.299533435","category":"128","category_name":"儿童用品店","address":"上海杨浦区淞沪路77号万达商业广场B1城中城  "},{"poiid":"B2094757D06FA6FD449F","title":"快乐柠檬(万达店)","lon":"121.51511","lat":"31.29986","category":"113","category_name":"冷饮店","address":"杨浦区邯郸路600号万达商业广场1楼步行街(近淞沪路)"},{"poiid":"B2094757DA6FA3FE489F","title":"1001赞生活牛肉面(万达店)","lon":"121.514453887941","lat":"31.3001882418937","category":"247","category_name":"餐饮美食","address":"杨浦区淞沪路77号五角场万达广场B1楼D16"},{"poiid":"B2094757D465A3F84398","title":"元利香辣蟹 万达店","lon":"121.515534054","lat":"31.300292793","category":"71","category_name":"四川菜","address":"杨浦区政通路189号万达商业广场特力时尚汇5楼(近淞沪路)"},{"poiid":"B2094757D069A0FF409B","title":"地铁十号线(五角场站)","lon":"121.514878103","lat":"31.3002676462","category":"36","category_name":"地铁站","address":"上海五角场站"}]