[{"poiid":"B2094655D36DA6FE449F","title":"上海图书馆","lon":"121.44394","lat":"31.20779","category":"181","category_name":"图书馆","address":"徐汇区淮海中路1555号(近高安路)"},{"poiid":"B2094757D068AAFE489F","title":"复兴西路","lon":"121.443012","lat":"31.208405","category":"46","category_name":"楼宇","address":"上海永福路"},{"poiid":"B2094757D06FA3FD4598","title":"衡山路","lon":"121.44432","lat":"31.20163","category":"260","category_name":"其他","address":"徐汇区衡山路(衡山路吴兴路)"},{"poiid":"B2094753D76FAAFA449C","title":"上海滩国泰旗舰店","lon":"121.466011","lat":"31.216125","category":"249","category_name":"购物服务","address":"淮海中路868号"},{"poiid":"B209475CD564A7F8439E","title":"上海滩中信泰富店","lon":"121.45602","lat":"31.22851","category":"119","category_name":"商场","address":"\"南京西路1168号中信泰富广场，店铺号221.\r\n\""},{"poiid":"B2094654DA6DA7F9479B","title":"基督教国际礼拜堂","lon":"121.44808","lat":"31.20635","category":"245","category_name":"教堂","address":"徐汇区衡山路53号(近乌鲁木齐路)"},{"poiid":"B2094757D06EAAF54992","title":"JZ club(爵士俱乐部)","lon":"121.44488035","lat":"31.210675495","category":"172","category_name":"酒吧","address":"徐汇区复兴西路46号(近乌鲁木齐中路)"},{"poiid":"B2094757D66DA4FD4499","title":"菲芘酒吧","lon":"121.447201886","lat":"31.2057479523","category":"174","category_name":"迪厅","address":"上海衡山路10号甲一层"},{"poiid":"B2094655D26AABFE469C","title":"SOHOCLUB","lon":"121.44773","lat":"31.20662","category":"247","category_name":"餐饮美食","address":"徐汇区衡山路10号"},{"poiid":"B2094757D06EAAFB429A","title":"1984bookstore","lon":"121.442412","lat":"31.208109","category":"260","category_name":"其他","address":"徐汇区湖南路11号(永福路口)"},{"poiid":"B2094757DB6FA2FB499A","title":"衡山路十二号豪华精选酒店","lon":"121.44645321431","lat":"31.20471978314","category":"215","category_name":"三星级宾馆","address":"徐汇区衡山路12号"},{"poiid":"B2094757D06EAAFF4899","title":"星巴克 衡山路店 Starbucks Cafe","lon":"121.446764054","lat":"31.206216793","category":"260","category_name":"其他","address":"徐汇区衡山路4号领馆广场内(近乌鲁木齐南路)"},{"poiid":"B2094757D06EAAFC4292","title":"菲比","lon":"121.44647479","lat":"31.204945495","category":"172","category_name":"酒吧","address":"徐汇区衡山路10号欧登大厦1楼(近乌鲁木齐南路)"},{"poiid":"B2094757D06AA2FB4299","title":"MT3","lon":"121.44685058","lat":"31.205462946","category":"500","category_name":"未知分类","address":"上海衡山路10号"},{"poiid":"B2094757D06FAAF9499C","title":"一哥海鲜火锅","lon":"121.446774586","lat":"31.2056789509","category":"86","category_name":"火锅店","address":"徐汇区衡山路10号(近高安路)"},{"poiid":"B2094654DB69A7FD4193","title":"雍福会","lon":"121.44264","lat":"31.20911","category":"76","category_name":"上海菜","address":"徐汇区永福路200号原英国领事馆(近湖南路)"},{"poiid":"B2094654DA6DA7F94592","title":"欧登","lon":"121.44657","lat":"31.20556","category":"46","category_name":"楼宇","address":"上海衡山路10号甲"},{"poiid":"B2094757D068A1F94798","title":"图安蟹味馆","lon":"121.445137232","lat":"31.2068752777","category":"257","category_name":"中餐厅","address":"徐汇区高安路1号上海图书馆后花园(近淮海中路)"},{"poiid":"B2094654DA6DA6FC4898","title":"上海图书馆(东门)","lon":"121.44525","lat":"31.20854","category":"181","category_name":"图书馆","address":"淮海中路1555号"},{"poiid":"B2094757DA65A4F9449A","title":"Pizza Marzano","lon":"121.4464178961901","lat":"31.20727251752392","category":"247","category_name":"餐饮美食","address":"永嘉庭"},{"poiid":"B2094757D06FA3FF449D","title":"上海图书馆地铁站","lon":"121.44394","lat":"31.207792","category":"36","category_name":"地铁站","address":"上海轨道交通 十号线 轨交上海图书馆站 10"},{"poiid":"B2094757D468AAFA439F","title":"Restaurant Cuivre","lon":"121.445625","lat":"31.209066","category":"94","category_name":"西餐厅","address":"徐汇区淮海中路1502号(近乌鲁木齐路)"},{"poiid":"B2094654DB64A6F9499A","title":"美国领事馆","lon":"121.44721","lat":"31.2088","category":"252","category_name":"楼宇机构","address":"乌鲁木齐中路"},{"poiid":"B2094757D068A3FA409D","title":"衡山路乌鲁木齐南路","lon":"121.4482784","lat":"31.2070633","category":"500","category_name":"未知分类","address":"上海衡山路乌鲁木齐南路"},{"poiid":"B2094654DB65A1FF439C","title":"Boonna Cafe(淮海中路店)","lon":"121.44225","lat":"31.20713","category":"260","category_name":"其他","address":"徐汇区淮海中路1690号(近吴兴路)"},{"poiid":"B2094757D069A4F44493","title":"Club Phebe","lon":"121.44689243","lat":"31.205410175","category":"500","category_name":"未知分类","address":"上海衡山路乌鲁木齐路"},{"poiid":"B2094757D068A2F54493","title":"博爱医院","lon":"121.44417408","lat":"31.208371816","category":"162","category_name":"医院","address":"卢湾区淮海中路1590号(近高安路)"},{"poiid":"B2094750DA65A7F5429B","title":"彭于晏妈妈的小城故事店里面","lon":"121.447845","lat":"31.208089","category":"247","category_name":"餐饮美食","address":null},{"poiid":"B2094757D068A4F5429E","title":"La casbah coffee","lon":"121.44471633","lat":"31.208303673","category":"65","category_name":"咖啡厅","address":"上海市淮海中路1554号"},{"poiid":"B2094757D068A4FF459E","title":"巴犀烧烤屋","lon":"121.44698","lat":"31.20507","category":"94","category_name":"西餐厅","address":"徐汇区衡山路4号领馆广场内(近乌鲁木齐南路)"},{"poiid":"B2094757D068A0FD4293","title":"高安三号咖啡馆","lon":"121.443715373","lat":"31.206431725","category":"65","category_name":"咖啡厅","address":"徐汇区高安路3号(淮海中路康平路间)"},{"poiid":"B2094655D26EA1FD429D","title":"一千零一夜 1001 Nights Restaurant","lon":"121.446904988","lat":"31.207006173934","category":"247","category_name":"餐饮美食","address":"徐汇区衡山路4号领馆广场内(近乌鲁木齐南路)"},{"poiid":"B2094757D468AAFD4099","title":"鲁马滋 Rumors Coffee","lon":"121.442311","lat":"31.208188","category":"65","category_name":"咖啡厅","address":"徐汇区湖南路9号甲(近上海图书馆)"},{"poiid":"B2094654DB6AA7FB4498","title":"市图书馆","lon":"121.44555","lat":"31.2068","category":"181","category_name":"图书馆","address":"徐汇区淮海中路1555号"},{"poiid":"B2094655D26EAAF84199","title":"唐韵茶坊 徐汇店","lon":"121.44775275124","lat":"31.205628558528","category":"66","category_name":"茶艺馆","address":"徐汇区衡山路199号(高安路乌鲁木齐路间)"},{"poiid":"B2094752D564AAFF4399","title":"季风书店（图书馆）","lon":"121.444154","lat":"31.207542","category":"248","category_name":"生活娱乐","address":"十号线图书馆站"},{"poiid":"B2094757D068ABFE439C","title":"鸿艺会会所(淮海中路店)","lon":"121.44689","lat":"31.2094","category":"221","category_name":"健身中心","address":"徐汇区淮海中路1500号(近乌鲁木齐中路)"},{"poiid":"B2094757DA69A2FB4893","title":"上海真爱酒吧Truelove","lon":"121.44662487568","lat":"31.205536497467","category":"172","category_name":"酒吧","address":"徐汇区衡山路10号(近高安路)"},{"poiid":"B2094752D669A6F8449B","title":"鼎王无老养生锅","lon":"121.444528","lat":"31.209638","category":"500","category_name":"未知分类","address":"衡山路2号甲香樟花园"},{"poiid":"B2094757D06AA4F84298","title":"Hunan House","lon":"121.445337989","lat":"31.209769788","category":"77","category_name":"湖南菜","address":"徐汇区复兴西路49弄2号(近乌鲁木齐路)"},{"poiid":"B209475CDA6EA7FE4193","title":"Hooters（淮海店）","lon":"121.445639","lat":"31.208961","category":"247","category_name":"餐饮美食","address":"上海市淮海中路1498号1号楼一层"},{"poiid":"B2094654DA6DA7F9459C","title":"MT Club(衡山路店)","lon":"121.44657","lat":"31.20556","category":"248","category_name":"生活娱乐","address":"上海徐汇区衡山路10号欧登保龄球甲2楼"},{"poiid":"B2094654DA6DA6FC4899","title":"上海图书馆(南门)","lon":"121.44396","lat":"31.20664","category":"181","category_name":"图书馆","address":"高安路"},{"poiid":"B2094757D568A6F9409A","title":"上海图书馆读者餐厅","lon":"121.4447469","lat":"31.20753194","category":"68","category_name":"快餐厅","address":"徐汇区淮海中路1555号上海图书馆1楼(高安路口)"},{"poiid":"B2094654DA6DA7F9469E","title":"Starbucks Coffee(衡山路)","lon":"121.44757","lat":"31.20641","category":"65","category_name":"咖啡厅","address":"天平路"},{"poiid":"B2094757D464ABF9439C","title":"棒约翰比萨 衡山店 Papa John's Pizza","lon":"121.44805620007","lat":"31.207111525182","category":"94","category_name":"西餐厅","address":"徐汇区衡山路4号(近乌鲁木齐南路)"},{"poiid":"B2094757D069A0F44998","title":"Bulldog Shanghai(英国斗牛犬)","lon":"121.44805362","lat":"31.208418656","category":"172","category_name":"酒吧","address":"徐汇区乌鲁木齐南路1号(衡山路美领馆对面)"},{"poiid":"B2094753D26CA3FE449A","title":"季风书园","lon":"121.444476","lat":"31.208212","category":"500","category_name":"未知分类","address":"上海市 上海市淮海中路1555号"},{"poiid":"B2094757D569A0FB4892","title":"伊丽包子点心","lon":"121.4450831","lat":"31.20685111","category":"68","category_name":"快餐厅","address":"徐汇区高安路1弄11号侧(近淮海中路)"},{"poiid":"B2094655D36CA6FE459E","title":"高安路淮海中路","lon":"121.44312","lat":"31.20773","category":"38","category_name":"公交车站","address":""},{"poiid":"B2094655D36DA6FE449F","title":"上海图书馆","lon":"121.44394","lat":"31.20779","category":"181","category_name":"图书馆","address":"徐汇区淮海中路1555号(近高安路)"},{"poiid":"B2094757D068AAFE489F","title":"复兴西路","lon":"121.443012","lat":"31.208405","category":"46","category_name":"楼宇","address":"上海永福路"},{"poiid":"B2094757D06FA3FD4598","title":"衡山路","lon":"121.44432","lat":"31.20163","category":"260","category_name":"其他","address":"徐汇区衡山路(衡山路吴兴路)"},{"poiid":"B2094753D76FAAFA449C","title":"上海滩国泰旗舰店","lon":"121.466011","lat":"31.216125","category":"249","category_name":"购物服务","address":"淮海中路868号"},{"poiid":"B209475CD564A7F8439E","title":"上海滩中信泰富店","lon":"121.45602","lat":"31.22851","category":"119","category_name":"商场","address":"\"南京西路1168号中信泰富广场，店铺号221.\r\n\""},{"poiid":"B2094654DA6DA7F9479B","title":"基督教国际礼拜堂","lon":"121.44808","lat":"31.20635","category":"245","category_name":"教堂","address":"徐汇区衡山路53号(近乌鲁木齐路)"},{"poiid":"B2094757D06EAAF54992","title":"JZ club(爵士俱乐部)","lon":"121.44488035","lat":"31.210675495","category":"172","category_name":"酒吧","address":"徐汇区复兴西路46号(近乌鲁木齐中路)"},{"poiid":"B2094757D66DA4FD4499","title":"菲芘酒吧","lon":"121.447201886","lat":"31.2057479523","category":"174","category_name":"迪厅","address":"上海衡山路10号甲一层"},{"poiid":"B2094655D26AABFE469C","title":"SOHOCLUB","lon":"121.44773","lat":"31.20662","category":"247","category_name":"餐饮美食","address":"徐汇区衡山路10号"},{"poiid":"B2094757D06EAAFB429A","title":"1984bookstore","lon":"121.442412","lat":"31.208109","category":"260","category_name":"其他","address":"徐汇区湖南路11号(永福路口)"},{"poiid":"B2094757DB6FA2FB499A","title":"衡山路十二号豪华精选酒店","lon":"121.44645321431","lat":"31.20471978314","category":"215","category_name":"三星级宾馆","address":"徐汇区衡山路12号"},{"poiid":"B2094757D06EAAFF4899","title":"星巴克 衡山路店 Starbucks Cafe","lon":"121.446764054","lat":"31.206216793","category":"260","category_name":"其他","address":"徐汇区衡山路4号领馆广场内(近乌鲁木齐南路)"},{"poiid":"B2094757D06EAAFC4292","title":"菲比","lon":"121.44647479","lat":"31.204945495","category":"172","category_name":"酒吧","address":"徐汇区衡山路10号欧登大厦1楼(近乌鲁木齐南路)"},{"poiid":"B2094757D06AA2FB4299","title":"MT3","lon":"121.44685058","lat":"31.205462946","category":"500","category_name":"未知分类","address":"上海衡山路10号"},{"poiid":"B2094757D06FAAF9499C","title":"一哥海鲜火锅","lon":"121.446774586","lat":"31.2056789509","category":"86","category_name":"火锅店","address":"徐汇区衡山路10号(近高安路)"},{"poiid":"B2094654DB69A7FD4193","title":"雍福会","lon":"121.44264","lat":"31.20911","category":"76","category_name":"上海菜","address":"徐汇区永福路200号原英国领事馆(近湖南路)"},{"poiid":"B2094654DA6DA7F94592","title":"欧登","lon":"121.44657","lat":"31.20556","category":"46","category_name":"楼宇","address":"上海衡山路10号甲"},{"poiid":"B2094757D068A1F94798","title":"图安蟹味馆","lon":"121.445137232","lat":"31.2068752777","category":"257","category_name":"中餐厅","address":"徐汇区高安路1号上海图书馆后花园(近淮海中路)"},{"poiid":"B2094654DA6DA6FC4898","title":"上海图书馆(东门)","lon":"121.44525","lat":"31.20854","category":"181","category_name":"图书馆","address":"淮海中路1555号"},{"poiid":"B2094757DA65A4F9449A","title":"Pizza Marzano","lon":"121.4464178961901","lat":"31.20727251752392","category":"247","category_name":"餐饮美食","address":"永嘉庭"},{"poiid":"B2094757D06FA3FF449D","title":"上海图书馆地铁站","lon":"121.44394","lat":"31.207792","category":"36","category_name":"地铁站","address":"上海轨道交通 十号线 轨交上海图书馆站 10"},{"poiid":"B2094757D468AAFA439F","title":"Restaurant Cuivre","lon":"121.445625","lat":"31.209066","category":"94","category_name":"西餐厅","address":"徐汇区淮海中路1502号(近乌鲁木齐路)"},{"poiid":"B2094654DB64A6F9499A","title":"美国领事馆","lon":"121.44721","lat":"31.2088","category":"252","category_name":"楼宇机构","address":"乌鲁木齐中路"},{"poiid":"B2094757D068A3FA409D","title":"衡山路乌鲁木齐南路","lon":"121.4482784","lat":"31.2070633","category":"500","category_name":"未知分类","address":"上海衡山路乌鲁木齐南路"},{"poiid":"B2094654DB65A1FF439C","title":"Boonna Cafe(淮海中路店)","lon":"121.44225","lat":"31.20713","category":"260","category_name":"其他","address":"徐汇区淮海中路1690号(近吴兴路)"},{"poiid":"B2094757D069A4F44493","title":"Club Phebe","lon":"121.44689243","lat":"31.205410175","category":"500","category_name":"未知分类","address":"上海衡山路乌鲁木齐路"},{"poiid":"B2094757D068A2F54493","title":"博爱医院","lon":"121.44417408","lat":"31.208371816","category":"162","category_name":"医院","address":"卢湾区淮海中路1590号(近高安路)"},{"poiid":"B2094750DA65A7F5429B","title":"彭于晏妈妈的小城故事店里面","lon":"121.447845","lat":"31.208089","category":"247","category_name":"餐饮美食","address":null},{"poiid":"B2094757D068A4F5429E","title":"La casbah coffee","lon":"121.44471633","lat":"31.208303673","category":"65","category_name":"咖啡厅","address":"上海市淮海中路1554号"},{"poiid":"B2094757D068A4FF459E","title":"巴犀烧烤屋","lon":"121.44698","lat":"31.20507","category":"94","category_name":"西餐厅","address":"徐汇区衡山路4号领馆广场内(近乌鲁木齐南路)"},{"poiid":"B2094757D068A0FD4293","title":"高安三号咖啡馆","lon":"121.443715373","lat":"31.206431725","category":"65","category_name":"咖啡厅","address":"徐汇区高安路3号(淮海中路康平路间)"},{"poiid":"B2094655D26EA1FD429D","title":"一千零一夜 1001 Nights Restaurant","lon":"121.446904988","lat":"31.207006173934","category":"247","category_name":"餐饮美食","address":"徐汇区衡山路4号领馆广场内(近乌鲁木齐南路)"},{"poiid":"B2094757D468AAFD4099","title":"鲁马滋 Rumors Coffee","lon":"121.442311","lat":"31.208188","category":"65","category_name":"咖啡厅","address":"徐汇区湖南路9号甲(近上海图书馆)"},{"poiid":"B2094654DB6AA7FB4498","title":"市图书馆","lon":"121.44555","lat":"31.2068","category":"181","category_name":"图书馆","address":"徐汇区淮海中路1555号"},{"poiid":"B2094655D26EAAF84199","title":"唐韵茶坊 徐汇店","lon":"121.44775275124","lat":"31.205628558528","category":"66","category_name":"茶艺馆","address":"徐汇区衡山路199号(高安路乌鲁木齐路间)"},{"poiid":"B2094752D564AAFF4399","title":"季风书店（图书馆）","lon":"121.444154","lat":"31.207542","category":"248","category_name":"生活娱乐","address":"十号线图书馆站"},{"poiid":"B2094757D068ABFE439C","title":"鸿艺会会所(淮海中路店)","lon":"121.44689","lat":"31.2094","category":"221","category_name":"健身中心","address":"徐汇区淮海中路1500号(近乌鲁木齐中路)"},{"poiid":"B2094757DA69A2FB4893","title":"上海真爱酒吧Truelove","lon":"121.44662487568","lat":"31.205536497467","category":"172","category_name":"酒吧","address":"徐汇区衡山路10号(近高安路)"},{"poiid":"B2094752D669A6F8449B","title":"鼎王无老养生锅","lon":"121.444528","lat":"31.209638","category":"500","category_name":"未知分类","address":"衡山路2号甲香樟花园"},{"poiid":"B2094757D06AA4F84298","title":"Hunan House","lon":"121.445337989","lat":"31.209769788","category":"77","category_name":"湖南菜","address":"徐汇区复兴西路49弄2号(近乌鲁木齐路)"},{"poiid":"B209475CDA6EA7FE4193","title":"Hooters（淮海店）","lon":"121.445639","lat":"31.208961","category":"247","category_name":"餐饮美食","address":"上海市淮海中路1498号1号楼一层"},{"poiid":"B2094654DA6DA7F9459C","title":"MT Club(衡山路店)","lon":"121.44657","lat":"31.20556","category":"248","category_name":"生活娱乐","address":"上海徐汇区衡山路10号欧登保龄球甲2楼"},{"poiid":"B2094654DA6DA6FC4899","title":"上海图书馆(南门)","lon":"121.44396","lat":"31.20664","category":"181","category_name":"图书馆","address":"高安路"},{"poiid":"B2094757D568A6F9409A","title":"上海图书馆读者餐厅","lon":"121.4447469","lat":"31.20753194","category":"68","category_name":"快餐厅","address":"徐汇区淮海中路1555号上海图书馆1楼(高安路口)"},{"poiid":"B2094654DA6DA7F9469E","title":"Starbucks Coffee(衡山路)","lon":"121.44757","lat":"31.20641","category":"65","category_name":"咖啡厅","address":"天平路"},{"poiid":"B2094757D464ABF9439C","title":"棒约翰比萨 衡山店 Papa John's Pizza","lon":"121.44805620007","lat":"31.207111525182","category":"94","category_name":"西餐厅","address":"徐汇区衡山路4号(近乌鲁木齐南路)"},{"poiid":"B2094757D069A0F44998","title":"Bulldog Shanghai(英国斗牛犬)","lon":"121.44805362","lat":"31.208418656","category":"172","category_name":"酒吧","address":"徐汇区乌鲁木齐南路1号(衡山路美领馆对面)"},{"poiid":"B2094753D26CA3FE449A","title":"季风书园","lon":"121.444476","lat":"31.208212","category":"500","category_name":"未知分类","address":"上海市 上海市淮海中路1555号"},{"poiid":"B2094757D569A0FB4892","title":"伊丽包子点心","lon":"121.4450831","lat":"31.20685111","category":"68","category_name":"快餐厅","address":"徐汇区高安路1弄11号侧(近淮海中路)"},{"poiid":"B2094655D36CA6FE459E","title":"高安路淮海中路","lon":"121.44312","lat":"31.20773","category":"38","category_name":"公交车站","address":""},{"poiid":"B2094655D36DA6FE449F","title":"上海图书馆","lon":"121.44394","lat":"31.20779","category":"181","category_name":"图书馆","address":"徐汇区淮海中路1555号(近高安路)"},{"poiid":"B2094757D068AAFE489F","title":"复兴西路","lon":"121.443012","lat":"31.208405","category":"46","category_name":"楼宇","address":"上海永福路"},{"poiid":"B2094757D06FA3FD4598","title":"衡山路","lon":"121.44432","lat":"31.20163","category":"260","category_name":"其他","address":"徐汇区衡山路(衡山路吴兴路)"},{"poiid":"B2094753D76FAAFA449C","title":"上海滩国泰旗舰店","lon":"121.466011","lat":"31.216125","category":"249","category_name":"购物服务","address":"淮海中路868号"},{"poiid":"B209475CD564A7F8439E","title":"上海滩中信泰富店","lon":"121.45602","lat":"31.22851","category":"119","category_name":"商场","address":"\"南京西路1168号中信泰富广场，店铺号221.\r\n\""},{"poiid":"B2094654DA6DA7F9479B","title":"基督教国际礼拜堂","lon":"121.44808","lat":"31.20635","category":"245","category_name":"教堂","address":"徐汇区衡山路53号(近乌鲁木齐路)"},{"poiid":"B2094757D06EAAF54992","title":"JZ club(爵士俱乐部)","lon":"121.44488035","lat":"31.210675495","category":"172","category_name":"酒吧","address":"徐汇区复兴西路46号(近乌鲁木齐中路)"},{"poiid":"B2094757D66DA4FD4499","title":"菲芘酒吧","lon":"121.447201886","lat":"31.2057479523","category":"174","category_name":"迪厅","address":"上海衡山路10号甲一层"},{"poiid":"B2094655D26AABFE469C","title":"SOHOCLUB","lon":"121.44773","lat":"31.20662","category":"247","category_name":"餐饮美食","address":"徐汇区衡山路10号"},{"poiid":"B2094757D06EAAFB429A","title":"1984bookstore","lon":"121.442412","lat":"31.208109","category":"260","category_name":"其他","address":"徐汇区湖南路11号(永福路口)"},{"poiid":"B2094757DB6FA2FB499A","title":"衡山路十二号豪华精选酒店","lon":"121.44645321431","lat":"31.20471978314","category":"215","category_name":"三星级宾馆","address":"徐汇区衡山路12号"},{"poiid":"B2094757D06EAAFF4899","title":"星巴克 衡山路店 Starbucks Cafe","lon":"121.446764054","lat":"31.206216793","category":"260","category_name":"其他","address":"徐汇区衡山路4号领馆广场内(近乌鲁木齐南路)"},{"poiid":"B2094757D06EAAFC4292","title":"菲比","lon":"121.44647479","lat":"31.204945495","category":"172","category_name":"酒吧","address":"徐汇区衡山路10号欧登大厦1楼(近乌鲁木齐南路)"},{"poiid":"B2094757D06AA2FB4299","title":"MT3","lon":"121.44685058","lat":"31.205462946","category":"500","category_name":"未知分类","address":"上海衡山路10号"},{"poiid":"B2094757D06FAAF9499C","title":"一哥海鲜火锅","lon":"121.446774586","lat":"31.2056789509","category":"86","category_name":"火锅店","address":"徐汇区衡山路10号(近高安路)"},{"poiid":"B2094654DB69A7FD4193","title":"雍福会","lon":"121.44264","lat":"31.20911","category":"76","category_name":"上海菜","address":"徐汇区永福路200号原英国领事馆(近湖南路)"},{"poiid":"B2094654DA6DA7F94592","title":"欧登","lon":"121.44657","lat":"31.20556","category":"46","category_name":"楼宇","address":"上海衡山路10号甲"},{"poiid":"B2094757D068A1F94798","title":"图安蟹味馆","lon":"121.445137232","lat":"31.2068752777","category":"257","category_name":"中餐厅","address":"徐汇区高安路1号上海图书馆后花园(近淮海中路)"},{"poiid":"B2094654DA6DA6FC4898","title":"上海图书馆(东门)","lon":"121.44525","lat":"31.20854","category":"181","category_name":"图书馆","address":"淮海中路1555号"},{"poiid":"B2094757DA65A4F9449A","title":"Pizza Marzano","lon":"121.4464178961901","lat":"31.20727251752392","category":"247","category_name":"餐饮美食","address":"永嘉庭"},{"poiid":"B2094757D06FA3FF449D","title":"上海图书馆地铁站","lon":"121.44394","lat":"31.207792","category":"36","category_name":"地铁站","address":"上海轨道交通 十号线 轨交上海图书馆站 10"},{"poiid":"B2094757D468AAFA439F","title":"Restaurant Cuivre","lon":"121.445625","lat":"31.209066","category":"94","category_name":"西餐厅","address":"徐汇区淮海中路1502号(近乌鲁木齐路)"},{"poiid":"B2094654DB64A6F9499A","title":"美国领事馆","lon":"121.44721","lat":"31.2088","category":"252","category_name":"楼宇机构","address":"乌鲁木齐中路"},{"poiid":"B2094757D068A3FA409D","title":"衡山路乌鲁木齐南路","lon":"121.4482784","lat":"31.2070633","category":"500","category_name":"未知分类","address":"上海衡山路乌鲁木齐南路"},{"poiid":"B2094654DB65A1FF439C","title":"Boonna Cafe(淮海中路店)","lon":"121.44225","lat":"31.20713","category":"260","category_name":"其他","address":"徐汇区淮海中路1690号(近吴兴路)"},{"poiid":"B2094757D069A4F44493","title":"Club Phebe","lon":"121.44689243","lat":"31.205410175","category":"500","category_name":"未知分类","address":"上海衡山路乌鲁木齐路"},{"poiid":"B2094757D068A2F54493","title":"博爱医院","lon":"121.44417408","lat":"31.208371816","category":"162","category_name":"医院","address":"卢湾区淮海中路1590号(近高安路)"},{"poiid":"B2094750DA65A7F5429B","title":"彭于晏妈妈的小城故事店里面","lon":"121.447845","lat":"31.208089","category":"247","category_name":"餐饮美食","address":null},{"poiid":"B2094757D068A4F5429E","title":"La casbah coffee","lon":"121.44471633","lat":"31.208303673","category":"65","category_name":"咖啡厅","address":"上海市淮海中路1554号"},{"poiid":"B2094757D068A4FF459E","title":"巴犀烧烤屋","lon":"121.44698","lat":"31.20507","category":"94","category_name":"西餐厅","address":"徐汇区衡山路4号领馆广场内(近乌鲁木齐南路)"},{"poiid":"B2094757D068A0FD4293","title":"高安三号咖啡馆","lon":"121.443715373","lat":"31.206431725","category":"65","category_name":"咖啡厅","address":"徐汇区高安路3号(淮海中路康平路间)"},{"poiid":"B2094655D26EA1FD429D","title":"一千零一夜 1001 Nights Restaurant","lon":"121.446904988","lat":"31.207006173934","category":"247","category_name":"餐饮美食","address":"徐汇区衡山路4号领馆广场内(近乌鲁木齐南路)"},{"poiid":"B2094757D468AAFD4099","title":"鲁马滋 Rumors Coffee","lon":"121.442311","lat":"31.208188","category":"65","category_name":"咖啡厅","address":"徐汇区湖南路9号甲(近上海图书馆)"},{"poiid":"B2094654DB6AA7FB4498","title":"市图书馆","lon":"121.44555","lat":"31.2068","category":"181","category_name":"图书馆","address":"徐汇区淮海中路1555号"},{"poiid":"B2094655D26EAAF84199","title":"唐韵茶坊 徐汇店","lon":"121.44775275124","lat":"31.205628558528","category":"66","category_name":"茶艺馆","address":"徐汇区衡山路199号(高安路乌鲁木齐路间)"},{"poiid":"B2094752D564AAFF4399","title":"季风书店（图书馆）","lon":"121.444154","lat":"31.207542","category":"248","category_name":"生活娱乐","address":"十号线图书馆站"},{"poiid":"B2094757D068ABFE439C","title":"鸿艺会会所(淮海中路店)","lon":"121.44689","lat":"31.2094","category":"221","category_name":"健身中心","address":"徐汇区淮海中路1500号(近乌鲁木齐中路)"},{"poiid":"B2094757DA69A2FB4893","title":"上海真爱酒吧Truelove","lon":"121.44662487568","lat":"31.205536497467","category":"172","category_name":"酒吧","address":"徐汇区衡山路10号(近高安路)"},{"poiid":"B2094752D669A6F8449B","title":"鼎王无老养生锅","lon":"121.444528","lat":"31.209638","category":"500","category_name":"未知分类","address":"衡山路2号甲香樟花园"},{"poiid":"B2094757D06AA4F84298","title":"Hunan House","lon":"121.445337989","lat":"31.209769788","category":"77","category_name":"湖南菜","address":"徐汇区复兴西路49弄2号(近乌鲁木齐路)"},{"poiid":"B209475CDA6EA7FE4193","title":"Hooters（淮海店）","lon":"121.445639","lat":"31.208961","category":"247","category_name":"餐饮美食","address":"上海市淮海中路1498号1号楼一层"},{"poiid":"B2094654DA6DA7F9459C","title":"MT Club(衡山路店)","lon":"121.44657","lat":"31.20556","category":"248","category_name":"生活娱乐","address":"上海徐汇区衡山路10号欧登保龄球甲2楼"},{"poiid":"B2094654DA6DA6FC4899","title":"上海图书馆(南门)","lon":"121.44396","lat":"31.20664","category":"181","category_name":"图书馆","address":"高安路"},{"poiid":"B2094757D568A6F9409A","title":"上海图书馆读者餐厅","lon":"121.4447469","lat":"31.20753194","category":"68","category_name":"快餐厅","address":"徐汇区淮海中路1555号上海图书馆1楼(高安路口)"},{"poiid":"B2094654DA6DA7F9469E","title":"Starbucks Coffee(衡山路)","lon":"121.44757","lat":"31.20641","category":"65","category_name":"咖啡厅","address":"天平路"},{"poiid":"B2094757D464ABF9439C","title":"棒约翰比萨 衡山店 Papa John's Pizza","lon":"121.44805620007","lat":"31.207111525182","category":"94","category_name":"西餐厅","address":"徐汇区衡山路4号(近乌鲁木齐南路)"},{"poiid":"B2094757D069A0F44998","title":"Bulldog Shanghai(英国斗牛犬)","lon":"121.44805362","lat":"31.208418656","category":"172","category_name":"酒吧","address":"徐汇区乌鲁木齐南路1号(衡山路美领馆对面)"},{"poiid":"B2094753D26CA3FE449A","title":"季风书园","lon":"121.444476","lat":"31.208212","category":"500","category_name":"未知分类","address":"上海市 上海市淮海中路1555号"},{"poiid":"B2094757D569A0FB4892","title":"伊丽包子点心","lon":"121.4450831","lat":"31.20685111","category":"68","category_name":"快餐厅","address":"徐汇区高安路1弄11号侧(近淮海中路)"},{"poiid":"B2094655D36CA6FE459E","title":"高安路淮海中路","lon":"121.44312","lat":"31.20773","category":"38","category_name":"公交车站","address":""},{"poiid":"B2094655D36DA6FE449F","title":"上海图书馆","lon":"121.44394","lat":"31.20779","category":"181","category_name":"图书馆","address":"徐汇区淮海中路1555号(近高安路)"},{"poiid":"B2094757D068AAFE489F","title":"复兴西路","lon":"121.443012","lat":"31.208405","category":"46","category_name":"楼宇","address":"上海永福路"},{"poiid":"B2094757D06FA3FD4598","title":"衡山路","lon":"121.44432","lat":"31.20163","category":"260","category_name":"其他","address":"徐汇区衡山路(衡山路吴兴路)"},{"poiid":"B2094753D76FAAFA449C","title":"上海滩国泰旗舰店","lon":"121.466011","lat":"31.216125","category":"249","category_name":"购物服务","address":"淮海中路868号"},{"poiid":"B209475CD564A7F8439E","title":"上海滩中信泰富店","lon":"121.45602","lat":"31.22851","category":"119","category_name":"商场","address":"\"南京西路1168号中信泰富广场，店铺号221.\r\n\""},{"poiid":"B2094654DA6DA7F9479B","title":"基督教国际礼拜堂","lon":"121.44808","lat":"31.20635","category":"245","category_name":"教堂","address":"徐汇区衡山路53号(近乌鲁木齐路)"},{"poiid":"B2094757D06EAAF54992","title":"JZ club(爵士俱乐部)","lon":"121.44488035","lat":"31.210675495","category":"172","category_name":"酒吧","address":"徐汇区复兴西路46号(近乌鲁木齐中路)"},{"poiid":"B2094757D66DA4FD4499","title":"菲芘酒吧","lon":"121.447201886","lat":"31.2057479523","category":"174","category_name":"迪厅","address":"上海衡山路10号甲一层"},{"poiid":"B2094655D26AABFE469C","title":"SOHOCLUB","lon":"121.44773","lat":"31.20662","category":"247","category_name":"餐饮美食","address":"徐汇区衡山路10号"},{"poiid":"B2094757D06EAAFB429A","title":"1984bookstore","lon":"121.442412","lat":"31.208109","category":"260","category_name":"其他","address":"徐汇区湖南路11号(永福路口)"},{"poiid":"B2094757DB6FA2FB499A","title":"衡山路十二号豪华精选酒店","lon":"121.44645321431","lat":"31.20471978314","category":"215","category_name":"三星级宾馆","address":"徐汇区衡山路12号"},{"poiid":"B2094757D06EAAFF4899","title":"星巴克 衡山路店 Starbucks Cafe","lon":"121.446764054","lat":"31.206216793","category":"260","category_name":"其他","address":"徐汇区衡山路4号领馆广场内(近乌鲁木齐南路)"},{"poiid":"B2094757D06EAAFC4292","title":"菲比","lon":"121.44647479","lat":"31.204945495","category":"172","category_name":"酒吧","address":"徐汇区衡山路10号欧登大厦1楼(近乌鲁木齐南路)"},{"poiid":"B2094757D06AA2FB4299","title":"MT3","lon":"121.44685058","lat":"31.205462946","category":"500","category_name":"未知分类","address":"上海衡山路10号"},{"poiid":"B2094757D06FAAF9499C","title":"一哥海鲜火锅","lon":"121.446774586","lat":"31.2056789509","category":"86","category_name":"火锅店","address":"徐汇区衡山路10号(近高安路)"},{"poiid":"B2094654DB69A7FD4193","title":"雍福会","lon":"121.44264","lat":"31.20911","category":"76","category_name":"上海菜","address":"徐汇区永福路200号原英国领事馆(近湖南路)"},{"poiid":"B2094654DA6DA7F94592","title":"欧登","lon":"121.44657","lat":"31.20556","category":"46","category_name":"楼宇","address":"上海衡山路10号甲"},{"poiid":"B2094757D068A1F94798","title":"图安蟹味馆","lon":"121.445137232","lat":"31.2068752777","category":"257","category_name":"中餐厅","address":"徐汇区高安路1号上海图书馆后花园(近淮海中路)"},{"poiid":"B2094654DA6DA6FC4898","title":"上海图书馆(东门)","lon":"121.44525","lat":"31.20854","category":"181","category_name":"图书馆","address":"淮海中路1555号"},{"poiid":"B2094757DA65A4F9449A","title":"Pizza Marzano","lon":"121.4464178961901","lat":"31.20727251752392","category":"247","category_name":"餐饮美食","address":"永嘉庭"},{"poiid":"B2094757D06FA3FF449D","title":"上海图书馆地铁站","lon":"121.44394","lat":"31.207792","category":"36","category_name":"地铁站","address":"上海轨道交通 十号线 轨交上海图书馆站 10"},{"poiid":"B2094757D468AAFA439F","title":"Restaurant Cuivre","lon":"121.445625","lat":"31.209066","category":"94","category_name":"西餐厅","address":"徐汇区淮海中路1502号(近乌鲁木齐路)"},{"poiid":"B2094654DB64A6F9499A","title":"美国领事馆","lon":"121.44721","lat":"31.2088","category":"252","category_name":"楼宇机构","address":"乌鲁木齐中路"},{"poiid":"B2094757D068A3FA409D","title":"衡山路乌鲁木齐南路","lon":"121.4482784","lat":"31.2070633","category":"500","category_name":"未知分类","address":"上海衡山路乌鲁木齐南路"},{"poiid":"B2094654DB65A1FF439C","title":"Boonna Cafe(淮海中路店)","lon":"121.44225","lat":"31.20713","category":"260","category_name":"其他","address":"徐汇区淮海中路1690号(近吴兴路)"},{"poiid":"B2094757D069A4F44493","title":"Club Phebe","lon":"121.44689243","lat":"31.205410175","category":"500","category_name":"未知分类","address":"上海衡山路乌鲁木齐路"},{"poiid":"B2094757D068A2F54493","title":"博爱医院","lon":"121.44417408","lat":"31.208371816","category":"162","category_name":"医院","address":"卢湾区淮海中路1590号(近高安路)"},{"poiid":"B2094750DA65A7F5429B","title":"彭于晏妈妈的小城故事店里面","lon":"121.447845","lat":"31.208089","category":"247","category_name":"餐饮美食","address":null},{"poiid":"B2094757D068A4F5429E","title":"La casbah coffee","lon":"121.44471633","lat":"31.208303673","category":"65","category_name":"咖啡厅","address":"上海市淮海中路1554号"},{"poiid":"B2094757D068A4FF459E","title":"巴犀烧烤屋","lon":"121.44698","lat":"31.20507","category":"94","category_name":"西餐厅","address":"徐汇区衡山路4号领馆广场内(近乌鲁木齐南路)"},{"poiid":"B2094757D068A0FD4293","title":"高安三号咖啡馆","lon":"121.443715373","lat":"31.206431725","category":"65","category_name":"咖啡厅","address":"徐汇区高安路3号(淮海中路康平路间)"},{"poiid":"B2094655D26EA1FD429D","title":"一千零一夜 1001 Nights Restaurant","lon":"121.446904988","lat":"31.207006173934","category":"247","category_name":"餐饮美食","address":"徐汇区衡山路4号领馆广场内(近乌鲁木齐南路)"},{"poiid":"B2094757D468AAFD4099","title":"鲁马滋 Rumors Coffee","lon":"121.442311","lat":"31.208188","category":"65","category_name":"咖啡厅","address":"徐汇区湖南路9号甲(近上海图书馆)"},{"poiid":"B2094654DB6AA7FB4498","title":"市图书馆","lon":"121.44555","lat":"31.2068","category":"181","category_name":"图书馆","address":"徐汇区淮海中路1555号"},{"poiid":"B2094655D26EAAF84199","title":"唐韵茶坊 徐汇店","lon":"121.44775275124","lat":"31.205628558528","category":"66","category_name":"茶艺馆","address":"徐汇区衡山路199号(高安路乌鲁木齐路间)"},{"poiid":"B2094752D564AAFF4399","title":"季风书店（图书馆）","lon":"121.444154","lat":"31.207542","category":"248","category_name":"生活娱乐","address":"十号线图书馆站"},{"poiid":"B2094757D068ABFE439C","title":"鸿艺会会所(淮海中路店)","lon":"121.44689","lat":"31.2094","category":"221","category_name":"健身中心","address":"徐汇区淮海中路1500号(近乌鲁木齐中路)"},{"poiid":"B2094757DA69A2FB4893","title":"上海真爱酒吧Truelove","lon":"121.44662487568","lat":"31.205536497467","category":"172","category_name":"酒吧","address":"徐汇区衡山路10号(近高安路)"},{"poiid":"B2094752D669A6F8449B","title":"鼎王无老养生锅","lon":"121.444528","lat":"31.209638","category":"500","category_name":"未知分类","address":"衡山路2号甲香樟花园"},{"poiid":"B2094757D06AA4F84298","title":"Hunan House","lon":"121.445337989","lat":"31.209769788","category":"77","category_name":"湖南菜","address":"徐汇区复兴西路49弄2号(近乌鲁木齐路)"},{"poiid":"B209475CDA6EA7FE4193","title":"Hooters（淮海店）","lon":"121.445639","lat":"31.208961","category":"247","category_name":"餐饮美食","address":"上海市淮海中路1498号1号楼一层"},{"poiid":"B2094654DA6DA7F9459C","title":"MT Club(衡山路店)","lon":"121.44657","lat":"31.20556","category":"248","category_name":"生活娱乐","address":"上海徐汇区衡山路10号欧登保龄球甲2楼"},{"poiid":"B2094654DA6DA6FC4899","title":"上海图书馆(南门)","lon":"121.44396","lat":"31.20664","category":"181","category_name":"图书馆","address":"高安路"},{"poiid":"B2094757D568A6F9409A","title":"上海图书馆读者餐厅","lon":"121.4447469","lat":"31.20753194","category":"68","category_name":"快餐厅","address":"徐汇区淮海中路1555号上海图书馆1楼(高安路口)"},{"poiid":"B2094654DA6DA7F9469E","title":"Starbucks Coffee(衡山路)","lon":"121.44757","lat":"31.20641","category":"65","category_name":"咖啡厅","address":"天平路"},{"poiid":"B2094757D464ABF9439C","title":"棒约翰比萨 衡山店 Papa John's Pizza","lon":"121.44805620007","lat":"31.207111525182","category":"94","category_name":"西餐厅","address":"徐汇区衡山路4号(近乌鲁木齐南路)"},{"poiid":"B2094757D069A0F44998","title":"Bulldog Shanghai(英国斗牛犬)","lon":"121.44805362","lat":"31.208418656","category":"172","category_name":"酒吧","address":"徐汇区乌鲁木齐南路1号(衡山路美领馆对面)"},{"poiid":"B2094753D26CA3FE449A","title":"季风书园","lon":"121.444476","lat":"31.208212","category":"500","category_name":"未知分类","address":"上海市 上海市淮海中路1555号"},{"poiid":"B2094757D569A0FB4892","title":"伊丽包子点心","lon":"121.4450831","lat":"31.20685111","category":"68","category_name":"快餐厅","address":"徐汇区高安路1弄11号侧(近淮海中路)"},{"poiid":"B2094655D36CA6FE459E","title":"高安路淮海中路","lon":"121.44312","lat":"31.20773","category":"38","category_name":"公交车站","address":""},{"poiid":"B2094655D36DA6FE449F","title":"上海图书馆","lon":"121.44394","lat":"31.20779","category":"181","category_name":"图书馆","address":"徐汇区淮海中路1555号(近高安路)"},{"poiid":"B2094757D068AAFE489F","title":"复兴西路","lon":"121.443012","lat":"31.208405","category":"46","category_name":"楼宇","address":"上海永福路"},{"poiid":"B2094757D06FA3FD4598","title":"衡山路","lon":"121.44432","lat":"31.20163","category":"260","category_name":"其他","address":"徐汇区衡山路(衡山路吴兴路)"},{"poiid":"B2094753D76FAAFA449C","title":"上海滩国泰旗舰店","lon":"121.466011","lat":"31.216125","category":"249","category_name":"购物服务","address":"淮海中路868号"},{"poiid":"B209475CD564A7F8439E","title":"上海滩中信泰富店","lon":"121.45602","lat":"31.22851","category":"119","category_name":"商场","address":"\"南京西路1168号中信泰富广场，店铺号221.\r\n\""},{"poiid":"B2094654DA6DA7F9479B","title":"基督教国际礼拜堂","lon":"121.44808","lat":"31.20635","category":"245","category_name":"教堂","address":"徐汇区衡山路53号(近乌鲁木齐路)"},{"poiid":"B2094757D06EAAF54992","title":"JZ club(爵士俱乐部)","lon":"121.44488035","lat":"31.210675495","category":"172","category_name":"酒吧","address":"徐汇区复兴西路46号(近乌鲁木齐中路)"},{"poiid":"B2094757D66DA4FD4499","title":"菲芘酒吧","lon":"121.447201886","lat":"31.2057479523","category":"174","category_name":"迪厅","address":"上海衡山路10号甲一层"},{"poiid":"B2094655D26AABFE469C","title":"SOHOCLUB","lon":"121.44773","lat":"31.20662","category":"247","category_name":"餐饮美食","address":"徐汇区衡山路10号"},{"poiid":"B2094757D06EAAFB429A","title":"1984bookstore","lon":"121.442412","lat":"31.208109","category":"260","category_name":"其他","address":"徐汇区湖南路11号(永福路口)"},{"poiid":"B2094757DB6FA2FB499A","title":"衡山路十二号豪华精选酒店","lon":"121.44645321431","lat":"31.20471978314","category":"215","category_name":"三星级宾馆","address":"徐汇区衡山路12号"},{"poiid":"B2094757D06EAAFF4899","title":"星巴克 衡山路店 Starbucks Cafe","lon":"121.446764054","lat":"31.206216793","category":"260","category_name":"其他","address":"徐汇区衡山路4号领馆广场内(近乌鲁木齐南路)"},{"poiid":"B2094757D06EAAFC4292","title":"菲比","lon":"121.44647479","lat":"31.204945495","category":"172","category_name":"酒吧","address":"徐汇区衡山路10号欧登大厦1楼(近乌鲁木齐南路)"},{"poiid":"B2094757D06AA2FB4299","title":"MT3","lon":"121.44685058","lat":"31.205462946","category":"500","category_name":"未知分类","address":"上海衡山路10号"},{"poiid":"B2094757D06FAAF9499C","title":"一哥海鲜火锅","lon":"121.446774586","lat":"31.2056789509","category":"86","category_name":"火锅店","address":"徐汇区衡山路10号(近高安路)"},{"poiid":"B2094654DB69A7FD4193","title":"雍福会","lon":"121.44264","lat":"31.20911","category":"76","category_name":"上海菜","address":"徐汇区永福路200号原英国领事馆(近湖南路)"},{"poiid":"B2094654DA6DA7F94592","title":"欧登","lon":"121.44657","lat":"31.20556","category":"46","category_name":"楼宇","address":"上海衡山路10号甲"},{"poiid":"B2094757D068A1F94798","title":"图安蟹味馆","lon":"121.445137232","lat":"31.2068752777","category":"257","category_name":"中餐厅","address":"徐汇区高安路1号上海图书馆后花园(近淮海中路)"},{"poiid":"B2094654DA6DA6FC4898","title":"上海图书馆(东门)","lon":"121.44525","lat":"31.20854","category":"181","category_name":"图书馆","address":"淮海中路1555号"},{"poiid":"B2094757DA65A4F9449A","title":"Pizza Marzano","lon":"121.4464178961901","lat":"31.20727251752392","category":"247","category_name":"餐饮美食","address":"永嘉庭"},{"poiid":"B2094757D06FA3FF449D","title":"上海图书馆地铁站","lon":"121.44394","lat":"31.207792","category":"36","category_name":"地铁站","address":"上海轨道交通 十号线 轨交上海图书馆站 10"},{"poiid":"B2094757D468AAFA439F","title":"Restaurant Cuivre","lon":"121.445625","lat":"31.209066","category":"94","category_name":"西餐厅","address":"徐汇区淮海中路1502号(近乌鲁木齐路)"},{"poiid":"B2094654DB64A6F9499A","title":"美国领事馆","lon":"121.44721","lat":"31.2088","category":"252","category_name":"楼宇机构","address":"乌鲁木齐中路"},{"poiid":"B2094757D068A3FA409D","title":"衡山路乌鲁木齐南路","lon":"121.4482784","lat":"31.2070633","category":"500","category_name":"未知分类","address":"上海衡山路乌鲁木齐南路"},{"poiid":"B2094654DB65A1FF439C","title":"Boonna Cafe(淮海中路店)","lon":"121.44225","lat":"31.20713","category":"260","category_name":"其他","address":"徐汇区淮海中路1690号(近吴兴路)"},{"poiid":"B2094757D069A4F44493","title":"Club Phebe","lon":"121.44689243","lat":"31.205410175","category":"500","category_name":"未知分类","address":"上海衡山路乌鲁木齐路"},{"poiid":"B2094757D068A2F54493","title":"博爱医院","lon":"121.44417408","lat":"31.208371816","category":"162","category_name":"医院","address":"卢湾区淮海中路1590号(近高安路)"},{"poiid":"B2094750DA65A7F5429B","title":"彭于晏妈妈的小城故事店里面","lon":"121.447845","lat":"31.208089","category":"247","category_name":"餐饮美食","address":null},{"poiid":"B2094757D068A4F5429E","title":"La casbah coffee","lon":"121.44471633","lat":"31.208303673","category":"65","category_name":"咖啡厅","address":"上海市淮海中路1554号"},{"poiid":"B2094757D068A4FF459E","title":"巴犀烧烤屋","lon":"121.44698","lat":"31.20507","category":"94","category_name":"西餐厅","address":"徐汇区衡山路4号领馆广场内(近乌鲁木齐南路)"},{"poiid":"B2094757D068A0FD4293","title":"高安三号咖啡馆","lon":"121.443715373","lat":"31.206431725","category":"65","category_name":"咖啡厅","address":"徐汇区高安路3号(淮海中路康平路间)"},{"poiid":"B2094655D26EA1FD429D","title":"一千零一夜 1001 Nights Restaurant","lon":"121.446904988","lat":"31.207006173934","category":"247","category_name":"餐饮美食","address":"徐汇区衡山路4号领馆广场内(近乌鲁木齐南路)"},{"poiid":"B2094757D468AAFD4099","title":"鲁马滋 Rumors Coffee","lon":"121.442311","lat":"31.208188","category":"65","category_name":"咖啡厅","address":"徐汇区湖南路9号甲(近上海图书馆)"},{"poiid":"B2094654DB6AA7FB4498","title":"市图书馆","lon":"121.44555","lat":"31.2068","category":"181","category_name":"图书馆","address":"徐汇区淮海中路1555号"},{"poiid":"B2094655D26EAAF84199","title":"唐韵茶坊 徐汇店","lon":"121.44775275124","lat":"31.205628558528","category":"66","category_name":"茶艺馆","address":"徐汇区衡山路199号(高安路乌鲁木齐路间)"},{"poiid":"B2094752D564AAFF4399","title":"季风书店（图书馆）","lon":"121.444154","lat":"31.207542","category":"248","category_name":"生活娱乐","address":"十号线图书馆站"},{"poiid":"B2094757D068ABFE439C","title":"鸿艺会会所(淮海中路店)","lon":"121.44689","lat":"31.2094","category":"221","category_name":"健身中心","address":"徐汇区淮海中路1500号(近乌鲁木齐中路)"},{"poiid":"B2094757DA69A2FB4893","title":"上海真爱酒吧Truelove","lon":"121.44662487568","lat":"31.205536497467","category":"172","category_name":"酒吧","address":"徐汇区衡山路10号(近高安路)"},{"poiid":"B2094752D669A6F8449B","title":"鼎王无老养生锅","lon":"121.444528","lat":"31.209638","category":"500","category_name":"未知分类","address":"衡山路2号甲香樟花园"},{"poiid":"B2094757D06AA4F84298","title":"Hunan House","lon":"121.445337989","lat":"31.209769788","category":"77","category_name":"湖南菜","address":"徐汇区复兴西路49弄2号(近乌鲁木齐路)"},{"poiid":"B209475CDA6EA7FE4193","title":"Hooters（淮海店）","lon":"121.445639","lat":"31.208961","category":"247","category_name":"餐饮美食","address":"上海市淮海中路1498号1号楼一层"},{"poiid":"B2094654DA6DA7F9459C","title":"MT Club(衡山路店)","lon":"121.44657","lat":"31.20556","category":"248","category_name":"生活娱乐","address":"上海徐汇区衡山路10号欧登保龄球甲2楼"},{"poiid":"B2094654DA6DA6FC4899","title":"上海图书馆(南门)","lon":"121.44396","lat":"31.20664","category":"181","category_name":"图书馆","address":"高安路"},{"poiid":"B2094757D568A6F9409A","title":"上海图书馆读者餐厅","lon":"121.4447469","lat":"31.20753194","category":"68","category_name":"快餐厅","address":"徐汇区淮海中路1555号上海图书馆1楼(高安路口)"},{"poiid":"B2094654DA6DA7F9469E","title":"Starbucks Coffee(衡山路)","lon":"121.44757","lat":"31.20641","category":"65","category_name":"咖啡厅","address":"天平路"},{"poiid":"B2094757D464ABF9439C","title":"棒约翰比萨 衡山店 Papa John's Pizza","lon":"121.44805620007","lat":"31.207111525182","category":"94","category_name":"西餐厅","address":"徐汇区衡山路4号(近乌鲁木齐南路)"},{"poiid":"B2094757D069A0F44998","title":"Bulldog Shanghai(英国斗牛犬)","lon":"121.44805362","lat":"31.208418656","category":"172","category_name":"酒吧","address":"徐汇区乌鲁木齐南路1号(衡山路美领馆对面)"},{"poiid":"B2094753D26CA3FE449A","title":"季风书园","lon":"121.444476","lat":"31.208212","category":"500","category_name":"未知分类","address":"上海市 上海市淮海中路1555号"},{"poiid":"B2094757D569A0FB4892","title":"伊丽包子点心","lon":"121.4450831","lat":"31.20685111","category":"68","category_name":"快餐厅","address":"徐汇区高安路1弄11号侧(近淮海中路)"},{"poiid":"B2094655D36CA6FE459E","title":"高安路淮海中路","lon":"121.44312","lat":"31.20773","category":"38","category_name":"公交车站","address":""}]