[{"poiid":"B2094655D269A4FA419B","title":"徐汇游泳馆","lon":"121.45713","lat":"31.19343","category":"231","category_name":"游泳馆","address":"徐汇区枫林路329号(近零陵路)"},{"poiid":"B2094757D06FA0F84793","title":"耶里夏丽 枫林店","lon":"121.4546063054","lat":"31.198207435713","category":"90","category_name":"清真餐馆","address":"徐汇区枫林路147号(近清真路)"},{"poiid":"B2094757D064A7FC4793","title":"上海徐汇国际行政公寓","lon":"121.453992","lat":"31.192109","category":"500","category_name":"未知分类","address":"徐汇区东安路255号(近斜土路)"},{"poiid":"B2094753D76FAAFA449C","title":"上海滩国泰旗舰店","lon":"121.466011","lat":"31.216125","category":"249","category_name":"购物服务","address":"淮海中路868号"},{"poiid":"B2094655D26CA4F84898","title":"复旦大学附属中山医院住院部","lon":"121.45423","lat":"31.1975","category":"265","category_name":"知名企业","address":"枫林路180号"},{"poiid":"B2094757D064A0F94198","title":"中山医院住院部1号楼","lon":"121.454551738","lat":"31.1979389123","category":"162","category_name":"医院","address":"上海枫林路180号"},{"poiid":"B2094654DA6DA5F9419D","title":"复旦大学护理学院(枫林路)","lon":"121.45767","lat":"31.1938","category":"52","category_name":"高等院校","address":"徐汇区枫林路305"},{"poiid":"B2094757D068A5FB469B","title":"复旦大学附属儿科医院(枫林路分院)","lon":"121.45477","lat":"31.19753","category":"162","category_name":"医院","address":"上海徐汇区枫林路183号(近斜土路)"},{"poiid":"B2094757D064A1F4429C","title":"上海昆虫博物馆","lon":"121.45702","lat":"31.19306","category":"179","category_name":"音乐厅","address":"徐汇区枫林路300号(近斜土路)"},{"poiid":"B2094757D06FAAFC4892","title":"爱邦大厦","lon":"121.454","lat":"31.1946","category":"46","category_name":"楼宇","address":"卢湾区复兴中路369号(马当路口)"},{"poiid":"B2094757D069A3FC429B","title":"安吉汽车销售","lon":"121.453248","lat":"31.193429577","category":"158","category_name":"汽车销售","address":"徐汇区东安路239号(近斜土路)"},{"poiid":"B2094655D36CA6F4459E","title":"东安路斜土路","lon":"121.45272","lat":"31.19408","category":"38","category_name":"公交车站","address":""},{"poiid":"B2094655D36CA6F84392","title":"枫林路斜土路","lon":"121.45569","lat":"31.1961","category":"38","category_name":"公交车站","address":""},{"poiid":"B2094757D06FA4FB409A","title":"串串香麻辣烫(枫林路店)","lon":"121.45532","lat":"31.19775","category":"68","category_name":"快餐厅","address":"徐汇区枫林路155号(近中山医院)"},{"poiid":"B2094654DA6DA5F8429F","title":"上海第二医科大学瑞金学生园区","lon":"121.45854","lat":"31.19628","category":"47","category_name":"住宅区","address":"小木桥路316"},{"poiid":"B2094655D269AAFC409F","title":"上广电假日酒店","lon":"121.45635","lat":"31.19592","category":"247","category_name":"餐饮美食","address":"徐汇区斜土路1646号(近枫林路)"},{"poiid":"B2094757D064A5F4489C","title":"4号线东安路站","lon":"121.457173138","lat":"31.1970184927","category":"500","category_name":"未知分类","address":"上海东安路331号"},{"poiid":"B2094654DA6DA5F94092","title":"亚都餐厅","lon":"121.45615","lat":"31.19542","category":"68","category_name":"快餐厅","address":"徐汇区枫林路235号(斜土路口)"},{"poiid":"B2094757D068A3FA499D","title":"中山医院住院部三号楼","lon":"121.453937593","lat":"31.1983534856","category":"162","category_name":"医院","address":"上海徐汇区枫林路180号(近医学院路)"},{"poiid":"B2094757D06BABF9489D","title":"四季园 Seasons' Garden","lon":"121.452327588","lat":"31.1956166433","category":"47","category_name":"住宅区","address":"上海徐汇区东安路149弄(近斜土路)"},{"poiid":"B2094757D06FA6FA489A","title":"85度C(东安店)","lon":"121.454341838","lat":"31.1919660094","category":"112","category_name":"糕饼店","address":"徐汇区东安路261-1号A区(东安路零陵路)"},{"poiid":"B2094655D269AAFA479A","title":"牛奶棚 枫林路店","lon":"121.456290054","lat":"31.194694793","category":"67","category_name":"甜品店","address":"徐汇区枫林路251号(近斜土路)"},{"poiid":"B2094654DA6DA2F4409D","title":"爱建大厦","lon":"121.4548438111","lat":"31.195258627644","category":"46","category_name":"楼宇","address":"宛平南路590弄"},{"poiid":"B2094655D268A3FF4798","title":"斜土路1664弄小区","lon":"121.45564","lat":"31.19507","category":"47","category_name":"住宅区","address":"斜土路1664弄"},{"poiid":"B2094757D16EABFB4499","title":"中山医院住院8号楼","lon":"121.45390858","lat":"31.196357768","category":"162","category_name":"医院","address":"上海市徐汇区枫林路180号中山医院住院部"},{"poiid":"B2094757D065A3FC4093","title":"恒昌花园","lon":"121.456","lat":"31.1955","category":"47","category_name":"住宅区","address":"恒昌花园位于徐汇宛平南路521号"},{"poiid":"B2094655D268A3FF479B","title":"斜土路1664弄小区(北门)","lon":"121.45549","lat":"31.19544","category":"47","category_name":"住宅区","address":"斜土路1664弄"},{"poiid":"B2094654DA6DA5F8479E","title":"上海理工大学西南进修学院教学部","lon":"121.45331","lat":"31.19465","category":"53","category_name":"成人教育","address":"斜土路2000号"},{"poiid":"B2094654DA6DAAFC4798","title":"上儿商务楼","lon":"121.45547","lat":"31.19588","category":"46","category_name":"楼宇","address":"斜土路1755"},{"poiid":"B2094655D268A3FF479A","title":"西摩小区","lon":"121.45515","lat":"31.19498","category":"47","category_name":"住宅区","address":"斜土路1674弄"},{"poiid":"B2094655D268A3FF4693","title":"西摩小区(北门)","lon":"121.45501","lat":"31.19532","category":"47","category_name":"住宅区","address":"斜土路1674弄"},{"poiid":"B2094654DA6DA5F9429C","title":"中国科学院上海有机化学研究所","lon":"121.45713","lat":"31.19247","category":"191","category_name":"科研机构","address":"枫林路354号"},{"poiid":"B2094757D069A1F9419D","title":"中山医院10号楼手术室","lon":"121.453940275","lat":"31.1983488969","category":"162","category_name":"医院","address":"上海徐汇区枫林路180号(近医学院路)"},{"poiid":"B2094753D56AA0F8479E","title":"來福士STAYREAL","lon":"121.453758","lat":"31.194503","category":"247","category_name":"餐饮美食","address":"上海市 人民廣場南京路"},{"poiid":"B2094757D06AA6FF4098","title":"神話LEGEND","lon":"121.457754","lat":"31.19685","category":"148","category_name":"美容美发店","address":"上海徐匯區斜土路1579號"},{"poiid":"B2094757D168A0FF479E","title":"复旦大学附属中山医院五号楼","lon":"121.452995311","lat":"31.1973022872","category":"162","category_name":"医院","address":"上海枫林路180号"},{"poiid":"B2094654DA6DAAFC4592","title":"新天地(斜土路)","lon":"121.45468","lat":"31.19554","category":"141","category_name":"服装鞋帽皮具店","address":"斜土路1787识别"},{"poiid":"B2094757D06AA6F4459A","title":"金星苑","lon":"121.45683","lat":"31.195597","category":"500","category_name":"未知分类","address":"华发小区位于徐汇华发路176号"},{"poiid":"B2094654DA6DA5F9409D","title":"上海玛依塔柯宾馆","lon":"121.45616","lat":"31.19548","category":"250","category_name":"公园户外","address":"枫林路235"},{"poiid":"B2094757D66DAAFB419E","title":"俺屋","lon":"121.455638","lat":"31.195071","category":"500","category_name":"未知分类","address":"上海斜土路1664弄"},{"poiid":"B2094654DA6DAAFC459C","title":"尊爵台球俱乐部","lon":"121.45463","lat":"31.19552","category":"171","category_name":"台球厅","address":""},{"poiid":"B2094757D06BAAFA4599","title":"中山医院住院部九号楼","lon":"121.454636586","lat":"31.1974707905","category":"500","category_name":"未知分类","address":"上海市徐汇区肇嘉浜路"},{"poiid":"B2094654DA6DA5F94192","title":"中国科学院上海生命科学研究院植物生理生态研究所","lon":"121.45526","lat":"31.1936","category":"191","category_name":"科研机构","address":"枫林路300号"},{"poiid":"B2094757D06BA5F8479A","title":"尊爵台球工房(斜土店)","lon":"121.45454","lat":"31.19498","category":"171","category_name":"台球厅","address":"徐汇区斜土路1843号(近枫林路)"},{"poiid":"B2094757D06BA0F54193","title":"中国工商银行(医学院路支行)","lon":"121.4561","lat":"31.19517","category":"150","category_name":"银行","address":"上海徐汇区斜土路1646号近枫林路  "},{"poiid":"B2094654DB65A0FD4092","title":"快客No.891","lon":"121.45547","lat":"31.19624","category":"117","category_name":"便民商店/便利店","address":"枫林路200"},{"poiid":"B2094757D169A4FF439B","title":"隧道二线大木桥路斜土路站","lon":"121.456021738","lat":"31.1951355526","category":"500","category_name":"未知分类","address":"上海大木桥路斜土路"},{"poiid":"B2094757D16AA1F5429A","title":"中国农业银行(枫林支行)","lon":"121.45583","lat":"31.19581","category":"150","category_name":"银行","address":"徐汇区斜土路1755号(枫林路斜土路)"},{"poiid":"B2094757D06FA4FB4793","title":"巴士二汽斜土路停车场","lon":"121.4533081","lat":"31.194658279","category":"38","category_name":"公交车站","address":"上海徐汇区斜土路2000号"},{"poiid":"B2094654DA6DAAFC4693","title":"润达网吧","lon":"121.45505","lat":"31.19566","category":"176","category_name":"网吧","address":"徐汇区斜土路1761号(枫林路口)"},{"poiid":"B2094655D269A4FA419B","title":"徐汇游泳馆","lon":"121.45713","lat":"31.19343","category":"231","category_name":"游泳馆","address":"徐汇区枫林路329号(近零陵路)"},{"poiid":"B2094757D06FA0F84793","title":"耶里夏丽 枫林店","lon":"121.4546063054","lat":"31.198207435713","category":"90","category_name":"清真餐馆","address":"徐汇区枫林路147号(近清真路)"},{"poiid":"B2094757D064A7FC4793","title":"上海徐汇国际行政公寓","lon":"121.453992","lat":"31.192109","category":"500","category_name":"未知分类","address":"徐汇区东安路255号(近斜土路)"},{"poiid":"B2094753D76FAAFA449C","title":"上海滩国泰旗舰店","lon":"121.466011","lat":"31.216125","category":"249","category_name":"购物服务","address":"淮海中路868号"},{"poiid":"B2094655D26CA4F84898","title":"复旦大学附属中山医院住院部","lon":"121.45423","lat":"31.1975","category":"265","category_name":"知名企业","address":"枫林路180号"},{"poiid":"B2094757D064A0F94198","title":"中山医院住院部1号楼","lon":"121.454551738","lat":"31.1979389123","category":"162","category_name":"医院","address":"上海枫林路180号"},{"poiid":"B2094654DA6DA5F9419D","title":"复旦大学护理学院(枫林路)","lon":"121.45767","lat":"31.1938","category":"52","category_name":"高等院校","address":"徐汇区枫林路305"},{"poiid":"B2094757D068A5FB469B","title":"复旦大学附属儿科医院(枫林路分院)","lon":"121.45477","lat":"31.19753","category":"162","category_name":"医院","address":"上海徐汇区枫林路183号(近斜土路)"},{"poiid":"B2094757D064A1F4429C","title":"上海昆虫博物馆","lon":"121.45702","lat":"31.19306","category":"179","category_name":"音乐厅","address":"徐汇区枫林路300号(近斜土路)"},{"poiid":"B2094757D06FAAFC4892","title":"爱邦大厦","lon":"121.454","lat":"31.1946","category":"46","category_name":"楼宇","address":"卢湾区复兴中路369号(马当路口)"},{"poiid":"B2094757D069A3FC429B","title":"安吉汽车销售","lon":"121.453248","lat":"31.193429577","category":"158","category_name":"汽车销售","address":"徐汇区东安路239号(近斜土路)"},{"poiid":"B2094655D36CA6F4459E","title":"东安路斜土路","lon":"121.45272","lat":"31.19408","category":"38","category_name":"公交车站","address":""},{"poiid":"B2094655D36CA6F84392","title":"枫林路斜土路","lon":"121.45569","lat":"31.1961","category":"38","category_name":"公交车站","address":""},{"poiid":"B2094757D06FA4FB409A","title":"串串香麻辣烫(枫林路店)","lon":"121.45532","lat":"31.19775","category":"68","category_name":"快餐厅","address":"徐汇区枫林路155号(近中山医院)"},{"poiid":"B2094654DA6DA5F8429F","title":"上海第二医科大学瑞金学生园区","lon":"121.45854","lat":"31.19628","category":"47","category_name":"住宅区","address":"小木桥路316"},{"poiid":"B2094655D269AAFC409F","title":"上广电假日酒店","lon":"121.45635","lat":"31.19592","category":"247","category_name":"餐饮美食","address":"徐汇区斜土路1646号(近枫林路)"},{"poiid":"B2094757D064A5F4489C","title":"4号线东安路站","lon":"121.457173138","lat":"31.1970184927","category":"500","category_name":"未知分类","address":"上海东安路331号"},{"poiid":"B2094654DA6DA5F94092","title":"亚都餐厅","lon":"121.45615","lat":"31.19542","category":"68","category_name":"快餐厅","address":"徐汇区枫林路235号(斜土路口)"},{"poiid":"B2094757D068A3FA499D","title":"中山医院住院部三号楼","lon":"121.453937593","lat":"31.1983534856","category":"162","category_name":"医院","address":"上海徐汇区枫林路180号(近医学院路)"},{"poiid":"B2094757D06BABF9489D","title":"四季园 Seasons' Garden","lon":"121.452327588","lat":"31.1956166433","category":"47","category_name":"住宅区","address":"上海徐汇区东安路149弄(近斜土路)"},{"poiid":"B2094757D06FA6FA489A","title":"85度C(东安店)","lon":"121.454341838","lat":"31.1919660094","category":"112","category_name":"糕饼店","address":"徐汇区东安路261-1号A区(东安路零陵路)"},{"poiid":"B2094655D269AAFA479A","title":"牛奶棚 枫林路店","lon":"121.456290054","lat":"31.194694793","category":"67","category_name":"甜品店","address":"徐汇区枫林路251号(近斜土路)"},{"poiid":"B2094654DA6DA2F4409D","title":"爱建大厦","lon":"121.4548438111","lat":"31.195258627644","category":"46","category_name":"楼宇","address":"宛平南路590弄"},{"poiid":"B2094655D268A3FF4798","title":"斜土路1664弄小区","lon":"121.45564","lat":"31.19507","category":"47","category_name":"住宅区","address":"斜土路1664弄"},{"poiid":"B2094757D16EABFB4499","title":"中山医院住院8号楼","lon":"121.45390858","lat":"31.196357768","category":"162","category_name":"医院","address":"上海市徐汇区枫林路180号中山医院住院部"},{"poiid":"B2094757D065A3FC4093","title":"恒昌花园","lon":"121.456","lat":"31.1955","category":"47","category_name":"住宅区","address":"恒昌花园位于徐汇宛平南路521号"},{"poiid":"B2094655D268A3FF479B","title":"斜土路1664弄小区(北门)","lon":"121.45549","lat":"31.19544","category":"47","category_name":"住宅区","address":"斜土路1664弄"},{"poiid":"B2094654DA6DA5F8479E","title":"上海理工大学西南进修学院教学部","lon":"121.45331","lat":"31.19465","category":"53","category_name":"成人教育","address":"斜土路2000号"},{"poiid":"B2094654DA6DAAFC4798","title":"上儿商务楼","lon":"121.45547","lat":"31.19588","category":"46","category_name":"楼宇","address":"斜土路1755"},{"poiid":"B2094655D268A3FF479A","title":"西摩小区","lon":"121.45515","lat":"31.19498","category":"47","category_name":"住宅区","address":"斜土路1674弄"},{"poiid":"B2094655D268A3FF4693","title":"西摩小区(北门)","lon":"121.45501","lat":"31.19532","category":"47","category_name":"住宅区","address":"斜土路1674弄"},{"poiid":"B2094654DA6DA5F9429C","title":"中国科学院上海有机化学研究所","lon":"121.45713","lat":"31.19247","category":"191","category_name":"科研机构","address":"枫林路354号"},{"poiid":"B2094757D069A1F9419D","title":"中山医院10号楼手术室","lon":"121.453940275","lat":"31.1983488969","category":"162","category_name":"医院","address":"上海徐汇区枫林路180号(近医学院路)"},{"poiid":"B2094753D56AA0F8479E","title":"來福士STAYREAL","lon":"121.453758","lat":"31.194503","category":"247","category_name":"餐饮美食","address":"上海市 人民廣場南京路"},{"poiid":"B2094757D06AA6FF4098","title":"神話LEGEND","lon":"121.457754","lat":"31.19685","category":"148","category_name":"美容美发店","address":"上海徐匯區斜土路1579號"},{"poiid":"B2094757D168A0FF479E","title":"复旦大学附属中山医院五号楼","lon":"121.452995311","lat":"31.1973022872","category":"162","category_name":"医院","address":"上海枫林路180号"},{"poiid":"B2094654DA6DAAFC4592","title":"新天地(斜土路)","lon":"121.45468","lat":"31.19554","category":"141","category_name":"服装鞋帽皮具店","address":"斜土路1787识别"},{"poiid":"B2094757D06AA6F4459A","title":"金星苑","lon":"121.45683","lat":"31.195597","category":"500","category_name":"未知分类","address":"华发小区位于徐汇华发路176号"},{"poiid":"B2094654DA6DA5F9409D","title":"上海玛依塔柯宾馆","lon":"121.45616","lat":"31.19548","category":"250","category_name":"公园户外","address":"枫林路235"},{"poiid":"B2094757D66DAAFB419E","title":"俺屋","lon":"121.455638","lat":"31.195071","category":"500","category_name":"未知分类","address":"上海斜土路1664弄"},{"poiid":"B2094654DA6DAAFC459C","title":"尊爵台球俱乐部","lon":"121.45463","lat":"31.19552","category":"171","category_name":"台球厅","address":""},{"poiid":"B2094757D06BAAFA4599","title":"中山医院住院部九号楼","lon":"121.454636586","lat":"31.1974707905","category":"500","category_name":"未知分类","address":"上海市徐汇区肇嘉浜路"},{"poiid":"B2094654DA6DA5F94192","title":"中国科学院上海生命科学研究院植物生理生态研究所","lon":"121.45526","lat":"31.1936","category":"191","category_name":"科研机构","address":"枫林路300号"},{"poiid":"B2094757D06BA5F8479A","title":"尊爵台球工房(斜土店)","lon":"121.45454","lat":"31.19498","category":"171","category_name":"台球厅","address":"徐汇区斜土路1843号(近枫林路)"},{"poiid":"B2094757D06BA0F54193","title":"中国工商银行(医学院路支行)","lon":"121.4561","lat":"31.19517","category":"150","category_name":"银行","address":"上海徐汇区斜土路1646号近枫林路  "},{"poiid":"B2094654DB65A0FD4092","title":"快客No.891","lon":"121.45547","lat":"31.19624","category":"117","category_name":"便民商店/便利店","address":"枫林路200"},{"poiid":"B2094757D169A4FF439B","title":"隧道二线大木桥路斜土路站","lon":"121.456021738","lat":"31.1951355526","category":"500","category_name":"未知分类","address":"上海大木桥路斜土路"},{"poiid":"B2094757D16AA1F5429A","title":"中国农业银行(枫林支行)","lon":"121.45583","lat":"31.19581","category":"150","category_name":"银行","address":"徐汇区斜土路1755号(枫林路斜土路)"},{"poiid":"B2094757D06FA4FB4793","title":"巴士二汽斜土路停车场","lon":"121.4533081","lat":"31.194658279","category":"38","category_name":"公交车站","address":"上海徐汇区斜土路2000号"},{"poiid":"B2094654DA6DAAFC4693","title":"润达网吧","lon":"121.45505","lat":"31.19566","category":"176","category_name":"网吧","address":"徐汇区斜土路1761号(枫林路口)"},{"poiid":"B2094655D269A4FA419B","title":"徐汇游泳馆","lon":"121.45713","lat":"31.19343","category":"231","category_name":"游泳馆","address":"徐汇区枫林路329号(近零陵路)"},{"poiid":"B2094757D06FA0F84793","title":"耶里夏丽 枫林店","lon":"121.4546063054","lat":"31.198207435713","category":"90","category_name":"清真餐馆","address":"徐汇区枫林路147号(近清真路)"},{"poiid":"B2094757D064A7FC4793","title":"上海徐汇国际行政公寓","lon":"121.453992","lat":"31.192109","category":"500","category_name":"未知分类","address":"徐汇区东安路255号(近斜土路)"},{"poiid":"B2094753D76FAAFA449C","title":"上海滩国泰旗舰店","lon":"121.466011","lat":"31.216125","category":"249","category_name":"购物服务","address":"淮海中路868号"},{"poiid":"B2094655D26CA4F84898","title":"复旦大学附属中山医院住院部","lon":"121.45423","lat":"31.1975","category":"265","category_name":"知名企业","address":"枫林路180号"},{"poiid":"B2094757D064A0F94198","title":"中山医院住院部1号楼","lon":"121.454551738","lat":"31.1979389123","category":"162","category_name":"医院","address":"上海枫林路180号"},{"poiid":"B2094654DA6DA5F9419D","title":"复旦大学护理学院(枫林路)","lon":"121.45767","lat":"31.1938","category":"52","category_name":"高等院校","address":"徐汇区枫林路305"},{"poiid":"B2094757D068A5FB469B","title":"复旦大学附属儿科医院(枫林路分院)","lon":"121.45477","lat":"31.19753","category":"162","category_name":"医院","address":"上海徐汇区枫林路183号(近斜土路)"},{"poiid":"B2094757D064A1F4429C","title":"上海昆虫博物馆","lon":"121.45702","lat":"31.19306","category":"179","category_name":"音乐厅","address":"徐汇区枫林路300号(近斜土路)"},{"poiid":"B2094757D06FAAFC4892","title":"爱邦大厦","lon":"121.454","lat":"31.1946","category":"46","category_name":"楼宇","address":"卢湾区复兴中路369号(马当路口)"},{"poiid":"B2094757D069A3FC429B","title":"安吉汽车销售","lon":"121.453248","lat":"31.193429577","category":"158","category_name":"汽车销售","address":"徐汇区东安路239号(近斜土路)"},{"poiid":"B2094655D36CA6F4459E","title":"东安路斜土路","lon":"121.45272","lat":"31.19408","category":"38","category_name":"公交车站","address":""},{"poiid":"B2094655D36CA6F84392","title":"枫林路斜土路","lon":"121.45569","lat":"31.1961","category":"38","category_name":"公交车站","address":""},{"poiid":"B2094757D06FA4FB409A","title":"串串香麻辣烫(枫林路店)","lon":"121.45532","lat":"31.19775","category":"68","category_name":"快餐厅","address":"徐汇区枫林路155号(近中山医院)"},{"poiid":"B2094654DA6DA5F8429F","title":"上海第二医科大学瑞金学生园区","lon":"121.45854","lat":"31.19628","category":"47","category_name":"住宅区","address":"小木桥路316"},{"poiid":"B2094655D269AAFC409F","title":"上广电假日酒店","lon":"121.45635","lat":"31.19592","category":"247","category_name":"餐饮美食","address":"徐汇区斜土路1646号(近枫林路)"},{"poiid":"B2094757D064A5F4489C","title":"4号线东安路站","lon":"121.457173138","lat":"31.1970184927","category":"500","category_name":"未知分类","address":"上海东安路331号"},{"poiid":"B2094654DA6DA5F94092","title":"亚都餐厅","lon":"121.45615","lat":"31.19542","category":"68","category_name":"快餐厅","address":"徐汇区枫林路235号(斜土路口)"},{"poiid":"B2094757D068A3FA499D","title":"中山医院住院部三号楼","lon":"121.453937593","lat":"31.1983534856","category":"162","category_name":"医院","address":"上海徐汇区枫林路180号(近医学院路)"},{"poiid":"B2094757D06BABF9489D","title":"四季园 Seasons' Garden","lon":"121.452327588","lat":"31.1956166433","category":"47","category_name":"住宅区","address":"上海徐汇区东安路149弄(近斜土路)"},{"poiid":"B2094757D06FA6FA489A","title":"85度C(东安店)","lon":"121.454341838","lat":"31.1919660094","category":"112","category_name":"糕饼店","address":"徐汇区东安路261-1号A区(东安路零陵路)"},{"poiid":"B2094655D269AAFA479A","title":"牛奶棚 枫林路店","lon":"121.456290054","lat":"31.194694793","category":"67","category_name":"甜品店","address":"徐汇区枫林路251号(近斜土路)"},{"poiid":"B2094654DA6DA2F4409D","title":"爱建大厦","lon":"121.4548438111","lat":"31.195258627644","category":"46","category_name":"楼宇","address":"宛平南路590弄"},{"poiid":"B2094655D268A3FF4798","title":"斜土路1664弄小区","lon":"121.45564","lat":"31.19507","category":"47","category_name":"住宅区","address":"斜土路1664弄"},{"poiid":"B2094757D16EABFB4499","title":"中山医院住院8号楼","lon":"121.45390858","lat":"31.196357768","category":"162","category_name":"医院","address":"上海市徐汇区枫林路180号中山医院住院部"},{"poiid":"B2094757D065A3FC4093","title":"恒昌花园","lon":"121.456","lat":"31.1955","category":"47","category_name":"住宅区","address":"恒昌花园位于徐汇宛平南路521号"},{"poiid":"B2094655D268A3FF479B","title":"斜土路1664弄小区(北门)","lon":"121.45549","lat":"31.19544","category":"47","category_name":"住宅区","address":"斜土路1664弄"},{"poiid":"B2094654DA6DA5F8479E","title":"上海理工大学西南进修学院教学部","lon":"121.45331","lat":"31.19465","category":"53","category_name":"成人教育","address":"斜土路2000号"},{"poiid":"B2094654DA6DAAFC4798","title":"上儿商务楼","lon":"121.45547","lat":"31.19588","category":"46","category_name":"楼宇","address":"斜土路1755"},{"poiid":"B2094655D268A3FF479A","title":"西摩小区","lon":"121.45515","lat":"31.19498","category":"47","category_name":"住宅区","address":"斜土路1674弄"},{"poiid":"B2094655D268A3FF4693","title":"西摩小区(北门)","lon":"121.45501","lat":"31.19532","category":"47","category_name":"住宅区","address":"斜土路1674弄"},{"poiid":"B2094654DA6DA5F9429C","title":"中国科学院上海有机化学研究所","lon":"121.45713","lat":"31.19247","category":"191","category_name":"科研机构","address":"枫林路354号"},{"poiid":"B2094757D069A1F9419D","title":"中山医院10号楼手术室","lon":"121.453940275","lat":"31.1983488969","category":"162","category_name":"医院","address":"上海徐汇区枫林路180号(近医学院路)"},{"poiid":"B2094753D56AA0F8479E","title":"來福士STAYREAL","lon":"121.453758","lat":"31.194503","category":"247","category_name":"餐饮美食","address":"上海市 人民廣場南京路"},{"poiid":"B2094757D06AA6FF4098","title":"神話LEGEND","lon":"121.457754","lat":"31.19685","category":"148","category_name":"美容美发店","address":"上海徐匯區斜土路1579號"},{"poiid":"B2094757D168A0FF479E","title":"复旦大学附属中山医院五号楼","lon":"121.452995311","lat":"31.1973022872","category":"162","category_name":"医院","address":"上海枫林路180号"},{"poiid":"B2094654DA6DAAFC4592","title":"新天地(斜土路)","lon":"121.45468","lat":"31.19554","category":"141","category_name":"服装鞋帽皮具店","address":"斜土路1787识别"},{"poiid":"B2094757D06AA6F4459A","title":"金星苑","lon":"121.45683","lat":"31.195597","category":"500","category_name":"未知分类","address":"华发小区位于徐汇华发路176号"},{"poiid":"B2094654DA6DA5F9409D","title":"上海玛依塔柯宾馆","lon":"121.45616","lat":"31.19548","category":"250","category_name":"公园户外","address":"枫林路235"},{"poiid":"B2094757D66DAAFB419E","title":"俺屋","lon":"121.455638","lat":"31.195071","category":"500","category_name":"未知分类","address":"上海斜土路1664弄"},{"poiid":"B2094654DA6DAAFC459C","title":"尊爵台球俱乐部","lon":"121.45463","lat":"31.19552","category":"171","category_name":"台球厅","address":""},{"poiid":"B2094757D06BAAFA4599","title":"中山医院住院部九号楼","lon":"121.454636586","lat":"31.1974707905","category":"500","category_name":"未知分类","address":"上海市徐汇区肇嘉浜路"},{"poiid":"B2094654DA6DA5F94192","title":"中国科学院上海生命科学研究院植物生理生态研究所","lon":"121.45526","lat":"31.1936","category":"191","category_name":"科研机构","address":"枫林路300号"},{"poiid":"B2094757D06BA5F8479A","title":"尊爵台球工房(斜土店)","lon":"121.45454","lat":"31.19498","category":"171","category_name":"台球厅","address":"徐汇区斜土路1843号(近枫林路)"},{"poiid":"B2094757D06BA0F54193","title":"中国工商银行(医学院路支行)","lon":"121.4561","lat":"31.19517","category":"150","category_name":"银行","address":"上海徐汇区斜土路1646号近枫林路  "},{"poiid":"B2094654DB65A0FD4092","title":"快客No.891","lon":"121.45547","lat":"31.19624","category":"117","category_name":"便民商店/便利店","address":"枫林路200"},{"poiid":"B2094757D169A4FF439B","title":"隧道二线大木桥路斜土路站","lon":"121.456021738","lat":"31.1951355526","category":"500","category_name":"未知分类","address":"上海大木桥路斜土路"},{"poiid":"B2094757D16AA1F5429A","title":"中国农业银行(枫林支行)","lon":"121.45583","lat":"31.19581","category":"150","category_name":"银行","address":"徐汇区斜土路1755号(枫林路斜土路)"},{"poiid":"B2094757D06FA4FB4793","title":"巴士二汽斜土路停车场","lon":"121.4533081","lat":"31.194658279","category":"38","category_name":"公交车站","address":"上海徐汇区斜土路2000号"},{"poiid":"B2094654DA6DAAFC4693","title":"润达网吧","lon":"121.45505","lat":"31.19566","category":"176","category_name":"网吧","address":"徐汇区斜土路1761号(枫林路口)"},{"poiid":"B2094655D269A4FA419B","title":"徐汇游泳馆","lon":"121.45713","lat":"31.19343","category":"231","category_name":"游泳馆","address":"徐汇区枫林路329号(近零陵路)"},{"poiid":"B2094757D06FA0F84793","title":"耶里夏丽 枫林店","lon":"121.4546063054","lat":"31.198207435713","category":"90","category_name":"清真餐馆","address":"徐汇区枫林路147号(近清真路)"},{"poiid":"B2094757D064A7FC4793","title":"上海徐汇国际行政公寓","lon":"121.453992","lat":"31.192109","category":"500","category_name":"未知分类","address":"徐汇区东安路255号(近斜土路)"},{"poiid":"B2094753D76FAAFA449C","title":"上海滩国泰旗舰店","lon":"121.466011","lat":"31.216125","category":"249","category_name":"购物服务","address":"淮海中路868号"},{"poiid":"B2094655D26CA4F84898","title":"复旦大学附属中山医院住院部","lon":"121.45423","lat":"31.1975","category":"265","category_name":"知名企业","address":"枫林路180号"},{"poiid":"B2094757D064A0F94198","title":"中山医院住院部1号楼","lon":"121.454551738","lat":"31.1979389123","category":"162","category_name":"医院","address":"上海枫林路180号"},{"poiid":"B2094654DA6DA5F9419D","title":"复旦大学护理学院(枫林路)","lon":"121.45767","lat":"31.1938","category":"52","category_name":"高等院校","address":"徐汇区枫林路305"},{"poiid":"B2094757D068A5FB469B","title":"复旦大学附属儿科医院(枫林路分院)","lon":"121.45477","lat":"31.19753","category":"162","category_name":"医院","address":"上海徐汇区枫林路183号(近斜土路)"},{"poiid":"B2094757D064A1F4429C","title":"上海昆虫博物馆","lon":"121.45702","lat":"31.19306","category":"179","category_name":"音乐厅","address":"徐汇区枫林路300号(近斜土路)"},{"poiid":"B2094757D06FAAFC4892","title":"爱邦大厦","lon":"121.454","lat":"31.1946","category":"46","category_name":"楼宇","address":"卢湾区复兴中路369号(马当路口)"},{"poiid":"B2094757D069A3FC429B","title":"安吉汽车销售","lon":"121.453248","lat":"31.193429577","category":"158","category_name":"汽车销售","address":"徐汇区东安路239号(近斜土路)"},{"poiid":"B2094655D36CA6F4459E","title":"东安路斜土路","lon":"121.45272","lat":"31.19408","category":"38","category_name":"公交车站","address":""},{"poiid":"B2094655D36CA6F84392","title":"枫林路斜土路","lon":"121.45569","lat":"31.1961","category":"38","category_name":"公交车站","address":""},{"poiid":"B2094757D06FA4FB409A","title":"串串香麻辣烫(枫林路店)","lon":"121.45532","lat":"31.19775","category":"68","category_name":"快餐厅","address":"徐汇区枫林路155号(近中山医院)"},{"poiid":"B2094654DA6DA5F8429F","title":"上海第二医科大学瑞金学生园区","lon":"121.45854","lat":"31.19628","category":"47","category_name":"住宅区","address":"小木桥路316"},{"poiid":"B2094655D269AAFC409F","title":"上广电假日酒店","lon":"121.45635","lat":"31.19592","category":"247","category_name":"餐饮美食","address":"徐汇区斜土路1646号(近枫林路)"},{"poiid":"B2094757D064A5F4489C","title":"4号线东安路站","lon":"121.457173138","lat":"31.1970184927","category":"500","category_name":"未知分类","address":"上海东安路331号"},{"poiid":"B2094654DA6DA5F94092","title":"亚都餐厅","lon":"121.45615","lat":"31.19542","category":"68","category_name":"快餐厅","address":"徐汇区枫林路235号(斜土路口)"},{"poiid":"B2094757D068A3FA499D","title":"中山医院住院部三号楼","lon":"121.453937593","lat":"31.1983534856","category":"162","category_name":"医院","address":"上海徐汇区枫林路180号(近医学院路)"},{"poiid":"B2094757D06BABF9489D","title":"四季园 Seasons' Garden","lon":"121.452327588","lat":"31.1956166433","category":"47","category_name":"住宅区","address":"上海徐汇区东安路149弄(近斜土路)"},{"poiid":"B2094757D06FA6FA489A","title":"85度C(东安店)","lon":"121.454341838","lat":"31.1919660094","category":"112","category_name":"糕饼店","address":"徐汇区东安路261-1号A区(东安路零陵路)"},{"poiid":"B2094655D269AAFA479A","title":"牛奶棚 枫林路店","lon":"121.456290054","lat":"31.194694793","category":"67","category_name":"甜品店","address":"徐汇区枫林路251号(近斜土路)"},{"poiid":"B2094654DA6DA2F4409D","title":"爱建大厦","lon":"121.4548438111","lat":"31.195258627644","category":"46","category_name":"楼宇","address":"宛平南路590弄"},{"poiid":"B2094655D268A3FF4798","title":"斜土路1664弄小区","lon":"121.45564","lat":"31.19507","category":"47","category_name":"住宅区","address":"斜土路1664弄"},{"poiid":"B2094757D16EABFB4499","title":"中山医院住院8号楼","lon":"121.45390858","lat":"31.196357768","category":"162","category_name":"医院","address":"上海市徐汇区枫林路180号中山医院住院部"},{"poiid":"B2094757D065A3FC4093","title":"恒昌花园","lon":"121.456","lat":"31.1955","category":"47","category_name":"住宅区","address":"恒昌花园位于徐汇宛平南路521号"},{"poiid":"B2094655D268A3FF479B","title":"斜土路1664弄小区(北门)","lon":"121.45549","lat":"31.19544","category":"47","category_name":"住宅区","address":"斜土路1664弄"},{"poiid":"B2094654DA6DA5F8479E","title":"上海理工大学西南进修学院教学部","lon":"121.45331","lat":"31.19465","category":"53","category_name":"成人教育","address":"斜土路2000号"},{"poiid":"B2094654DA6DAAFC4798","title":"上儿商务楼","lon":"121.45547","lat":"31.19588","category":"46","category_name":"楼宇","address":"斜土路1755"},{"poiid":"B2094655D268A3FF479A","title":"西摩小区","lon":"121.45515","lat":"31.19498","category":"47","category_name":"住宅区","address":"斜土路1674弄"},{"poiid":"B2094655D268A3FF4693","title":"西摩小区(北门)","lon":"121.45501","lat":"31.19532","category":"47","category_name":"住宅区","address":"斜土路1674弄"},{"poiid":"B2094654DA6DA5F9429C","title":"中国科学院上海有机化学研究所","lon":"121.45713","lat":"31.19247","category":"191","category_name":"科研机构","address":"枫林路354号"},{"poiid":"B2094757D069A1F9419D","title":"中山医院10号楼手术室","lon":"121.453940275","lat":"31.1983488969","category":"162","category_name":"医院","address":"上海徐汇区枫林路180号(近医学院路)"},{"poiid":"B2094753D56AA0F8479E","title":"來福士STAYREAL","lon":"121.453758","lat":"31.194503","category":"247","category_name":"餐饮美食","address":"上海市 人民廣場南京路"},{"poiid":"B2094757D06AA6FF4098","title":"神話LEGEND","lon":"121.457754","lat":"31.19685","category":"148","category_name":"美容美发店","address":"上海徐匯區斜土路1579號"},{"poiid":"B2094757D168A0FF479E","title":"复旦大学附属中山医院五号楼","lon":"121.452995311","lat":"31.1973022872","category":"162","category_name":"医院","address":"上海枫林路180号"},{"poiid":"B2094654DA6DAAFC4592","title":"新天地(斜土路)","lon":"121.45468","lat":"31.19554","category":"141","category_name":"服装鞋帽皮具店","address":"斜土路1787识别"},{"poiid":"B2094757D06AA6F4459A","title":"金星苑","lon":"121.45683","lat":"31.195597","category":"500","category_name":"未知分类","address":"华发小区位于徐汇华发路176号"},{"poiid":"B2094654DA6DA5F9409D","title":"上海玛依塔柯宾馆","lon":"121.45616","lat":"31.19548","category":"250","category_name":"公园户外","address":"枫林路235"},{"poiid":"B2094757D66DAAFB419E","title":"俺屋","lon":"121.455638","lat":"31.195071","category":"500","category_name":"未知分类","address":"上海斜土路1664弄"},{"poiid":"B2094654DA6DAAFC459C","title":"尊爵台球俱乐部","lon":"121.45463","lat":"31.19552","category":"171","category_name":"台球厅","address":""},{"poiid":"B2094757D06BAAFA4599","title":"中山医院住院部九号楼","lon":"121.454636586","lat":"31.1974707905","category":"500","category_name":"未知分类","address":"上海市徐汇区肇嘉浜路"},{"poiid":"B2094654DA6DA5F94192","title":"中国科学院上海生命科学研究院植物生理生态研究所","lon":"121.45526","lat":"31.1936","category":"191","category_name":"科研机构","address":"枫林路300号"},{"poiid":"B2094757D06BA5F8479A","title":"尊爵台球工房(斜土店)","lon":"121.45454","lat":"31.19498","category":"171","category_name":"台球厅","address":"徐汇区斜土路1843号(近枫林路)"},{"poiid":"B2094757D06BA0F54193","title":"中国工商银行(医学院路支行)","lon":"121.4561","lat":"31.19517","category":"150","category_name":"银行","address":"上海徐汇区斜土路1646号近枫林路  "},{"poiid":"B2094654DB65A0FD4092","title":"快客No.891","lon":"121.45547","lat":"31.19624","category":"117","category_name":"便民商店/便利店","address":"枫林路200"},{"poiid":"B2094757D169A4FF439B","title":"隧道二线大木桥路斜土路站","lon":"121.456021738","lat":"31.1951355526","category":"500","category_name":"未知分类","address":"上海大木桥路斜土路"},{"poiid":"B2094757D16AA1F5429A","title":"中国农业银行(枫林支行)","lon":"121.45583","lat":"31.19581","category":"150","category_name":"银行","address":"徐汇区斜土路1755号(枫林路斜土路)"},{"poiid":"B2094757D06FA4FB4793","title":"巴士二汽斜土路停车场","lon":"121.4533081","lat":"31.194658279","category":"38","category_name":"公交车站","address":"上海徐汇区斜土路2000号"},{"poiid":"B2094654DA6DAAFC4693","title":"润达网吧","lon":"121.45505","lat":"31.19566","category":"176","category_name":"网吧","address":"徐汇区斜土路1761号(枫林路口)"}]