[{"poiid":"B2094654D56EA5F4449F","title":"万达国际电影城(五角场店)","lon":"121.51299","lat":"31.30091","category":"178","category_name":"电影院","address":"国宾路58"},{"poiid":"B2094654D56EA4FC429D","title":"复旦大学新闻学院","lon":"121.50956","lat":"31.29934","category":"52","category_name":"高等院校","address":"杨浦区邯郸路440号"},{"poiid":"B2094757D06EAAFD429D","title":"壹丸冰","lon":"121.5117481","lat":"31.29951003","category":"67","category_name":"甜品店","address":"杨浦区政通路189号万达广场特力时尚汇1楼(近国宾路)"},{"poiid":"B2094757D068ABFE4398","title":"大学路(杨浦店)","lon":"121.50457","lat":"31.30151","category":"96","category_name":"韩国料理","address":"杨浦区政民路485号(近国定路)"},{"poiid":"B2094757D06FA5FF4892","title":"复宣酒店","lon":"121.50914","lat":"31.29867","category":"217","category_name":"旅馆招待所","address":"杨浦区国定路400号复旦大学内(近邯郸路)查看地图"},{"poiid":"B2094757D16EA5FC4693","title":"五角场万达B座","lon":"121.512451403","lat":"31.299202724","category":"500","category_name":"未知分类","address":"上海五角场 国宾路"},{"poiid":"B2094757D16DA4F5409D","title":"元利香辣蟹","lon":"121.512451103","lat":"31.3020520836","category":"247","category_name":"餐饮美食","address":"上海市杨浦区五角场特力屋"},{"poiid":"B2094654D56EA5F4449E","title":"宝大祥青少年儿童购物中心(五角场店)","lon":"121.51288","lat":"31.30107","category":"141","category_name":"服装鞋帽皮具店","address":"杨浦区邯郸路600号万达商业广场1楼(近淞沪路)"},{"poiid":"B2094750D26EA4FF4398","title":"掌柜的店-别开生面","lon":"121.51254624377","lat":"31.302136789027","category":"260","category_name":"其他","address":"杨浦区政通路189号万达广场特力时尚屋4楼"},{"poiid":"B2094757D06FA6FA429D","title":"颂阁岚泰国美食屋","lon":"121.51206","lat":"31.30123","category":"99","category_name":"泰国／越南菜品餐厅","address":"杨浦区政通路189号万达广场特力时尚汇4楼8号(近淞沪路)"},{"poiid":"B2094655D36CA7FA4793","title":"邯郸路五角场","lon":"121.51207","lat":"31.29889","category":"38","category_name":"公交车站","address":""},{"poiid":"B2094750DA6CA7F84992","title":"赤坂亭","lon":"121.512374","lat":"31.299316","category":"247","category_name":"餐饮美食","address":"杨浦区淞沪路151号中环国际大厦1楼"},{"poiid":"B2094750D26EABFC4793","title":"柬泰岚泰式杰克水晶火锅","lon":"121.5111","lat":"31.299102","category":"247","category_name":"餐饮美食","address":"杨浦区邯郸路399号财富大酒店A座4楼(近国定路)"},{"poiid":"B2094750D768A2FD4393","title":"燚记糖水铺","lon":"121.511","lat":"31.2983","category":"67","category_name":"甜品店","address":"杨浦区邯郸路399号红街食坊A-1号铺(近国定路)"},{"poiid":"B2094757D064A4F94299","title":"觉味时尚川菜","lon":"121.512823403","lat":"31.3002452458","category":"71","category_name":"四川菜","address":"杨浦区政通路189号特立时尚汇4楼-03铺"},{"poiid":"B2094757D064A5F4449F","title":"The Coffee Bean(大学路店)","lon":"121.512077332","lat":"31.3007049561","category":"65","category_name":"咖啡厅","address":"杨浦区大学路70-76号(大学路锦嘉路)"},{"poiid":"B2094757DB6CA7FC429D","title":"家有好面","lon":"121.5093222034131","lat":"31.30264390933986","category":"247","category_name":"餐饮美食","address":"五角场万达店"},{"poiid":"B2094757D169A0FE4798","title":"西北筱面村","lon":"121.510641103","lat":"31.3023390896","category":"500","category_name":"未知分类","address":"上海政通路189号特力时尚汇5楼"},{"poiid":"B2094757D46BA4F94592","title":"芭娜娜 Banana","lon":"121.508198054","lat":"31.301422793","category":"260","category_name":"其他","address":"杨浦区国定路485弄(近政民路)"},{"poiid":"B2094655D26AA2F8489A","title":"康帝保健会所五角场店","lon":"121.51195","lat":"31.30265","category":"247","category_name":"餐饮美食","address":"杨浦区政通路248号(近万达广场)"},{"poiid":"B2094757D569A1FF489A","title":"新香园港式茶餐厅","lon":"121.51268962","lat":"31.30175591","category":"68","category_name":"快餐厅","address":"杨浦区政通路189号特力时尚汇1楼108B(近国宾路)"},{"poiid":"B2094757D06FA6F4469E","title":"老碗(五角场店)","lon":"121.5127923","lat":"31.300766156","category":"84","category_name":"西北菜","address":"杨浦区政通路189号特力时尚汇4楼(近万达广场)"},{"poiid":"B2094753D66AAAF54099","title":"caffebene（五角场店）","lon":"121.511245","lat":"31.298652","category":"500","category_name":"未知分类","address":"上海市 邯郸路399号"},{"poiid":"B2094751DA6EA7F84392","title":"江边城外烤鱼","lon":"121.5110353","lat":"31.2998667","category":"247","category_name":"餐饮美食","address":"百联又一城6F"},{"poiid":"B2094750D664A6F4419B","title":"刀郎餐厅","lon":"121.511","lat":"31.3013","category":"90","category_name":"清真餐馆","address":"杨浦区政民路415号(近国定路)"},{"poiid":"B2094757D069A3FF409E","title":"BABY-LAND(五角场店)","lon":"121.51300823","lat":"31.300739236","category":"195","category_name":"游乐场","address":"杨浦区邯郸路600号万达商业广场宝大祥2楼(近淞沪路)"},{"poiid":"B209475DD76EA1F94299","title":"胡姬兰","lon":"121.512619","lat":"31.302087","category":"247","category_name":"餐饮美食","address":"上海市 淞沪路302号2楼"},{"poiid":"B209475DDA69A6F54599","title":"水货seafood","lon":"121.511909","lat":"31.302261","category":"247","category_name":"餐饮美食","address":"上海市 上海杨浦区万达广场特力时尚汇"},{"poiid":"B2094751DB6CA7FE439B","title":"川食公馆","lon":"121.508598","lat":"31.301918","category":"247","category_name":"餐饮美食","address":"杨浦区邯郸路600号万达广场第一食品店5楼(近五角场地铁站)"},{"poiid":"B2094757DA69A2F54492","title":"上海万达影城","lon":"121.51287","lat":"31.30067","category":"178","category_name":"电影院","address":"上海市杨浦区国宾路58号五角场万达商业广场三层"},{"poiid":"B2094757D16AA0F94893","title":"复旦大学东区宿舍19号楼","lon":"121.510110303","lat":"31.3017508773","category":"52","category_name":"高等院校","address":"上海国定路440号"},{"poiid":"B2094757D468A0FC459E","title":"旦苑食府","lon":"121.511250054","lat":"31.298550793","category":"68","category_name":"快餐厅","address":"杨浦区邯郸路220号复旦大学本部食堂3楼(近国权路)"},{"poiid":"B2094757D465A1F8499A","title":"巴麦隆烤肉 旗舰店","lon":"121.51535","lat":"31.30359","category":"268","category_name":"自助","address":"杨浦区政通路132号2楼(近淞沪路)"},{"poiid":"B2094753DB6CA1FC4393","title":"西界westside bar","lon":"121.510025","lat":"31.300432","category":"500","category_name":"未知分类","address":"上海市 大学路242号"},{"poiid":"B2094757D065A7FE4392","title":"复旦燕园宾馆","lon":"121.50974","lat":"31.30143","category":"217","category_name":"旅馆招待所","address":"杨浦区政通路270号"},{"poiid":"B2094750DB6FA4FC4693","title":"五月电影部落咖啡店","lon":"121.511405","lat":"31.301073","category":"247","category_name":"餐饮美食","address":"上海市大学路312号302室"},{"poiid":"B2094655D36CA7F4419D","title":"国定路","lon":"121.51212","lat":"31.29926","category":"38","category_name":"公交车站","address":""},{"poiid":"B2094757D168ABF54998","title":"仙芋奇圆","lon":"121.512393103","lat":"31.302265888","category":"67","category_name":"甜品店","address":"杨浦区政通路246号(近国宾路)"},{"poiid":"B209475CDB68ABFC439A","title":"巴蛮子格格面政民路店","lon":"121.510536","lat":"31.29986","category":"247","category_name":"餐饮美食","address":"杨浦区政民路300号"},{"poiid":"B2094753D66AAAF8459F","title":"Caffé bene","lon":"121.510894","lat":"31.298664","category":"500","category_name":"未知分类","address":"上海市 邯郸路399号"},{"poiid":"B2094654D56EA4FC419C","title":"建新小区","lon":"121.51169","lat":"31.30118","category":"47","category_name":"住宅区","address":"邯郸路470弄"},{"poiid":"B2094752DA65AAF84292","title":"金钱豹大酒店","lon":"121.510171","lat":"31.299929","category":"247","category_name":"餐饮美食","address":"上海市 上海市杨浦区"},{"poiid":"B2094757D165A6FB4899","title":"复旦大学新闻学院综合楼","lon":"121.510128303","lat":"31.2992181243","category":"500","category_name":"未知分类","address":"上海国定路400号"},{"poiid":"B209475DD66DA1FB4898","title":"水货","lon":"121.512901","lat":"31.30167","category":"247","category_name":"餐饮美食","address":"上海市 政通路189号特力时尚汇1楼"},{"poiid":"B2094757D66CA1F4479E","title":"菊泉新城","lon":"121.5104131","lat":"31.301485071","category":"47","category_name":"住宅区","address":"上海菊盛路50弄"},{"poiid":"B2094752D565ABFD459B","title":"猫屎咖啡","lon":"121.512505","lat":"31.302181","category":"247","category_name":"餐饮美食","address":"五角场特立屋一楼"},{"poiid":"B2094654D56EA4FC4292","title":"复旦大学新闻学院(南门)","lon":"121.51048","lat":"31.29883","category":"656","category_name":"大门","address":"杨浦区邯郸路440号"},{"poiid":"B2094757DA6AA5FF479E","title":"东方商厦","lon":"121.50903","lat":"31.300636","category":"249","category_name":"购物服务","address":"四平路"},{"poiid":"B2094654D56EA5F44999","title":"同济初级中学","lon":"121.51041","lat":"31.30233","category":"55","category_name":"中学","address":"杨浦区政通路260号(近国定路)"},{"poiid":"B2094655D26AA2FE489D","title":"硬石酒吧","lon":"121.50976","lat":"31.30159","category":"260","category_name":"其他","address":"杨浦区政通路315号(近国定路)"},{"poiid":"B2094654D56EA5F4449F","title":"万达国际电影城(五角场店)","lon":"121.51299","lat":"31.30091","category":"178","category_name":"电影院","address":"国宾路58"},{"poiid":"B2094654D56EA4FC429D","title":"复旦大学新闻学院","lon":"121.50956","lat":"31.29934","category":"52","category_name":"高等院校","address":"杨浦区邯郸路440号"},{"poiid":"B2094757D06EAAFD429D","title":"壹丸冰","lon":"121.5117481","lat":"31.29951003","category":"67","category_name":"甜品店","address":"杨浦区政通路189号万达广场特力时尚汇1楼(近国宾路)"},{"poiid":"B2094757D068ABFE4398","title":"大学路(杨浦店)","lon":"121.50457","lat":"31.30151","category":"96","category_name":"韩国料理","address":"杨浦区政民路485号(近国定路)"},{"poiid":"B2094757D06FA5FF4892","title":"复宣酒店","lon":"121.50914","lat":"31.29867","category":"217","category_name":"旅馆招待所","address":"杨浦区国定路400号复旦大学内(近邯郸路)查看地图"},{"poiid":"B2094757D16EA5FC4693","title":"五角场万达B座","lon":"121.512451403","lat":"31.299202724","category":"500","category_name":"未知分类","address":"上海五角场 国宾路"},{"poiid":"B2094757D16DA4F5409D","title":"元利香辣蟹","lon":"121.512451103","lat":"31.3020520836","category":"247","category_name":"餐饮美食","address":"上海市杨浦区五角场特力屋"},{"poiid":"B2094654D56EA5F4449E","title":"宝大祥青少年儿童购物中心(五角场店)","lon":"121.51288","lat":"31.30107","category":"141","category_name":"服装鞋帽皮具店","address":"杨浦区邯郸路600号万达商业广场1楼(近淞沪路)"},{"poiid":"B2094750D26EA4FF4398","title":"掌柜的店-别开生面","lon":"121.51254624377","lat":"31.302136789027","category":"260","category_name":"其他","address":"杨浦区政通路189号万达广场特力时尚屋4楼"},{"poiid":"B2094757D06FA6FA429D","title":"颂阁岚泰国美食屋","lon":"121.51206","lat":"31.30123","category":"99","category_name":"泰国／越南菜品餐厅","address":"杨浦区政通路189号万达广场特力时尚汇4楼8号(近淞沪路)"},{"poiid":"B2094655D36CA7FA4793","title":"邯郸路五角场","lon":"121.51207","lat":"31.29889","category":"38","category_name":"公交车站","address":""},{"poiid":"B2094750DA6CA7F84992","title":"赤坂亭","lon":"121.512374","lat":"31.299316","category":"247","category_name":"餐饮美食","address":"杨浦区淞沪路151号中环国际大厦1楼"},{"poiid":"B2094750D26EABFC4793","title":"柬泰岚泰式杰克水晶火锅","lon":"121.5111","lat":"31.299102","category":"247","category_name":"餐饮美食","address":"杨浦区邯郸路399号财富大酒店A座4楼(近国定路)"},{"poiid":"B2094750D768A2FD4393","title":"燚记糖水铺","lon":"121.511","lat":"31.2983","category":"67","category_name":"甜品店","address":"杨浦区邯郸路399号红街食坊A-1号铺(近国定路)"},{"poiid":"B2094757D064A4F94299","title":"觉味时尚川菜","lon":"121.512823403","lat":"31.3002452458","category":"71","category_name":"四川菜","address":"杨浦区政通路189号特立时尚汇4楼-03铺"},{"poiid":"B2094757D064A5F4449F","title":"The Coffee Bean(大学路店)","lon":"121.512077332","lat":"31.3007049561","category":"65","category_name":"咖啡厅","address":"杨浦区大学路70-76号(大学路锦嘉路)"},{"poiid":"B2094757DB6CA7FC429D","title":"家有好面","lon":"121.5093222034131","lat":"31.30264390933986","category":"247","category_name":"餐饮美食","address":"五角场万达店"},{"poiid":"B2094757D169A0FE4798","title":"西北筱面村","lon":"121.510641103","lat":"31.3023390896","category":"500","category_name":"未知分类","address":"上海政通路189号特力时尚汇5楼"},{"poiid":"B2094757D46BA4F94592","title":"芭娜娜 Banana","lon":"121.508198054","lat":"31.301422793","category":"260","category_name":"其他","address":"杨浦区国定路485弄(近政民路)"},{"poiid":"B2094655D26AA2F8489A","title":"康帝保健会所五角场店","lon":"121.51195","lat":"31.30265","category":"247","category_name":"餐饮美食","address":"杨浦区政通路248号(近万达广场)"},{"poiid":"B2094757D569A1FF489A","title":"新香园港式茶餐厅","lon":"121.51268962","lat":"31.30175591","category":"68","category_name":"快餐厅","address":"杨浦区政通路189号特力时尚汇1楼108B(近国宾路)"},{"poiid":"B2094757D06FA6F4469E","title":"老碗(五角场店)","lon":"121.5127923","lat":"31.300766156","category":"84","category_name":"西北菜","address":"杨浦区政通路189号特力时尚汇4楼(近万达广场)"},{"poiid":"B2094753D66AAAF54099","title":"caffebene（五角场店）","lon":"121.511245","lat":"31.298652","category":"500","category_name":"未知分类","address":"上海市 邯郸路399号"},{"poiid":"B2094751DA6EA7F84392","title":"江边城外烤鱼","lon":"121.5110353","lat":"31.2998667","category":"247","category_name":"餐饮美食","address":"百联又一城6F"},{"poiid":"B2094750D664A6F4419B","title":"刀郎餐厅","lon":"121.511","lat":"31.3013","category":"90","category_name":"清真餐馆","address":"杨浦区政民路415号(近国定路)"},{"poiid":"B2094757D069A3FF409E","title":"BABY-LAND(五角场店)","lon":"121.51300823","lat":"31.300739236","category":"195","category_name":"游乐场","address":"杨浦区邯郸路600号万达商业广场宝大祥2楼(近淞沪路)"},{"poiid":"B209475DD76EA1F94299","title":"胡姬兰","lon":"121.512619","lat":"31.302087","category":"247","category_name":"餐饮美食","address":"上海市 淞沪路302号2楼"},{"poiid":"B209475DDA69A6F54599","title":"水货seafood","lon":"121.511909","lat":"31.302261","category":"247","category_name":"餐饮美食","address":"上海市 上海杨浦区万达广场特力时尚汇"},{"poiid":"B2094751DB6CA7FE439B","title":"川食公馆","lon":"121.508598","lat":"31.301918","category":"247","category_name":"餐饮美食","address":"杨浦区邯郸路600号万达广场第一食品店5楼(近五角场地铁站)"},{"poiid":"B2094757DA69A2F54492","title":"上海万达影城","lon":"121.51287","lat":"31.30067","category":"178","category_name":"电影院","address":"上海市杨浦区国宾路58号五角场万达商业广场三层"},{"poiid":"B2094757D16AA0F94893","title":"复旦大学东区宿舍19号楼","lon":"121.510110303","lat":"31.3017508773","category":"52","category_name":"高等院校","address":"上海国定路440号"},{"poiid":"B2094757D468A0FC459E","title":"旦苑食府","lon":"121.511250054","lat":"31.298550793","category":"68","category_name":"快餐厅","address":"杨浦区邯郸路220号复旦大学本部食堂3楼(近国权路)"},{"poiid":"B2094757D465A1F8499A","title":"巴麦隆烤肉 旗舰店","lon":"121.51535","lat":"31.30359","category":"268","category_name":"自助","address":"杨浦区政通路132号2楼(近淞沪路)"},{"poiid":"B2094753DB6CA1FC4393","title":"西界westside bar","lon":"121.510025","lat":"31.300432","category":"500","category_name":"未知分类","address":"上海市 大学路242号"},{"poiid":"B2094757D065A7FE4392","title":"复旦燕园宾馆","lon":"121.50974","lat":"31.30143","category":"217","category_name":"旅馆招待所","address":"杨浦区政通路270号"},{"poiid":"B2094750DB6FA4FC4693","title":"五月电影部落咖啡店","lon":"121.511405","lat":"31.301073","category":"247","category_name":"餐饮美食","address":"上海市大学路312号302室"},{"poiid":"B2094655D36CA7F4419D","title":"国定路","lon":"121.51212","lat":"31.29926","category":"38","category_name":"公交车站","address":""},{"poiid":"B2094757D168ABF54998","title":"仙芋奇圆","lon":"121.512393103","lat":"31.302265888","category":"67","category_name":"甜品店","address":"杨浦区政通路246号(近国宾路)"},{"poiid":"B209475CDB68ABFC439A","title":"巴蛮子格格面政民路店","lon":"121.510536","lat":"31.29986","category":"247","category_name":"餐饮美食","address":"杨浦区政民路300号"},{"poiid":"B2094753D66AAAF8459F","title":"Caffé bene","lon":"121.510894","lat":"31.298664","category":"500","category_name":"未知分类","address":"上海市 邯郸路399号"},{"poiid":"B2094654D56EA4FC419C","title":"建新小区","lon":"121.51169","lat":"31.30118","category":"47","category_name":"住宅区","address":"邯郸路470弄"},{"poiid":"B2094752DA65AAF84292","title":"金钱豹大酒店","lon":"121.510171","lat":"31.299929","category":"247","category_name":"餐饮美食","address":"上海市 上海市杨浦区"},{"poiid":"B2094757D165A6FB4899","title":"复旦大学新闻学院综合楼","lon":"121.510128303","lat":"31.2992181243","category":"500","category_name":"未知分类","address":"上海国定路400号"},{"poiid":"B209475DD66DA1FB4898","title":"水货","lon":"121.512901","lat":"31.30167","category":"247","category_name":"餐饮美食","address":"上海市 政通路189号特力时尚汇1楼"},{"poiid":"B2094757D66CA1F4479E","title":"菊泉新城","lon":"121.5104131","lat":"31.301485071","category":"47","category_name":"住宅区","address":"上海菊盛路50弄"},{"poiid":"B2094752D565ABFD459B","title":"猫屎咖啡","lon":"121.512505","lat":"31.302181","category":"247","category_name":"餐饮美食","address":"五角场特立屋一楼"},{"poiid":"B2094654D56EA4FC4292","title":"复旦大学新闻学院(南门)","lon":"121.51048","lat":"31.29883","category":"656","category_name":"大门","address":"杨浦区邯郸路440号"},{"poiid":"B2094757DA6AA5FF479E","title":"东方商厦","lon":"121.50903","lat":"31.300636","category":"249","category_name":"购物服务","address":"四平路"},{"poiid":"B2094654D56EA5F44999","title":"同济初级中学","lon":"121.51041","lat":"31.30233","category":"55","category_name":"中学","address":"杨浦区政通路260号(近国定路)"},{"poiid":"B2094655D26AA2FE489D","title":"硬石酒吧","lon":"121.50976","lat":"31.30159","category":"260","category_name":"其他","address":"杨浦区政通路315号(近国定路)"},{"poiid":"B2094654D56EA5F4449F","title":"万达国际电影城(五角场店)","lon":"121.51299","lat":"31.30091","category":"178","category_name":"电影院","address":"国宾路58"},{"poiid":"B2094654D56EA4FC429D","title":"复旦大学新闻学院","lon":"121.50956","lat":"31.29934","category":"52","category_name":"高等院校","address":"杨浦区邯郸路440号"},{"poiid":"B2094757D06EAAFD429D","title":"壹丸冰","lon":"121.5117481","lat":"31.29951003","category":"67","category_name":"甜品店","address":"杨浦区政通路189号万达广场特力时尚汇1楼(近国宾路)"},{"poiid":"B2094757D068ABFE4398","title":"大学路(杨浦店)","lon":"121.50457","lat":"31.30151","category":"96","category_name":"韩国料理","address":"杨浦区政民路485号(近国定路)"},{"poiid":"B2094757D06FA5FF4892","title":"复宣酒店","lon":"121.50914","lat":"31.29867","category":"217","category_name":"旅馆招待所","address":"杨浦区国定路400号复旦大学内(近邯郸路)查看地图"},{"poiid":"B2094757D16EA5FC4693","title":"五角场万达B座","lon":"121.512451403","lat":"31.299202724","category":"500","category_name":"未知分类","address":"上海五角场 国宾路"},{"poiid":"B2094757D16DA4F5409D","title":"元利香辣蟹","lon":"121.512451103","lat":"31.3020520836","category":"247","category_name":"餐饮美食","address":"上海市杨浦区五角场特力屋"},{"poiid":"B2094654D56EA5F4449E","title":"宝大祥青少年儿童购物中心(五角场店)","lon":"121.51288","lat":"31.30107","category":"141","category_name":"服装鞋帽皮具店","address":"杨浦区邯郸路600号万达商业广场1楼(近淞沪路)"},{"poiid":"B2094750D26EA4FF4398","title":"掌柜的店-别开生面","lon":"121.51254624377","lat":"31.302136789027","category":"260","category_name":"其他","address":"杨浦区政通路189号万达广场特力时尚屋4楼"},{"poiid":"B2094757D06FA6FA429D","title":"颂阁岚泰国美食屋","lon":"121.51206","lat":"31.30123","category":"99","category_name":"泰国／越南菜品餐厅","address":"杨浦区政通路189号万达广场特力时尚汇4楼8号(近淞沪路)"},{"poiid":"B2094655D36CA7FA4793","title":"邯郸路五角场","lon":"121.51207","lat":"31.29889","category":"38","category_name":"公交车站","address":""},{"poiid":"B2094750DA6CA7F84992","title":"赤坂亭","lon":"121.512374","lat":"31.299316","category":"247","category_name":"餐饮美食","address":"杨浦区淞沪路151号中环国际大厦1楼"},{"poiid":"B2094750D26EABFC4793","title":"柬泰岚泰式杰克水晶火锅","lon":"121.5111","lat":"31.299102","category":"247","category_name":"餐饮美食","address":"杨浦区邯郸路399号财富大酒店A座4楼(近国定路)"},{"poiid":"B2094750D768A2FD4393","title":"燚记糖水铺","lon":"121.511","lat":"31.2983","category":"67","category_name":"甜品店","address":"杨浦区邯郸路399号红街食坊A-1号铺(近国定路)"},{"poiid":"B2094757D064A4F94299","title":"觉味时尚川菜","lon":"121.512823403","lat":"31.3002452458","category":"71","category_name":"四川菜","address":"杨浦区政通路189号特立时尚汇4楼-03铺"},{"poiid":"B2094757D064A5F4449F","title":"The Coffee Bean(大学路店)","lon":"121.512077332","lat":"31.3007049561","category":"65","category_name":"咖啡厅","address":"杨浦区大学路70-76号(大学路锦嘉路)"},{"poiid":"B2094757DB6CA7FC429D","title":"家有好面","lon":"121.5093222034131","lat":"31.30264390933986","category":"247","category_name":"餐饮美食","address":"五角场万达店"},{"poiid":"B2094757D169A0FE4798","title":"西北筱面村","lon":"121.510641103","lat":"31.3023390896","category":"500","category_name":"未知分类","address":"上海政通路189号特力时尚汇5楼"},{"poiid":"B2094757D46BA4F94592","title":"芭娜娜 Banana","lon":"121.508198054","lat":"31.301422793","category":"260","category_name":"其他","address":"杨浦区国定路485弄(近政民路)"},{"poiid":"B2094655D26AA2F8489A","title":"康帝保健会所五角场店","lon":"121.51195","lat":"31.30265","category":"247","category_name":"餐饮美食","address":"杨浦区政通路248号(近万达广场)"},{"poiid":"B2094757D569A1FF489A","title":"新香园港式茶餐厅","lon":"121.51268962","lat":"31.30175591","category":"68","category_name":"快餐厅","address":"杨浦区政通路189号特力时尚汇1楼108B(近国宾路)"},{"poiid":"B2094757D06FA6F4469E","title":"老碗(五角场店)","lon":"121.5127923","lat":"31.300766156","category":"84","category_name":"西北菜","address":"杨浦区政通路189号特力时尚汇4楼(近万达广场)"},{"poiid":"B2094753D66AAAF54099","title":"caffebene（五角场店）","lon":"121.511245","lat":"31.298652","category":"500","category_name":"未知分类","address":"上海市 邯郸路399号"},{"poiid":"B2094751DA6EA7F84392","title":"江边城外烤鱼","lon":"121.5110353","lat":"31.2998667","category":"247","category_name":"餐饮美食","address":"百联又一城6F"},{"poiid":"B2094750D664A6F4419B","title":"刀郎餐厅","lon":"121.511","lat":"31.3013","category":"90","category_name":"清真餐馆","address":"杨浦区政民路415号(近国定路)"},{"poiid":"B2094757D069A3FF409E","title":"BABY-LAND(五角场店)","lon":"121.51300823","lat":"31.300739236","category":"195","category_name":"游乐场","address":"杨浦区邯郸路600号万达商业广场宝大祥2楼(近淞沪路)"},{"poiid":"B209475DD76EA1F94299","title":"胡姬兰","lon":"121.512619","lat":"31.302087","category":"247","category_name":"餐饮美食","address":"上海市 淞沪路302号2楼"},{"poiid":"B209475DDA69A6F54599","title":"水货seafood","lon":"121.511909","lat":"31.302261","category":"247","category_name":"餐饮美食","address":"上海市 上海杨浦区万达广场特力时尚汇"},{"poiid":"B2094751DB6CA7FE439B","title":"川食公馆","lon":"121.508598","lat":"31.301918","category":"247","category_name":"餐饮美食","address":"杨浦区邯郸路600号万达广场第一食品店5楼(近五角场地铁站)"},{"poiid":"B2094757DA69A2F54492","title":"上海万达影城","lon":"121.51287","lat":"31.30067","category":"178","category_name":"电影院","address":"上海市杨浦区国宾路58号五角场万达商业广场三层"},{"poiid":"B2094757D16AA0F94893","title":"复旦大学东区宿舍19号楼","lon":"121.510110303","lat":"31.3017508773","category":"52","category_name":"高等院校","address":"上海国定路440号"},{"poiid":"B2094757D468A0FC459E","title":"旦苑食府","lon":"121.511250054","lat":"31.298550793","category":"68","category_name":"快餐厅","address":"杨浦区邯郸路220号复旦大学本部食堂3楼(近国权路)"},{"poiid":"B2094757D465A1F8499A","title":"巴麦隆烤肉 旗舰店","lon":"121.51535","lat":"31.30359","category":"268","category_name":"自助","address":"杨浦区政通路132号2楼(近淞沪路)"},{"poiid":"B2094753DB6CA1FC4393","title":"西界westside bar","lon":"121.510025","lat":"31.300432","category":"500","category_name":"未知分类","address":"上海市 大学路242号"},{"poiid":"B2094757D065A7FE4392","title":"复旦燕园宾馆","lon":"121.50974","lat":"31.30143","category":"217","category_name":"旅馆招待所","address":"杨浦区政通路270号"},{"poiid":"B2094750DB6FA4FC4693","title":"五月电影部落咖啡店","lon":"121.511405","lat":"31.301073","category":"247","category_name":"餐饮美食","address":"上海市大学路312号302室"},{"poiid":"B2094655D36CA7F4419D","title":"国定路","lon":"121.51212","lat":"31.29926","category":"38","category_name":"公交车站","address":""},{"poiid":"B2094757D168ABF54998","title":"仙芋奇圆","lon":"121.512393103","lat":"31.302265888","category":"67","category_name":"甜品店","address":"杨浦区政通路246号(近国宾路)"},{"poiid":"B209475CDB68ABFC439A","title":"巴蛮子格格面政民路店","lon":"121.510536","lat":"31.29986","category":"247","category_name":"餐饮美食","address":"杨浦区政民路300号"},{"poiid":"B2094753D66AAAF8459F","title":"Caffé bene","lon":"121.510894","lat":"31.298664","category":"500","category_name":"未知分类","address":"上海市 邯郸路399号"},{"poiid":"B2094654D56EA4FC419C","title":"建新小区","lon":"121.51169","lat":"31.30118","category":"47","category_name":"住宅区","address":"邯郸路470弄"},{"poiid":"B2094752DA65AAF84292","title":"金钱豹大酒店","lon":"121.510171","lat":"31.299929","category":"247","category_name":"餐饮美食","address":"上海市 上海市杨浦区"},{"poiid":"B2094757D165A6FB4899","title":"复旦大学新闻学院综合楼","lon":"121.510128303","lat":"31.2992181243","category":"500","category_name":"未知分类","address":"上海国定路400号"},{"poiid":"B209475DD66DA1FB4898","title":"水货","lon":"121.512901","lat":"31.30167","category":"247","category_name":"餐饮美食","address":"上海市 政通路189号特力时尚汇1楼"},{"poiid":"B2094757D66CA1F4479E","title":"菊泉新城","lon":"121.5104131","lat":"31.301485071","category":"47","category_name":"住宅区","address":"上海菊盛路50弄"},{"poiid":"B2094752D565ABFD459B","title":"猫屎咖啡","lon":"121.512505","lat":"31.302181","category":"247","category_name":"餐饮美食","address":"五角场特立屋一楼"},{"poiid":"B2094654D56EA4FC4292","title":"复旦大学新闻学院(南门)","lon":"121.51048","lat":"31.29883","category":"656","category_name":"大门","address":"杨浦区邯郸路440号"},{"poiid":"B2094757DA6AA5FF479E","title":"东方商厦","lon":"121.50903","lat":"31.300636","category":"249","category_name":"购物服务","address":"四平路"},{"poiid":"B2094654D56EA5F44999","title":"同济初级中学","lon":"121.51041","lat":"31.30233","category":"55","category_name":"中学","address":"杨浦区政通路260号(近国定路)"},{"poiid":"B2094655D26AA2FE489D","title":"硬石酒吧","lon":"121.50976","lat":"31.30159","category":"260","category_name":"其他","address":"杨浦区政通路315号(近国定路)"}]