[{"poiid":"B2094757D06FA4FA499E","title":"釜山火炉","lon":"121.510770503","lat":"31.2981781025","category":"96","category_name":"韩国料理","address":"杨浦区邯郸路397号(近国定路)"},{"poiid":"B2094655D26AABFE4198","title":"红辣椒(杨浦店)","lon":"121.51124","lat":"31.29776","category":"71","category_name":"四川菜","address":"杨浦区邯郸路399号财富大酒店A区2楼(近国定路)"},{"poiid":"B2094654D56EA4FC429D","title":"复旦大学新闻学院","lon":"121.50956","lat":"31.29934","category":"52","category_name":"高等院校","address":"杨浦区邯郸路440号"},{"poiid":"B2094757D06FA2F9429A","title":"长白山韩国烧烤店(国定路店)","lon":"121.50965","lat":"31.29742","category":"96","category_name":"韩国料理","address":"杨浦区国定路346号2楼(近邯郸路)"},{"poiid":"B2094757D06FA3F84692","title":"侬好蛙干锅传奇(五角场店)","lon":"121.51022","lat":"31.29773","category":"71","category_name":"四川菜","address":"杨浦区邯郸路395号(近国定路)"},{"poiid":"B2094757D06FA0FA439C","title":"三号湾","lon":"121.51006","lat":"31.2961","category":"119","category_name":"商场","address":"杨浦区国定路333号(邯郸路口)"},{"poiid":"B2094757D06FA5FF4892","title":"复宣酒店","lon":"121.50914","lat":"31.29867","category":"217","category_name":"旅馆招待所","address":"杨浦区国定路400号复旦大学内(近邯郸路)查看地图"},{"poiid":"B2094757D06EAAFD429D","title":"壹丸冰","lon":"121.5117481","lat":"31.29951003","category":"67","category_name":"甜品店","address":"杨浦区政通路189号万达广场特力时尚汇1楼(近国宾路)"},{"poiid":"B2094757D06FA3F8489D","title":"东方CJ电视购物","lon":"121.508425948","lat":"31.2991633123","category":"46","category_name":"楼宇","address":"杨浦区国定路400号复旦大学内(近邯郸路)"},{"poiid":"B2094753D669A4F44498","title":"Caffe bene","lon":"121.510696","lat":"31.298107","category":"500","category_name":"未知分类","address":"上海市 上海杨浦区邯郸路399号东1"},{"poiid":"B2094750DB6FA0FB479B","title":"串趣-成都串串香","lon":"121.50986","lat":"31.29787","category":"71","category_name":"四川菜","address":"杨浦区邯郸路399号A3红街食坊内(近国定路)"},{"poiid":"B2094655D36CA7FA4793","title":"邯郸路五角场","lon":"121.51207","lat":"31.29889","category":"38","category_name":"公交车站","address":""},{"poiid":"B2094757D06FA1F84792","title":"复旦科技园创业中心","lon":"121.50833129","lat":"31.297384262","category":"46","category_name":"楼宇","address":"上海国定路335号"},{"poiid":"B2094757D068AAF54099","title":"巨麦KTV(国定路店)","lon":"121.51250958","lat":"31.297787724","category":"170","category_name":"KTV","address":"杨浦区国定路333号三号湾下沉广场(近邯郸路)"},{"poiid":"B2094750D768A2FD4393","title":"燚记糖水铺","lon":"121.511","lat":"31.2983","category":"67","category_name":"甜品店","address":"杨浦区邯郸路399号红街食坊A-1号铺(近国定路)"},{"poiid":"B2094655D265A5FE479B","title":"陌生人火锅餐厅","lon":"121.5093","lat":"31.29686","category":"86","category_name":"火锅店","address":"杨浦区国定路333号三号湾广场2楼(邯郸路口)"},{"poiid":"B2094750D26EABFC4793","title":"柬泰岚泰式杰克水晶火锅","lon":"121.5111","lat":"31.299102","category":"247","category_name":"餐饮美食","address":"杨浦区邯郸路399号财富大酒店A座4楼(近国定路)"},{"poiid":"B2094757D06FA7FC4098","title":"藏宝海湾桌面游戏(五角场店)","lon":"121.51220526","lat":"31.298598676","category":"175","category_name":"棋牌室","address":"上海市杨浦区邯郸路569号"},{"poiid":"B2094757D068A1FC439D","title":"永昌烧味餐厅","lon":"121.50953674","lat":"31.297847747","category":"68","category_name":"快餐厅","address":"杨浦区邯郸路389号(国定路邯郸路)"},{"poiid":"B2094757DB68A5F9479A","title":"川流不息 五角场店","lon":"121.509664","lat":"31.29656","category":"71","category_name":"四川菜","address":"杨浦区国定路333号三号湾广场2楼(近邯郸路)"},{"poiid":"B2094757D068A3FB4593","title":"味千拉面(三号湾店)","lon":"121.50957","lat":"31.29706","category":"95","category_name":"日本料理","address":"杨浦区国定路333号三号湾广场1楼(邯郸路口)"},{"poiid":"B2094753D66AAAF54099","title":"caffebene（五角场店）","lon":"121.511245","lat":"31.298652","category":"500","category_name":"未知分类","address":"上海市 邯郸路399号"},{"poiid":"B2094757D068ABFD4692","title":"邵记传菜(三号湾店)","lon":"121.50944","lat":"31.29615","category":"75","category_name":"浙江菜","address":"杨浦区国定路333号三号湾广场(邯郸路口)"},{"poiid":"B2094655D26CA7F4459D","title":"复旦大学邯郸路体育场","lon":"121.50761","lat":"31.29655","category":"224","category_name":"综合体育馆","address":""},{"poiid":"B2094757D068A2FF469F","title":"85度C(三号湾店)","lon":"121.50904818","lat":"31.296558257","category":"112","category_name":"糕饼店","address":"杨浦区国定路333号三号湾广场1楼(邯郸路口)"},{"poiid":"B2094757D464A7FC429C","title":"涌香阁","lon":"121.509439054","lat":"31.297650793","category":"75","category_name":"浙江菜","address":"杨浦区国定路333号三号湾广场(邯郸路口)"},{"poiid":"B2094757D069A7FF4099","title":"国定365餐厅","lon":"121.50925","lat":"31.29706","category":"91","category_name":"台湾菜","address":"杨浦区国定路365号1-2楼(近邯郸路)"},{"poiid":"B2094757D06FA7F5459D","title":"颐高数码广场(五角场店)","lon":"121.50858959","lat":"31.297517583","category":"138","category_name":"家电电子卖场","address":"上海邯郸路365号(近国定路)"},{"poiid":"B2094757D069A7F8499A","title":"上海新东方学校(国定路校区)","lon":"121.50984265508646","lat":"31.29611115875543","category":"632","category_name":"教育出国类公司","address":"上海杨浦区国定路309号(近邯郸路)  "},{"poiid":"B2094757DB68A3FA4298","title":"汤姆熊万达店","lon":"121.5074775247013","lat":"31.29937517049544","category":"500","category_name":"未知分类","address":"杨浦区邯郸路600号万达商业广场B1楼A-17号(近淞沪路)"},{"poiid":"B2094757D468A0FC459E","title":"旦苑食府","lon":"121.511250054","lat":"31.298550793","category":"68","category_name":"快餐厅","address":"杨浦区邯郸路220号复旦大学本部食堂3楼(近国权路)"},{"poiid":"B2094751D265A5FE429D","title":"NEO BAR","lon":"121.50966","lat":"31.29656","category":"247","category_name":"餐饮美食","address":"杨浦区国定路333号三号湾广场内(近邯郸路)"},{"poiid":"B2094753D66AAAF8459F","title":"Caffé bene","lon":"121.510894","lat":"31.298664","category":"500","category_name":"未知分类","address":"上海市 邯郸路399号"},{"poiid":"B2094757D06AA1FC499A","title":"复旦大学新闻学院301","lon":"121.51003087","lat":"31.298235319","category":"253","category_name":"校园生活","address":"上海国定路"},{"poiid":"B2094654D56EAAFD4893","title":"澳门豆捞 邯郸店 Dollar","lon":"121.512166054","lat":"31.298601793","category":"86","category_name":"火锅店","address":"邯郸路383号近国定路"},{"poiid":"B2094752D76FABFB459F","title":"串趣-成都串串香","lon":"121.510199","lat":"31.298101","category":"247","category_name":"餐饮美食","address":"上海市邯郸路399号A3"},{"poiid":"B2094751D56CABF5479E","title":"豪享来上海三号湾店","lon":"121.509","lat":"31.297","category":"247","category_name":"餐饮美食","address":"上海杨浦区国定路333号三号湾三号楼二层"},{"poiid":"B2094757D16BA2FA4098","title":"海底捞五角场苏宁店","lon":"121.512351103","lat":"31.2986510124","category":"500","category_name":"未知分类","address":"上海市杨浦区政民路"},{"poiid":"B2094751DA6EA7F84392","title":"江边城外烤鱼","lon":"121.5110353","lat":"31.2998667","category":"247","category_name":"餐饮美食","address":"百联又一城6F"},{"poiid":"B2094654D56EA4FC4292","title":"复旦大学新闻学院(南门)","lon":"121.51048","lat":"31.29883","category":"656","category_name":"大门","address":"杨浦区邯郸路440号"},{"poiid":"B2094757D064A0FE449F","title":"值得来","lon":"121.5088491","lat":"31.297853995","category":"71","category_name":"四川菜","address":"杨浦区邯郸路383号(近国定路)"},{"poiid":"B2094757D165A3FF499E","title":"卡布拉蛋糕 三号湾店 Cabler","lon":"121.509392054","lat":"31.297657793","category":"67","category_name":"甜品店","address":"杨浦区国定路333号三号湾广场F107商铺(邯郸路口)"},{"poiid":"B2094757D065A0FB439C","title":"复旦大学卿云楼","lon":"121.508861413","lat":"31.2978894665","category":"500","category_name":"未知分类","address":"上海杨浦区邯郸路220号复旦大学邯郸校区"},{"poiid":"B2094654D56EAAF84799","title":"真的好海鲜餐厅(国定路)","lon":"121.50903","lat":"31.2971","category":"260","category_name":"其他","address":"杨浦区国定路365号2楼(近邯郸路)"},{"poiid":"B2094750DB6BA7F9439F","title":"红辣椒火锅川菜","lon":"121.507888","lat":"31.296735","category":"247","category_name":"餐饮美食","address":"杨浦区邯郸路399号"},{"poiid":"B2094655D265A2FF4598","title":"全家","lon":"121.50887","lat":"31.29752","category":"117","category_name":"便民商店/便利店","address":""},{"poiid":"B2094750D26EA4FB449C","title":"广州蕉叶","lon":"121.510604","lat":"31.298387","category":"247","category_name":"餐饮美食","address":null},{"poiid":"B2094757D068A5F9469B","title":"复旦大学新闻学院屠海鸣图书楼","lon":"121.509850897","lat":"31.2985454707","category":"500","category_name":"未知分类","address":"上海国定路400号复旦大学新闻学院内"},{"poiid":"B2094757D06BA7F54092","title":"久斯台球会所(五角场旗舰店)","lon":"121.5092111","lat":"31.296886975","category":"171","category_name":"台球厅","address":"上海杨浦区国定路333号三号湾广场(邯郸路口)"},{"poiid":"B2094750DA6EABF84192","title":"阿燚糖水铺","lon":"121.509986","lat":"31.298151","category":"247","category_name":"餐饮美食","address":"邯郸路399号红街食坊A-1号商铺"},{"poiid":"B2094757D06FA4FA499E","title":"釜山火炉","lon":"121.510770503","lat":"31.2981781025","category":"96","category_name":"韩国料理","address":"杨浦区邯郸路397号(近国定路)"},{"poiid":"B2094655D26AABFE4198","title":"红辣椒(杨浦店)","lon":"121.51124","lat":"31.29776","category":"71","category_name":"四川菜","address":"杨浦区邯郸路399号财富大酒店A区2楼(近国定路)"},{"poiid":"B2094654D56EA4FC429D","title":"复旦大学新闻学院","lon":"121.50956","lat":"31.29934","category":"52","category_name":"高等院校","address":"杨浦区邯郸路440号"},{"poiid":"B2094757D06FA2F9429A","title":"长白山韩国烧烤店(国定路店)","lon":"121.50965","lat":"31.29742","category":"96","category_name":"韩国料理","address":"杨浦区国定路346号2楼(近邯郸路)"},{"poiid":"B2094757D06FA3F84692","title":"侬好蛙干锅传奇(五角场店)","lon":"121.51022","lat":"31.29773","category":"71","category_name":"四川菜","address":"杨浦区邯郸路395号(近国定路)"},{"poiid":"B2094757D06FA0FA439C","title":"三号湾","lon":"121.51006","lat":"31.2961","category":"119","category_name":"商场","address":"杨浦区国定路333号(邯郸路口)"},{"poiid":"B2094757D06FA5FF4892","title":"复宣酒店","lon":"121.50914","lat":"31.29867","category":"217","category_name":"旅馆招待所","address":"杨浦区国定路400号复旦大学内(近邯郸路)查看地图"},{"poiid":"B2094757D06EAAFD429D","title":"壹丸冰","lon":"121.5117481","lat":"31.29951003","category":"67","category_name":"甜品店","address":"杨浦区政通路189号万达广场特力时尚汇1楼(近国宾路)"},{"poiid":"B2094757D06FA3F8489D","title":"东方CJ电视购物","lon":"121.508425948","lat":"31.2991633123","category":"46","category_name":"楼宇","address":"杨浦区国定路400号复旦大学内(近邯郸路)"},{"poiid":"B2094753D669A4F44498","title":"Caffe bene","lon":"121.510696","lat":"31.298107","category":"500","category_name":"未知分类","address":"上海市 上海杨浦区邯郸路399号东1"},{"poiid":"B2094750DB6FA0FB479B","title":"串趣-成都串串香","lon":"121.50986","lat":"31.29787","category":"71","category_name":"四川菜","address":"杨浦区邯郸路399号A3红街食坊内(近国定路)"},{"poiid":"B2094655D36CA7FA4793","title":"邯郸路五角场","lon":"121.51207","lat":"31.29889","category":"38","category_name":"公交车站","address":""},{"poiid":"B2094757D06FA1F84792","title":"复旦科技园创业中心","lon":"121.50833129","lat":"31.297384262","category":"46","category_name":"楼宇","address":"上海国定路335号"},{"poiid":"B2094757D068AAF54099","title":"巨麦KTV(国定路店)","lon":"121.51250958","lat":"31.297787724","category":"170","category_name":"KTV","address":"杨浦区国定路333号三号湾下沉广场(近邯郸路)"},{"poiid":"B2094750D768A2FD4393","title":"燚记糖水铺","lon":"121.511","lat":"31.2983","category":"67","category_name":"甜品店","address":"杨浦区邯郸路399号红街食坊A-1号铺(近国定路)"},{"poiid":"B2094655D265A5FE479B","title":"陌生人火锅餐厅","lon":"121.5093","lat":"31.29686","category":"86","category_name":"火锅店","address":"杨浦区国定路333号三号湾广场2楼(邯郸路口)"},{"poiid":"B2094750D26EABFC4793","title":"柬泰岚泰式杰克水晶火锅","lon":"121.5111","lat":"31.299102","category":"247","category_name":"餐饮美食","address":"杨浦区邯郸路399号财富大酒店A座4楼(近国定路)"},{"poiid":"B2094757D06FA7FC4098","title":"藏宝海湾桌面游戏(五角场店)","lon":"121.51220526","lat":"31.298598676","category":"175","category_name":"棋牌室","address":"上海市杨浦区邯郸路569号"},{"poiid":"B2094757D068A1FC439D","title":"永昌烧味餐厅","lon":"121.50953674","lat":"31.297847747","category":"68","category_name":"快餐厅","address":"杨浦区邯郸路389号(国定路邯郸路)"},{"poiid":"B2094757DB68A5F9479A","title":"川流不息 五角场店","lon":"121.509664","lat":"31.29656","category":"71","category_name":"四川菜","address":"杨浦区国定路333号三号湾广场2楼(近邯郸路)"},{"poiid":"B2094757D068A3FB4593","title":"味千拉面(三号湾店)","lon":"121.50957","lat":"31.29706","category":"95","category_name":"日本料理","address":"杨浦区国定路333号三号湾广场1楼(邯郸路口)"},{"poiid":"B2094753D66AAAF54099","title":"caffebene（五角场店）","lon":"121.511245","lat":"31.298652","category":"500","category_name":"未知分类","address":"上海市 邯郸路399号"},{"poiid":"B2094757D068ABFD4692","title":"邵记传菜(三号湾店)","lon":"121.50944","lat":"31.29615","category":"75","category_name":"浙江菜","address":"杨浦区国定路333号三号湾广场(邯郸路口)"},{"poiid":"B2094655D26CA7F4459D","title":"复旦大学邯郸路体育场","lon":"121.50761","lat":"31.29655","category":"224","category_name":"综合体育馆","address":""},{"poiid":"B2094757D068A2FF469F","title":"85度C(三号湾店)","lon":"121.50904818","lat":"31.296558257","category":"112","category_name":"糕饼店","address":"杨浦区国定路333号三号湾广场1楼(邯郸路口)"},{"poiid":"B2094757D464A7FC429C","title":"涌香阁","lon":"121.509439054","lat":"31.297650793","category":"75","category_name":"浙江菜","address":"杨浦区国定路333号三号湾广场(邯郸路口)"},{"poiid":"B2094757D069A7FF4099","title":"国定365餐厅","lon":"121.50925","lat":"31.29706","category":"91","category_name":"台湾菜","address":"杨浦区国定路365号1-2楼(近邯郸路)"},{"poiid":"B2094757D06FA7F5459D","title":"颐高数码广场(五角场店)","lon":"121.50858959","lat":"31.297517583","category":"138","category_name":"家电电子卖场","address":"上海邯郸路365号(近国定路)"},{"poiid":"B2094757D069A7F8499A","title":"上海新东方学校(国定路校区)","lon":"121.50984265508646","lat":"31.29611115875543","category":"632","category_name":"教育出国类公司","address":"上海杨浦区国定路309号(近邯郸路)  "},{"poiid":"B2094757DB68A3FA4298","title":"汤姆熊万达店","lon":"121.5074775247013","lat":"31.29937517049544","category":"500","category_name":"未知分类","address":"杨浦区邯郸路600号万达商业广场B1楼A-17号(近淞沪路)"},{"poiid":"B2094757D468A0FC459E","title":"旦苑食府","lon":"121.511250054","lat":"31.298550793","category":"68","category_name":"快餐厅","address":"杨浦区邯郸路220号复旦大学本部食堂3楼(近国权路)"},{"poiid":"B2094751D265A5FE429D","title":"NEO BAR","lon":"121.50966","lat":"31.29656","category":"247","category_name":"餐饮美食","address":"杨浦区国定路333号三号湾广场内(近邯郸路)"},{"poiid":"B2094753D66AAAF8459F","title":"Caffé bene","lon":"121.510894","lat":"31.298664","category":"500","category_name":"未知分类","address":"上海市 邯郸路399号"},{"poiid":"B2094757D06AA1FC499A","title":"复旦大学新闻学院301","lon":"121.51003087","lat":"31.298235319","category":"253","category_name":"校园生活","address":"上海国定路"},{"poiid":"B2094654D56EAAFD4893","title":"澳门豆捞 邯郸店 Dollar","lon":"121.512166054","lat":"31.298601793","category":"86","category_name":"火锅店","address":"邯郸路383号近国定路"},{"poiid":"B2094752D76FABFB459F","title":"串趣-成都串串香","lon":"121.510199","lat":"31.298101","category":"247","category_name":"餐饮美食","address":"上海市邯郸路399号A3"},{"poiid":"B2094751D56CABF5479E","title":"豪享来上海三号湾店","lon":"121.509","lat":"31.297","category":"247","category_name":"餐饮美食","address":"上海杨浦区国定路333号三号湾三号楼二层"},{"poiid":"B2094757D16BA2FA4098","title":"海底捞五角场苏宁店","lon":"121.512351103","lat":"31.2986510124","category":"500","category_name":"未知分类","address":"上海市杨浦区政民路"},{"poiid":"B2094751DA6EA7F84392","title":"江边城外烤鱼","lon":"121.5110353","lat":"31.2998667","category":"247","category_name":"餐饮美食","address":"百联又一城6F"},{"poiid":"B2094654D56EA4FC4292","title":"复旦大学新闻学院(南门)","lon":"121.51048","lat":"31.29883","category":"656","category_name":"大门","address":"杨浦区邯郸路440号"},{"poiid":"B2094757D064A0FE449F","title":"值得来","lon":"121.5088491","lat":"31.297853995","category":"71","category_name":"四川菜","address":"杨浦区邯郸路383号(近国定路)"},{"poiid":"B2094757D165A3FF499E","title":"卡布拉蛋糕 三号湾店 Cabler","lon":"121.509392054","lat":"31.297657793","category":"67","category_name":"甜品店","address":"杨浦区国定路333号三号湾广场F107商铺(邯郸路口)"},{"poiid":"B2094757D065A0FB439C","title":"复旦大学卿云楼","lon":"121.508861413","lat":"31.2978894665","category":"500","category_name":"未知分类","address":"上海杨浦区邯郸路220号复旦大学邯郸校区"},{"poiid":"B2094654D56EAAF84799","title":"真的好海鲜餐厅(国定路)","lon":"121.50903","lat":"31.2971","category":"260","category_name":"其他","address":"杨浦区国定路365号2楼(近邯郸路)"},{"poiid":"B2094750DB6BA7F9439F","title":"红辣椒火锅川菜","lon":"121.507888","lat":"31.296735","category":"247","category_name":"餐饮美食","address":"杨浦区邯郸路399号"},{"poiid":"B2094655D265A2FF4598","title":"全家","lon":"121.50887","lat":"31.29752","category":"117","category_name":"便民商店/便利店","address":""},{"poiid":"B2094750D26EA4FB449C","title":"广州蕉叶","lon":"121.510604","lat":"31.298387","category":"247","category_name":"餐饮美食","address":null},{"poiid":"B2094757D068A5F9469B","title":"复旦大学新闻学院屠海鸣图书楼","lon":"121.509850897","lat":"31.2985454707","category":"500","category_name":"未知分类","address":"上海国定路400号复旦大学新闻学院内"},{"poiid":"B2094757D06BA7F54092","title":"久斯台球会所(五角场旗舰店)","lon":"121.5092111","lat":"31.296886975","category":"171","category_name":"台球厅","address":"上海杨浦区国定路333号三号湾广场(邯郸路口)"},{"poiid":"B2094750DA6EABF84192","title":"阿燚糖水铺","lon":"121.509986","lat":"31.298151","category":"247","category_name":"餐饮美食","address":"邯郸路399号红街食坊A-1号商铺"},{"poiid":"B2094757D06FA4FA499E","title":"釜山火炉","lon":"121.510770503","lat":"31.2981781025","category":"96","category_name":"韩国料理","address":"杨浦区邯郸路397号(近国定路)"},{"poiid":"B2094655D26AABFE4198","title":"红辣椒(杨浦店)","lon":"121.51124","lat":"31.29776","category":"71","category_name":"四川菜","address":"杨浦区邯郸路399号财富大酒店A区2楼(近国定路)"},{"poiid":"B2094654D56EA4FC429D","title":"复旦大学新闻学院","lon":"121.50956","lat":"31.29934","category":"52","category_name":"高等院校","address":"杨浦区邯郸路440号"},{"poiid":"B2094757D06FA2F9429A","title":"长白山韩国烧烤店(国定路店)","lon":"121.50965","lat":"31.29742","category":"96","category_name":"韩国料理","address":"杨浦区国定路346号2楼(近邯郸路)"},{"poiid":"B2094757D06FA3F84692","title":"侬好蛙干锅传奇(五角场店)","lon":"121.51022","lat":"31.29773","category":"71","category_name":"四川菜","address":"杨浦区邯郸路395号(近国定路)"},{"poiid":"B2094757D06FA0FA439C","title":"三号湾","lon":"121.51006","lat":"31.2961","category":"119","category_name":"商场","address":"杨浦区国定路333号(邯郸路口)"},{"poiid":"B2094757D06FA5FF4892","title":"复宣酒店","lon":"121.50914","lat":"31.29867","category":"217","category_name":"旅馆招待所","address":"杨浦区国定路400号复旦大学内(近邯郸路)查看地图"},{"poiid":"B2094757D06EAAFD429D","title":"壹丸冰","lon":"121.5117481","lat":"31.29951003","category":"67","category_name":"甜品店","address":"杨浦区政通路189号万达广场特力时尚汇1楼(近国宾路)"},{"poiid":"B2094757D06FA3F8489D","title":"东方CJ电视购物","lon":"121.508425948","lat":"31.2991633123","category":"46","category_name":"楼宇","address":"杨浦区国定路400号复旦大学内(近邯郸路)"},{"poiid":"B2094753D669A4F44498","title":"Caffe bene","lon":"121.510696","lat":"31.298107","category":"500","category_name":"未知分类","address":"上海市 上海杨浦区邯郸路399号东1"},{"poiid":"B2094750DB6FA0FB479B","title":"串趣-成都串串香","lon":"121.50986","lat":"31.29787","category":"71","category_name":"四川菜","address":"杨浦区邯郸路399号A3红街食坊内(近国定路)"},{"poiid":"B2094655D36CA7FA4793","title":"邯郸路五角场","lon":"121.51207","lat":"31.29889","category":"38","category_name":"公交车站","address":""},{"poiid":"B2094757D06FA1F84792","title":"复旦科技园创业中心","lon":"121.50833129","lat":"31.297384262","category":"46","category_name":"楼宇","address":"上海国定路335号"},{"poiid":"B2094757D068AAF54099","title":"巨麦KTV(国定路店)","lon":"121.51250958","lat":"31.297787724","category":"170","category_name":"KTV","address":"杨浦区国定路333号三号湾下沉广场(近邯郸路)"},{"poiid":"B2094750D768A2FD4393","title":"燚记糖水铺","lon":"121.511","lat":"31.2983","category":"67","category_name":"甜品店","address":"杨浦区邯郸路399号红街食坊A-1号铺(近国定路)"},{"poiid":"B2094655D265A5FE479B","title":"陌生人火锅餐厅","lon":"121.5093","lat":"31.29686","category":"86","category_name":"火锅店","address":"杨浦区国定路333号三号湾广场2楼(邯郸路口)"},{"poiid":"B2094750D26EABFC4793","title":"柬泰岚泰式杰克水晶火锅","lon":"121.5111","lat":"31.299102","category":"247","category_name":"餐饮美食","address":"杨浦区邯郸路399号财富大酒店A座4楼(近国定路)"},{"poiid":"B2094757D06FA7FC4098","title":"藏宝海湾桌面游戏(五角场店)","lon":"121.51220526","lat":"31.298598676","category":"175","category_name":"棋牌室","address":"上海市杨浦区邯郸路569号"},{"poiid":"B2094757D068A1FC439D","title":"永昌烧味餐厅","lon":"121.50953674","lat":"31.297847747","category":"68","category_name":"快餐厅","address":"杨浦区邯郸路389号(国定路邯郸路)"},{"poiid":"B2094757DB68A5F9479A","title":"川流不息 五角场店","lon":"121.509664","lat":"31.29656","category":"71","category_name":"四川菜","address":"杨浦区国定路333号三号湾广场2楼(近邯郸路)"},{"poiid":"B2094757D068A3FB4593","title":"味千拉面(三号湾店)","lon":"121.50957","lat":"31.29706","category":"95","category_name":"日本料理","address":"杨浦区国定路333号三号湾广场1楼(邯郸路口)"},{"poiid":"B2094753D66AAAF54099","title":"caffebene（五角场店）","lon":"121.511245","lat":"31.298652","category":"500","category_name":"未知分类","address":"上海市 邯郸路399号"},{"poiid":"B2094757D068ABFD4692","title":"邵记传菜(三号湾店)","lon":"121.50944","lat":"31.29615","category":"75","category_name":"浙江菜","address":"杨浦区国定路333号三号湾广场(邯郸路口)"},{"poiid":"B2094655D26CA7F4459D","title":"复旦大学邯郸路体育场","lon":"121.50761","lat":"31.29655","category":"224","category_name":"综合体育馆","address":""},{"poiid":"B2094757D068A2FF469F","title":"85度C(三号湾店)","lon":"121.50904818","lat":"31.296558257","category":"112","category_name":"糕饼店","address":"杨浦区国定路333号三号湾广场1楼(邯郸路口)"},{"poiid":"B2094757D464A7FC429C","title":"涌香阁","lon":"121.509439054","lat":"31.297650793","category":"75","category_name":"浙江菜","address":"杨浦区国定路333号三号湾广场(邯郸路口)"},{"poiid":"B2094757D069A7FF4099","title":"国定365餐厅","lon":"121.50925","lat":"31.29706","category":"91","category_name":"台湾菜","address":"杨浦区国定路365号1-2楼(近邯郸路)"},{"poiid":"B2094757D06FA7F5459D","title":"颐高数码广场(五角场店)","lon":"121.50858959","lat":"31.297517583","category":"138","category_name":"家电电子卖场","address":"上海邯郸路365号(近国定路)"},{"poiid":"B2094757D069A7F8499A","title":"上海新东方学校(国定路校区)","lon":"121.50984265508646","lat":"31.29611115875543","category":"632","category_name":"教育出国类公司","address":"上海杨浦区国定路309号(近邯郸路)  "},{"poiid":"B2094757DB68A3FA4298","title":"汤姆熊万达店","lon":"121.5074775247013","lat":"31.29937517049544","category":"500","category_name":"未知分类","address":"杨浦区邯郸路600号万达商业广场B1楼A-17号(近淞沪路)"},{"poiid":"B2094757D468A0FC459E","title":"旦苑食府","lon":"121.511250054","lat":"31.298550793","category":"68","category_name":"快餐厅","address":"杨浦区邯郸路220号复旦大学本部食堂3楼(近国权路)"},{"poiid":"B2094751D265A5FE429D","title":"NEO BAR","lon":"121.50966","lat":"31.29656","category":"247","category_name":"餐饮美食","address":"杨浦区国定路333号三号湾广场内(近邯郸路)"},{"poiid":"B2094753D66AAAF8459F","title":"Caffé bene","lon":"121.510894","lat":"31.298664","category":"500","category_name":"未知分类","address":"上海市 邯郸路399号"},{"poiid":"B2094757D06AA1FC499A","title":"复旦大学新闻学院301","lon":"121.51003087","lat":"31.298235319","category":"253","category_name":"校园生活","address":"上海国定路"},{"poiid":"B2094654D56EAAFD4893","title":"澳门豆捞 邯郸店 Dollar","lon":"121.512166054","lat":"31.298601793","category":"86","category_name":"火锅店","address":"邯郸路383号近国定路"},{"poiid":"B2094752D76FABFB459F","title":"串趣-成都串串香","lon":"121.510199","lat":"31.298101","category":"247","category_name":"餐饮美食","address":"上海市邯郸路399号A3"},{"poiid":"B2094751D56CABF5479E","title":"豪享来上海三号湾店","lon":"121.509","lat":"31.297","category":"247","category_name":"餐饮美食","address":"上海杨浦区国定路333号三号湾三号楼二层"},{"poiid":"B2094757D16BA2FA4098","title":"海底捞五角场苏宁店","lon":"121.512351103","lat":"31.2986510124","category":"500","category_name":"未知分类","address":"上海市杨浦区政民路"},{"poiid":"B2094751DA6EA7F84392","title":"江边城外烤鱼","lon":"121.5110353","lat":"31.2998667","category":"247","category_name":"餐饮美食","address":"百联又一城6F"},{"poiid":"B2094654D56EA4FC4292","title":"复旦大学新闻学院(南门)","lon":"121.51048","lat":"31.29883","category":"656","category_name":"大门","address":"杨浦区邯郸路440号"},{"poiid":"B2094757D064A0FE449F","title":"值得来","lon":"121.5088491","lat":"31.297853995","category":"71","category_name":"四川菜","address":"杨浦区邯郸路383号(近国定路)"},{"poiid":"B2094757D165A3FF499E","title":"卡布拉蛋糕 三号湾店 Cabler","lon":"121.509392054","lat":"31.297657793","category":"67","category_name":"甜品店","address":"杨浦区国定路333号三号湾广场F107商铺(邯郸路口)"},{"poiid":"B2094757D065A0FB439C","title":"复旦大学卿云楼","lon":"121.508861413","lat":"31.2978894665","category":"500","category_name":"未知分类","address":"上海杨浦区邯郸路220号复旦大学邯郸校区"},{"poiid":"B2094654D56EAAF84799","title":"真的好海鲜餐厅(国定路)","lon":"121.50903","lat":"31.2971","category":"260","category_name":"其他","address":"杨浦区国定路365号2楼(近邯郸路)"},{"poiid":"B2094750DB6BA7F9439F","title":"红辣椒火锅川菜","lon":"121.507888","lat":"31.296735","category":"247","category_name":"餐饮美食","address":"杨浦区邯郸路399号"},{"poiid":"B2094655D265A2FF4598","title":"全家","lon":"121.50887","lat":"31.29752","category":"117","category_name":"便民商店/便利店","address":""},{"poiid":"B2094750D26EA4FB449C","title":"广州蕉叶","lon":"121.510604","lat":"31.298387","category":"247","category_name":"餐饮美食","address":null},{"poiid":"B2094757D068A5F9469B","title":"复旦大学新闻学院屠海鸣图书楼","lon":"121.509850897","lat":"31.2985454707","category":"500","category_name":"未知分类","address":"上海国定路400号复旦大学新闻学院内"},{"poiid":"B2094757D06BA7F54092","title":"久斯台球会所(五角场旗舰店)","lon":"121.5092111","lat":"31.296886975","category":"171","category_name":"台球厅","address":"上海杨浦区国定路333号三号湾广场(邯郸路口)"},{"poiid":"B2094750DA6EABF84192","title":"阿燚糖水铺","lon":"121.509986","lat":"31.298151","category":"247","category_name":"餐饮美食","address":"邯郸路399号红街食坊A-1号商铺"},{"poiid":"B2094757D06FA4FA499E","title":"釜山火炉","lon":"121.510770503","lat":"31.2981781025","category":"96","category_name":"韩国料理","address":"杨浦区邯郸路397号(近国定路)"},{"poiid":"B2094655D26AABFE4198","title":"红辣椒(杨浦店)","lon":"121.51124","lat":"31.29776","category":"71","category_name":"四川菜","address":"杨浦区邯郸路399号财富大酒店A区2楼(近国定路)"},{"poiid":"B2094654D56EA4FC429D","title":"复旦大学新闻学院","lon":"121.50956","lat":"31.29934","category":"52","category_name":"高等院校","address":"杨浦区邯郸路440号"},{"poiid":"B2094757D06FA2F9429A","title":"长白山韩国烧烤店(国定路店)","lon":"121.50965","lat":"31.29742","category":"96","category_name":"韩国料理","address":"杨浦区国定路346号2楼(近邯郸路)"},{"poiid":"B2094757D06FA3F84692","title":"侬好蛙干锅传奇(五角场店)","lon":"121.51022","lat":"31.29773","category":"71","category_name":"四川菜","address":"杨浦区邯郸路395号(近国定路)"},{"poiid":"B2094757D06FA0FA439C","title":"三号湾","lon":"121.51006","lat":"31.2961","category":"119","category_name":"商场","address":"杨浦区国定路333号(邯郸路口)"},{"poiid":"B2094757D06FA5FF4892","title":"复宣酒店","lon":"121.50914","lat":"31.29867","category":"217","category_name":"旅馆招待所","address":"杨浦区国定路400号复旦大学内(近邯郸路)查看地图"},{"poiid":"B2094757D06EAAFD429D","title":"壹丸冰","lon":"121.5117481","lat":"31.29951003","category":"67","category_name":"甜品店","address":"杨浦区政通路189号万达广场特力时尚汇1楼(近国宾路)"},{"poiid":"B2094757D06FA3F8489D","title":"东方CJ电视购物","lon":"121.508425948","lat":"31.2991633123","category":"46","category_name":"楼宇","address":"杨浦区国定路400号复旦大学内(近邯郸路)"},{"poiid":"B2094753D669A4F44498","title":"Caffe bene","lon":"121.510696","lat":"31.298107","category":"500","category_name":"未知分类","address":"上海市 上海杨浦区邯郸路399号东1"},{"poiid":"B2094750DB6FA0FB479B","title":"串趣-成都串串香","lon":"121.50986","lat":"31.29787","category":"71","category_name":"四川菜","address":"杨浦区邯郸路399号A3红街食坊内(近国定路)"},{"poiid":"B2094655D36CA7FA4793","title":"邯郸路五角场","lon":"121.51207","lat":"31.29889","category":"38","category_name":"公交车站","address":""},{"poiid":"B2094757D06FA1F84792","title":"复旦科技园创业中心","lon":"121.50833129","lat":"31.297384262","category":"46","category_name":"楼宇","address":"上海国定路335号"},{"poiid":"B2094757D068AAF54099","title":"巨麦KTV(国定路店)","lon":"121.51250958","lat":"31.297787724","category":"170","category_name":"KTV","address":"杨浦区国定路333号三号湾下沉广场(近邯郸路)"},{"poiid":"B2094750D768A2FD4393","title":"燚记糖水铺","lon":"121.511","lat":"31.2983","category":"67","category_name":"甜品店","address":"杨浦区邯郸路399号红街食坊A-1号铺(近国定路)"},{"poiid":"B2094655D265A5FE479B","title":"陌生人火锅餐厅","lon":"121.5093","lat":"31.29686","category":"86","category_name":"火锅店","address":"杨浦区国定路333号三号湾广场2楼(邯郸路口)"},{"poiid":"B2094750D26EABFC4793","title":"柬泰岚泰式杰克水晶火锅","lon":"121.5111","lat":"31.299102","category":"247","category_name":"餐饮美食","address":"杨浦区邯郸路399号财富大酒店A座4楼(近国定路)"},{"poiid":"B2094757D06FA7FC4098","title":"藏宝海湾桌面游戏(五角场店)","lon":"121.51220526","lat":"31.298598676","category":"175","category_name":"棋牌室","address":"上海市杨浦区邯郸路569号"},{"poiid":"B2094757D068A1FC439D","title":"永昌烧味餐厅","lon":"121.50953674","lat":"31.297847747","category":"68","category_name":"快餐厅","address":"杨浦区邯郸路389号(国定路邯郸路)"},{"poiid":"B2094757DB68A5F9479A","title":"川流不息 五角场店","lon":"121.509664","lat":"31.29656","category":"71","category_name":"四川菜","address":"杨浦区国定路333号三号湾广场2楼(近邯郸路)"},{"poiid":"B2094757D068A3FB4593","title":"味千拉面(三号湾店)","lon":"121.50957","lat":"31.29706","category":"95","category_name":"日本料理","address":"杨浦区国定路333号三号湾广场1楼(邯郸路口)"},{"poiid":"B2094753D66AAAF54099","title":"caffebene（五角场店）","lon":"121.511245","lat":"31.298652","category":"500","category_name":"未知分类","address":"上海市 邯郸路399号"},{"poiid":"B2094757D068ABFD4692","title":"邵记传菜(三号湾店)","lon":"121.50944","lat":"31.29615","category":"75","category_name":"浙江菜","address":"杨浦区国定路333号三号湾广场(邯郸路口)"},{"poiid":"B2094655D26CA7F4459D","title":"复旦大学邯郸路体育场","lon":"121.50761","lat":"31.29655","category":"224","category_name":"综合体育馆","address":""},{"poiid":"B2094757D068A2FF469F","title":"85度C(三号湾店)","lon":"121.50904818","lat":"31.296558257","category":"112","category_name":"糕饼店","address":"杨浦区国定路333号三号湾广场1楼(邯郸路口)"},{"poiid":"B2094757D464A7FC429C","title":"涌香阁","lon":"121.509439054","lat":"31.297650793","category":"75","category_name":"浙江菜","address":"杨浦区国定路333号三号湾广场(邯郸路口)"},{"poiid":"B2094757D069A7FF4099","title":"国定365餐厅","lon":"121.50925","lat":"31.29706","category":"91","category_name":"台湾菜","address":"杨浦区国定路365号1-2楼(近邯郸路)"},{"poiid":"B2094757D06FA7F5459D","title":"颐高数码广场(五角场店)","lon":"121.50858959","lat":"31.297517583","category":"138","category_name":"家电电子卖场","address":"上海邯郸路365号(近国定路)"},{"poiid":"B2094757D069A7F8499A","title":"上海新东方学校(国定路校区)","lon":"121.50984265508646","lat":"31.29611115875543","category":"632","category_name":"教育出国类公司","address":"上海杨浦区国定路309号(近邯郸路)  "},{"poiid":"B2094757DB68A3FA4298","title":"汤姆熊万达店","lon":"121.5074775247013","lat":"31.29937517049544","category":"500","category_name":"未知分类","address":"杨浦区邯郸路600号万达商业广场B1楼A-17号(近淞沪路)"},{"poiid":"B2094757D468A0FC459E","title":"旦苑食府","lon":"121.511250054","lat":"31.298550793","category":"68","category_name":"快餐厅","address":"杨浦区邯郸路220号复旦大学本部食堂3楼(近国权路)"},{"poiid":"B2094751D265A5FE429D","title":"NEO BAR","lon":"121.50966","lat":"31.29656","category":"247","category_name":"餐饮美食","address":"杨浦区国定路333号三号湾广场内(近邯郸路)"},{"poiid":"B2094753D66AAAF8459F","title":"Caffé bene","lon":"121.510894","lat":"31.298664","category":"500","category_name":"未知分类","address":"上海市 邯郸路399号"},{"poiid":"B2094757D06AA1FC499A","title":"复旦大学新闻学院301","lon":"121.51003087","lat":"31.298235319","category":"253","category_name":"校园生活","address":"上海国定路"},{"poiid":"B2094654D56EAAFD4893","title":"澳门豆捞 邯郸店 Dollar","lon":"121.512166054","lat":"31.298601793","category":"86","category_name":"火锅店","address":"邯郸路383号近国定路"},{"poiid":"B2094752D76FABFB459F","title":"串趣-成都串串香","lon":"121.510199","lat":"31.298101","category":"247","category_name":"餐饮美食","address":"上海市邯郸路399号A3"},{"poiid":"B2094751D56CABF5479E","title":"豪享来上海三号湾店","lon":"121.509","lat":"31.297","category":"247","category_name":"餐饮美食","address":"上海杨浦区国定路333号三号湾三号楼二层"},{"poiid":"B2094757D16BA2FA4098","title":"海底捞五角场苏宁店","lon":"121.512351103","lat":"31.2986510124","category":"500","category_name":"未知分类","address":"上海市杨浦区政民路"},{"poiid":"B2094751DA6EA7F84392","title":"江边城外烤鱼","lon":"121.5110353","lat":"31.2998667","category":"247","category_name":"餐饮美食","address":"百联又一城6F"},{"poiid":"B2094654D56EA4FC4292","title":"复旦大学新闻学院(南门)","lon":"121.51048","lat":"31.29883","category":"656","category_name":"大门","address":"杨浦区邯郸路440号"},{"poiid":"B2094757D064A0FE449F","title":"值得来","lon":"121.5088491","lat":"31.297853995","category":"71","category_name":"四川菜","address":"杨浦区邯郸路383号(近国定路)"},{"poiid":"B2094757D165A3FF499E","title":"卡布拉蛋糕 三号湾店 Cabler","lon":"121.509392054","lat":"31.297657793","category":"67","category_name":"甜品店","address":"杨浦区国定路333号三号湾广场F107商铺(邯郸路口)"},{"poiid":"B2094757D065A0FB439C","title":"复旦大学卿云楼","lon":"121.508861413","lat":"31.2978894665","category":"500","category_name":"未知分类","address":"上海杨浦区邯郸路220号复旦大学邯郸校区"},{"poiid":"B2094654D56EAAF84799","title":"真的好海鲜餐厅(国定路)","lon":"121.50903","lat":"31.2971","category":"260","category_name":"其他","address":"杨浦区国定路365号2楼(近邯郸路)"},{"poiid":"B2094750DB6BA7F9439F","title":"红辣椒火锅川菜","lon":"121.507888","lat":"31.296735","category":"247","category_name":"餐饮美食","address":"杨浦区邯郸路399号"},{"poiid":"B2094655D265A2FF4598","title":"全家","lon":"121.50887","lat":"31.29752","category":"117","category_name":"便民商店/便利店","address":""},{"poiid":"B2094750D26EA4FB449C","title":"广州蕉叶","lon":"121.510604","lat":"31.298387","category":"247","category_name":"餐饮美食","address":null},{"poiid":"B2094757D068A5F9469B","title":"复旦大学新闻学院屠海鸣图书楼","lon":"121.509850897","lat":"31.2985454707","category":"500","category_name":"未知分类","address":"上海国定路400号复旦大学新闻学院内"},{"poiid":"B2094757D06BA7F54092","title":"久斯台球会所(五角场旗舰店)","lon":"121.5092111","lat":"31.296886975","category":"171","category_name":"台球厅","address":"上海杨浦区国定路333号三号湾广场(邯郸路口)"},{"poiid":"B2094750DA6EABF84192","title":"阿燚糖水铺","lon":"121.509986","lat":"31.298151","category":"247","category_name":"餐饮美食","address":"邯郸路399号红街食坊A-1号商铺"}]