[{"poiid":"B2094757D06FA1FA4798","title":"藏珑泰极(湖南路店)","lon":"121.43899","lat":"31.20803","category":"99","category_name":"泰国／越南菜品餐厅","address":"徐汇区湖南路285号(近武康路)"},{"poiid":"B2094757D068A7FA4398","title":"武康路","lon":"121.439185","lat":"31.207438","category":"184","category_name":"美术馆","address":"上海都说了是武康路嘛"},{"poiid":"B2094757DA6FA3F8429B","title":"老吉士酒家","lon":"121.437904","lat":"31.2031100000001","category":"76","category_name":"上海菜","address":"徐汇区天平路41号(近淮海中路)"},{"poiid":"B2094753D76FAAFA449C","title":"上海滩国泰旗舰店","lon":"121.466011","lat":"31.216125","category":"249","category_name":"购物服务","address":"淮海中路868号"},{"poiid":"B2094757D068A2F44192","title":"宋庆龄故居","lon":"121.43891","lat":"31.20425","category":"260","category_name":"其他","address":"徐汇区淮海中路1843号(淮海中路余庆路)"},{"poiid":"B2094757D06FA7FB419B","title":"Coffee Tree(武康路店)","lon":"121.43923","lat":"31.20593","category":"260","category_name":"其他","address":"徐汇区武康路376号武康庭内(近泰安路)"},{"poiid":"B2094757D06FA5FE4798","title":"薇婷故事","lon":"121.43753","lat":"31.20909","category":"260","category_name":"其他","address":"徐汇区高邮路50弄5号(近复兴西路)查看地图"},{"poiid":"B2094757DA6EAAFC4198","title":"Aroom","lon":"121.435461000002","lat":"31.2060190000001","category":"260","category_name":"其他","address":"徐汇区泰安路120弄卫乐园15号(近华山路)"},{"poiid":"B2094757D16EA6FE499A","title":"聚膳源","lon":"121.437081586","lat":"31.2093992236","category":"76","category_name":"上海菜","address":"徐汇区复兴西路258号(近华山路)"},{"poiid":"B2094757D06FA5F84892","title":"中村发型设计中心(淮海中路店)","lon":"121.43946","lat":"31.20461","category":"148","category_name":"美容美发店","address":"徐汇区淮海中路1808号(近宋庆龄故居)"},{"poiid":"B2094757D169ABF54599","title":"泰安路兴国路","lon":"121.43685808","lat":"31.205923289","category":"46","category_name":"楼宇","address":"上海泰安路兴国路"},{"poiid":"B2094654DB6BA7F5469A","title":"逸谷餐厅","lon":"121.43748","lat":"31.20458","category":"70","category_name":"综合酒楼","address":"徐汇区兴国路380号(近淮海中路)"},{"poiid":"B2094757D068A1FB499F","title":"圆苑酒家(兴国路店)","lon":"121.43766","lat":"31.20577","category":"76","category_name":"上海菜","address":"徐汇区兴国路201号(近泰安路)"},{"poiid":"B2094750D269A1FB439A","title":"Azul Tapad Lounge","lon":"121.439964","lat":"31.207233","category":"500","category_name":"未知分类","address":"378 Wukang lu, Shanghai"},{"poiid":"B2094757D068ABFE489F","title":"武康大楼(Normandie Apartments)","lon":"121.43832667","lat":"31.204479872","category":"47","category_name":"住宅区","address":"上海徐汇区淮海中路1836-1858号(武康路口)"},{"poiid":"B2094752D26EA1F9439B","title":"椰香天堂","lon":"121.439186","lat":"31.206525","category":"247","category_name":"餐饮美食","address":"武康路378号"},{"poiid":"B2094757D469A3F9469E","title":"素人素食","lon":"121.434384","lat":"31.203704","category":"89","category_name":"中式素餐馆","address":"徐汇区华山路1585号(泰安路淮海西路)"},{"poiid":"B2094757D06AAAF5409D","title":"酷芝PIZZA COOLZEY","lon":"121.43455421439","lat":"31.20311280591","category":"94","category_name":"西餐厅","address":"徐汇区华山路1589号3号(近淮海中路)"},{"poiid":"B2094757D464A7FD4699","title":"MARDI GRAS","lon":"121.436810054","lat":"31.205342793","category":"94","category_name":"西餐厅","address":"徐汇区兴国路372弄1号(近泰安路)"},{"poiid":"B2094752D46AA7FB489C","title":"FARINE","lon":"121.439154","lat":"31.206338","category":"247","category_name":"餐饮美食","address":"武康路378号1楼"},{"poiid":"B2094655D26FA5FB4598","title":"缇咖园","lon":"121.436985054","lat":"31.205757793","category":"94","category_name":"西餐厅","address":"徐汇区泰安路50号(兴国路口)"},{"poiid":"B2094751D368A1FC409B","title":"Daga Cafe","lon":"121.4376","lat":"31.206","category":"247","category_name":"餐饮美食","address":"徐汇区泰安路36号(近兴国路)"},{"poiid":"B2094757D069A1FC409B","title":"兴国宾馆8号楼宴会厅","lon":"121.43587","lat":"31.20916","category":"217","category_name":"旅馆招待所","address":"上海徐汇区兴国路78号兴国宾馆内(华山路口)  "},{"poiid":"B2094654DB69A7FE4699","title":"南鹰饭店","lon":"121.44057","lat":"31.2059","category":"215","category_name":"三星级宾馆","address":"徐汇区淮海中路1728号(近宛平路)"},{"poiid":"B2094750D26AABFC499B","title":"澄园","lon":"121.434806","lat":"31.204935","category":"260","category_name":"其他","address":"徐汇区泰安路115弄1号楼101室(近华山路)"},{"poiid":"B2094753D669A3F94093","title":"星巴克(武康路店)","lon":"121.437815","lat":"31.204325","category":"500","category_name":"未知分类","address":"上海市 上海市徐汇区武康路420号1F"},{"poiid":"B2094757D068A7FB4892","title":"东北四季饺子王(徐汇店)","lon":"121.439977085","lat":"31.2051445931","category":"82","category_name":"东北菜","address":"徐汇区淮海中路1791号(近宛平路)"},{"poiid":"B2094654DB6BA7F54593","title":"新亚大包 兴国路店","lon":"121.43739739493","lat":"31.204392216969","category":"68","category_name":"快餐厅","address":"徐汇区兴国路408号(近淮海中路武康路)"},{"poiid":"B2094654DA6DA3FA489B","title":"南洋大楼","lon":"121.436","lat":"31.2052","category":"46","category_name":"楼宇","address":"徐汇区番禺路667号"},{"poiid":"B2094757D06BA2FF419D","title":"Le Petit Saleya","lon":"121.43431","lat":"31.20494","category":"94","category_name":"西餐厅","address":"徐汇区泰安路139号(近华山路)"},{"poiid":"B2094655D36CA0F5419B","title":"淮海中路武康路","lon":"121.4387","lat":"31.20445","category":"38","category_name":"公交车站","address":""},{"poiid":"B2094757D06AA2FC449F","title":"欣欣小厨房","lon":"121.43948550916","lat":"31.205087700504","category":"91","category_name":"台湾菜","address":"徐汇区淮海中路1783号(淮海中路宛平路)"},{"poiid":"B209475CD764A1FA4199","title":"椰香天堂 武康路店 Coconut Paradise","lon":"121.4390602","lat":"31.2064416","category":"99","category_name":"泰国／越南菜品餐厅","address":"武康路378号近泰安路"},{"poiid":"B2094757D06FA0FD4693","title":"Shanghai Studio","lon":"121.4377","lat":"31.20369","category":"260","category_name":"其他","address":"徐汇区淮海中路1950弄4号(近天平路)"},{"poiid":"B2094757D66BA3FA4992","title":"瓢 Sushi HISAGO","lon":"121.4374535","lat":"31.2052439","category":"95","category_name":"日本料理","address":"徐汇区兴国路372弄1号(近泰安路)"},{"poiid":"B2094654DA6DABF8439E","title":"亿方砂锅粥淮海店","lon":"121.43995","lat":"31.20506","category":"257","category_name":"中餐厅","address":"徐汇区淮海中路1793号(宛平路口)"},{"poiid":"B2094654DB6BA7F5439F","title":"喜士多便利连锁","lon":"121.43746","lat":"31.20557","category":"117","category_name":"便民商店/便利店","address":"泰安路27弄5号"},{"poiid":"B2094752D468A1F5469A","title":"Pistacchio","lon":"121.439237","lat":"31.206668","category":"247","category_name":"餐饮美食","address":"武康路378号"},{"poiid":"B2094757D168A4FC479A","title":"上海市质量协会","lon":"121.436691586","lat":"31.2057039514","category":"500","category_name":"未知分类","address":"上海泰安路74号"},{"poiid":"B2094655D264A7FA4598","title":"致真会馆","lon":"121.44039","lat":"31.2065","category":"208","category_name":"休闲场所","address":"淮海中路1726临"},{"poiid":"B2094757D06FAAFE439A","title":"喜客咖啡(武康店)","lon":"121.43839","lat":"31.20458","category":"260","category_name":"其他","address":"徐汇区武康路420号(近兴国路)"},{"poiid":"B2094757D169A2FE4492","title":"FC Styling House","lon":"121.437851586","lat":"31.2033589056","category":"500","category_name":"未知分类","address":"上海天平路30号(近淮海中路)"},{"poiid":"B209475DD36AA3FB4899","title":"UTAU","lon":"121.437469","lat":"31.205795","category":"500","category_name":"未知分类","address":"上海市 泰安路兴国路36号"},{"poiid":"B2094757D069A3FC4198","title":"湖南路兴国路口街心花园","lon":"121.4367","lat":"31.20798","category":"196","category_name":"公园","address":"徐汇区湖南路(兴国路口)"},{"poiid":"B2094751D56CA7F8479F","title":"Ginger Cafe(兴国路店)","lon":"121.43604","lat":"31.2089","category":"247","category_name":"餐饮美食","address":"徐汇区兴国路91号(近湖南路预计10月初开业)"},{"poiid":"B2094655D26FA3FF4999","title":"武康亭","lon":"121.43926","lat":"31.20648","category":"46","category_name":"楼宇","address":""},{"poiid":"B2094752DA6BA1FC499A","title":"徐家汇","lon":"121.43614","lat":"31.206363","category":"500","category_name":"未知分类","address":"上海市 徐家汇"},{"poiid":"B2094750D768ABF54699","title":"狠牛碳烤酒肴","lon":"121.439","lat":"31.2068","category":"269","category_name":"烧烤","address":"徐汇区武康路378号1楼5室武康庭内(近泰安路)"},{"poiid":"B2094752D66AA4FD4493","title":"franck bistrot","lon":"121.43906","lat":"31.20644","category":"247","category_name":"餐饮美食","address":"武康路376号武康庭内(近湖南路)"},{"poiid":"B2094757D16EA7FE4598","title":"幽篁古韵文化会所","lon":"121.43939","lat":"31.20416","category":"179","category_name":"音乐厅","address":"徐汇区淮海中路1801号(近宋庆龄故居)"},{"poiid":"B2094757D06FA1FA4798","title":"藏珑泰极(湖南路店)","lon":"121.43899","lat":"31.20803","category":"99","category_name":"泰国／越南菜品餐厅","address":"徐汇区湖南路285号(近武康路)"},{"poiid":"B2094757D068A7FA4398","title":"武康路","lon":"121.439185","lat":"31.207438","category":"184","category_name":"美术馆","address":"上海都说了是武康路嘛"},{"poiid":"B2094757DA6FA3F8429B","title":"老吉士酒家","lon":"121.437904","lat":"31.2031100000001","category":"76","category_name":"上海菜","address":"徐汇区天平路41号(近淮海中路)"},{"poiid":"B2094753D76FAAFA449C","title":"上海滩国泰旗舰店","lon":"121.466011","lat":"31.216125","category":"249","category_name":"购物服务","address":"淮海中路868号"},{"poiid":"B2094757D068A2F44192","title":"宋庆龄故居","lon":"121.43891","lat":"31.20425","category":"260","category_name":"其他","address":"徐汇区淮海中路1843号(淮海中路余庆路)"},{"poiid":"B2094757D06FA7FB419B","title":"Coffee Tree(武康路店)","lon":"121.43923","lat":"31.20593","category":"260","category_name":"其他","address":"徐汇区武康路376号武康庭内(近泰安路)"},{"poiid":"B2094757D06FA5FE4798","title":"薇婷故事","lon":"121.43753","lat":"31.20909","category":"260","category_name":"其他","address":"徐汇区高邮路50弄5号(近复兴西路)查看地图"},{"poiid":"B2094757DA6EAAFC4198","title":"Aroom","lon":"121.435461000002","lat":"31.2060190000001","category":"260","category_name":"其他","address":"徐汇区泰安路120弄卫乐园15号(近华山路)"},{"poiid":"B2094757D16EA6FE499A","title":"聚膳源","lon":"121.437081586","lat":"31.2093992236","category":"76","category_name":"上海菜","address":"徐汇区复兴西路258号(近华山路)"},{"poiid":"B2094757D06FA5F84892","title":"中村发型设计中心(淮海中路店)","lon":"121.43946","lat":"31.20461","category":"148","category_name":"美容美发店","address":"徐汇区淮海中路1808号(近宋庆龄故居)"},{"poiid":"B2094757D169ABF54599","title":"泰安路兴国路","lon":"121.43685808","lat":"31.205923289","category":"46","category_name":"楼宇","address":"上海泰安路兴国路"},{"poiid":"B2094654DB6BA7F5469A","title":"逸谷餐厅","lon":"121.43748","lat":"31.20458","category":"70","category_name":"综合酒楼","address":"徐汇区兴国路380号(近淮海中路)"},{"poiid":"B2094757D068A1FB499F","title":"圆苑酒家(兴国路店)","lon":"121.43766","lat":"31.20577","category":"76","category_name":"上海菜","address":"徐汇区兴国路201号(近泰安路)"},{"poiid":"B2094750D269A1FB439A","title":"Azul Tapad Lounge","lon":"121.439964","lat":"31.207233","category":"500","category_name":"未知分类","address":"378 Wukang lu, Shanghai"},{"poiid":"B2094757D068ABFE489F","title":"武康大楼(Normandie Apartments)","lon":"121.43832667","lat":"31.204479872","category":"47","category_name":"住宅区","address":"上海徐汇区淮海中路1836-1858号(武康路口)"},{"poiid":"B2094752D26EA1F9439B","title":"椰香天堂","lon":"121.439186","lat":"31.206525","category":"247","category_name":"餐饮美食","address":"武康路378号"},{"poiid":"B2094757D469A3F9469E","title":"素人素食","lon":"121.434384","lat":"31.203704","category":"89","category_name":"中式素餐馆","address":"徐汇区华山路1585号(泰安路淮海西路)"},{"poiid":"B2094757D06AAAF5409D","title":"酷芝PIZZA COOLZEY","lon":"121.43455421439","lat":"31.20311280591","category":"94","category_name":"西餐厅","address":"徐汇区华山路1589号3号(近淮海中路)"},{"poiid":"B2094757D464A7FD4699","title":"MARDI GRAS","lon":"121.436810054","lat":"31.205342793","category":"94","category_name":"西餐厅","address":"徐汇区兴国路372弄1号(近泰安路)"},{"poiid":"B2094752D46AA7FB489C","title":"FARINE","lon":"121.439154","lat":"31.206338","category":"247","category_name":"餐饮美食","address":"武康路378号1楼"},{"poiid":"B2094655D26FA5FB4598","title":"缇咖园","lon":"121.436985054","lat":"31.205757793","category":"94","category_name":"西餐厅","address":"徐汇区泰安路50号(兴国路口)"},{"poiid":"B2094751D368A1FC409B","title":"Daga Cafe","lon":"121.4376","lat":"31.206","category":"247","category_name":"餐饮美食","address":"徐汇区泰安路36号(近兴国路)"},{"poiid":"B2094757D069A1FC409B","title":"兴国宾馆8号楼宴会厅","lon":"121.43587","lat":"31.20916","category":"217","category_name":"旅馆招待所","address":"上海徐汇区兴国路78号兴国宾馆内(华山路口)  "},{"poiid":"B2094654DB69A7FE4699","title":"南鹰饭店","lon":"121.44057","lat":"31.2059","category":"215","category_name":"三星级宾馆","address":"徐汇区淮海中路1728号(近宛平路)"},{"poiid":"B2094750D26AABFC499B","title":"澄园","lon":"121.434806","lat":"31.204935","category":"260","category_name":"其他","address":"徐汇区泰安路115弄1号楼101室(近华山路)"},{"poiid":"B2094753D669A3F94093","title":"星巴克(武康路店)","lon":"121.437815","lat":"31.204325","category":"500","category_name":"未知分类","address":"上海市 上海市徐汇区武康路420号1F"},{"poiid":"B2094757D068A7FB4892","title":"东北四季饺子王(徐汇店)","lon":"121.439977085","lat":"31.2051445931","category":"82","category_name":"东北菜","address":"徐汇区淮海中路1791号(近宛平路)"},{"poiid":"B2094654DB6BA7F54593","title":"新亚大包 兴国路店","lon":"121.43739739493","lat":"31.204392216969","category":"68","category_name":"快餐厅","address":"徐汇区兴国路408号(近淮海中路武康路)"},{"poiid":"B2094654DA6DA3FA489B","title":"南洋大楼","lon":"121.436","lat":"31.2052","category":"46","category_name":"楼宇","address":"徐汇区番禺路667号"},{"poiid":"B2094757D06BA2FF419D","title":"Le Petit Saleya","lon":"121.43431","lat":"31.20494","category":"94","category_name":"西餐厅","address":"徐汇区泰安路139号(近华山路)"},{"poiid":"B2094655D36CA0F5419B","title":"淮海中路武康路","lon":"121.4387","lat":"31.20445","category":"38","category_name":"公交车站","address":""},{"poiid":"B2094757D06AA2FC449F","title":"欣欣小厨房","lon":"121.43948550916","lat":"31.205087700504","category":"91","category_name":"台湾菜","address":"徐汇区淮海中路1783号(淮海中路宛平路)"},{"poiid":"B209475CD764A1FA4199","title":"椰香天堂 武康路店 Coconut Paradise","lon":"121.4390602","lat":"31.2064416","category":"99","category_name":"泰国／越南菜品餐厅","address":"武康路378号近泰安路"},{"poiid":"B2094757D06FA0FD4693","title":"Shanghai Studio","lon":"121.4377","lat":"31.20369","category":"260","category_name":"其他","address":"徐汇区淮海中路1950弄4号(近天平路)"},{"poiid":"B2094757D66BA3FA4992","title":"瓢 Sushi HISAGO","lon":"121.4374535","lat":"31.2052439","category":"95","category_name":"日本料理","address":"徐汇区兴国路372弄1号(近泰安路)"},{"poiid":"B2094654DA6DABF8439E","title":"亿方砂锅粥淮海店","lon":"121.43995","lat":"31.20506","category":"257","category_name":"中餐厅","address":"徐汇区淮海中路1793号(宛平路口)"},{"poiid":"B2094654DB6BA7F5439F","title":"喜士多便利连锁","lon":"121.43746","lat":"31.20557","category":"117","category_name":"便民商店/便利店","address":"泰安路27弄5号"},{"poiid":"B2094752D468A1F5469A","title":"Pistacchio","lon":"121.439237","lat":"31.206668","category":"247","category_name":"餐饮美食","address":"武康路378号"},{"poiid":"B2094757D168A4FC479A","title":"上海市质量协会","lon":"121.436691586","lat":"31.2057039514","category":"500","category_name":"未知分类","address":"上海泰安路74号"},{"poiid":"B2094655D264A7FA4598","title":"致真会馆","lon":"121.44039","lat":"31.2065","category":"208","category_name":"休闲场所","address":"淮海中路1726临"},{"poiid":"B2094757D06FAAFE439A","title":"喜客咖啡(武康店)","lon":"121.43839","lat":"31.20458","category":"260","category_name":"其他","address":"徐汇区武康路420号(近兴国路)"},{"poiid":"B2094757D169A2FE4492","title":"FC Styling House","lon":"121.437851586","lat":"31.2033589056","category":"500","category_name":"未知分类","address":"上海天平路30号(近淮海中路)"},{"poiid":"B209475DD36AA3FB4899","title":"UTAU","lon":"121.437469","lat":"31.205795","category":"500","category_name":"未知分类","address":"上海市 泰安路兴国路36号"},{"poiid":"B2094757D069A3FC4198","title":"湖南路兴国路口街心花园","lon":"121.4367","lat":"31.20798","category":"196","category_name":"公园","address":"徐汇区湖南路(兴国路口)"},{"poiid":"B2094751D56CA7F8479F","title":"Ginger Cafe(兴国路店)","lon":"121.43604","lat":"31.2089","category":"247","category_name":"餐饮美食","address":"徐汇区兴国路91号(近湖南路预计10月初开业)"},{"poiid":"B2094655D26FA3FF4999","title":"武康亭","lon":"121.43926","lat":"31.20648","category":"46","category_name":"楼宇","address":""},{"poiid":"B2094752DA6BA1FC499A","title":"徐家汇","lon":"121.43614","lat":"31.206363","category":"500","category_name":"未知分类","address":"上海市 徐家汇"},{"poiid":"B2094750D768ABF54699","title":"狠牛碳烤酒肴","lon":"121.439","lat":"31.2068","category":"269","category_name":"烧烤","address":"徐汇区武康路378号1楼5室武康庭内(近泰安路)"},{"poiid":"B2094752D66AA4FD4493","title":"franck bistrot","lon":"121.43906","lat":"31.20644","category":"247","category_name":"餐饮美食","address":"武康路376号武康庭内(近湖南路)"},{"poiid":"B2094757D16EA7FE4598","title":"幽篁古韵文化会所","lon":"121.43939","lat":"31.20416","category":"179","category_name":"音乐厅","address":"徐汇区淮海中路1801号(近宋庆龄故居)"},{"poiid":"B2094757D06FA1FA4798","title":"藏珑泰极(湖南路店)","lon":"121.43899","lat":"31.20803","category":"99","category_name":"泰国／越南菜品餐厅","address":"徐汇区湖南路285号(近武康路)"},{"poiid":"B2094757D068A7FA4398","title":"武康路","lon":"121.439185","lat":"31.207438","category":"184","category_name":"美术馆","address":"上海都说了是武康路嘛"},{"poiid":"B2094757DA6FA3F8429B","title":"老吉士酒家","lon":"121.437904","lat":"31.2031100000001","category":"76","category_name":"上海菜","address":"徐汇区天平路41号(近淮海中路)"},{"poiid":"B2094753D76FAAFA449C","title":"上海滩国泰旗舰店","lon":"121.466011","lat":"31.216125","category":"249","category_name":"购物服务","address":"淮海中路868号"},{"poiid":"B2094757D068A2F44192","title":"宋庆龄故居","lon":"121.43891","lat":"31.20425","category":"260","category_name":"其他","address":"徐汇区淮海中路1843号(淮海中路余庆路)"},{"poiid":"B2094757D06FA7FB419B","title":"Coffee Tree(武康路店)","lon":"121.43923","lat":"31.20593","category":"260","category_name":"其他","address":"徐汇区武康路376号武康庭内(近泰安路)"},{"poiid":"B2094757D06FA5FE4798","title":"薇婷故事","lon":"121.43753","lat":"31.20909","category":"260","category_name":"其他","address":"徐汇区高邮路50弄5号(近复兴西路)查看地图"},{"poiid":"B2094757DA6EAAFC4198","title":"Aroom","lon":"121.435461000002","lat":"31.2060190000001","category":"260","category_name":"其他","address":"徐汇区泰安路120弄卫乐园15号(近华山路)"},{"poiid":"B2094757D16EA6FE499A","title":"聚膳源","lon":"121.437081586","lat":"31.2093992236","category":"76","category_name":"上海菜","address":"徐汇区复兴西路258号(近华山路)"},{"poiid":"B2094757D06FA5F84892","title":"中村发型设计中心(淮海中路店)","lon":"121.43946","lat":"31.20461","category":"148","category_name":"美容美发店","address":"徐汇区淮海中路1808号(近宋庆龄故居)"},{"poiid":"B2094757D169ABF54599","title":"泰安路兴国路","lon":"121.43685808","lat":"31.205923289","category":"46","category_name":"楼宇","address":"上海泰安路兴国路"},{"poiid":"B2094654DB6BA7F5469A","title":"逸谷餐厅","lon":"121.43748","lat":"31.20458","category":"70","category_name":"综合酒楼","address":"徐汇区兴国路380号(近淮海中路)"},{"poiid":"B2094757D068A1FB499F","title":"圆苑酒家(兴国路店)","lon":"121.43766","lat":"31.20577","category":"76","category_name":"上海菜","address":"徐汇区兴国路201号(近泰安路)"},{"poiid":"B2094750D269A1FB439A","title":"Azul Tapad Lounge","lon":"121.439964","lat":"31.207233","category":"500","category_name":"未知分类","address":"378 Wukang lu, Shanghai"},{"poiid":"B2094757D068ABFE489F","title":"武康大楼(Normandie Apartments)","lon":"121.43832667","lat":"31.204479872","category":"47","category_name":"住宅区","address":"上海徐汇区淮海中路1836-1858号(武康路口)"},{"poiid":"B2094752D26EA1F9439B","title":"椰香天堂","lon":"121.439186","lat":"31.206525","category":"247","category_name":"餐饮美食","address":"武康路378号"},{"poiid":"B2094757D469A3F9469E","title":"素人素食","lon":"121.434384","lat":"31.203704","category":"89","category_name":"中式素餐馆","address":"徐汇区华山路1585号(泰安路淮海西路)"},{"poiid":"B2094757D06AAAF5409D","title":"酷芝PIZZA COOLZEY","lon":"121.43455421439","lat":"31.20311280591","category":"94","category_name":"西餐厅","address":"徐汇区华山路1589号3号(近淮海中路)"},{"poiid":"B2094757D464A7FD4699","title":"MARDI GRAS","lon":"121.436810054","lat":"31.205342793","category":"94","category_name":"西餐厅","address":"徐汇区兴国路372弄1号(近泰安路)"},{"poiid":"B2094752D46AA7FB489C","title":"FARINE","lon":"121.439154","lat":"31.206338","category":"247","category_name":"餐饮美食","address":"武康路378号1楼"},{"poiid":"B2094655D26FA5FB4598","title":"缇咖园","lon":"121.436985054","lat":"31.205757793","category":"94","category_name":"西餐厅","address":"徐汇区泰安路50号(兴国路口)"},{"poiid":"B2094751D368A1FC409B","title":"Daga Cafe","lon":"121.4376","lat":"31.206","category":"247","category_name":"餐饮美食","address":"徐汇区泰安路36号(近兴国路)"},{"poiid":"B2094757D069A1FC409B","title":"兴国宾馆8号楼宴会厅","lon":"121.43587","lat":"31.20916","category":"217","category_name":"旅馆招待所","address":"上海徐汇区兴国路78号兴国宾馆内(华山路口)  "},{"poiid":"B2094654DB69A7FE4699","title":"南鹰饭店","lon":"121.44057","lat":"31.2059","category":"215","category_name":"三星级宾馆","address":"徐汇区淮海中路1728号(近宛平路)"},{"poiid":"B2094750D26AABFC499B","title":"澄园","lon":"121.434806","lat":"31.204935","category":"260","category_name":"其他","address":"徐汇区泰安路115弄1号楼101室(近华山路)"},{"poiid":"B2094753D669A3F94093","title":"星巴克(武康路店)","lon":"121.437815","lat":"31.204325","category":"500","category_name":"未知分类","address":"上海市 上海市徐汇区武康路420号1F"},{"poiid":"B2094757D068A7FB4892","title":"东北四季饺子王(徐汇店)","lon":"121.439977085","lat":"31.2051445931","category":"82","category_name":"东北菜","address":"徐汇区淮海中路1791号(近宛平路)"},{"poiid":"B2094654DB6BA7F54593","title":"新亚大包 兴国路店","lon":"121.43739739493","lat":"31.204392216969","category":"68","category_name":"快餐厅","address":"徐汇区兴国路408号(近淮海中路武康路)"},{"poiid":"B2094654DA6DA3FA489B","title":"南洋大楼","lon":"121.436","lat":"31.2052","category":"46","category_name":"楼宇","address":"徐汇区番禺路667号"},{"poiid":"B2094757D06BA2FF419D","title":"Le Petit Saleya","lon":"121.43431","lat":"31.20494","category":"94","category_name":"西餐厅","address":"徐汇区泰安路139号(近华山路)"},{"poiid":"B2094655D36CA0F5419B","title":"淮海中路武康路","lon":"121.4387","lat":"31.20445","category":"38","category_name":"公交车站","address":""},{"poiid":"B2094757D06AA2FC449F","title":"欣欣小厨房","lon":"121.43948550916","lat":"31.205087700504","category":"91","category_name":"台湾菜","address":"徐汇区淮海中路1783号(淮海中路宛平路)"},{"poiid":"B209475CD764A1FA4199","title":"椰香天堂 武康路店 Coconut Paradise","lon":"121.4390602","lat":"31.2064416","category":"99","category_name":"泰国／越南菜品餐厅","address":"武康路378号近泰安路"},{"poiid":"B2094757D06FA0FD4693","title":"Shanghai Studio","lon":"121.4377","lat":"31.20369","category":"260","category_name":"其他","address":"徐汇区淮海中路1950弄4号(近天平路)"},{"poiid":"B2094757D66BA3FA4992","title":"瓢 Sushi HISAGO","lon":"121.4374535","lat":"31.2052439","category":"95","category_name":"日本料理","address":"徐汇区兴国路372弄1号(近泰安路)"},{"poiid":"B2094654DA6DABF8439E","title":"亿方砂锅粥淮海店","lon":"121.43995","lat":"31.20506","category":"257","category_name":"中餐厅","address":"徐汇区淮海中路1793号(宛平路口)"},{"poiid":"B2094654DB6BA7F5439F","title":"喜士多便利连锁","lon":"121.43746","lat":"31.20557","category":"117","category_name":"便民商店/便利店","address":"泰安路27弄5号"},{"poiid":"B2094752D468A1F5469A","title":"Pistacchio","lon":"121.439237","lat":"31.206668","category":"247","category_name":"餐饮美食","address":"武康路378号"},{"poiid":"B2094757D168A4FC479A","title":"上海市质量协会","lon":"121.436691586","lat":"31.2057039514","category":"500","category_name":"未知分类","address":"上海泰安路74号"},{"poiid":"B2094655D264A7FA4598","title":"致真会馆","lon":"121.44039","lat":"31.2065","category":"208","category_name":"休闲场所","address":"淮海中路1726临"},{"poiid":"B2094757D06FAAFE439A","title":"喜客咖啡(武康店)","lon":"121.43839","lat":"31.20458","category":"260","category_name":"其他","address":"徐汇区武康路420号(近兴国路)"},{"poiid":"B2094757D169A2FE4492","title":"FC Styling House","lon":"121.437851586","lat":"31.2033589056","category":"500","category_name":"未知分类","address":"上海天平路30号(近淮海中路)"},{"poiid":"B209475DD36AA3FB4899","title":"UTAU","lon":"121.437469","lat":"31.205795","category":"500","category_name":"未知分类","address":"上海市 泰安路兴国路36号"},{"poiid":"B2094757D069A3FC4198","title":"湖南路兴国路口街心花园","lon":"121.4367","lat":"31.20798","category":"196","category_name":"公园","address":"徐汇区湖南路(兴国路口)"},{"poiid":"B2094751D56CA7F8479F","title":"Ginger Cafe(兴国路店)","lon":"121.43604","lat":"31.2089","category":"247","category_name":"餐饮美食","address":"徐汇区兴国路91号(近湖南路预计10月初开业)"},{"poiid":"B2094655D26FA3FF4999","title":"武康亭","lon":"121.43926","lat":"31.20648","category":"46","category_name":"楼宇","address":""},{"poiid":"B2094752DA6BA1FC499A","title":"徐家汇","lon":"121.43614","lat":"31.206363","category":"500","category_name":"未知分类","address":"上海市 徐家汇"},{"poiid":"B2094750D768ABF54699","title":"狠牛碳烤酒肴","lon":"121.439","lat":"31.2068","category":"269","category_name":"烧烤","address":"徐汇区武康路378号1楼5室武康庭内(近泰安路)"},{"poiid":"B2094752D66AA4FD4493","title":"franck bistrot","lon":"121.43906","lat":"31.20644","category":"247","category_name":"餐饮美食","address":"武康路376号武康庭内(近湖南路)"},{"poiid":"B2094757D16EA7FE4598","title":"幽篁古韵文化会所","lon":"121.43939","lat":"31.20416","category":"179","category_name":"音乐厅","address":"徐汇区淮海中路1801号(近宋庆龄故居)"},{"poiid":"B2094757D06FA1FA4798","title":"藏珑泰极(湖南路店)","lon":"121.43899","lat":"31.20803","category":"99","category_name":"泰国／越南菜品餐厅","address":"徐汇区湖南路285号(近武康路)"},{"poiid":"B2094757D068A7FA4398","title":"武康路","lon":"121.439185","lat":"31.207438","category":"184","category_name":"美术馆","address":"上海都说了是武康路嘛"},{"poiid":"B2094757DA6FA3F8429B","title":"老吉士酒家","lon":"121.437904","lat":"31.2031100000001","category":"76","category_name":"上海菜","address":"徐汇区天平路41号(近淮海中路)"},{"poiid":"B2094753D76FAAFA449C","title":"上海滩国泰旗舰店","lon":"121.466011","lat":"31.216125","category":"249","category_name":"购物服务","address":"淮海中路868号"},{"poiid":"B2094757D068A2F44192","title":"宋庆龄故居","lon":"121.43891","lat":"31.20425","category":"260","category_name":"其他","address":"徐汇区淮海中路1843号(淮海中路余庆路)"},{"poiid":"B2094757D06FA7FB419B","title":"Coffee Tree(武康路店)","lon":"121.43923","lat":"31.20593","category":"260","category_name":"其他","address":"徐汇区武康路376号武康庭内(近泰安路)"},{"poiid":"B2094757D06FA5FE4798","title":"薇婷故事","lon":"121.43753","lat":"31.20909","category":"260","category_name":"其他","address":"徐汇区高邮路50弄5号(近复兴西路)查看地图"},{"poiid":"B2094757DA6EAAFC4198","title":"Aroom","lon":"121.435461000002","lat":"31.2060190000001","category":"260","category_name":"其他","address":"徐汇区泰安路120弄卫乐园15号(近华山路)"},{"poiid":"B2094757D16EA6FE499A","title":"聚膳源","lon":"121.437081586","lat":"31.2093992236","category":"76","category_name":"上海菜","address":"徐汇区复兴西路258号(近华山路)"},{"poiid":"B2094757D06FA5F84892","title":"中村发型设计中心(淮海中路店)","lon":"121.43946","lat":"31.20461","category":"148","category_name":"美容美发店","address":"徐汇区淮海中路1808号(近宋庆龄故居)"},{"poiid":"B2094757D169ABF54599","title":"泰安路兴国路","lon":"121.43685808","lat":"31.205923289","category":"46","category_name":"楼宇","address":"上海泰安路兴国路"},{"poiid":"B2094654DB6BA7F5469A","title":"逸谷餐厅","lon":"121.43748","lat":"31.20458","category":"70","category_name":"综合酒楼","address":"徐汇区兴国路380号(近淮海中路)"},{"poiid":"B2094757D068A1FB499F","title":"圆苑酒家(兴国路店)","lon":"121.43766","lat":"31.20577","category":"76","category_name":"上海菜","address":"徐汇区兴国路201号(近泰安路)"},{"poiid":"B2094750D269A1FB439A","title":"Azul Tapad Lounge","lon":"121.439964","lat":"31.207233","category":"500","category_name":"未知分类","address":"378 Wukang lu, Shanghai"},{"poiid":"B2094757D068ABFE489F","title":"武康大楼(Normandie Apartments)","lon":"121.43832667","lat":"31.204479872","category":"47","category_name":"住宅区","address":"上海徐汇区淮海中路1836-1858号(武康路口)"},{"poiid":"B2094752D26EA1F9439B","title":"椰香天堂","lon":"121.439186","lat":"31.206525","category":"247","category_name":"餐饮美食","address":"武康路378号"},{"poiid":"B2094757D469A3F9469E","title":"素人素食","lon":"121.434384","lat":"31.203704","category":"89","category_name":"中式素餐馆","address":"徐汇区华山路1585号(泰安路淮海西路)"},{"poiid":"B2094757D06AAAF5409D","title":"酷芝PIZZA COOLZEY","lon":"121.43455421439","lat":"31.20311280591","category":"94","category_name":"西餐厅","address":"徐汇区华山路1589号3号(近淮海中路)"},{"poiid":"B2094757D464A7FD4699","title":"MARDI GRAS","lon":"121.436810054","lat":"31.205342793","category":"94","category_name":"西餐厅","address":"徐汇区兴国路372弄1号(近泰安路)"},{"poiid":"B2094752D46AA7FB489C","title":"FARINE","lon":"121.439154","lat":"31.206338","category":"247","category_name":"餐饮美食","address":"武康路378号1楼"},{"poiid":"B2094655D26FA5FB4598","title":"缇咖园","lon":"121.436985054","lat":"31.205757793","category":"94","category_name":"西餐厅","address":"徐汇区泰安路50号(兴国路口)"},{"poiid":"B2094751D368A1FC409B","title":"Daga Cafe","lon":"121.4376","lat":"31.206","category":"247","category_name":"餐饮美食","address":"徐汇区泰安路36号(近兴国路)"},{"poiid":"B2094757D069A1FC409B","title":"兴国宾馆8号楼宴会厅","lon":"121.43587","lat":"31.20916","category":"217","category_name":"旅馆招待所","address":"上海徐汇区兴国路78号兴国宾馆内(华山路口)  "},{"poiid":"B2094654DB69A7FE4699","title":"南鹰饭店","lon":"121.44057","lat":"31.2059","category":"215","category_name":"三星级宾馆","address":"徐汇区淮海中路1728号(近宛平路)"},{"poiid":"B2094750D26AABFC499B","title":"澄园","lon":"121.434806","lat":"31.204935","category":"260","category_name":"其他","address":"徐汇区泰安路115弄1号楼101室(近华山路)"},{"poiid":"B2094753D669A3F94093","title":"星巴克(武康路店)","lon":"121.437815","lat":"31.204325","category":"500","category_name":"未知分类","address":"上海市 上海市徐汇区武康路420号1F"},{"poiid":"B2094757D068A7FB4892","title":"东北四季饺子王(徐汇店)","lon":"121.439977085","lat":"31.2051445931","category":"82","category_name":"东北菜","address":"徐汇区淮海中路1791号(近宛平路)"},{"poiid":"B2094654DB6BA7F54593","title":"新亚大包 兴国路店","lon":"121.43739739493","lat":"31.204392216969","category":"68","category_name":"快餐厅","address":"徐汇区兴国路408号(近淮海中路武康路)"},{"poiid":"B2094654DA6DA3FA489B","title":"南洋大楼","lon":"121.436","lat":"31.2052","category":"46","category_name":"楼宇","address":"徐汇区番禺路667号"},{"poiid":"B2094757D06BA2FF419D","title":"Le Petit Saleya","lon":"121.43431","lat":"31.20494","category":"94","category_name":"西餐厅","address":"徐汇区泰安路139号(近华山路)"},{"poiid":"B2094655D36CA0F5419B","title":"淮海中路武康路","lon":"121.4387","lat":"31.20445","category":"38","category_name":"公交车站","address":""},{"poiid":"B2094757D06AA2FC449F","title":"欣欣小厨房","lon":"121.43948550916","lat":"31.205087700504","category":"91","category_name":"台湾菜","address":"徐汇区淮海中路1783号(淮海中路宛平路)"},{"poiid":"B209475CD764A1FA4199","title":"椰香天堂 武康路店 Coconut Paradise","lon":"121.4390602","lat":"31.2064416","category":"99","category_name":"泰国／越南菜品餐厅","address":"武康路378号近泰安路"},{"poiid":"B2094757D06FA0FD4693","title":"Shanghai Studio","lon":"121.4377","lat":"31.20369","category":"260","category_name":"其他","address":"徐汇区淮海中路1950弄4号(近天平路)"},{"poiid":"B2094757D66BA3FA4992","title":"瓢 Sushi HISAGO","lon":"121.4374535","lat":"31.2052439","category":"95","category_name":"日本料理","address":"徐汇区兴国路372弄1号(近泰安路)"},{"poiid":"B2094654DA6DABF8439E","title":"亿方砂锅粥淮海店","lon":"121.43995","lat":"31.20506","category":"257","category_name":"中餐厅","address":"徐汇区淮海中路1793号(宛平路口)"},{"poiid":"B2094654DB6BA7F5439F","title":"喜士多便利连锁","lon":"121.43746","lat":"31.20557","category":"117","category_name":"便民商店/便利店","address":"泰安路27弄5号"},{"poiid":"B2094752D468A1F5469A","title":"Pistacchio","lon":"121.439237","lat":"31.206668","category":"247","category_name":"餐饮美食","address":"武康路378号"},{"poiid":"B2094757D168A4FC479A","title":"上海市质量协会","lon":"121.436691586","lat":"31.2057039514","category":"500","category_name":"未知分类","address":"上海泰安路74号"},{"poiid":"B2094655D264A7FA4598","title":"致真会馆","lon":"121.44039","lat":"31.2065","category":"208","category_name":"休闲场所","address":"淮海中路1726临"},{"poiid":"B2094757D06FAAFE439A","title":"喜客咖啡(武康店)","lon":"121.43839","lat":"31.20458","category":"260","category_name":"其他","address":"徐汇区武康路420号(近兴国路)"},{"poiid":"B2094757D169A2FE4492","title":"FC Styling House","lon":"121.437851586","lat":"31.2033589056","category":"500","category_name":"未知分类","address":"上海天平路30号(近淮海中路)"},{"poiid":"B209475DD36AA3FB4899","title":"UTAU","lon":"121.437469","lat":"31.205795","category":"500","category_name":"未知分类","address":"上海市 泰安路兴国路36号"},{"poiid":"B2094757D069A3FC4198","title":"湖南路兴国路口街心花园","lon":"121.4367","lat":"31.20798","category":"196","category_name":"公园","address":"徐汇区湖南路(兴国路口)"},{"poiid":"B2094751D56CA7F8479F","title":"Ginger Cafe(兴国路店)","lon":"121.43604","lat":"31.2089","category":"247","category_name":"餐饮美食","address":"徐汇区兴国路91号(近湖南路预计10月初开业)"},{"poiid":"B2094655D26FA3FF4999","title":"武康亭","lon":"121.43926","lat":"31.20648","category":"46","category_name":"楼宇","address":""},{"poiid":"B2094752DA6BA1FC499A","title":"徐家汇","lon":"121.43614","lat":"31.206363","category":"500","category_name":"未知分类","address":"上海市 徐家汇"},{"poiid":"B2094750D768ABF54699","title":"狠牛碳烤酒肴","lon":"121.439","lat":"31.2068","category":"269","category_name":"烧烤","address":"徐汇区武康路378号1楼5室武康庭内(近泰安路)"},{"poiid":"B2094752D66AA4FD4493","title":"franck bistrot","lon":"121.43906","lat":"31.20644","category":"247","category_name":"餐饮美食","address":"武康路376号武康庭内(近湖南路)"},{"poiid":"B2094757D16EA7FE4598","title":"幽篁古韵文化会所","lon":"121.43939","lat":"31.20416","category":"179","category_name":"音乐厅","address":"徐汇区淮海中路1801号(近宋庆龄故居)"}]