[{"poiid":"B2094655D36CA7F5409A","title":"广灵四路广粤路","lon":"121.46686","lat":"31.28637","category":"38","category_name":"公交车站","address":""},{"poiid":"B2094757D06FA1F4449D","title":"向天歌烧鹅老铺(凉城店)","lon":"121.46947","lat":"31.27982","category":"72","category_name":"广东菜","address":"上海虹口区凉城路42号(近广中路)"},{"poiid":"B2094757D06FA6FE4299","title":"广粤路","lon":"121.465333","lat":"31.281548","category":"500","category_name":"未知分类","address":"上海市广粤路广中路"},{"poiid":"B2094751D26AA5FE4398","title":"上海人民武装学院","lon":"121.468887","lat":"31.2849","category":"500","category_name":"未知分类","address":"广灵四路828号"},{"poiid":"B2094654D56DA5FE419B","title":"上海市虹口高级中学","lon":"121.46659","lat":"31.28327","category":"55","category_name":"中学","address":"虹口区广粤路138号(近广中路)"},{"poiid":"B2094757D068A1F84192","title":"普陀山海鲜酒店(广粤店)","lon":"121.46547","lat":"31.28176","category":"76","category_name":"上海菜","address":"虹口区广粤路97-99号(近广中路)"},{"poiid":"B2094654D56DA5FD4593","title":"中虹花园","lon":"121.46911","lat":"31.285257","category":"47","category_name":"住宅区","address":"上海市虹口区凉城路215弄"},{"poiid":"B2094654D56DA5FE469B","title":"川流不息火锅广灵店","lon":"121.46968","lat":"31.28734","category":"86","category_name":"火锅店","address":"虹口区广灵四路506号4楼(近凉城路)"},{"poiid":"B2094757D068ABFA429F","title":"怪怪咙嘀咚","lon":"121.4741159","lat":"31.2781896","category":"87","category_name":"特色／地方风味餐厅","address":"虹口区广中路319-2号(近水电路)"},{"poiid":"B2094757D06FA7FB4293","title":"大桶大足浴(广灵店)","lon":"121.46969","lat":"31.2871","category":"149","category_name":"洗浴推拿场所","address":"虹口区广灵四路411号2楼(近凉城路)"},{"poiid":"B2094757D06FABFA4193","title":"新新潘晓婷撞球俱乐部凉城店","lon":"121.46922457","lat":"31.281813567","category":"171","category_name":"台球厅","address":"虹口区凉城路151号3楼(近广中路)"},{"poiid":"B2094757D065A4FF409F","title":"上海市军事体育俱乐部","lon":"121.468906519","lat":"31.2784701406","category":"220","category_name":"运动场所","address":"虹口区广中路444号(近水电路)"},{"poiid":"B2094750D169ABFB479B","title":"健日本料理","lon":"121.47116","lat":"31.283269","category":"269","category_name":"烧烤","address":"虹口区广灵二路377号(近凉城路)"},{"poiid":"B2094752D269A0FD459F","title":"宝乐迪量贩式KTV","lon":"121.472466","lat":"31.283057","category":"170","category_name":"KTV","address":null},{"poiid":"B2094757D06AA3F84393","title":"中虹花园丽都苑","lon":"121.46764","lat":"31.28512","category":"47","category_name":"住宅区","address":"上海市虹口区凉城路489号(近广灵四路)"},{"poiid":"B2094757D165A2FA4793","title":"7天连锁酒店(虹口体育场店)","lon":"121.469225103","lat":"31.2829325837","category":"217","category_name":"旅馆招待所","address":"虹口区凉城路61号(近广中路口)"},{"poiid":"B2094757D06AA6FC429F","title":"中虹花园—锦绣文华","lon":"121.468967846","lat":"31.2816135934","category":"500","category_name":"未知分类","address":"上海凉城路139弄"},{"poiid":"B2094655D26EA3FB449C","title":"小辣椒麻辣烫","lon":"121.47016","lat":"31.28445","category":"68","category_name":"快餐厅","address":"虹口区凉城路266号(近广灵二路)"},{"poiid":"B2094655D36CA1FA439E","title":"凉城路广灵二路","lon":"121.46949","lat":"31.28183","category":"38","category_name":"公交车站","address":""},{"poiid":"B2094654D56DA5FD4998","title":"中虹花园翡翠园","lon":"121.46818","lat":"31.28527","category":"47","category_name":"住宅区","address":"广灵四路561弄"},{"poiid":"B2094655D26FA5F94899","title":"上海新侨酒店凉城店(东门)","lon":"121.46909","lat":"31.28038","category":"250","category_name":"公园户外","address":"凉城路61号"},{"poiid":"B2094757D06AA1F4499D","title":"云峰大众4s店","lon":"121.4654369","lat":"31.285210031","category":"500","category_name":"未知分类","address":"上海广粤路"},{"poiid":"B2094655D26FABFB4399","title":"新都苑(东门)","lon":"121.46956","lat":"31.28341","category":"47","category_name":"住宅区","address":"凉城路215弄"},{"poiid":"B2094655D265A3FC459D","title":"丽婴房","lon":"121.46951","lat":"31.28317","category":"128","category_name":"儿童用品店","address":"虹口区凉城路209号(近广灵二路)"},{"poiid":"B2094654D56DA3FB459C","title":"广灵二路380弄小区(南门)","lon":"121.47064","lat":"31.28337","category":"47","category_name":"住宅区","address":"广灵二路380弄1-23号"},{"poiid":"B2094757D068A3FF4799","title":"虹口区人民法院","lon":"121.47019673","lat":"31.280072623","category":"608","category_name":"法院","address":"上海北宝兴路531号"},{"poiid":"B2094757D468A3FC4498","title":"凡仔汉堡 凉城路店","lon":"121.469919054","lat":"31.281596793","category":"68","category_name":"快餐厅","address":"虹口区凉城路82号(近新侨饭店)"},{"poiid":"B2094751D26BA5FD449B","title":"日月光","lon":"121.469966","lat":"31.283032","category":"500","category_name":"未知分类","address":null},{"poiid":"B2094757D66DABFD469B","title":"仁音琴行","lon":"121.469638103","lat":"31.2833626927","category":"249","category_name":"购物服务","address":"虹口区凉城路226号(近广灵二路)"},{"poiid":"B2094654D56DA5FD439F","title":"交通银行上海广灵支行","lon":"121.4695","lat":"31.28304","category":"150","category_name":"银行","address":"虹口区凉城路197-201号(广灵二路凉城路)"},{"poiid":"B2094655D36CA7F4479C","title":"广中路广粤路","lon":"121.4664","lat":"31.28015","category":"38","category_name":"公交车站","address":""},{"poiid":"B2094654D56DA5FD459A","title":"文峰美发美容凉城二店","lon":"121.4697","lat":"31.28405","category":"148","category_name":"美容美发店","address":"凉城路253"},{"poiid":"B2094654D56DA5FD449F","title":"艾美","lon":"121.46961","lat":"31.28358","category":"148","category_name":"美容美发店","address":"凉城路235"},{"poiid":"B2094654D56DA3F4449D","title":"广凉苑(西门)","lon":"121.46977","lat":"31.28219","category":"47","category_name":"住宅区","address":"凉城路210弄1-13号"},{"poiid":"B2094757D66DA0F44192","title":"Mothercare","lon":"121.468609103","lat":"31.2825306753","category":"500","category_name":"未知分类","address":"上海虹口龙之梦店"},{"poiid":"B2094655D26EABFD4799","title":"凯司令西点房 广灵店","lon":"121.470872054","lat":"31.287118793","category":"67","category_name":"甜品店","address":"虹口区广灵四路491号(广灵四路凉城路)"},{"poiid":"B2094654D56DA3F4449C","title":"广凉苑","lon":"121.47057","lat":"31.282061","category":"47","category_name":"住宅区","address":"凉城路210弄1-13号"},{"poiid":"B2094750DB68A7FD429E","title":"大宁国际广场","lon":"121.469856","lat":"31.279304","category":"500","category_name":"未知分类","address":null},{"poiid":"B2094655D26FA0FB419D","title":"梦庭保健会所","lon":"121.46952","lat":"31.28314","category":"149","category_name":"洗浴推拿场所","address":"凉城路207"},{"poiid":"B2094757D16CA1FD479B","title":"上海移动南汇分公司","lon":"121.4692251","lat":"31.282932583","category":"500","category_name":"未知分类","address":"上海浦东新区人民东路2471号"},{"poiid":"B2094654D56DA5FC499D","title":"久业家苑","lon":"121.46809","lat":"31.280691","category":"47","category_name":"住宅区","address":"广中路525弄1-32号"},{"poiid":"B2094757D16CA6F44492","title":"上海雲峰進口車城市展廳","lon":"121.4702271","lat":"31.284358713","category":"46","category_name":"楼宇","address":"上海廣靈四路755號"},{"poiid":"B2094751DA68A1FD4599","title":"宝山万达广场","lon":"121.4681989","lat":"31.2853212","category":"249","category_name":"购物服务","address":"一二八纪念路"},{"poiid":"B2094654D56DA3F44492","title":"联华超市(凉城路)","lon":"121.46974","lat":"31.28207","category":"118","category_name":"超级市场","address":"虹口区车站北路(近凉城路)"},{"poiid":"B2094750DB68A3FF469A","title":"上海人民武装学校","lon":"121.468582","lat":"31.284814","category":"253","category_name":"校园生活","address":"虹口区广粤路281号"},{"poiid":"B2094654D56DA5FD459B","title":"克丽缇娜No.06630","lon":"121.46974","lat":"31.28443","category":"148","category_name":"美容美发店","address":"凉城路279"},{"poiid":"B2094654D56DA5FD4592","title":"罗森(凉城路)","lon":"121.46981","lat":"31.28495","category":"117","category_name":"便民商店/便利店","address":"虹口区凉城路309号"},{"poiid":"B2094655D26BA5FD469A","title":"建民花苑","lon":"121.47141","lat":"31.283711","category":"47","category_name":"住宅区","address":"上海市虹口区株洲路388弄"},{"poiid":"B2094757D169ABFE489D","title":"Seven_杰家","lon":"121.469775103","lat":"31.2830686866","category":"500","category_name":"未知分类","address":null},{"poiid":"B2094757D165A0F4459A","title":"百乐餐厅","lon":"121.469384103","lat":"31.2835606969","category":"500","category_name":"未知分类","address":"上海大沽路199号"},{"poiid":"B2094655D36CA7F5409A","title":"广灵四路广粤路","lon":"121.46686","lat":"31.28637","category":"38","category_name":"公交车站","address":""},{"poiid":"B2094757D06FA1F4449D","title":"向天歌烧鹅老铺(凉城店)","lon":"121.46947","lat":"31.27982","category":"72","category_name":"广东菜","address":"上海虹口区凉城路42号(近广中路)"},{"poiid":"B2094757D06FA6FE4299","title":"广粤路","lon":"121.465333","lat":"31.281548","category":"500","category_name":"未知分类","address":"上海市广粤路广中路"},{"poiid":"B2094751D26AA5FE4398","title":"上海人民武装学院","lon":"121.468887","lat":"31.2849","category":"500","category_name":"未知分类","address":"广灵四路828号"},{"poiid":"B2094654D56DA5FE419B","title":"上海市虹口高级中学","lon":"121.46659","lat":"31.28327","category":"55","category_name":"中学","address":"虹口区广粤路138号(近广中路)"},{"poiid":"B2094757D068A1F84192","title":"普陀山海鲜酒店(广粤店)","lon":"121.46547","lat":"31.28176","category":"76","category_name":"上海菜","address":"虹口区广粤路97-99号(近广中路)"},{"poiid":"B2094654D56DA5FD4593","title":"中虹花园","lon":"121.46911","lat":"31.285257","category":"47","category_name":"住宅区","address":"上海市虹口区凉城路215弄"},{"poiid":"B2094654D56DA5FE469B","title":"川流不息火锅广灵店","lon":"121.46968","lat":"31.28734","category":"86","category_name":"火锅店","address":"虹口区广灵四路506号4楼(近凉城路)"},{"poiid":"B2094757D068ABFA429F","title":"怪怪咙嘀咚","lon":"121.4741159","lat":"31.2781896","category":"87","category_name":"特色／地方风味餐厅","address":"虹口区广中路319-2号(近水电路)"},{"poiid":"B2094757D06FA7FB4293","title":"大桶大足浴(广灵店)","lon":"121.46969","lat":"31.2871","category":"149","category_name":"洗浴推拿场所","address":"虹口区广灵四路411号2楼(近凉城路)"},{"poiid":"B2094757D06FABFA4193","title":"新新潘晓婷撞球俱乐部凉城店","lon":"121.46922457","lat":"31.281813567","category":"171","category_name":"台球厅","address":"虹口区凉城路151号3楼(近广中路)"},{"poiid":"B2094757D065A4FF409F","title":"上海市军事体育俱乐部","lon":"121.468906519","lat":"31.2784701406","category":"220","category_name":"运动场所","address":"虹口区广中路444号(近水电路)"},{"poiid":"B2094750D169ABFB479B","title":"健日本料理","lon":"121.47116","lat":"31.283269","category":"269","category_name":"烧烤","address":"虹口区广灵二路377号(近凉城路)"},{"poiid":"B2094752D269A0FD459F","title":"宝乐迪量贩式KTV","lon":"121.472466","lat":"31.283057","category":"170","category_name":"KTV","address":null},{"poiid":"B2094757D06AA3F84393","title":"中虹花园丽都苑","lon":"121.46764","lat":"31.28512","category":"47","category_name":"住宅区","address":"上海市虹口区凉城路489号(近广灵四路)"},{"poiid":"B2094757D165A2FA4793","title":"7天连锁酒店(虹口体育场店)","lon":"121.469225103","lat":"31.2829325837","category":"217","category_name":"旅馆招待所","address":"虹口区凉城路61号(近广中路口)"},{"poiid":"B2094757D06AA6FC429F","title":"中虹花园—锦绣文华","lon":"121.468967846","lat":"31.2816135934","category":"500","category_name":"未知分类","address":"上海凉城路139弄"},{"poiid":"B2094655D26EA3FB449C","title":"小辣椒麻辣烫","lon":"121.47016","lat":"31.28445","category":"68","category_name":"快餐厅","address":"虹口区凉城路266号(近广灵二路)"},{"poiid":"B2094655D36CA1FA439E","title":"凉城路广灵二路","lon":"121.46949","lat":"31.28183","category":"38","category_name":"公交车站","address":""},{"poiid":"B2094654D56DA5FD4998","title":"中虹花园翡翠园","lon":"121.46818","lat":"31.28527","category":"47","category_name":"住宅区","address":"广灵四路561弄"},{"poiid":"B2094655D26FA5F94899","title":"上海新侨酒店凉城店(东门)","lon":"121.46909","lat":"31.28038","category":"250","category_name":"公园户外","address":"凉城路61号"},{"poiid":"B2094757D06AA1F4499D","title":"云峰大众4s店","lon":"121.4654369","lat":"31.285210031","category":"500","category_name":"未知分类","address":"上海广粤路"},{"poiid":"B2094655D26FABFB4399","title":"新都苑(东门)","lon":"121.46956","lat":"31.28341","category":"47","category_name":"住宅区","address":"凉城路215弄"},{"poiid":"B2094655D265A3FC459D","title":"丽婴房","lon":"121.46951","lat":"31.28317","category":"128","category_name":"儿童用品店","address":"虹口区凉城路209号(近广灵二路)"},{"poiid":"B2094654D56DA3FB459C","title":"广灵二路380弄小区(南门)","lon":"121.47064","lat":"31.28337","category":"47","category_name":"住宅区","address":"广灵二路380弄1-23号"},{"poiid":"B2094757D068A3FF4799","title":"虹口区人民法院","lon":"121.47019673","lat":"31.280072623","category":"608","category_name":"法院","address":"上海北宝兴路531号"},{"poiid":"B2094757D468A3FC4498","title":"凡仔汉堡 凉城路店","lon":"121.469919054","lat":"31.281596793","category":"68","category_name":"快餐厅","address":"虹口区凉城路82号(近新侨饭店)"},{"poiid":"B2094751D26BA5FD449B","title":"日月光","lon":"121.469966","lat":"31.283032","category":"500","category_name":"未知分类","address":null},{"poiid":"B2094757D66DABFD469B","title":"仁音琴行","lon":"121.469638103","lat":"31.2833626927","category":"249","category_name":"购物服务","address":"虹口区凉城路226号(近广灵二路)"},{"poiid":"B2094654D56DA5FD439F","title":"交通银行上海广灵支行","lon":"121.4695","lat":"31.28304","category":"150","category_name":"银行","address":"虹口区凉城路197-201号(广灵二路凉城路)"},{"poiid":"B2094655D36CA7F4479C","title":"广中路广粤路","lon":"121.4664","lat":"31.28015","category":"38","category_name":"公交车站","address":""},{"poiid":"B2094654D56DA5FD459A","title":"文峰美发美容凉城二店","lon":"121.4697","lat":"31.28405","category":"148","category_name":"美容美发店","address":"凉城路253"},{"poiid":"B2094654D56DA5FD449F","title":"艾美","lon":"121.46961","lat":"31.28358","category":"148","category_name":"美容美发店","address":"凉城路235"},{"poiid":"B2094654D56DA3F4449D","title":"广凉苑(西门)","lon":"121.46977","lat":"31.28219","category":"47","category_name":"住宅区","address":"凉城路210弄1-13号"},{"poiid":"B2094757D66DA0F44192","title":"Mothercare","lon":"121.468609103","lat":"31.2825306753","category":"500","category_name":"未知分类","address":"上海虹口龙之梦店"},{"poiid":"B2094655D26EABFD4799","title":"凯司令西点房 广灵店","lon":"121.470872054","lat":"31.287118793","category":"67","category_name":"甜品店","address":"虹口区广灵四路491号(广灵四路凉城路)"},{"poiid":"B2094654D56DA3F4449C","title":"广凉苑","lon":"121.47057","lat":"31.282061","category":"47","category_name":"住宅区","address":"凉城路210弄1-13号"},{"poiid":"B2094750DB68A7FD429E","title":"大宁国际广场","lon":"121.469856","lat":"31.279304","category":"500","category_name":"未知分类","address":null},{"poiid":"B2094655D26FA0FB419D","title":"梦庭保健会所","lon":"121.46952","lat":"31.28314","category":"149","category_name":"洗浴推拿场所","address":"凉城路207"},{"poiid":"B2094757D16CA1FD479B","title":"上海移动南汇分公司","lon":"121.4692251","lat":"31.282932583","category":"500","category_name":"未知分类","address":"上海浦东新区人民东路2471号"},{"poiid":"B2094654D56DA5FC499D","title":"久业家苑","lon":"121.46809","lat":"31.280691","category":"47","category_name":"住宅区","address":"广中路525弄1-32号"},{"poiid":"B2094757D16CA6F44492","title":"上海雲峰進口車城市展廳","lon":"121.4702271","lat":"31.284358713","category":"46","category_name":"楼宇","address":"上海廣靈四路755號"},{"poiid":"B2094751DA68A1FD4599","title":"宝山万达广场","lon":"121.4681989","lat":"31.2853212","category":"249","category_name":"购物服务","address":"一二八纪念路"},{"poiid":"B2094654D56DA3F44492","title":"联华超市(凉城路)","lon":"121.46974","lat":"31.28207","category":"118","category_name":"超级市场","address":"虹口区车站北路(近凉城路)"},{"poiid":"B2094750DB68A3FF469A","title":"上海人民武装学校","lon":"121.468582","lat":"31.284814","category":"253","category_name":"校园生活","address":"虹口区广粤路281号"},{"poiid":"B2094654D56DA5FD459B","title":"克丽缇娜No.06630","lon":"121.46974","lat":"31.28443","category":"148","category_name":"美容美发店","address":"凉城路279"},{"poiid":"B2094654D56DA5FD4592","title":"罗森(凉城路)","lon":"121.46981","lat":"31.28495","category":"117","category_name":"便民商店/便利店","address":"虹口区凉城路309号"},{"poiid":"B2094655D26BA5FD469A","title":"建民花苑","lon":"121.47141","lat":"31.283711","category":"47","category_name":"住宅区","address":"上海市虹口区株洲路388弄"},{"poiid":"B2094757D169ABFE489D","title":"Seven_杰家","lon":"121.469775103","lat":"31.2830686866","category":"500","category_name":"未知分类","address":null},{"poiid":"B2094757D165A0F4459A","title":"百乐餐厅","lon":"121.469384103","lat":"31.2835606969","category":"500","category_name":"未知分类","address":"上海大沽路199号"},{"poiid":"B2094655D36CA7F5409A","title":"广灵四路广粤路","lon":"121.46686","lat":"31.28637","category":"38","category_name":"公交车站","address":""},{"poiid":"B2094757D06FA1F4449D","title":"向天歌烧鹅老铺(凉城店)","lon":"121.46947","lat":"31.27982","category":"72","category_name":"广东菜","address":"上海虹口区凉城路42号(近广中路)"},{"poiid":"B2094757D06FA6FE4299","title":"广粤路","lon":"121.465333","lat":"31.281548","category":"500","category_name":"未知分类","address":"上海市广粤路广中路"},{"poiid":"B2094751D26AA5FE4398","title":"上海人民武装学院","lon":"121.468887","lat":"31.2849","category":"500","category_name":"未知分类","address":"广灵四路828号"},{"poiid":"B2094654D56DA5FE419B","title":"上海市虹口高级中学","lon":"121.46659","lat":"31.28327","category":"55","category_name":"中学","address":"虹口区广粤路138号(近广中路)"},{"poiid":"B2094757D068A1F84192","title":"普陀山海鲜酒店(广粤店)","lon":"121.46547","lat":"31.28176","category":"76","category_name":"上海菜","address":"虹口区广粤路97-99号(近广中路)"},{"poiid":"B2094654D56DA5FD4593","title":"中虹花园","lon":"121.46911","lat":"31.285257","category":"47","category_name":"住宅区","address":"上海市虹口区凉城路215弄"},{"poiid":"B2094654D56DA5FE469B","title":"川流不息火锅广灵店","lon":"121.46968","lat":"31.28734","category":"86","category_name":"火锅店","address":"虹口区广灵四路506号4楼(近凉城路)"},{"poiid":"B2094757D068ABFA429F","title":"怪怪咙嘀咚","lon":"121.4741159","lat":"31.2781896","category":"87","category_name":"特色／地方风味餐厅","address":"虹口区广中路319-2号(近水电路)"},{"poiid":"B2094757D06FA7FB4293","title":"大桶大足浴(广灵店)","lon":"121.46969","lat":"31.2871","category":"149","category_name":"洗浴推拿场所","address":"虹口区广灵四路411号2楼(近凉城路)"},{"poiid":"B2094757D06FABFA4193","title":"新新潘晓婷撞球俱乐部凉城店","lon":"121.46922457","lat":"31.281813567","category":"171","category_name":"台球厅","address":"虹口区凉城路151号3楼(近广中路)"},{"poiid":"B2094757D065A4FF409F","title":"上海市军事体育俱乐部","lon":"121.468906519","lat":"31.2784701406","category":"220","category_name":"运动场所","address":"虹口区广中路444号(近水电路)"},{"poiid":"B2094750D169ABFB479B","title":"健日本料理","lon":"121.47116","lat":"31.283269","category":"269","category_name":"烧烤","address":"虹口区广灵二路377号(近凉城路)"},{"poiid":"B2094752D269A0FD459F","title":"宝乐迪量贩式KTV","lon":"121.472466","lat":"31.283057","category":"170","category_name":"KTV","address":null},{"poiid":"B2094757D06AA3F84393","title":"中虹花园丽都苑","lon":"121.46764","lat":"31.28512","category":"47","category_name":"住宅区","address":"上海市虹口区凉城路489号(近广灵四路)"},{"poiid":"B2094757D165A2FA4793","title":"7天连锁酒店(虹口体育场店)","lon":"121.469225103","lat":"31.2829325837","category":"217","category_name":"旅馆招待所","address":"虹口区凉城路61号(近广中路口)"},{"poiid":"B2094757D06AA6FC429F","title":"中虹花园—锦绣文华","lon":"121.468967846","lat":"31.2816135934","category":"500","category_name":"未知分类","address":"上海凉城路139弄"},{"poiid":"B2094655D26EA3FB449C","title":"小辣椒麻辣烫","lon":"121.47016","lat":"31.28445","category":"68","category_name":"快餐厅","address":"虹口区凉城路266号(近广灵二路)"},{"poiid":"B2094655D36CA1FA439E","title":"凉城路广灵二路","lon":"121.46949","lat":"31.28183","category":"38","category_name":"公交车站","address":""},{"poiid":"B2094654D56DA5FD4998","title":"中虹花园翡翠园","lon":"121.46818","lat":"31.28527","category":"47","category_name":"住宅区","address":"广灵四路561弄"},{"poiid":"B2094655D26FA5F94899","title":"上海新侨酒店凉城店(东门)","lon":"121.46909","lat":"31.28038","category":"250","category_name":"公园户外","address":"凉城路61号"},{"poiid":"B2094757D06AA1F4499D","title":"云峰大众4s店","lon":"121.4654369","lat":"31.285210031","category":"500","category_name":"未知分类","address":"上海广粤路"},{"poiid":"B2094655D26FABFB4399","title":"新都苑(东门)","lon":"121.46956","lat":"31.28341","category":"47","category_name":"住宅区","address":"凉城路215弄"},{"poiid":"B2094655D265A3FC459D","title":"丽婴房","lon":"121.46951","lat":"31.28317","category":"128","category_name":"儿童用品店","address":"虹口区凉城路209号(近广灵二路)"},{"poiid":"B2094654D56DA3FB459C","title":"广灵二路380弄小区(南门)","lon":"121.47064","lat":"31.28337","category":"47","category_name":"住宅区","address":"广灵二路380弄1-23号"},{"poiid":"B2094757D068A3FF4799","title":"虹口区人民法院","lon":"121.47019673","lat":"31.280072623","category":"608","category_name":"法院","address":"上海北宝兴路531号"},{"poiid":"B2094757D468A3FC4498","title":"凡仔汉堡 凉城路店","lon":"121.469919054","lat":"31.281596793","category":"68","category_name":"快餐厅","address":"虹口区凉城路82号(近新侨饭店)"},{"poiid":"B2094751D26BA5FD449B","title":"日月光","lon":"121.469966","lat":"31.283032","category":"500","category_name":"未知分类","address":null},{"poiid":"B2094757D66DABFD469B","title":"仁音琴行","lon":"121.469638103","lat":"31.2833626927","category":"249","category_name":"购物服务","address":"虹口区凉城路226号(近广灵二路)"},{"poiid":"B2094654D56DA5FD439F","title":"交通银行上海广灵支行","lon":"121.4695","lat":"31.28304","category":"150","category_name":"银行","address":"虹口区凉城路197-201号(广灵二路凉城路)"},{"poiid":"B2094655D36CA7F4479C","title":"广中路广粤路","lon":"121.4664","lat":"31.28015","category":"38","category_name":"公交车站","address":""},{"poiid":"B2094654D56DA5FD459A","title":"文峰美发美容凉城二店","lon":"121.4697","lat":"31.28405","category":"148","category_name":"美容美发店","address":"凉城路253"},{"poiid":"B2094654D56DA5FD449F","title":"艾美","lon":"121.46961","lat":"31.28358","category":"148","category_name":"美容美发店","address":"凉城路235"},{"poiid":"B2094654D56DA3F4449D","title":"广凉苑(西门)","lon":"121.46977","lat":"31.28219","category":"47","category_name":"住宅区","address":"凉城路210弄1-13号"},{"poiid":"B2094757D66DA0F44192","title":"Mothercare","lon":"121.468609103","lat":"31.2825306753","category":"500","category_name":"未知分类","address":"上海虹口龙之梦店"},{"poiid":"B2094655D26EABFD4799","title":"凯司令西点房 广灵店","lon":"121.470872054","lat":"31.287118793","category":"67","category_name":"甜品店","address":"虹口区广灵四路491号(广灵四路凉城路)"},{"poiid":"B2094654D56DA3F4449C","title":"广凉苑","lon":"121.47057","lat":"31.282061","category":"47","category_name":"住宅区","address":"凉城路210弄1-13号"},{"poiid":"B2094750DB68A7FD429E","title":"大宁国际广场","lon":"121.469856","lat":"31.279304","category":"500","category_name":"未知分类","address":null},{"poiid":"B2094655D26FA0FB419D","title":"梦庭保健会所","lon":"121.46952","lat":"31.28314","category":"149","category_name":"洗浴推拿场所","address":"凉城路207"},{"poiid":"B2094757D16CA1FD479B","title":"上海移动南汇分公司","lon":"121.4692251","lat":"31.282932583","category":"500","category_name":"未知分类","address":"上海浦东新区人民东路2471号"},{"poiid":"B2094654D56DA5FC499D","title":"久业家苑","lon":"121.46809","lat":"31.280691","category":"47","category_name":"住宅区","address":"广中路525弄1-32号"},{"poiid":"B2094757D16CA6F44492","title":"上海雲峰進口車城市展廳","lon":"121.4702271","lat":"31.284358713","category":"46","category_name":"楼宇","address":"上海廣靈四路755號"},{"poiid":"B2094751DA68A1FD4599","title":"宝山万达广场","lon":"121.4681989","lat":"31.2853212","category":"249","category_name":"购物服务","address":"一二八纪念路"},{"poiid":"B2094654D56DA3F44492","title":"联华超市(凉城路)","lon":"121.46974","lat":"31.28207","category":"118","category_name":"超级市场","address":"虹口区车站北路(近凉城路)"},{"poiid":"B2094750DB68A3FF469A","title":"上海人民武装学校","lon":"121.468582","lat":"31.284814","category":"253","category_name":"校园生活","address":"虹口区广粤路281号"},{"poiid":"B2094654D56DA5FD459B","title":"克丽缇娜No.06630","lon":"121.46974","lat":"31.28443","category":"148","category_name":"美容美发店","address":"凉城路279"},{"poiid":"B2094654D56DA5FD4592","title":"罗森(凉城路)","lon":"121.46981","lat":"31.28495","category":"117","category_name":"便民商店/便利店","address":"虹口区凉城路309号"},{"poiid":"B2094655D26BA5FD469A","title":"建民花苑","lon":"121.47141","lat":"31.283711","category":"47","category_name":"住宅区","address":"上海市虹口区株洲路388弄"},{"poiid":"B2094757D169ABFE489D","title":"Seven_杰家","lon":"121.469775103","lat":"31.2830686866","category":"500","category_name":"未知分类","address":null},{"poiid":"B2094757D165A0F4459A","title":"百乐餐厅","lon":"121.469384103","lat":"31.2835606969","category":"500","category_name":"未知分类","address":"上海大沽路199号"},{"poiid":"B2094655D36CA7F5409A","title":"广灵四路广粤路","lon":"121.46686","lat":"31.28637","category":"38","category_name":"公交车站","address":""},{"poiid":"B2094757D06FA1F4449D","title":"向天歌烧鹅老铺(凉城店)","lon":"121.46947","lat":"31.27982","category":"72","category_name":"广东菜","address":"上海虹口区凉城路42号(近广中路)"},{"poiid":"B2094757D06FA6FE4299","title":"广粤路","lon":"121.465333","lat":"31.281548","category":"500","category_name":"未知分类","address":"上海市广粤路广中路"},{"poiid":"B2094751D26AA5FE4398","title":"上海人民武装学院","lon":"121.468887","lat":"31.2849","category":"500","category_name":"未知分类","address":"广灵四路828号"},{"poiid":"B2094654D56DA5FE419B","title":"上海市虹口高级中学","lon":"121.46659","lat":"31.28327","category":"55","category_name":"中学","address":"虹口区广粤路138号(近广中路)"},{"poiid":"B2094757D068A1F84192","title":"普陀山海鲜酒店(广粤店)","lon":"121.46547","lat":"31.28176","category":"76","category_name":"上海菜","address":"虹口区广粤路97-99号(近广中路)"},{"poiid":"B2094654D56DA5FD4593","title":"中虹花园","lon":"121.46911","lat":"31.285257","category":"47","category_name":"住宅区","address":"上海市虹口区凉城路215弄"},{"poiid":"B2094654D56DA5FE469B","title":"川流不息火锅广灵店","lon":"121.46968","lat":"31.28734","category":"86","category_name":"火锅店","address":"虹口区广灵四路506号4楼(近凉城路)"},{"poiid":"B2094757D068ABFA429F","title":"怪怪咙嘀咚","lon":"121.4741159","lat":"31.2781896","category":"87","category_name":"特色／地方风味餐厅","address":"虹口区广中路319-2号(近水电路)"},{"poiid":"B2094757D06FA7FB4293","title":"大桶大足浴(广灵店)","lon":"121.46969","lat":"31.2871","category":"149","category_name":"洗浴推拿场所","address":"虹口区广灵四路411号2楼(近凉城路)"},{"poiid":"B2094757D06FABFA4193","title":"新新潘晓婷撞球俱乐部凉城店","lon":"121.46922457","lat":"31.281813567","category":"171","category_name":"台球厅","address":"虹口区凉城路151号3楼(近广中路)"},{"poiid":"B2094757D065A4FF409F","title":"上海市军事体育俱乐部","lon":"121.468906519","lat":"31.2784701406","category":"220","category_name":"运动场所","address":"虹口区广中路444号(近水电路)"},{"poiid":"B2094750D169ABFB479B","title":"健日本料理","lon":"121.47116","lat":"31.283269","category":"269","category_name":"烧烤","address":"虹口区广灵二路377号(近凉城路)"},{"poiid":"B2094752D269A0FD459F","title":"宝乐迪量贩式KTV","lon":"121.472466","lat":"31.283057","category":"170","category_name":"KTV","address":null},{"poiid":"B2094757D06AA3F84393","title":"中虹花园丽都苑","lon":"121.46764","lat":"31.28512","category":"47","category_name":"住宅区","address":"上海市虹口区凉城路489号(近广灵四路)"},{"poiid":"B2094757D165A2FA4793","title":"7天连锁酒店(虹口体育场店)","lon":"121.469225103","lat":"31.2829325837","category":"217","category_name":"旅馆招待所","address":"虹口区凉城路61号(近广中路口)"},{"poiid":"B2094757D06AA6FC429F","title":"中虹花园—锦绣文华","lon":"121.468967846","lat":"31.2816135934","category":"500","category_name":"未知分类","address":"上海凉城路139弄"},{"poiid":"B2094655D26EA3FB449C","title":"小辣椒麻辣烫","lon":"121.47016","lat":"31.28445","category":"68","category_name":"快餐厅","address":"虹口区凉城路266号(近广灵二路)"},{"poiid":"B2094655D36CA1FA439E","title":"凉城路广灵二路","lon":"121.46949","lat":"31.28183","category":"38","category_name":"公交车站","address":""},{"poiid":"B2094654D56DA5FD4998","title":"中虹花园翡翠园","lon":"121.46818","lat":"31.28527","category":"47","category_name":"住宅区","address":"广灵四路561弄"},{"poiid":"B2094655D26FA5F94899","title":"上海新侨酒店凉城店(东门)","lon":"121.46909","lat":"31.28038","category":"250","category_name":"公园户外","address":"凉城路61号"},{"poiid":"B2094757D06AA1F4499D","title":"云峰大众4s店","lon":"121.4654369","lat":"31.285210031","category":"500","category_name":"未知分类","address":"上海广粤路"},{"poiid":"B2094655D26FABFB4399","title":"新都苑(东门)","lon":"121.46956","lat":"31.28341","category":"47","category_name":"住宅区","address":"凉城路215弄"},{"poiid":"B2094655D265A3FC459D","title":"丽婴房","lon":"121.46951","lat":"31.28317","category":"128","category_name":"儿童用品店","address":"虹口区凉城路209号(近广灵二路)"},{"poiid":"B2094654D56DA3FB459C","title":"广灵二路380弄小区(南门)","lon":"121.47064","lat":"31.28337","category":"47","category_name":"住宅区","address":"广灵二路380弄1-23号"},{"poiid":"B2094757D068A3FF4799","title":"虹口区人民法院","lon":"121.47019673","lat":"31.280072623","category":"608","category_name":"法院","address":"上海北宝兴路531号"},{"poiid":"B2094757D468A3FC4498","title":"凡仔汉堡 凉城路店","lon":"121.469919054","lat":"31.281596793","category":"68","category_name":"快餐厅","address":"虹口区凉城路82号(近新侨饭店)"},{"poiid":"B2094751D26BA5FD449B","title":"日月光","lon":"121.469966","lat":"31.283032","category":"500","category_name":"未知分类","address":null},{"poiid":"B2094757D66DABFD469B","title":"仁音琴行","lon":"121.469638103","lat":"31.2833626927","category":"249","category_name":"购物服务","address":"虹口区凉城路226号(近广灵二路)"},{"poiid":"B2094654D56DA5FD439F","title":"交通银行上海广灵支行","lon":"121.4695","lat":"31.28304","category":"150","category_name":"银行","address":"虹口区凉城路197-201号(广灵二路凉城路)"},{"poiid":"B2094655D36CA7F4479C","title":"广中路广粤路","lon":"121.4664","lat":"31.28015","category":"38","category_name":"公交车站","address":""},{"poiid":"B2094654D56DA5FD459A","title":"文峰美发美容凉城二店","lon":"121.4697","lat":"31.28405","category":"148","category_name":"美容美发店","address":"凉城路253"},{"poiid":"B2094654D56DA5FD449F","title":"艾美","lon":"121.46961","lat":"31.28358","category":"148","category_name":"美容美发店","address":"凉城路235"},{"poiid":"B2094654D56DA3F4449D","title":"广凉苑(西门)","lon":"121.46977","lat":"31.28219","category":"47","category_name":"住宅区","address":"凉城路210弄1-13号"},{"poiid":"B2094757D66DA0F44192","title":"Mothercare","lon":"121.468609103","lat":"31.2825306753","category":"500","category_name":"未知分类","address":"上海虹口龙之梦店"},{"poiid":"B2094655D26EABFD4799","title":"凯司令西点房 广灵店","lon":"121.470872054","lat":"31.287118793","category":"67","category_name":"甜品店","address":"虹口区广灵四路491号(广灵四路凉城路)"},{"poiid":"B2094654D56DA3F4449C","title":"广凉苑","lon":"121.47057","lat":"31.282061","category":"47","category_name":"住宅区","address":"凉城路210弄1-13号"},{"poiid":"B2094750DB68A7FD429E","title":"大宁国际广场","lon":"121.469856","lat":"31.279304","category":"500","category_name":"未知分类","address":null},{"poiid":"B2094655D26FA0FB419D","title":"梦庭保健会所","lon":"121.46952","lat":"31.28314","category":"149","category_name":"洗浴推拿场所","address":"凉城路207"},{"poiid":"B2094757D16CA1FD479B","title":"上海移动南汇分公司","lon":"121.4692251","lat":"31.282932583","category":"500","category_name":"未知分类","address":"上海浦东新区人民东路2471号"},{"poiid":"B2094654D56DA5FC499D","title":"久业家苑","lon":"121.46809","lat":"31.280691","category":"47","category_name":"住宅区","address":"广中路525弄1-32号"},{"poiid":"B2094757D16CA6F44492","title":"上海雲峰進口車城市展廳","lon":"121.4702271","lat":"31.284358713","category":"46","category_name":"楼宇","address":"上海廣靈四路755號"},{"poiid":"B2094751DA68A1FD4599","title":"宝山万达广场","lon":"121.4681989","lat":"31.2853212","category":"249","category_name":"购物服务","address":"一二八纪念路"},{"poiid":"B2094654D56DA3F44492","title":"联华超市(凉城路)","lon":"121.46974","lat":"31.28207","category":"118","category_name":"超级市场","address":"虹口区车站北路(近凉城路)"},{"poiid":"B2094750DB68A3FF469A","title":"上海人民武装学校","lon":"121.468582","lat":"31.284814","category":"253","category_name":"校园生活","address":"虹口区广粤路281号"},{"poiid":"B2094654D56DA5FD459B","title":"克丽缇娜No.06630","lon":"121.46974","lat":"31.28443","category":"148","category_name":"美容美发店","address":"凉城路279"},{"poiid":"B2094654D56DA5FD4592","title":"罗森(凉城路)","lon":"121.46981","lat":"31.28495","category":"117","category_name":"便民商店/便利店","address":"虹口区凉城路309号"},{"poiid":"B2094655D26BA5FD469A","title":"建民花苑","lon":"121.47141","lat":"31.283711","category":"47","category_name":"住宅区","address":"上海市虹口区株洲路388弄"},{"poiid":"B2094757D169ABFE489D","title":"Seven_杰家","lon":"121.469775103","lat":"31.2830686866","category":"500","category_name":"未知分类","address":null},{"poiid":"B2094757D165A0F4459A","title":"百乐餐厅","lon":"121.469384103","lat":"31.2835606969","category":"500","category_name":"未知分类","address":"上海大沽路199号"}]