[{"poiid":"B2094654DA6FA7FD459E","title":"上海海洋水族馆","lon":"121.50194","lat":"31.24064","category":"199","category_name":"水族馆","address":"上海市浦东新区陆家嘴环路1388号"},{"poiid":"B2094654DA6FA7FC449A","title":"东方明珠广播电视塔","lon":"121.49967","lat":"31.23988","category":"240","category_name":"国家级景点","address":"浦东浦东新区世纪大道1号"},{"poiid":"B2094654DB64A5FE4098","title":"上海东方明珠塔","lon":"121.49958","lat":"31.23952","category":"247","category_name":"餐饮美食","address":"浦东新区浦东世纪大道1号(近二号线陆家嘴站)"},{"poiid":"B209475CD564A7F84392","title":"上海滩浦东香格里拉店","lon":"121.50058","lat":"31.23634","category":"119","category_name":"商场","address":"浦东富成路33号香格里拉酒店内大堂层"},{"poiid":"B2094757D06FA3FE429D","title":"鹿港小镇 陆家嘴店 Bellagio Cuisine","lon":"121.503279","lat":"31.241373","category":"91","category_name":"台湾菜","address":"浦东新区陆家嘴环路1318号星展银行大厦B1楼06室(东园路陆家嘴环路)"},{"poiid":"B2094757D06EABF5499C","title":"上海新天哈瓦那酒店","lon":"121.50419627","lat":"31.2422169954","category":"260","category_name":"其他","address":"浦东新区陆家嘴环路1288号(近东方明珠)"},{"poiid":"B2094757D06EAAF9469F","title":"星展银行大厦","lon":"121.504057228","lat":"31.2418020945","category":"46","category_name":"楼宇","address":"浦东新区陆家嘴环路1318号B109"},{"poiid":"B2094757D06FA2FC4593","title":"hoF(陆家嘴店)","lon":"121.503866724","lat":"31.2410764887","category":"260","category_name":"其他","address":"浦东新区陆家嘴环路1318号星展银行大厦下沉式广场8号商铺(近东园路)"},{"poiid":"B2094654DA6FA7FD439C","title":"汇亚大厦","lon":"121.50415","lat":"31.24097","category":"46","category_name":"楼宇","address":"重庆北部新区金渝大道89号(北部新区管委会对面)"},{"poiid":"B2094753D66DA6FD409B","title":"上海凯宾斯基大酒店","lon":"121.504465341568","lat":"31.2420219309263","category":"213","category_name":"五星级宾馆","address":"陆家嘴环路1288号"},{"poiid":"B2094757D064ABF5479C","title":"Tavola Italian Dining","lon":"121.502135738","lat":"31.2423945594","category":"500","category_name":"未知分类","address":"上海浦东新区滨江大道2500号"},{"poiid":"B2094655D26DAAF8459A","title":"The Kitchen Salvatore Cuomo","lon":"121.49733","lat":"31.24084","category":"94","category_name":"西餐厅","address":"浦东新区陆家嘴西路2967号D座(近丰和路滨江大道海鸥舫)"},{"poiid":"B2094757D068AAF9489B","title":"海逸海鲜(滨江大道店)","lon":"121.5021791","lat":"31.242800436","category":"72","category_name":"广东菜","address":"浦东新区滨江大道2450号(近星展银行大厦停车场)"},{"poiid":"B2094655D26DA3FF489B","title":"外滩12号大楼","lon":"121.497","lat":"31.2418","category":"46","category_name":"楼宇","address":"黄浦区中山东一路12号"},{"poiid":"B2094750D26AA6FB489F","title":"北外滩滨江绿地","lon":"121.499412","lat":"31.243846","category":"248","category_name":"生活娱乐","address":"东大名路新建路"},{"poiid":"B2094750D26FA3FE4698","title":"上海大自然野生昆虫馆","lon":"121.497772","lat":"31.240335","category":"627","category_name":"一般地点标志","address":"上海市浦东新区丰和路1号"},{"poiid":"B2094655D26CA4F44393","title":"东方明珠(东南门)","lon":"121.50051","lat":"31.23885","category":"680","category_name":"楼宇机构","address":"世纪大道1"},{"poiid":"B2094655D26FABFB4093","title":"中国平安金融大厦","lon":"121.50234","lat":"31.23947","category":"46","category_name":"楼宇","address":""},{"poiid":"B2094757D068A1F8459D","title":"La Verbena","lon":"121.49765","lat":"31.24109","category":"94","category_name":"西餐厅","address":"浦东新区陆家嘴西路2967号北滨江E座(近国际会议中心)"},{"poiid":"B2094750D165A1FA4193","title":"小杨生煎","lon":"121.501","lat":"31.2401","category":"68","category_name":"快餐厅","address":"浦东新区陆家嘴环路1396号陆家嘴景庭1楼(海洋水族馆旁)"},{"poiid":"B2094757D06AA1FC489E","title":"上海港","lon":"121.497051","lat":"31.247305","category":"500","category_name":"未知分类","address":"上海东大名路500号"},{"poiid":"B2094654DA6FA7FD499F","title":"东方明珠游船码头","lon":"121.49693","lat":"31.24078","category":"34","category_name":"港口码头","address":"滨江大道2852号"},{"poiid":"B2094757D168AAF44793","title":"Tavola","lon":"121.50140267","lat":"31.242693473","category":"94","category_name":"西餐厅","address":"浦东新区滨江大道2500号(近星展银行)"},{"poiid":"B2094757D065A0FD459A","title":"星巴克 STARBICKS (汇亚大厦店)","lon":"121.503237538","lat":"31.2409458285","category":"65","category_name":"咖啡厅","address":"浦东新区陆家嘴环路1233号汇亚大厦1楼大厅(近海族馆)"},{"poiid":"B2094757D06FA7FA459A","title":"宝寿司(陆家嘴店)","lon":"121.503959724","lat":"31.2409894884","category":"95","category_name":"日本料理","address":"浦东新区陆家嘴环路1318号星展银行大厦B1楼5号铺(近东园路)"},{"poiid":"B2094757D06BA7FA4398","title":"海鸥坊","lon":"121.498747738","lat":"31.2394844973","category":"500","category_name":"未知分类","address":"上海市浦东新区滨江大道"},{"poiid":"B2094752D66FA2F4479A","title":"蒗葶泰式酒吧餐厅","lon":"121.498146","lat":"31.241444","category":"256","category_name":"外国餐厅","address":"上海市 滨江大道2600号"},{"poiid":"B2094757D168A5F9409F","title":"Sunflour 星展银行店","lon":"121.50335","lat":"31.241352","category":"94","category_name":"西餐厅","address":"浦东新区陆家嘴环路1318号星展银行大厦美食广场(近东方明珠)"},{"poiid":"B2094654DB6BA4F5499C","title":"禾绿回转寿司(明珠店)","lon":"121.50121","lat":"31.23975","category":"95","category_name":"日本料理","address":"上海浦东新区陆家嘴环路1406-1414号2楼(近海洋水族馆)"},{"poiid":"B2094654DB6BA4F5499E","title":"味千拉面","lon":"121.5011","lat":"31.23962","category":"95","category_name":"日本料理","address":"陆家嘴环路1416号"},{"poiid":"B2094757D069AAFF4192","title":"COSTA COFFEE (星展店)","lon":"121.50335442","lat":"31.241647043","category":"65","category_name":"咖啡厅","address":"浦东新区陆家嘴环路1318号星展银行大厦B104号商铺(近海洋水族馆)"},{"poiid":"B2094757D16FA3FE429D","title":"上海现代服务业联合会","lon":"121.49942873","lat":"31.242220555","category":"500","category_name":"未知分类","address":"上海市滨江大道2525弄5号A幢"},{"poiid":"B2094757D16BABFB489A","title":"上海海洋水族馆(极地馆区)","lon":"121.501246","lat":"31.239975","category":"249","category_name":"购物服务","address":"上海市浦东新区陆家嘴环路1388号"},{"poiid":"B2094757D66DA3F84099","title":"麦当劳(东方浮庭店)","lon":"121.50247573","lat":"31.24010151","category":"68","category_name":"快餐厅","address":"浦东新区世纪大道55号世纪浮庭世纪天桥2楼(近陆家嘴环路)"},{"poiid":"B2094757D068A1FA439D","title":"伊藤家(明珠店)","lon":"121.50153","lat":"31.23946","category":"95","category_name":"日本料理","address":"浦东新区陆家嘴环路1402号(近海洋水族馆)"},{"poiid":"B2094654DB64AAFD439A","title":"上海城市历史发展陈列馆","lon":"121.49958","lat":"31.23951","category":"182","category_name":"博物馆","address":"浦东新区浦东世纪大道1号东方明珠零米大厅内(丰和路明珠塔路)"},{"poiid":"B2094757D06FA5F9419A","title":"可颂坊(陆家嘴店)","lon":"121.501476","lat":"31.238862","category":"112","category_name":"糕饼店","address":"浦东新区世纪大道55号(近陆家嘴地铁站2出口)"},{"poiid":"B2094757DB69A6F84493","title":"hoF bar&brasserie","lon":"121.497146","lat":"31.241518","category":"247","category_name":"餐饮美食","address":"陆家嘴环路1318号"},{"poiid":"B2094757D069A7FE499D","title":"伊藤家(汇亚店)","lon":"121.504283","lat":"31.241407","category":"95","category_name":"日本料理","address":"浦东新区陆家嘴环路1233号汇亚大厦M楼(近海族馆)"},{"poiid":"B2094757D068A3FE4998","title":"火车头","lon":"121.50325071","lat":"31.241650306","category":"99","category_name":"泰国／越南菜品餐厅","address":"浦东新区陆家嘴环路1318号星展银行大厦B1楼02号(东园路陆家嘴环路)"},{"poiid":"B2094757D068A4F4449E","title":"干锅居(陆家嘴店)","lon":"121.50114938","lat":"31.239771358","category":"83","category_name":"云贵菜","address":"浦东新区陆家嘴环路1406-1414号2楼(近海洋水族馆)"},{"poiid":"B2094654DB6AA2FC4898","title":"沃歌斯 汇亚店 Wagas","lon":"121.504424054","lat":"31.241192793","category":"94","category_name":"西餐厅","address":"浦东新区陆家嘴环路1233号汇亚大厦1楼(近海族馆)"},{"poiid":"B2094757D065ABF4499A","title":"东方明珠观光走廊","lon":"121.4993702","lat":"31.239805224","category":"500","category_name":"未知分类","address":"上海陆家嘴"},{"poiid":"B209475CD06BA3F8469E","title":"蒗葶泰式酒吧餐厅 滨江大道店","lon":"121.49945","lat":"31.24193","category":"99","category_name":"泰国／越南菜品餐厅","address":"陆家嘴滨江大道2600号(近东园路)"},{"poiid":"B2094751DA65A0F8419A","title":"东方明珠塔267m旋转餐厅","lon":"121.500593","lat":"31.241033","category":"247","category_name":"餐饮美食","address":null},{"poiid":"B2094655D26DA2FE469E","title":"中欧陆家嘴国际金融研究院","lon":"121.50205","lat":"31.24154","category":"191","category_name":"科研机构","address":""},{"poiid":"B2094753D66BA3F4489E","title":"纯意堂","lon":"121.500587","lat":"31.239398","category":"500","category_name":"未知分类","address":"上海市 上海市滨江大道2650号"},{"poiid":"B2094753D36EA2FD4299","title":"滨江3号","lon":"121.500732","lat":"31.24251","category":"47","category_name":"住宅区","address":"滨江大道2550号"},{"poiid":"B2094654DB6BA4F54899","title":"东方明珠演艺剧场","lon":"121.49967","lat":"31.23988","category":"180","category_name":"剧场","address":"浦东新区浦东世纪大道1号东方明珠塔8号门(近二号线陆家嘴站)"},{"poiid":"B2094757D16DA5F5469C","title":"DIESEL (国金中心店)","lon":"121.50080905","lat":"31.24400486","category":"500","category_name":"未知分类","address":"浦东新区世纪大道8号国金中心商场B1楼(近东泰路)"},{"poiid":"B2094654DA6FA7FD459E","title":"上海海洋水族馆","lon":"121.50194","lat":"31.24064","category":"199","category_name":"水族馆","address":"上海市浦东新区陆家嘴环路1388号"},{"poiid":"B2094654DA6FA7FC449A","title":"东方明珠广播电视塔","lon":"121.49967","lat":"31.23988","category":"240","category_name":"国家级景点","address":"浦东浦东新区世纪大道1号"},{"poiid":"B2094654DB64A5FE4098","title":"上海东方明珠塔","lon":"121.49958","lat":"31.23952","category":"247","category_name":"餐饮美食","address":"浦东新区浦东世纪大道1号(近二号线陆家嘴站)"},{"poiid":"B209475CD564A7F84392","title":"上海滩浦东香格里拉店","lon":"121.50058","lat":"31.23634","category":"119","category_name":"商场","address":"浦东富成路33号香格里拉酒店内大堂层"},{"poiid":"B2094757D06FA3FE429D","title":"鹿港小镇 陆家嘴店 Bellagio Cuisine","lon":"121.503279","lat":"31.241373","category":"91","category_name":"台湾菜","address":"浦东新区陆家嘴环路1318号星展银行大厦B1楼06室(东园路陆家嘴环路)"},{"poiid":"B2094757D06EABF5499C","title":"上海新天哈瓦那酒店","lon":"121.50419627","lat":"31.2422169954","category":"260","category_name":"其他","address":"浦东新区陆家嘴环路1288号(近东方明珠)"},{"poiid":"B2094757D06EAAF9469F","title":"星展银行大厦","lon":"121.504057228","lat":"31.2418020945","category":"46","category_name":"楼宇","address":"浦东新区陆家嘴环路1318号B109"},{"poiid":"B2094757D06FA2FC4593","title":"hoF(陆家嘴店)","lon":"121.503866724","lat":"31.2410764887","category":"260","category_name":"其他","address":"浦东新区陆家嘴环路1318号星展银行大厦下沉式广场8号商铺(近东园路)"},{"poiid":"B2094654DA6FA7FD439C","title":"汇亚大厦","lon":"121.50415","lat":"31.24097","category":"46","category_name":"楼宇","address":"重庆北部新区金渝大道89号(北部新区管委会对面)"},{"poiid":"B2094753D66DA6FD409B","title":"上海凯宾斯基大酒店","lon":"121.504465341568","lat":"31.2420219309263","category":"213","category_name":"五星级宾馆","address":"陆家嘴环路1288号"},{"poiid":"B2094757D064ABF5479C","title":"Tavola Italian Dining","lon":"121.502135738","lat":"31.2423945594","category":"500","category_name":"未知分类","address":"上海浦东新区滨江大道2500号"},{"poiid":"B2094655D26DAAF8459A","title":"The Kitchen Salvatore Cuomo","lon":"121.49733","lat":"31.24084","category":"94","category_name":"西餐厅","address":"浦东新区陆家嘴西路2967号D座(近丰和路滨江大道海鸥舫)"},{"poiid":"B2094757D068AAF9489B","title":"海逸海鲜(滨江大道店)","lon":"121.5021791","lat":"31.242800436","category":"72","category_name":"广东菜","address":"浦东新区滨江大道2450号(近星展银行大厦停车场)"},{"poiid":"B2094655D26DA3FF489B","title":"外滩12号大楼","lon":"121.497","lat":"31.2418","category":"46","category_name":"楼宇","address":"黄浦区中山东一路12号"},{"poiid":"B2094750D26AA6FB489F","title":"北外滩滨江绿地","lon":"121.499412","lat":"31.243846","category":"248","category_name":"生活娱乐","address":"东大名路新建路"},{"poiid":"B2094750D26FA3FE4698","title":"上海大自然野生昆虫馆","lon":"121.497772","lat":"31.240335","category":"627","category_name":"一般地点标志","address":"上海市浦东新区丰和路1号"},{"poiid":"B2094655D26CA4F44393","title":"东方明珠(东南门)","lon":"121.50051","lat":"31.23885","category":"680","category_name":"楼宇机构","address":"世纪大道1"},{"poiid":"B2094655D26FABFB4093","title":"中国平安金融大厦","lon":"121.50234","lat":"31.23947","category":"46","category_name":"楼宇","address":""},{"poiid":"B2094757D068A1F8459D","title":"La Verbena","lon":"121.49765","lat":"31.24109","category":"94","category_name":"西餐厅","address":"浦东新区陆家嘴西路2967号北滨江E座(近国际会议中心)"},{"poiid":"B2094750D165A1FA4193","title":"小杨生煎","lon":"121.501","lat":"31.2401","category":"68","category_name":"快餐厅","address":"浦东新区陆家嘴环路1396号陆家嘴景庭1楼(海洋水族馆旁)"},{"poiid":"B2094757D06AA1FC489E","title":"上海港","lon":"121.497051","lat":"31.247305","category":"500","category_name":"未知分类","address":"上海东大名路500号"},{"poiid":"B2094654DA6FA7FD499F","title":"东方明珠游船码头","lon":"121.49693","lat":"31.24078","category":"34","category_name":"港口码头","address":"滨江大道2852号"},{"poiid":"B2094757D168AAF44793","title":"Tavola","lon":"121.50140267","lat":"31.242693473","category":"94","category_name":"西餐厅","address":"浦东新区滨江大道2500号(近星展银行)"},{"poiid":"B2094757D065A0FD459A","title":"星巴克 STARBICKS (汇亚大厦店)","lon":"121.503237538","lat":"31.2409458285","category":"65","category_name":"咖啡厅","address":"浦东新区陆家嘴环路1233号汇亚大厦1楼大厅(近海族馆)"},{"poiid":"B2094757D06FA7FA459A","title":"宝寿司(陆家嘴店)","lon":"121.503959724","lat":"31.2409894884","category":"95","category_name":"日本料理","address":"浦东新区陆家嘴环路1318号星展银行大厦B1楼5号铺(近东园路)"},{"poiid":"B2094757D06BA7FA4398","title":"海鸥坊","lon":"121.498747738","lat":"31.2394844973","category":"500","category_name":"未知分类","address":"上海市浦东新区滨江大道"},{"poiid":"B2094752D66FA2F4479A","title":"蒗葶泰式酒吧餐厅","lon":"121.498146","lat":"31.241444","category":"256","category_name":"外国餐厅","address":"上海市 滨江大道2600号"},{"poiid":"B2094757D168A5F9409F","title":"Sunflour 星展银行店","lon":"121.50335","lat":"31.241352","category":"94","category_name":"西餐厅","address":"浦东新区陆家嘴环路1318号星展银行大厦美食广场(近东方明珠)"},{"poiid":"B2094654DB6BA4F5499C","title":"禾绿回转寿司(明珠店)","lon":"121.50121","lat":"31.23975","category":"95","category_name":"日本料理","address":"上海浦东新区陆家嘴环路1406-1414号2楼(近海洋水族馆)"},{"poiid":"B2094654DB6BA4F5499E","title":"味千拉面","lon":"121.5011","lat":"31.23962","category":"95","category_name":"日本料理","address":"陆家嘴环路1416号"},{"poiid":"B2094757D069AAFF4192","title":"COSTA COFFEE (星展店)","lon":"121.50335442","lat":"31.241647043","category":"65","category_name":"咖啡厅","address":"浦东新区陆家嘴环路1318号星展银行大厦B104号商铺(近海洋水族馆)"},{"poiid":"B2094757D16FA3FE429D","title":"上海现代服务业联合会","lon":"121.49942873","lat":"31.242220555","category":"500","category_name":"未知分类","address":"上海市滨江大道2525弄5号A幢"},{"poiid":"B2094757D16BABFB489A","title":"上海海洋水族馆(极地馆区)","lon":"121.501246","lat":"31.239975","category":"249","category_name":"购物服务","address":"上海市浦东新区陆家嘴环路1388号"},{"poiid":"B2094757D66DA3F84099","title":"麦当劳(东方浮庭店)","lon":"121.50247573","lat":"31.24010151","category":"68","category_name":"快餐厅","address":"浦东新区世纪大道55号世纪浮庭世纪天桥2楼(近陆家嘴环路)"},{"poiid":"B2094757D068A1FA439D","title":"伊藤家(明珠店)","lon":"121.50153","lat":"31.23946","category":"95","category_name":"日本料理","address":"浦东新区陆家嘴环路1402号(近海洋水族馆)"},{"poiid":"B2094654DB64AAFD439A","title":"上海城市历史发展陈列馆","lon":"121.49958","lat":"31.23951","category":"182","category_name":"博物馆","address":"浦东新区浦东世纪大道1号东方明珠零米大厅内(丰和路明珠塔路)"},{"poiid":"B2094757D06FA5F9419A","title":"可颂坊(陆家嘴店)","lon":"121.501476","lat":"31.238862","category":"112","category_name":"糕饼店","address":"浦东新区世纪大道55号(近陆家嘴地铁站2出口)"},{"poiid":"B2094757DB69A6F84493","title":"hoF bar&brasserie","lon":"121.497146","lat":"31.241518","category":"247","category_name":"餐饮美食","address":"陆家嘴环路1318号"},{"poiid":"B2094757D069A7FE499D","title":"伊藤家(汇亚店)","lon":"121.504283","lat":"31.241407","category":"95","category_name":"日本料理","address":"浦东新区陆家嘴环路1233号汇亚大厦M楼(近海族馆)"},{"poiid":"B2094757D068A3FE4998","title":"火车头","lon":"121.50325071","lat":"31.241650306","category":"99","category_name":"泰国／越南菜品餐厅","address":"浦东新区陆家嘴环路1318号星展银行大厦B1楼02号(东园路陆家嘴环路)"},{"poiid":"B2094757D068A4F4449E","title":"干锅居(陆家嘴店)","lon":"121.50114938","lat":"31.239771358","category":"83","category_name":"云贵菜","address":"浦东新区陆家嘴环路1406-1414号2楼(近海洋水族馆)"},{"poiid":"B2094654DB6AA2FC4898","title":"沃歌斯 汇亚店 Wagas","lon":"121.504424054","lat":"31.241192793","category":"94","category_name":"西餐厅","address":"浦东新区陆家嘴环路1233号汇亚大厦1楼(近海族馆)"},{"poiid":"B2094757D065ABF4499A","title":"东方明珠观光走廊","lon":"121.4993702","lat":"31.239805224","category":"500","category_name":"未知分类","address":"上海陆家嘴"},{"poiid":"B209475CD06BA3F8469E","title":"蒗葶泰式酒吧餐厅 滨江大道店","lon":"121.49945","lat":"31.24193","category":"99","category_name":"泰国／越南菜品餐厅","address":"陆家嘴滨江大道2600号(近东园路)"},{"poiid":"B2094751DA65A0F8419A","title":"东方明珠塔267m旋转餐厅","lon":"121.500593","lat":"31.241033","category":"247","category_name":"餐饮美食","address":null},{"poiid":"B2094655D26DA2FE469E","title":"中欧陆家嘴国际金融研究院","lon":"121.50205","lat":"31.24154","category":"191","category_name":"科研机构","address":""},{"poiid":"B2094753D66BA3F4489E","title":"纯意堂","lon":"121.500587","lat":"31.239398","category":"500","category_name":"未知分类","address":"上海市 上海市滨江大道2650号"},{"poiid":"B2094753D36EA2FD4299","title":"滨江3号","lon":"121.500732","lat":"31.24251","category":"47","category_name":"住宅区","address":"滨江大道2550号"},{"poiid":"B2094654DB6BA4F54899","title":"东方明珠演艺剧场","lon":"121.49967","lat":"31.23988","category":"180","category_name":"剧场","address":"浦东新区浦东世纪大道1号东方明珠塔8号门(近二号线陆家嘴站)"},{"poiid":"B2094757D16DA5F5469C","title":"DIESEL (国金中心店)","lon":"121.50080905","lat":"31.24400486","category":"500","category_name":"未知分类","address":"浦东新区世纪大道8号国金中心商场B1楼(近东泰路)"},{"poiid":"B2094654DA6FA7FD459E","title":"上海海洋水族馆","lon":"121.50194","lat":"31.24064","category":"199","category_name":"水族馆","address":"上海市浦东新区陆家嘴环路1388号"},{"poiid":"B2094654DA6FA7FC449A","title":"东方明珠广播电视塔","lon":"121.49967","lat":"31.23988","category":"240","category_name":"国家级景点","address":"浦东浦东新区世纪大道1号"},{"poiid":"B2094654DB64A5FE4098","title":"上海东方明珠塔","lon":"121.49958","lat":"31.23952","category":"247","category_name":"餐饮美食","address":"浦东新区浦东世纪大道1号(近二号线陆家嘴站)"},{"poiid":"B209475CD564A7F84392","title":"上海滩浦东香格里拉店","lon":"121.50058","lat":"31.23634","category":"119","category_name":"商场","address":"浦东富成路33号香格里拉酒店内大堂层"},{"poiid":"B2094757D06FA3FE429D","title":"鹿港小镇 陆家嘴店 Bellagio Cuisine","lon":"121.503279","lat":"31.241373","category":"91","category_name":"台湾菜","address":"浦东新区陆家嘴环路1318号星展银行大厦B1楼06室(东园路陆家嘴环路)"},{"poiid":"B2094757D06EABF5499C","title":"上海新天哈瓦那酒店","lon":"121.50419627","lat":"31.2422169954","category":"260","category_name":"其他","address":"浦东新区陆家嘴环路1288号(近东方明珠)"},{"poiid":"B2094757D06EAAF9469F","title":"星展银行大厦","lon":"121.504057228","lat":"31.2418020945","category":"46","category_name":"楼宇","address":"浦东新区陆家嘴环路1318号B109"},{"poiid":"B2094757D06FA2FC4593","title":"hoF(陆家嘴店)","lon":"121.503866724","lat":"31.2410764887","category":"260","category_name":"其他","address":"浦东新区陆家嘴环路1318号星展银行大厦下沉式广场8号商铺(近东园路)"},{"poiid":"B2094654DA6FA7FD439C","title":"汇亚大厦","lon":"121.50415","lat":"31.24097","category":"46","category_name":"楼宇","address":"重庆北部新区金渝大道89号(北部新区管委会对面)"},{"poiid":"B2094753D66DA6FD409B","title":"上海凯宾斯基大酒店","lon":"121.504465341568","lat":"31.2420219309263","category":"213","category_name":"五星级宾馆","address":"陆家嘴环路1288号"},{"poiid":"B2094757D064ABF5479C","title":"Tavola Italian Dining","lon":"121.502135738","lat":"31.2423945594","category":"500","category_name":"未知分类","address":"上海浦东新区滨江大道2500号"},{"poiid":"B2094655D26DAAF8459A","title":"The Kitchen Salvatore Cuomo","lon":"121.49733","lat":"31.24084","category":"94","category_name":"西餐厅","address":"浦东新区陆家嘴西路2967号D座(近丰和路滨江大道海鸥舫)"},{"poiid":"B2094757D068AAF9489B","title":"海逸海鲜(滨江大道店)","lon":"121.5021791","lat":"31.242800436","category":"72","category_name":"广东菜","address":"浦东新区滨江大道2450号(近星展银行大厦停车场)"},{"poiid":"B2094655D26DA3FF489B","title":"外滩12号大楼","lon":"121.497","lat":"31.2418","category":"46","category_name":"楼宇","address":"黄浦区中山东一路12号"},{"poiid":"B2094750D26AA6FB489F","title":"北外滩滨江绿地","lon":"121.499412","lat":"31.243846","category":"248","category_name":"生活娱乐","address":"东大名路新建路"},{"poiid":"B2094750D26FA3FE4698","title":"上海大自然野生昆虫馆","lon":"121.497772","lat":"31.240335","category":"627","category_name":"一般地点标志","address":"上海市浦东新区丰和路1号"},{"poiid":"B2094655D26CA4F44393","title":"东方明珠(东南门)","lon":"121.50051","lat":"31.23885","category":"680","category_name":"楼宇机构","address":"世纪大道1"},{"poiid":"B2094655D26FABFB4093","title":"中国平安金融大厦","lon":"121.50234","lat":"31.23947","category":"46","category_name":"楼宇","address":""},{"poiid":"B2094757D068A1F8459D","title":"La Verbena","lon":"121.49765","lat":"31.24109","category":"94","category_name":"西餐厅","address":"浦东新区陆家嘴西路2967号北滨江E座(近国际会议中心)"},{"poiid":"B2094750D165A1FA4193","title":"小杨生煎","lon":"121.501","lat":"31.2401","category":"68","category_name":"快餐厅","address":"浦东新区陆家嘴环路1396号陆家嘴景庭1楼(海洋水族馆旁)"},{"poiid":"B2094757D06AA1FC489E","title":"上海港","lon":"121.497051","lat":"31.247305","category":"500","category_name":"未知分类","address":"上海东大名路500号"},{"poiid":"B2094654DA6FA7FD499F","title":"东方明珠游船码头","lon":"121.49693","lat":"31.24078","category":"34","category_name":"港口码头","address":"滨江大道2852号"},{"poiid":"B2094757D168AAF44793","title":"Tavola","lon":"121.50140267","lat":"31.242693473","category":"94","category_name":"西餐厅","address":"浦东新区滨江大道2500号(近星展银行)"},{"poiid":"B2094757D065A0FD459A","title":"星巴克 STARBICKS (汇亚大厦店)","lon":"121.503237538","lat":"31.2409458285","category":"65","category_name":"咖啡厅","address":"浦东新区陆家嘴环路1233号汇亚大厦1楼大厅(近海族馆)"},{"poiid":"B2094757D06FA7FA459A","title":"宝寿司(陆家嘴店)","lon":"121.503959724","lat":"31.2409894884","category":"95","category_name":"日本料理","address":"浦东新区陆家嘴环路1318号星展银行大厦B1楼5号铺(近东园路)"},{"poiid":"B2094757D06BA7FA4398","title":"海鸥坊","lon":"121.498747738","lat":"31.2394844973","category":"500","category_name":"未知分类","address":"上海市浦东新区滨江大道"},{"poiid":"B2094752D66FA2F4479A","title":"蒗葶泰式酒吧餐厅","lon":"121.498146","lat":"31.241444","category":"256","category_name":"外国餐厅","address":"上海市 滨江大道2600号"},{"poiid":"B2094757D168A5F9409F","title":"Sunflour 星展银行店","lon":"121.50335","lat":"31.241352","category":"94","category_name":"西餐厅","address":"浦东新区陆家嘴环路1318号星展银行大厦美食广场(近东方明珠)"},{"poiid":"B2094654DB6BA4F5499C","title":"禾绿回转寿司(明珠店)","lon":"121.50121","lat":"31.23975","category":"95","category_name":"日本料理","address":"上海浦东新区陆家嘴环路1406-1414号2楼(近海洋水族馆)"},{"poiid":"B2094654DB6BA4F5499E","title":"味千拉面","lon":"121.5011","lat":"31.23962","category":"95","category_name":"日本料理","address":"陆家嘴环路1416号"},{"poiid":"B2094757D069AAFF4192","title":"COSTA COFFEE (星展店)","lon":"121.50335442","lat":"31.241647043","category":"65","category_name":"咖啡厅","address":"浦东新区陆家嘴环路1318号星展银行大厦B104号商铺(近海洋水族馆)"},{"poiid":"B2094757D16FA3FE429D","title":"上海现代服务业联合会","lon":"121.49942873","lat":"31.242220555","category":"500","category_name":"未知分类","address":"上海市滨江大道2525弄5号A幢"},{"poiid":"B2094757D16BABFB489A","title":"上海海洋水族馆(极地馆区)","lon":"121.501246","lat":"31.239975","category":"249","category_name":"购物服务","address":"上海市浦东新区陆家嘴环路1388号"},{"poiid":"B2094757D66DA3F84099","title":"麦当劳(东方浮庭店)","lon":"121.50247573","lat":"31.24010151","category":"68","category_name":"快餐厅","address":"浦东新区世纪大道55号世纪浮庭世纪天桥2楼(近陆家嘴环路)"},{"poiid":"B2094757D068A1FA439D","title":"伊藤家(明珠店)","lon":"121.50153","lat":"31.23946","category":"95","category_name":"日本料理","address":"浦东新区陆家嘴环路1402号(近海洋水族馆)"},{"poiid":"B2094654DB64AAFD439A","title":"上海城市历史发展陈列馆","lon":"121.49958","lat":"31.23951","category":"182","category_name":"博物馆","address":"浦东新区浦东世纪大道1号东方明珠零米大厅内(丰和路明珠塔路)"},{"poiid":"B2094757D06FA5F9419A","title":"可颂坊(陆家嘴店)","lon":"121.501476","lat":"31.238862","category":"112","category_name":"糕饼店","address":"浦东新区世纪大道55号(近陆家嘴地铁站2出口)"},{"poiid":"B2094757DB69A6F84493","title":"hoF bar&brasserie","lon":"121.497146","lat":"31.241518","category":"247","category_name":"餐饮美食","address":"陆家嘴环路1318号"},{"poiid":"B2094757D069A7FE499D","title":"伊藤家(汇亚店)","lon":"121.504283","lat":"31.241407","category":"95","category_name":"日本料理","address":"浦东新区陆家嘴环路1233号汇亚大厦M楼(近海族馆)"},{"poiid":"B2094757D068A3FE4998","title":"火车头","lon":"121.50325071","lat":"31.241650306","category":"99","category_name":"泰国／越南菜品餐厅","address":"浦东新区陆家嘴环路1318号星展银行大厦B1楼02号(东园路陆家嘴环路)"},{"poiid":"B2094757D068A4F4449E","title":"干锅居(陆家嘴店)","lon":"121.50114938","lat":"31.239771358","category":"83","category_name":"云贵菜","address":"浦东新区陆家嘴环路1406-1414号2楼(近海洋水族馆)"},{"poiid":"B2094654DB6AA2FC4898","title":"沃歌斯 汇亚店 Wagas","lon":"121.504424054","lat":"31.241192793","category":"94","category_name":"西餐厅","address":"浦东新区陆家嘴环路1233号汇亚大厦1楼(近海族馆)"},{"poiid":"B2094757D065ABF4499A","title":"东方明珠观光走廊","lon":"121.4993702","lat":"31.239805224","category":"500","category_name":"未知分类","address":"上海陆家嘴"},{"poiid":"B209475CD06BA3F8469E","title":"蒗葶泰式酒吧餐厅 滨江大道店","lon":"121.49945","lat":"31.24193","category":"99","category_name":"泰国／越南菜品餐厅","address":"陆家嘴滨江大道2600号(近东园路)"},{"poiid":"B2094751DA65A0F8419A","title":"东方明珠塔267m旋转餐厅","lon":"121.500593","lat":"31.241033","category":"247","category_name":"餐饮美食","address":null},{"poiid":"B2094655D26DA2FE469E","title":"中欧陆家嘴国际金融研究院","lon":"121.50205","lat":"31.24154","category":"191","category_name":"科研机构","address":""},{"poiid":"B2094753D66BA3F4489E","title":"纯意堂","lon":"121.500587","lat":"31.239398","category":"500","category_name":"未知分类","address":"上海市 上海市滨江大道2650号"},{"poiid":"B2094753D36EA2FD4299","title":"滨江3号","lon":"121.500732","lat":"31.24251","category":"47","category_name":"住宅区","address":"滨江大道2550号"},{"poiid":"B2094654DB6BA4F54899","title":"东方明珠演艺剧场","lon":"121.49967","lat":"31.23988","category":"180","category_name":"剧场","address":"浦东新区浦东世纪大道1号东方明珠塔8号门(近二号线陆家嘴站)"},{"poiid":"B2094757D16DA5F5469C","title":"DIESEL (国金中心店)","lon":"121.50080905","lat":"31.24400486","category":"500","category_name":"未知分类","address":"浦东新区世纪大道8号国金中心商场B1楼(近东泰路)"},{"poiid":"B2094654DA6FA7FD459E","title":"上海海洋水族馆","lon":"121.50194","lat":"31.24064","category":"199","category_name":"水族馆","address":"上海市浦东新区陆家嘴环路1388号"},{"poiid":"B2094654DA6FA7FC449A","title":"东方明珠广播电视塔","lon":"121.49967","lat":"31.23988","category":"240","category_name":"国家级景点","address":"浦东浦东新区世纪大道1号"},{"poiid":"B2094654DB64A5FE4098","title":"上海东方明珠塔","lon":"121.49958","lat":"31.23952","category":"247","category_name":"餐饮美食","address":"浦东新区浦东世纪大道1号(近二号线陆家嘴站)"},{"poiid":"B209475CD564A7F84392","title":"上海滩浦东香格里拉店","lon":"121.50058","lat":"31.23634","category":"119","category_name":"商场","address":"浦东富成路33号香格里拉酒店内大堂层"},{"poiid":"B2094757D06FA3FE429D","title":"鹿港小镇 陆家嘴店 Bellagio Cuisine","lon":"121.503279","lat":"31.241373","category":"91","category_name":"台湾菜","address":"浦东新区陆家嘴环路1318号星展银行大厦B1楼06室(东园路陆家嘴环路)"},{"poiid":"B2094757D06EABF5499C","title":"上海新天哈瓦那酒店","lon":"121.50419627","lat":"31.2422169954","category":"260","category_name":"其他","address":"浦东新区陆家嘴环路1288号(近东方明珠)"},{"poiid":"B2094757D06EAAF9469F","title":"星展银行大厦","lon":"121.504057228","lat":"31.2418020945","category":"46","category_name":"楼宇","address":"浦东新区陆家嘴环路1318号B109"},{"poiid":"B2094757D06FA2FC4593","title":"hoF(陆家嘴店)","lon":"121.503866724","lat":"31.2410764887","category":"260","category_name":"其他","address":"浦东新区陆家嘴环路1318号星展银行大厦下沉式广场8号商铺(近东园路)"},{"poiid":"B2094654DA6FA7FD439C","title":"汇亚大厦","lon":"121.50415","lat":"31.24097","category":"46","category_name":"楼宇","address":"重庆北部新区金渝大道89号(北部新区管委会对面)"},{"poiid":"B2094753D66DA6FD409B","title":"上海凯宾斯基大酒店","lon":"121.504465341568","lat":"31.2420219309263","category":"213","category_name":"五星级宾馆","address":"陆家嘴环路1288号"},{"poiid":"B2094757D064ABF5479C","title":"Tavola Italian Dining","lon":"121.502135738","lat":"31.2423945594","category":"500","category_name":"未知分类","address":"上海浦东新区滨江大道2500号"},{"poiid":"B2094655D26DAAF8459A","title":"The Kitchen Salvatore Cuomo","lon":"121.49733","lat":"31.24084","category":"94","category_name":"西餐厅","address":"浦东新区陆家嘴西路2967号D座(近丰和路滨江大道海鸥舫)"},{"poiid":"B2094757D068AAF9489B","title":"海逸海鲜(滨江大道店)","lon":"121.5021791","lat":"31.242800436","category":"72","category_name":"广东菜","address":"浦东新区滨江大道2450号(近星展银行大厦停车场)"},{"poiid":"B2094655D26DA3FF489B","title":"外滩12号大楼","lon":"121.497","lat":"31.2418","category":"46","category_name":"楼宇","address":"黄浦区中山东一路12号"},{"poiid":"B2094750D26AA6FB489F","title":"北外滩滨江绿地","lon":"121.499412","lat":"31.243846","category":"248","category_name":"生活娱乐","address":"东大名路新建路"},{"poiid":"B2094750D26FA3FE4698","title":"上海大自然野生昆虫馆","lon":"121.497772","lat":"31.240335","category":"627","category_name":"一般地点标志","address":"上海市浦东新区丰和路1号"},{"poiid":"B2094655D26CA4F44393","title":"东方明珠(东南门)","lon":"121.50051","lat":"31.23885","category":"680","category_name":"楼宇机构","address":"世纪大道1"},{"poiid":"B2094655D26FABFB4093","title":"中国平安金融大厦","lon":"121.50234","lat":"31.23947","category":"46","category_name":"楼宇","address":""},{"poiid":"B2094757D068A1F8459D","title":"La Verbena","lon":"121.49765","lat":"31.24109","category":"94","category_name":"西餐厅","address":"浦东新区陆家嘴西路2967号北滨江E座(近国际会议中心)"},{"poiid":"B2094750D165A1FA4193","title":"小杨生煎","lon":"121.501","lat":"31.2401","category":"68","category_name":"快餐厅","address":"浦东新区陆家嘴环路1396号陆家嘴景庭1楼(海洋水族馆旁)"},{"poiid":"B2094757D06AA1FC489E","title":"上海港","lon":"121.497051","lat":"31.247305","category":"500","category_name":"未知分类","address":"上海东大名路500号"},{"poiid":"B2094654DA6FA7FD499F","title":"东方明珠游船码头","lon":"121.49693","lat":"31.24078","category":"34","category_name":"港口码头","address":"滨江大道2852号"},{"poiid":"B2094757D168AAF44793","title":"Tavola","lon":"121.50140267","lat":"31.242693473","category":"94","category_name":"西餐厅","address":"浦东新区滨江大道2500号(近星展银行)"},{"poiid":"B2094757D065A0FD459A","title":"星巴克 STARBICKS (汇亚大厦店)","lon":"121.503237538","lat":"31.2409458285","category":"65","category_name":"咖啡厅","address":"浦东新区陆家嘴环路1233号汇亚大厦1楼大厅(近海族馆)"},{"poiid":"B2094757D06FA7FA459A","title":"宝寿司(陆家嘴店)","lon":"121.503959724","lat":"31.2409894884","category":"95","category_name":"日本料理","address":"浦东新区陆家嘴环路1318号星展银行大厦B1楼5号铺(近东园路)"},{"poiid":"B2094757D06BA7FA4398","title":"海鸥坊","lon":"121.498747738","lat":"31.2394844973","category":"500","category_name":"未知分类","address":"上海市浦东新区滨江大道"},{"poiid":"B2094752D66FA2F4479A","title":"蒗葶泰式酒吧餐厅","lon":"121.498146","lat":"31.241444","category":"256","category_name":"外国餐厅","address":"上海市 滨江大道2600号"},{"poiid":"B2094757D168A5F9409F","title":"Sunflour 星展银行店","lon":"121.50335","lat":"31.241352","category":"94","category_name":"西餐厅","address":"浦东新区陆家嘴环路1318号星展银行大厦美食广场(近东方明珠)"},{"poiid":"B2094654DB6BA4F5499C","title":"禾绿回转寿司(明珠店)","lon":"121.50121","lat":"31.23975","category":"95","category_name":"日本料理","address":"上海浦东新区陆家嘴环路1406-1414号2楼(近海洋水族馆)"},{"poiid":"B2094654DB6BA4F5499E","title":"味千拉面","lon":"121.5011","lat":"31.23962","category":"95","category_name":"日本料理","address":"陆家嘴环路1416号"},{"poiid":"B2094757D069AAFF4192","title":"COSTA COFFEE (星展店)","lon":"121.50335442","lat":"31.241647043","category":"65","category_name":"咖啡厅","address":"浦东新区陆家嘴环路1318号星展银行大厦B104号商铺(近海洋水族馆)"},{"poiid":"B2094757D16FA3FE429D","title":"上海现代服务业联合会","lon":"121.49942873","lat":"31.242220555","category":"500","category_name":"未知分类","address":"上海市滨江大道2525弄5号A幢"},{"poiid":"B2094757D16BABFB489A","title":"上海海洋水族馆(极地馆区)","lon":"121.501246","lat":"31.239975","category":"249","category_name":"购物服务","address":"上海市浦东新区陆家嘴环路1388号"},{"poiid":"B2094757D66DA3F84099","title":"麦当劳(东方浮庭店)","lon":"121.50247573","lat":"31.24010151","category":"68","category_name":"快餐厅","address":"浦东新区世纪大道55号世纪浮庭世纪天桥2楼(近陆家嘴环路)"},{"poiid":"B2094757D068A1FA439D","title":"伊藤家(明珠店)","lon":"121.50153","lat":"31.23946","category":"95","category_name":"日本料理","address":"浦东新区陆家嘴环路1402号(近海洋水族馆)"},{"poiid":"B2094654DB64AAFD439A","title":"上海城市历史发展陈列馆","lon":"121.49958","lat":"31.23951","category":"182","category_name":"博物馆","address":"浦东新区浦东世纪大道1号东方明珠零米大厅内(丰和路明珠塔路)"},{"poiid":"B2094757D06FA5F9419A","title":"可颂坊(陆家嘴店)","lon":"121.501476","lat":"31.238862","category":"112","category_name":"糕饼店","address":"浦东新区世纪大道55号(近陆家嘴地铁站2出口)"},{"poiid":"B2094757DB69A6F84493","title":"hoF bar&brasserie","lon":"121.497146","lat":"31.241518","category":"247","category_name":"餐饮美食","address":"陆家嘴环路1318号"},{"poiid":"B2094757D069A7FE499D","title":"伊藤家(汇亚店)","lon":"121.504283","lat":"31.241407","category":"95","category_name":"日本料理","address":"浦东新区陆家嘴环路1233号汇亚大厦M楼(近海族馆)"},{"poiid":"B2094757D068A3FE4998","title":"火车头","lon":"121.50325071","lat":"31.241650306","category":"99","category_name":"泰国／越南菜品餐厅","address":"浦东新区陆家嘴环路1318号星展银行大厦B1楼02号(东园路陆家嘴环路)"},{"poiid":"B2094757D068A4F4449E","title":"干锅居(陆家嘴店)","lon":"121.50114938","lat":"31.239771358","category":"83","category_name":"云贵菜","address":"浦东新区陆家嘴环路1406-1414号2楼(近海洋水族馆)"},{"poiid":"B2094654DB6AA2FC4898","title":"沃歌斯 汇亚店 Wagas","lon":"121.504424054","lat":"31.241192793","category":"94","category_name":"西餐厅","address":"浦东新区陆家嘴环路1233号汇亚大厦1楼(近海族馆)"},{"poiid":"B2094757D065ABF4499A","title":"东方明珠观光走廊","lon":"121.4993702","lat":"31.239805224","category":"500","category_name":"未知分类","address":"上海陆家嘴"},{"poiid":"B209475CD06BA3F8469E","title":"蒗葶泰式酒吧餐厅 滨江大道店","lon":"121.49945","lat":"31.24193","category":"99","category_name":"泰国／越南菜品餐厅","address":"陆家嘴滨江大道2600号(近东园路)"},{"poiid":"B2094751DA65A0F8419A","title":"东方明珠塔267m旋转餐厅","lon":"121.500593","lat":"31.241033","category":"247","category_name":"餐饮美食","address":null},{"poiid":"B2094655D26DA2FE469E","title":"中欧陆家嘴国际金融研究院","lon":"121.50205","lat":"31.24154","category":"191","category_name":"科研机构","address":""},{"poiid":"B2094753D66BA3F4489E","title":"纯意堂","lon":"121.500587","lat":"31.239398","category":"500","category_name":"未知分类","address":"上海市 上海市滨江大道2650号"},{"poiid":"B2094753D36EA2FD4299","title":"滨江3号","lon":"121.500732","lat":"31.24251","category":"47","category_name":"住宅区","address":"滨江大道2550号"},{"poiid":"B2094654DB6BA4F54899","title":"东方明珠演艺剧场","lon":"121.49967","lat":"31.23988","category":"180","category_name":"剧场","address":"浦东新区浦东世纪大道1号东方明珠塔8号门(近二号线陆家嘴站)"},{"poiid":"B2094757D16DA5F5469C","title":"DIESEL (国金中心店)","lon":"121.50080905","lat":"31.24400486","category":"500","category_name":"未知分类","address":"浦东新区世纪大道8号国金中心商场B1楼(近东泰路)"}]