[{"poiid":"B2094757D06FA1FD4592","title":"上海外滩浦华大酒店","lon":"121.50274","lat":"31.25086","category":"213","category_name":"五星级宾馆","address":"上海市虹口区高阳路168号(北外滩地区 近东大名路)"},{"poiid":"B2094757D06FA7FA4993","title":"北外滩","lon":"121.50491413","lat":"31.250150968","category":"260","category_name":"其他","address":"虹口区高阳路(近东大名路)"},{"poiid":"B2094655D26CA4FB4499","title":"上海滩国际大厦","lon":"121.499","lat":"31.2502","category":"46","category_name":"楼宇","address":"丰台学城海鹰路1号,3号"},{"poiid":"B209475CD564A7F84392","title":"上海滩浦东香格里拉店","lon":"121.50058","lat":"31.23634","category":"119","category_name":"商场","address":"浦东富成路33号香格里拉酒店内大堂层"},{"poiid":"B2094757D06FA6F54893","title":"上海港国际客运中心","lon":"121.50271","lat":"31.24954","category":"35","category_name":"长途汽车站","address":"虹口区东大名路800号(近高阳路)"},{"poiid":"B2094757D068AAF9489B","title":"海逸海鲜(滨江大道店)","lon":"121.5021791","lat":"31.242800436","category":"72","category_name":"广东菜","address":"浦东新区滨江大道2450号(近星展银行大厦停车场)"},{"poiid":"B2094757D068A3F5469E","title":"海员医院(东长治路分院)","lon":"121.498129972","lat":"31.250511409","category":"162","category_name":"医院","address":"上海虹口区东长治路505号"},{"poiid":"B2094750D26AA6FB489F","title":"北外滩滨江绿地","lon":"121.499412","lat":"31.243846","category":"248","category_name":"生活娱乐","address":"东大名路新建路"},{"poiid":"B2094757D06AA1FC489E","title":"上海港","lon":"121.497051","lat":"31.247305","category":"500","category_name":"未知分类","address":"上海东大名路500号"},{"poiid":"B2094757D06FA4FE4999","title":"海湾大厦","lon":"121.498","lat":"31.2499","category":"46","category_name":"楼宇","address":"虹口区黄浦路53号(近外白渡桥)"},{"poiid":"B2094757D068ABFF429C","title":"老船长酒吧","lon":"121.502755758","lat":"31.2507747333","category":"172","category_name":"酒吧","address":"虹口区高阳路168号外滩浦华大酒店(东长治路高阳路)"},{"poiid":"B2094757D064A3F8429D","title":"上海建工集团总公司","lon":"121.501623103","lat":"31.2491349775","category":"263","category_name":"公司","address":"上海市虹口区东大名路666号"},{"poiid":"B2094757D068A6F4459F","title":"芳庭海鲜酒店","lon":"121.50299835","lat":"31.25","category":"88","category_name":"海鲜酒楼","address":"虹口区东大名路809号(近高阳路)"},{"poiid":"B2094757D068A3F54592","title":"金岸大厦","lon":"121.50537716","lat":"31.250616563","category":"46","category_name":"楼宇","address":"丰台学城海鹰路1号,3号"},{"poiid":"B2094654DA6FA7F8429D","title":"远洋大厦","lon":"121.503","lat":"31.2527","category":"46","category_name":"楼宇","address":"静安区长寿路(万航渡路口)"},{"poiid":"B2094757D068A7FE4598","title":"东大名路","lon":"121.504487","lat":"31.250967","category":"247","category_name":"餐饮美食","address":"上海东大名路"},{"poiid":"B2094750DA6FA7FB4198","title":"桔子水晶酒店","lon":"121.502227","lat":"31.252765","category":"251","category_name":"出行住宿","address":"上海市虹口区公平路369号"},{"poiid":"B2094757D168AAF44793","title":"Tavola","lon":"121.50140267","lat":"31.242693473","category":"94","category_name":"西餐厅","address":"浦东新区滨江大道2500号(近星展银行)"},{"poiid":"B2094757D16EA1FB429E","title":"白金湾广场","lon":"121.506182","lat":"31.2502193","category":"500","category_name":"未知分类","address":"相城区阳澄湖西路南、人民路西"},{"poiid":"B2094757D568A1FD429C","title":"上海港国际客运中心1号游艇码头","lon":"121.503768","lat":"31.248825","category":"35","category_name":"长途汽车站","address":"中国上海市虹口区"},{"poiid":"B2094757D06AA3FF499C","title":"中国海运","lon":"121.50300508","lat":"31.249953241","category":"46","category_name":"楼宇","address":"上海东大名路700号"},{"poiid":"B2094757D06BA4FC459F","title":"美年体检","lon":"121.49821","lat":"31.250433","category":"162","category_name":"医院","address":"虹口区东长治路505号"},{"poiid":"B2094752D069A2FF419A","title":"新白鹿","lon":"121.4996283","lat":"31.2488492","category":"247","category_name":"餐饮美食","address":"南京东路800号东方商厦9楼"},{"poiid":"B2094757D06AA7FA409D","title":"东长治路","lon":"121.5008371","lat":"31.250816012","category":"500","category_name":"未知分类","address":"上海东长治路"},{"poiid":"B2094655D36CA6FB4992","title":"东大名路旅顺路","lon":"121.49738","lat":"31.24778","category":"38","category_name":"公交车站","address":""},{"poiid":"B2094654D56DA4FA409E","title":"高阳商务中心","lon":"121.50376","lat":"31.25102","category":"46","category_name":"楼宇","address":"虹口区东大名路879号"},{"poiid":"B2094757D16CABFD429F","title":"浦江二号","lon":"121.5048131","lat":"31.248448963","category":"252","category_name":"楼宇机构","address":"上海市浦东新区滨江大道2050号"},{"poiid":"B2094655D268A7FF449E","title":"上海北外滩白玉兰广场","lon":"121.49682","lat":"31.24851","category":"119","category_name":"商场","address":""},{"poiid":"B2094655D36CA6F4409E","title":"东大名路高阳路","lon":"121.50246","lat":"31.25008","category":"38","category_name":"公交车站","address":""},{"poiid":"B2094757D06AA2F4479B","title":"航交所","lon":"121.50562865","lat":"31.250870177","category":"500","category_name":"未知分类","address":"上海航交所"},{"poiid":"B2094757D068A3F5479F","title":"和泰玫瑰园","lon":"121.50043","lat":"31.251926","category":"500","category_name":"未知分类","address":"和泰玫瑰园位于虹口东长治路655号"},{"poiid":"B2094757D16FA0FB4792","title":"韶山湘菜","lon":"121.501586","lat":"31.249933","category":"77","category_name":"湖南菜","address":"虹口区东大名路713号"},{"poiid":"B2094654D56DA4FB459E","title":"晟隆大厦","lon":"121.50245","lat":"31.25159","category":"46","category_name":"楼宇","address":"鲁尔大厦位于铁西兴华南街5号"},{"poiid":"B2094655D26FAAF8489D","title":"港务大厦","lon":"121.504","lat":"31.2459","category":"46","category_name":"楼宇","address":"丰和路1号"},{"poiid":"B2094757D568A5FC469B","title":"汉庭快捷酒店(外滩国际客运中心店)","lon":"121.50158691","lat":"31.24993191","category":"216","category_name":"经济型连锁酒店","address":"虹口区东大名路713号(近北外滩国际客运中心)"},{"poiid":"B2094757D068A4F84799","title":"上海海运(集团)公司","lon":"121.502285524","lat":"31.2499618484","category":"46","category_name":"楼宇","address":"上海东大名路700号"},{"poiid":"B2094757D66BA2FB419F","title":"松涛","lon":"121.502962","lat":"31.250636","category":"95","category_name":"日本料理","address":"虹口区高阳路168号上海外滩浦华大酒店2楼(近东长治路)"},{"poiid":"B2094752D064A6F84898","title":"上海东方明珠电视塔","lon":"121.500468","lat":"31.247754","category":"500","category_name":"未知分类","address":null},{"poiid":"B2094655D26EA2FA479B","title":"大湘园","lon":"121.50313243813","lat":"31.250423762667","category":"77","category_name":"湖南菜","address":"虹口区东大名路799号(近高阳路)"},{"poiid":"B2094757D464A0F9459A","title":"台南担仔面","lon":"121.50247","lat":"31.25113","category":"91","category_name":"台湾菜","address":"虹口区高阳路168号外滩浦华大酒店2楼(近东长治路)"},{"poiid":"B2094757D06AA0F8489E","title":"37路公交车(东大名路高阳路)","lon":"121.50246091","lat":"31.2500848936","category":"38","category_name":"公交车站","address":"上海虹口区东大名路高阳路"},{"poiid":"B2094655D26FA7FF449F","title":"招商银行上海东大名支行","lon":"121.50241","lat":"31.24984","category":"150","category_name":"银行","address":"虹口区东大名路700号(东大名路高阳路)"},{"poiid":"B2094751D26AA3FA479F","title":"东方明珠电视塔","lon":"121.505035","lat":"31.245845","category":"250","category_name":"公园户外","address":"上海"},{"poiid":"B2094757D66EA1FE449F","title":"国投六号","lon":"121.5014741","lat":"31.248987974","category":"500","category_name":"未知分类","address":"上海市虹口区东大名路"},{"poiid":"B2094654DB6AA6FF489D","title":"上海一百假日酒店","lon":"121.5011","lat":"31.24978","category":"215","category_name":"三星级宾馆","address":"虹口区东大名路687号(近新建路)"},{"poiid":"B2094757D065A7FE459A","title":"歌诗达号游轮","lon":"121.50376","lat":"31.24992","category":"247","category_name":"餐饮美食","address":"上海虹口区东大名路800号(近高阳路)  "},{"poiid":"B2094655D264A5F94099","title":"中国移动通信国客中心营业厅","lon":"121.4988","lat":"31.24843","category":"151","category_name":"电讯营业厅","address":"东大名路500号B1层28室候船大厅内"},{"poiid":"B2094757DA6EABF84393","title":"宝钢资源大厦","lon":"121.499366700002","lat":"31.2487691999997","category":"252","category_name":"楼宇机构","address":"虹口区东大名路568号"},{"poiid":"B2094757DB6EABFB4393","title":"IFC","lon":"121.5036982938787","lat":"31.24893246365057","category":"500","category_name":"未知分类","address":"IFC"},{"poiid":"B2094757D06BABF5469F","title":"白金灣府邸","lon":"121.50593167","lat":"31.25022437","category":"47","category_name":"住宅区","address":"上海海平路18號"},{"poiid":"B2094757D06FA1FD4592","title":"上海外滩浦华大酒店","lon":"121.50274","lat":"31.25086","category":"213","category_name":"五星级宾馆","address":"上海市虹口区高阳路168号(北外滩地区 近东大名路)"},{"poiid":"B2094757D06FA7FA4993","title":"北外滩","lon":"121.50491413","lat":"31.250150968","category":"260","category_name":"其他","address":"虹口区高阳路(近东大名路)"},{"poiid":"B2094655D26CA4FB4499","title":"上海滩国际大厦","lon":"121.499","lat":"31.2502","category":"46","category_name":"楼宇","address":"丰台学城海鹰路1号,3号"},{"poiid":"B209475CD564A7F84392","title":"上海滩浦东香格里拉店","lon":"121.50058","lat":"31.23634","category":"119","category_name":"商场","address":"浦东富成路33号香格里拉酒店内大堂层"},{"poiid":"B2094757D06FA6F54893","title":"上海港国际客运中心","lon":"121.50271","lat":"31.24954","category":"35","category_name":"长途汽车站","address":"虹口区东大名路800号(近高阳路)"},{"poiid":"B2094757D068AAF9489B","title":"海逸海鲜(滨江大道店)","lon":"121.5021791","lat":"31.242800436","category":"72","category_name":"广东菜","address":"浦东新区滨江大道2450号(近星展银行大厦停车场)"},{"poiid":"B2094757D068A3F5469E","title":"海员医院(东长治路分院)","lon":"121.498129972","lat":"31.250511409","category":"162","category_name":"医院","address":"上海虹口区东长治路505号"},{"poiid":"B2094750D26AA6FB489F","title":"北外滩滨江绿地","lon":"121.499412","lat":"31.243846","category":"248","category_name":"生活娱乐","address":"东大名路新建路"},{"poiid":"B2094757D06AA1FC489E","title":"上海港","lon":"121.497051","lat":"31.247305","category":"500","category_name":"未知分类","address":"上海东大名路500号"},{"poiid":"B2094757D06FA4FE4999","title":"海湾大厦","lon":"121.498","lat":"31.2499","category":"46","category_name":"楼宇","address":"虹口区黄浦路53号(近外白渡桥)"},{"poiid":"B2094757D068ABFF429C","title":"老船长酒吧","lon":"121.502755758","lat":"31.2507747333","category":"172","category_name":"酒吧","address":"虹口区高阳路168号外滩浦华大酒店(东长治路高阳路)"},{"poiid":"B2094757D064A3F8429D","title":"上海建工集团总公司","lon":"121.501623103","lat":"31.2491349775","category":"263","category_name":"公司","address":"上海市虹口区东大名路666号"},{"poiid":"B2094757D068A6F4459F","title":"芳庭海鲜酒店","lon":"121.50299835","lat":"31.25","category":"88","category_name":"海鲜酒楼","address":"虹口区东大名路809号(近高阳路)"},{"poiid":"B2094757D068A3F54592","title":"金岸大厦","lon":"121.50537716","lat":"31.250616563","category":"46","category_name":"楼宇","address":"丰台学城海鹰路1号,3号"},{"poiid":"B2094654DA6FA7F8429D","title":"远洋大厦","lon":"121.503","lat":"31.2527","category":"46","category_name":"楼宇","address":"静安区长寿路(万航渡路口)"},{"poiid":"B2094757D068A7FE4598","title":"东大名路","lon":"121.504487","lat":"31.250967","category":"247","category_name":"餐饮美食","address":"上海东大名路"},{"poiid":"B2094750DA6FA7FB4198","title":"桔子水晶酒店","lon":"121.502227","lat":"31.252765","category":"251","category_name":"出行住宿","address":"上海市虹口区公平路369号"},{"poiid":"B2094757D168AAF44793","title":"Tavola","lon":"121.50140267","lat":"31.242693473","category":"94","category_name":"西餐厅","address":"浦东新区滨江大道2500号(近星展银行)"},{"poiid":"B2094757D16EA1FB429E","title":"白金湾广场","lon":"121.506182","lat":"31.2502193","category":"500","category_name":"未知分类","address":"相城区阳澄湖西路南、人民路西"},{"poiid":"B2094757D568A1FD429C","title":"上海港国际客运中心1号游艇码头","lon":"121.503768","lat":"31.248825","category":"35","category_name":"长途汽车站","address":"中国上海市虹口区"},{"poiid":"B2094757D06AA3FF499C","title":"中国海运","lon":"121.50300508","lat":"31.249953241","category":"46","category_name":"楼宇","address":"上海东大名路700号"},{"poiid":"B2094757D06BA4FC459F","title":"美年体检","lon":"121.49821","lat":"31.250433","category":"162","category_name":"医院","address":"虹口区东长治路505号"},{"poiid":"B2094752D069A2FF419A","title":"新白鹿","lon":"121.4996283","lat":"31.2488492","category":"247","category_name":"餐饮美食","address":"南京东路800号东方商厦9楼"},{"poiid":"B2094757D06AA7FA409D","title":"东长治路","lon":"121.5008371","lat":"31.250816012","category":"500","category_name":"未知分类","address":"上海东长治路"},{"poiid":"B2094655D36CA6FB4992","title":"东大名路旅顺路","lon":"121.49738","lat":"31.24778","category":"38","category_name":"公交车站","address":""},{"poiid":"B2094654D56DA4FA409E","title":"高阳商务中心","lon":"121.50376","lat":"31.25102","category":"46","category_name":"楼宇","address":"虹口区东大名路879号"},{"poiid":"B2094757D16CABFD429F","title":"浦江二号","lon":"121.5048131","lat":"31.248448963","category":"252","category_name":"楼宇机构","address":"上海市浦东新区滨江大道2050号"},{"poiid":"B2094655D268A7FF449E","title":"上海北外滩白玉兰广场","lon":"121.49682","lat":"31.24851","category":"119","category_name":"商场","address":""},{"poiid":"B2094655D36CA6F4409E","title":"东大名路高阳路","lon":"121.50246","lat":"31.25008","category":"38","category_name":"公交车站","address":""},{"poiid":"B2094757D06AA2F4479B","title":"航交所","lon":"121.50562865","lat":"31.250870177","category":"500","category_name":"未知分类","address":"上海航交所"},{"poiid":"B2094757D068A3F5479F","title":"和泰玫瑰园","lon":"121.50043","lat":"31.251926","category":"500","category_name":"未知分类","address":"和泰玫瑰园位于虹口东长治路655号"},{"poiid":"B2094757D16FA0FB4792","title":"韶山湘菜","lon":"121.501586","lat":"31.249933","category":"77","category_name":"湖南菜","address":"虹口区东大名路713号"},{"poiid":"B2094654D56DA4FB459E","title":"晟隆大厦","lon":"121.50245","lat":"31.25159","category":"46","category_name":"楼宇","address":"鲁尔大厦位于铁西兴华南街5号"},{"poiid":"B2094655D26FAAF8489D","title":"港务大厦","lon":"121.504","lat":"31.2459","category":"46","category_name":"楼宇","address":"丰和路1号"},{"poiid":"B2094757D568A5FC469B","title":"汉庭快捷酒店(外滩国际客运中心店)","lon":"121.50158691","lat":"31.24993191","category":"216","category_name":"经济型连锁酒店","address":"虹口区东大名路713号(近北外滩国际客运中心)"},{"poiid":"B2094757D068A4F84799","title":"上海海运(集团)公司","lon":"121.502285524","lat":"31.2499618484","category":"46","category_name":"楼宇","address":"上海东大名路700号"},{"poiid":"B2094757D66BA2FB419F","title":"松涛","lon":"121.502962","lat":"31.250636","category":"95","category_name":"日本料理","address":"虹口区高阳路168号上海外滩浦华大酒店2楼(近东长治路)"},{"poiid":"B2094752D064A6F84898","title":"上海东方明珠电视塔","lon":"121.500468","lat":"31.247754","category":"500","category_name":"未知分类","address":null},{"poiid":"B2094655D26EA2FA479B","title":"大湘园","lon":"121.50313243813","lat":"31.250423762667","category":"77","category_name":"湖南菜","address":"虹口区东大名路799号(近高阳路)"},{"poiid":"B2094757D464A0F9459A","title":"台南担仔面","lon":"121.50247","lat":"31.25113","category":"91","category_name":"台湾菜","address":"虹口区高阳路168号外滩浦华大酒店2楼(近东长治路)"},{"poiid":"B2094757D06AA0F8489E","title":"37路公交车(东大名路高阳路)","lon":"121.50246091","lat":"31.2500848936","category":"38","category_name":"公交车站","address":"上海虹口区东大名路高阳路"},{"poiid":"B2094655D26FA7FF449F","title":"招商银行上海东大名支行","lon":"121.50241","lat":"31.24984","category":"150","category_name":"银行","address":"虹口区东大名路700号(东大名路高阳路)"},{"poiid":"B2094751D26AA3FA479F","title":"东方明珠电视塔","lon":"121.505035","lat":"31.245845","category":"250","category_name":"公园户外","address":"上海"},{"poiid":"B2094757D66EA1FE449F","title":"国投六号","lon":"121.5014741","lat":"31.248987974","category":"500","category_name":"未知分类","address":"上海市虹口区东大名路"},{"poiid":"B2094654DB6AA6FF489D","title":"上海一百假日酒店","lon":"121.5011","lat":"31.24978","category":"215","category_name":"三星级宾馆","address":"虹口区东大名路687号(近新建路)"},{"poiid":"B2094757D065A7FE459A","title":"歌诗达号游轮","lon":"121.50376","lat":"31.24992","category":"247","category_name":"餐饮美食","address":"上海虹口区东大名路800号(近高阳路)  "},{"poiid":"B2094655D264A5F94099","title":"中国移动通信国客中心营业厅","lon":"121.4988","lat":"31.24843","category":"151","category_name":"电讯营业厅","address":"东大名路500号B1层28室候船大厅内"},{"poiid":"B2094757DA6EABF84393","title":"宝钢资源大厦","lon":"121.499366700002","lat":"31.2487691999997","category":"252","category_name":"楼宇机构","address":"虹口区东大名路568号"},{"poiid":"B2094757DB6EABFB4393","title":"IFC","lon":"121.5036982938787","lat":"31.24893246365057","category":"500","category_name":"未知分类","address":"IFC"},{"poiid":"B2094757D06BABF5469F","title":"白金灣府邸","lon":"121.50593167","lat":"31.25022437","category":"47","category_name":"住宅区","address":"上海海平路18號"},{"poiid":"B2094757D06FA1FD4592","title":"上海外滩浦华大酒店","lon":"121.50274","lat":"31.25086","category":"213","category_name":"五星级宾馆","address":"上海市虹口区高阳路168号(北外滩地区 近东大名路)"},{"poiid":"B2094757D06FA7FA4993","title":"北外滩","lon":"121.50491413","lat":"31.250150968","category":"260","category_name":"其他","address":"虹口区高阳路(近东大名路)"},{"poiid":"B2094655D26CA4FB4499","title":"上海滩国际大厦","lon":"121.499","lat":"31.2502","category":"46","category_name":"楼宇","address":"丰台学城海鹰路1号,3号"},{"poiid":"B209475CD564A7F84392","title":"上海滩浦东香格里拉店","lon":"121.50058","lat":"31.23634","category":"119","category_name":"商场","address":"浦东富成路33号香格里拉酒店内大堂层"},{"poiid":"B2094757D06FA6F54893","title":"上海港国际客运中心","lon":"121.50271","lat":"31.24954","category":"35","category_name":"长途汽车站","address":"虹口区东大名路800号(近高阳路)"},{"poiid":"B2094757D068AAF9489B","title":"海逸海鲜(滨江大道店)","lon":"121.5021791","lat":"31.242800436","category":"72","category_name":"广东菜","address":"浦东新区滨江大道2450号(近星展银行大厦停车场)"},{"poiid":"B2094757D068A3F5469E","title":"海员医院(东长治路分院)","lon":"121.498129972","lat":"31.250511409","category":"162","category_name":"医院","address":"上海虹口区东长治路505号"},{"poiid":"B2094750D26AA6FB489F","title":"北外滩滨江绿地","lon":"121.499412","lat":"31.243846","category":"248","category_name":"生活娱乐","address":"东大名路新建路"},{"poiid":"B2094757D06AA1FC489E","title":"上海港","lon":"121.497051","lat":"31.247305","category":"500","category_name":"未知分类","address":"上海东大名路500号"},{"poiid":"B2094757D06FA4FE4999","title":"海湾大厦","lon":"121.498","lat":"31.2499","category":"46","category_name":"楼宇","address":"虹口区黄浦路53号(近外白渡桥)"},{"poiid":"B2094757D068ABFF429C","title":"老船长酒吧","lon":"121.502755758","lat":"31.2507747333","category":"172","category_name":"酒吧","address":"虹口区高阳路168号外滩浦华大酒店(东长治路高阳路)"},{"poiid":"B2094757D064A3F8429D","title":"上海建工集团总公司","lon":"121.501623103","lat":"31.2491349775","category":"263","category_name":"公司","address":"上海市虹口区东大名路666号"},{"poiid":"B2094757D068A6F4459F","title":"芳庭海鲜酒店","lon":"121.50299835","lat":"31.25","category":"88","category_name":"海鲜酒楼","address":"虹口区东大名路809号(近高阳路)"},{"poiid":"B2094757D068A3F54592","title":"金岸大厦","lon":"121.50537716","lat":"31.250616563","category":"46","category_name":"楼宇","address":"丰台学城海鹰路1号,3号"},{"poiid":"B2094654DA6FA7F8429D","title":"远洋大厦","lon":"121.503","lat":"31.2527","category":"46","category_name":"楼宇","address":"静安区长寿路(万航渡路口)"},{"poiid":"B2094757D068A7FE4598","title":"东大名路","lon":"121.504487","lat":"31.250967","category":"247","category_name":"餐饮美食","address":"上海东大名路"},{"poiid":"B2094750DA6FA7FB4198","title":"桔子水晶酒店","lon":"121.502227","lat":"31.252765","category":"251","category_name":"出行住宿","address":"上海市虹口区公平路369号"},{"poiid":"B2094757D168AAF44793","title":"Tavola","lon":"121.50140267","lat":"31.242693473","category":"94","category_name":"西餐厅","address":"浦东新区滨江大道2500号(近星展银行)"},{"poiid":"B2094757D16EA1FB429E","title":"白金湾广场","lon":"121.506182","lat":"31.2502193","category":"500","category_name":"未知分类","address":"相城区阳澄湖西路南、人民路西"},{"poiid":"B2094757D568A1FD429C","title":"上海港国际客运中心1号游艇码头","lon":"121.503768","lat":"31.248825","category":"35","category_name":"长途汽车站","address":"中国上海市虹口区"},{"poiid":"B2094757D06AA3FF499C","title":"中国海运","lon":"121.50300508","lat":"31.249953241","category":"46","category_name":"楼宇","address":"上海东大名路700号"},{"poiid":"B2094757D06BA4FC459F","title":"美年体检","lon":"121.49821","lat":"31.250433","category":"162","category_name":"医院","address":"虹口区东长治路505号"},{"poiid":"B2094752D069A2FF419A","title":"新白鹿","lon":"121.4996283","lat":"31.2488492","category":"247","category_name":"餐饮美食","address":"南京东路800号东方商厦9楼"},{"poiid":"B2094757D06AA7FA409D","title":"东长治路","lon":"121.5008371","lat":"31.250816012","category":"500","category_name":"未知分类","address":"上海东长治路"},{"poiid":"B2094655D36CA6FB4992","title":"东大名路旅顺路","lon":"121.49738","lat":"31.24778","category":"38","category_name":"公交车站","address":""},{"poiid":"B2094654D56DA4FA409E","title":"高阳商务中心","lon":"121.50376","lat":"31.25102","category":"46","category_name":"楼宇","address":"虹口区东大名路879号"},{"poiid":"B2094757D16CABFD429F","title":"浦江二号","lon":"121.5048131","lat":"31.248448963","category":"252","category_name":"楼宇机构","address":"上海市浦东新区滨江大道2050号"},{"poiid":"B2094655D268A7FF449E","title":"上海北外滩白玉兰广场","lon":"121.49682","lat":"31.24851","category":"119","category_name":"商场","address":""},{"poiid":"B2094655D36CA6F4409E","title":"东大名路高阳路","lon":"121.50246","lat":"31.25008","category":"38","category_name":"公交车站","address":""},{"poiid":"B2094757D06AA2F4479B","title":"航交所","lon":"121.50562865","lat":"31.250870177","category":"500","category_name":"未知分类","address":"上海航交所"},{"poiid":"B2094757D068A3F5479F","title":"和泰玫瑰园","lon":"121.50043","lat":"31.251926","category":"500","category_name":"未知分类","address":"和泰玫瑰园位于虹口东长治路655号"},{"poiid":"B2094757D16FA0FB4792","title":"韶山湘菜","lon":"121.501586","lat":"31.249933","category":"77","category_name":"湖南菜","address":"虹口区东大名路713号"},{"poiid":"B2094654D56DA4FB459E","title":"晟隆大厦","lon":"121.50245","lat":"31.25159","category":"46","category_name":"楼宇","address":"鲁尔大厦位于铁西兴华南街5号"},{"poiid":"B2094655D26FAAF8489D","title":"港务大厦","lon":"121.504","lat":"31.2459","category":"46","category_name":"楼宇","address":"丰和路1号"},{"poiid":"B2094757D568A5FC469B","title":"汉庭快捷酒店(外滩国际客运中心店)","lon":"121.50158691","lat":"31.24993191","category":"216","category_name":"经济型连锁酒店","address":"虹口区东大名路713号(近北外滩国际客运中心)"},{"poiid":"B2094757D068A4F84799","title":"上海海运(集团)公司","lon":"121.502285524","lat":"31.2499618484","category":"46","category_name":"楼宇","address":"上海东大名路700号"},{"poiid":"B2094757D66BA2FB419F","title":"松涛","lon":"121.502962","lat":"31.250636","category":"95","category_name":"日本料理","address":"虹口区高阳路168号上海外滩浦华大酒店2楼(近东长治路)"},{"poiid":"B2094752D064A6F84898","title":"上海东方明珠电视塔","lon":"121.500468","lat":"31.247754","category":"500","category_name":"未知分类","address":null},{"poiid":"B2094655D26EA2FA479B","title":"大湘园","lon":"121.50313243813","lat":"31.250423762667","category":"77","category_name":"湖南菜","address":"虹口区东大名路799号(近高阳路)"},{"poiid":"B2094757D464A0F9459A","title":"台南担仔面","lon":"121.50247","lat":"31.25113","category":"91","category_name":"台湾菜","address":"虹口区高阳路168号外滩浦华大酒店2楼(近东长治路)"},{"poiid":"B2094757D06AA0F8489E","title":"37路公交车(东大名路高阳路)","lon":"121.50246091","lat":"31.2500848936","category":"38","category_name":"公交车站","address":"上海虹口区东大名路高阳路"},{"poiid":"B2094655D26FA7FF449F","title":"招商银行上海东大名支行","lon":"121.50241","lat":"31.24984","category":"150","category_name":"银行","address":"虹口区东大名路700号(东大名路高阳路)"},{"poiid":"B2094751D26AA3FA479F","title":"东方明珠电视塔","lon":"121.505035","lat":"31.245845","category":"250","category_name":"公园户外","address":"上海"},{"poiid":"B2094757D66EA1FE449F","title":"国投六号","lon":"121.5014741","lat":"31.248987974","category":"500","category_name":"未知分类","address":"上海市虹口区东大名路"},{"poiid":"B2094654DB6AA6FF489D","title":"上海一百假日酒店","lon":"121.5011","lat":"31.24978","category":"215","category_name":"三星级宾馆","address":"虹口区东大名路687号(近新建路)"},{"poiid":"B2094757D065A7FE459A","title":"歌诗达号游轮","lon":"121.50376","lat":"31.24992","category":"247","category_name":"餐饮美食","address":"上海虹口区东大名路800号(近高阳路)  "},{"poiid":"B2094655D264A5F94099","title":"中国移动通信国客中心营业厅","lon":"121.4988","lat":"31.24843","category":"151","category_name":"电讯营业厅","address":"东大名路500号B1层28室候船大厅内"},{"poiid":"B2094757DA6EABF84393","title":"宝钢资源大厦","lon":"121.499366700002","lat":"31.2487691999997","category":"252","category_name":"楼宇机构","address":"虹口区东大名路568号"},{"poiid":"B2094757DB6EABFB4393","title":"IFC","lon":"121.5036982938787","lat":"31.24893246365057","category":"500","category_name":"未知分类","address":"IFC"},{"poiid":"B2094757D06BABF5469F","title":"白金灣府邸","lon":"121.50593167","lat":"31.25022437","category":"47","category_name":"住宅区","address":"上海海平路18號"},{"poiid":"B2094757D06FA1FD4592","title":"上海外滩浦华大酒店","lon":"121.50274","lat":"31.25086","category":"213","category_name":"五星级宾馆","address":"上海市虹口区高阳路168号(北外滩地区 近东大名路)"},{"poiid":"B2094757D06FA7FA4993","title":"北外滩","lon":"121.50491413","lat":"31.250150968","category":"260","category_name":"其他","address":"虹口区高阳路(近东大名路)"},{"poiid":"B2094655D26CA4FB4499","title":"上海滩国际大厦","lon":"121.499","lat":"31.2502","category":"46","category_name":"楼宇","address":"丰台学城海鹰路1号,3号"},{"poiid":"B209475CD564A7F84392","title":"上海滩浦东香格里拉店","lon":"121.50058","lat":"31.23634","category":"119","category_name":"商场","address":"浦东富成路33号香格里拉酒店内大堂层"},{"poiid":"B2094757D06FA6F54893","title":"上海港国际客运中心","lon":"121.50271","lat":"31.24954","category":"35","category_name":"长途汽车站","address":"虹口区东大名路800号(近高阳路)"},{"poiid":"B2094757D068AAF9489B","title":"海逸海鲜(滨江大道店)","lon":"121.5021791","lat":"31.242800436","category":"72","category_name":"广东菜","address":"浦东新区滨江大道2450号(近星展银行大厦停车场)"},{"poiid":"B2094757D068A3F5469E","title":"海员医院(东长治路分院)","lon":"121.498129972","lat":"31.250511409","category":"162","category_name":"医院","address":"上海虹口区东长治路505号"},{"poiid":"B2094750D26AA6FB489F","title":"北外滩滨江绿地","lon":"121.499412","lat":"31.243846","category":"248","category_name":"生活娱乐","address":"东大名路新建路"},{"poiid":"B2094757D06AA1FC489E","title":"上海港","lon":"121.497051","lat":"31.247305","category":"500","category_name":"未知分类","address":"上海东大名路500号"},{"poiid":"B2094757D06FA4FE4999","title":"海湾大厦","lon":"121.498","lat":"31.2499","category":"46","category_name":"楼宇","address":"虹口区黄浦路53号(近外白渡桥)"},{"poiid":"B2094757D068ABFF429C","title":"老船长酒吧","lon":"121.502755758","lat":"31.2507747333","category":"172","category_name":"酒吧","address":"虹口区高阳路168号外滩浦华大酒店(东长治路高阳路)"},{"poiid":"B2094757D064A3F8429D","title":"上海建工集团总公司","lon":"121.501623103","lat":"31.2491349775","category":"263","category_name":"公司","address":"上海市虹口区东大名路666号"},{"poiid":"B2094757D068A6F4459F","title":"芳庭海鲜酒店","lon":"121.50299835","lat":"31.25","category":"88","category_name":"海鲜酒楼","address":"虹口区东大名路809号(近高阳路)"},{"poiid":"B2094757D068A3F54592","title":"金岸大厦","lon":"121.50537716","lat":"31.250616563","category":"46","category_name":"楼宇","address":"丰台学城海鹰路1号,3号"},{"poiid":"B2094654DA6FA7F8429D","title":"远洋大厦","lon":"121.503","lat":"31.2527","category":"46","category_name":"楼宇","address":"静安区长寿路(万航渡路口)"},{"poiid":"B2094757D068A7FE4598","title":"东大名路","lon":"121.504487","lat":"31.250967","category":"247","category_name":"餐饮美食","address":"上海东大名路"},{"poiid":"B2094750DA6FA7FB4198","title":"桔子水晶酒店","lon":"121.502227","lat":"31.252765","category":"251","category_name":"出行住宿","address":"上海市虹口区公平路369号"},{"poiid":"B2094757D168AAF44793","title":"Tavola","lon":"121.50140267","lat":"31.242693473","category":"94","category_name":"西餐厅","address":"浦东新区滨江大道2500号(近星展银行)"},{"poiid":"B2094757D16EA1FB429E","title":"白金湾广场","lon":"121.506182","lat":"31.2502193","category":"500","category_name":"未知分类","address":"相城区阳澄湖西路南、人民路西"},{"poiid":"B2094757D568A1FD429C","title":"上海港国际客运中心1号游艇码头","lon":"121.503768","lat":"31.248825","category":"35","category_name":"长途汽车站","address":"中国上海市虹口区"},{"poiid":"B2094757D06AA3FF499C","title":"中国海运","lon":"121.50300508","lat":"31.249953241","category":"46","category_name":"楼宇","address":"上海东大名路700号"},{"poiid":"B2094757D06BA4FC459F","title":"美年体检","lon":"121.49821","lat":"31.250433","category":"162","category_name":"医院","address":"虹口区东长治路505号"},{"poiid":"B2094752D069A2FF419A","title":"新白鹿","lon":"121.4996283","lat":"31.2488492","category":"247","category_name":"餐饮美食","address":"南京东路800号东方商厦9楼"},{"poiid":"B2094757D06AA7FA409D","title":"东长治路","lon":"121.5008371","lat":"31.250816012","category":"500","category_name":"未知分类","address":"上海东长治路"},{"poiid":"B2094655D36CA6FB4992","title":"东大名路旅顺路","lon":"121.49738","lat":"31.24778","category":"38","category_name":"公交车站","address":""},{"poiid":"B2094654D56DA4FA409E","title":"高阳商务中心","lon":"121.50376","lat":"31.25102","category":"46","category_name":"楼宇","address":"虹口区东大名路879号"},{"poiid":"B2094757D16CABFD429F","title":"浦江二号","lon":"121.5048131","lat":"31.248448963","category":"252","category_name":"楼宇机构","address":"上海市浦东新区滨江大道2050号"},{"poiid":"B2094655D268A7FF449E","title":"上海北外滩白玉兰广场","lon":"121.49682","lat":"31.24851","category":"119","category_name":"商场","address":""},{"poiid":"B2094655D36CA6F4409E","title":"东大名路高阳路","lon":"121.50246","lat":"31.25008","category":"38","category_name":"公交车站","address":""},{"poiid":"B2094757D06AA2F4479B","title":"航交所","lon":"121.50562865","lat":"31.250870177","category":"500","category_name":"未知分类","address":"上海航交所"},{"poiid":"B2094757D068A3F5479F","title":"和泰玫瑰园","lon":"121.50043","lat":"31.251926","category":"500","category_name":"未知分类","address":"和泰玫瑰园位于虹口东长治路655号"},{"poiid":"B2094757D16FA0FB4792","title":"韶山湘菜","lon":"121.501586","lat":"31.249933","category":"77","category_name":"湖南菜","address":"虹口区东大名路713号"},{"poiid":"B2094654D56DA4FB459E","title":"晟隆大厦","lon":"121.50245","lat":"31.25159","category":"46","category_name":"楼宇","address":"鲁尔大厦位于铁西兴华南街5号"},{"poiid":"B2094655D26FAAF8489D","title":"港务大厦","lon":"121.504","lat":"31.2459","category":"46","category_name":"楼宇","address":"丰和路1号"},{"poiid":"B2094757D568A5FC469B","title":"汉庭快捷酒店(外滩国际客运中心店)","lon":"121.50158691","lat":"31.24993191","category":"216","category_name":"经济型连锁酒店","address":"虹口区东大名路713号(近北外滩国际客运中心)"},{"poiid":"B2094757D068A4F84799","title":"上海海运(集团)公司","lon":"121.502285524","lat":"31.2499618484","category":"46","category_name":"楼宇","address":"上海东大名路700号"},{"poiid":"B2094757D66BA2FB419F","title":"松涛","lon":"121.502962","lat":"31.250636","category":"95","category_name":"日本料理","address":"虹口区高阳路168号上海外滩浦华大酒店2楼(近东长治路)"},{"poiid":"B2094752D064A6F84898","title":"上海东方明珠电视塔","lon":"121.500468","lat":"31.247754","category":"500","category_name":"未知分类","address":null},{"poiid":"B2094655D26EA2FA479B","title":"大湘园","lon":"121.50313243813","lat":"31.250423762667","category":"77","category_name":"湖南菜","address":"虹口区东大名路799号(近高阳路)"},{"poiid":"B2094757D464A0F9459A","title":"台南担仔面","lon":"121.50247","lat":"31.25113","category":"91","category_name":"台湾菜","address":"虹口区高阳路168号外滩浦华大酒店2楼(近东长治路)"},{"poiid":"B2094757D06AA0F8489E","title":"37路公交车(东大名路高阳路)","lon":"121.50246091","lat":"31.2500848936","category":"38","category_name":"公交车站","address":"上海虹口区东大名路高阳路"},{"poiid":"B2094655D26FA7FF449F","title":"招商银行上海东大名支行","lon":"121.50241","lat":"31.24984","category":"150","category_name":"银行","address":"虹口区东大名路700号(东大名路高阳路)"},{"poiid":"B2094751D26AA3FA479F","title":"东方明珠电视塔","lon":"121.505035","lat":"31.245845","category":"250","category_name":"公园户外","address":"上海"},{"poiid":"B2094757D66EA1FE449F","title":"国投六号","lon":"121.5014741","lat":"31.248987974","category":"500","category_name":"未知分类","address":"上海市虹口区东大名路"},{"poiid":"B2094654DB6AA6FF489D","title":"上海一百假日酒店","lon":"121.5011","lat":"31.24978","category":"215","category_name":"三星级宾馆","address":"虹口区东大名路687号(近新建路)"},{"poiid":"B2094757D065A7FE459A","title":"歌诗达号游轮","lon":"121.50376","lat":"31.24992","category":"247","category_name":"餐饮美食","address":"上海虹口区东大名路800号(近高阳路)  "},{"poiid":"B2094655D264A5F94099","title":"中国移动通信国客中心营业厅","lon":"121.4988","lat":"31.24843","category":"151","category_name":"电讯营业厅","address":"东大名路500号B1层28室候船大厅内"},{"poiid":"B2094757DA6EABF84393","title":"宝钢资源大厦","lon":"121.499366700002","lat":"31.2487691999997","category":"252","category_name":"楼宇机构","address":"虹口区东大名路568号"},{"poiid":"B2094757DB6EABFB4393","title":"IFC","lon":"121.5036982938787","lat":"31.24893246365057","category":"500","category_name":"未知分类","address":"IFC"},{"poiid":"B2094757D06BABF5469F","title":"白金灣府邸","lon":"121.50593167","lat":"31.25022437","category":"47","category_name":"住宅区","address":"上海海平路18號"}]