[{"poiid":"B2094757D06FA6F9449A","title":"上海浦东喜来登由由酒店(Sheraton Shanghai Pudong Hotel &amp; Residences)","lon":"121.51789093","lat":"31.209993362","category":"217","category_name":"旅馆招待所","address":"上海市浦东新区浦建路38号(近浦东南路)"},{"poiid":"B2094654DB64A3FC409D","title":"福朋喜来登由由酒店","lon":"121.51699","lat":"31.20981","category":"214","category_name":"四星级宾馆","address":"浦东新区浦东南路2111号(近浦建路)"},{"poiid":"B2094757D06FA2FC4993","title":"塘桥","lon":"121.51654052","lat":"31.21005249","category":"260","category_name":"其他","address":"塘桥路551识别"},{"poiid":"B2094757D06FA3FA4799","title":"麦当劳(塘桥店)","lon":"121.51674","lat":"31.2101","category":"68","category_name":"快餐厅","address":"浦东新区浦东南路2100号(浦建路塘桥新路)"},{"poiid":"B2094757D06FA2FA449A","title":"感智盲人保健会所(浦东南路店)","lon":"121.516704631","lat":"31.2098654502","category":"149","category_name":"洗浴推拿场所","address":"浦东新区浦东南路2100号B1楼(近浦建路)"},{"poiid":"B2094757D06FABFF4392","title":"四季亭(塘桥店)","lon":"121.51673","lat":"31.21006","category":"95","category_name":"日本料理","address":"浦东新区塘桥新路200号(近浦东南路)"},{"poiid":"B2094752D269A1FE439F","title":"满记甜品","lon":"121.51564","lat":"31.210876","category":"247","category_name":"餐饮美食","address":"浦建路巴黎春天"},{"poiid":"B2094757D068A3F8439E","title":"喜来登由由大酒店宴会厅","lon":"121.51806","lat":"31.20962","category":"72","category_name":"广东菜","address":"浦东新区浦东南路2111号2楼(近南浦大桥)"},{"poiid":"B2094757D068A3FD4198","title":"浦东大酒店","lon":"121.5177363","lat":"31.215603318","category":"217","category_name":"旅馆招待所","address":"上海浦东南路1888号"},{"poiid":"B2094757D068A6FD449A","title":"陆家庄(塘桥店)","lon":"121.51753","lat":"31.21043","category":"76","category_name":"上海菜","address":"浦东新区浦建路1号塘桥生活广场(近浦东南路)"},{"poiid":"B2094757DA69A2F94899","title":"MT浦东第一酒吧","lon":"121.51886715738","lat":"31.210139467476","category":"172","category_name":"酒吧","address":"浦建路15号塘桥商城"},{"poiid":"B2094757D068A0F8479B","title":"江村寨子韩国料理 浦东南路店","lon":"121.51854949869","lat":"31.213659813051","category":"96","category_name":"韩国料理","address":"浦东新区浦东南路1960号(近峨山路)"},{"poiid":"B2094757D068A3F4409D","title":"中国工商银行(浦东分行)","lon":"121.51838","lat":"31.21171","category":"150","category_name":"银行","address":"上海浦东新区浦东南路2024号宁阳路口  "},{"poiid":"B2094757D16EA2FA4699","title":"陆家庄","lon":"121.518175738","lat":"31.2100998712","category":"500","category_name":"未知分类","address":"上海浦东新区浦建路1号"},{"poiid":"B2094757D06EAAFC489D","title":"肯德基 KFC (塘桥店)","lon":"121.518976","lat":"31.210175","category":"68","category_name":"快餐厅","address":"浦东新区浦建路15号塘桥商城1楼(近浦东南路)"},{"poiid":"B2094655D26DAAF5429C","title":"格林豪泰酒店","lon":"121.51804","lat":"31.21107","category":"216","category_name":"经济型连锁酒店","address":"上海市浦东新区浦建路1号（近浦东南路）"},{"poiid":"B2094654DA69A6FF489D","title":"由由大酒店","lon":"121.51718","lat":"31.21002","category":"76","category_name":"上海菜","address":"上海市浦东新区浦东南路2111号（近浦建路）"},{"poiid":"B2094757D06AA2F44792","title":"仁恒广场","lon":"121.51391","lat":"31.209261","category":"46","category_name":"楼宇","address":"上海茂兴路90号"},{"poiid":"B2094655D26BA2F5449C","title":"浦东南路宁阳路","lon":"121.51847","lat":"31.21265","category":"38","category_name":"公交车站","address":""},{"poiid":"B2094757D06AA0FD4499","title":"宁阳小区","lon":"121.51601","lat":"31.212202","category":"47","category_name":"住宅区","address":"上海华安路24弄"},{"poiid":"B2094757D06BA3F8439D","title":"汉庭海友客栈","lon":"121.515409","lat":"31.208214","category":"216","category_name":"经济型连锁酒店","address":"浦东新区浦东南路2162号(近微山路)"},{"poiid":"B2094757D06BA3FF4099","title":"仲元堂","lon":"121.516952738","lat":"31.2104578788","category":"500","category_name":"未知分类","address":"浦东南路2100号上尚商厦2楼"},{"poiid":"B2094750DA65A3FE4299","title":"外婆小菜","lon":"121.51893","lat":"31.21288","category":"76","category_name":"上海菜","address":"浦东新区蓝村路514号(近南泉路)"},{"poiid":"B2094654DA69ABF9409E","title":"新亚大包 塘桥店","lon":"121.51603","lat":"31.21069","category":"68","category_name":"快餐厅","address":"浦东新区塘桥新路190号(近浦东南路)"},{"poiid":"B2094757D66BA6FB499B","title":"我家厨房","lon":"121.51714150853","lat":"31.211026049809","category":"76","category_name":"上海菜","address":"浦东新区塘桥新路235号(近浦东南路)"},{"poiid":"B2094757D16EA3FC439D","title":"东川造型(塘桥)","lon":"121.51738873","lat":"31.21241292","category":"148","category_name":"美容美发店","address":"浦东新区浦东南路1964号(近宁阳路)"},{"poiid":"B2094750D76DA7FB449B","title":"阿华面馆","lon":"121.515","lat":"31.211","category":"68","category_name":"快餐厅","address":"浦东新区塘桥新路182弄1号(近茂兴路)"},{"poiid":"B2094757D06BA5F5439A","title":"蓝村路南泉路","lon":"121.515563924","lat":"31.2126956551","category":"500","category_name":"未知分类","address":"上海蓝村路南泉路路口"},{"poiid":"B2094654DA69ABFF4999","title":"梁友冷饮批发站","lon":"121.51556","lat":"31.21157","category":"113","category_name":"冷饮店","address":""},{"poiid":"B2094757D064A6FA4099","title":"重庆家富富侨(塘桥店)","lon":"121.51759","lat":"31.20993","category":"149","category_name":"洗浴推拿场所","address":"浦东新区浦建路15号新塘桥购物广场4楼(近浦东南路)"},{"poiid":"B2094654DB64A3FE409B","title":"上岛咖啡 浦东南路店","lon":"121.516377054","lat":"31.210664793","category":"260","category_name":"其他","address":"浦东新区浦东南路2100号(塘桥路口)"},{"poiid":"B2094751DA6FABFE489B","title":"罗曼园高级婚礼会馆","lon":"121.515801","lat":"31.211657","category":"500","category_name":"未知分类","address":"上海市黄浦区中山南路1029号幸福码头6号楼"},{"poiid":"B2094752D269A1FE449D","title":"麻辣香锅","lon":"121.515578","lat":"31.210731","category":"247","category_name":"餐饮美食","address":"巴黎春天浦建店"},{"poiid":"B2094757D069A6FE439B","title":"组合发型(浦东南路店)","lon":"121.51845","lat":"31.21274","category":"148","category_name":"美容美发店","address":"浦东新区浦东南路2002号(近宁阳路)"},{"poiid":"B2094750D464A6FA439D","title":"欧麦达KTV","lon":"121.519538","lat":"31.210008","category":"170","category_name":"KTV","address":"浦建路15号（塘桥商城）"},{"poiid":"B2094752D26AA6F4449C","title":"满记甜品","lon":"121.515677","lat":"31.210634","category":"247","category_name":"餐饮美食","address":null},{"poiid":"B2094654DA69ABFF479F","title":"丝艺形象设计中心塘桥分店","lon":"121.51654","lat":"31.21178","category":"148","category_name":"美容美发店","address":""},{"poiid":"B2094750D665A0FB459B","title":"天天晓私房菜(浦东店)","lon":"121.518","lat":"31.214","category":"76","category_name":"上海菜","address":"浦东新区浦东南路1948号(近峨山路)"},{"poiid":"B2094757D16AAAFA479B","title":"塘桥夜排档","lon":"121.515678","lat":"31.211299","category":"247","category_name":"餐饮美食","address":"浦东新区浦东南路(塘桥新路路口)"},{"poiid":"B2094757D66EA5FF419C","title":"博硕创意园","lon":"121.517998738","lat":"31.2126896264","category":"46","category_name":"楼宇","address":"上海浦东新区峨山路633号"},{"poiid":"B2094750D66EA6F9439A","title":"鑫麟台球俱乐部（上尚商厦店）","lon":"121.516","lat":"31.2104","category":"171","category_name":"台球厅","address":"浦东新区浦东南路2100号6楼(近浦建路)"},{"poiid":"B2094757D468A0FC449C","title":"新塘桥生活广场员工餐厅","lon":"121.517212054","lat":"31.210731793","category":"68","category_name":"快餐厅","address":"浦东新区浦建路1号B2楼(近浦东南路)"},{"poiid":"B2094654DA69ABF9419C","title":"牙科诊所(塘桥新路)","lon":"121.5152","lat":"31.21125","category":"162","category_name":"医院","address":"塘桥新路179"},{"poiid":"B2094655D265A7F9499E","title":"亚伦商务楼","lon":"121.51704","lat":"31.21105","category":"46","category_name":"楼宇","address":"浦东南路2054弄1-7号"},{"poiid":"B2094654DA69A5FF489D","title":"上海市萌芽实验中学","lon":"121.51936","lat":"31.21139","category":"55","category_name":"中学","address":"上海浦东新区塘桥路445号(近徐家弄路)"},{"poiid":"B2094750D06EAAF4429A","title":"地铁四号线蓝村路站","lon":"121.517242","lat":"31.210765","category":"500","category_name":"未知分类","address":null},{"poiid":"B2094654DA69ABF94293","title":"良友金伴No.487","lon":"121.51607","lat":"31.21094","category":"117","category_name":"便民商店/便利店","address":"塘桥新路211-1识别"},{"poiid":"B2094655D26FA6F94399","title":"香园(浦明路)","lon":"121.51418","lat":"31.21349","category":"47","category_name":"住宅区","address":"上海浦明路1188弄-1228弄"},{"poiid":"B2094655D26EA6F84799","title":"东方二十九","lon":"121.51837","lat":"31.21229","category":"268","category_name":"自助","address":"浦东新区浦东南路2111号福朋喜来登由由酒店(浦建路口)"},{"poiid":"B2094757D568A4F4489C","title":"上尚商厦(北门)","lon":"121.51611735","lat":"31.21062229","category":"46","category_name":"楼宇","address":"中国上海市浦东新区"},{"poiid":"B2094757D06FA6F9449A","title":"上海浦东喜来登由由酒店(Sheraton Shanghai Pudong Hotel &amp; Residences)","lon":"121.51789093","lat":"31.209993362","category":"217","category_name":"旅馆招待所","address":"上海市浦东新区浦建路38号(近浦东南路)"},{"poiid":"B2094654DB64A3FC409D","title":"福朋喜来登由由酒店","lon":"121.51699","lat":"31.20981","category":"214","category_name":"四星级宾馆","address":"浦东新区浦东南路2111号(近浦建路)"},{"poiid":"B2094757D06FA2FC4993","title":"塘桥","lon":"121.51654052","lat":"31.21005249","category":"260","category_name":"其他","address":"塘桥路551识别"},{"poiid":"B2094757D06FA3FA4799","title":"麦当劳(塘桥店)","lon":"121.51674","lat":"31.2101","category":"68","category_name":"快餐厅","address":"浦东新区浦东南路2100号(浦建路塘桥新路)"},{"poiid":"B2094757D06FA2FA449A","title":"感智盲人保健会所(浦东南路店)","lon":"121.516704631","lat":"31.2098654502","category":"149","category_name":"洗浴推拿场所","address":"浦东新区浦东南路2100号B1楼(近浦建路)"},{"poiid":"B2094757D06FABFF4392","title":"四季亭(塘桥店)","lon":"121.51673","lat":"31.21006","category":"95","category_name":"日本料理","address":"浦东新区塘桥新路200号(近浦东南路)"},{"poiid":"B2094752D269A1FE439F","title":"满记甜品","lon":"121.51564","lat":"31.210876","category":"247","category_name":"餐饮美食","address":"浦建路巴黎春天"},{"poiid":"B2094757D068A3F8439E","title":"喜来登由由大酒店宴会厅","lon":"121.51806","lat":"31.20962","category":"72","category_name":"广东菜","address":"浦东新区浦东南路2111号2楼(近南浦大桥)"},{"poiid":"B2094757D068A3FD4198","title":"浦东大酒店","lon":"121.5177363","lat":"31.215603318","category":"217","category_name":"旅馆招待所","address":"上海浦东南路1888号"},{"poiid":"B2094757D068A6FD449A","title":"陆家庄(塘桥店)","lon":"121.51753","lat":"31.21043","category":"76","category_name":"上海菜","address":"浦东新区浦建路1号塘桥生活广场(近浦东南路)"},{"poiid":"B2094757DA69A2F94899","title":"MT浦东第一酒吧","lon":"121.51886715738","lat":"31.210139467476","category":"172","category_name":"酒吧","address":"浦建路15号塘桥商城"},{"poiid":"B2094757D068A0F8479B","title":"江村寨子韩国料理 浦东南路店","lon":"121.51854949869","lat":"31.213659813051","category":"96","category_name":"韩国料理","address":"浦东新区浦东南路1960号(近峨山路)"},{"poiid":"B2094757D068A3F4409D","title":"中国工商银行(浦东分行)","lon":"121.51838","lat":"31.21171","category":"150","category_name":"银行","address":"上海浦东新区浦东南路2024号宁阳路口  "},{"poiid":"B2094757D16EA2FA4699","title":"陆家庄","lon":"121.518175738","lat":"31.2100998712","category":"500","category_name":"未知分类","address":"上海浦东新区浦建路1号"},{"poiid":"B2094757D06EAAFC489D","title":"肯德基 KFC (塘桥店)","lon":"121.518976","lat":"31.210175","category":"68","category_name":"快餐厅","address":"浦东新区浦建路15号塘桥商城1楼(近浦东南路)"},{"poiid":"B2094655D26DAAF5429C","title":"格林豪泰酒店","lon":"121.51804","lat":"31.21107","category":"216","category_name":"经济型连锁酒店","address":"上海市浦东新区浦建路1号（近浦东南路）"},{"poiid":"B2094654DA69A6FF489D","title":"由由大酒店","lon":"121.51718","lat":"31.21002","category":"76","category_name":"上海菜","address":"上海市浦东新区浦东南路2111号（近浦建路）"},{"poiid":"B2094757D06AA2F44792","title":"仁恒广场","lon":"121.51391","lat":"31.209261","category":"46","category_name":"楼宇","address":"上海茂兴路90号"},{"poiid":"B2094655D26BA2F5449C","title":"浦东南路宁阳路","lon":"121.51847","lat":"31.21265","category":"38","category_name":"公交车站","address":""},{"poiid":"B2094757D06AA0FD4499","title":"宁阳小区","lon":"121.51601","lat":"31.212202","category":"47","category_name":"住宅区","address":"上海华安路24弄"},{"poiid":"B2094757D06BA3F8439D","title":"汉庭海友客栈","lon":"121.515409","lat":"31.208214","category":"216","category_name":"经济型连锁酒店","address":"浦东新区浦东南路2162号(近微山路)"},{"poiid":"B2094757D06BA3FF4099","title":"仲元堂","lon":"121.516952738","lat":"31.2104578788","category":"500","category_name":"未知分类","address":"浦东南路2100号上尚商厦2楼"},{"poiid":"B2094750DA65A3FE4299","title":"外婆小菜","lon":"121.51893","lat":"31.21288","category":"76","category_name":"上海菜","address":"浦东新区蓝村路514号(近南泉路)"},{"poiid":"B2094654DA69ABF9409E","title":"新亚大包 塘桥店","lon":"121.51603","lat":"31.21069","category":"68","category_name":"快餐厅","address":"浦东新区塘桥新路190号(近浦东南路)"},{"poiid":"B2094757D66BA6FB499B","title":"我家厨房","lon":"121.51714150853","lat":"31.211026049809","category":"76","category_name":"上海菜","address":"浦东新区塘桥新路235号(近浦东南路)"},{"poiid":"B2094757D16EA3FC439D","title":"东川造型(塘桥)","lon":"121.51738873","lat":"31.21241292","category":"148","category_name":"美容美发店","address":"浦东新区浦东南路1964号(近宁阳路)"},{"poiid":"B2094750D76DA7FB449B","title":"阿华面馆","lon":"121.515","lat":"31.211","category":"68","category_name":"快餐厅","address":"浦东新区塘桥新路182弄1号(近茂兴路)"},{"poiid":"B2094757D06BA5F5439A","title":"蓝村路南泉路","lon":"121.515563924","lat":"31.2126956551","category":"500","category_name":"未知分类","address":"上海蓝村路南泉路路口"},{"poiid":"B2094654DA69ABFF4999","title":"梁友冷饮批发站","lon":"121.51556","lat":"31.21157","category":"113","category_name":"冷饮店","address":""},{"poiid":"B2094757D064A6FA4099","title":"重庆家富富侨(塘桥店)","lon":"121.51759","lat":"31.20993","category":"149","category_name":"洗浴推拿场所","address":"浦东新区浦建路15号新塘桥购物广场4楼(近浦东南路)"},{"poiid":"B2094654DB64A3FE409B","title":"上岛咖啡 浦东南路店","lon":"121.516377054","lat":"31.210664793","category":"260","category_name":"其他","address":"浦东新区浦东南路2100号(塘桥路口)"},{"poiid":"B2094751DA6FABFE489B","title":"罗曼园高级婚礼会馆","lon":"121.515801","lat":"31.211657","category":"500","category_name":"未知分类","address":"上海市黄浦区中山南路1029号幸福码头6号楼"},{"poiid":"B2094752D269A1FE449D","title":"麻辣香锅","lon":"121.515578","lat":"31.210731","category":"247","category_name":"餐饮美食","address":"巴黎春天浦建店"},{"poiid":"B2094757D069A6FE439B","title":"组合发型(浦东南路店)","lon":"121.51845","lat":"31.21274","category":"148","category_name":"美容美发店","address":"浦东新区浦东南路2002号(近宁阳路)"},{"poiid":"B2094750D464A6FA439D","title":"欧麦达KTV","lon":"121.519538","lat":"31.210008","category":"170","category_name":"KTV","address":"浦建路15号（塘桥商城）"},{"poiid":"B2094752D26AA6F4449C","title":"满记甜品","lon":"121.515677","lat":"31.210634","category":"247","category_name":"餐饮美食","address":null},{"poiid":"B2094654DA69ABFF479F","title":"丝艺形象设计中心塘桥分店","lon":"121.51654","lat":"31.21178","category":"148","category_name":"美容美发店","address":""},{"poiid":"B2094750D665A0FB459B","title":"天天晓私房菜(浦东店)","lon":"121.518","lat":"31.214","category":"76","category_name":"上海菜","address":"浦东新区浦东南路1948号(近峨山路)"},{"poiid":"B2094757D16AAAFA479B","title":"塘桥夜排档","lon":"121.515678","lat":"31.211299","category":"247","category_name":"餐饮美食","address":"浦东新区浦东南路(塘桥新路路口)"},{"poiid":"B2094757D66EA5FF419C","title":"博硕创意园","lon":"121.517998738","lat":"31.2126896264","category":"46","category_name":"楼宇","address":"上海浦东新区峨山路633号"},{"poiid":"B2094750D66EA6F9439A","title":"鑫麟台球俱乐部（上尚商厦店）","lon":"121.516","lat":"31.2104","category":"171","category_name":"台球厅","address":"浦东新区浦东南路2100号6楼(近浦建路)"},{"poiid":"B2094757D468A0FC449C","title":"新塘桥生活广场员工餐厅","lon":"121.517212054","lat":"31.210731793","category":"68","category_name":"快餐厅","address":"浦东新区浦建路1号B2楼(近浦东南路)"},{"poiid":"B2094654DA69ABF9419C","title":"牙科诊所(塘桥新路)","lon":"121.5152","lat":"31.21125","category":"162","category_name":"医院","address":"塘桥新路179"},{"poiid":"B2094655D265A7F9499E","title":"亚伦商务楼","lon":"121.51704","lat":"31.21105","category":"46","category_name":"楼宇","address":"浦东南路2054弄1-7号"},{"poiid":"B2094654DA69A5FF489D","title":"上海市萌芽实验中学","lon":"121.51936","lat":"31.21139","category":"55","category_name":"中学","address":"上海浦东新区塘桥路445号(近徐家弄路)"},{"poiid":"B2094750D06EAAF4429A","title":"地铁四号线蓝村路站","lon":"121.517242","lat":"31.210765","category":"500","category_name":"未知分类","address":null},{"poiid":"B2094654DA69ABF94293","title":"良友金伴No.487","lon":"121.51607","lat":"31.21094","category":"117","category_name":"便民商店/便利店","address":"塘桥新路211-1识别"},{"poiid":"B2094655D26FA6F94399","title":"香园(浦明路)","lon":"121.51418","lat":"31.21349","category":"47","category_name":"住宅区","address":"上海浦明路1188弄-1228弄"},{"poiid":"B2094655D26EA6F84799","title":"东方二十九","lon":"121.51837","lat":"31.21229","category":"268","category_name":"自助","address":"浦东新区浦东南路2111号福朋喜来登由由酒店(浦建路口)"},{"poiid":"B2094757D568A4F4489C","title":"上尚商厦(北门)","lon":"121.51611735","lat":"31.21062229","category":"46","category_name":"楼宇","address":"中国上海市浦东新区"},{"poiid":"B2094757D06FA6F9449A","title":"上海浦东喜来登由由酒店(Sheraton Shanghai Pudong Hotel &amp; Residences)","lon":"121.51789093","lat":"31.209993362","category":"217","category_name":"旅馆招待所","address":"上海市浦东新区浦建路38号(近浦东南路)"},{"poiid":"B2094654DB64A3FC409D","title":"福朋喜来登由由酒店","lon":"121.51699","lat":"31.20981","category":"214","category_name":"四星级宾馆","address":"浦东新区浦东南路2111号(近浦建路)"},{"poiid":"B2094757D06FA2FC4993","title":"塘桥","lon":"121.51654052","lat":"31.21005249","category":"260","category_name":"其他","address":"塘桥路551识别"},{"poiid":"B2094757D06FA3FA4799","title":"麦当劳(塘桥店)","lon":"121.51674","lat":"31.2101","category":"68","category_name":"快餐厅","address":"浦东新区浦东南路2100号(浦建路塘桥新路)"},{"poiid":"B2094757D06FA2FA449A","title":"感智盲人保健会所(浦东南路店)","lon":"121.516704631","lat":"31.2098654502","category":"149","category_name":"洗浴推拿场所","address":"浦东新区浦东南路2100号B1楼(近浦建路)"},{"poiid":"B2094757D06FABFF4392","title":"四季亭(塘桥店)","lon":"121.51673","lat":"31.21006","category":"95","category_name":"日本料理","address":"浦东新区塘桥新路200号(近浦东南路)"},{"poiid":"B2094752D269A1FE439F","title":"满记甜品","lon":"121.51564","lat":"31.210876","category":"247","category_name":"餐饮美食","address":"浦建路巴黎春天"},{"poiid":"B2094757D068A3F8439E","title":"喜来登由由大酒店宴会厅","lon":"121.51806","lat":"31.20962","category":"72","category_name":"广东菜","address":"浦东新区浦东南路2111号2楼(近南浦大桥)"},{"poiid":"B2094757D068A3FD4198","title":"浦东大酒店","lon":"121.5177363","lat":"31.215603318","category":"217","category_name":"旅馆招待所","address":"上海浦东南路1888号"},{"poiid":"B2094757D068A6FD449A","title":"陆家庄(塘桥店)","lon":"121.51753","lat":"31.21043","category":"76","category_name":"上海菜","address":"浦东新区浦建路1号塘桥生活广场(近浦东南路)"},{"poiid":"B2094757DA69A2F94899","title":"MT浦东第一酒吧","lon":"121.51886715738","lat":"31.210139467476","category":"172","category_name":"酒吧","address":"浦建路15号塘桥商城"},{"poiid":"B2094757D068A0F8479B","title":"江村寨子韩国料理 浦东南路店","lon":"121.51854949869","lat":"31.213659813051","category":"96","category_name":"韩国料理","address":"浦东新区浦东南路1960号(近峨山路)"},{"poiid":"B2094757D068A3F4409D","title":"中国工商银行(浦东分行)","lon":"121.51838","lat":"31.21171","category":"150","category_name":"银行","address":"上海浦东新区浦东南路2024号宁阳路口  "},{"poiid":"B2094757D16EA2FA4699","title":"陆家庄","lon":"121.518175738","lat":"31.2100998712","category":"500","category_name":"未知分类","address":"上海浦东新区浦建路1号"},{"poiid":"B2094757D06EAAFC489D","title":"肯德基 KFC (塘桥店)","lon":"121.518976","lat":"31.210175","category":"68","category_name":"快餐厅","address":"浦东新区浦建路15号塘桥商城1楼(近浦东南路)"},{"poiid":"B2094655D26DAAF5429C","title":"格林豪泰酒店","lon":"121.51804","lat":"31.21107","category":"216","category_name":"经济型连锁酒店","address":"上海市浦东新区浦建路1号（近浦东南路）"},{"poiid":"B2094654DA69A6FF489D","title":"由由大酒店","lon":"121.51718","lat":"31.21002","category":"76","category_name":"上海菜","address":"上海市浦东新区浦东南路2111号（近浦建路）"},{"poiid":"B2094757D06AA2F44792","title":"仁恒广场","lon":"121.51391","lat":"31.209261","category":"46","category_name":"楼宇","address":"上海茂兴路90号"},{"poiid":"B2094655D26BA2F5449C","title":"浦东南路宁阳路","lon":"121.51847","lat":"31.21265","category":"38","category_name":"公交车站","address":""},{"poiid":"B2094757D06AA0FD4499","title":"宁阳小区","lon":"121.51601","lat":"31.212202","category":"47","category_name":"住宅区","address":"上海华安路24弄"},{"poiid":"B2094757D06BA3F8439D","title":"汉庭海友客栈","lon":"121.515409","lat":"31.208214","category":"216","category_name":"经济型连锁酒店","address":"浦东新区浦东南路2162号(近微山路)"},{"poiid":"B2094757D06BA3FF4099","title":"仲元堂","lon":"121.516952738","lat":"31.2104578788","category":"500","category_name":"未知分类","address":"浦东南路2100号上尚商厦2楼"},{"poiid":"B2094750DA65A3FE4299","title":"外婆小菜","lon":"121.51893","lat":"31.21288","category":"76","category_name":"上海菜","address":"浦东新区蓝村路514号(近南泉路)"},{"poiid":"B2094654DA69ABF9409E","title":"新亚大包 塘桥店","lon":"121.51603","lat":"31.21069","category":"68","category_name":"快餐厅","address":"浦东新区塘桥新路190号(近浦东南路)"},{"poiid":"B2094757D66BA6FB499B","title":"我家厨房","lon":"121.51714150853","lat":"31.211026049809","category":"76","category_name":"上海菜","address":"浦东新区塘桥新路235号(近浦东南路)"},{"poiid":"B2094757D16EA3FC439D","title":"东川造型(塘桥)","lon":"121.51738873","lat":"31.21241292","category":"148","category_name":"美容美发店","address":"浦东新区浦东南路1964号(近宁阳路)"},{"poiid":"B2094750D76DA7FB449B","title":"阿华面馆","lon":"121.515","lat":"31.211","category":"68","category_name":"快餐厅","address":"浦东新区塘桥新路182弄1号(近茂兴路)"},{"poiid":"B2094757D06BA5F5439A","title":"蓝村路南泉路","lon":"121.515563924","lat":"31.2126956551","category":"500","category_name":"未知分类","address":"上海蓝村路南泉路路口"},{"poiid":"B2094654DA69ABFF4999","title":"梁友冷饮批发站","lon":"121.51556","lat":"31.21157","category":"113","category_name":"冷饮店","address":""},{"poiid":"B2094757D064A6FA4099","title":"重庆家富富侨(塘桥店)","lon":"121.51759","lat":"31.20993","category":"149","category_name":"洗浴推拿场所","address":"浦东新区浦建路15号新塘桥购物广场4楼(近浦东南路)"},{"poiid":"B2094654DB64A3FE409B","title":"上岛咖啡 浦东南路店","lon":"121.516377054","lat":"31.210664793","category":"260","category_name":"其他","address":"浦东新区浦东南路2100号(塘桥路口)"},{"poiid":"B2094751DA6FABFE489B","title":"罗曼园高级婚礼会馆","lon":"121.515801","lat":"31.211657","category":"500","category_name":"未知分类","address":"上海市黄浦区中山南路1029号幸福码头6号楼"},{"poiid":"B2094752D269A1FE449D","title":"麻辣香锅","lon":"121.515578","lat":"31.210731","category":"247","category_name":"餐饮美食","address":"巴黎春天浦建店"},{"poiid":"B2094757D069A6FE439B","title":"组合发型(浦东南路店)","lon":"121.51845","lat":"31.21274","category":"148","category_name":"美容美发店","address":"浦东新区浦东南路2002号(近宁阳路)"},{"poiid":"B2094750D464A6FA439D","title":"欧麦达KTV","lon":"121.519538","lat":"31.210008","category":"170","category_name":"KTV","address":"浦建路15号（塘桥商城）"},{"poiid":"B2094752D26AA6F4449C","title":"满记甜品","lon":"121.515677","lat":"31.210634","category":"247","category_name":"餐饮美食","address":null},{"poiid":"B2094654DA69ABFF479F","title":"丝艺形象设计中心塘桥分店","lon":"121.51654","lat":"31.21178","category":"148","category_name":"美容美发店","address":""},{"poiid":"B2094750D665A0FB459B","title":"天天晓私房菜(浦东店)","lon":"121.518","lat":"31.214","category":"76","category_name":"上海菜","address":"浦东新区浦东南路1948号(近峨山路)"},{"poiid":"B2094757D16AAAFA479B","title":"塘桥夜排档","lon":"121.515678","lat":"31.211299","category":"247","category_name":"餐饮美食","address":"浦东新区浦东南路(塘桥新路路口)"},{"poiid":"B2094757D66EA5FF419C","title":"博硕创意园","lon":"121.517998738","lat":"31.2126896264","category":"46","category_name":"楼宇","address":"上海浦东新区峨山路633号"},{"poiid":"B2094750D66EA6F9439A","title":"鑫麟台球俱乐部（上尚商厦店）","lon":"121.516","lat":"31.2104","category":"171","category_name":"台球厅","address":"浦东新区浦东南路2100号6楼(近浦建路)"},{"poiid":"B2094757D468A0FC449C","title":"新塘桥生活广场员工餐厅","lon":"121.517212054","lat":"31.210731793","category":"68","category_name":"快餐厅","address":"浦东新区浦建路1号B2楼(近浦东南路)"},{"poiid":"B2094654DA69ABF9419C","title":"牙科诊所(塘桥新路)","lon":"121.5152","lat":"31.21125","category":"162","category_name":"医院","address":"塘桥新路179"},{"poiid":"B2094655D265A7F9499E","title":"亚伦商务楼","lon":"121.51704","lat":"31.21105","category":"46","category_name":"楼宇","address":"浦东南路2054弄1-7号"},{"poiid":"B2094654DA69A5FF489D","title":"上海市萌芽实验中学","lon":"121.51936","lat":"31.21139","category":"55","category_name":"中学","address":"上海浦东新区塘桥路445号(近徐家弄路)"},{"poiid":"B2094750D06EAAF4429A","title":"地铁四号线蓝村路站","lon":"121.517242","lat":"31.210765","category":"500","category_name":"未知分类","address":null},{"poiid":"B2094654DA69ABF94293","title":"良友金伴No.487","lon":"121.51607","lat":"31.21094","category":"117","category_name":"便民商店/便利店","address":"塘桥新路211-1识别"},{"poiid":"B2094655D26FA6F94399","title":"香园(浦明路)","lon":"121.51418","lat":"31.21349","category":"47","category_name":"住宅区","address":"上海浦明路1188弄-1228弄"},{"poiid":"B2094655D26EA6F84799","title":"东方二十九","lon":"121.51837","lat":"31.21229","category":"268","category_name":"自助","address":"浦东新区浦东南路2111号福朋喜来登由由酒店(浦建路口)"},{"poiid":"B2094757D568A4F4489C","title":"上尚商厦(北门)","lon":"121.51611735","lat":"31.21062229","category":"46","category_name":"楼宇","address":"中国上海市浦东新区"},{"poiid":"B2094757D06FA6F9449A","title":"上海浦东喜来登由由酒店(Sheraton Shanghai Pudong Hotel &amp; Residences)","lon":"121.51789093","lat":"31.209993362","category":"217","category_name":"旅馆招待所","address":"上海市浦东新区浦建路38号(近浦东南路)"},{"poiid":"B2094654DB64A3FC409D","title":"福朋喜来登由由酒店","lon":"121.51699","lat":"31.20981","category":"214","category_name":"四星级宾馆","address":"浦东新区浦东南路2111号(近浦建路)"},{"poiid":"B2094757D06FA2FC4993","title":"塘桥","lon":"121.51654052","lat":"31.21005249","category":"260","category_name":"其他","address":"塘桥路551识别"},{"poiid":"B2094757D06FA3FA4799","title":"麦当劳(塘桥店)","lon":"121.51674","lat":"31.2101","category":"68","category_name":"快餐厅","address":"浦东新区浦东南路2100号(浦建路塘桥新路)"},{"poiid":"B2094757D06FA2FA449A","title":"感智盲人保健会所(浦东南路店)","lon":"121.516704631","lat":"31.2098654502","category":"149","category_name":"洗浴推拿场所","address":"浦东新区浦东南路2100号B1楼(近浦建路)"},{"poiid":"B2094757D06FABFF4392","title":"四季亭(塘桥店)","lon":"121.51673","lat":"31.21006","category":"95","category_name":"日本料理","address":"浦东新区塘桥新路200号(近浦东南路)"},{"poiid":"B2094752D269A1FE439F","title":"满记甜品","lon":"121.51564","lat":"31.210876","category":"247","category_name":"餐饮美食","address":"浦建路巴黎春天"},{"poiid":"B2094757D068A3F8439E","title":"喜来登由由大酒店宴会厅","lon":"121.51806","lat":"31.20962","category":"72","category_name":"广东菜","address":"浦东新区浦东南路2111号2楼(近南浦大桥)"},{"poiid":"B2094757D068A3FD4198","title":"浦东大酒店","lon":"121.5177363","lat":"31.215603318","category":"217","category_name":"旅馆招待所","address":"上海浦东南路1888号"},{"poiid":"B2094757D068A6FD449A","title":"陆家庄(塘桥店)","lon":"121.51753","lat":"31.21043","category":"76","category_name":"上海菜","address":"浦东新区浦建路1号塘桥生活广场(近浦东南路)"},{"poiid":"B2094757DA69A2F94899","title":"MT浦东第一酒吧","lon":"121.51886715738","lat":"31.210139467476","category":"172","category_name":"酒吧","address":"浦建路15号塘桥商城"},{"poiid":"B2094757D068A0F8479B","title":"江村寨子韩国料理 浦东南路店","lon":"121.51854949869","lat":"31.213659813051","category":"96","category_name":"韩国料理","address":"浦东新区浦东南路1960号(近峨山路)"},{"poiid":"B2094757D068A3F4409D","title":"中国工商银行(浦东分行)","lon":"121.51838","lat":"31.21171","category":"150","category_name":"银行","address":"上海浦东新区浦东南路2024号宁阳路口  "},{"poiid":"B2094757D16EA2FA4699","title":"陆家庄","lon":"121.518175738","lat":"31.2100998712","category":"500","category_name":"未知分类","address":"上海浦东新区浦建路1号"},{"poiid":"B2094757D06EAAFC489D","title":"肯德基 KFC (塘桥店)","lon":"121.518976","lat":"31.210175","category":"68","category_name":"快餐厅","address":"浦东新区浦建路15号塘桥商城1楼(近浦东南路)"},{"poiid":"B2094655D26DAAF5429C","title":"格林豪泰酒店","lon":"121.51804","lat":"31.21107","category":"216","category_name":"经济型连锁酒店","address":"上海市浦东新区浦建路1号（近浦东南路）"},{"poiid":"B2094654DA69A6FF489D","title":"由由大酒店","lon":"121.51718","lat":"31.21002","category":"76","category_name":"上海菜","address":"上海市浦东新区浦东南路2111号（近浦建路）"},{"poiid":"B2094757D06AA2F44792","title":"仁恒广场","lon":"121.51391","lat":"31.209261","category":"46","category_name":"楼宇","address":"上海茂兴路90号"},{"poiid":"B2094655D26BA2F5449C","title":"浦东南路宁阳路","lon":"121.51847","lat":"31.21265","category":"38","category_name":"公交车站","address":""},{"poiid":"B2094757D06AA0FD4499","title":"宁阳小区","lon":"121.51601","lat":"31.212202","category":"47","category_name":"住宅区","address":"上海华安路24弄"},{"poiid":"B2094757D06BA3F8439D","title":"汉庭海友客栈","lon":"121.515409","lat":"31.208214","category":"216","category_name":"经济型连锁酒店","address":"浦东新区浦东南路2162号(近微山路)"},{"poiid":"B2094757D06BA3FF4099","title":"仲元堂","lon":"121.516952738","lat":"31.2104578788","category":"500","category_name":"未知分类","address":"浦东南路2100号上尚商厦2楼"},{"poiid":"B2094750DA65A3FE4299","title":"外婆小菜","lon":"121.51893","lat":"31.21288","category":"76","category_name":"上海菜","address":"浦东新区蓝村路514号(近南泉路)"},{"poiid":"B2094654DA69ABF9409E","title":"新亚大包 塘桥店","lon":"121.51603","lat":"31.21069","category":"68","category_name":"快餐厅","address":"浦东新区塘桥新路190号(近浦东南路)"},{"poiid":"B2094757D66BA6FB499B","title":"我家厨房","lon":"121.51714150853","lat":"31.211026049809","category":"76","category_name":"上海菜","address":"浦东新区塘桥新路235号(近浦东南路)"},{"poiid":"B2094757D16EA3FC439D","title":"东川造型(塘桥)","lon":"121.51738873","lat":"31.21241292","category":"148","category_name":"美容美发店","address":"浦东新区浦东南路1964号(近宁阳路)"},{"poiid":"B2094750D76DA7FB449B","title":"阿华面馆","lon":"121.515","lat":"31.211","category":"68","category_name":"快餐厅","address":"浦东新区塘桥新路182弄1号(近茂兴路)"},{"poiid":"B2094757D06BA5F5439A","title":"蓝村路南泉路","lon":"121.515563924","lat":"31.2126956551","category":"500","category_name":"未知分类","address":"上海蓝村路南泉路路口"},{"poiid":"B2094654DA69ABFF4999","title":"梁友冷饮批发站","lon":"121.51556","lat":"31.21157","category":"113","category_name":"冷饮店","address":""},{"poiid":"B2094757D064A6FA4099","title":"重庆家富富侨(塘桥店)","lon":"121.51759","lat":"31.20993","category":"149","category_name":"洗浴推拿场所","address":"浦东新区浦建路15号新塘桥购物广场4楼(近浦东南路)"},{"poiid":"B2094654DB64A3FE409B","title":"上岛咖啡 浦东南路店","lon":"121.516377054","lat":"31.210664793","category":"260","category_name":"其他","address":"浦东新区浦东南路2100号(塘桥路口)"},{"poiid":"B2094751DA6FABFE489B","title":"罗曼园高级婚礼会馆","lon":"121.515801","lat":"31.211657","category":"500","category_name":"未知分类","address":"上海市黄浦区中山南路1029号幸福码头6号楼"},{"poiid":"B2094752D269A1FE449D","title":"麻辣香锅","lon":"121.515578","lat":"31.210731","category":"247","category_name":"餐饮美食","address":"巴黎春天浦建店"},{"poiid":"B2094757D069A6FE439B","title":"组合发型(浦东南路店)","lon":"121.51845","lat":"31.21274","category":"148","category_name":"美容美发店","address":"浦东新区浦东南路2002号(近宁阳路)"},{"poiid":"B2094750D464A6FA439D","title":"欧麦达KTV","lon":"121.519538","lat":"31.210008","category":"170","category_name":"KTV","address":"浦建路15号（塘桥商城）"},{"poiid":"B2094752D26AA6F4449C","title":"满记甜品","lon":"121.515677","lat":"31.210634","category":"247","category_name":"餐饮美食","address":null},{"poiid":"B2094654DA69ABFF479F","title":"丝艺形象设计中心塘桥分店","lon":"121.51654","lat":"31.21178","category":"148","category_name":"美容美发店","address":""},{"poiid":"B2094750D665A0FB459B","title":"天天晓私房菜(浦东店)","lon":"121.518","lat":"31.214","category":"76","category_name":"上海菜","address":"浦东新区浦东南路1948号(近峨山路)"},{"poiid":"B2094757D16AAAFA479B","title":"塘桥夜排档","lon":"121.515678","lat":"31.211299","category":"247","category_name":"餐饮美食","address":"浦东新区浦东南路(塘桥新路路口)"},{"poiid":"B2094757D66EA5FF419C","title":"博硕创意园","lon":"121.517998738","lat":"31.2126896264","category":"46","category_name":"楼宇","address":"上海浦东新区峨山路633号"},{"poiid":"B2094750D66EA6F9439A","title":"鑫麟台球俱乐部（上尚商厦店）","lon":"121.516","lat":"31.2104","category":"171","category_name":"台球厅","address":"浦东新区浦东南路2100号6楼(近浦建路)"},{"poiid":"B2094757D468A0FC449C","title":"新塘桥生活广场员工餐厅","lon":"121.517212054","lat":"31.210731793","category":"68","category_name":"快餐厅","address":"浦东新区浦建路1号B2楼(近浦东南路)"},{"poiid":"B2094654DA69ABF9419C","title":"牙科诊所(塘桥新路)","lon":"121.5152","lat":"31.21125","category":"162","category_name":"医院","address":"塘桥新路179"},{"poiid":"B2094655D265A7F9499E","title":"亚伦商务楼","lon":"121.51704","lat":"31.21105","category":"46","category_name":"楼宇","address":"浦东南路2054弄1-7号"},{"poiid":"B2094654DA69A5FF489D","title":"上海市萌芽实验中学","lon":"121.51936","lat":"31.21139","category":"55","category_name":"中学","address":"上海浦东新区塘桥路445号(近徐家弄路)"},{"poiid":"B2094750D06EAAF4429A","title":"地铁四号线蓝村路站","lon":"121.517242","lat":"31.210765","category":"500","category_name":"未知分类","address":null},{"poiid":"B2094654DA69ABF94293","title":"良友金伴No.487","lon":"121.51607","lat":"31.21094","category":"117","category_name":"便民商店/便利店","address":"塘桥新路211-1识别"},{"poiid":"B2094655D26FA6F94399","title":"香园(浦明路)","lon":"121.51418","lat":"31.21349","category":"47","category_name":"住宅区","address":"上海浦明路1188弄-1228弄"},{"poiid":"B2094655D26EA6F84799","title":"东方二十九","lon":"121.51837","lat":"31.21229","category":"268","category_name":"自助","address":"浦东新区浦东南路2111号福朋喜来登由由酒店(浦建路口)"},{"poiid":"B2094757D568A4F4489C","title":"上尚商厦(北门)","lon":"121.51611735","lat":"31.21062229","category":"46","category_name":"楼宇","address":"中国上海市浦东新区"}]