[{"poiid":"B2094757D16CA3FB4692","title":"930私房菜(欧阳路店)","lon":"121.489328103","lat":"31.2680273722","category":"76","category_name":"上海菜","address":"虹口区欧阳路196号1号楼3楼(近四达路)"},{"poiid":"B2094757D06EAAFB4398","title":"邮电新村地铁站","lon":"121.49450107","lat":"31.268612797","category":"36","category_name":"地铁站","address":"上海轨道交通 十号线 轨交邮电新村站 10"},{"poiid":"B2094757D06FABFD459D","title":"荣欣大厦","lon":"121.490138","lat":"31.26684","category":"252","category_name":"楼宇机构","address":"上海市四川北路1851号"},{"poiid":"B2094757D06FA0FE469E","title":"邮电新村","lon":"121.49442895","lat":"31.270637995","category":"47","category_name":"住宅区","address":"上海四平路621弄〔近密云路〕"},{"poiid":"B2094757D06FA5FE449E","title":"四平路曲阳路口","lon":"121.495693","lat":"31.269823","category":"500","category_name":"未知分类","address":"上海四平路曲阳路"},{"poiid":"B2094757D16EA1F4449B","title":"法兰桥创意园区","lon":"121.488876103","lat":"31.2667803462","category":"119","category_name":"商场","address":"上海虹口区欧阳路196号"},{"poiid":"B2094654D56CA7FF499C","title":"红城阁","lon":"121.49215","lat":"31.27108","category":"76","category_name":"上海菜","address":"虹口区曲阳路239号(近四平路)"},{"poiid":"B2094655D26AAAFD4492","title":"上海莫泰168连锁酒店四平路店","lon":"121.49122","lat":"31.26606","category":"250","category_name":"公园户外","address":"上海市虹口区四平路333号（近四达路）"},{"poiid":"B2094654D56CA0FB419C","title":"绿洲紫荆花园","lon":"121.48959","lat":"31.268484","category":"47","category_name":"住宅区","address":"上海市虹口区欧阳路289号"},{"poiid":"B2094757D068A7FD4193","title":"上海市社会保险基金管理中心","lon":"121.492274","lat":"31.270805","category":"500","category_name":"未知分类","address":"上海曲阳路179号"},{"poiid":"B2094757D06BAAF4409F","title":"巨麦KTV","lon":"121.4916901","lat":"31.264270293","category":"170","category_name":"KTV","address":"虹口区物华路300号(近四平路)"},{"poiid":"B2094757D06FA5F4409E","title":"JEANS108SALON(京世曲阳店)","lon":"121.49333","lat":"31.27012","category":"148","category_name":"美容美发店","address":"上海虹口区曲阳路108号(近四平路)"},{"poiid":"B2094757D06FABFC4498","title":"祥德路欧阳路","lon":"121.491545","lat":"31.271189","category":"47","category_name":"住宅区","address":"上海祥德路欧阳路"},{"poiid":"B2094757D76CA3F84298","title":"卧云茶敘","lon":"121.493871","lat":"31.268995","category":"66","category_name":"茶艺馆","address":"虹口区曲阳路26号(近四平路)"},{"poiid":"B2094757D06FABF9409F","title":"虹口区青少年活动中心","lon":"121.48973131","lat":"31.265364815","category":"260","category_name":"其他","address":"虹口区欧阳路67号(近四平路)"},{"poiid":"B2094655D26AA4F5429B","title":"玛萨SPA专业美容香熏生活馆曲阳店","lon":"121.49359","lat":"31.26848","category":"247","category_name":"餐饮美食","address":"虹口区曲阳路1号(近四平路)"},{"poiid":"B2094757D169A5FF439E","title":"知茵坊","lon":"121.4891937","lat":"31.266933649","category":"76","category_name":"上海菜","address":"虹口区欧阳路196弄22-23号"},{"poiid":"B2094655D26FA0F84799","title":"飘鹰东方花园","lon":"121.49414","lat":"31.271051","category":"47","category_name":"住宅区","address":"上海曲阳路118弄"},{"poiid":"B2094654D56CA7FE4392","title":"龙邸大厦","lon":"121.495557","lat":"31.266546","category":"46","category_name":"楼宇","address":"徐汇区田林路388号"},{"poiid":"B2094654DB6AAAF8459C","title":"上岛咖啡(曲阳店)","lon":"121.49298","lat":"31.27155","category":"260","category_name":"其他","address":"虹口区曲阳路118弄28号3楼(近祥德路)"},{"poiid":"B2094655D36CA2F94098","title":"曲阳路祥德路","lon":"121.49199","lat":"31.2722","category":"38","category_name":"公交车站","address":""},{"poiid":"B2094757D66AA5FD4793","title":"次郎日式快餐 四平店","lon":"121.49134445846","lat":"31.265653123995","category":"68","category_name":"快餐厅","address":"虹口区四平路170号(近溧阳路)"},{"poiid":"B2094654D56CA7FF4799","title":"上海市虹口公证处","lon":"121.4928","lat":"31.26815","category":"250","category_name":"公园户外","address":"四平路421弄20号民通科技大楼"},{"poiid":"B2094655D26FA0FA4898","title":"宏祥花苑","lon":"121.49262","lat":"31.26956","category":"47","category_name":"住宅区","address":"宏祥花苑位于虹口曲阳路69弄"},{"poiid":"B2094655D26AA4F84198","title":"上海市人才服务中心虹口区分部","lon":"121.49258","lat":"31.26798","category":"247","category_name":"餐饮美食","address":"虹口区四平路421弄20号(近临平路)"},{"poiid":"B2094757D168A5F8419B","title":"卧雲茶叙","lon":"121.494169103","lat":"31.2695124032","category":"247","category_name":"餐饮美食","address":"上海市虹口区曲阳路"},{"poiid":"B2094757D16CA2FB4699","title":"福龙大厦","lon":"121.496","lat":"31.2681","category":"46","category_name":"楼宇","address":"上海市虹口区四平路277号"},{"poiid":"B2094757D16CA3FA4992","title":"同济大学雅憩","lon":"121.49458812","lat":"31.266952489","category":"253","category_name":"校园生活","address":"上海同济大学四平路建筑与城规学苑"},{"poiid":"B2094655D26EA3FD489B","title":"华虹公寓","lon":"121.49435","lat":"31.26919","category":"47","category_name":"住宅区","address":"上海市虹口区曲阳路58弄"},{"poiid":"B2094654D56CA7FF489D","title":"曲阳公寓","lon":"121.49335","lat":"31.268833","category":"47","category_name":"住宅区","address":"曲阳路31号"},{"poiid":"B2094655D265A1F4479B","title":"新陸花苑(北2号门)","lon":"121.49311","lat":"31.26705","category":"47","category_name":"住宅区","address":"四平路480弄1-2号"},{"poiid":"B2094655D26FA0FA489B","title":"曲阳公寓(东门)","lon":"121.49343","lat":"31.26896","category":"47","category_name":"住宅区","address":"曲阳路31"},{"poiid":"B2094655D26BA2FB489E","title":"四平路曲阳路","lon":"121.49477","lat":"31.26899","category":"38","category_name":"公交车站","address":""},{"poiid":"B2094753D56AA3F84393","title":"五角场","lon":"121.492378","lat":"31.26682","category":"500","category_name":"未知分类","address":"上海市 淞沪路"},{"poiid":"B2094757D06AAAF54798","title":"欧洲花园","lon":"121.492105","lat":"31.26443","category":"47","category_name":"住宅区","address":"上海临平北路89弄"},{"poiid":"B2094655D36CA3F84193","title":"玛萨养生美容专家曲阳店","lon":"121.49365","lat":"31.2687","category":"148","category_name":"美容美发店","address":"曲阳路1号"},{"poiid":"B2094655D265A1F4449B","title":"京世造型·美容","lon":"121.49326","lat":"31.27054","category":"148","category_name":"美容美发店","address":""},{"poiid":"B2094751DB64A0FD4398","title":"东吴一品大酒楼","lon":"121.49286","lat":"31.27156","category":"72","category_name":"广东菜","address":"虹口区曲阳路158号(近祥德路)"},{"poiid":"B2094757D06BA2FE459F","title":"民生银行（市东支行）","lon":"121.494724","lat":"31.269289","category":"150","category_name":"银行","address":"上海四平路529号"},{"poiid":"B2094655D26CA0F54798","title":"快客No.6221","lon":"121.49287","lat":"31.26996","category":"117","category_name":"便民商店/便利店","address":"曲阳路83"},{"poiid":"B2094654D56CA7FE409C","title":"喜临门大厦","lon":"121.496","lat":"31.2675","category":"46","category_name":"楼宇","address":"长宁路1158号贝多芬广场618室"},{"poiid":"B2094757D16CA0FE439C","title":"世博花园二期 馥敦坊","lon":"121.490123743","lat":"31.2679906114","category":"47","category_name":"住宅区","address":"上海市虹口区四达路58弄"},{"poiid":"B2094654D56DAAF5439C","title":"新陆花苑","lon":"121.49319","lat":"31.266626","category":"47","category_name":"住宅区","address":"莘华世家南园位于闵行莘西南路沁春路口"},{"poiid":"B2094655D26BA2FB489F","title":"四平路新港路","lon":"121.49595","lat":"31.26991","category":"38","category_name":"公交车站","address":""},{"poiid":"B2094655D26FA3FB459C","title":"易经堂足浴(曲阳店)","lon":"121.49359","lat":"31.26848","category":"149","category_name":"洗浴推拿场所","address":"虹口区曲阳路1号2楼"},{"poiid":"B2094654D56CA7FF4598","title":"上海虹房(集团)有限公司","lon":"121.4936","lat":"31.26844","category":"263","category_name":"公司","address":"曲阳路1号华西证券大厦4-7层"},{"poiid":"B2094757D06FA4FD439E","title":"余庆坊","lon":"121.491","lat":"31.2679","category":"500","category_name":"未知分类","address":"上海虹口区四川北路1906号"},{"poiid":"B209475DD06DA5F9479A","title":"齐云山庄","lon":"121.491188","lat":"31.268463","category":"500","category_name":"未知分类","address":"上海市 欧阳路196号，法兰桥20楼"},{"poiid":"B2094654D56CA0FB449C","title":"虹口区第三中心小学分部","lon":"121.49035","lat":"31.26765","category":"56","category_name":"小学","address":"四达路96"},{"poiid":"B2094654DB6BA3F9469C","title":"可的","lon":"121.49245","lat":"31.26651","category":"117","category_name":"便民商店/便利店","address":"虹口区四平路324号(近临平北路)"},{"poiid":"B2094757D16CA3FB4692","title":"930私房菜(欧阳路店)","lon":"121.489328103","lat":"31.2680273722","category":"76","category_name":"上海菜","address":"虹口区欧阳路196号1号楼3楼(近四达路)"},{"poiid":"B2094757D06EAAFB4398","title":"邮电新村地铁站","lon":"121.49450107","lat":"31.268612797","category":"36","category_name":"地铁站","address":"上海轨道交通 十号线 轨交邮电新村站 10"},{"poiid":"B2094757D06FABFD459D","title":"荣欣大厦","lon":"121.490138","lat":"31.26684","category":"252","category_name":"楼宇机构","address":"上海市四川北路1851号"},{"poiid":"B2094757D06FA0FE469E","title":"邮电新村","lon":"121.49442895","lat":"31.270637995","category":"47","category_name":"住宅区","address":"上海四平路621弄〔近密云路〕"},{"poiid":"B2094757D06FA5FE449E","title":"四平路曲阳路口","lon":"121.495693","lat":"31.269823","category":"500","category_name":"未知分类","address":"上海四平路曲阳路"},{"poiid":"B2094757D16EA1F4449B","title":"法兰桥创意园区","lon":"121.488876103","lat":"31.2667803462","category":"119","category_name":"商场","address":"上海虹口区欧阳路196号"},{"poiid":"B2094654D56CA7FF499C","title":"红城阁","lon":"121.49215","lat":"31.27108","category":"76","category_name":"上海菜","address":"虹口区曲阳路239号(近四平路)"},{"poiid":"B2094655D26AAAFD4492","title":"上海莫泰168连锁酒店四平路店","lon":"121.49122","lat":"31.26606","category":"250","category_name":"公园户外","address":"上海市虹口区四平路333号（近四达路）"},{"poiid":"B2094654D56CA0FB419C","title":"绿洲紫荆花园","lon":"121.48959","lat":"31.268484","category":"47","category_name":"住宅区","address":"上海市虹口区欧阳路289号"},{"poiid":"B2094757D068A7FD4193","title":"上海市社会保险基金管理中心","lon":"121.492274","lat":"31.270805","category":"500","category_name":"未知分类","address":"上海曲阳路179号"},{"poiid":"B2094757D06BAAF4409F","title":"巨麦KTV","lon":"121.4916901","lat":"31.264270293","category":"170","category_name":"KTV","address":"虹口区物华路300号(近四平路)"},{"poiid":"B2094757D06FA5F4409E","title":"JEANS108SALON(京世曲阳店)","lon":"121.49333","lat":"31.27012","category":"148","category_name":"美容美发店","address":"上海虹口区曲阳路108号(近四平路)"},{"poiid":"B2094757D06FABFC4498","title":"祥德路欧阳路","lon":"121.491545","lat":"31.271189","category":"47","category_name":"住宅区","address":"上海祥德路欧阳路"},{"poiid":"B2094757D76CA3F84298","title":"卧云茶敘","lon":"121.493871","lat":"31.268995","category":"66","category_name":"茶艺馆","address":"虹口区曲阳路26号(近四平路)"},{"poiid":"B2094757D06FABF9409F","title":"虹口区青少年活动中心","lon":"121.48973131","lat":"31.265364815","category":"260","category_name":"其他","address":"虹口区欧阳路67号(近四平路)"},{"poiid":"B2094655D26AA4F5429B","title":"玛萨SPA专业美容香熏生活馆曲阳店","lon":"121.49359","lat":"31.26848","category":"247","category_name":"餐饮美食","address":"虹口区曲阳路1号(近四平路)"},{"poiid":"B2094757D169A5FF439E","title":"知茵坊","lon":"121.4891937","lat":"31.266933649","category":"76","category_name":"上海菜","address":"虹口区欧阳路196弄22-23号"},{"poiid":"B2094655D26FA0F84799","title":"飘鹰东方花园","lon":"121.49414","lat":"31.271051","category":"47","category_name":"住宅区","address":"上海曲阳路118弄"},{"poiid":"B2094654D56CA7FE4392","title":"龙邸大厦","lon":"121.495557","lat":"31.266546","category":"46","category_name":"楼宇","address":"徐汇区田林路388号"},{"poiid":"B2094654DB6AAAF8459C","title":"上岛咖啡(曲阳店)","lon":"121.49298","lat":"31.27155","category":"260","category_name":"其他","address":"虹口区曲阳路118弄28号3楼(近祥德路)"},{"poiid":"B2094655D36CA2F94098","title":"曲阳路祥德路","lon":"121.49199","lat":"31.2722","category":"38","category_name":"公交车站","address":""},{"poiid":"B2094757D66AA5FD4793","title":"次郎日式快餐 四平店","lon":"121.49134445846","lat":"31.265653123995","category":"68","category_name":"快餐厅","address":"虹口区四平路170号(近溧阳路)"},{"poiid":"B2094654D56CA7FF4799","title":"上海市虹口公证处","lon":"121.4928","lat":"31.26815","category":"250","category_name":"公园户外","address":"四平路421弄20号民通科技大楼"},{"poiid":"B2094655D26FA0FA4898","title":"宏祥花苑","lon":"121.49262","lat":"31.26956","category":"47","category_name":"住宅区","address":"宏祥花苑位于虹口曲阳路69弄"},{"poiid":"B2094655D26AA4F84198","title":"上海市人才服务中心虹口区分部","lon":"121.49258","lat":"31.26798","category":"247","category_name":"餐饮美食","address":"虹口区四平路421弄20号(近临平路)"},{"poiid":"B2094757D168A5F8419B","title":"卧雲茶叙","lon":"121.494169103","lat":"31.2695124032","category":"247","category_name":"餐饮美食","address":"上海市虹口区曲阳路"},{"poiid":"B2094757D16CA2FB4699","title":"福龙大厦","lon":"121.496","lat":"31.2681","category":"46","category_name":"楼宇","address":"上海市虹口区四平路277号"},{"poiid":"B2094757D16CA3FA4992","title":"同济大学雅憩","lon":"121.49458812","lat":"31.266952489","category":"253","category_name":"校园生活","address":"上海同济大学四平路建筑与城规学苑"},{"poiid":"B2094655D26EA3FD489B","title":"华虹公寓","lon":"121.49435","lat":"31.26919","category":"47","category_name":"住宅区","address":"上海市虹口区曲阳路58弄"},{"poiid":"B2094654D56CA7FF489D","title":"曲阳公寓","lon":"121.49335","lat":"31.268833","category":"47","category_name":"住宅区","address":"曲阳路31号"},{"poiid":"B2094655D265A1F4479B","title":"新陸花苑(北2号门)","lon":"121.49311","lat":"31.26705","category":"47","category_name":"住宅区","address":"四平路480弄1-2号"},{"poiid":"B2094655D26FA0FA489B","title":"曲阳公寓(东门)","lon":"121.49343","lat":"31.26896","category":"47","category_name":"住宅区","address":"曲阳路31"},{"poiid":"B2094655D26BA2FB489E","title":"四平路曲阳路","lon":"121.49477","lat":"31.26899","category":"38","category_name":"公交车站","address":""},{"poiid":"B2094753D56AA3F84393","title":"五角场","lon":"121.492378","lat":"31.26682","category":"500","category_name":"未知分类","address":"上海市 淞沪路"},{"poiid":"B2094757D06AAAF54798","title":"欧洲花园","lon":"121.492105","lat":"31.26443","category":"47","category_name":"住宅区","address":"上海临平北路89弄"},{"poiid":"B2094655D36CA3F84193","title":"玛萨养生美容专家曲阳店","lon":"121.49365","lat":"31.2687","category":"148","category_name":"美容美发店","address":"曲阳路1号"},{"poiid":"B2094655D265A1F4449B","title":"京世造型·美容","lon":"121.49326","lat":"31.27054","category":"148","category_name":"美容美发店","address":""},{"poiid":"B2094751DB64A0FD4398","title":"东吴一品大酒楼","lon":"121.49286","lat":"31.27156","category":"72","category_name":"广东菜","address":"虹口区曲阳路158号(近祥德路)"},{"poiid":"B2094757D06BA2FE459F","title":"民生银行（市东支行）","lon":"121.494724","lat":"31.269289","category":"150","category_name":"银行","address":"上海四平路529号"},{"poiid":"B2094655D26CA0F54798","title":"快客No.6221","lon":"121.49287","lat":"31.26996","category":"117","category_name":"便民商店/便利店","address":"曲阳路83"},{"poiid":"B2094654D56CA7FE409C","title":"喜临门大厦","lon":"121.496","lat":"31.2675","category":"46","category_name":"楼宇","address":"长宁路1158号贝多芬广场618室"},{"poiid":"B2094757D16CA0FE439C","title":"世博花园二期 馥敦坊","lon":"121.490123743","lat":"31.2679906114","category":"47","category_name":"住宅区","address":"上海市虹口区四达路58弄"},{"poiid":"B2094654D56DAAF5439C","title":"新陆花苑","lon":"121.49319","lat":"31.266626","category":"47","category_name":"住宅区","address":"莘华世家南园位于闵行莘西南路沁春路口"},{"poiid":"B2094655D26BA2FB489F","title":"四平路新港路","lon":"121.49595","lat":"31.26991","category":"38","category_name":"公交车站","address":""},{"poiid":"B2094655D26FA3FB459C","title":"易经堂足浴(曲阳店)","lon":"121.49359","lat":"31.26848","category":"149","category_name":"洗浴推拿场所","address":"虹口区曲阳路1号2楼"},{"poiid":"B2094654D56CA7FF4598","title":"上海虹房(集团)有限公司","lon":"121.4936","lat":"31.26844","category":"263","category_name":"公司","address":"曲阳路1号华西证券大厦4-7层"},{"poiid":"B2094757D06FA4FD439E","title":"余庆坊","lon":"121.491","lat":"31.2679","category":"500","category_name":"未知分类","address":"上海虹口区四川北路1906号"},{"poiid":"B209475DD06DA5F9479A","title":"齐云山庄","lon":"121.491188","lat":"31.268463","category":"500","category_name":"未知分类","address":"上海市 欧阳路196号，法兰桥20楼"},{"poiid":"B2094654D56CA0FB449C","title":"虹口区第三中心小学分部","lon":"121.49035","lat":"31.26765","category":"56","category_name":"小学","address":"四达路96"},{"poiid":"B2094654DB6BA3F9469C","title":"可的","lon":"121.49245","lat":"31.26651","category":"117","category_name":"便民商店/便利店","address":"虹口区四平路324号(近临平北路)"},{"poiid":"B2094757D16CA3FB4692","title":"930私房菜(欧阳路店)","lon":"121.489328103","lat":"31.2680273722","category":"76","category_name":"上海菜","address":"虹口区欧阳路196号1号楼3楼(近四达路)"},{"poiid":"B2094757D06EAAFB4398","title":"邮电新村地铁站","lon":"121.49450107","lat":"31.268612797","category":"36","category_name":"地铁站","address":"上海轨道交通 十号线 轨交邮电新村站 10"},{"poiid":"B2094757D06FABFD459D","title":"荣欣大厦","lon":"121.490138","lat":"31.26684","category":"252","category_name":"楼宇机构","address":"上海市四川北路1851号"},{"poiid":"B2094757D06FA0FE469E","title":"邮电新村","lon":"121.49442895","lat":"31.270637995","category":"47","category_name":"住宅区","address":"上海四平路621弄〔近密云路〕"},{"poiid":"B2094757D06FA5FE449E","title":"四平路曲阳路口","lon":"121.495693","lat":"31.269823","category":"500","category_name":"未知分类","address":"上海四平路曲阳路"},{"poiid":"B2094757D16EA1F4449B","title":"法兰桥创意园区","lon":"121.488876103","lat":"31.2667803462","category":"119","category_name":"商场","address":"上海虹口区欧阳路196号"},{"poiid":"B2094654D56CA7FF499C","title":"红城阁","lon":"121.49215","lat":"31.27108","category":"76","category_name":"上海菜","address":"虹口区曲阳路239号(近四平路)"},{"poiid":"B2094655D26AAAFD4492","title":"上海莫泰168连锁酒店四平路店","lon":"121.49122","lat":"31.26606","category":"250","category_name":"公园户外","address":"上海市虹口区四平路333号（近四达路）"},{"poiid":"B2094654D56CA0FB419C","title":"绿洲紫荆花园","lon":"121.48959","lat":"31.268484","category":"47","category_name":"住宅区","address":"上海市虹口区欧阳路289号"},{"poiid":"B2094757D068A7FD4193","title":"上海市社会保险基金管理中心","lon":"121.492274","lat":"31.270805","category":"500","category_name":"未知分类","address":"上海曲阳路179号"},{"poiid":"B2094757D06BAAF4409F","title":"巨麦KTV","lon":"121.4916901","lat":"31.264270293","category":"170","category_name":"KTV","address":"虹口区物华路300号(近四平路)"},{"poiid":"B2094757D06FA5F4409E","title":"JEANS108SALON(京世曲阳店)","lon":"121.49333","lat":"31.27012","category":"148","category_name":"美容美发店","address":"上海虹口区曲阳路108号(近四平路)"},{"poiid":"B2094757D06FABFC4498","title":"祥德路欧阳路","lon":"121.491545","lat":"31.271189","category":"47","category_name":"住宅区","address":"上海祥德路欧阳路"},{"poiid":"B2094757D76CA3F84298","title":"卧云茶敘","lon":"121.493871","lat":"31.268995","category":"66","category_name":"茶艺馆","address":"虹口区曲阳路26号(近四平路)"},{"poiid":"B2094757D06FABF9409F","title":"虹口区青少年活动中心","lon":"121.48973131","lat":"31.265364815","category":"260","category_name":"其他","address":"虹口区欧阳路67号(近四平路)"},{"poiid":"B2094655D26AA4F5429B","title":"玛萨SPA专业美容香熏生活馆曲阳店","lon":"121.49359","lat":"31.26848","category":"247","category_name":"餐饮美食","address":"虹口区曲阳路1号(近四平路)"},{"poiid":"B2094757D169A5FF439E","title":"知茵坊","lon":"121.4891937","lat":"31.266933649","category":"76","category_name":"上海菜","address":"虹口区欧阳路196弄22-23号"},{"poiid":"B2094655D26FA0F84799","title":"飘鹰东方花园","lon":"121.49414","lat":"31.271051","category":"47","category_name":"住宅区","address":"上海曲阳路118弄"},{"poiid":"B2094654D56CA7FE4392","title":"龙邸大厦","lon":"121.495557","lat":"31.266546","category":"46","category_name":"楼宇","address":"徐汇区田林路388号"},{"poiid":"B2094654DB6AAAF8459C","title":"上岛咖啡(曲阳店)","lon":"121.49298","lat":"31.27155","category":"260","category_name":"其他","address":"虹口区曲阳路118弄28号3楼(近祥德路)"},{"poiid":"B2094655D36CA2F94098","title":"曲阳路祥德路","lon":"121.49199","lat":"31.2722","category":"38","category_name":"公交车站","address":""},{"poiid":"B2094757D66AA5FD4793","title":"次郎日式快餐 四平店","lon":"121.49134445846","lat":"31.265653123995","category":"68","category_name":"快餐厅","address":"虹口区四平路170号(近溧阳路)"},{"poiid":"B2094654D56CA7FF4799","title":"上海市虹口公证处","lon":"121.4928","lat":"31.26815","category":"250","category_name":"公园户外","address":"四平路421弄20号民通科技大楼"},{"poiid":"B2094655D26FA0FA4898","title":"宏祥花苑","lon":"121.49262","lat":"31.26956","category":"47","category_name":"住宅区","address":"宏祥花苑位于虹口曲阳路69弄"},{"poiid":"B2094655D26AA4F84198","title":"上海市人才服务中心虹口区分部","lon":"121.49258","lat":"31.26798","category":"247","category_name":"餐饮美食","address":"虹口区四平路421弄20号(近临平路)"},{"poiid":"B2094757D168A5F8419B","title":"卧雲茶叙","lon":"121.494169103","lat":"31.2695124032","category":"247","category_name":"餐饮美食","address":"上海市虹口区曲阳路"},{"poiid":"B2094757D16CA2FB4699","title":"福龙大厦","lon":"121.496","lat":"31.2681","category":"46","category_name":"楼宇","address":"上海市虹口区四平路277号"},{"poiid":"B2094757D16CA3FA4992","title":"同济大学雅憩","lon":"121.49458812","lat":"31.266952489","category":"253","category_name":"校园生活","address":"上海同济大学四平路建筑与城规学苑"},{"poiid":"B2094655D26EA3FD489B","title":"华虹公寓","lon":"121.49435","lat":"31.26919","category":"47","category_name":"住宅区","address":"上海市虹口区曲阳路58弄"},{"poiid":"B2094654D56CA7FF489D","title":"曲阳公寓","lon":"121.49335","lat":"31.268833","category":"47","category_name":"住宅区","address":"曲阳路31号"},{"poiid":"B2094655D265A1F4479B","title":"新陸花苑(北2号门)","lon":"121.49311","lat":"31.26705","category":"47","category_name":"住宅区","address":"四平路480弄1-2号"},{"poiid":"B2094655D26FA0FA489B","title":"曲阳公寓(东门)","lon":"121.49343","lat":"31.26896","category":"47","category_name":"住宅区","address":"曲阳路31"},{"poiid":"B2094655D26BA2FB489E","title":"四平路曲阳路","lon":"121.49477","lat":"31.26899","category":"38","category_name":"公交车站","address":""},{"poiid":"B2094753D56AA3F84393","title":"五角场","lon":"121.492378","lat":"31.26682","category":"500","category_name":"未知分类","address":"上海市 淞沪路"},{"poiid":"B2094757D06AAAF54798","title":"欧洲花园","lon":"121.492105","lat":"31.26443","category":"47","category_name":"住宅区","address":"上海临平北路89弄"},{"poiid":"B2094655D36CA3F84193","title":"玛萨养生美容专家曲阳店","lon":"121.49365","lat":"31.2687","category":"148","category_name":"美容美发店","address":"曲阳路1号"},{"poiid":"B2094655D265A1F4449B","title":"京世造型·美容","lon":"121.49326","lat":"31.27054","category":"148","category_name":"美容美发店","address":""},{"poiid":"B2094751DB64A0FD4398","title":"东吴一品大酒楼","lon":"121.49286","lat":"31.27156","category":"72","category_name":"广东菜","address":"虹口区曲阳路158号(近祥德路)"},{"poiid":"B2094757D06BA2FE459F","title":"民生银行（市东支行）","lon":"121.494724","lat":"31.269289","category":"150","category_name":"银行","address":"上海四平路529号"},{"poiid":"B2094655D26CA0F54798","title":"快客No.6221","lon":"121.49287","lat":"31.26996","category":"117","category_name":"便民商店/便利店","address":"曲阳路83"},{"poiid":"B2094654D56CA7FE409C","title":"喜临门大厦","lon":"121.496","lat":"31.2675","category":"46","category_name":"楼宇","address":"长宁路1158号贝多芬广场618室"},{"poiid":"B2094757D16CA0FE439C","title":"世博花园二期 馥敦坊","lon":"121.490123743","lat":"31.2679906114","category":"47","category_name":"住宅区","address":"上海市虹口区四达路58弄"},{"poiid":"B2094654D56DAAF5439C","title":"新陆花苑","lon":"121.49319","lat":"31.266626","category":"47","category_name":"住宅区","address":"莘华世家南园位于闵行莘西南路沁春路口"},{"poiid":"B2094655D26BA2FB489F","title":"四平路新港路","lon":"121.49595","lat":"31.26991","category":"38","category_name":"公交车站","address":""},{"poiid":"B2094655D26FA3FB459C","title":"易经堂足浴(曲阳店)","lon":"121.49359","lat":"31.26848","category":"149","category_name":"洗浴推拿场所","address":"虹口区曲阳路1号2楼"},{"poiid":"B2094654D56CA7FF4598","title":"上海虹房(集团)有限公司","lon":"121.4936","lat":"31.26844","category":"263","category_name":"公司","address":"曲阳路1号华西证券大厦4-7层"},{"poiid":"B2094757D06FA4FD439E","title":"余庆坊","lon":"121.491","lat":"31.2679","category":"500","category_name":"未知分类","address":"上海虹口区四川北路1906号"},{"poiid":"B209475DD06DA5F9479A","title":"齐云山庄","lon":"121.491188","lat":"31.268463","category":"500","category_name":"未知分类","address":"上海市 欧阳路196号，法兰桥20楼"},{"poiid":"B2094654D56CA0FB449C","title":"虹口区第三中心小学分部","lon":"121.49035","lat":"31.26765","category":"56","category_name":"小学","address":"四达路96"},{"poiid":"B2094654DB6BA3F9469C","title":"可的","lon":"121.49245","lat":"31.26651","category":"117","category_name":"便民商店/便利店","address":"虹口区四平路324号(近临平北路)"},{"poiid":"B2094757D16CA3FB4692","title":"930私房菜(欧阳路店)","lon":"121.489328103","lat":"31.2680273722","category":"76","category_name":"上海菜","address":"虹口区欧阳路196号1号楼3楼(近四达路)"},{"poiid":"B2094757D06EAAFB4398","title":"邮电新村地铁站","lon":"121.49450107","lat":"31.268612797","category":"36","category_name":"地铁站","address":"上海轨道交通 十号线 轨交邮电新村站 10"},{"poiid":"B2094757D06FABFD459D","title":"荣欣大厦","lon":"121.490138","lat":"31.26684","category":"252","category_name":"楼宇机构","address":"上海市四川北路1851号"},{"poiid":"B2094757D06FA0FE469E","title":"邮电新村","lon":"121.49442895","lat":"31.270637995","category":"47","category_name":"住宅区","address":"上海四平路621弄〔近密云路〕"},{"poiid":"B2094757D06FA5FE449E","title":"四平路曲阳路口","lon":"121.495693","lat":"31.269823","category":"500","category_name":"未知分类","address":"上海四平路曲阳路"},{"poiid":"B2094757D16EA1F4449B","title":"法兰桥创意园区","lon":"121.488876103","lat":"31.2667803462","category":"119","category_name":"商场","address":"上海虹口区欧阳路196号"},{"poiid":"B2094654D56CA7FF499C","title":"红城阁","lon":"121.49215","lat":"31.27108","category":"76","category_name":"上海菜","address":"虹口区曲阳路239号(近四平路)"},{"poiid":"B2094655D26AAAFD4492","title":"上海莫泰168连锁酒店四平路店","lon":"121.49122","lat":"31.26606","category":"250","category_name":"公园户外","address":"上海市虹口区四平路333号（近四达路）"},{"poiid":"B2094654D56CA0FB419C","title":"绿洲紫荆花园","lon":"121.48959","lat":"31.268484","category":"47","category_name":"住宅区","address":"上海市虹口区欧阳路289号"},{"poiid":"B2094757D068A7FD4193","title":"上海市社会保险基金管理中心","lon":"121.492274","lat":"31.270805","category":"500","category_name":"未知分类","address":"上海曲阳路179号"},{"poiid":"B2094757D06BAAF4409F","title":"巨麦KTV","lon":"121.4916901","lat":"31.264270293","category":"170","category_name":"KTV","address":"虹口区物华路300号(近四平路)"},{"poiid":"B2094757D06FA5F4409E","title":"JEANS108SALON(京世曲阳店)","lon":"121.49333","lat":"31.27012","category":"148","category_name":"美容美发店","address":"上海虹口区曲阳路108号(近四平路)"},{"poiid":"B2094757D06FABFC4498","title":"祥德路欧阳路","lon":"121.491545","lat":"31.271189","category":"47","category_name":"住宅区","address":"上海祥德路欧阳路"},{"poiid":"B2094757D76CA3F84298","title":"卧云茶敘","lon":"121.493871","lat":"31.268995","category":"66","category_name":"茶艺馆","address":"虹口区曲阳路26号(近四平路)"},{"poiid":"B2094757D06FABF9409F","title":"虹口区青少年活动中心","lon":"121.48973131","lat":"31.265364815","category":"260","category_name":"其他","address":"虹口区欧阳路67号(近四平路)"},{"poiid":"B2094655D26AA4F5429B","title":"玛萨SPA专业美容香熏生活馆曲阳店","lon":"121.49359","lat":"31.26848","category":"247","category_name":"餐饮美食","address":"虹口区曲阳路1号(近四平路)"},{"poiid":"B2094757D169A5FF439E","title":"知茵坊","lon":"121.4891937","lat":"31.266933649","category":"76","category_name":"上海菜","address":"虹口区欧阳路196弄22-23号"},{"poiid":"B2094655D26FA0F84799","title":"飘鹰东方花园","lon":"121.49414","lat":"31.271051","category":"47","category_name":"住宅区","address":"上海曲阳路118弄"},{"poiid":"B2094654D56CA7FE4392","title":"龙邸大厦","lon":"121.495557","lat":"31.266546","category":"46","category_name":"楼宇","address":"徐汇区田林路388号"},{"poiid":"B2094654DB6AAAF8459C","title":"上岛咖啡(曲阳店)","lon":"121.49298","lat":"31.27155","category":"260","category_name":"其他","address":"虹口区曲阳路118弄28号3楼(近祥德路)"},{"poiid":"B2094655D36CA2F94098","title":"曲阳路祥德路","lon":"121.49199","lat":"31.2722","category":"38","category_name":"公交车站","address":""},{"poiid":"B2094757D66AA5FD4793","title":"次郎日式快餐 四平店","lon":"121.49134445846","lat":"31.265653123995","category":"68","category_name":"快餐厅","address":"虹口区四平路170号(近溧阳路)"},{"poiid":"B2094654D56CA7FF4799","title":"上海市虹口公证处","lon":"121.4928","lat":"31.26815","category":"250","category_name":"公园户外","address":"四平路421弄20号民通科技大楼"},{"poiid":"B2094655D26FA0FA4898","title":"宏祥花苑","lon":"121.49262","lat":"31.26956","category":"47","category_name":"住宅区","address":"宏祥花苑位于虹口曲阳路69弄"},{"poiid":"B2094655D26AA4F84198","title":"上海市人才服务中心虹口区分部","lon":"121.49258","lat":"31.26798","category":"247","category_name":"餐饮美食","address":"虹口区四平路421弄20号(近临平路)"},{"poiid":"B2094757D168A5F8419B","title":"卧雲茶叙","lon":"121.494169103","lat":"31.2695124032","category":"247","category_name":"餐饮美食","address":"上海市虹口区曲阳路"},{"poiid":"B2094757D16CA2FB4699","title":"福龙大厦","lon":"121.496","lat":"31.2681","category":"46","category_name":"楼宇","address":"上海市虹口区四平路277号"},{"poiid":"B2094757D16CA3FA4992","title":"同济大学雅憩","lon":"121.49458812","lat":"31.266952489","category":"253","category_name":"校园生活","address":"上海同济大学四平路建筑与城规学苑"},{"poiid":"B2094655D26EA3FD489B","title":"华虹公寓","lon":"121.49435","lat":"31.26919","category":"47","category_name":"住宅区","address":"上海市虹口区曲阳路58弄"},{"poiid":"B2094654D56CA7FF489D","title":"曲阳公寓","lon":"121.49335","lat":"31.268833","category":"47","category_name":"住宅区","address":"曲阳路31号"},{"poiid":"B2094655D265A1F4479B","title":"新陸花苑(北2号门)","lon":"121.49311","lat":"31.26705","category":"47","category_name":"住宅区","address":"四平路480弄1-2号"},{"poiid":"B2094655D26FA0FA489B","title":"曲阳公寓(东门)","lon":"121.49343","lat":"31.26896","category":"47","category_name":"住宅区","address":"曲阳路31"},{"poiid":"B2094655D26BA2FB489E","title":"四平路曲阳路","lon":"121.49477","lat":"31.26899","category":"38","category_name":"公交车站","address":""},{"poiid":"B2094753D56AA3F84393","title":"五角场","lon":"121.492378","lat":"31.26682","category":"500","category_name":"未知分类","address":"上海市 淞沪路"},{"poiid":"B2094757D06AAAF54798","title":"欧洲花园","lon":"121.492105","lat":"31.26443","category":"47","category_name":"住宅区","address":"上海临平北路89弄"},{"poiid":"B2094655D36CA3F84193","title":"玛萨养生美容专家曲阳店","lon":"121.49365","lat":"31.2687","category":"148","category_name":"美容美发店","address":"曲阳路1号"},{"poiid":"B2094655D265A1F4449B","title":"京世造型·美容","lon":"121.49326","lat":"31.27054","category":"148","category_name":"美容美发店","address":""},{"poiid":"B2094751DB64A0FD4398","title":"东吴一品大酒楼","lon":"121.49286","lat":"31.27156","category":"72","category_name":"广东菜","address":"虹口区曲阳路158号(近祥德路)"},{"poiid":"B2094757D06BA2FE459F","title":"民生银行（市东支行）","lon":"121.494724","lat":"31.269289","category":"150","category_name":"银行","address":"上海四平路529号"},{"poiid":"B2094655D26CA0F54798","title":"快客No.6221","lon":"121.49287","lat":"31.26996","category":"117","category_name":"便民商店/便利店","address":"曲阳路83"},{"poiid":"B2094654D56CA7FE409C","title":"喜临门大厦","lon":"121.496","lat":"31.2675","category":"46","category_name":"楼宇","address":"长宁路1158号贝多芬广场618室"},{"poiid":"B2094757D16CA0FE439C","title":"世博花园二期 馥敦坊","lon":"121.490123743","lat":"31.2679906114","category":"47","category_name":"住宅区","address":"上海市虹口区四达路58弄"},{"poiid":"B2094654D56DAAF5439C","title":"新陆花苑","lon":"121.49319","lat":"31.266626","category":"47","category_name":"住宅区","address":"莘华世家南园位于闵行莘西南路沁春路口"},{"poiid":"B2094655D26BA2FB489F","title":"四平路新港路","lon":"121.49595","lat":"31.26991","category":"38","category_name":"公交车站","address":""},{"poiid":"B2094655D26FA3FB459C","title":"易经堂足浴(曲阳店)","lon":"121.49359","lat":"31.26848","category":"149","category_name":"洗浴推拿场所","address":"虹口区曲阳路1号2楼"},{"poiid":"B2094654D56CA7FF4598","title":"上海虹房(集团)有限公司","lon":"121.4936","lat":"31.26844","category":"263","category_name":"公司","address":"曲阳路1号华西证券大厦4-7层"},{"poiid":"B2094757D06FA4FD439E","title":"余庆坊","lon":"121.491","lat":"31.2679","category":"500","category_name":"未知分类","address":"上海虹口区四川北路1906号"},{"poiid":"B209475DD06DA5F9479A","title":"齐云山庄","lon":"121.491188","lat":"31.268463","category":"500","category_name":"未知分类","address":"上海市 欧阳路196号，法兰桥20楼"},{"poiid":"B2094654D56CA0FB449C","title":"虹口区第三中心小学分部","lon":"121.49035","lat":"31.26765","category":"56","category_name":"小学","address":"四达路96"},{"poiid":"B2094654DB6BA3F9469C","title":"可的","lon":"121.49245","lat":"31.26651","category":"117","category_name":"便民商店/便利店","address":"虹口区四平路324号(近临平北路)"}]