[{"poiid":"B2094757D66DA7F4469B","title":"外滩","lon":"121.490535738","lat":"31.2383514732","category":"240","category_name":"国家级景点","address":"上海市中心区黄浦江畔"},{"poiid":"B2094655D268ABFD489E","title":"外滩18号","lon":"121.48960930059434","lat":"31.238450813410314","category":"76","category_name":"上海菜","address":"黄浦区中山东一路18号"},{"poiid":"B2094757D068A3FC499F","title":"外滩6号","lon":"121.49022765","lat":"31.235021152","category":"119","category_name":"商场","address":"上海外滩六号"},{"poiid":"B209475CD564A7F84292","title":"上海滩新天地店","lon":"121.47463","lat":"31.22164","category":"119","category_name":"商场","address":"\"太仓路181弄新天地北里15号\r\n\""},{"poiid":"B209475CD564A7F84392","title":"上海滩浦东香格里拉店","lon":"121.50058","lat":"31.23634","category":"119","category_name":"商场","address":"浦东富成路33号香格里拉酒店内大堂层"},{"poiid":"B2094757D06FA1FC439D","title":"Bar Rouge","lon":"121.49011","lat":"31.2386","category":"260","category_name":"其他","address":"黄浦区中山东一路18号外滩18号7楼(近南京东路)"},{"poiid":"B2094757D06FA5FC439A","title":"Mr &amp; Mrs Bund","lon":"121.4901","lat":"31.23816","category":"94","category_name":"西餐厅","address":"上海黄浦区中山东一路18号外滩18号6楼(近南京东路)"},{"poiid":"B2094750D364A0FF429A","title":"外滩18号Bund18","lon":"121.49013","lat":"31.23594","category":"119","category_name":"商场","address":"中山东一路18号"},{"poiid":"B2094757D068A2FC4893","title":"外滩海关大钟","lon":"121.490005","lat":"31.236592","category":"500","category_name":"未知分类","address":"上海中山东一路13号"},{"poiid":"B2094654DA6FAAFD449E","title":"船长青年酒店","lon":"121.48965","lat":"31.23539","category":"250","category_name":"公园户外","address":"黄浦区福州路37号(近四川中路)"},{"poiid":"B2094654DA6FAAFD4593","title":"M on the Bund","lon":"121.49079","lat":"31.2345","category":"263","category_name":"公司","address":"中山东一路5号外滩5号7层"},{"poiid":"B2094655D26EA2F5479B","title":"海关大楼","lon":"121.49002","lat":"31.23668","category":"46","category_name":"楼宇","address":"鲁尔大厦位于铁西兴华南街5号"},{"poiid":"B2094757D06FA7FF449F","title":"东京和食","lon":"121.49104","lat":"31.23457","category":"95","category_name":"日本料理","address":"黄浦区中山东一路6号外滩6号2楼(近广东路)"},{"poiid":"B2094757D068A2F4459A","title":"船长酒吧","lon":"121.49016","lat":"31.23529","category":"260","category_name":"其他","address":"黄浦区福州路37号船长酒店6搂(近中山东一路)"},{"poiid":"B2094654DA6FAAFD4592","title":"外滩5号","lon":"121.49078","lat":"31.2345","category":"47","category_name":"住宅区","address":"中山东一路5号"},{"poiid":"B2094757D06FAAFC419B","title":"猫的天空之城概念书店","lon":"121.489654","lat":"31.235389","category":"260","category_name":"其他","address":"黄浦区福州路37号船长青年酒店1楼(近中山东一路)"},{"poiid":"B2094757D06BABFB449A","title":"Shook！上海","lon":"121.49010773","lat":"31.238661479","category":"94","category_name":"西餐厅","address":"黄浦区南京东路23号5-6楼(外滩19号)"},{"poiid":"B2094757D16CA4FE469A","title":"罗斯福9楼露天酒吧","lon":"121.49195883","lat":"31.237938814","category":"172","category_name":"酒吧","address":"上海外滩27号"},{"poiid":"B2094757D06AA1F4489F","title":"上海姥姥 原吉禾餐饮","lon":"121.48908099613","lat":"31.235419801894","category":"76","category_name":"上海菜","address":"黄浦区福州路70号(近四川中路永和豆浆对面)"},{"poiid":"B2094757D068A1F8449B","title":"House of Blues & Jazz","lon":"121.4892425","lat":"31.235561077","category":"172","category_name":"酒吧","address":"上海市黄浦区福州路60号(近四川中路)"},{"poiid":"B2094757D469A7F4429D","title":"悦粤茶餐厅","lon":"121.49097","lat":"31.2412","category":"72","category_name":"广东菜","address":"黄浦区中山东一路429号(近北京东路)"},{"poiid":"B2094757D068A0F5439E","title":"上海国际商品拍卖有限公司","lon":"121.488583332","lat":"31.2353396094","category":"46","category_name":"楼宇","address":"黄浦区福州路108号(近四川中路)"},{"poiid":"B2094655D26DA3FF489A","title":"Bund18","lon":"121.48978","lat":"31.23842","category":"119","category_name":"商场","address":"中山东一路18"},{"poiid":"B2094655D26FA2FA4099","title":"月影铁板烧景观餐厅酒廊","lon":"121.49079","lat":"31.2345","category":"97","category_name":"法式菜品餐厅","address":"黄浦区中山东一路外滩5号3楼"},{"poiid":"B2094751D56CA4FD419C","title":"Mercato","lon":"121.49088","lat":"31.23417","category":"94","category_name":"西餐厅","address":"黄浦区中山东一路3号外滩3号6楼(近广东路)"},{"poiid":"B2094750D66FA3F9489E","title":"UNICO & COLAGRECO","lon":"121.49067870373528","lat":"31.23452732944748","category":"101","category_name":"美式风味","address":"黄浦区中山东一路3号外滩3号2楼(近广东路)"},{"poiid":"B2094751D56BA3F9469E","title":"南麓浙里","lon":"121.488525","lat":"31.235992","category":"76","category_name":"上海菜","address":"黄浦区四川中路216号(近福州路)"},{"poiid":"B2094757D06FABFC469A","title":"上海浦东发展银行大楼(外滩12号)","lon":"121.489894","lat":"31.236","category":"150","category_name":"银行","address":"上海黄浦区中山东一路12号 汇丰银行大楼 (原市府大楼)"},{"poiid":"B2094757D06FA3FB4199","title":"外滩隧道","lon":"121.491135705","lat":"31.2345035269","category":"260","category_name":"其他","address":"上海海宁路长治路——延安东路中山南路"},{"poiid":"B2094757D069A4FF499F","title":"老船长青年旅舍(外滩店)","lon":"121.48979","lat":"31.23509","category":"216","category_name":"经济型连锁酒店","address":"上海黄浦区延安东路7号甲(近外滩)"},{"poiid":"B2094757D068A4FC409D","title":"外滩花园酒店","lon":"121.48874013","lat":"31.236291039","category":"74","category_name":"江苏菜","address":"黄浦区汉口路200号(近河南中路)"},{"poiid":"B2094654DA6FAAF8449F","title":"福申大厦","lon":"121.489","lat":"31.2377","category":"46","category_name":"楼宇","address":"行宫位于沈河北站一路41号"},{"poiid":"B2094757D06AA4F8479E","title":"上海海关","lon":"121.49073283","lat":"31.235817695","category":"500","category_name":"未知分类","address":"上海中山东一路13号"},{"poiid":"B2094750D66DA2F8449D","title":"上海火车站","lon":"121.488983","lat":"31.237527","category":"500","category_name":"未知分类","address":null},{"poiid":"B2094757D16FABFE4299","title":"仙踪林","lon":"121.49111173","lat":"31.235984422","category":"500","category_name":"未知分类","address":"上海陆家嘴西路2967号北滨江大道A座(丰和路陆家嘴西路)"},{"poiid":"B2094757D068A4F54999","title":"外滩啤酒总汇","lon":"121.489100353","lat":"31.2365874384","category":"260","category_name":"其他","address":"黄浦区汉口路11号(近中山东一路)"},{"poiid":"B2094750D568A0FF4293","title":"Mercato by Jean Geroge","lon":"121.491241","lat":"31.234399","category":"500","category_name":"未知分类","address":"Bund No 3"},{"poiid":"B2094654DB69A6FA4099","title":"外滩情人墙","lon":"121.49021","lat":"31.2369","category":"250","category_name":"公园户外","address":"黄浦区中山东一路黄浦江边"},{"poiid":"B2094655D269ABFD4098","title":"外滩十八号创意中心","lon":"121.48974","lat":"31.2384","category":"247","category_name":"餐饮美食","address":"黄浦区中山东一路18号4楼(近南京东路)"},{"poiid":"B209475CD364A2FB4099","title":"Hakkasan","lon":"121.49009","lat":"31.23634","category":"94","category_name":"西餐厅","address":"中山东一路18号外滩十八号5楼"},{"poiid":"B2094654DB65A2FE4993","title":"南京路步行街(友邦大厦西北)","lon":"121.48942","lat":"31.23846","category":"116","category_name":"特色商业街","address":""},{"poiid":"B2094757D06BA3F54399","title":"浦江汇","lon":"121.491288","lat":"31.234279","category":"67","category_name":"甜品店","address":"上海市黄浦区中山东一路2号，华尔道夫会所大堂层"},{"poiid":"B2094757D068A1FF469C","title":"招商银行(外滩支行)","lon":"121.48987579","lat":"31.238119125","category":"150","category_name":"银行","address":"黄浦区中山东一路16号(近九江路)"},{"poiid":"B2094750DA6BA1FD469D","title":"forever21","lon":"121.489219","lat":"31.235349","category":"500","category_name":"未知分类","address":"南京東路"},{"poiid":"B2094757D16DA6FF4599","title":"月影","lon":"121.490579738","lat":"31.234685395","category":"249","category_name":"购物服务","address":"上海外滩5号3楼"},{"poiid":"B2094757D068ABFD469F","title":"友邦大厦","lon":"121.48980712","lat":"31.238212585","category":"46","category_name":"楼宇","address":"上海中山东一路17号"},{"poiid":"B2094750D16BA6FA439D","title":"外白渡大桥","lon":"121.491432","lat":"31.238191","category":"500","category_name":"未知分类","address":null},{"poiid":"B2094752D46AA3FB4199","title":"外滩十八号","lon":"121.490014","lat":"31.238674","category":"119","category_name":"商场","address":"黄浦区中山东一路18号"},{"poiid":"B2094757D06FABFE409D","title":"滩外楼","lon":"121.49025","lat":"31.23845","category":"72","category_name":"广东菜","address":"黄浦区中山东一路18号外滩18号5楼(近南京东路)"},{"poiid":"B2094757D16DA6F9479B","title":"十六浦码头浦江游船","lon":"121.49041273","lat":"31.238635479","category":"247","category_name":"餐饮美食","address":"上海中山东二路501号"},{"poiid":"B2094757D66DA7F4469B","title":"外滩","lon":"121.490535738","lat":"31.2383514732","category":"240","category_name":"国家级景点","address":"上海市中心区黄浦江畔"},{"poiid":"B2094655D268ABFD489E","title":"外滩18号","lon":"121.48960930059434","lat":"31.238450813410314","category":"76","category_name":"上海菜","address":"黄浦区中山东一路18号"},{"poiid":"B2094757D068A3FC499F","title":"外滩6号","lon":"121.49022765","lat":"31.235021152","category":"119","category_name":"商场","address":"上海外滩六号"},{"poiid":"B209475CD564A7F84292","title":"上海滩新天地店","lon":"121.47463","lat":"31.22164","category":"119","category_name":"商场","address":"\"太仓路181弄新天地北里15号\r\n\""},{"poiid":"B209475CD564A7F84392","title":"上海滩浦东香格里拉店","lon":"121.50058","lat":"31.23634","category":"119","category_name":"商场","address":"浦东富成路33号香格里拉酒店内大堂层"},{"poiid":"B2094757D06FA1FC439D","title":"Bar Rouge","lon":"121.49011","lat":"31.2386","category":"260","category_name":"其他","address":"黄浦区中山东一路18号外滩18号7楼(近南京东路)"},{"poiid":"B2094757D06FA5FC439A","title":"Mr &amp; Mrs Bund","lon":"121.4901","lat":"31.23816","category":"94","category_name":"西餐厅","address":"上海黄浦区中山东一路18号外滩18号6楼(近南京东路)"},{"poiid":"B2094750D364A0FF429A","title":"外滩18号Bund18","lon":"121.49013","lat":"31.23594","category":"119","category_name":"商场","address":"中山东一路18号"},{"poiid":"B2094757D068A2FC4893","title":"外滩海关大钟","lon":"121.490005","lat":"31.236592","category":"500","category_name":"未知分类","address":"上海中山东一路13号"},{"poiid":"B2094654DA6FAAFD449E","title":"船长青年酒店","lon":"121.48965","lat":"31.23539","category":"250","category_name":"公园户外","address":"黄浦区福州路37号(近四川中路)"},{"poiid":"B2094654DA6FAAFD4593","title":"M on the Bund","lon":"121.49079","lat":"31.2345","category":"263","category_name":"公司","address":"中山东一路5号外滩5号7层"},{"poiid":"B2094655D26EA2F5479B","title":"海关大楼","lon":"121.49002","lat":"31.23668","category":"46","category_name":"楼宇","address":"鲁尔大厦位于铁西兴华南街5号"},{"poiid":"B2094757D06FA7FF449F","title":"东京和食","lon":"121.49104","lat":"31.23457","category":"95","category_name":"日本料理","address":"黄浦区中山东一路6号外滩6号2楼(近广东路)"},{"poiid":"B2094757D068A2F4459A","title":"船长酒吧","lon":"121.49016","lat":"31.23529","category":"260","category_name":"其他","address":"黄浦区福州路37号船长酒店6搂(近中山东一路)"},{"poiid":"B2094654DA6FAAFD4592","title":"外滩5号","lon":"121.49078","lat":"31.2345","category":"47","category_name":"住宅区","address":"中山东一路5号"},{"poiid":"B2094757D06FAAFC419B","title":"猫的天空之城概念书店","lon":"121.489654","lat":"31.235389","category":"260","category_name":"其他","address":"黄浦区福州路37号船长青年酒店1楼(近中山东一路)"},{"poiid":"B2094757D06BABFB449A","title":"Shook！上海","lon":"121.49010773","lat":"31.238661479","category":"94","category_name":"西餐厅","address":"黄浦区南京东路23号5-6楼(外滩19号)"},{"poiid":"B2094757D16CA4FE469A","title":"罗斯福9楼露天酒吧","lon":"121.49195883","lat":"31.237938814","category":"172","category_name":"酒吧","address":"上海外滩27号"},{"poiid":"B2094757D06AA1F4489F","title":"上海姥姥 原吉禾餐饮","lon":"121.48908099613","lat":"31.235419801894","category":"76","category_name":"上海菜","address":"黄浦区福州路70号(近四川中路永和豆浆对面)"},{"poiid":"B2094757D068A1F8449B","title":"House of Blues & Jazz","lon":"121.4892425","lat":"31.235561077","category":"172","category_name":"酒吧","address":"上海市黄浦区福州路60号(近四川中路)"},{"poiid":"B2094757D469A7F4429D","title":"悦粤茶餐厅","lon":"121.49097","lat":"31.2412","category":"72","category_name":"广东菜","address":"黄浦区中山东一路429号(近北京东路)"},{"poiid":"B2094757D068A0F5439E","title":"上海国际商品拍卖有限公司","lon":"121.488583332","lat":"31.2353396094","category":"46","category_name":"楼宇","address":"黄浦区福州路108号(近四川中路)"},{"poiid":"B2094655D26DA3FF489A","title":"Bund18","lon":"121.48978","lat":"31.23842","category":"119","category_name":"商场","address":"中山东一路18"},{"poiid":"B2094655D26FA2FA4099","title":"月影铁板烧景观餐厅酒廊","lon":"121.49079","lat":"31.2345","category":"97","category_name":"法式菜品餐厅","address":"黄浦区中山东一路外滩5号3楼"},{"poiid":"B2094751D56CA4FD419C","title":"Mercato","lon":"121.49088","lat":"31.23417","category":"94","category_name":"西餐厅","address":"黄浦区中山东一路3号外滩3号6楼(近广东路)"},{"poiid":"B2094750D66FA3F9489E","title":"UNICO & COLAGRECO","lon":"121.49067870373528","lat":"31.23452732944748","category":"101","category_name":"美式风味","address":"黄浦区中山东一路3号外滩3号2楼(近广东路)"},{"poiid":"B2094751D56BA3F9469E","title":"南麓浙里","lon":"121.488525","lat":"31.235992","category":"76","category_name":"上海菜","address":"黄浦区四川中路216号(近福州路)"},{"poiid":"B2094757D06FABFC469A","title":"上海浦东发展银行大楼(外滩12号)","lon":"121.489894","lat":"31.236","category":"150","category_name":"银行","address":"上海黄浦区中山东一路12号 汇丰银行大楼 (原市府大楼)"},{"poiid":"B2094757D06FA3FB4199","title":"外滩隧道","lon":"121.491135705","lat":"31.2345035269","category":"260","category_name":"其他","address":"上海海宁路长治路——延安东路中山南路"},{"poiid":"B2094757D069A4FF499F","title":"老船长青年旅舍(外滩店)","lon":"121.48979","lat":"31.23509","category":"216","category_name":"经济型连锁酒店","address":"上海黄浦区延安东路7号甲(近外滩)"},{"poiid":"B2094757D068A4FC409D","title":"外滩花园酒店","lon":"121.48874013","lat":"31.236291039","category":"74","category_name":"江苏菜","address":"黄浦区汉口路200号(近河南中路)"},{"poiid":"B2094654DA6FAAF8449F","title":"福申大厦","lon":"121.489","lat":"31.2377","category":"46","category_name":"楼宇","address":"行宫位于沈河北站一路41号"},{"poiid":"B2094757D06AA4F8479E","title":"上海海关","lon":"121.49073283","lat":"31.235817695","category":"500","category_name":"未知分类","address":"上海中山东一路13号"},{"poiid":"B2094750D66DA2F8449D","title":"上海火车站","lon":"121.488983","lat":"31.237527","category":"500","category_name":"未知分类","address":null},{"poiid":"B2094757D16FABFE4299","title":"仙踪林","lon":"121.49111173","lat":"31.235984422","category":"500","category_name":"未知分类","address":"上海陆家嘴西路2967号北滨江大道A座(丰和路陆家嘴西路)"},{"poiid":"B2094757D068A4F54999","title":"外滩啤酒总汇","lon":"121.489100353","lat":"31.2365874384","category":"260","category_name":"其他","address":"黄浦区汉口路11号(近中山东一路)"},{"poiid":"B2094750D568A0FF4293","title":"Mercato by Jean Geroge","lon":"121.491241","lat":"31.234399","category":"500","category_name":"未知分类","address":"Bund No 3"},{"poiid":"B2094654DB69A6FA4099","title":"外滩情人墙","lon":"121.49021","lat":"31.2369","category":"250","category_name":"公园户外","address":"黄浦区中山东一路黄浦江边"},{"poiid":"B2094655D269ABFD4098","title":"外滩十八号创意中心","lon":"121.48974","lat":"31.2384","category":"247","category_name":"餐饮美食","address":"黄浦区中山东一路18号4楼(近南京东路)"},{"poiid":"B209475CD364A2FB4099","title":"Hakkasan","lon":"121.49009","lat":"31.23634","category":"94","category_name":"西餐厅","address":"中山东一路18号外滩十八号5楼"},{"poiid":"B2094654DB65A2FE4993","title":"南京路步行街(友邦大厦西北)","lon":"121.48942","lat":"31.23846","category":"116","category_name":"特色商业街","address":""},{"poiid":"B2094757D06BA3F54399","title":"浦江汇","lon":"121.491288","lat":"31.234279","category":"67","category_name":"甜品店","address":"上海市黄浦区中山东一路2号，华尔道夫会所大堂层"},{"poiid":"B2094757D068A1FF469C","title":"招商银行(外滩支行)","lon":"121.48987579","lat":"31.238119125","category":"150","category_name":"银行","address":"黄浦区中山东一路16号(近九江路)"},{"poiid":"B2094750DA6BA1FD469D","title":"forever21","lon":"121.489219","lat":"31.235349","category":"500","category_name":"未知分类","address":"南京東路"},{"poiid":"B2094757D16DA6FF4599","title":"月影","lon":"121.490579738","lat":"31.234685395","category":"249","category_name":"购物服务","address":"上海外滩5号3楼"},{"poiid":"B2094757D068ABFD469F","title":"友邦大厦","lon":"121.48980712","lat":"31.238212585","category":"46","category_name":"楼宇","address":"上海中山东一路17号"},{"poiid":"B2094750D16BA6FA439D","title":"外白渡大桥","lon":"121.491432","lat":"31.238191","category":"500","category_name":"未知分类","address":null},{"poiid":"B2094752D46AA3FB4199","title":"外滩十八号","lon":"121.490014","lat":"31.238674","category":"119","category_name":"商场","address":"黄浦区中山东一路18号"},{"poiid":"B2094757D06FABFE409D","title":"滩外楼","lon":"121.49025","lat":"31.23845","category":"72","category_name":"广东菜","address":"黄浦区中山东一路18号外滩18号5楼(近南京东路)"},{"poiid":"B2094757D16DA6F9479B","title":"十六浦码头浦江游船","lon":"121.49041273","lat":"31.238635479","category":"247","category_name":"餐饮美食","address":"上海中山东二路501号"},{"poiid":"B2094757D66DA7F4469B","title":"外滩","lon":"121.490535738","lat":"31.2383514732","category":"240","category_name":"国家级景点","address":"上海市中心区黄浦江畔"},{"poiid":"B2094655D268ABFD489E","title":"外滩18号","lon":"121.48960930059434","lat":"31.238450813410314","category":"76","category_name":"上海菜","address":"黄浦区中山东一路18号"},{"poiid":"B2094757D068A3FC499F","title":"外滩6号","lon":"121.49022765","lat":"31.235021152","category":"119","category_name":"商场","address":"上海外滩六号"},{"poiid":"B209475CD564A7F84292","title":"上海滩新天地店","lon":"121.47463","lat":"31.22164","category":"119","category_name":"商场","address":"\"太仓路181弄新天地北里15号\r\n\""},{"poiid":"B209475CD564A7F84392","title":"上海滩浦东香格里拉店","lon":"121.50058","lat":"31.23634","category":"119","category_name":"商场","address":"浦东富成路33号香格里拉酒店内大堂层"},{"poiid":"B2094757D06FA1FC439D","title":"Bar Rouge","lon":"121.49011","lat":"31.2386","category":"260","category_name":"其他","address":"黄浦区中山东一路18号外滩18号7楼(近南京东路)"},{"poiid":"B2094757D06FA5FC439A","title":"Mr &amp; Mrs Bund","lon":"121.4901","lat":"31.23816","category":"94","category_name":"西餐厅","address":"上海黄浦区中山东一路18号外滩18号6楼(近南京东路)"},{"poiid":"B2094750D364A0FF429A","title":"外滩18号Bund18","lon":"121.49013","lat":"31.23594","category":"119","category_name":"商场","address":"中山东一路18号"},{"poiid":"B2094757D068A2FC4893","title":"外滩海关大钟","lon":"121.490005","lat":"31.236592","category":"500","category_name":"未知分类","address":"上海中山东一路13号"},{"poiid":"B2094654DA6FAAFD449E","title":"船长青年酒店","lon":"121.48965","lat":"31.23539","category":"250","category_name":"公园户外","address":"黄浦区福州路37号(近四川中路)"},{"poiid":"B2094654DA6FAAFD4593","title":"M on the Bund","lon":"121.49079","lat":"31.2345","category":"263","category_name":"公司","address":"中山东一路5号外滩5号7层"},{"poiid":"B2094655D26EA2F5479B","title":"海关大楼","lon":"121.49002","lat":"31.23668","category":"46","category_name":"楼宇","address":"鲁尔大厦位于铁西兴华南街5号"},{"poiid":"B2094757D06FA7FF449F","title":"东京和食","lon":"121.49104","lat":"31.23457","category":"95","category_name":"日本料理","address":"黄浦区中山东一路6号外滩6号2楼(近广东路)"},{"poiid":"B2094757D068A2F4459A","title":"船长酒吧","lon":"121.49016","lat":"31.23529","category":"260","category_name":"其他","address":"黄浦区福州路37号船长酒店6搂(近中山东一路)"},{"poiid":"B2094654DA6FAAFD4592","title":"外滩5号","lon":"121.49078","lat":"31.2345","category":"47","category_name":"住宅区","address":"中山东一路5号"},{"poiid":"B2094757D06FAAFC419B","title":"猫的天空之城概念书店","lon":"121.489654","lat":"31.235389","category":"260","category_name":"其他","address":"黄浦区福州路37号船长青年酒店1楼(近中山东一路)"},{"poiid":"B2094757D06BABFB449A","title":"Shook！上海","lon":"121.49010773","lat":"31.238661479","category":"94","category_name":"西餐厅","address":"黄浦区南京东路23号5-6楼(外滩19号)"},{"poiid":"B2094757D16CA4FE469A","title":"罗斯福9楼露天酒吧","lon":"121.49195883","lat":"31.237938814","category":"172","category_name":"酒吧","address":"上海外滩27号"},{"poiid":"B2094757D06AA1F4489F","title":"上海姥姥 原吉禾餐饮","lon":"121.48908099613","lat":"31.235419801894","category":"76","category_name":"上海菜","address":"黄浦区福州路70号(近四川中路永和豆浆对面)"},{"poiid":"B2094757D068A1F8449B","title":"House of Blues & Jazz","lon":"121.4892425","lat":"31.235561077","category":"172","category_name":"酒吧","address":"上海市黄浦区福州路60号(近四川中路)"},{"poiid":"B2094757D469A7F4429D","title":"悦粤茶餐厅","lon":"121.49097","lat":"31.2412","category":"72","category_name":"广东菜","address":"黄浦区中山东一路429号(近北京东路)"},{"poiid":"B2094757D068A0F5439E","title":"上海国际商品拍卖有限公司","lon":"121.488583332","lat":"31.2353396094","category":"46","category_name":"楼宇","address":"黄浦区福州路108号(近四川中路)"},{"poiid":"B2094655D26DA3FF489A","title":"Bund18","lon":"121.48978","lat":"31.23842","category":"119","category_name":"商场","address":"中山东一路18"},{"poiid":"B2094655D26FA2FA4099","title":"月影铁板烧景观餐厅酒廊","lon":"121.49079","lat":"31.2345","category":"97","category_name":"法式菜品餐厅","address":"黄浦区中山东一路外滩5号3楼"},{"poiid":"B2094751D56CA4FD419C","title":"Mercato","lon":"121.49088","lat":"31.23417","category":"94","category_name":"西餐厅","address":"黄浦区中山东一路3号外滩3号6楼(近广东路)"},{"poiid":"B2094750D66FA3F9489E","title":"UNICO & COLAGRECO","lon":"121.49067870373528","lat":"31.23452732944748","category":"101","category_name":"美式风味","address":"黄浦区中山东一路3号外滩3号2楼(近广东路)"},{"poiid":"B2094751D56BA3F9469E","title":"南麓浙里","lon":"121.488525","lat":"31.235992","category":"76","category_name":"上海菜","address":"黄浦区四川中路216号(近福州路)"},{"poiid":"B2094757D06FABFC469A","title":"上海浦东发展银行大楼(外滩12号)","lon":"121.489894","lat":"31.236","category":"150","category_name":"银行","address":"上海黄浦区中山东一路12号 汇丰银行大楼 (原市府大楼)"},{"poiid":"B2094757D06FA3FB4199","title":"外滩隧道","lon":"121.491135705","lat":"31.2345035269","category":"260","category_name":"其他","address":"上海海宁路长治路——延安东路中山南路"},{"poiid":"B2094757D069A4FF499F","title":"老船长青年旅舍(外滩店)","lon":"121.48979","lat":"31.23509","category":"216","category_name":"经济型连锁酒店","address":"上海黄浦区延安东路7号甲(近外滩)"},{"poiid":"B2094757D068A4FC409D","title":"外滩花园酒店","lon":"121.48874013","lat":"31.236291039","category":"74","category_name":"江苏菜","address":"黄浦区汉口路200号(近河南中路)"},{"poiid":"B2094654DA6FAAF8449F","title":"福申大厦","lon":"121.489","lat":"31.2377","category":"46","category_name":"楼宇","address":"行宫位于沈河北站一路41号"},{"poiid":"B2094757D06AA4F8479E","title":"上海海关","lon":"121.49073283","lat":"31.235817695","category":"500","category_name":"未知分类","address":"上海中山东一路13号"},{"poiid":"B2094750D66DA2F8449D","title":"上海火车站","lon":"121.488983","lat":"31.237527","category":"500","category_name":"未知分类","address":null},{"poiid":"B2094757D16FABFE4299","title":"仙踪林","lon":"121.49111173","lat":"31.235984422","category":"500","category_name":"未知分类","address":"上海陆家嘴西路2967号北滨江大道A座(丰和路陆家嘴西路)"},{"poiid":"B2094757D068A4F54999","title":"外滩啤酒总汇","lon":"121.489100353","lat":"31.2365874384","category":"260","category_name":"其他","address":"黄浦区汉口路11号(近中山东一路)"},{"poiid":"B2094750D568A0FF4293","title":"Mercato by Jean Geroge","lon":"121.491241","lat":"31.234399","category":"500","category_name":"未知分类","address":"Bund No 3"},{"poiid":"B2094654DB69A6FA4099","title":"外滩情人墙","lon":"121.49021","lat":"31.2369","category":"250","category_name":"公园户外","address":"黄浦区中山东一路黄浦江边"},{"poiid":"B2094655D269ABFD4098","title":"外滩十八号创意中心","lon":"121.48974","lat":"31.2384","category":"247","category_name":"餐饮美食","address":"黄浦区中山东一路18号4楼(近南京东路)"},{"poiid":"B209475CD364A2FB4099","title":"Hakkasan","lon":"121.49009","lat":"31.23634","category":"94","category_name":"西餐厅","address":"中山东一路18号外滩十八号5楼"},{"poiid":"B2094654DB65A2FE4993","title":"南京路步行街(友邦大厦西北)","lon":"121.48942","lat":"31.23846","category":"116","category_name":"特色商业街","address":""},{"poiid":"B2094757D06BA3F54399","title":"浦江汇","lon":"121.491288","lat":"31.234279","category":"67","category_name":"甜品店","address":"上海市黄浦区中山东一路2号，华尔道夫会所大堂层"},{"poiid":"B2094757D068A1FF469C","title":"招商银行(外滩支行)","lon":"121.48987579","lat":"31.238119125","category":"150","category_name":"银行","address":"黄浦区中山东一路16号(近九江路)"},{"poiid":"B2094750DA6BA1FD469D","title":"forever21","lon":"121.489219","lat":"31.235349","category":"500","category_name":"未知分类","address":"南京東路"},{"poiid":"B2094757D16DA6FF4599","title":"月影","lon":"121.490579738","lat":"31.234685395","category":"249","category_name":"购物服务","address":"上海外滩5号3楼"},{"poiid":"B2094757D068ABFD469F","title":"友邦大厦","lon":"121.48980712","lat":"31.238212585","category":"46","category_name":"楼宇","address":"上海中山东一路17号"},{"poiid":"B2094750D16BA6FA439D","title":"外白渡大桥","lon":"121.491432","lat":"31.238191","category":"500","category_name":"未知分类","address":null},{"poiid":"B2094752D46AA3FB4199","title":"外滩十八号","lon":"121.490014","lat":"31.238674","category":"119","category_name":"商场","address":"黄浦区中山东一路18号"},{"poiid":"B2094757D06FABFE409D","title":"滩外楼","lon":"121.49025","lat":"31.23845","category":"72","category_name":"广东菜","address":"黄浦区中山东一路18号外滩18号5楼(近南京东路)"},{"poiid":"B2094757D16DA6F9479B","title":"十六浦码头浦江游船","lon":"121.49041273","lat":"31.238635479","category":"247","category_name":"餐饮美食","address":"上海中山东二路501号"},{"poiid":"B2094757D66DA7F4469B","title":"外滩","lon":"121.490535738","lat":"31.2383514732","category":"240","category_name":"国家级景点","address":"上海市中心区黄浦江畔"},{"poiid":"B2094655D268ABFD489E","title":"外滩18号","lon":"121.48960930059434","lat":"31.238450813410314","category":"76","category_name":"上海菜","address":"黄浦区中山东一路18号"},{"poiid":"B2094757D068A3FC499F","title":"外滩6号","lon":"121.49022765","lat":"31.235021152","category":"119","category_name":"商场","address":"上海外滩六号"},{"poiid":"B209475CD564A7F84292","title":"上海滩新天地店","lon":"121.47463","lat":"31.22164","category":"119","category_name":"商场","address":"\"太仓路181弄新天地北里15号\r\n\""},{"poiid":"B209475CD564A7F84392","title":"上海滩浦东香格里拉店","lon":"121.50058","lat":"31.23634","category":"119","category_name":"商场","address":"浦东富成路33号香格里拉酒店内大堂层"},{"poiid":"B2094757D06FA1FC439D","title":"Bar Rouge","lon":"121.49011","lat":"31.2386","category":"260","category_name":"其他","address":"黄浦区中山东一路18号外滩18号7楼(近南京东路)"},{"poiid":"B2094757D06FA5FC439A","title":"Mr &amp; Mrs Bund","lon":"121.4901","lat":"31.23816","category":"94","category_name":"西餐厅","address":"上海黄浦区中山东一路18号外滩18号6楼(近南京东路)"},{"poiid":"B2094750D364A0FF429A","title":"外滩18号Bund18","lon":"121.49013","lat":"31.23594","category":"119","category_name":"商场","address":"中山东一路18号"},{"poiid":"B2094757D068A2FC4893","title":"外滩海关大钟","lon":"121.490005","lat":"31.236592","category":"500","category_name":"未知分类","address":"上海中山东一路13号"},{"poiid":"B2094654DA6FAAFD449E","title":"船长青年酒店","lon":"121.48965","lat":"31.23539","category":"250","category_name":"公园户外","address":"黄浦区福州路37号(近四川中路)"},{"poiid":"B2094654DA6FAAFD4593","title":"M on the Bund","lon":"121.49079","lat":"31.2345","category":"263","category_name":"公司","address":"中山东一路5号外滩5号7层"},{"poiid":"B2094655D26EA2F5479B","title":"海关大楼","lon":"121.49002","lat":"31.23668","category":"46","category_name":"楼宇","address":"鲁尔大厦位于铁西兴华南街5号"},{"poiid":"B2094757D06FA7FF449F","title":"东京和食","lon":"121.49104","lat":"31.23457","category":"95","category_name":"日本料理","address":"黄浦区中山东一路6号外滩6号2楼(近广东路)"},{"poiid":"B2094757D068A2F4459A","title":"船长酒吧","lon":"121.49016","lat":"31.23529","category":"260","category_name":"其他","address":"黄浦区福州路37号船长酒店6搂(近中山东一路)"},{"poiid":"B2094654DA6FAAFD4592","title":"外滩5号","lon":"121.49078","lat":"31.2345","category":"47","category_name":"住宅区","address":"中山东一路5号"},{"poiid":"B2094757D06FAAFC419B","title":"猫的天空之城概念书店","lon":"121.489654","lat":"31.235389","category":"260","category_name":"其他","address":"黄浦区福州路37号船长青年酒店1楼(近中山东一路)"},{"poiid":"B2094757D06BABFB449A","title":"Shook！上海","lon":"121.49010773","lat":"31.238661479","category":"94","category_name":"西餐厅","address":"黄浦区南京东路23号5-6楼(外滩19号)"},{"poiid":"B2094757D16CA4FE469A","title":"罗斯福9楼露天酒吧","lon":"121.49195883","lat":"31.237938814","category":"172","category_name":"酒吧","address":"上海外滩27号"},{"poiid":"B2094757D06AA1F4489F","title":"上海姥姥 原吉禾餐饮","lon":"121.48908099613","lat":"31.235419801894","category":"76","category_name":"上海菜","address":"黄浦区福州路70号(近四川中路永和豆浆对面)"},{"poiid":"B2094757D068A1F8449B","title":"House of Blues & Jazz","lon":"121.4892425","lat":"31.235561077","category":"172","category_name":"酒吧","address":"上海市黄浦区福州路60号(近四川中路)"},{"poiid":"B2094757D469A7F4429D","title":"悦粤茶餐厅","lon":"121.49097","lat":"31.2412","category":"72","category_name":"广东菜","address":"黄浦区中山东一路429号(近北京东路)"},{"poiid":"B2094757D068A0F5439E","title":"上海国际商品拍卖有限公司","lon":"121.488583332","lat":"31.2353396094","category":"46","category_name":"楼宇","address":"黄浦区福州路108号(近四川中路)"},{"poiid":"B2094655D26DA3FF489A","title":"Bund18","lon":"121.48978","lat":"31.23842","category":"119","category_name":"商场","address":"中山东一路18"},{"poiid":"B2094655D26FA2FA4099","title":"月影铁板烧景观餐厅酒廊","lon":"121.49079","lat":"31.2345","category":"97","category_name":"法式菜品餐厅","address":"黄浦区中山东一路外滩5号3楼"},{"poiid":"B2094751D56CA4FD419C","title":"Mercato","lon":"121.49088","lat":"31.23417","category":"94","category_name":"西餐厅","address":"黄浦区中山东一路3号外滩3号6楼(近广东路)"},{"poiid":"B2094750D66FA3F9489E","title":"UNICO & COLAGRECO","lon":"121.49067870373528","lat":"31.23452732944748","category":"101","category_name":"美式风味","address":"黄浦区中山东一路3号外滩3号2楼(近广东路)"},{"poiid":"B2094751D56BA3F9469E","title":"南麓浙里","lon":"121.488525","lat":"31.235992","category":"76","category_name":"上海菜","address":"黄浦区四川中路216号(近福州路)"},{"poiid":"B2094757D06FABFC469A","title":"上海浦东发展银行大楼(外滩12号)","lon":"121.489894","lat":"31.236","category":"150","category_name":"银行","address":"上海黄浦区中山东一路12号 汇丰银行大楼 (原市府大楼)"},{"poiid":"B2094757D06FA3FB4199","title":"外滩隧道","lon":"121.491135705","lat":"31.2345035269","category":"260","category_name":"其他","address":"上海海宁路长治路——延安东路中山南路"},{"poiid":"B2094757D069A4FF499F","title":"老船长青年旅舍(外滩店)","lon":"121.48979","lat":"31.23509","category":"216","category_name":"经济型连锁酒店","address":"上海黄浦区延安东路7号甲(近外滩)"},{"poiid":"B2094757D068A4FC409D","title":"外滩花园酒店","lon":"121.48874013","lat":"31.236291039","category":"74","category_name":"江苏菜","address":"黄浦区汉口路200号(近河南中路)"},{"poiid":"B2094654DA6FAAF8449F","title":"福申大厦","lon":"121.489","lat":"31.2377","category":"46","category_name":"楼宇","address":"行宫位于沈河北站一路41号"},{"poiid":"B2094757D06AA4F8479E","title":"上海海关","lon":"121.49073283","lat":"31.235817695","category":"500","category_name":"未知分类","address":"上海中山东一路13号"},{"poiid":"B2094750D66DA2F8449D","title":"上海火车站","lon":"121.488983","lat":"31.237527","category":"500","category_name":"未知分类","address":null},{"poiid":"B2094757D16FABFE4299","title":"仙踪林","lon":"121.49111173","lat":"31.235984422","category":"500","category_name":"未知分类","address":"上海陆家嘴西路2967号北滨江大道A座(丰和路陆家嘴西路)"},{"poiid":"B2094757D068A4F54999","title":"外滩啤酒总汇","lon":"121.489100353","lat":"31.2365874384","category":"260","category_name":"其他","address":"黄浦区汉口路11号(近中山东一路)"},{"poiid":"B2094750D568A0FF4293","title":"Mercato by Jean Geroge","lon":"121.491241","lat":"31.234399","category":"500","category_name":"未知分类","address":"Bund No 3"},{"poiid":"B2094654DB69A6FA4099","title":"外滩情人墙","lon":"121.49021","lat":"31.2369","category":"250","category_name":"公园户外","address":"黄浦区中山东一路黄浦江边"},{"poiid":"B2094655D269ABFD4098","title":"外滩十八号创意中心","lon":"121.48974","lat":"31.2384","category":"247","category_name":"餐饮美食","address":"黄浦区中山东一路18号4楼(近南京东路)"},{"poiid":"B209475CD364A2FB4099","title":"Hakkasan","lon":"121.49009","lat":"31.23634","category":"94","category_name":"西餐厅","address":"中山东一路18号外滩十八号5楼"},{"poiid":"B2094654DB65A2FE4993","title":"南京路步行街(友邦大厦西北)","lon":"121.48942","lat":"31.23846","category":"116","category_name":"特色商业街","address":""},{"poiid":"B2094757D06BA3F54399","title":"浦江汇","lon":"121.491288","lat":"31.234279","category":"67","category_name":"甜品店","address":"上海市黄浦区中山东一路2号，华尔道夫会所大堂层"},{"poiid":"B2094757D068A1FF469C","title":"招商银行(外滩支行)","lon":"121.48987579","lat":"31.238119125","category":"150","category_name":"银行","address":"黄浦区中山东一路16号(近九江路)"},{"poiid":"B2094750DA6BA1FD469D","title":"forever21","lon":"121.489219","lat":"31.235349","category":"500","category_name":"未知分类","address":"南京東路"},{"poiid":"B2094757D16DA6FF4599","title":"月影","lon":"121.490579738","lat":"31.234685395","category":"249","category_name":"购物服务","address":"上海外滩5号3楼"},{"poiid":"B2094757D068ABFD469F","title":"友邦大厦","lon":"121.48980712","lat":"31.238212585","category":"46","category_name":"楼宇","address":"上海中山东一路17号"},{"poiid":"B2094750D16BA6FA439D","title":"外白渡大桥","lon":"121.491432","lat":"31.238191","category":"500","category_name":"未知分类","address":null},{"poiid":"B2094752D46AA3FB4199","title":"外滩十八号","lon":"121.490014","lat":"31.238674","category":"119","category_name":"商场","address":"黄浦区中山东一路18号"},{"poiid":"B2094757D06FABFE409D","title":"滩外楼","lon":"121.49025","lat":"31.23845","category":"72","category_name":"广东菜","address":"黄浦区中山东一路18号外滩18号5楼(近南京东路)"},{"poiid":"B2094757D16DA6F9479B","title":"十六浦码头浦江游船","lon":"121.49041273","lat":"31.238635479","category":"247","category_name":"餐饮美食","address":"上海中山东二路501号"},{"poiid":"B2094757D66DA7F4469B","title":"外滩","lon":"121.490535738","lat":"31.2383514732","category":"240","category_name":"国家级景点","address":"上海市中心区黄浦江畔"},{"poiid":"B2094655D268ABFD489E","title":"外滩18号","lon":"121.48960930059434","lat":"31.238450813410314","category":"76","category_name":"上海菜","address":"黄浦区中山东一路18号"},{"poiid":"B2094757D068A3FC499F","title":"外滩6号","lon":"121.49022765","lat":"31.235021152","category":"119","category_name":"商场","address":"上海外滩六号"},{"poiid":"B209475CD564A7F84292","title":"上海滩新天地店","lon":"121.47463","lat":"31.22164","category":"119","category_name":"商场","address":"\"太仓路181弄新天地北里15号\r\n\""},{"poiid":"B209475CD564A7F84392","title":"上海滩浦东香格里拉店","lon":"121.50058","lat":"31.23634","category":"119","category_name":"商场","address":"浦东富成路33号香格里拉酒店内大堂层"},{"poiid":"B2094757D06FA1FC439D","title":"Bar Rouge","lon":"121.49011","lat":"31.2386","category":"260","category_name":"其他","address":"黄浦区中山东一路18号外滩18号7楼(近南京东路)"},{"poiid":"B2094757D06FA5FC439A","title":"Mr &amp; Mrs Bund","lon":"121.4901","lat":"31.23816","category":"94","category_name":"西餐厅","address":"上海黄浦区中山东一路18号外滩18号6楼(近南京东路)"},{"poiid":"B2094750D364A0FF429A","title":"外滩18号Bund18","lon":"121.49013","lat":"31.23594","category":"119","category_name":"商场","address":"中山东一路18号"},{"poiid":"B2094757D068A2FC4893","title":"外滩海关大钟","lon":"121.490005","lat":"31.236592","category":"500","category_name":"未知分类","address":"上海中山东一路13号"},{"poiid":"B2094654DA6FAAFD449E","title":"船长青年酒店","lon":"121.48965","lat":"31.23539","category":"250","category_name":"公园户外","address":"黄浦区福州路37号(近四川中路)"},{"poiid":"B2094654DA6FAAFD4593","title":"M on the Bund","lon":"121.49079","lat":"31.2345","category":"263","category_name":"公司","address":"中山东一路5号外滩5号7层"},{"poiid":"B2094655D26EA2F5479B","title":"海关大楼","lon":"121.49002","lat":"31.23668","category":"46","category_name":"楼宇","address":"鲁尔大厦位于铁西兴华南街5号"},{"poiid":"B2094757D06FA7FF449F","title":"东京和食","lon":"121.49104","lat":"31.23457","category":"95","category_name":"日本料理","address":"黄浦区中山东一路6号外滩6号2楼(近广东路)"},{"poiid":"B2094757D068A2F4459A","title":"船长酒吧","lon":"121.49016","lat":"31.23529","category":"260","category_name":"其他","address":"黄浦区福州路37号船长酒店6搂(近中山东一路)"},{"poiid":"B2094654DA6FAAFD4592","title":"外滩5号","lon":"121.49078","lat":"31.2345","category":"47","category_name":"住宅区","address":"中山东一路5号"},{"poiid":"B2094757D06FAAFC419B","title":"猫的天空之城概念书店","lon":"121.489654","lat":"31.235389","category":"260","category_name":"其他","address":"黄浦区福州路37号船长青年酒店1楼(近中山东一路)"},{"poiid":"B2094757D06BABFB449A","title":"Shook！上海","lon":"121.49010773","lat":"31.238661479","category":"94","category_name":"西餐厅","address":"黄浦区南京东路23号5-6楼(外滩19号)"},{"poiid":"B2094757D16CA4FE469A","title":"罗斯福9楼露天酒吧","lon":"121.49195883","lat":"31.237938814","category":"172","category_name":"酒吧","address":"上海外滩27号"},{"poiid":"B2094757D06AA1F4489F","title":"上海姥姥 原吉禾餐饮","lon":"121.48908099613","lat":"31.235419801894","category":"76","category_name":"上海菜","address":"黄浦区福州路70号(近四川中路永和豆浆对面)"},{"poiid":"B2094757D068A1F8449B","title":"House of Blues & Jazz","lon":"121.4892425","lat":"31.235561077","category":"172","category_name":"酒吧","address":"上海市黄浦区福州路60号(近四川中路)"},{"poiid":"B2094757D469A7F4429D","title":"悦粤茶餐厅","lon":"121.49097","lat":"31.2412","category":"72","category_name":"广东菜","address":"黄浦区中山东一路429号(近北京东路)"},{"poiid":"B2094757D068A0F5439E","title":"上海国际商品拍卖有限公司","lon":"121.488583332","lat":"31.2353396094","category":"46","category_name":"楼宇","address":"黄浦区福州路108号(近四川中路)"},{"poiid":"B2094655D26DA3FF489A","title":"Bund18","lon":"121.48978","lat":"31.23842","category":"119","category_name":"商场","address":"中山东一路18"},{"poiid":"B2094655D26FA2FA4099","title":"月影铁板烧景观餐厅酒廊","lon":"121.49079","lat":"31.2345","category":"97","category_name":"法式菜品餐厅","address":"黄浦区中山东一路外滩5号3楼"},{"poiid":"B2094751D56CA4FD419C","title":"Mercato","lon":"121.49088","lat":"31.23417","category":"94","category_name":"西餐厅","address":"黄浦区中山东一路3号外滩3号6楼(近广东路)"},{"poiid":"B2094750D66FA3F9489E","title":"UNICO & COLAGRECO","lon":"121.49067870373528","lat":"31.23452732944748","category":"101","category_name":"美式风味","address":"黄浦区中山东一路3号外滩3号2楼(近广东路)"},{"poiid":"B2094751D56BA3F9469E","title":"南麓浙里","lon":"121.488525","lat":"31.235992","category":"76","category_name":"上海菜","address":"黄浦区四川中路216号(近福州路)"},{"poiid":"B2094757D06FABFC469A","title":"上海浦东发展银行大楼(外滩12号)","lon":"121.489894","lat":"31.236","category":"150","category_name":"银行","address":"上海黄浦区中山东一路12号 汇丰银行大楼 (原市府大楼)"},{"poiid":"B2094757D06FA3FB4199","title":"外滩隧道","lon":"121.491135705","lat":"31.2345035269","category":"260","category_name":"其他","address":"上海海宁路长治路——延安东路中山南路"},{"poiid":"B2094757D069A4FF499F","title":"老船长青年旅舍(外滩店)","lon":"121.48979","lat":"31.23509","category":"216","category_name":"经济型连锁酒店","address":"上海黄浦区延安东路7号甲(近外滩)"},{"poiid":"B2094757D068A4FC409D","title":"外滩花园酒店","lon":"121.48874013","lat":"31.236291039","category":"74","category_name":"江苏菜","address":"黄浦区汉口路200号(近河南中路)"},{"poiid":"B2094654DA6FAAF8449F","title":"福申大厦","lon":"121.489","lat":"31.2377","category":"46","category_name":"楼宇","address":"行宫位于沈河北站一路41号"},{"poiid":"B2094757D06AA4F8479E","title":"上海海关","lon":"121.49073283","lat":"31.235817695","category":"500","category_name":"未知分类","address":"上海中山东一路13号"},{"poiid":"B2094750D66DA2F8449D","title":"上海火车站","lon":"121.488983","lat":"31.237527","category":"500","category_name":"未知分类","address":null},{"poiid":"B2094757D16FABFE4299","title":"仙踪林","lon":"121.49111173","lat":"31.235984422","category":"500","category_name":"未知分类","address":"上海陆家嘴西路2967号北滨江大道A座(丰和路陆家嘴西路)"},{"poiid":"B2094757D068A4F54999","title":"外滩啤酒总汇","lon":"121.489100353","lat":"31.2365874384","category":"260","category_name":"其他","address":"黄浦区汉口路11号(近中山东一路)"},{"poiid":"B2094750D568A0FF4293","title":"Mercato by Jean Geroge","lon":"121.491241","lat":"31.234399","category":"500","category_name":"未知分类","address":"Bund No 3"},{"poiid":"B2094654DB69A6FA4099","title":"外滩情人墙","lon":"121.49021","lat":"31.2369","category":"250","category_name":"公园户外","address":"黄浦区中山东一路黄浦江边"},{"poiid":"B2094655D269ABFD4098","title":"外滩十八号创意中心","lon":"121.48974","lat":"31.2384","category":"247","category_name":"餐饮美食","address":"黄浦区中山东一路18号4楼(近南京东路)"},{"poiid":"B209475CD364A2FB4099","title":"Hakkasan","lon":"121.49009","lat":"31.23634","category":"94","category_name":"西餐厅","address":"中山东一路18号外滩十八号5楼"},{"poiid":"B2094654DB65A2FE4993","title":"南京路步行街(友邦大厦西北)","lon":"121.48942","lat":"31.23846","category":"116","category_name":"特色商业街","address":""},{"poiid":"B2094757D06BA3F54399","title":"浦江汇","lon":"121.491288","lat":"31.234279","category":"67","category_name":"甜品店","address":"上海市黄浦区中山东一路2号，华尔道夫会所大堂层"},{"poiid":"B2094757D068A1FF469C","title":"招商银行(外滩支行)","lon":"121.48987579","lat":"31.238119125","category":"150","category_name":"银行","address":"黄浦区中山东一路16号(近九江路)"},{"poiid":"B2094750DA6BA1FD469D","title":"forever21","lon":"121.489219","lat":"31.235349","category":"500","category_name":"未知分类","address":"南京東路"},{"poiid":"B2094757D16DA6FF4599","title":"月影","lon":"121.490579738","lat":"31.234685395","category":"249","category_name":"购物服务","address":"上海外滩5号3楼"},{"poiid":"B2094757D068ABFD469F","title":"友邦大厦","lon":"121.48980712","lat":"31.238212585","category":"46","category_name":"楼宇","address":"上海中山东一路17号"},{"poiid":"B2094750D16BA6FA439D","title":"外白渡大桥","lon":"121.491432","lat":"31.238191","category":"500","category_name":"未知分类","address":null},{"poiid":"B2094752D46AA3FB4199","title":"外滩十八号","lon":"121.490014","lat":"31.238674","category":"119","category_name":"商场","address":"黄浦区中山东一路18号"},{"poiid":"B2094757D06FABFE409D","title":"滩外楼","lon":"121.49025","lat":"31.23845","category":"72","category_name":"广东菜","address":"黄浦区中山东一路18号外滩18号5楼(近南京东路)"},{"poiid":"B2094757D16DA6F9479B","title":"十六浦码头浦江游船","lon":"121.49041273","lat":"31.238635479","category":"247","category_name":"餐饮美食","address":"上海中山东二路501号"}]