[{"poiid":"B2094654DB65A1F54199","title":"南翔馒头店 豫园店","lon":"121.491505","lat":"31.226656","category":"68","category_name":"快餐厅","address":"黄浦区豫园路85号"},{"poiid":"B2094757D06FA1FF4799","title":"豫园","lon":"121.49209476305077","lat":"31.227224682757594","category":"240","category_name":"国家级景点","address":"上海市黄浦区安仁街218号"},{"poiid":"B2094757D065AAF84892","title":"上海老飯店","lon":"121.490577698","lat":"31.2276554108","category":"75","category_name":"浙江菜","address":"黄浦区福佑路242号"},{"poiid":"B2094753D76FAAFA449C","title":"上海滩国泰旗舰店","lon":"121.466011","lat":"31.216125","category":"249","category_name":"购物服务","address":"淮海中路868号"},{"poiid":"B209475CD564A7F84292","title":"上海滩新天地店","lon":"121.47463","lat":"31.22164","category":"119","category_name":"商场","address":"\"太仓路181弄新天地北里15号\r\n\""},{"poiid":"B209475CD564A7F84392","title":"上海滩浦东香格里拉店","lon":"121.50058","lat":"31.23634","category":"119","category_name":"商场","address":"浦东富成路33号香格里拉酒店内大堂层"},{"poiid":"B2094654DB6AA6FF4699","title":"上海豫园万丽酒店","lon":"121.48799","lat":"31.22754","category":"213","category_name":"五星级宾馆","address":"上海黄浦区河南南路159号(近福佑路)"},{"poiid":"B2094757D06FA6F4449A","title":"城隍庙第一购物中心","lon":"121.490396152","lat":"31.229039814","category":"119","category_name":"商场","address":"黄浦区丽水路88号城隍珠宝内(近城隍庙)"},{"poiid":"B2094757D468A6FE4392","title":"星巴克 豫园店 Starbucks Cafe","lon":"121.49193120286","lat":"31.226836909199","category":"65","category_name":"咖啡厅","address":"豫园路100号近福佑路"},{"poiid":"B2094757D66FA6FA459E","title":"城隍庙豫园老街","lon":"121.487217235","lat":"31.2276862092","category":"260","category_name":"其他","address":"上海市黄浦区福佑路"},{"poiid":"B2094654DB6BA4F9449B","title":"豫园老街","lon":"121.49114","lat":"31.22713","category":"116","category_name":"特色商业街","address":"黄浦区福佑路238号豫园内(近河南南路)"},{"poiid":"B2094757D165A6FD409E","title":"外滩二十二号","lon":"121.48842638473934","lat":"31.239447501314032","category":"627","category_name":"一般地点标志","address":"上海市黄埔区中山东一路"},{"poiid":"B2094757D06FA0F5449B","title":"必胜客(丽水店)","lon":"121.490532","lat":"31.228192","category":"94","category_name":"西餐厅","address":"黄浦区丽水路69号(近福佑路)"},{"poiid":"B2094654DB64AAF44592","title":"哈根达斯豫园店","lon":"121.49119","lat":"31.2269","category":"113","category_name":"冷饮店","address":"黄浦区方浜中路168号豫龙坊1楼L122A号商铺(近昼锦路)"},{"poiid":"B2094757D06FA3FC419B","title":"小林煎饼 豫园店","lon":"121.490016054","lat":"31.227538793","category":"67","category_name":"甜品店","address":"黄浦区豫春路9号豫园商城内B室(近老庙黄金广场)"},{"poiid":"B2094757D66FA6FA4898","title":"豫园地铁站","lon":"121.48740085","lat":"31.22813753","category":"36","category_name":"地铁站","address":"上海轨道交通 十号线 轨交豫园站 10"},{"poiid":"B2094654DB65AAF4439B","title":"麦当劳(豫园店)","lon":"121.49037","lat":"31.22825","category":"68","category_name":"快餐厅","address":"黄浦区丽水路88号城隍珠宝内(近城隍庙)"},{"poiid":"B2094654DA6EA5F54399","title":"小世界会所","lon":"121.4914","lat":"31.22774","category":"76","category_name":"上海菜","address":"黄浦区福佑路234号豫园3-4楼"},{"poiid":"B2094750D364A7F44998","title":"上海南京路步行街","lon":"121.488845","lat":"31.22718","category":"249","category_name":"购物服务","address":"黄浦区步行街"},{"poiid":"B2094757D06FA4FE499B","title":"亚一金店(城隍庙店)","lon":"121.49034347","lat":"31.2277079844","category":"131","category_name":"珠宝首饰工艺品","address":"黄浦区福佑路288号(福佑路旧校场路)查看地图"},{"poiid":"B2094757D164AAF8419B","title":"南翔饅頭店-長兴樓","lon":"121.49004573","lat":"31.22789725","category":"500","category_name":"未知分类","address":"上海城隍廟"},{"poiid":"B2094654DA6EA5F54699","title":"豫园商城","lon":"121.49107","lat":"31.22773","category":"119","category_name":"商场","address":"黄浦区方浜中路269号(近城隍庙豫龙坊)"},{"poiid":"B2094757D06FA3FF419C","title":"星巴克 STARBUCKS (豫园二店)","lon":"121.49199","lat":"31.22696","category":"260","category_name":"其他","address":"黄浦区福佑路238号豫园内"},{"poiid":"B2094655D36DA6FF489C","title":"豫-上海","lon":"121.4909","lat":"31.22678","category":"72","category_name":"广东菜","address":"黄浦区旧校场路69号悦宾楼3楼(近沉香阁路)"},{"poiid":"B2094654DB65A1F5419F","title":"湖心亭","lon":"121.49141945573","lat":"31.227068113629","category":"260","category_name":"其他","address":"黄浦区豫园路257号(近九曲桥荷花池)"},{"poiid":"B2094757D068A2FA4192","title":"肯德基 KFC (豫园店)","lon":"121.491322","lat":"31.227603","category":"68","category_name":"快餐厅","address":"黄浦区福佑路234号豫园商城内(近旧校场路)"},{"poiid":"B2094655D26AA4FA479B","title":"万丽轩豫园万丽店","lon":"121.48799","lat":"31.22753","category":"72","category_name":"广东菜","address":"黄浦区河南南路159号豫园万丽大酒店4楼(河南南路吴家弄)"},{"poiid":"B2094757D068A7F8429A","title":"老凤祥银楼(福佑路店)","lon":"121.49116","lat":"31.22737","category":"500","category_name":"未知分类","address":"黄浦区福佑路239号1-3楼(近旧校场路)查看地图"},{"poiid":"B2094654DA6EA5F54992","title":"福佑门小商品市场","lon":"121.48796","lat":"31.22811","category":"120","category_name":"小商品市场","address":"黄浦区福佑路427号(近河南南路)"},{"poiid":"B2094757D06FA1FA449D","title":"城隍庙小商品市场","lon":"121.49124873","lat":"31.226930229","category":"249","category_name":"购物服务","address":"上海福佑路"},{"poiid":"B2094757D06FA4FB4493","title":"黄浦区业余大学","lon":"121.4913","lat":"31.22992","category":"52","category_name":"高等院校","address":"黄浦区四川南路37号(近金陵东路)"},{"poiid":"B2094654DA6EA4FC4399","title":"沈香阁","lon":"121.48999","lat":"31.22723","category":"244","category_name":"寺庙道观","address":"上海黄浦区沉香阁路29号(近福佑路)"},{"poiid":"B2094757D069A0FC4992","title":"松月楼","lon":"121.49108","lat":"31.22666","category":"89","category_name":"中式素餐馆","address":"黄浦区旧校场路99号(近方浜中路)"},{"poiid":"B2094750D76EA0FF439D","title":"争鲜回转寿司(城隍庙店)","lon":"121.491","lat":"31.2262","category":"95","category_name":"日本料理","address":"黄浦区凝晖路39号(近豫园)"},{"poiid":"B2094654DA6EA5F5459A","title":"宁波汤团店","lon":"121.49182","lat":"31.22629","category":"68","category_name":"快餐厅","address":"黄浦区福佑路238号豫园内"},{"poiid":"B2094757D069A7FF4398","title":"城隍珠宝(福佑路店)","lon":"121.49038","lat":"31.22773","category":"131","category_name":"珠宝首饰工艺品","address":"黄浦区丽水路88号城隍珠宝内(近城隍庙)查看地图"},{"poiid":"B2094655D26EA1FA4293","title":"避风塘福水缘茶楼","lon":"121.48905","lat":"31.22852","category":"66","category_name":"茶艺馆","address":"福佑路333号2层"},{"poiid":"B2094757D069A4FD4292","title":"紫锦城珠宝交易中心","lon":"121.490552","lat":"31.228394","category":"131","category_name":"珠宝首饰工艺品","address":"黄浦区丽水路81号2-6楼(上海老饭店对面)"},{"poiid":"B2094750D36EAAF44699","title":"上海话剧艺术中心","lon":"121.491188","lat":"31.2268","category":"248","category_name":"生活娱乐","address":"安福路288号"},{"poiid":"B2094757D568A4FC459D","title":"豫园鄂尔多斯广场","lon":"121.48942546","lat":"31.22837212","category":"119","category_name":"商场","address":"福佑路333"},{"poiid":"B2094751D364A2FE489E","title":"沉香阁","lon":"121.490036","lat":"31.227","category":"607","category_name":"一般景点","address":"黄浦区沉香阁路29号(近福佑路)"},{"poiid":"B2094757D66DA5FB499E","title":"江氏兄弟桥香园过桥米线","lon":"121.490438738","lat":"31.2277732477","category":"247","category_name":"餐饮美食","address":"上海市方浜中路235号"},{"poiid":"B2094757D16CA5F84192","title":"福都商厦","lon":"121.49040773","lat":"31.229416282","category":"119","category_name":"商场","address":"黄浦区丽水路(近福佑路)"},{"poiid":"B2094757D465A5FF4793","title":"小绍兴 丽水路店","lon":"121.490792054","lat":"31.229288793","category":"68","category_name":"快餐厅","address":"黄浦区丽水路1号悦园商厦6楼六纯香美食港内(丽水路四川南路)"},{"poiid":"B2094654DA6EA4FF469B","title":"福源商厦(北门)","lon":"121.48981","lat":"31.22765","category":"119","category_name":"商场","address":"福佑路338"},{"poiid":"B2094753DB68A3F9469D","title":"上海一九叁三（老场坊）BOBO","lon":"121.48954","lat":"31.227466","category":"247","category_name":"餐饮美食","address":"上海市 上海虹口区溧阳路611号1933老场坊1-305室"},{"poiid":"B2094757D16EA2FE499D","title":"一番屋","lon":"121.48942403","lat":"31.228229857","category":"500","category_name":"未知分类","address":"上海九江路399号"},{"poiid":"B2094750D568A3FF499A","title":"老邻居小吃世界","lon":"121.491","lat":"31.2268","category":"68","category_name":"快餐厅","address":"黄浦区凝晖路31号(近老庙黄金)"},{"poiid":"B2094757D165A5F94899","title":"满园春","lon":"121.49069033","lat":"31.227389439","category":"76","category_name":"上海菜","address":"黄浦区文昌路10号城隍庙内(近旧校场路)"},{"poiid":"B2094751DA6CA0FC469C","title":"东京食尚","lon":"121.488815","lat":"31.227142","category":"247","category_name":"餐饮美食","address":"香港广场B1"},{"poiid":"B2094654DB65A1F54199","title":"南翔馒头店 豫园店","lon":"121.491505","lat":"31.226656","category":"68","category_name":"快餐厅","address":"黄浦区豫园路85号"},{"poiid":"B2094757D06FA1FF4799","title":"豫园","lon":"121.49209476305077","lat":"31.227224682757594","category":"240","category_name":"国家级景点","address":"上海市黄浦区安仁街218号"},{"poiid":"B2094757D065AAF84892","title":"上海老飯店","lon":"121.490577698","lat":"31.2276554108","category":"75","category_name":"浙江菜","address":"黄浦区福佑路242号"},{"poiid":"B2094753D76FAAFA449C","title":"上海滩国泰旗舰店","lon":"121.466011","lat":"31.216125","category":"249","category_name":"购物服务","address":"淮海中路868号"},{"poiid":"B209475CD564A7F84292","title":"上海滩新天地店","lon":"121.47463","lat":"31.22164","category":"119","category_name":"商场","address":"\"太仓路181弄新天地北里15号\r\n\""},{"poiid":"B209475CD564A7F84392","title":"上海滩浦东香格里拉店","lon":"121.50058","lat":"31.23634","category":"119","category_name":"商场","address":"浦东富成路33号香格里拉酒店内大堂层"},{"poiid":"B2094654DB6AA6FF4699","title":"上海豫园万丽酒店","lon":"121.48799","lat":"31.22754","category":"213","category_name":"五星级宾馆","address":"上海黄浦区河南南路159号(近福佑路)"},{"poiid":"B2094757D06FA6F4449A","title":"城隍庙第一购物中心","lon":"121.490396152","lat":"31.229039814","category":"119","category_name":"商场","address":"黄浦区丽水路88号城隍珠宝内(近城隍庙)"},{"poiid":"B2094757D468A6FE4392","title":"星巴克 豫园店 Starbucks Cafe","lon":"121.49193120286","lat":"31.226836909199","category":"65","category_name":"咖啡厅","address":"豫园路100号近福佑路"},{"poiid":"B2094757D66FA6FA459E","title":"城隍庙豫园老街","lon":"121.487217235","lat":"31.2276862092","category":"260","category_name":"其他","address":"上海市黄浦区福佑路"},{"poiid":"B2094654DB6BA4F9449B","title":"豫园老街","lon":"121.49114","lat":"31.22713","category":"116","category_name":"特色商业街","address":"黄浦区福佑路238号豫园内(近河南南路)"},{"poiid":"B2094757D165A6FD409E","title":"外滩二十二号","lon":"121.48842638473934","lat":"31.239447501314032","category":"627","category_name":"一般地点标志","address":"上海市黄埔区中山东一路"},{"poiid":"B2094757D06FA0F5449B","title":"必胜客(丽水店)","lon":"121.490532","lat":"31.228192","category":"94","category_name":"西餐厅","address":"黄浦区丽水路69号(近福佑路)"},{"poiid":"B2094654DB64AAF44592","title":"哈根达斯豫园店","lon":"121.49119","lat":"31.2269","category":"113","category_name":"冷饮店","address":"黄浦区方浜中路168号豫龙坊1楼L122A号商铺(近昼锦路)"},{"poiid":"B2094757D06FA3FC419B","title":"小林煎饼 豫园店","lon":"121.490016054","lat":"31.227538793","category":"67","category_name":"甜品店","address":"黄浦区豫春路9号豫园商城内B室(近老庙黄金广场)"},{"poiid":"B2094757D66FA6FA4898","title":"豫园地铁站","lon":"121.48740085","lat":"31.22813753","category":"36","category_name":"地铁站","address":"上海轨道交通 十号线 轨交豫园站 10"},{"poiid":"B2094654DB65AAF4439B","title":"麦当劳(豫园店)","lon":"121.49037","lat":"31.22825","category":"68","category_name":"快餐厅","address":"黄浦区丽水路88号城隍珠宝内(近城隍庙)"},{"poiid":"B2094654DA6EA5F54399","title":"小世界会所","lon":"121.4914","lat":"31.22774","category":"76","category_name":"上海菜","address":"黄浦区福佑路234号豫园3-4楼"},{"poiid":"B2094750D364A7F44998","title":"上海南京路步行街","lon":"121.488845","lat":"31.22718","category":"249","category_name":"购物服务","address":"黄浦区步行街"},{"poiid":"B2094757D06FA4FE499B","title":"亚一金店(城隍庙店)","lon":"121.49034347","lat":"31.2277079844","category":"131","category_name":"珠宝首饰工艺品","address":"黄浦区福佑路288号(福佑路旧校场路)查看地图"},{"poiid":"B2094757D164AAF8419B","title":"南翔饅頭店-長兴樓","lon":"121.49004573","lat":"31.22789725","category":"500","category_name":"未知分类","address":"上海城隍廟"},{"poiid":"B2094654DA6EA5F54699","title":"豫园商城","lon":"121.49107","lat":"31.22773","category":"119","category_name":"商场","address":"黄浦区方浜中路269号(近城隍庙豫龙坊)"},{"poiid":"B2094757D06FA3FF419C","title":"星巴克 STARBUCKS (豫园二店)","lon":"121.49199","lat":"31.22696","category":"260","category_name":"其他","address":"黄浦区福佑路238号豫园内"},{"poiid":"B2094655D36DA6FF489C","title":"豫-上海","lon":"121.4909","lat":"31.22678","category":"72","category_name":"广东菜","address":"黄浦区旧校场路69号悦宾楼3楼(近沉香阁路)"},{"poiid":"B2094654DB65A1F5419F","title":"湖心亭","lon":"121.49141945573","lat":"31.227068113629","category":"260","category_name":"其他","address":"黄浦区豫园路257号(近九曲桥荷花池)"},{"poiid":"B2094757D068A2FA4192","title":"肯德基 KFC (豫园店)","lon":"121.491322","lat":"31.227603","category":"68","category_name":"快餐厅","address":"黄浦区福佑路234号豫园商城内(近旧校场路)"},{"poiid":"B2094655D26AA4FA479B","title":"万丽轩豫园万丽店","lon":"121.48799","lat":"31.22753","category":"72","category_name":"广东菜","address":"黄浦区河南南路159号豫园万丽大酒店4楼(河南南路吴家弄)"},{"poiid":"B2094757D068A7F8429A","title":"老凤祥银楼(福佑路店)","lon":"121.49116","lat":"31.22737","category":"500","category_name":"未知分类","address":"黄浦区福佑路239号1-3楼(近旧校场路)查看地图"},{"poiid":"B2094654DA6EA5F54992","title":"福佑门小商品市场","lon":"121.48796","lat":"31.22811","category":"120","category_name":"小商品市场","address":"黄浦区福佑路427号(近河南南路)"},{"poiid":"B2094757D06FA1FA449D","title":"城隍庙小商品市场","lon":"121.49124873","lat":"31.226930229","category":"249","category_name":"购物服务","address":"上海福佑路"},{"poiid":"B2094757D06FA4FB4493","title":"黄浦区业余大学","lon":"121.4913","lat":"31.22992","category":"52","category_name":"高等院校","address":"黄浦区四川南路37号(近金陵东路)"},{"poiid":"B2094654DA6EA4FC4399","title":"沈香阁","lon":"121.48999","lat":"31.22723","category":"244","category_name":"寺庙道观","address":"上海黄浦区沉香阁路29号(近福佑路)"},{"poiid":"B2094757D069A0FC4992","title":"松月楼","lon":"121.49108","lat":"31.22666","category":"89","category_name":"中式素餐馆","address":"黄浦区旧校场路99号(近方浜中路)"},{"poiid":"B2094750D76EA0FF439D","title":"争鲜回转寿司(城隍庙店)","lon":"121.491","lat":"31.2262","category":"95","category_name":"日本料理","address":"黄浦区凝晖路39号(近豫园)"},{"poiid":"B2094654DA6EA5F5459A","title":"宁波汤团店","lon":"121.49182","lat":"31.22629","category":"68","category_name":"快餐厅","address":"黄浦区福佑路238号豫园内"},{"poiid":"B2094757D069A7FF4398","title":"城隍珠宝(福佑路店)","lon":"121.49038","lat":"31.22773","category":"131","category_name":"珠宝首饰工艺品","address":"黄浦区丽水路88号城隍珠宝内(近城隍庙)查看地图"},{"poiid":"B2094655D26EA1FA4293","title":"避风塘福水缘茶楼","lon":"121.48905","lat":"31.22852","category":"66","category_name":"茶艺馆","address":"福佑路333号2层"},{"poiid":"B2094757D069A4FD4292","title":"紫锦城珠宝交易中心","lon":"121.490552","lat":"31.228394","category":"131","category_name":"珠宝首饰工艺品","address":"黄浦区丽水路81号2-6楼(上海老饭店对面)"},{"poiid":"B2094750D36EAAF44699","title":"上海话剧艺术中心","lon":"121.491188","lat":"31.2268","category":"248","category_name":"生活娱乐","address":"安福路288号"},{"poiid":"B2094757D568A4FC459D","title":"豫园鄂尔多斯广场","lon":"121.48942546","lat":"31.22837212","category":"119","category_name":"商场","address":"福佑路333"},{"poiid":"B2094751D364A2FE489E","title":"沉香阁","lon":"121.490036","lat":"31.227","category":"607","category_name":"一般景点","address":"黄浦区沉香阁路29号(近福佑路)"},{"poiid":"B2094757D66DA5FB499E","title":"江氏兄弟桥香园过桥米线","lon":"121.490438738","lat":"31.2277732477","category":"247","category_name":"餐饮美食","address":"上海市方浜中路235号"},{"poiid":"B2094757D16CA5F84192","title":"福都商厦","lon":"121.49040773","lat":"31.229416282","category":"119","category_name":"商场","address":"黄浦区丽水路(近福佑路)"},{"poiid":"B2094757D465A5FF4793","title":"小绍兴 丽水路店","lon":"121.490792054","lat":"31.229288793","category":"68","category_name":"快餐厅","address":"黄浦区丽水路1号悦园商厦6楼六纯香美食港内(丽水路四川南路)"},{"poiid":"B2094654DA6EA4FF469B","title":"福源商厦(北门)","lon":"121.48981","lat":"31.22765","category":"119","category_name":"商场","address":"福佑路338"},{"poiid":"B2094753DB68A3F9469D","title":"上海一九叁三（老场坊）BOBO","lon":"121.48954","lat":"31.227466","category":"247","category_name":"餐饮美食","address":"上海市 上海虹口区溧阳路611号1933老场坊1-305室"},{"poiid":"B2094757D16EA2FE499D","title":"一番屋","lon":"121.48942403","lat":"31.228229857","category":"500","category_name":"未知分类","address":"上海九江路399号"},{"poiid":"B2094750D568A3FF499A","title":"老邻居小吃世界","lon":"121.491","lat":"31.2268","category":"68","category_name":"快餐厅","address":"黄浦区凝晖路31号(近老庙黄金)"},{"poiid":"B2094757D165A5F94899","title":"满园春","lon":"121.49069033","lat":"31.227389439","category":"76","category_name":"上海菜","address":"黄浦区文昌路10号城隍庙内(近旧校场路)"},{"poiid":"B2094751DA6CA0FC469C","title":"东京食尚","lon":"121.488815","lat":"31.227142","category":"247","category_name":"餐饮美食","address":"香港广场B1"},{"poiid":"B2094654DB65A1F54199","title":"南翔馒头店 豫园店","lon":"121.491505","lat":"31.226656","category":"68","category_name":"快餐厅","address":"黄浦区豫园路85号"},{"poiid":"B2094757D06FA1FF4799","title":"豫园","lon":"121.49209476305077","lat":"31.227224682757594","category":"240","category_name":"国家级景点","address":"上海市黄浦区安仁街218号"},{"poiid":"B2094757D065AAF84892","title":"上海老飯店","lon":"121.490577698","lat":"31.2276554108","category":"75","category_name":"浙江菜","address":"黄浦区福佑路242号"},{"poiid":"B2094753D76FAAFA449C","title":"上海滩国泰旗舰店","lon":"121.466011","lat":"31.216125","category":"249","category_name":"购物服务","address":"淮海中路868号"},{"poiid":"B209475CD564A7F84292","title":"上海滩新天地店","lon":"121.47463","lat":"31.22164","category":"119","category_name":"商场","address":"\"太仓路181弄新天地北里15号\r\n\""},{"poiid":"B209475CD564A7F84392","title":"上海滩浦东香格里拉店","lon":"121.50058","lat":"31.23634","category":"119","category_name":"商场","address":"浦东富成路33号香格里拉酒店内大堂层"},{"poiid":"B2094654DB6AA6FF4699","title":"上海豫园万丽酒店","lon":"121.48799","lat":"31.22754","category":"213","category_name":"五星级宾馆","address":"上海黄浦区河南南路159号(近福佑路)"},{"poiid":"B2094757D06FA6F4449A","title":"城隍庙第一购物中心","lon":"121.490396152","lat":"31.229039814","category":"119","category_name":"商场","address":"黄浦区丽水路88号城隍珠宝内(近城隍庙)"},{"poiid":"B2094757D468A6FE4392","title":"星巴克 豫园店 Starbucks Cafe","lon":"121.49193120286","lat":"31.226836909199","category":"65","category_name":"咖啡厅","address":"豫园路100号近福佑路"},{"poiid":"B2094757D66FA6FA459E","title":"城隍庙豫园老街","lon":"121.487217235","lat":"31.2276862092","category":"260","category_name":"其他","address":"上海市黄浦区福佑路"},{"poiid":"B2094654DB6BA4F9449B","title":"豫园老街","lon":"121.49114","lat":"31.22713","category":"116","category_name":"特色商业街","address":"黄浦区福佑路238号豫园内(近河南南路)"},{"poiid":"B2094757D165A6FD409E","title":"外滩二十二号","lon":"121.48842638473934","lat":"31.239447501314032","category":"627","category_name":"一般地点标志","address":"上海市黄埔区中山东一路"},{"poiid":"B2094757D06FA0F5449B","title":"必胜客(丽水店)","lon":"121.490532","lat":"31.228192","category":"94","category_name":"西餐厅","address":"黄浦区丽水路69号(近福佑路)"},{"poiid":"B2094654DB64AAF44592","title":"哈根达斯豫园店","lon":"121.49119","lat":"31.2269","category":"113","category_name":"冷饮店","address":"黄浦区方浜中路168号豫龙坊1楼L122A号商铺(近昼锦路)"},{"poiid":"B2094757D06FA3FC419B","title":"小林煎饼 豫园店","lon":"121.490016054","lat":"31.227538793","category":"67","category_name":"甜品店","address":"黄浦区豫春路9号豫园商城内B室(近老庙黄金广场)"},{"poiid":"B2094757D66FA6FA4898","title":"豫园地铁站","lon":"121.48740085","lat":"31.22813753","category":"36","category_name":"地铁站","address":"上海轨道交通 十号线 轨交豫园站 10"},{"poiid":"B2094654DB65AAF4439B","title":"麦当劳(豫园店)","lon":"121.49037","lat":"31.22825","category":"68","category_name":"快餐厅","address":"黄浦区丽水路88号城隍珠宝内(近城隍庙)"},{"poiid":"B2094654DA6EA5F54399","title":"小世界会所","lon":"121.4914","lat":"31.22774","category":"76","category_name":"上海菜","address":"黄浦区福佑路234号豫园3-4楼"},{"poiid":"B2094750D364A7F44998","title":"上海南京路步行街","lon":"121.488845","lat":"31.22718","category":"249","category_name":"购物服务","address":"黄浦区步行街"},{"poiid":"B2094757D06FA4FE499B","title":"亚一金店(城隍庙店)","lon":"121.49034347","lat":"31.2277079844","category":"131","category_name":"珠宝首饰工艺品","address":"黄浦区福佑路288号(福佑路旧校场路)查看地图"},{"poiid":"B2094757D164AAF8419B","title":"南翔饅頭店-長兴樓","lon":"121.49004573","lat":"31.22789725","category":"500","category_name":"未知分类","address":"上海城隍廟"},{"poiid":"B2094654DA6EA5F54699","title":"豫园商城","lon":"121.49107","lat":"31.22773","category":"119","category_name":"商场","address":"黄浦区方浜中路269号(近城隍庙豫龙坊)"},{"poiid":"B2094757D06FA3FF419C","title":"星巴克 STARBUCKS (豫园二店)","lon":"121.49199","lat":"31.22696","category":"260","category_name":"其他","address":"黄浦区福佑路238号豫园内"},{"poiid":"B2094655D36DA6FF489C","title":"豫-上海","lon":"121.4909","lat":"31.22678","category":"72","category_name":"广东菜","address":"黄浦区旧校场路69号悦宾楼3楼(近沉香阁路)"},{"poiid":"B2094654DB65A1F5419F","title":"湖心亭","lon":"121.49141945573","lat":"31.227068113629","category":"260","category_name":"其他","address":"黄浦区豫园路257号(近九曲桥荷花池)"},{"poiid":"B2094757D068A2FA4192","title":"肯德基 KFC (豫园店)","lon":"121.491322","lat":"31.227603","category":"68","category_name":"快餐厅","address":"黄浦区福佑路234号豫园商城内(近旧校场路)"},{"poiid":"B2094655D26AA4FA479B","title":"万丽轩豫园万丽店","lon":"121.48799","lat":"31.22753","category":"72","category_name":"广东菜","address":"黄浦区河南南路159号豫园万丽大酒店4楼(河南南路吴家弄)"},{"poiid":"B2094757D068A7F8429A","title":"老凤祥银楼(福佑路店)","lon":"121.49116","lat":"31.22737","category":"500","category_name":"未知分类","address":"黄浦区福佑路239号1-3楼(近旧校场路)查看地图"},{"poiid":"B2094654DA6EA5F54992","title":"福佑门小商品市场","lon":"121.48796","lat":"31.22811","category":"120","category_name":"小商品市场","address":"黄浦区福佑路427号(近河南南路)"},{"poiid":"B2094757D06FA1FA449D","title":"城隍庙小商品市场","lon":"121.49124873","lat":"31.226930229","category":"249","category_name":"购物服务","address":"上海福佑路"},{"poiid":"B2094757D06FA4FB4493","title":"黄浦区业余大学","lon":"121.4913","lat":"31.22992","category":"52","category_name":"高等院校","address":"黄浦区四川南路37号(近金陵东路)"},{"poiid":"B2094654DA6EA4FC4399","title":"沈香阁","lon":"121.48999","lat":"31.22723","category":"244","category_name":"寺庙道观","address":"上海黄浦区沉香阁路29号(近福佑路)"},{"poiid":"B2094757D069A0FC4992","title":"松月楼","lon":"121.49108","lat":"31.22666","category":"89","category_name":"中式素餐馆","address":"黄浦区旧校场路99号(近方浜中路)"},{"poiid":"B2094750D76EA0FF439D","title":"争鲜回转寿司(城隍庙店)","lon":"121.491","lat":"31.2262","category":"95","category_name":"日本料理","address":"黄浦区凝晖路39号(近豫园)"},{"poiid":"B2094654DA6EA5F5459A","title":"宁波汤团店","lon":"121.49182","lat":"31.22629","category":"68","category_name":"快餐厅","address":"黄浦区福佑路238号豫园内"},{"poiid":"B2094757D069A7FF4398","title":"城隍珠宝(福佑路店)","lon":"121.49038","lat":"31.22773","category":"131","category_name":"珠宝首饰工艺品","address":"黄浦区丽水路88号城隍珠宝内(近城隍庙)查看地图"},{"poiid":"B2094655D26EA1FA4293","title":"避风塘福水缘茶楼","lon":"121.48905","lat":"31.22852","category":"66","category_name":"茶艺馆","address":"福佑路333号2层"},{"poiid":"B2094757D069A4FD4292","title":"紫锦城珠宝交易中心","lon":"121.490552","lat":"31.228394","category":"131","category_name":"珠宝首饰工艺品","address":"黄浦区丽水路81号2-6楼(上海老饭店对面)"},{"poiid":"B2094750D36EAAF44699","title":"上海话剧艺术中心","lon":"121.491188","lat":"31.2268","category":"248","category_name":"生活娱乐","address":"安福路288号"},{"poiid":"B2094757D568A4FC459D","title":"豫园鄂尔多斯广场","lon":"121.48942546","lat":"31.22837212","category":"119","category_name":"商场","address":"福佑路333"},{"poiid":"B2094751D364A2FE489E","title":"沉香阁","lon":"121.490036","lat":"31.227","category":"607","category_name":"一般景点","address":"黄浦区沉香阁路29号(近福佑路)"},{"poiid":"B2094757D66DA5FB499E","title":"江氏兄弟桥香园过桥米线","lon":"121.490438738","lat":"31.2277732477","category":"247","category_name":"餐饮美食","address":"上海市方浜中路235号"},{"poiid":"B2094757D16CA5F84192","title":"福都商厦","lon":"121.49040773","lat":"31.229416282","category":"119","category_name":"商场","address":"黄浦区丽水路(近福佑路)"},{"poiid":"B2094757D465A5FF4793","title":"小绍兴 丽水路店","lon":"121.490792054","lat":"31.229288793","category":"68","category_name":"快餐厅","address":"黄浦区丽水路1号悦园商厦6楼六纯香美食港内(丽水路四川南路)"},{"poiid":"B2094654DA6EA4FF469B","title":"福源商厦(北门)","lon":"121.48981","lat":"31.22765","category":"119","category_name":"商场","address":"福佑路338"},{"poiid":"B2094753DB68A3F9469D","title":"上海一九叁三（老场坊）BOBO","lon":"121.48954","lat":"31.227466","category":"247","category_name":"餐饮美食","address":"上海市 上海虹口区溧阳路611号1933老场坊1-305室"},{"poiid":"B2094757D16EA2FE499D","title":"一番屋","lon":"121.48942403","lat":"31.228229857","category":"500","category_name":"未知分类","address":"上海九江路399号"},{"poiid":"B2094750D568A3FF499A","title":"老邻居小吃世界","lon":"121.491","lat":"31.2268","category":"68","category_name":"快餐厅","address":"黄浦区凝晖路31号(近老庙黄金)"},{"poiid":"B2094757D165A5F94899","title":"满园春","lon":"121.49069033","lat":"31.227389439","category":"76","category_name":"上海菜","address":"黄浦区文昌路10号城隍庙内(近旧校场路)"},{"poiid":"B2094751DA6CA0FC469C","title":"东京食尚","lon":"121.488815","lat":"31.227142","category":"247","category_name":"餐饮美食","address":"香港广场B1"},{"poiid":"B2094654DB65A1F54199","title":"南翔馒头店 豫园店","lon":"121.491505","lat":"31.226656","category":"68","category_name":"快餐厅","address":"黄浦区豫园路85号"},{"poiid":"B2094757D06FA1FF4799","title":"豫园","lon":"121.49209476305077","lat":"31.227224682757594","category":"240","category_name":"国家级景点","address":"上海市黄浦区安仁街218号"},{"poiid":"B2094757D065AAF84892","title":"上海老飯店","lon":"121.490577698","lat":"31.2276554108","category":"75","category_name":"浙江菜","address":"黄浦区福佑路242号"},{"poiid":"B2094753D76FAAFA449C","title":"上海滩国泰旗舰店","lon":"121.466011","lat":"31.216125","category":"249","category_name":"购物服务","address":"淮海中路868号"},{"poiid":"B209475CD564A7F84292","title":"上海滩新天地店","lon":"121.47463","lat":"31.22164","category":"119","category_name":"商场","address":"\"太仓路181弄新天地北里15号\r\n\""},{"poiid":"B209475CD564A7F84392","title":"上海滩浦东香格里拉店","lon":"121.50058","lat":"31.23634","category":"119","category_name":"商场","address":"浦东富成路33号香格里拉酒店内大堂层"},{"poiid":"B2094654DB6AA6FF4699","title":"上海豫园万丽酒店","lon":"121.48799","lat":"31.22754","category":"213","category_name":"五星级宾馆","address":"上海黄浦区河南南路159号(近福佑路)"},{"poiid":"B2094757D06FA6F4449A","title":"城隍庙第一购物中心","lon":"121.490396152","lat":"31.229039814","category":"119","category_name":"商场","address":"黄浦区丽水路88号城隍珠宝内(近城隍庙)"},{"poiid":"B2094757D468A6FE4392","title":"星巴克 豫园店 Starbucks Cafe","lon":"121.49193120286","lat":"31.226836909199","category":"65","category_name":"咖啡厅","address":"豫园路100号近福佑路"},{"poiid":"B2094757D66FA6FA459E","title":"城隍庙豫园老街","lon":"121.487217235","lat":"31.2276862092","category":"260","category_name":"其他","address":"上海市黄浦区福佑路"},{"poiid":"B2094654DB6BA4F9449B","title":"豫园老街","lon":"121.49114","lat":"31.22713","category":"116","category_name":"特色商业街","address":"黄浦区福佑路238号豫园内(近河南南路)"},{"poiid":"B2094757D165A6FD409E","title":"外滩二十二号","lon":"121.48842638473934","lat":"31.239447501314032","category":"627","category_name":"一般地点标志","address":"上海市黄埔区中山东一路"},{"poiid":"B2094757D06FA0F5449B","title":"必胜客(丽水店)","lon":"121.490532","lat":"31.228192","category":"94","category_name":"西餐厅","address":"黄浦区丽水路69号(近福佑路)"},{"poiid":"B2094654DB64AAF44592","title":"哈根达斯豫园店","lon":"121.49119","lat":"31.2269","category":"113","category_name":"冷饮店","address":"黄浦区方浜中路168号豫龙坊1楼L122A号商铺(近昼锦路)"},{"poiid":"B2094757D06FA3FC419B","title":"小林煎饼 豫园店","lon":"121.490016054","lat":"31.227538793","category":"67","category_name":"甜品店","address":"黄浦区豫春路9号豫园商城内B室(近老庙黄金广场)"},{"poiid":"B2094757D66FA6FA4898","title":"豫园地铁站","lon":"121.48740085","lat":"31.22813753","category":"36","category_name":"地铁站","address":"上海轨道交通 十号线 轨交豫园站 10"},{"poiid":"B2094654DB65AAF4439B","title":"麦当劳(豫园店)","lon":"121.49037","lat":"31.22825","category":"68","category_name":"快餐厅","address":"黄浦区丽水路88号城隍珠宝内(近城隍庙)"},{"poiid":"B2094654DA6EA5F54399","title":"小世界会所","lon":"121.4914","lat":"31.22774","category":"76","category_name":"上海菜","address":"黄浦区福佑路234号豫园3-4楼"},{"poiid":"B2094750D364A7F44998","title":"上海南京路步行街","lon":"121.488845","lat":"31.22718","category":"249","category_name":"购物服务","address":"黄浦区步行街"},{"poiid":"B2094757D06FA4FE499B","title":"亚一金店(城隍庙店)","lon":"121.49034347","lat":"31.2277079844","category":"131","category_name":"珠宝首饰工艺品","address":"黄浦区福佑路288号(福佑路旧校场路)查看地图"},{"poiid":"B2094757D164AAF8419B","title":"南翔饅頭店-長兴樓","lon":"121.49004573","lat":"31.22789725","category":"500","category_name":"未知分类","address":"上海城隍廟"},{"poiid":"B2094654DA6EA5F54699","title":"豫园商城","lon":"121.49107","lat":"31.22773","category":"119","category_name":"商场","address":"黄浦区方浜中路269号(近城隍庙豫龙坊)"},{"poiid":"B2094757D06FA3FF419C","title":"星巴克 STARBUCKS (豫园二店)","lon":"121.49199","lat":"31.22696","category":"260","category_name":"其他","address":"黄浦区福佑路238号豫园内"},{"poiid":"B2094655D36DA6FF489C","title":"豫-上海","lon":"121.4909","lat":"31.22678","category":"72","category_name":"广东菜","address":"黄浦区旧校场路69号悦宾楼3楼(近沉香阁路)"},{"poiid":"B2094654DB65A1F5419F","title":"湖心亭","lon":"121.49141945573","lat":"31.227068113629","category":"260","category_name":"其他","address":"黄浦区豫园路257号(近九曲桥荷花池)"},{"poiid":"B2094757D068A2FA4192","title":"肯德基 KFC (豫园店)","lon":"121.491322","lat":"31.227603","category":"68","category_name":"快餐厅","address":"黄浦区福佑路234号豫园商城内(近旧校场路)"},{"poiid":"B2094655D26AA4FA479B","title":"万丽轩豫园万丽店","lon":"121.48799","lat":"31.22753","category":"72","category_name":"广东菜","address":"黄浦区河南南路159号豫园万丽大酒店4楼(河南南路吴家弄)"},{"poiid":"B2094757D068A7F8429A","title":"老凤祥银楼(福佑路店)","lon":"121.49116","lat":"31.22737","category":"500","category_name":"未知分类","address":"黄浦区福佑路239号1-3楼(近旧校场路)查看地图"},{"poiid":"B2094654DA6EA5F54992","title":"福佑门小商品市场","lon":"121.48796","lat":"31.22811","category":"120","category_name":"小商品市场","address":"黄浦区福佑路427号(近河南南路)"},{"poiid":"B2094757D06FA1FA449D","title":"城隍庙小商品市场","lon":"121.49124873","lat":"31.226930229","category":"249","category_name":"购物服务","address":"上海福佑路"},{"poiid":"B2094757D06FA4FB4493","title":"黄浦区业余大学","lon":"121.4913","lat":"31.22992","category":"52","category_name":"高等院校","address":"黄浦区四川南路37号(近金陵东路)"},{"poiid":"B2094654DA6EA4FC4399","title":"沈香阁","lon":"121.48999","lat":"31.22723","category":"244","category_name":"寺庙道观","address":"上海黄浦区沉香阁路29号(近福佑路)"},{"poiid":"B2094757D069A0FC4992","title":"松月楼","lon":"121.49108","lat":"31.22666","category":"89","category_name":"中式素餐馆","address":"黄浦区旧校场路99号(近方浜中路)"},{"poiid":"B2094750D76EA0FF439D","title":"争鲜回转寿司(城隍庙店)","lon":"121.491","lat":"31.2262","category":"95","category_name":"日本料理","address":"黄浦区凝晖路39号(近豫园)"},{"poiid":"B2094654DA6EA5F5459A","title":"宁波汤团店","lon":"121.49182","lat":"31.22629","category":"68","category_name":"快餐厅","address":"黄浦区福佑路238号豫园内"},{"poiid":"B2094757D069A7FF4398","title":"城隍珠宝(福佑路店)","lon":"121.49038","lat":"31.22773","category":"131","category_name":"珠宝首饰工艺品","address":"黄浦区丽水路88号城隍珠宝内(近城隍庙)查看地图"},{"poiid":"B2094655D26EA1FA4293","title":"避风塘福水缘茶楼","lon":"121.48905","lat":"31.22852","category":"66","category_name":"茶艺馆","address":"福佑路333号2层"},{"poiid":"B2094757D069A4FD4292","title":"紫锦城珠宝交易中心","lon":"121.490552","lat":"31.228394","category":"131","category_name":"珠宝首饰工艺品","address":"黄浦区丽水路81号2-6楼(上海老饭店对面)"},{"poiid":"B2094750D36EAAF44699","title":"上海话剧艺术中心","lon":"121.491188","lat":"31.2268","category":"248","category_name":"生活娱乐","address":"安福路288号"},{"poiid":"B2094757D568A4FC459D","title":"豫园鄂尔多斯广场","lon":"121.48942546","lat":"31.22837212","category":"119","category_name":"商场","address":"福佑路333"},{"poiid":"B2094751D364A2FE489E","title":"沉香阁","lon":"121.490036","lat":"31.227","category":"607","category_name":"一般景点","address":"黄浦区沉香阁路29号(近福佑路)"},{"poiid":"B2094757D66DA5FB499E","title":"江氏兄弟桥香园过桥米线","lon":"121.490438738","lat":"31.2277732477","category":"247","category_name":"餐饮美食","address":"上海市方浜中路235号"},{"poiid":"B2094757D16CA5F84192","title":"福都商厦","lon":"121.49040773","lat":"31.229416282","category":"119","category_name":"商场","address":"黄浦区丽水路(近福佑路)"},{"poiid":"B2094757D465A5FF4793","title":"小绍兴 丽水路店","lon":"121.490792054","lat":"31.229288793","category":"68","category_name":"快餐厅","address":"黄浦区丽水路1号悦园商厦6楼六纯香美食港内(丽水路四川南路)"},{"poiid":"B2094654DA6EA4FF469B","title":"福源商厦(北门)","lon":"121.48981","lat":"31.22765","category":"119","category_name":"商场","address":"福佑路338"},{"poiid":"B2094753DB68A3F9469D","title":"上海一九叁三（老场坊）BOBO","lon":"121.48954","lat":"31.227466","category":"247","category_name":"餐饮美食","address":"上海市 上海虹口区溧阳路611号1933老场坊1-305室"},{"poiid":"B2094757D16EA2FE499D","title":"一番屋","lon":"121.48942403","lat":"31.228229857","category":"500","category_name":"未知分类","address":"上海九江路399号"},{"poiid":"B2094750D568A3FF499A","title":"老邻居小吃世界","lon":"121.491","lat":"31.2268","category":"68","category_name":"快餐厅","address":"黄浦区凝晖路31号(近老庙黄金)"},{"poiid":"B2094757D165A5F94899","title":"满园春","lon":"121.49069033","lat":"31.227389439","category":"76","category_name":"上海菜","address":"黄浦区文昌路10号城隍庙内(近旧校场路)"},{"poiid":"B2094751DA6CA0FC469C","title":"东京食尚","lon":"121.488815","lat":"31.227142","category":"247","category_name":"餐饮美食","address":"香港广场B1"}]