[{"poiid":"B2094757D06FA7F94692","title":"唐宫壹号(虹许路店)","lon":"121.39554","lat":"31.18129","category":"72","category_name":"广东菜","address":"闵行区虹许路358号天禧嘉福璞缇客酒店2楼(近吴中路)"},{"poiid":"B2094757D06FA6FF459F","title":"上井(吴中店)","lon":"121.39815","lat":"31.18179","category":"95","category_name":"日本料理","address":"闵行区吴中路638号(近虹许路)"},{"poiid":"B2094757D06FA6FF429C","title":"天禧嘉福璞缇客酒店","lon":"121.39571","lat":"31.18139","category":"217","category_name":"旅馆招待所","address":"上海市闵行区虹许路358号(虹桥地区,吴中路口)"},{"poiid":"B2094654DB6AA6FF4593","title":"上海大众美林阁大酒店","lon":"121.39614","lat":"31.18052","category":"213","category_name":"五星级宾馆","address":"上海市闵行区吴中路699号(吴中路虹许路口)"},{"poiid":"B2094757D16EABFD4198","title":"老外街","lon":"121.392657","lat":"31.180644","category":"116","category_name":"特色商业街","address":"上海虹梅路"},{"poiid":"B2094757D06FA0F4449F","title":"吴中路","lon":"121.393310547","lat":"31.1797122955","category":"500","category_name":"未知分类","address":"上海市吴中路"},{"poiid":"B2094757D06FA1F9439C","title":"美林阁(吴中路店)","lon":"121.3961","lat":"31.18063","category":"76","category_name":"上海菜","address":"闵行区吴中路699号美林阁大酒店1-2楼(近虹许路)"},{"poiid":"B2094654D564A2FA429A","title":"虹桥盛世莲花广场","lon":"121.395","lat":"31.1835","category":"119","category_name":"商场","address":"吴中路1050弄"},{"poiid":"B2094757D068A5F4419A","title":"上海爱信诺航天信息有限公司","lon":"121.399977617","lat":"31.1777739822","category":"46","category_name":"楼宇","address":"上海徐汇区钦州北路1198号82栋"},{"poiid":"B2094757D06FA5F54392","title":"闵行区牙病防治所","lon":"121.39264","lat":"31.17916","category":"162","category_name":"医院","address":"闵行区吴中路829号(近虹梅路)"},{"poiid":"B2094757D069A3FB4999","title":"沈记靓汤(虹许店)","lon":"121.3952","lat":"31.18143","category":"76","category_name":"上海菜","address":"闵行区虹许路368号东侧1-2楼(近吴中路)"},{"poiid":"B2094757D06FA4FE4792","title":"虹桥镇","lon":"121.392628","lat":"31.181317","category":"500","category_name":"未知分类","address":"上海虹梅路吴中路"},{"poiid":"B2094757D068A4FF429C","title":"669音乐生态餐厅","lon":"121.397555733","lat":"31.1744916934","category":"91","category_name":"台湾菜","address":"徐汇区桂果路669号(近钦江路)"},{"poiid":"B2094757D069A6F5469C","title":"豪元轩","lon":"121.39341","lat":"31.18455","category":"72","category_name":"广东菜","address":"闵行区虹许路366号(近吴中路)"},{"poiid":"B2094757D66EA5FE459A","title":"潮州府砂锅粥","lon":"121.396678","lat":"31.181774","category":"72","category_name":"广东菜","address":"闵行区吴中路682号金虹桥广场(近中环)"},{"poiid":"B2094757D069A4F54293","title":"幸河日本料理","lon":"121.39766","lat":"31.18169","category":"268","category_name":"自助","address":"闵行区吴中路668号(近虹许路)"},{"poiid":"B2094757D465A0FA4893","title":"天禧嘉福璞缇客酒店咖啡厅","lon":"121.39496420445","lat":"31.180596255007","category":"65","category_name":"咖啡厅","address":"闵行区虹许路358号天禧嘉福璞缇客酒店1楼(近吴中路)"},{"poiid":"B2094757DA6EAAF5499E","title":"肯德基(虹桥机场二店)","lon":"121.394481","lat":"31.1795100000002","category":"68","category_name":"快餐厅","address":"闵行区吴中路781号(近虹梅路)"},{"poiid":"B2094757D16FA0FB4593","title":"中环路吴中路出入口","lon":"121.395128541","lat":"31.1801158149","category":"260","category_name":"其他","address":"上海中环路吴中路出入口"},{"poiid":"B2094757D16CA5F8409D","title":"苏宁电器闵行第一店","lon":"121.394157386","lat":"31.1817534833","category":"138","category_name":"家电电子卖场","address":"上海中环线吴中路路口"},{"poiid":"B2094757D168A5FB499A","title":"小吉士","lon":"121.396904586","lat":"31.181888486","category":"76","category_name":"上海菜","address":"闵行区吴中路682号金虹桥广场(近中环)"},{"poiid":"B2094750D768AAFC499B","title":"鱼町居酒屋","lon":"121.393","lat":"31.1813","category":"268","category_name":"自助","address":"闵行区虹梅路2988号(吴中路口)"},{"poiid":"B2094757D065A1FD459C","title":"豪享来上海吴中店","lon":"121.3962","lat":"31.1815","category":"247","category_name":"餐饮美食","address":"上海市闵行区吴中路695号"},{"poiid":"B2094655D268A7F8499D","title":"天鸿公寓","lon":"121.39669","lat":"31.178585","category":"47","category_name":"住宅区","address":"上海市闵行区吴中路677弄99支弄"},{"poiid":"B2094654D56BAAFD4592","title":"上海漕河泾开发区智汇园A座","lon":"121.40055","lat":"31.17803","category":"46","category_name":"楼宇","address":"钦州北路1198"},{"poiid":"B2094654D564A1FA429B","title":"苹果园","lon":"121.397","lat":"31.1812","category":"47","category_name":"住宅区","address":"苹果园位于长宁虹桥环镇南路88弄"},{"poiid":"B2094654D56BAAFF429F","title":"旅专小区","lon":"121.39656","lat":"31.179976","category":"47","category_name":"住宅区","address":"吴中路689弄1-15号"},{"poiid":"B2094654DB65A1FF449B","title":"祥利港式茶餐厅","lon":"121.39521691359","lat":"31.181161131988","category":"72","category_name":"广东菜","address":"闵行区吴中路686弄2号金虹桥广场1楼E1(近虹许路)"},{"poiid":"B2094655D26FABF8489A","title":"万源新城","lon":"121.393","lat":"31.1769","category":"47","category_name":"住宅区","address":"万源路2289弄1-39号"},{"poiid":"B2094655D26AA6F4479A","title":"天圣酸菜鱼火锅 吴中路店","lon":"121.3954705076","lat":"31.181120220201","category":"86","category_name":"火锅店","address":"闵行区吴中路685号(近虹许路)"},{"poiid":"B2094757D16CA4F9489E","title":"虹桥阳光翠庭","lon":"121.395236","lat":"31.178899","category":"47","category_name":"住宅区","address":"上海市闵行区莲花路2150弄"},{"poiid":"B2094654DB6AA7F54298","title":"安本寿司","lon":"121.39239545898","lat":"31.180410462514","category":"95","category_name":"日本料理","address":"闵行区虹梅路2971号2楼(近吴中路)"},{"poiid":"B2094757D068A2F94499","title":"漕河泾开发区智汇园","lon":"121.399838","lat":"31.177512","category":"260","category_name":"其他","address":"上海徐汇区钦州北路1199号"},{"poiid":"B2094757D06AA7FB409F","title":"上海虹梅嘉廷酒店","lon":"121.39176158","lat":"31.181038469","category":"217","category_name":"旅馆招待所","address":"闵行区虹梅路2975号(近吴中路)"},{"poiid":"B2094655D268A4FC4593","title":"快客No.5225","lon":"121.39748","lat":"31.1787","category":"117","category_name":"便民商店/便利店","address":""},{"poiid":"B2094757D56CA2F5439E","title":"千鹤居日本料理 吴中路店","lon":"121.39488178291","lat":"31.180961264102","category":"247","category_name":"餐饮美食","address":"吴中路682号金虹桥广场2楼B室近虹许路"},{"poiid":"B2094757D16CAAFA4099","title":"鱼町","lon":"121.392732","lat":"31.181533","category":"500","category_name":"未知分类","address":"上海虹梅路2988号"},{"poiid":"B2094655D26EA6FF449B","title":"汉庭快捷酒店(上海古北店)","lon":"121.39782","lat":"31.18262","category":"216","category_name":"经济型连锁酒店","address":"闵行区吴中路638号(近虹许路)"},{"poiid":"B2094757D16CA3F8499B","title":"大庄源","lon":"121.392953","lat":"31.180254","category":"76","category_name":"上海菜","address":"闵行区虹梅路2975号2楼(近吴中路)"},{"poiid":"B2094655D268A3FD4593","title":"旅专小区(东门)","lon":"121.39696","lat":"31.18024","category":"47","category_name":"住宅区","address":"吴中路689弄1-15号"},{"poiid":"B2094757D06BA2FE4799","title":"明申花园","lon":"121.39806","lat":"31.181097","category":"252","category_name":"楼宇机构","address":"上海市闵行区吴中路630号"},{"poiid":"B2094654D564A1FF409C","title":"虹桥社区卫生服务中心","lon":"121.39252","lat":"31.17943","category":"162","category_name":"医院","address":"吴中路829"},{"poiid":"B2094655D265A4FF469A","title":"虹桥晶典苑","lon":"121.394","lat":"31.180029","category":"47","category_name":"住宅区","address":"闵行区虹梅路2838弄"},{"poiid":"B2094757D064A5FD4693","title":"HOME CAFE","lon":"121.39361","lat":"31.17918","category":"260","category_name":"其他","address":"闵行区虹梅路2915号虹桥首席1楼(近吴中路)"},{"poiid":"B2094654D564A2F54093","title":"友联生煎大王 虹桥店","lon":"121.392828054","lat":"31.180425793","category":"68","category_name":"快餐厅","address":"闵行区虹梅路806号(近吴中路)"},{"poiid":"B2094654DB6AA7F5489D","title":"虹桥首席-东苑怡和苑","lon":"121.39362","lat":"31.17879","category":"47","category_name":"住宅区","address":"虹桥首席―东苑怡和苑位于闵行虹梅路2899弄"},{"poiid":"B2094757D06AABFF469E","title":"秘密花园","lon":"121.39619958","lat":"31.177783405","category":"47","category_name":"住宅区","address":"上海市闵行区吴中路"},{"poiid":"B2094655D26DA0FA4492","title":"明申花园(西门)","lon":"121.39714","lat":"31.18063","category":"47","category_name":"住宅区","address":""},{"poiid":"B2094751D36DA4FC419F","title":"振鼎鸡(吴中路店)","lon":"121.393","lat":"31.1798","category":"68","category_name":"快餐厅","address":"闵行区吴中路819号(近虹梅路)"},{"poiid":"B2094757D465A0F44893","title":"鹊尔斯酒窖 Cheers Wine Cellars","lon":"121.393417054","lat":"31.178986793","category":"68","category_name":"快餐厅","address":"闵行区虹梅路3215弄201号A幢(近红松路)"},{"poiid":"B2094757D06FA7F94692","title":"唐宫壹号(虹许路店)","lon":"121.39554","lat":"31.18129","category":"72","category_name":"广东菜","address":"闵行区虹许路358号天禧嘉福璞缇客酒店2楼(近吴中路)"},{"poiid":"B2094757D06FA6FF459F","title":"上井(吴中店)","lon":"121.39815","lat":"31.18179","category":"95","category_name":"日本料理","address":"闵行区吴中路638号(近虹许路)"},{"poiid":"B2094757D06FA6FF429C","title":"天禧嘉福璞缇客酒店","lon":"121.39571","lat":"31.18139","category":"217","category_name":"旅馆招待所","address":"上海市闵行区虹许路358号(虹桥地区,吴中路口)"},{"poiid":"B2094654DB6AA6FF4593","title":"上海大众美林阁大酒店","lon":"121.39614","lat":"31.18052","category":"213","category_name":"五星级宾馆","address":"上海市闵行区吴中路699号(吴中路虹许路口)"},{"poiid":"B2094757D16EABFD4198","title":"老外街","lon":"121.392657","lat":"31.180644","category":"116","category_name":"特色商业街","address":"上海虹梅路"},{"poiid":"B2094757D06FA0F4449F","title":"吴中路","lon":"121.393310547","lat":"31.1797122955","category":"500","category_name":"未知分类","address":"上海市吴中路"},{"poiid":"B2094757D06FA1F9439C","title":"美林阁(吴中路店)","lon":"121.3961","lat":"31.18063","category":"76","category_name":"上海菜","address":"闵行区吴中路699号美林阁大酒店1-2楼(近虹许路)"},{"poiid":"B2094654D564A2FA429A","title":"虹桥盛世莲花广场","lon":"121.395","lat":"31.1835","category":"119","category_name":"商场","address":"吴中路1050弄"},{"poiid":"B2094757D068A5F4419A","title":"上海爱信诺航天信息有限公司","lon":"121.399977617","lat":"31.1777739822","category":"46","category_name":"楼宇","address":"上海徐汇区钦州北路1198号82栋"},{"poiid":"B2094757D06FA5F54392","title":"闵行区牙病防治所","lon":"121.39264","lat":"31.17916","category":"162","category_name":"医院","address":"闵行区吴中路829号(近虹梅路)"},{"poiid":"B2094757D069A3FB4999","title":"沈记靓汤(虹许店)","lon":"121.3952","lat":"31.18143","category":"76","category_name":"上海菜","address":"闵行区虹许路368号东侧1-2楼(近吴中路)"},{"poiid":"B2094757D06FA4FE4792","title":"虹桥镇","lon":"121.392628","lat":"31.181317","category":"500","category_name":"未知分类","address":"上海虹梅路吴中路"},{"poiid":"B2094757D068A4FF429C","title":"669音乐生态餐厅","lon":"121.397555733","lat":"31.1744916934","category":"91","category_name":"台湾菜","address":"徐汇区桂果路669号(近钦江路)"},{"poiid":"B2094757D069A6F5469C","title":"豪元轩","lon":"121.39341","lat":"31.18455","category":"72","category_name":"广东菜","address":"闵行区虹许路366号(近吴中路)"},{"poiid":"B2094757D66EA5FE459A","title":"潮州府砂锅粥","lon":"121.396678","lat":"31.181774","category":"72","category_name":"广东菜","address":"闵行区吴中路682号金虹桥广场(近中环)"},{"poiid":"B2094757D069A4F54293","title":"幸河日本料理","lon":"121.39766","lat":"31.18169","category":"268","category_name":"自助","address":"闵行区吴中路668号(近虹许路)"},{"poiid":"B2094757D465A0FA4893","title":"天禧嘉福璞缇客酒店咖啡厅","lon":"121.39496420445","lat":"31.180596255007","category":"65","category_name":"咖啡厅","address":"闵行区虹许路358号天禧嘉福璞缇客酒店1楼(近吴中路)"},{"poiid":"B2094757DA6EAAF5499E","title":"肯德基(虹桥机场二店)","lon":"121.394481","lat":"31.1795100000002","category":"68","category_name":"快餐厅","address":"闵行区吴中路781号(近虹梅路)"},{"poiid":"B2094757D16FA0FB4593","title":"中环路吴中路出入口","lon":"121.395128541","lat":"31.1801158149","category":"260","category_name":"其他","address":"上海中环路吴中路出入口"},{"poiid":"B2094757D16CA5F8409D","title":"苏宁电器闵行第一店","lon":"121.394157386","lat":"31.1817534833","category":"138","category_name":"家电电子卖场","address":"上海中环线吴中路路口"},{"poiid":"B2094757D168A5FB499A","title":"小吉士","lon":"121.396904586","lat":"31.181888486","category":"76","category_name":"上海菜","address":"闵行区吴中路682号金虹桥广场(近中环)"},{"poiid":"B2094750D768AAFC499B","title":"鱼町居酒屋","lon":"121.393","lat":"31.1813","category":"268","category_name":"自助","address":"闵行区虹梅路2988号(吴中路口)"},{"poiid":"B2094757D065A1FD459C","title":"豪享来上海吴中店","lon":"121.3962","lat":"31.1815","category":"247","category_name":"餐饮美食","address":"上海市闵行区吴中路695号"},{"poiid":"B2094655D268A7F8499D","title":"天鸿公寓","lon":"121.39669","lat":"31.178585","category":"47","category_name":"住宅区","address":"上海市闵行区吴中路677弄99支弄"},{"poiid":"B2094654D56BAAFD4592","title":"上海漕河泾开发区智汇园A座","lon":"121.40055","lat":"31.17803","category":"46","category_name":"楼宇","address":"钦州北路1198"},{"poiid":"B2094654D564A1FA429B","title":"苹果园","lon":"121.397","lat":"31.1812","category":"47","category_name":"住宅区","address":"苹果园位于长宁虹桥环镇南路88弄"},{"poiid":"B2094654D56BAAFF429F","title":"旅专小区","lon":"121.39656","lat":"31.179976","category":"47","category_name":"住宅区","address":"吴中路689弄1-15号"},{"poiid":"B2094654DB65A1FF449B","title":"祥利港式茶餐厅","lon":"121.39521691359","lat":"31.181161131988","category":"72","category_name":"广东菜","address":"闵行区吴中路686弄2号金虹桥广场1楼E1(近虹许路)"},{"poiid":"B2094655D26FABF8489A","title":"万源新城","lon":"121.393","lat":"31.1769","category":"47","category_name":"住宅区","address":"万源路2289弄1-39号"},{"poiid":"B2094655D26AA6F4479A","title":"天圣酸菜鱼火锅 吴中路店","lon":"121.3954705076","lat":"31.181120220201","category":"86","category_name":"火锅店","address":"闵行区吴中路685号(近虹许路)"},{"poiid":"B2094757D16CA4F9489E","title":"虹桥阳光翠庭","lon":"121.395236","lat":"31.178899","category":"47","category_name":"住宅区","address":"上海市闵行区莲花路2150弄"},{"poiid":"B2094654DB6AA7F54298","title":"安本寿司","lon":"121.39239545898","lat":"31.180410462514","category":"95","category_name":"日本料理","address":"闵行区虹梅路2971号2楼(近吴中路)"},{"poiid":"B2094757D068A2F94499","title":"漕河泾开发区智汇园","lon":"121.399838","lat":"31.177512","category":"260","category_name":"其他","address":"上海徐汇区钦州北路1199号"},{"poiid":"B2094757D06AA7FB409F","title":"上海虹梅嘉廷酒店","lon":"121.39176158","lat":"31.181038469","category":"217","category_name":"旅馆招待所","address":"闵行区虹梅路2975号(近吴中路)"},{"poiid":"B2094655D268A4FC4593","title":"快客No.5225","lon":"121.39748","lat":"31.1787","category":"117","category_name":"便民商店/便利店","address":""},{"poiid":"B2094757D56CA2F5439E","title":"千鹤居日本料理 吴中路店","lon":"121.39488178291","lat":"31.180961264102","category":"247","category_name":"餐饮美食","address":"吴中路682号金虹桥广场2楼B室近虹许路"},{"poiid":"B2094757D16CAAFA4099","title":"鱼町","lon":"121.392732","lat":"31.181533","category":"500","category_name":"未知分类","address":"上海虹梅路2988号"},{"poiid":"B2094655D26EA6FF449B","title":"汉庭快捷酒店(上海古北店)","lon":"121.39782","lat":"31.18262","category":"216","category_name":"经济型连锁酒店","address":"闵行区吴中路638号(近虹许路)"},{"poiid":"B2094757D16CA3F8499B","title":"大庄源","lon":"121.392953","lat":"31.180254","category":"76","category_name":"上海菜","address":"闵行区虹梅路2975号2楼(近吴中路)"},{"poiid":"B2094655D268A3FD4593","title":"旅专小区(东门)","lon":"121.39696","lat":"31.18024","category":"47","category_name":"住宅区","address":"吴中路689弄1-15号"},{"poiid":"B2094757D06BA2FE4799","title":"明申花园","lon":"121.39806","lat":"31.181097","category":"252","category_name":"楼宇机构","address":"上海市闵行区吴中路630号"},{"poiid":"B2094654D564A1FF409C","title":"虹桥社区卫生服务中心","lon":"121.39252","lat":"31.17943","category":"162","category_name":"医院","address":"吴中路829"},{"poiid":"B2094655D265A4FF469A","title":"虹桥晶典苑","lon":"121.394","lat":"31.180029","category":"47","category_name":"住宅区","address":"闵行区虹梅路2838弄"},{"poiid":"B2094757D064A5FD4693","title":"HOME CAFE","lon":"121.39361","lat":"31.17918","category":"260","category_name":"其他","address":"闵行区虹梅路2915号虹桥首席1楼(近吴中路)"},{"poiid":"B2094654D564A2F54093","title":"友联生煎大王 虹桥店","lon":"121.392828054","lat":"31.180425793","category":"68","category_name":"快餐厅","address":"闵行区虹梅路806号(近吴中路)"},{"poiid":"B2094654DB6AA7F5489D","title":"虹桥首席-东苑怡和苑","lon":"121.39362","lat":"31.17879","category":"47","category_name":"住宅区","address":"虹桥首席―东苑怡和苑位于闵行虹梅路2899弄"},{"poiid":"B2094757D06AABFF469E","title":"秘密花园","lon":"121.39619958","lat":"31.177783405","category":"47","category_name":"住宅区","address":"上海市闵行区吴中路"},{"poiid":"B2094655D26DA0FA4492","title":"明申花园(西门)","lon":"121.39714","lat":"31.18063","category":"47","category_name":"住宅区","address":""},{"poiid":"B2094751D36DA4FC419F","title":"振鼎鸡(吴中路店)","lon":"121.393","lat":"31.1798","category":"68","category_name":"快餐厅","address":"闵行区吴中路819号(近虹梅路)"},{"poiid":"B2094757D465A0F44893","title":"鹊尔斯酒窖 Cheers Wine Cellars","lon":"121.393417054","lat":"31.178986793","category":"68","category_name":"快餐厅","address":"闵行区虹梅路3215弄201号A幢(近红松路)"},{"poiid":"B2094757D06FA7F94692","title":"唐宫壹号(虹许路店)","lon":"121.39554","lat":"31.18129","category":"72","category_name":"广东菜","address":"闵行区虹许路358号天禧嘉福璞缇客酒店2楼(近吴中路)"},{"poiid":"B2094757D06FA6FF459F","title":"上井(吴中店)","lon":"121.39815","lat":"31.18179","category":"95","category_name":"日本料理","address":"闵行区吴中路638号(近虹许路)"},{"poiid":"B2094757D06FA6FF429C","title":"天禧嘉福璞缇客酒店","lon":"121.39571","lat":"31.18139","category":"217","category_name":"旅馆招待所","address":"上海市闵行区虹许路358号(虹桥地区,吴中路口)"},{"poiid":"B2094654DB6AA6FF4593","title":"上海大众美林阁大酒店","lon":"121.39614","lat":"31.18052","category":"213","category_name":"五星级宾馆","address":"上海市闵行区吴中路699号(吴中路虹许路口)"},{"poiid":"B2094757D16EABFD4198","title":"老外街","lon":"121.392657","lat":"31.180644","category":"116","category_name":"特色商业街","address":"上海虹梅路"},{"poiid":"B2094757D06FA0F4449F","title":"吴中路","lon":"121.393310547","lat":"31.1797122955","category":"500","category_name":"未知分类","address":"上海市吴中路"},{"poiid":"B2094757D06FA1F9439C","title":"美林阁(吴中路店)","lon":"121.3961","lat":"31.18063","category":"76","category_name":"上海菜","address":"闵行区吴中路699号美林阁大酒店1-2楼(近虹许路)"},{"poiid":"B2094654D564A2FA429A","title":"虹桥盛世莲花广场","lon":"121.395","lat":"31.1835","category":"119","category_name":"商场","address":"吴中路1050弄"},{"poiid":"B2094757D068A5F4419A","title":"上海爱信诺航天信息有限公司","lon":"121.399977617","lat":"31.1777739822","category":"46","category_name":"楼宇","address":"上海徐汇区钦州北路1198号82栋"},{"poiid":"B2094757D06FA5F54392","title":"闵行区牙病防治所","lon":"121.39264","lat":"31.17916","category":"162","category_name":"医院","address":"闵行区吴中路829号(近虹梅路)"},{"poiid":"B2094757D069A3FB4999","title":"沈记靓汤(虹许店)","lon":"121.3952","lat":"31.18143","category":"76","category_name":"上海菜","address":"闵行区虹许路368号东侧1-2楼(近吴中路)"},{"poiid":"B2094757D06FA4FE4792","title":"虹桥镇","lon":"121.392628","lat":"31.181317","category":"500","category_name":"未知分类","address":"上海虹梅路吴中路"},{"poiid":"B2094757D068A4FF429C","title":"669音乐生态餐厅","lon":"121.397555733","lat":"31.1744916934","category":"91","category_name":"台湾菜","address":"徐汇区桂果路669号(近钦江路)"},{"poiid":"B2094757D069A6F5469C","title":"豪元轩","lon":"121.39341","lat":"31.18455","category":"72","category_name":"广东菜","address":"闵行区虹许路366号(近吴中路)"},{"poiid":"B2094757D66EA5FE459A","title":"潮州府砂锅粥","lon":"121.396678","lat":"31.181774","category":"72","category_name":"广东菜","address":"闵行区吴中路682号金虹桥广场(近中环)"},{"poiid":"B2094757D069A4F54293","title":"幸河日本料理","lon":"121.39766","lat":"31.18169","category":"268","category_name":"自助","address":"闵行区吴中路668号(近虹许路)"},{"poiid":"B2094757D465A0FA4893","title":"天禧嘉福璞缇客酒店咖啡厅","lon":"121.39496420445","lat":"31.180596255007","category":"65","category_name":"咖啡厅","address":"闵行区虹许路358号天禧嘉福璞缇客酒店1楼(近吴中路)"},{"poiid":"B2094757DA6EAAF5499E","title":"肯德基(虹桥机场二店)","lon":"121.394481","lat":"31.1795100000002","category":"68","category_name":"快餐厅","address":"闵行区吴中路781号(近虹梅路)"},{"poiid":"B2094757D16FA0FB4593","title":"中环路吴中路出入口","lon":"121.395128541","lat":"31.1801158149","category":"260","category_name":"其他","address":"上海中环路吴中路出入口"},{"poiid":"B2094757D16CA5F8409D","title":"苏宁电器闵行第一店","lon":"121.394157386","lat":"31.1817534833","category":"138","category_name":"家电电子卖场","address":"上海中环线吴中路路口"},{"poiid":"B2094757D168A5FB499A","title":"小吉士","lon":"121.396904586","lat":"31.181888486","category":"76","category_name":"上海菜","address":"闵行区吴中路682号金虹桥广场(近中环)"},{"poiid":"B2094750D768AAFC499B","title":"鱼町居酒屋","lon":"121.393","lat":"31.1813","category":"268","category_name":"自助","address":"闵行区虹梅路2988号(吴中路口)"},{"poiid":"B2094757D065A1FD459C","title":"豪享来上海吴中店","lon":"121.3962","lat":"31.1815","category":"247","category_name":"餐饮美食","address":"上海市闵行区吴中路695号"},{"poiid":"B2094655D268A7F8499D","title":"天鸿公寓","lon":"121.39669","lat":"31.178585","category":"47","category_name":"住宅区","address":"上海市闵行区吴中路677弄99支弄"},{"poiid":"B2094654D56BAAFD4592","title":"上海漕河泾开发区智汇园A座","lon":"121.40055","lat":"31.17803","category":"46","category_name":"楼宇","address":"钦州北路1198"},{"poiid":"B2094654D564A1FA429B","title":"苹果园","lon":"121.397","lat":"31.1812","category":"47","category_name":"住宅区","address":"苹果园位于长宁虹桥环镇南路88弄"},{"poiid":"B2094654D56BAAFF429F","title":"旅专小区","lon":"121.39656","lat":"31.179976","category":"47","category_name":"住宅区","address":"吴中路689弄1-15号"},{"poiid":"B2094654DB65A1FF449B","title":"祥利港式茶餐厅","lon":"121.39521691359","lat":"31.181161131988","category":"72","category_name":"广东菜","address":"闵行区吴中路686弄2号金虹桥广场1楼E1(近虹许路)"},{"poiid":"B2094655D26FABF8489A","title":"万源新城","lon":"121.393","lat":"31.1769","category":"47","category_name":"住宅区","address":"万源路2289弄1-39号"},{"poiid":"B2094655D26AA6F4479A","title":"天圣酸菜鱼火锅 吴中路店","lon":"121.3954705076","lat":"31.181120220201","category":"86","category_name":"火锅店","address":"闵行区吴中路685号(近虹许路)"},{"poiid":"B2094757D16CA4F9489E","title":"虹桥阳光翠庭","lon":"121.395236","lat":"31.178899","category":"47","category_name":"住宅区","address":"上海市闵行区莲花路2150弄"},{"poiid":"B2094654DB6AA7F54298","title":"安本寿司","lon":"121.39239545898","lat":"31.180410462514","category":"95","category_name":"日本料理","address":"闵行区虹梅路2971号2楼(近吴中路)"},{"poiid":"B2094757D068A2F94499","title":"漕河泾开发区智汇园","lon":"121.399838","lat":"31.177512","category":"260","category_name":"其他","address":"上海徐汇区钦州北路1199号"},{"poiid":"B2094757D06AA7FB409F","title":"上海虹梅嘉廷酒店","lon":"121.39176158","lat":"31.181038469","category":"217","category_name":"旅馆招待所","address":"闵行区虹梅路2975号(近吴中路)"},{"poiid":"B2094655D268A4FC4593","title":"快客No.5225","lon":"121.39748","lat":"31.1787","category":"117","category_name":"便民商店/便利店","address":""},{"poiid":"B2094757D56CA2F5439E","title":"千鹤居日本料理 吴中路店","lon":"121.39488178291","lat":"31.180961264102","category":"247","category_name":"餐饮美食","address":"吴中路682号金虹桥广场2楼B室近虹许路"},{"poiid":"B2094757D16CAAFA4099","title":"鱼町","lon":"121.392732","lat":"31.181533","category":"500","category_name":"未知分类","address":"上海虹梅路2988号"},{"poiid":"B2094655D26EA6FF449B","title":"汉庭快捷酒店(上海古北店)","lon":"121.39782","lat":"31.18262","category":"216","category_name":"经济型连锁酒店","address":"闵行区吴中路638号(近虹许路)"},{"poiid":"B2094757D16CA3F8499B","title":"大庄源","lon":"121.392953","lat":"31.180254","category":"76","category_name":"上海菜","address":"闵行区虹梅路2975号2楼(近吴中路)"},{"poiid":"B2094655D268A3FD4593","title":"旅专小区(东门)","lon":"121.39696","lat":"31.18024","category":"47","category_name":"住宅区","address":"吴中路689弄1-15号"},{"poiid":"B2094757D06BA2FE4799","title":"明申花园","lon":"121.39806","lat":"31.181097","category":"252","category_name":"楼宇机构","address":"上海市闵行区吴中路630号"},{"poiid":"B2094654D564A1FF409C","title":"虹桥社区卫生服务中心","lon":"121.39252","lat":"31.17943","category":"162","category_name":"医院","address":"吴中路829"},{"poiid":"B2094655D265A4FF469A","title":"虹桥晶典苑","lon":"121.394","lat":"31.180029","category":"47","category_name":"住宅区","address":"闵行区虹梅路2838弄"},{"poiid":"B2094757D064A5FD4693","title":"HOME CAFE","lon":"121.39361","lat":"31.17918","category":"260","category_name":"其他","address":"闵行区虹梅路2915号虹桥首席1楼(近吴中路)"},{"poiid":"B2094654D564A2F54093","title":"友联生煎大王 虹桥店","lon":"121.392828054","lat":"31.180425793","category":"68","category_name":"快餐厅","address":"闵行区虹梅路806号(近吴中路)"},{"poiid":"B2094654DB6AA7F5489D","title":"虹桥首席-东苑怡和苑","lon":"121.39362","lat":"31.17879","category":"47","category_name":"住宅区","address":"虹桥首席―东苑怡和苑位于闵行虹梅路2899弄"},{"poiid":"B2094757D06AABFF469E","title":"秘密花园","lon":"121.39619958","lat":"31.177783405","category":"47","category_name":"住宅区","address":"上海市闵行区吴中路"},{"poiid":"B2094655D26DA0FA4492","title":"明申花园(西门)","lon":"121.39714","lat":"31.18063","category":"47","category_name":"住宅区","address":""},{"poiid":"B2094751D36DA4FC419F","title":"振鼎鸡(吴中路店)","lon":"121.393","lat":"31.1798","category":"68","category_name":"快餐厅","address":"闵行区吴中路819号(近虹梅路)"},{"poiid":"B2094757D465A0F44893","title":"鹊尔斯酒窖 Cheers Wine Cellars","lon":"121.393417054","lat":"31.178986793","category":"68","category_name":"快餐厅","address":"闵行区虹梅路3215弄201号A幢(近红松路)"},{"poiid":"B2094757D06FA7F94692","title":"唐宫壹号(虹许路店)","lon":"121.39554","lat":"31.18129","category":"72","category_name":"广东菜","address":"闵行区虹许路358号天禧嘉福璞缇客酒店2楼(近吴中路)"},{"poiid":"B2094757D06FA6FF459F","title":"上井(吴中店)","lon":"121.39815","lat":"31.18179","category":"95","category_name":"日本料理","address":"闵行区吴中路638号(近虹许路)"},{"poiid":"B2094757D06FA6FF429C","title":"天禧嘉福璞缇客酒店","lon":"121.39571","lat":"31.18139","category":"217","category_name":"旅馆招待所","address":"上海市闵行区虹许路358号(虹桥地区,吴中路口)"},{"poiid":"B2094654DB6AA6FF4593","title":"上海大众美林阁大酒店","lon":"121.39614","lat":"31.18052","category":"213","category_name":"五星级宾馆","address":"上海市闵行区吴中路699号(吴中路虹许路口)"},{"poiid":"B2094757D16EABFD4198","title":"老外街","lon":"121.392657","lat":"31.180644","category":"116","category_name":"特色商业街","address":"上海虹梅路"},{"poiid":"B2094757D06FA0F4449F","title":"吴中路","lon":"121.393310547","lat":"31.1797122955","category":"500","category_name":"未知分类","address":"上海市吴中路"},{"poiid":"B2094757D06FA1F9439C","title":"美林阁(吴中路店)","lon":"121.3961","lat":"31.18063","category":"76","category_name":"上海菜","address":"闵行区吴中路699号美林阁大酒店1-2楼(近虹许路)"},{"poiid":"B2094654D564A2FA429A","title":"虹桥盛世莲花广场","lon":"121.395","lat":"31.1835","category":"119","category_name":"商场","address":"吴中路1050弄"},{"poiid":"B2094757D068A5F4419A","title":"上海爱信诺航天信息有限公司","lon":"121.399977617","lat":"31.1777739822","category":"46","category_name":"楼宇","address":"上海徐汇区钦州北路1198号82栋"},{"poiid":"B2094757D06FA5F54392","title":"闵行区牙病防治所","lon":"121.39264","lat":"31.17916","category":"162","category_name":"医院","address":"闵行区吴中路829号(近虹梅路)"},{"poiid":"B2094757D069A3FB4999","title":"沈记靓汤(虹许店)","lon":"121.3952","lat":"31.18143","category":"76","category_name":"上海菜","address":"闵行区虹许路368号东侧1-2楼(近吴中路)"},{"poiid":"B2094757D06FA4FE4792","title":"虹桥镇","lon":"121.392628","lat":"31.181317","category":"500","category_name":"未知分类","address":"上海虹梅路吴中路"},{"poiid":"B2094757D068A4FF429C","title":"669音乐生态餐厅","lon":"121.397555733","lat":"31.1744916934","category":"91","category_name":"台湾菜","address":"徐汇区桂果路669号(近钦江路)"},{"poiid":"B2094757D069A6F5469C","title":"豪元轩","lon":"121.39341","lat":"31.18455","category":"72","category_name":"广东菜","address":"闵行区虹许路366号(近吴中路)"},{"poiid":"B2094757D66EA5FE459A","title":"潮州府砂锅粥","lon":"121.396678","lat":"31.181774","category":"72","category_name":"广东菜","address":"闵行区吴中路682号金虹桥广场(近中环)"},{"poiid":"B2094757D069A4F54293","title":"幸河日本料理","lon":"121.39766","lat":"31.18169","category":"268","category_name":"自助","address":"闵行区吴中路668号(近虹许路)"},{"poiid":"B2094757D465A0FA4893","title":"天禧嘉福璞缇客酒店咖啡厅","lon":"121.39496420445","lat":"31.180596255007","category":"65","category_name":"咖啡厅","address":"闵行区虹许路358号天禧嘉福璞缇客酒店1楼(近吴中路)"},{"poiid":"B2094757DA6EAAF5499E","title":"肯德基(虹桥机场二店)","lon":"121.394481","lat":"31.1795100000002","category":"68","category_name":"快餐厅","address":"闵行区吴中路781号(近虹梅路)"},{"poiid":"B2094757D16FA0FB4593","title":"中环路吴中路出入口","lon":"121.395128541","lat":"31.1801158149","category":"260","category_name":"其他","address":"上海中环路吴中路出入口"},{"poiid":"B2094757D16CA5F8409D","title":"苏宁电器闵行第一店","lon":"121.394157386","lat":"31.1817534833","category":"138","category_name":"家电电子卖场","address":"上海中环线吴中路路口"},{"poiid":"B2094757D168A5FB499A","title":"小吉士","lon":"121.396904586","lat":"31.181888486","category":"76","category_name":"上海菜","address":"闵行区吴中路682号金虹桥广场(近中环)"},{"poiid":"B2094750D768AAFC499B","title":"鱼町居酒屋","lon":"121.393","lat":"31.1813","category":"268","category_name":"自助","address":"闵行区虹梅路2988号(吴中路口)"},{"poiid":"B2094757D065A1FD459C","title":"豪享来上海吴中店","lon":"121.3962","lat":"31.1815","category":"247","category_name":"餐饮美食","address":"上海市闵行区吴中路695号"},{"poiid":"B2094655D268A7F8499D","title":"天鸿公寓","lon":"121.39669","lat":"31.178585","category":"47","category_name":"住宅区","address":"上海市闵行区吴中路677弄99支弄"},{"poiid":"B2094654D56BAAFD4592","title":"上海漕河泾开发区智汇园A座","lon":"121.40055","lat":"31.17803","category":"46","category_name":"楼宇","address":"钦州北路1198"},{"poiid":"B2094654D564A1FA429B","title":"苹果园","lon":"121.397","lat":"31.1812","category":"47","category_name":"住宅区","address":"苹果园位于长宁虹桥环镇南路88弄"},{"poiid":"B2094654D56BAAFF429F","title":"旅专小区","lon":"121.39656","lat":"31.179976","category":"47","category_name":"住宅区","address":"吴中路689弄1-15号"},{"poiid":"B2094654DB65A1FF449B","title":"祥利港式茶餐厅","lon":"121.39521691359","lat":"31.181161131988","category":"72","category_name":"广东菜","address":"闵行区吴中路686弄2号金虹桥广场1楼E1(近虹许路)"},{"poiid":"B2094655D26FABF8489A","title":"万源新城","lon":"121.393","lat":"31.1769","category":"47","category_name":"住宅区","address":"万源路2289弄1-39号"},{"poiid":"B2094655D26AA6F4479A","title":"天圣酸菜鱼火锅 吴中路店","lon":"121.3954705076","lat":"31.181120220201","category":"86","category_name":"火锅店","address":"闵行区吴中路685号(近虹许路)"},{"poiid":"B2094757D16CA4F9489E","title":"虹桥阳光翠庭","lon":"121.395236","lat":"31.178899","category":"47","category_name":"住宅区","address":"上海市闵行区莲花路2150弄"},{"poiid":"B2094654DB6AA7F54298","title":"安本寿司","lon":"121.39239545898","lat":"31.180410462514","category":"95","category_name":"日本料理","address":"闵行区虹梅路2971号2楼(近吴中路)"},{"poiid":"B2094757D068A2F94499","title":"漕河泾开发区智汇园","lon":"121.399838","lat":"31.177512","category":"260","category_name":"其他","address":"上海徐汇区钦州北路1199号"},{"poiid":"B2094757D06AA7FB409F","title":"上海虹梅嘉廷酒店","lon":"121.39176158","lat":"31.181038469","category":"217","category_name":"旅馆招待所","address":"闵行区虹梅路2975号(近吴中路)"},{"poiid":"B2094655D268A4FC4593","title":"快客No.5225","lon":"121.39748","lat":"31.1787","category":"117","category_name":"便民商店/便利店","address":""},{"poiid":"B2094757D56CA2F5439E","title":"千鹤居日本料理 吴中路店","lon":"121.39488178291","lat":"31.180961264102","category":"247","category_name":"餐饮美食","address":"吴中路682号金虹桥广场2楼B室近虹许路"},{"poiid":"B2094757D16CAAFA4099","title":"鱼町","lon":"121.392732","lat":"31.181533","category":"500","category_name":"未知分类","address":"上海虹梅路2988号"},{"poiid":"B2094655D26EA6FF449B","title":"汉庭快捷酒店(上海古北店)","lon":"121.39782","lat":"31.18262","category":"216","category_name":"经济型连锁酒店","address":"闵行区吴中路638号(近虹许路)"},{"poiid":"B2094757D16CA3F8499B","title":"大庄源","lon":"121.392953","lat":"31.180254","category":"76","category_name":"上海菜","address":"闵行区虹梅路2975号2楼(近吴中路)"},{"poiid":"B2094655D268A3FD4593","title":"旅专小区(东门)","lon":"121.39696","lat":"31.18024","category":"47","category_name":"住宅区","address":"吴中路689弄1-15号"},{"poiid":"B2094757D06BA2FE4799","title":"明申花园","lon":"121.39806","lat":"31.181097","category":"252","category_name":"楼宇机构","address":"上海市闵行区吴中路630号"},{"poiid":"B2094654D564A1FF409C","title":"虹桥社区卫生服务中心","lon":"121.39252","lat":"31.17943","category":"162","category_name":"医院","address":"吴中路829"},{"poiid":"B2094655D265A4FF469A","title":"虹桥晶典苑","lon":"121.394","lat":"31.180029","category":"47","category_name":"住宅区","address":"闵行区虹梅路2838弄"},{"poiid":"B2094757D064A5FD4693","title":"HOME CAFE","lon":"121.39361","lat":"31.17918","category":"260","category_name":"其他","address":"闵行区虹梅路2915号虹桥首席1楼(近吴中路)"},{"poiid":"B2094654D564A2F54093","title":"友联生煎大王 虹桥店","lon":"121.392828054","lat":"31.180425793","category":"68","category_name":"快餐厅","address":"闵行区虹梅路806号(近吴中路)"},{"poiid":"B2094654DB6AA7F5489D","title":"虹桥首席-东苑怡和苑","lon":"121.39362","lat":"31.17879","category":"47","category_name":"住宅区","address":"虹桥首席―东苑怡和苑位于闵行虹梅路2899弄"},{"poiid":"B2094757D06AABFF469E","title":"秘密花园","lon":"121.39619958","lat":"31.177783405","category":"47","category_name":"住宅区","address":"上海市闵行区吴中路"},{"poiid":"B2094655D26DA0FA4492","title":"明申花园(西门)","lon":"121.39714","lat":"31.18063","category":"47","category_name":"住宅区","address":""},{"poiid":"B2094751D36DA4FC419F","title":"振鼎鸡(吴中路店)","lon":"121.393","lat":"31.1798","category":"68","category_name":"快餐厅","address":"闵行区吴中路819号(近虹梅路)"},{"poiid":"B2094757D465A0F44893","title":"鹊尔斯酒窖 Cheers Wine Cellars","lon":"121.393417054","lat":"31.178986793","category":"68","category_name":"快餐厅","address":"闵行区虹梅路3215弄201号A幢(近红松路)"}]