[{"poiid":"B2094757D06EAAFA449F","title":"翠华餐厅（西藏南路店）Tsui Wah Restaurant","lon":"121.48138752034185","lat":"31.224226870443808","category":"257","category_name":"中餐厅","address":"黄浦区西藏南路251号宏基西门厅106室(近桃源路)"},{"poiid":"B2094757D06EAAF44898","title":"寿宁路小龙虾","lon":"121.48185","lat":"31.22348","category":"68","category_name":"快餐厅","address":"黄浦区寿宁路58号(柳林路寿宁路)"},{"poiid":"B2094757D66FA6FB429F","title":"长寿面馆乡吧岛香辣小龙虾(寿宁路分店)","lon":"121.48253","lat":"31.22377","category":"257","category_name":"中餐厅","address":"卢湾区寿宁路23号、35号(近西藏南路)"},{"poiid":"B2094753D76FAAFA449C","title":"上海滩国泰旗舰店","lon":"121.466011","lat":"31.216125","category":"249","category_name":"购物服务","address":"淮海中路868号"},{"poiid":"B209475CD564A7F84292","title":"上海滩新天地店","lon":"121.47463","lat":"31.22164","category":"119","category_name":"商场","address":"\"太仓路181弄新天地北里15号\r\n\""},{"poiid":"B209475CD564A7F8439E","title":"上海滩中信泰富店","lon":"121.45602","lat":"31.22851","category":"119","category_name":"商场","address":"\"南京西路1168号中信泰富广场，店铺号221.\r\n\""},{"poiid":"B209475CD564A7F84392","title":"上海滩浦东香格里拉店","lon":"121.50058","lat":"31.23634","category":"119","category_name":"商场","address":"浦东富成路33号香格里拉酒店内大堂层"},{"poiid":"B2094757D06FA3F84792","title":"上海第一家香吧岛龙虾(寿宁路总店)","lon":"121.48265","lat":"31.22375","category":"68","category_name":"快餐厅","address":"卢湾区寿宁路20-24号(近西藏南路)"},{"poiid":"B2094655D36CA1FE409C","title":"寿宁路","lon":"121.48061","lat":"31.22345","category":"38","category_name":"公交车站","address":""},{"poiid":"B2094757D06FA3F44598","title":"韩乡园(淮海东路店)","lon":"121.48132","lat":"31.22544","category":"96","category_name":"韩国料理","address":"上海黄浦区淮海东路99号佰腾数码广场5楼(近西藏南路)  "},{"poiid":"B2094757D06FA1F5439E","title":"一锅鲜","lon":"121.48108643","lat":"31.223254051","category":"76","category_name":"上海菜","address":"黄浦区淮海东路99号新尚数码广场5楼(西藏路淮海东路交叉口)"},{"poiid":"B2094757D06FA1F8489B","title":"新尚(佰腾)数码广场","lon":"121.48131","lat":"31.22535","category":"138","category_name":"家电电子卖场","address":"黄浦区淮海东路99号(近西藏南路)"},{"poiid":"B2094757D16DA1FB499B","title":"华美国际酒店","lon":"121.481757","lat":"31.22221","category":"217","category_name":"旅馆招待所","address":"黄浦区西藏南路381号(近淮海中路)"},{"poiid":"B2094757D06FA2F8489F","title":"韩记烧烤","lon":"121.48191","lat":"31.22352","category":"68","category_name":"快餐厅","address":"卢湾区寿宁路26号(近西藏南路)"},{"poiid":"B2094753D26EA4FD4392","title":"饭小馆","lon":"121.480981","lat":"31.224193","category":"247","category_name":"餐饮美食","address":"上海市 上海市西藏南路279号108室"},{"poiid":"B2094757D068A1FC4693","title":"天天周末(黄浦店)","lon":"121.480736676","lat":"31.2249215581","category":"249","category_name":"购物服务","address":"黄浦区淮海东路99号2楼215室(近西藏路)"},{"poiid":"B2094757D068A2FB409F","title":"寿宁路烧烤摊","lon":"121.48309","lat":"31.22394","category":"68","category_name":"快餐厅","address":"黄浦区寿宁路(人民路口)"},{"poiid":"B2094757D06FA1FA419E","title":"YOBA酸奶冰淇淋(西藏南路店)","lon":"121.481198","lat":"31.2241349","category":"113","category_name":"冷饮店","address":"黄浦区西藏南路279号109铺(近寿宁路)"},{"poiid":"B2094757D664A7FF4692","title":"翠萃餐厅","lon":"121.48078","lat":"31.22447","category":"76","category_name":"上海菜","address":"西藏南路251号2楼近桃源路"},{"poiid":"B2094757D06EAAFA4393","title":"道顿堀酷酷璐 吴江路店","lon":"121.480552","lat":"31.224973","category":"95","category_name":"日本料理","address":"静安区吴江路169号四季坊122号(近石门一路)"},{"poiid":"B2094757D06FA1FF479C","title":"味千拉面(淮海中路店)","lon":"121.48052","lat":"31.22496","category":"95","category_name":"日本料理","address":"卢湾区柳林路65号柳林大厦2楼(近西藏南路)"},{"poiid":"B2094757D568A7FB489A","title":"The Fat Olive","lon":"121.480385","lat":"31.224354","category":"257","category_name":"中餐厅","address":"西藏南路228号6楼会所餐厅南部2号(近寿宁路)"},{"poiid":"B2094757D068A0FC429F","title":"金天地国际大厦","lon":"121.482581","lat":"31.223014","category":"46","category_name":"楼宇","address":"黄浦区人民路998号"},{"poiid":"B2094753D46AA1FD459D","title":"环球港","lon":"121.480438","lat":"31.22241","category":"500","category_name":"未知分类","address":"上海市 中山北路"},{"poiid":"B2094757D06FA1F5419A","title":"川渔1906","lon":"121.48116","lat":"31.22511","category":"71","category_name":"四川菜","address":"黄浦区淮海东路99号5楼(近西藏南路)"},{"poiid":"B2094757D16CA2FF4393","title":"红梅龙虾","lon":"121.48202073","lat":"31.223744161","category":"500","category_name":"未知分类","address":"上海市寿宁路27号"},{"poiid":"B2094757D465A4F44798","title":"华哥龙虾烤鱼坊","lon":"121.482833054","lat":"31.224111793","category":"247","category_name":"餐饮美食","address":"寿宁路12号近人民路"},{"poiid":"B2094655D26EABF8489A","title":"杰杰龙虾店","lon":"121.48205","lat":"31.22392","category":"68","category_name":"快餐厅","address":"黄浦区寿宁路36号(近西藏南路)"},{"poiid":"B2094654DA6EA6F54499","title":"二子烧烤","lon":"121.4821","lat":"31.22394","category":"68","category_name":"快餐厅","address":"卢湾区寿宁路34号(近西藏南路)"},{"poiid":"B2094757D064A1FC4392","title":"淮海279","lon":"121.48077473","lat":"31.224404175","category":"76","category_name":"上海菜","address":"黄浦区西藏南路279号弘基西门町(近淮海东路)"},{"poiid":"B2094654DA6EA6F54498","title":"魏氏烧烤","lon":"121.482","lat":"31.22392","category":"87","category_name":"特色／地方风味餐厅","address":"黄浦区寿宁路38号(近西藏南路)"},{"poiid":"B2094750DA6EA2F5499A","title":"好灶头","lon":"121.481193","lat":"31.225414","category":"260","category_name":"其他","address":"黄浦区淮海东路99号5楼(近西藏南路)"},{"poiid":"B2094757DA65A5FB4692","title":"汉庭全季酒店（上海淮海路店）","lon":"121.48227","lat":"31.225427","category":"216","category_name":"经济型连锁酒店","address":"上海市黄浦区云南南路297号(近淮海路)"},{"poiid":"B2094753D665A6F4409A","title":"星怡會","lon":"121.48281","lat":"31.223274","category":"500","category_name":"未知分类","address":"上海市 上海無限度廣場2樓"},{"poiid":"B2094654DA6EA5FC479B","title":"老广东菜馆 寿宁店","lon":"121.48290379018","lat":"31.223858586579","category":"76","category_name":"上海菜","address":"黄浦区人民路924号(寿宁路口)"},{"poiid":"B2094757D66BA3F5439C","title":"十番烧肉","lon":"121.481204","lat":"31.224029","category":"269","category_name":"烧烤","address":"西藏南路279号近淮海东路"},{"poiid":"B2094757D064A4F9409C","title":"华哥龙虾","lon":"121.48217769","lat":"31.224411491","category":"247","category_name":"餐饮美食","address":"上海寿宁路2号"},{"poiid":"B2094757D064A3F44293","title":"Fraser Residence 上海辉盛庭国际公寓","lon":"121.481061948","lat":"31.2234862464","category":"500","category_name":"未知分类","address":"卢湾区寿宁路98号(近淮海中路)"},{"poiid":"B2094750D76EA3F5429C","title":"寿宁路美食街","lon":"121.481","lat":"31.2236","category":"68","category_name":"快餐厅","address":"黄浦区寿宁路(西藏路人民路之间)"},{"poiid":"B2094757D16EA6FD439E","title":"17号香吧岛龙虾","lon":"121.48212773","lat":"31.223932165","category":"247","category_name":"餐饮美食","address":"上海寿宁路"},{"poiid":"B2094654DA6EA6F54393","title":"阿军特色烧烤","lon":"121.48183","lat":"31.22385","category":"68","category_name":"快餐厅","address":"黄浦区寿宁路48号(近西藏南路)"},{"poiid":"B2094757D46EA5F54293","title":"笑鱼寿司","lon":"121.482329","lat":"31.2250204","category":"95","category_name":"日本料理","address":"黄浦区云南南路295号(近淮海东路)"},{"poiid":"B2094757D468A6FC4999","title":"西北郎烧烤 寿宁路店","lon":"121.482659054","lat":"31.223880793","category":"68","category_name":"快餐厅","address":"卢湾区寿宁路5号(近云南路)"},{"poiid":"B2094757D068AAFD429C","title":"华府天地","lon":"121.481","lat":"31.2249","category":"47","category_name":"住宅区","address":"卢湾区马当路222号(近新天地)"},{"poiid":"B2094757D064A7FC469D","title":"上海1号私房菜","lon":"121.48113473","lat":"31.225489199","category":"247","category_name":"餐饮美食","address":"上海市淮海东路99号"},{"poiid":"B209475CD56EA1F4499F","title":"连卡佛LaneCrawford","lon":"121.482719","lat":"31.223199","category":"249","category_name":"购物服务","address":"上海市 淮海中路93号"},{"poiid":"B2094757D06BABFC419F","title":"西北狼烧烤","lon":"121.48115173","lat":"31.223499156","category":"247","category_name":"餐饮美食","address":"上海寿宁路60号"},{"poiid":"B2094757D66BA2F54892","title":"53号香巴岛","lon":"121.481501","lat":"31.223604","category":"47","category_name":"住宅区","address":"寿宁路53号近云南南路"},{"poiid":"B2094757D16CA6F9479F","title":"麦德龙餐饮通西藏南路商场","lon":"121.48024373","lat":"31.224242172","category":"68","category_name":"快餐厅","address":"卢湾区西藏南路228号永银大厦2楼(近淮海中路)"},{"poiid":"B2094757D064A3F44798","title":"甜乐甜品 总店","lon":"121.48191","lat":"31.22389","category":"67","category_name":"甜品店","address":"卢湾区寿宁路42号(大境路人民路)"},{"poiid":"B2094757D06EAAFA449F","title":"翠华餐厅（西藏南路店）Tsui Wah Restaurant","lon":"121.48138752034185","lat":"31.224226870443808","category":"257","category_name":"中餐厅","address":"黄浦区西藏南路251号宏基西门厅106室(近桃源路)"},{"poiid":"B2094757D06EAAF44898","title":"寿宁路小龙虾","lon":"121.48185","lat":"31.22348","category":"68","category_name":"快餐厅","address":"黄浦区寿宁路58号(柳林路寿宁路)"},{"poiid":"B2094757D66FA6FB429F","title":"长寿面馆乡吧岛香辣小龙虾(寿宁路分店)","lon":"121.48253","lat":"31.22377","category":"257","category_name":"中餐厅","address":"卢湾区寿宁路23号、35号(近西藏南路)"},{"poiid":"B2094753D76FAAFA449C","title":"上海滩国泰旗舰店","lon":"121.466011","lat":"31.216125","category":"249","category_name":"购物服务","address":"淮海中路868号"},{"poiid":"B209475CD564A7F84292","title":"上海滩新天地店","lon":"121.47463","lat":"31.22164","category":"119","category_name":"商场","address":"\"太仓路181弄新天地北里15号\r\n\""},{"poiid":"B209475CD564A7F8439E","title":"上海滩中信泰富店","lon":"121.45602","lat":"31.22851","category":"119","category_name":"商场","address":"\"南京西路1168号中信泰富广场，店铺号221.\r\n\""},{"poiid":"B209475CD564A7F84392","title":"上海滩浦东香格里拉店","lon":"121.50058","lat":"31.23634","category":"119","category_name":"商场","address":"浦东富成路33号香格里拉酒店内大堂层"},{"poiid":"B2094757D06FA3F84792","title":"上海第一家香吧岛龙虾(寿宁路总店)","lon":"121.48265","lat":"31.22375","category":"68","category_name":"快餐厅","address":"卢湾区寿宁路20-24号(近西藏南路)"},{"poiid":"B2094655D36CA1FE409C","title":"寿宁路","lon":"121.48061","lat":"31.22345","category":"38","category_name":"公交车站","address":""},{"poiid":"B2094757D06FA3F44598","title":"韩乡园(淮海东路店)","lon":"121.48132","lat":"31.22544","category":"96","category_name":"韩国料理","address":"上海黄浦区淮海东路99号佰腾数码广场5楼(近西藏南路)  "},{"poiid":"B2094757D06FA1F5439E","title":"一锅鲜","lon":"121.48108643","lat":"31.223254051","category":"76","category_name":"上海菜","address":"黄浦区淮海东路99号新尚数码广场5楼(西藏路淮海东路交叉口)"},{"poiid":"B2094757D06FA1F8489B","title":"新尚(佰腾)数码广场","lon":"121.48131","lat":"31.22535","category":"138","category_name":"家电电子卖场","address":"黄浦区淮海东路99号(近西藏南路)"},{"poiid":"B2094757D16DA1FB499B","title":"华美国际酒店","lon":"121.481757","lat":"31.22221","category":"217","category_name":"旅馆招待所","address":"黄浦区西藏南路381号(近淮海中路)"},{"poiid":"B2094757D06FA2F8489F","title":"韩记烧烤","lon":"121.48191","lat":"31.22352","category":"68","category_name":"快餐厅","address":"卢湾区寿宁路26号(近西藏南路)"},{"poiid":"B2094753D26EA4FD4392","title":"饭小馆","lon":"121.480981","lat":"31.224193","category":"247","category_name":"餐饮美食","address":"上海市 上海市西藏南路279号108室"},{"poiid":"B2094757D068A1FC4693","title":"天天周末(黄浦店)","lon":"121.480736676","lat":"31.2249215581","category":"249","category_name":"购物服务","address":"黄浦区淮海东路99号2楼215室(近西藏路)"},{"poiid":"B2094757D068A2FB409F","title":"寿宁路烧烤摊","lon":"121.48309","lat":"31.22394","category":"68","category_name":"快餐厅","address":"黄浦区寿宁路(人民路口)"},{"poiid":"B2094757D06FA1FA419E","title":"YOBA酸奶冰淇淋(西藏南路店)","lon":"121.481198","lat":"31.2241349","category":"113","category_name":"冷饮店","address":"黄浦区西藏南路279号109铺(近寿宁路)"},{"poiid":"B2094757D664A7FF4692","title":"翠萃餐厅","lon":"121.48078","lat":"31.22447","category":"76","category_name":"上海菜","address":"西藏南路251号2楼近桃源路"},{"poiid":"B2094757D06EAAFA4393","title":"道顿堀酷酷璐 吴江路店","lon":"121.480552","lat":"31.224973","category":"95","category_name":"日本料理","address":"静安区吴江路169号四季坊122号(近石门一路)"},{"poiid":"B2094757D06FA1FF479C","title":"味千拉面(淮海中路店)","lon":"121.48052","lat":"31.22496","category":"95","category_name":"日本料理","address":"卢湾区柳林路65号柳林大厦2楼(近西藏南路)"},{"poiid":"B2094757D568A7FB489A","title":"The Fat Olive","lon":"121.480385","lat":"31.224354","category":"257","category_name":"中餐厅","address":"西藏南路228号6楼会所餐厅南部2号(近寿宁路)"},{"poiid":"B2094757D068A0FC429F","title":"金天地国际大厦","lon":"121.482581","lat":"31.223014","category":"46","category_name":"楼宇","address":"黄浦区人民路998号"},{"poiid":"B2094753D46AA1FD459D","title":"环球港","lon":"121.480438","lat":"31.22241","category":"500","category_name":"未知分类","address":"上海市 中山北路"},{"poiid":"B2094757D06FA1F5419A","title":"川渔1906","lon":"121.48116","lat":"31.22511","category":"71","category_name":"四川菜","address":"黄浦区淮海东路99号5楼(近西藏南路)"},{"poiid":"B2094757D16CA2FF4393","title":"红梅龙虾","lon":"121.48202073","lat":"31.223744161","category":"500","category_name":"未知分类","address":"上海市寿宁路27号"},{"poiid":"B2094757D465A4F44798","title":"华哥龙虾烤鱼坊","lon":"121.482833054","lat":"31.224111793","category":"247","category_name":"餐饮美食","address":"寿宁路12号近人民路"},{"poiid":"B2094655D26EABF8489A","title":"杰杰龙虾店","lon":"121.48205","lat":"31.22392","category":"68","category_name":"快餐厅","address":"黄浦区寿宁路36号(近西藏南路)"},{"poiid":"B2094654DA6EA6F54499","title":"二子烧烤","lon":"121.4821","lat":"31.22394","category":"68","category_name":"快餐厅","address":"卢湾区寿宁路34号(近西藏南路)"},{"poiid":"B2094757D064A1FC4392","title":"淮海279","lon":"121.48077473","lat":"31.224404175","category":"76","category_name":"上海菜","address":"黄浦区西藏南路279号弘基西门町(近淮海东路)"},{"poiid":"B2094654DA6EA6F54498","title":"魏氏烧烤","lon":"121.482","lat":"31.22392","category":"87","category_name":"特色／地方风味餐厅","address":"黄浦区寿宁路38号(近西藏南路)"},{"poiid":"B2094750DA6EA2F5499A","title":"好灶头","lon":"121.481193","lat":"31.225414","category":"260","category_name":"其他","address":"黄浦区淮海东路99号5楼(近西藏南路)"},{"poiid":"B2094757DA65A5FB4692","title":"汉庭全季酒店（上海淮海路店）","lon":"121.48227","lat":"31.225427","category":"216","category_name":"经济型连锁酒店","address":"上海市黄浦区云南南路297号(近淮海路)"},{"poiid":"B2094753D665A6F4409A","title":"星怡會","lon":"121.48281","lat":"31.223274","category":"500","category_name":"未知分类","address":"上海市 上海無限度廣場2樓"},{"poiid":"B2094654DA6EA5FC479B","title":"老广东菜馆 寿宁店","lon":"121.48290379018","lat":"31.223858586579","category":"76","category_name":"上海菜","address":"黄浦区人民路924号(寿宁路口)"},{"poiid":"B2094757D66BA3F5439C","title":"十番烧肉","lon":"121.481204","lat":"31.224029","category":"269","category_name":"烧烤","address":"西藏南路279号近淮海东路"},{"poiid":"B2094757D064A4F9409C","title":"华哥龙虾","lon":"121.48217769","lat":"31.224411491","category":"247","category_name":"餐饮美食","address":"上海寿宁路2号"},{"poiid":"B2094757D064A3F44293","title":"Fraser Residence 上海辉盛庭国际公寓","lon":"121.481061948","lat":"31.2234862464","category":"500","category_name":"未知分类","address":"卢湾区寿宁路98号(近淮海中路)"},{"poiid":"B2094750D76EA3F5429C","title":"寿宁路美食街","lon":"121.481","lat":"31.2236","category":"68","category_name":"快餐厅","address":"黄浦区寿宁路(西藏路人民路之间)"},{"poiid":"B2094757D16EA6FD439E","title":"17号香吧岛龙虾","lon":"121.48212773","lat":"31.223932165","category":"247","category_name":"餐饮美食","address":"上海寿宁路"},{"poiid":"B2094654DA6EA6F54393","title":"阿军特色烧烤","lon":"121.48183","lat":"31.22385","category":"68","category_name":"快餐厅","address":"黄浦区寿宁路48号(近西藏南路)"},{"poiid":"B2094757D46EA5F54293","title":"笑鱼寿司","lon":"121.482329","lat":"31.2250204","category":"95","category_name":"日本料理","address":"黄浦区云南南路295号(近淮海东路)"},{"poiid":"B2094757D468A6FC4999","title":"西北郎烧烤 寿宁路店","lon":"121.482659054","lat":"31.223880793","category":"68","category_name":"快餐厅","address":"卢湾区寿宁路5号(近云南路)"},{"poiid":"B2094757D068AAFD429C","title":"华府天地","lon":"121.481","lat":"31.2249","category":"47","category_name":"住宅区","address":"卢湾区马当路222号(近新天地)"},{"poiid":"B2094757D064A7FC469D","title":"上海1号私房菜","lon":"121.48113473","lat":"31.225489199","category":"247","category_name":"餐饮美食","address":"上海市淮海东路99号"},{"poiid":"B209475CD56EA1F4499F","title":"连卡佛LaneCrawford","lon":"121.482719","lat":"31.223199","category":"249","category_name":"购物服务","address":"上海市 淮海中路93号"},{"poiid":"B2094757D06BABFC419F","title":"西北狼烧烤","lon":"121.48115173","lat":"31.223499156","category":"247","category_name":"餐饮美食","address":"上海寿宁路60号"},{"poiid":"B2094757D66BA2F54892","title":"53号香巴岛","lon":"121.481501","lat":"31.223604","category":"47","category_name":"住宅区","address":"寿宁路53号近云南南路"},{"poiid":"B2094757D16CA6F9479F","title":"麦德龙餐饮通西藏南路商场","lon":"121.48024373","lat":"31.224242172","category":"68","category_name":"快餐厅","address":"卢湾区西藏南路228号永银大厦2楼(近淮海中路)"},{"poiid":"B2094757D064A3F44798","title":"甜乐甜品 总店","lon":"121.48191","lat":"31.22389","category":"67","category_name":"甜品店","address":"卢湾区寿宁路42号(大境路人民路)"},{"poiid":"B2094757D06EAAFA449F","title":"翠华餐厅（西藏南路店）Tsui Wah Restaurant","lon":"121.48138752034185","lat":"31.224226870443808","category":"257","category_name":"中餐厅","address":"黄浦区西藏南路251号宏基西门厅106室(近桃源路)"},{"poiid":"B2094757D06EAAF44898","title":"寿宁路小龙虾","lon":"121.48185","lat":"31.22348","category":"68","category_name":"快餐厅","address":"黄浦区寿宁路58号(柳林路寿宁路)"},{"poiid":"B2094757D66FA6FB429F","title":"长寿面馆乡吧岛香辣小龙虾(寿宁路分店)","lon":"121.48253","lat":"31.22377","category":"257","category_name":"中餐厅","address":"卢湾区寿宁路23号、35号(近西藏南路)"},{"poiid":"B2094753D76FAAFA449C","title":"上海滩国泰旗舰店","lon":"121.466011","lat":"31.216125","category":"249","category_name":"购物服务","address":"淮海中路868号"},{"poiid":"B209475CD564A7F84292","title":"上海滩新天地店","lon":"121.47463","lat":"31.22164","category":"119","category_name":"商场","address":"\"太仓路181弄新天地北里15号\r\n\""},{"poiid":"B209475CD564A7F8439E","title":"上海滩中信泰富店","lon":"121.45602","lat":"31.22851","category":"119","category_name":"商场","address":"\"南京西路1168号中信泰富广场，店铺号221.\r\n\""},{"poiid":"B209475CD564A7F84392","title":"上海滩浦东香格里拉店","lon":"121.50058","lat":"31.23634","category":"119","category_name":"商场","address":"浦东富成路33号香格里拉酒店内大堂层"},{"poiid":"B2094757D06FA3F84792","title":"上海第一家香吧岛龙虾(寿宁路总店)","lon":"121.48265","lat":"31.22375","category":"68","category_name":"快餐厅","address":"卢湾区寿宁路20-24号(近西藏南路)"},{"poiid":"B2094655D36CA1FE409C","title":"寿宁路","lon":"121.48061","lat":"31.22345","category":"38","category_name":"公交车站","address":""},{"poiid":"B2094757D06FA3F44598","title":"韩乡园(淮海东路店)","lon":"121.48132","lat":"31.22544","category":"96","category_name":"韩国料理","address":"上海黄浦区淮海东路99号佰腾数码广场5楼(近西藏南路)  "},{"poiid":"B2094757D06FA1F5439E","title":"一锅鲜","lon":"121.48108643","lat":"31.223254051","category":"76","category_name":"上海菜","address":"黄浦区淮海东路99号新尚数码广场5楼(西藏路淮海东路交叉口)"},{"poiid":"B2094757D06FA1F8489B","title":"新尚(佰腾)数码广场","lon":"121.48131","lat":"31.22535","category":"138","category_name":"家电电子卖场","address":"黄浦区淮海东路99号(近西藏南路)"},{"poiid":"B2094757D16DA1FB499B","title":"华美国际酒店","lon":"121.481757","lat":"31.22221","category":"217","category_name":"旅馆招待所","address":"黄浦区西藏南路381号(近淮海中路)"},{"poiid":"B2094757D06FA2F8489F","title":"韩记烧烤","lon":"121.48191","lat":"31.22352","category":"68","category_name":"快餐厅","address":"卢湾区寿宁路26号(近西藏南路)"},{"poiid":"B2094753D26EA4FD4392","title":"饭小馆","lon":"121.480981","lat":"31.224193","category":"247","category_name":"餐饮美食","address":"上海市 上海市西藏南路279号108室"},{"poiid":"B2094757D068A1FC4693","title":"天天周末(黄浦店)","lon":"121.480736676","lat":"31.2249215581","category":"249","category_name":"购物服务","address":"黄浦区淮海东路99号2楼215室(近西藏路)"},{"poiid":"B2094757D068A2FB409F","title":"寿宁路烧烤摊","lon":"121.48309","lat":"31.22394","category":"68","category_name":"快餐厅","address":"黄浦区寿宁路(人民路口)"},{"poiid":"B2094757D06FA1FA419E","title":"YOBA酸奶冰淇淋(西藏南路店)","lon":"121.481198","lat":"31.2241349","category":"113","category_name":"冷饮店","address":"黄浦区西藏南路279号109铺(近寿宁路)"},{"poiid":"B2094757D664A7FF4692","title":"翠萃餐厅","lon":"121.48078","lat":"31.22447","category":"76","category_name":"上海菜","address":"西藏南路251号2楼近桃源路"},{"poiid":"B2094757D06EAAFA4393","title":"道顿堀酷酷璐 吴江路店","lon":"121.480552","lat":"31.224973","category":"95","category_name":"日本料理","address":"静安区吴江路169号四季坊122号(近石门一路)"},{"poiid":"B2094757D06FA1FF479C","title":"味千拉面(淮海中路店)","lon":"121.48052","lat":"31.22496","category":"95","category_name":"日本料理","address":"卢湾区柳林路65号柳林大厦2楼(近西藏南路)"},{"poiid":"B2094757D568A7FB489A","title":"The Fat Olive","lon":"121.480385","lat":"31.224354","category":"257","category_name":"中餐厅","address":"西藏南路228号6楼会所餐厅南部2号(近寿宁路)"},{"poiid":"B2094757D068A0FC429F","title":"金天地国际大厦","lon":"121.482581","lat":"31.223014","category":"46","category_name":"楼宇","address":"黄浦区人民路998号"},{"poiid":"B2094753D46AA1FD459D","title":"环球港","lon":"121.480438","lat":"31.22241","category":"500","category_name":"未知分类","address":"上海市 中山北路"},{"poiid":"B2094757D06FA1F5419A","title":"川渔1906","lon":"121.48116","lat":"31.22511","category":"71","category_name":"四川菜","address":"黄浦区淮海东路99号5楼(近西藏南路)"},{"poiid":"B2094757D16CA2FF4393","title":"红梅龙虾","lon":"121.48202073","lat":"31.223744161","category":"500","category_name":"未知分类","address":"上海市寿宁路27号"},{"poiid":"B2094757D465A4F44798","title":"华哥龙虾烤鱼坊","lon":"121.482833054","lat":"31.224111793","category":"247","category_name":"餐饮美食","address":"寿宁路12号近人民路"},{"poiid":"B2094655D26EABF8489A","title":"杰杰龙虾店","lon":"121.48205","lat":"31.22392","category":"68","category_name":"快餐厅","address":"黄浦区寿宁路36号(近西藏南路)"},{"poiid":"B2094654DA6EA6F54499","title":"二子烧烤","lon":"121.4821","lat":"31.22394","category":"68","category_name":"快餐厅","address":"卢湾区寿宁路34号(近西藏南路)"},{"poiid":"B2094757D064A1FC4392","title":"淮海279","lon":"121.48077473","lat":"31.224404175","category":"76","category_name":"上海菜","address":"黄浦区西藏南路279号弘基西门町(近淮海东路)"},{"poiid":"B2094654DA6EA6F54498","title":"魏氏烧烤","lon":"121.482","lat":"31.22392","category":"87","category_name":"特色／地方风味餐厅","address":"黄浦区寿宁路38号(近西藏南路)"},{"poiid":"B2094750DA6EA2F5499A","title":"好灶头","lon":"121.481193","lat":"31.225414","category":"260","category_name":"其他","address":"黄浦区淮海东路99号5楼(近西藏南路)"},{"poiid":"B2094757DA65A5FB4692","title":"汉庭全季酒店（上海淮海路店）","lon":"121.48227","lat":"31.225427","category":"216","category_name":"经济型连锁酒店","address":"上海市黄浦区云南南路297号(近淮海路)"},{"poiid":"B2094753D665A6F4409A","title":"星怡會","lon":"121.48281","lat":"31.223274","category":"500","category_name":"未知分类","address":"上海市 上海無限度廣場2樓"},{"poiid":"B2094654DA6EA5FC479B","title":"老广东菜馆 寿宁店","lon":"121.48290379018","lat":"31.223858586579","category":"76","category_name":"上海菜","address":"黄浦区人民路924号(寿宁路口)"},{"poiid":"B2094757D66BA3F5439C","title":"十番烧肉","lon":"121.481204","lat":"31.224029","category":"269","category_name":"烧烤","address":"西藏南路279号近淮海东路"},{"poiid":"B2094757D064A4F9409C","title":"华哥龙虾","lon":"121.48217769","lat":"31.224411491","category":"247","category_name":"餐饮美食","address":"上海寿宁路2号"},{"poiid":"B2094757D064A3F44293","title":"Fraser Residence 上海辉盛庭国际公寓","lon":"121.481061948","lat":"31.2234862464","category":"500","category_name":"未知分类","address":"卢湾区寿宁路98号(近淮海中路)"},{"poiid":"B2094750D76EA3F5429C","title":"寿宁路美食街","lon":"121.481","lat":"31.2236","category":"68","category_name":"快餐厅","address":"黄浦区寿宁路(西藏路人民路之间)"},{"poiid":"B2094757D16EA6FD439E","title":"17号香吧岛龙虾","lon":"121.48212773","lat":"31.223932165","category":"247","category_name":"餐饮美食","address":"上海寿宁路"},{"poiid":"B2094654DA6EA6F54393","title":"阿军特色烧烤","lon":"121.48183","lat":"31.22385","category":"68","category_name":"快餐厅","address":"黄浦区寿宁路48号(近西藏南路)"},{"poiid":"B2094757D46EA5F54293","title":"笑鱼寿司","lon":"121.482329","lat":"31.2250204","category":"95","category_name":"日本料理","address":"黄浦区云南南路295号(近淮海东路)"},{"poiid":"B2094757D468A6FC4999","title":"西北郎烧烤 寿宁路店","lon":"121.482659054","lat":"31.223880793","category":"68","category_name":"快餐厅","address":"卢湾区寿宁路5号(近云南路)"},{"poiid":"B2094757D068AAFD429C","title":"华府天地","lon":"121.481","lat":"31.2249","category":"47","category_name":"住宅区","address":"卢湾区马当路222号(近新天地)"},{"poiid":"B2094757D064A7FC469D","title":"上海1号私房菜","lon":"121.48113473","lat":"31.225489199","category":"247","category_name":"餐饮美食","address":"上海市淮海东路99号"},{"poiid":"B209475CD56EA1F4499F","title":"连卡佛LaneCrawford","lon":"121.482719","lat":"31.223199","category":"249","category_name":"购物服务","address":"上海市 淮海中路93号"},{"poiid":"B2094757D06BABFC419F","title":"西北狼烧烤","lon":"121.48115173","lat":"31.223499156","category":"247","category_name":"餐饮美食","address":"上海寿宁路60号"},{"poiid":"B2094757D66BA2F54892","title":"53号香巴岛","lon":"121.481501","lat":"31.223604","category":"47","category_name":"住宅区","address":"寿宁路53号近云南南路"},{"poiid":"B2094757D16CA6F9479F","title":"麦德龙餐饮通西藏南路商场","lon":"121.48024373","lat":"31.224242172","category":"68","category_name":"快餐厅","address":"卢湾区西藏南路228号永银大厦2楼(近淮海中路)"},{"poiid":"B2094757D064A3F44798","title":"甜乐甜品 总店","lon":"121.48191","lat":"31.22389","category":"67","category_name":"甜品店","address":"卢湾区寿宁路42号(大境路人民路)"},{"poiid":"B2094757D06EAAFA449F","title":"翠华餐厅（西藏南路店）Tsui Wah Restaurant","lon":"121.48138752034185","lat":"31.224226870443808","category":"257","category_name":"中餐厅","address":"黄浦区西藏南路251号宏基西门厅106室(近桃源路)"},{"poiid":"B2094757D06EAAF44898","title":"寿宁路小龙虾","lon":"121.48185","lat":"31.22348","category":"68","category_name":"快餐厅","address":"黄浦区寿宁路58号(柳林路寿宁路)"},{"poiid":"B2094757D66FA6FB429F","title":"长寿面馆乡吧岛香辣小龙虾(寿宁路分店)","lon":"121.48253","lat":"31.22377","category":"257","category_name":"中餐厅","address":"卢湾区寿宁路23号、35号(近西藏南路)"},{"poiid":"B2094753D76FAAFA449C","title":"上海滩国泰旗舰店","lon":"121.466011","lat":"31.216125","category":"249","category_name":"购物服务","address":"淮海中路868号"},{"poiid":"B209475CD564A7F84292","title":"上海滩新天地店","lon":"121.47463","lat":"31.22164","category":"119","category_name":"商场","address":"\"太仓路181弄新天地北里15号\r\n\""},{"poiid":"B209475CD564A7F8439E","title":"上海滩中信泰富店","lon":"121.45602","lat":"31.22851","category":"119","category_name":"商场","address":"\"南京西路1168号中信泰富广场，店铺号221.\r\n\""},{"poiid":"B209475CD564A7F84392","title":"上海滩浦东香格里拉店","lon":"121.50058","lat":"31.23634","category":"119","category_name":"商场","address":"浦东富成路33号香格里拉酒店内大堂层"},{"poiid":"B2094757D06FA3F84792","title":"上海第一家香吧岛龙虾(寿宁路总店)","lon":"121.48265","lat":"31.22375","category":"68","category_name":"快餐厅","address":"卢湾区寿宁路20-24号(近西藏南路)"},{"poiid":"B2094655D36CA1FE409C","title":"寿宁路","lon":"121.48061","lat":"31.22345","category":"38","category_name":"公交车站","address":""},{"poiid":"B2094757D06FA3F44598","title":"韩乡园(淮海东路店)","lon":"121.48132","lat":"31.22544","category":"96","category_name":"韩国料理","address":"上海黄浦区淮海东路99号佰腾数码广场5楼(近西藏南路)  "},{"poiid":"B2094757D06FA1F5439E","title":"一锅鲜","lon":"121.48108643","lat":"31.223254051","category":"76","category_name":"上海菜","address":"黄浦区淮海东路99号新尚数码广场5楼(西藏路淮海东路交叉口)"},{"poiid":"B2094757D06FA1F8489B","title":"新尚(佰腾)数码广场","lon":"121.48131","lat":"31.22535","category":"138","category_name":"家电电子卖场","address":"黄浦区淮海东路99号(近西藏南路)"},{"poiid":"B2094757D16DA1FB499B","title":"华美国际酒店","lon":"121.481757","lat":"31.22221","category":"217","category_name":"旅馆招待所","address":"黄浦区西藏南路381号(近淮海中路)"},{"poiid":"B2094757D06FA2F8489F","title":"韩记烧烤","lon":"121.48191","lat":"31.22352","category":"68","category_name":"快餐厅","address":"卢湾区寿宁路26号(近西藏南路)"},{"poiid":"B2094753D26EA4FD4392","title":"饭小馆","lon":"121.480981","lat":"31.224193","category":"247","category_name":"餐饮美食","address":"上海市 上海市西藏南路279号108室"},{"poiid":"B2094757D068A1FC4693","title":"天天周末(黄浦店)","lon":"121.480736676","lat":"31.2249215581","category":"249","category_name":"购物服务","address":"黄浦区淮海东路99号2楼215室(近西藏路)"},{"poiid":"B2094757D068A2FB409F","title":"寿宁路烧烤摊","lon":"121.48309","lat":"31.22394","category":"68","category_name":"快餐厅","address":"黄浦区寿宁路(人民路口)"},{"poiid":"B2094757D06FA1FA419E","title":"YOBA酸奶冰淇淋(西藏南路店)","lon":"121.481198","lat":"31.2241349","category":"113","category_name":"冷饮店","address":"黄浦区西藏南路279号109铺(近寿宁路)"},{"poiid":"B2094757D664A7FF4692","title":"翠萃餐厅","lon":"121.48078","lat":"31.22447","category":"76","category_name":"上海菜","address":"西藏南路251号2楼近桃源路"},{"poiid":"B2094757D06EAAFA4393","title":"道顿堀酷酷璐 吴江路店","lon":"121.480552","lat":"31.224973","category":"95","category_name":"日本料理","address":"静安区吴江路169号四季坊122号(近石门一路)"},{"poiid":"B2094757D06FA1FF479C","title":"味千拉面(淮海中路店)","lon":"121.48052","lat":"31.22496","category":"95","category_name":"日本料理","address":"卢湾区柳林路65号柳林大厦2楼(近西藏南路)"},{"poiid":"B2094757D568A7FB489A","title":"The Fat Olive","lon":"121.480385","lat":"31.224354","category":"257","category_name":"中餐厅","address":"西藏南路228号6楼会所餐厅南部2号(近寿宁路)"},{"poiid":"B2094757D068A0FC429F","title":"金天地国际大厦","lon":"121.482581","lat":"31.223014","category":"46","category_name":"楼宇","address":"黄浦区人民路998号"},{"poiid":"B2094753D46AA1FD459D","title":"环球港","lon":"121.480438","lat":"31.22241","category":"500","category_name":"未知分类","address":"上海市 中山北路"},{"poiid":"B2094757D06FA1F5419A","title":"川渔1906","lon":"121.48116","lat":"31.22511","category":"71","category_name":"四川菜","address":"黄浦区淮海东路99号5楼(近西藏南路)"},{"poiid":"B2094757D16CA2FF4393","title":"红梅龙虾","lon":"121.48202073","lat":"31.223744161","category":"500","category_name":"未知分类","address":"上海市寿宁路27号"},{"poiid":"B2094757D465A4F44798","title":"华哥龙虾烤鱼坊","lon":"121.482833054","lat":"31.224111793","category":"247","category_name":"餐饮美食","address":"寿宁路12号近人民路"},{"poiid":"B2094655D26EABF8489A","title":"杰杰龙虾店","lon":"121.48205","lat":"31.22392","category":"68","category_name":"快餐厅","address":"黄浦区寿宁路36号(近西藏南路)"},{"poiid":"B2094654DA6EA6F54499","title":"二子烧烤","lon":"121.4821","lat":"31.22394","category":"68","category_name":"快餐厅","address":"卢湾区寿宁路34号(近西藏南路)"},{"poiid":"B2094757D064A1FC4392","title":"淮海279","lon":"121.48077473","lat":"31.224404175","category":"76","category_name":"上海菜","address":"黄浦区西藏南路279号弘基西门町(近淮海东路)"},{"poiid":"B2094654DA6EA6F54498","title":"魏氏烧烤","lon":"121.482","lat":"31.22392","category":"87","category_name":"特色／地方风味餐厅","address":"黄浦区寿宁路38号(近西藏南路)"},{"poiid":"B2094750DA6EA2F5499A","title":"好灶头","lon":"121.481193","lat":"31.225414","category":"260","category_name":"其他","address":"黄浦区淮海东路99号5楼(近西藏南路)"},{"poiid":"B2094757DA65A5FB4692","title":"汉庭全季酒店（上海淮海路店）","lon":"121.48227","lat":"31.225427","category":"216","category_name":"经济型连锁酒店","address":"上海市黄浦区云南南路297号(近淮海路)"},{"poiid":"B2094753D665A6F4409A","title":"星怡會","lon":"121.48281","lat":"31.223274","category":"500","category_name":"未知分类","address":"上海市 上海無限度廣場2樓"},{"poiid":"B2094654DA6EA5FC479B","title":"老广东菜馆 寿宁店","lon":"121.48290379018","lat":"31.223858586579","category":"76","category_name":"上海菜","address":"黄浦区人民路924号(寿宁路口)"},{"poiid":"B2094757D66BA3F5439C","title":"十番烧肉","lon":"121.481204","lat":"31.224029","category":"269","category_name":"烧烤","address":"西藏南路279号近淮海东路"},{"poiid":"B2094757D064A4F9409C","title":"华哥龙虾","lon":"121.48217769","lat":"31.224411491","category":"247","category_name":"餐饮美食","address":"上海寿宁路2号"},{"poiid":"B2094757D064A3F44293","title":"Fraser Residence 上海辉盛庭国际公寓","lon":"121.481061948","lat":"31.2234862464","category":"500","category_name":"未知分类","address":"卢湾区寿宁路98号(近淮海中路)"},{"poiid":"B2094750D76EA3F5429C","title":"寿宁路美食街","lon":"121.481","lat":"31.2236","category":"68","category_name":"快餐厅","address":"黄浦区寿宁路(西藏路人民路之间)"},{"poiid":"B2094757D16EA6FD439E","title":"17号香吧岛龙虾","lon":"121.48212773","lat":"31.223932165","category":"247","category_name":"餐饮美食","address":"上海寿宁路"},{"poiid":"B2094654DA6EA6F54393","title":"阿军特色烧烤","lon":"121.48183","lat":"31.22385","category":"68","category_name":"快餐厅","address":"黄浦区寿宁路48号(近西藏南路)"},{"poiid":"B2094757D46EA5F54293","title":"笑鱼寿司","lon":"121.482329","lat":"31.2250204","category":"95","category_name":"日本料理","address":"黄浦区云南南路295号(近淮海东路)"},{"poiid":"B2094757D468A6FC4999","title":"西北郎烧烤 寿宁路店","lon":"121.482659054","lat":"31.223880793","category":"68","category_name":"快餐厅","address":"卢湾区寿宁路5号(近云南路)"},{"poiid":"B2094757D068AAFD429C","title":"华府天地","lon":"121.481","lat":"31.2249","category":"47","category_name":"住宅区","address":"卢湾区马当路222号(近新天地)"},{"poiid":"B2094757D064A7FC469D","title":"上海1号私房菜","lon":"121.48113473","lat":"31.225489199","category":"247","category_name":"餐饮美食","address":"上海市淮海东路99号"},{"poiid":"B209475CD56EA1F4499F","title":"连卡佛LaneCrawford","lon":"121.482719","lat":"31.223199","category":"249","category_name":"购物服务","address":"上海市 淮海中路93号"},{"poiid":"B2094757D06BABFC419F","title":"西北狼烧烤","lon":"121.48115173","lat":"31.223499156","category":"247","category_name":"餐饮美食","address":"上海寿宁路60号"},{"poiid":"B2094757D66BA2F54892","title":"53号香巴岛","lon":"121.481501","lat":"31.223604","category":"47","category_name":"住宅区","address":"寿宁路53号近云南南路"},{"poiid":"B2094757D16CA6F9479F","title":"麦德龙餐饮通西藏南路商场","lon":"121.48024373","lat":"31.224242172","category":"68","category_name":"快餐厅","address":"卢湾区西藏南路228号永银大厦2楼(近淮海中路)"},{"poiid":"B2094757D064A3F44798","title":"甜乐甜品 总店","lon":"121.48191","lat":"31.22389","category":"67","category_name":"甜品店","address":"卢湾区寿宁路42号(大境路人民路)"},{"poiid":"B2094757D06EAAFA449F","title":"翠华餐厅（西藏南路店）Tsui Wah Restaurant","lon":"121.48138752034185","lat":"31.224226870443808","category":"257","category_name":"中餐厅","address":"黄浦区西藏南路251号宏基西门厅106室(近桃源路)"},{"poiid":"B2094757D06EAAF44898","title":"寿宁路小龙虾","lon":"121.48185","lat":"31.22348","category":"68","category_name":"快餐厅","address":"黄浦区寿宁路58号(柳林路寿宁路)"},{"poiid":"B2094757D66FA6FB429F","title":"长寿面馆乡吧岛香辣小龙虾(寿宁路分店)","lon":"121.48253","lat":"31.22377","category":"257","category_name":"中餐厅","address":"卢湾区寿宁路23号、35号(近西藏南路)"},{"poiid":"B2094753D76FAAFA449C","title":"上海滩国泰旗舰店","lon":"121.466011","lat":"31.216125","category":"249","category_name":"购物服务","address":"淮海中路868号"},{"poiid":"B209475CD564A7F84292","title":"上海滩新天地店","lon":"121.47463","lat":"31.22164","category":"119","category_name":"商场","address":"\"太仓路181弄新天地北里15号\r\n\""},{"poiid":"B209475CD564A7F8439E","title":"上海滩中信泰富店","lon":"121.45602","lat":"31.22851","category":"119","category_name":"商场","address":"\"南京西路1168号中信泰富广场，店铺号221.\r\n\""},{"poiid":"B209475CD564A7F84392","title":"上海滩浦东香格里拉店","lon":"121.50058","lat":"31.23634","category":"119","category_name":"商场","address":"浦东富成路33号香格里拉酒店内大堂层"},{"poiid":"B2094757D06FA3F84792","title":"上海第一家香吧岛龙虾(寿宁路总店)","lon":"121.48265","lat":"31.22375","category":"68","category_name":"快餐厅","address":"卢湾区寿宁路20-24号(近西藏南路)"},{"poiid":"B2094655D36CA1FE409C","title":"寿宁路","lon":"121.48061","lat":"31.22345","category":"38","category_name":"公交车站","address":""},{"poiid":"B2094757D06FA3F44598","title":"韩乡园(淮海东路店)","lon":"121.48132","lat":"31.22544","category":"96","category_name":"韩国料理","address":"上海黄浦区淮海东路99号佰腾数码广场5楼(近西藏南路)  "},{"poiid":"B2094757D06FA1F5439E","title":"一锅鲜","lon":"121.48108643","lat":"31.223254051","category":"76","category_name":"上海菜","address":"黄浦区淮海东路99号新尚数码广场5楼(西藏路淮海东路交叉口)"},{"poiid":"B2094757D06FA1F8489B","title":"新尚(佰腾)数码广场","lon":"121.48131","lat":"31.22535","category":"138","category_name":"家电电子卖场","address":"黄浦区淮海东路99号(近西藏南路)"},{"poiid":"B2094757D16DA1FB499B","title":"华美国际酒店","lon":"121.481757","lat":"31.22221","category":"217","category_name":"旅馆招待所","address":"黄浦区西藏南路381号(近淮海中路)"},{"poiid":"B2094757D06FA2F8489F","title":"韩记烧烤","lon":"121.48191","lat":"31.22352","category":"68","category_name":"快餐厅","address":"卢湾区寿宁路26号(近西藏南路)"},{"poiid":"B2094753D26EA4FD4392","title":"饭小馆","lon":"121.480981","lat":"31.224193","category":"247","category_name":"餐饮美食","address":"上海市 上海市西藏南路279号108室"},{"poiid":"B2094757D068A1FC4693","title":"天天周末(黄浦店)","lon":"121.480736676","lat":"31.2249215581","category":"249","category_name":"购物服务","address":"黄浦区淮海东路99号2楼215室(近西藏路)"},{"poiid":"B2094757D068A2FB409F","title":"寿宁路烧烤摊","lon":"121.48309","lat":"31.22394","category":"68","category_name":"快餐厅","address":"黄浦区寿宁路(人民路口)"},{"poiid":"B2094757D06FA1FA419E","title":"YOBA酸奶冰淇淋(西藏南路店)","lon":"121.481198","lat":"31.2241349","category":"113","category_name":"冷饮店","address":"黄浦区西藏南路279号109铺(近寿宁路)"},{"poiid":"B2094757D664A7FF4692","title":"翠萃餐厅","lon":"121.48078","lat":"31.22447","category":"76","category_name":"上海菜","address":"西藏南路251号2楼近桃源路"},{"poiid":"B2094757D06EAAFA4393","title":"道顿堀酷酷璐 吴江路店","lon":"121.480552","lat":"31.224973","category":"95","category_name":"日本料理","address":"静安区吴江路169号四季坊122号(近石门一路)"},{"poiid":"B2094757D06FA1FF479C","title":"味千拉面(淮海中路店)","lon":"121.48052","lat":"31.22496","category":"95","category_name":"日本料理","address":"卢湾区柳林路65号柳林大厦2楼(近西藏南路)"},{"poiid":"B2094757D568A7FB489A","title":"The Fat Olive","lon":"121.480385","lat":"31.224354","category":"257","category_name":"中餐厅","address":"西藏南路228号6楼会所餐厅南部2号(近寿宁路)"},{"poiid":"B2094757D068A0FC429F","title":"金天地国际大厦","lon":"121.482581","lat":"31.223014","category":"46","category_name":"楼宇","address":"黄浦区人民路998号"},{"poiid":"B2094753D46AA1FD459D","title":"环球港","lon":"121.480438","lat":"31.22241","category":"500","category_name":"未知分类","address":"上海市 中山北路"},{"poiid":"B2094757D06FA1F5419A","title":"川渔1906","lon":"121.48116","lat":"31.22511","category":"71","category_name":"四川菜","address":"黄浦区淮海东路99号5楼(近西藏南路)"},{"poiid":"B2094757D16CA2FF4393","title":"红梅龙虾","lon":"121.48202073","lat":"31.223744161","category":"500","category_name":"未知分类","address":"上海市寿宁路27号"},{"poiid":"B2094757D465A4F44798","title":"华哥龙虾烤鱼坊","lon":"121.482833054","lat":"31.224111793","category":"247","category_name":"餐饮美食","address":"寿宁路12号近人民路"},{"poiid":"B2094655D26EABF8489A","title":"杰杰龙虾店","lon":"121.48205","lat":"31.22392","category":"68","category_name":"快餐厅","address":"黄浦区寿宁路36号(近西藏南路)"},{"poiid":"B2094654DA6EA6F54499","title":"二子烧烤","lon":"121.4821","lat":"31.22394","category":"68","category_name":"快餐厅","address":"卢湾区寿宁路34号(近西藏南路)"},{"poiid":"B2094757D064A1FC4392","title":"淮海279","lon":"121.48077473","lat":"31.224404175","category":"76","category_name":"上海菜","address":"黄浦区西藏南路279号弘基西门町(近淮海东路)"},{"poiid":"B2094654DA6EA6F54498","title":"魏氏烧烤","lon":"121.482","lat":"31.22392","category":"87","category_name":"特色／地方风味餐厅","address":"黄浦区寿宁路38号(近西藏南路)"},{"poiid":"B2094750DA6EA2F5499A","title":"好灶头","lon":"121.481193","lat":"31.225414","category":"260","category_name":"其他","address":"黄浦区淮海东路99号5楼(近西藏南路)"},{"poiid":"B2094757DA65A5FB4692","title":"汉庭全季酒店（上海淮海路店）","lon":"121.48227","lat":"31.225427","category":"216","category_name":"经济型连锁酒店","address":"上海市黄浦区云南南路297号(近淮海路)"},{"poiid":"B2094753D665A6F4409A","title":"星怡會","lon":"121.48281","lat":"31.223274","category":"500","category_name":"未知分类","address":"上海市 上海無限度廣場2樓"},{"poiid":"B2094654DA6EA5FC479B","title":"老广东菜馆 寿宁店","lon":"121.48290379018","lat":"31.223858586579","category":"76","category_name":"上海菜","address":"黄浦区人民路924号(寿宁路口)"},{"poiid":"B2094757D66BA3F5439C","title":"十番烧肉","lon":"121.481204","lat":"31.224029","category":"269","category_name":"烧烤","address":"西藏南路279号近淮海东路"},{"poiid":"B2094757D064A4F9409C","title":"华哥龙虾","lon":"121.48217769","lat":"31.224411491","category":"247","category_name":"餐饮美食","address":"上海寿宁路2号"},{"poiid":"B2094757D064A3F44293","title":"Fraser Residence 上海辉盛庭国际公寓","lon":"121.481061948","lat":"31.2234862464","category":"500","category_name":"未知分类","address":"卢湾区寿宁路98号(近淮海中路)"},{"poiid":"B2094750D76EA3F5429C","title":"寿宁路美食街","lon":"121.481","lat":"31.2236","category":"68","category_name":"快餐厅","address":"黄浦区寿宁路(西藏路人民路之间)"},{"poiid":"B2094757D16EA6FD439E","title":"17号香吧岛龙虾","lon":"121.48212773","lat":"31.223932165","category":"247","category_name":"餐饮美食","address":"上海寿宁路"},{"poiid":"B2094654DA6EA6F54393","title":"阿军特色烧烤","lon":"121.48183","lat":"31.22385","category":"68","category_name":"快餐厅","address":"黄浦区寿宁路48号(近西藏南路)"},{"poiid":"B2094757D46EA5F54293","title":"笑鱼寿司","lon":"121.482329","lat":"31.2250204","category":"95","category_name":"日本料理","address":"黄浦区云南南路295号(近淮海东路)"},{"poiid":"B2094757D468A6FC4999","title":"西北郎烧烤 寿宁路店","lon":"121.482659054","lat":"31.223880793","category":"68","category_name":"快餐厅","address":"卢湾区寿宁路5号(近云南路)"},{"poiid":"B2094757D068AAFD429C","title":"华府天地","lon":"121.481","lat":"31.2249","category":"47","category_name":"住宅区","address":"卢湾区马当路222号(近新天地)"},{"poiid":"B2094757D064A7FC469D","title":"上海1号私房菜","lon":"121.48113473","lat":"31.225489199","category":"247","category_name":"餐饮美食","address":"上海市淮海东路99号"},{"poiid":"B209475CD56EA1F4499F","title":"连卡佛LaneCrawford","lon":"121.482719","lat":"31.223199","category":"249","category_name":"购物服务","address":"上海市 淮海中路93号"},{"poiid":"B2094757D06BABFC419F","title":"西北狼烧烤","lon":"121.48115173","lat":"31.223499156","category":"247","category_name":"餐饮美食","address":"上海寿宁路60号"},{"poiid":"B2094757D66BA2F54892","title":"53号香巴岛","lon":"121.481501","lat":"31.223604","category":"47","category_name":"住宅区","address":"寿宁路53号近云南南路"},{"poiid":"B2094757D16CA6F9479F","title":"麦德龙餐饮通西藏南路商场","lon":"121.48024373","lat":"31.224242172","category":"68","category_name":"快餐厅","address":"卢湾区西藏南路228号永银大厦2楼(近淮海中路)"},{"poiid":"B2094757D064A3F44798","title":"甜乐甜品 总店","lon":"121.48191","lat":"31.22389","category":"67","category_name":"甜品店","address":"卢湾区寿宁路42号(大境路人民路)"}]