[{"poiid":"B2094757D06FA2FF4199","title":"辛香汇(百联虹口店)","lon":"121.46732","lat":"31.27265","category":"71","category_name":"四川菜","address":"虹口区同丰路699号百联虹口购物中心4楼(近北宝兴路)"},{"poiid":"B2094655D265A3FB4193","title":"老李羊蝎子涮锅(闸北店)","lon":"121.46549","lat":"31.27302","category":"86","category_name":"火锅店","address":"闸北区北宝兴路182号(近洛川东路)"},{"poiid":"B2094757D06FA0FD469E","title":"嘉利明珠城","lon":"121.4636","lat":"31.273628","category":"47","category_name":"住宅区","address":"平型关路377弄"},{"poiid":"B2094757D064A0F5469C","title":"盱眙倪氏龙虾","lon":"121.46307659","lat":"31.275142231","category":"68","category_name":"快餐厅","address":"闸北区北宝兴路276号(近延长路)"},{"poiid":"B2094757D06EAAF94992","title":"巴麦隆烤肉(延长路店)","lon":"121.4633","lat":"31.27423","category":"68","category_name":"快餐厅","address":"闸北区延长路22号(北宝兴路延长路)"},{"poiid":"B2094757D068A7F84893","title":"餐匠韩国料理自助烤肉","lon":"121.461091","lat":"31.273771","category":"96","category_name":"韩国料理","address":"闸北区延长路123号(近平型关路)"},{"poiid":"B2094750DA64AAFA419D","title":"好乐迪(虹口百联店)","lon":"121.46685032009884","lat":"31.273299499397623","category":"170","category_name":"KTV","address":"虹口区同丰路699号百联虹口购物中心5楼"},{"poiid":"B2094654D56DA5FA4198","title":"意和家园","lon":"121.4642","lat":"31.276701","category":"47","category_name":"住宅区","address":"上海市虹口区株洲路290号"},{"poiid":"B2094655D26CA0FC439F","title":"大上海紫金城","lon":"121.46705","lat":"31.273848","category":"47","category_name":"住宅区","address":"上海市虹口区同丰路666弄"},{"poiid":"B2094757D06FA4FA4099","title":"北宝兴路洛川东路","lon":"121.465499","lat":"31.273287","category":"500","category_name":"未知分类","address":"上海北宝兴路洛川东路"},{"poiid":"B2094655D265AAF54192","title":"木房子特色烤鱼 北宝兴路店","lon":"121.464176054","lat":"31.274371793","category":"71","category_name":"四川菜","address":"闸北区北宝兴路252号(近延长路)"},{"poiid":"B2094757D06AA5F94298","title":"琪琪面馆","lon":"121.46451","lat":"31.27442","category":"68","category_name":"快餐厅","address":"闸北区北宝兴路296-298号(近延长路)"},{"poiid":"B2094757D16DAAFC469A","title":"唐老鸭海味鲜大排档","lon":"121.465463903","lat":"31.2729590753","category":"68","category_name":"快餐厅","address":"闸北区北宝兴路191号(近同丰路)"},{"poiid":"B2094655D26BA1FC459F","title":"平型关路延长路","lon":"121.46224","lat":"31.27288","category":"38","category_name":"公交车站","address":""},{"poiid":"B2094654D56DA5F4469D","title":"珊瑚苑","lon":"121.46266","lat":"31.279222","category":"47","category_name":"住宅区","address":"广中路680弄1-28号"},{"poiid":"B2094750DB64ABF84399","title":"上海梅赛德斯-奔驰文化中心","lon":"121.460708","lat":"31.278104","category":"500","category_name":"未知分类","address":"世博大道1200号"},{"poiid":"B2094750D56FA5F9479E","title":"上海市虹口区人民法院","lon":"121.462226","lat":"31.276756","category":"608","category_name":"法院","address":"北宝兴路"},{"poiid":"B2094757D06BA2FD4492","title":"99靓味馆","lon":"121.464987103","lat":"31.2732196807","category":"72","category_name":"广东菜","address":"虹口区同丰路699号百联购物中心4楼(近北宝兴路)"},{"poiid":"B2094757D065A6F8469D","title":"小杨生煎虹口百联店","lon":"121.465121503","lat":"31.2733471834","category":"68","category_name":"快餐厅","address":"虹口区同丰路699号虹口百联第一食品B1楼(近北宝兴路)"},{"poiid":"B2094655D36DA7FA449F","title":"株洲路新同心路","lon":"121.46556","lat":"31.27693","category":"38","category_name":"公交车站","address":""},{"poiid":"B2094757D06AA1FE439A","title":"川川川川菜馆 平型关路店","lon":"121.4610364434","lat":"31.274981176498","category":"71","category_name":"四川菜","address":"闸北区平型关路603号(近民晏路)"},{"poiid":"B2094654D56DA5FA4999","title":"600创意工坊","lon":"121.46228","lat":"31.27607","category":"46","category_name":"楼宇","address":"闸北区北宝兴路600号(近民晏路)"},{"poiid":"B2094655D265AAFA409F","title":"彩虹雨创意园","lon":"121.46382","lat":"31.27556","category":"45","category_name":"产业园区","address":"闸北区北宝兴路355号(近延长路)"},{"poiid":"B2094757D164ABFE459E","title":"源日本涮锅铁板烧","lon":"121.464347103","lat":"31.2750735195","category":"247","category_name":"餐饮美食","address":"上海北宝兴路280号"},{"poiid":"B2094750D664A2F5459D","title":"老李羊羯子(北宝兴路店)","lon":"121.464","lat":"31.2747","category":"86","category_name":"火锅店","address":"虹口区北宝兴路182号(近凉城路)"},{"poiid":"B2094655D26CA0FE449B","title":"吴记私房菜","lon":"121.46363","lat":"31.27469","category":"76","category_name":"上海菜","address":"闸北区延长路10号(近北宝兴路)"},{"poiid":"B2094752DB6AAAFB4398","title":"阿木龙虾","lon":"121.461442","lat":"31.274998","category":"247","category_name":"餐饮美食","address":"上海市 闸北区北宝兴路167号"},{"poiid":"B2094757D66CA0FC409A","title":"东北大菜馆(旺秀餐饮)","lon":"121.46347","lat":"31.27503","category":"82","category_name":"东北菜","address":"闸北区延长路2号(近上海大学)"},{"poiid":"B2094757D568ABFC4898","title":"1来康茶餐厅","lon":"121.46537923","lat":"31.2761008","category":"72","category_name":"广东菜","address":"虹口区株洲路230号"},{"poiid":"B2094757D06AA6FD419B","title":"呷哺呷哺(百联虹口店)","lon":"121.466956103","lat":"31.2740574982","category":"247","category_name":"餐饮美食","address":"虹口区同丰路699号百联购物中心B1楼G48-FB1-1-106室"},{"poiid":"B2094757D66CA2FF499F","title":"味千拉面(百联虹口店)","lon":"121.465550103","lat":"31.2732004803","category":"95","category_name":"日本料理","address":"虹口区同丰路699号百联虹口购物中心"},{"poiid":"B2094750D76FA7FB4299","title":"绿廷苑酒店","lon":"121.465","lat":"31.2793","category":"76","category_name":"上海菜","address":"虹口区株洲路357号(近广中路)"},{"poiid":"B2094654D56DA5FB469E","title":"满陆港式茶餐厅","lon":"121.4619621241","lat":"31.273795392152","category":"72","category_name":"广东菜","address":"上海闸北区延长路36号(近北宝兴路)  "},{"poiid":"B2094750D56EA3FC469A","title":"炭路者","lon":"121.462196","lat":"31.27342","category":"68","category_name":"快餐厅","address":"闸北区延长路48号(近平型关路)"},{"poiid":"B2094757D165A7FB4693","title":"66路北宝兴路民晏路站","lon":"121.46300648","lat":"31.275271806","category":"38","category_name":"公交车站","address":"上海北宝兴路(近民晏路)"},{"poiid":"B2094654D56DA5FA4098","title":"三湘花苑","lon":"121.46474","lat":"31.277779","category":"47","category_name":"住宅区","address":"株洲路300弄1-12号,17-26号"},{"poiid":"B2094757D16CABFA429B","title":"老北京羊羯子王","lon":"121.46442","lat":"31.27408","category":"86","category_name":"火锅店","address":"闸北区北宝兴路280号(近延长路)"},{"poiid":"B2094757D66DA7FC4692","title":"杰克造型","lon":"121.4638911","lat":"31.276171542","category":"148","category_name":"美容美发店","address":"上海株洲路246號"},{"poiid":"B2094757D469A6FE409C","title":"胡杨林烧烤吧","lon":"121.4656292","lat":"31.2731649","category":"68","category_name":"快餐厅","address":"虹口区北宝兴路155号(近洛川东路)"},{"poiid":"B2094757D168A2FE4698","title":"创智天地小剧场","lon":"121.4653176","lat":"31.275547029","category":"180","category_name":"剧场","address":"上海杨浦区淞沪路388号创智天地7号楼"},{"poiid":"B2094655D36CA7F4479C","title":"广中路广粤路","lon":"121.4664","lat":"31.28015","category":"38","category_name":"公交车站","address":""},{"poiid":"B2094757D76EA3FB459A","title":"王记烧烤","lon":"121.461826054","lat":"31.273692793","category":"68","category_name":"快餐厅","address":"闸北区延长路48号(近平型关路)"},{"poiid":"B2094654D56DA5FB4392","title":"峥宸苑","lon":"121.46225","lat":"31.2749","category":"47","category_name":"住宅区","address":"上海延长路99弄"},{"poiid":"B2094655D264ABFD499D","title":"龙泰公寓","lon":"121.46666","lat":"31.275637","category":"46","category_name":"楼宇","address":"虹口区新同心路108弄"},{"poiid":"B2094757D068A6F4429E","title":"乾虹佳苑","lon":"121.46552708","lat":"31.277394646","category":"47","category_name":"住宅区","address":"上海广中路620弄"},{"poiid":"B2094757D16CA0FE499A","title":"禾绿寿司(虹口百联店)","lon":"121.465366103","lat":"31.2735044867","category":"247","category_name":"餐饮美食","address":"上海同丰路699号"},{"poiid":"B2094757D168A3FF429F","title":"喜德棒","lon":"121.464461","lat":"31.274155","category":"247","category_name":"餐饮美食","address":"上海北宝兴路268号"},{"poiid":"B2094757D16DA6FC4592","title":"食其家 百联虹口店","lon":"121.465132903","lat":"31.2733495834","category":"95","category_name":"日本料理","address":"虹口区同丰路699号百联虹口购物中心(北宝兴路洛川东路)"},{"poiid":"B2094655D36CA5F5459F","title":"北宝兴路民晏路","lon":"121.46324","lat":"31.27519","category":"38","category_name":"公交车站","address":""},{"poiid":"B2094757D66FA2F44098","title":"韩林烧烤","lon":"121.463685803","lat":"31.2752634234","category":"247","category_name":"餐饮美食","address":"上海同丰路"},{"poiid":"B2094757D06FA2FF4199","title":"辛香汇(百联虹口店)","lon":"121.46732","lat":"31.27265","category":"71","category_name":"四川菜","address":"虹口区同丰路699号百联虹口购物中心4楼(近北宝兴路)"},{"poiid":"B2094655D265A3FB4193","title":"老李羊蝎子涮锅(闸北店)","lon":"121.46549","lat":"31.27302","category":"86","category_name":"火锅店","address":"闸北区北宝兴路182号(近洛川东路)"},{"poiid":"B2094757D06FA0FD469E","title":"嘉利明珠城","lon":"121.4636","lat":"31.273628","category":"47","category_name":"住宅区","address":"平型关路377弄"},{"poiid":"B2094757D064A0F5469C","title":"盱眙倪氏龙虾","lon":"121.46307659","lat":"31.275142231","category":"68","category_name":"快餐厅","address":"闸北区北宝兴路276号(近延长路)"},{"poiid":"B2094757D06EAAF94992","title":"巴麦隆烤肉(延长路店)","lon":"121.4633","lat":"31.27423","category":"68","category_name":"快餐厅","address":"闸北区延长路22号(北宝兴路延长路)"},{"poiid":"B2094757D068A7F84893","title":"餐匠韩国料理自助烤肉","lon":"121.461091","lat":"31.273771","category":"96","category_name":"韩国料理","address":"闸北区延长路123号(近平型关路)"},{"poiid":"B2094750DA64AAFA419D","title":"好乐迪(虹口百联店)","lon":"121.46685032009884","lat":"31.273299499397623","category":"170","category_name":"KTV","address":"虹口区同丰路699号百联虹口购物中心5楼"},{"poiid":"B2094654D56DA5FA4198","title":"意和家园","lon":"121.4642","lat":"31.276701","category":"47","category_name":"住宅区","address":"上海市虹口区株洲路290号"},{"poiid":"B2094655D26CA0FC439F","title":"大上海紫金城","lon":"121.46705","lat":"31.273848","category":"47","category_name":"住宅区","address":"上海市虹口区同丰路666弄"},{"poiid":"B2094757D06FA4FA4099","title":"北宝兴路洛川东路","lon":"121.465499","lat":"31.273287","category":"500","category_name":"未知分类","address":"上海北宝兴路洛川东路"},{"poiid":"B2094655D265AAF54192","title":"木房子特色烤鱼 北宝兴路店","lon":"121.464176054","lat":"31.274371793","category":"71","category_name":"四川菜","address":"闸北区北宝兴路252号(近延长路)"},{"poiid":"B2094757D06AA5F94298","title":"琪琪面馆","lon":"121.46451","lat":"31.27442","category":"68","category_name":"快餐厅","address":"闸北区北宝兴路296-298号(近延长路)"},{"poiid":"B2094757D16DAAFC469A","title":"唐老鸭海味鲜大排档","lon":"121.465463903","lat":"31.2729590753","category":"68","category_name":"快餐厅","address":"闸北区北宝兴路191号(近同丰路)"},{"poiid":"B2094655D26BA1FC459F","title":"平型关路延长路","lon":"121.46224","lat":"31.27288","category":"38","category_name":"公交车站","address":""},{"poiid":"B2094654D56DA5F4469D","title":"珊瑚苑","lon":"121.46266","lat":"31.279222","category":"47","category_name":"住宅区","address":"广中路680弄1-28号"},{"poiid":"B2094750DB64ABF84399","title":"上海梅赛德斯-奔驰文化中心","lon":"121.460708","lat":"31.278104","category":"500","category_name":"未知分类","address":"世博大道1200号"},{"poiid":"B2094750D56FA5F9479E","title":"上海市虹口区人民法院","lon":"121.462226","lat":"31.276756","category":"608","category_name":"法院","address":"北宝兴路"},{"poiid":"B2094757D06BA2FD4492","title":"99靓味馆","lon":"121.464987103","lat":"31.2732196807","category":"72","category_name":"广东菜","address":"虹口区同丰路699号百联购物中心4楼(近北宝兴路)"},{"poiid":"B2094757D065A6F8469D","title":"小杨生煎虹口百联店","lon":"121.465121503","lat":"31.2733471834","category":"68","category_name":"快餐厅","address":"虹口区同丰路699号虹口百联第一食品B1楼(近北宝兴路)"},{"poiid":"B2094655D36DA7FA449F","title":"株洲路新同心路","lon":"121.46556","lat":"31.27693","category":"38","category_name":"公交车站","address":""},{"poiid":"B2094757D06AA1FE439A","title":"川川川川菜馆 平型关路店","lon":"121.4610364434","lat":"31.274981176498","category":"71","category_name":"四川菜","address":"闸北区平型关路603号(近民晏路)"},{"poiid":"B2094654D56DA5FA4999","title":"600创意工坊","lon":"121.46228","lat":"31.27607","category":"46","category_name":"楼宇","address":"闸北区北宝兴路600号(近民晏路)"},{"poiid":"B2094655D265AAFA409F","title":"彩虹雨创意园","lon":"121.46382","lat":"31.27556","category":"45","category_name":"产业园区","address":"闸北区北宝兴路355号(近延长路)"},{"poiid":"B2094757D164ABFE459E","title":"源日本涮锅铁板烧","lon":"121.464347103","lat":"31.2750735195","category":"247","category_name":"餐饮美食","address":"上海北宝兴路280号"},{"poiid":"B2094750D664A2F5459D","title":"老李羊羯子(北宝兴路店)","lon":"121.464","lat":"31.2747","category":"86","category_name":"火锅店","address":"虹口区北宝兴路182号(近凉城路)"},{"poiid":"B2094655D26CA0FE449B","title":"吴记私房菜","lon":"121.46363","lat":"31.27469","category":"76","category_name":"上海菜","address":"闸北区延长路10号(近北宝兴路)"},{"poiid":"B2094752DB6AAAFB4398","title":"阿木龙虾","lon":"121.461442","lat":"31.274998","category":"247","category_name":"餐饮美食","address":"上海市 闸北区北宝兴路167号"},{"poiid":"B2094757D66CA0FC409A","title":"东北大菜馆(旺秀餐饮)","lon":"121.46347","lat":"31.27503","category":"82","category_name":"东北菜","address":"闸北区延长路2号(近上海大学)"},{"poiid":"B2094757D568ABFC4898","title":"1来康茶餐厅","lon":"121.46537923","lat":"31.2761008","category":"72","category_name":"广东菜","address":"虹口区株洲路230号"},{"poiid":"B2094757D06AA6FD419B","title":"呷哺呷哺(百联虹口店)","lon":"121.466956103","lat":"31.2740574982","category":"247","category_name":"餐饮美食","address":"虹口区同丰路699号百联购物中心B1楼G48-FB1-1-106室"},{"poiid":"B2094757D66CA2FF499F","title":"味千拉面(百联虹口店)","lon":"121.465550103","lat":"31.2732004803","category":"95","category_name":"日本料理","address":"虹口区同丰路699号百联虹口购物中心"},{"poiid":"B2094750D76FA7FB4299","title":"绿廷苑酒店","lon":"121.465","lat":"31.2793","category":"76","category_name":"上海菜","address":"虹口区株洲路357号(近广中路)"},{"poiid":"B2094654D56DA5FB469E","title":"满陆港式茶餐厅","lon":"121.4619621241","lat":"31.273795392152","category":"72","category_name":"广东菜","address":"上海闸北区延长路36号(近北宝兴路)  "},{"poiid":"B2094750D56EA3FC469A","title":"炭路者","lon":"121.462196","lat":"31.27342","category":"68","category_name":"快餐厅","address":"闸北区延长路48号(近平型关路)"},{"poiid":"B2094757D165A7FB4693","title":"66路北宝兴路民晏路站","lon":"121.46300648","lat":"31.275271806","category":"38","category_name":"公交车站","address":"上海北宝兴路(近民晏路)"},{"poiid":"B2094654D56DA5FA4098","title":"三湘花苑","lon":"121.46474","lat":"31.277779","category":"47","category_name":"住宅区","address":"株洲路300弄1-12号,17-26号"},{"poiid":"B2094757D16CABFA429B","title":"老北京羊羯子王","lon":"121.46442","lat":"31.27408","category":"86","category_name":"火锅店","address":"闸北区北宝兴路280号(近延长路)"},{"poiid":"B2094757D66DA7FC4692","title":"杰克造型","lon":"121.4638911","lat":"31.276171542","category":"148","category_name":"美容美发店","address":"上海株洲路246號"},{"poiid":"B2094757D469A6FE409C","title":"胡杨林烧烤吧","lon":"121.4656292","lat":"31.2731649","category":"68","category_name":"快餐厅","address":"虹口区北宝兴路155号(近洛川东路)"},{"poiid":"B2094757D168A2FE4698","title":"创智天地小剧场","lon":"121.4653176","lat":"31.275547029","category":"180","category_name":"剧场","address":"上海杨浦区淞沪路388号创智天地7号楼"},{"poiid":"B2094655D36CA7F4479C","title":"广中路广粤路","lon":"121.4664","lat":"31.28015","category":"38","category_name":"公交车站","address":""},{"poiid":"B2094757D76EA3FB459A","title":"王记烧烤","lon":"121.461826054","lat":"31.273692793","category":"68","category_name":"快餐厅","address":"闸北区延长路48号(近平型关路)"},{"poiid":"B2094654D56DA5FB4392","title":"峥宸苑","lon":"121.46225","lat":"31.2749","category":"47","category_name":"住宅区","address":"上海延长路99弄"},{"poiid":"B2094655D264ABFD499D","title":"龙泰公寓","lon":"121.46666","lat":"31.275637","category":"46","category_name":"楼宇","address":"虹口区新同心路108弄"},{"poiid":"B2094757D068A6F4429E","title":"乾虹佳苑","lon":"121.46552708","lat":"31.277394646","category":"47","category_name":"住宅区","address":"上海广中路620弄"},{"poiid":"B2094757D16CA0FE499A","title":"禾绿寿司(虹口百联店)","lon":"121.465366103","lat":"31.2735044867","category":"247","category_name":"餐饮美食","address":"上海同丰路699号"},{"poiid":"B2094757D168A3FF429F","title":"喜德棒","lon":"121.464461","lat":"31.274155","category":"247","category_name":"餐饮美食","address":"上海北宝兴路268号"},{"poiid":"B2094757D16DA6FC4592","title":"食其家 百联虹口店","lon":"121.465132903","lat":"31.2733495834","category":"95","category_name":"日本料理","address":"虹口区同丰路699号百联虹口购物中心(北宝兴路洛川东路)"},{"poiid":"B2094655D36CA5F5459F","title":"北宝兴路民晏路","lon":"121.46324","lat":"31.27519","category":"38","category_name":"公交车站","address":""},{"poiid":"B2094757D66FA2F44098","title":"韩林烧烤","lon":"121.463685803","lat":"31.2752634234","category":"247","category_name":"餐饮美食","address":"上海同丰路"},{"poiid":"B2094757D06FA2FF4199","title":"辛香汇(百联虹口店)","lon":"121.46732","lat":"31.27265","category":"71","category_name":"四川菜","address":"虹口区同丰路699号百联虹口购物中心4楼(近北宝兴路)"},{"poiid":"B2094655D265A3FB4193","title":"老李羊蝎子涮锅(闸北店)","lon":"121.46549","lat":"31.27302","category":"86","category_name":"火锅店","address":"闸北区北宝兴路182号(近洛川东路)"},{"poiid":"B2094757D06FA0FD469E","title":"嘉利明珠城","lon":"121.4636","lat":"31.273628","category":"47","category_name":"住宅区","address":"平型关路377弄"},{"poiid":"B2094757D064A0F5469C","title":"盱眙倪氏龙虾","lon":"121.46307659","lat":"31.275142231","category":"68","category_name":"快餐厅","address":"闸北区北宝兴路276号(近延长路)"},{"poiid":"B2094757D06EAAF94992","title":"巴麦隆烤肉(延长路店)","lon":"121.4633","lat":"31.27423","category":"68","category_name":"快餐厅","address":"闸北区延长路22号(北宝兴路延长路)"},{"poiid":"B2094757D068A7F84893","title":"餐匠韩国料理自助烤肉","lon":"121.461091","lat":"31.273771","category":"96","category_name":"韩国料理","address":"闸北区延长路123号(近平型关路)"},{"poiid":"B2094750DA64AAFA419D","title":"好乐迪(虹口百联店)","lon":"121.46685032009884","lat":"31.273299499397623","category":"170","category_name":"KTV","address":"虹口区同丰路699号百联虹口购物中心5楼"},{"poiid":"B2094654D56DA5FA4198","title":"意和家园","lon":"121.4642","lat":"31.276701","category":"47","category_name":"住宅区","address":"上海市虹口区株洲路290号"},{"poiid":"B2094655D26CA0FC439F","title":"大上海紫金城","lon":"121.46705","lat":"31.273848","category":"47","category_name":"住宅区","address":"上海市虹口区同丰路666弄"},{"poiid":"B2094757D06FA4FA4099","title":"北宝兴路洛川东路","lon":"121.465499","lat":"31.273287","category":"500","category_name":"未知分类","address":"上海北宝兴路洛川东路"},{"poiid":"B2094655D265AAF54192","title":"木房子特色烤鱼 北宝兴路店","lon":"121.464176054","lat":"31.274371793","category":"71","category_name":"四川菜","address":"闸北区北宝兴路252号(近延长路)"},{"poiid":"B2094757D06AA5F94298","title":"琪琪面馆","lon":"121.46451","lat":"31.27442","category":"68","category_name":"快餐厅","address":"闸北区北宝兴路296-298号(近延长路)"},{"poiid":"B2094757D16DAAFC469A","title":"唐老鸭海味鲜大排档","lon":"121.465463903","lat":"31.2729590753","category":"68","category_name":"快餐厅","address":"闸北区北宝兴路191号(近同丰路)"},{"poiid":"B2094655D26BA1FC459F","title":"平型关路延长路","lon":"121.46224","lat":"31.27288","category":"38","category_name":"公交车站","address":""},{"poiid":"B2094654D56DA5F4469D","title":"珊瑚苑","lon":"121.46266","lat":"31.279222","category":"47","category_name":"住宅区","address":"广中路680弄1-28号"},{"poiid":"B2094750DB64ABF84399","title":"上海梅赛德斯-奔驰文化中心","lon":"121.460708","lat":"31.278104","category":"500","category_name":"未知分类","address":"世博大道1200号"},{"poiid":"B2094750D56FA5F9479E","title":"上海市虹口区人民法院","lon":"121.462226","lat":"31.276756","category":"608","category_name":"法院","address":"北宝兴路"},{"poiid":"B2094757D06BA2FD4492","title":"99靓味馆","lon":"121.464987103","lat":"31.2732196807","category":"72","category_name":"广东菜","address":"虹口区同丰路699号百联购物中心4楼(近北宝兴路)"},{"poiid":"B2094757D065A6F8469D","title":"小杨生煎虹口百联店","lon":"121.465121503","lat":"31.2733471834","category":"68","category_name":"快餐厅","address":"虹口区同丰路699号虹口百联第一食品B1楼(近北宝兴路)"},{"poiid":"B2094655D36DA7FA449F","title":"株洲路新同心路","lon":"121.46556","lat":"31.27693","category":"38","category_name":"公交车站","address":""},{"poiid":"B2094757D06AA1FE439A","title":"川川川川菜馆 平型关路店","lon":"121.4610364434","lat":"31.274981176498","category":"71","category_name":"四川菜","address":"闸北区平型关路603号(近民晏路)"},{"poiid":"B2094654D56DA5FA4999","title":"600创意工坊","lon":"121.46228","lat":"31.27607","category":"46","category_name":"楼宇","address":"闸北区北宝兴路600号(近民晏路)"},{"poiid":"B2094655D265AAFA409F","title":"彩虹雨创意园","lon":"121.46382","lat":"31.27556","category":"45","category_name":"产业园区","address":"闸北区北宝兴路355号(近延长路)"},{"poiid":"B2094757D164ABFE459E","title":"源日本涮锅铁板烧","lon":"121.464347103","lat":"31.2750735195","category":"247","category_name":"餐饮美食","address":"上海北宝兴路280号"},{"poiid":"B2094750D664A2F5459D","title":"老李羊羯子(北宝兴路店)","lon":"121.464","lat":"31.2747","category":"86","category_name":"火锅店","address":"虹口区北宝兴路182号(近凉城路)"},{"poiid":"B2094655D26CA0FE449B","title":"吴记私房菜","lon":"121.46363","lat":"31.27469","category":"76","category_name":"上海菜","address":"闸北区延长路10号(近北宝兴路)"},{"poiid":"B2094752DB6AAAFB4398","title":"阿木龙虾","lon":"121.461442","lat":"31.274998","category":"247","category_name":"餐饮美食","address":"上海市 闸北区北宝兴路167号"},{"poiid":"B2094757D66CA0FC409A","title":"东北大菜馆(旺秀餐饮)","lon":"121.46347","lat":"31.27503","category":"82","category_name":"东北菜","address":"闸北区延长路2号(近上海大学)"},{"poiid":"B2094757D568ABFC4898","title":"1来康茶餐厅","lon":"121.46537923","lat":"31.2761008","category":"72","category_name":"广东菜","address":"虹口区株洲路230号"},{"poiid":"B2094757D06AA6FD419B","title":"呷哺呷哺(百联虹口店)","lon":"121.466956103","lat":"31.2740574982","category":"247","category_name":"餐饮美食","address":"虹口区同丰路699号百联购物中心B1楼G48-FB1-1-106室"},{"poiid":"B2094757D66CA2FF499F","title":"味千拉面(百联虹口店)","lon":"121.465550103","lat":"31.2732004803","category":"95","category_name":"日本料理","address":"虹口区同丰路699号百联虹口购物中心"},{"poiid":"B2094750D76FA7FB4299","title":"绿廷苑酒店","lon":"121.465","lat":"31.2793","category":"76","category_name":"上海菜","address":"虹口区株洲路357号(近广中路)"},{"poiid":"B2094654D56DA5FB469E","title":"满陆港式茶餐厅","lon":"121.4619621241","lat":"31.273795392152","category":"72","category_name":"广东菜","address":"上海闸北区延长路36号(近北宝兴路)  "},{"poiid":"B2094750D56EA3FC469A","title":"炭路者","lon":"121.462196","lat":"31.27342","category":"68","category_name":"快餐厅","address":"闸北区延长路48号(近平型关路)"},{"poiid":"B2094757D165A7FB4693","title":"66路北宝兴路民晏路站","lon":"121.46300648","lat":"31.275271806","category":"38","category_name":"公交车站","address":"上海北宝兴路(近民晏路)"},{"poiid":"B2094654D56DA5FA4098","title":"三湘花苑","lon":"121.46474","lat":"31.277779","category":"47","category_name":"住宅区","address":"株洲路300弄1-12号,17-26号"},{"poiid":"B2094757D16CABFA429B","title":"老北京羊羯子王","lon":"121.46442","lat":"31.27408","category":"86","category_name":"火锅店","address":"闸北区北宝兴路280号(近延长路)"},{"poiid":"B2094757D66DA7FC4692","title":"杰克造型","lon":"121.4638911","lat":"31.276171542","category":"148","category_name":"美容美发店","address":"上海株洲路246號"},{"poiid":"B2094757D469A6FE409C","title":"胡杨林烧烤吧","lon":"121.4656292","lat":"31.2731649","category":"68","category_name":"快餐厅","address":"虹口区北宝兴路155号(近洛川东路)"},{"poiid":"B2094757D168A2FE4698","title":"创智天地小剧场","lon":"121.4653176","lat":"31.275547029","category":"180","category_name":"剧场","address":"上海杨浦区淞沪路388号创智天地7号楼"},{"poiid":"B2094655D36CA7F4479C","title":"广中路广粤路","lon":"121.4664","lat":"31.28015","category":"38","category_name":"公交车站","address":""},{"poiid":"B2094757D76EA3FB459A","title":"王记烧烤","lon":"121.461826054","lat":"31.273692793","category":"68","category_name":"快餐厅","address":"闸北区延长路48号(近平型关路)"},{"poiid":"B2094654D56DA5FB4392","title":"峥宸苑","lon":"121.46225","lat":"31.2749","category":"47","category_name":"住宅区","address":"上海延长路99弄"},{"poiid":"B2094655D264ABFD499D","title":"龙泰公寓","lon":"121.46666","lat":"31.275637","category":"46","category_name":"楼宇","address":"虹口区新同心路108弄"},{"poiid":"B2094757D068A6F4429E","title":"乾虹佳苑","lon":"121.46552708","lat":"31.277394646","category":"47","category_name":"住宅区","address":"上海广中路620弄"},{"poiid":"B2094757D16CA0FE499A","title":"禾绿寿司(虹口百联店)","lon":"121.465366103","lat":"31.2735044867","category":"247","category_name":"餐饮美食","address":"上海同丰路699号"},{"poiid":"B2094757D168A3FF429F","title":"喜德棒","lon":"121.464461","lat":"31.274155","category":"247","category_name":"餐饮美食","address":"上海北宝兴路268号"},{"poiid":"B2094757D16DA6FC4592","title":"食其家 百联虹口店","lon":"121.465132903","lat":"31.2733495834","category":"95","category_name":"日本料理","address":"虹口区同丰路699号百联虹口购物中心(北宝兴路洛川东路)"},{"poiid":"B2094655D36CA5F5459F","title":"北宝兴路民晏路","lon":"121.46324","lat":"31.27519","category":"38","category_name":"公交车站","address":""},{"poiid":"B2094757D66FA2F44098","title":"韩林烧烤","lon":"121.463685803","lat":"31.2752634234","category":"247","category_name":"餐饮美食","address":"上海同丰路"},{"poiid":"B2094757D06FA2FF4199","title":"辛香汇(百联虹口店)","lon":"121.46732","lat":"31.27265","category":"71","category_name":"四川菜","address":"虹口区同丰路699号百联虹口购物中心4楼(近北宝兴路)"},{"poiid":"B2094655D265A3FB4193","title":"老李羊蝎子涮锅(闸北店)","lon":"121.46549","lat":"31.27302","category":"86","category_name":"火锅店","address":"闸北区北宝兴路182号(近洛川东路)"},{"poiid":"B2094757D06FA0FD469E","title":"嘉利明珠城","lon":"121.4636","lat":"31.273628","category":"47","category_name":"住宅区","address":"平型关路377弄"},{"poiid":"B2094757D064A0F5469C","title":"盱眙倪氏龙虾","lon":"121.46307659","lat":"31.275142231","category":"68","category_name":"快餐厅","address":"闸北区北宝兴路276号(近延长路)"},{"poiid":"B2094757D06EAAF94992","title":"巴麦隆烤肉(延长路店)","lon":"121.4633","lat":"31.27423","category":"68","category_name":"快餐厅","address":"闸北区延长路22号(北宝兴路延长路)"},{"poiid":"B2094757D068A7F84893","title":"餐匠韩国料理自助烤肉","lon":"121.461091","lat":"31.273771","category":"96","category_name":"韩国料理","address":"闸北区延长路123号(近平型关路)"},{"poiid":"B2094750DA64AAFA419D","title":"好乐迪(虹口百联店)","lon":"121.46685032009884","lat":"31.273299499397623","category":"170","category_name":"KTV","address":"虹口区同丰路699号百联虹口购物中心5楼"},{"poiid":"B2094654D56DA5FA4198","title":"意和家园","lon":"121.4642","lat":"31.276701","category":"47","category_name":"住宅区","address":"上海市虹口区株洲路290号"},{"poiid":"B2094655D26CA0FC439F","title":"大上海紫金城","lon":"121.46705","lat":"31.273848","category":"47","category_name":"住宅区","address":"上海市虹口区同丰路666弄"},{"poiid":"B2094757D06FA4FA4099","title":"北宝兴路洛川东路","lon":"121.465499","lat":"31.273287","category":"500","category_name":"未知分类","address":"上海北宝兴路洛川东路"},{"poiid":"B2094655D265AAF54192","title":"木房子特色烤鱼 北宝兴路店","lon":"121.464176054","lat":"31.274371793","category":"71","category_name":"四川菜","address":"闸北区北宝兴路252号(近延长路)"},{"poiid":"B2094757D06AA5F94298","title":"琪琪面馆","lon":"121.46451","lat":"31.27442","category":"68","category_name":"快餐厅","address":"闸北区北宝兴路296-298号(近延长路)"},{"poiid":"B2094757D16DAAFC469A","title":"唐老鸭海味鲜大排档","lon":"121.465463903","lat":"31.2729590753","category":"68","category_name":"快餐厅","address":"闸北区北宝兴路191号(近同丰路)"},{"poiid":"B2094655D26BA1FC459F","title":"平型关路延长路","lon":"121.46224","lat":"31.27288","category":"38","category_name":"公交车站","address":""},{"poiid":"B2094654D56DA5F4469D","title":"珊瑚苑","lon":"121.46266","lat":"31.279222","category":"47","category_name":"住宅区","address":"广中路680弄1-28号"},{"poiid":"B2094750DB64ABF84399","title":"上海梅赛德斯-奔驰文化中心","lon":"121.460708","lat":"31.278104","category":"500","category_name":"未知分类","address":"世博大道1200号"},{"poiid":"B2094750D56FA5F9479E","title":"上海市虹口区人民法院","lon":"121.462226","lat":"31.276756","category":"608","category_name":"法院","address":"北宝兴路"},{"poiid":"B2094757D06BA2FD4492","title":"99靓味馆","lon":"121.464987103","lat":"31.2732196807","category":"72","category_name":"广东菜","address":"虹口区同丰路699号百联购物中心4楼(近北宝兴路)"},{"poiid":"B2094757D065A6F8469D","title":"小杨生煎虹口百联店","lon":"121.465121503","lat":"31.2733471834","category":"68","category_name":"快餐厅","address":"虹口区同丰路699号虹口百联第一食品B1楼(近北宝兴路)"},{"poiid":"B2094655D36DA7FA449F","title":"株洲路新同心路","lon":"121.46556","lat":"31.27693","category":"38","category_name":"公交车站","address":""},{"poiid":"B2094757D06AA1FE439A","title":"川川川川菜馆 平型关路店","lon":"121.4610364434","lat":"31.274981176498","category":"71","category_name":"四川菜","address":"闸北区平型关路603号(近民晏路)"},{"poiid":"B2094654D56DA5FA4999","title":"600创意工坊","lon":"121.46228","lat":"31.27607","category":"46","category_name":"楼宇","address":"闸北区北宝兴路600号(近民晏路)"},{"poiid":"B2094655D265AAFA409F","title":"彩虹雨创意园","lon":"121.46382","lat":"31.27556","category":"45","category_name":"产业园区","address":"闸北区北宝兴路355号(近延长路)"},{"poiid":"B2094757D164ABFE459E","title":"源日本涮锅铁板烧","lon":"121.464347103","lat":"31.2750735195","category":"247","category_name":"餐饮美食","address":"上海北宝兴路280号"},{"poiid":"B2094750D664A2F5459D","title":"老李羊羯子(北宝兴路店)","lon":"121.464","lat":"31.2747","category":"86","category_name":"火锅店","address":"虹口区北宝兴路182号(近凉城路)"},{"poiid":"B2094655D26CA0FE449B","title":"吴记私房菜","lon":"121.46363","lat":"31.27469","category":"76","category_name":"上海菜","address":"闸北区延长路10号(近北宝兴路)"},{"poiid":"B2094752DB6AAAFB4398","title":"阿木龙虾","lon":"121.461442","lat":"31.274998","category":"247","category_name":"餐饮美食","address":"上海市 闸北区北宝兴路167号"},{"poiid":"B2094757D66CA0FC409A","title":"东北大菜馆(旺秀餐饮)","lon":"121.46347","lat":"31.27503","category":"82","category_name":"东北菜","address":"闸北区延长路2号(近上海大学)"},{"poiid":"B2094757D568ABFC4898","title":"1来康茶餐厅","lon":"121.46537923","lat":"31.2761008","category":"72","category_name":"广东菜","address":"虹口区株洲路230号"},{"poiid":"B2094757D06AA6FD419B","title":"呷哺呷哺(百联虹口店)","lon":"121.466956103","lat":"31.2740574982","category":"247","category_name":"餐饮美食","address":"虹口区同丰路699号百联购物中心B1楼G48-FB1-1-106室"},{"poiid":"B2094757D66CA2FF499F","title":"味千拉面(百联虹口店)","lon":"121.465550103","lat":"31.2732004803","category":"95","category_name":"日本料理","address":"虹口区同丰路699号百联虹口购物中心"},{"poiid":"B2094750D76FA7FB4299","title":"绿廷苑酒店","lon":"121.465","lat":"31.2793","category":"76","category_name":"上海菜","address":"虹口区株洲路357号(近广中路)"},{"poiid":"B2094654D56DA5FB469E","title":"满陆港式茶餐厅","lon":"121.4619621241","lat":"31.273795392152","category":"72","category_name":"广东菜","address":"上海闸北区延长路36号(近北宝兴路)  "},{"poiid":"B2094750D56EA3FC469A","title":"炭路者","lon":"121.462196","lat":"31.27342","category":"68","category_name":"快餐厅","address":"闸北区延长路48号(近平型关路)"},{"poiid":"B2094757D165A7FB4693","title":"66路北宝兴路民晏路站","lon":"121.46300648","lat":"31.275271806","category":"38","category_name":"公交车站","address":"上海北宝兴路(近民晏路)"},{"poiid":"B2094654D56DA5FA4098","title":"三湘花苑","lon":"121.46474","lat":"31.277779","category":"47","category_name":"住宅区","address":"株洲路300弄1-12号,17-26号"},{"poiid":"B2094757D16CABFA429B","title":"老北京羊羯子王","lon":"121.46442","lat":"31.27408","category":"86","category_name":"火锅店","address":"闸北区北宝兴路280号(近延长路)"},{"poiid":"B2094757D66DA7FC4692","title":"杰克造型","lon":"121.4638911","lat":"31.276171542","category":"148","category_name":"美容美发店","address":"上海株洲路246號"},{"poiid":"B2094757D469A6FE409C","title":"胡杨林烧烤吧","lon":"121.4656292","lat":"31.2731649","category":"68","category_name":"快餐厅","address":"虹口区北宝兴路155号(近洛川东路)"},{"poiid":"B2094757D168A2FE4698","title":"创智天地小剧场","lon":"121.4653176","lat":"31.275547029","category":"180","category_name":"剧场","address":"上海杨浦区淞沪路388号创智天地7号楼"},{"poiid":"B2094655D36CA7F4479C","title":"广中路广粤路","lon":"121.4664","lat":"31.28015","category":"38","category_name":"公交车站","address":""},{"poiid":"B2094757D76EA3FB459A","title":"王记烧烤","lon":"121.461826054","lat":"31.273692793","category":"68","category_name":"快餐厅","address":"闸北区延长路48号(近平型关路)"},{"poiid":"B2094654D56DA5FB4392","title":"峥宸苑","lon":"121.46225","lat":"31.2749","category":"47","category_name":"住宅区","address":"上海延长路99弄"},{"poiid":"B2094655D264ABFD499D","title":"龙泰公寓","lon":"121.46666","lat":"31.275637","category":"46","category_name":"楼宇","address":"虹口区新同心路108弄"},{"poiid":"B2094757D068A6F4429E","title":"乾虹佳苑","lon":"121.46552708","lat":"31.277394646","category":"47","category_name":"住宅区","address":"上海广中路620弄"},{"poiid":"B2094757D16CA0FE499A","title":"禾绿寿司(虹口百联店)","lon":"121.465366103","lat":"31.2735044867","category":"247","category_name":"餐饮美食","address":"上海同丰路699号"},{"poiid":"B2094757D168A3FF429F","title":"喜德棒","lon":"121.464461","lat":"31.274155","category":"247","category_name":"餐饮美食","address":"上海北宝兴路268号"},{"poiid":"B2094757D16DA6FC4592","title":"食其家 百联虹口店","lon":"121.465132903","lat":"31.2733495834","category":"95","category_name":"日本料理","address":"虹口区同丰路699号百联虹口购物中心(北宝兴路洛川东路)"},{"poiid":"B2094655D36CA5F5459F","title":"北宝兴路民晏路","lon":"121.46324","lat":"31.27519","category":"38","category_name":"公交车站","address":""},{"poiid":"B2094757D66FA2F44098","title":"韩林烧烤","lon":"121.463685803","lat":"31.2752634234","category":"247","category_name":"餐饮美食","address":"上海同丰路"}]