[{"poiid":"B2094654DA6BA4FE4593","title":"上海四季百果园","lon":"121.05362","lat":"31.1368","category":"250","category_name":"公园户外","address":"青浦区朱家角镇盛家埭叶荡村369号"},{"poiid":"B2094654DA6BA0FC429C","title":"大千庄园生态世界(大千美食林)","lon":"121.04829","lat":"31.13106","category":"70","category_name":"综合酒楼","address":""},{"poiid":"B2094655D36CA6F44899","title":"淀山湖大道港周路","lon":"121.06267","lat":"31.12968","category":"38","category_name":"公交车站","address":""},{"poiid":"B2094757D16DA3F8489A","title":"淀山湖归园公墓","lon":"121.065205336","lat":"31.1345381758","category":"620","category_name":"丧葬","address":"上海青浦区朱家角港周路8号"},{"poiid":"B2094757D069A4FB449B","title":"大千生态庄园","lon":"121.06317935","lat":"31.134406319","category":"260","category_name":"其他","address":"青浦区朱家角西洋淀1号(近朱家角停车场)"},{"poiid":"B2094757D16BA5FB449D","title":"荷花垛农家乐","lon":"121.0457","lat":"31.13191","category":"87","category_name":"特色／地方风味餐厅","address":"青浦区朱家角镇西洋淀(近泰安)"},{"poiid":"B2094757D66CA1FF419F","title":"朱家角动植物湿地公园","lon":"121.05005254","lat":"31.131942265","category":"196","category_name":"公园","address":"上海青浦区朱家角西洋泾1号"},{"poiid":"B2094757D06BA5FC489E","title":"百果园","lon":"121.0521698","lat":"31.127792358","category":"500","category_name":"未知分类","address":"上海朱家角"},{"poiid":"B2094655D36DA7FA4392","title":"珠湖路淀山湖大道","lon":"121.04867","lat":"31.12905","category":"38","category_name":"公交车站","address":""},{"poiid":"B2094757D169AAFC4099","title":"中信泰富朱家角新城","lon":"121.052","lat":"31.1252","category":"500","category_name":"未知分类","address":"上海青浦区朱家角张家纡路"},{"poiid":"B2094655D36CA6F4489E","title":"淀山湖大道横港村","lon":"121.07457","lat":"31.13307","category":"38","category_name":"公交车站","address":""},{"poiid":"B2094757D168A3FC439D","title":"乌镇西栅","lon":"121.06675113","lat":"31.125894954","category":"500","category_name":"未知分类","address":"北京浙江桐乡市乌镇"},{"poiid":"B2094753DB6BA6FE449E","title":"朱家角人民医院","lon":"121.043991","lat":"31.125686","category":"162","category_name":"医院","address":"上海市 朱家角石家浜东路99号"},{"poiid":"B2094655D36DA2F94292","title":"大淀湖北桥","lon":"121.05107","lat":"31.12242","category":"250","category_name":"公园户外","address":""},{"poiid":"B209475DD66EA2F9439C","title":"中信泰富朱家角锦江酒店","lon":"121.050682","lat":"31.121633","category":"251","category_name":"出行住宿","address":"上海市 上海青浦区朱家角镇珠湖路666号"},{"poiid":"B2094654DA6BA0FA449B","title":"众利商场","lon":"121.06333","lat":"31.11874","category":"119","category_name":"商场","address":""},{"poiid":"B2094757D66AA7FC4293","title":"古桥餐阁","lon":"121.067326054","lat":"31.119621793","category":"67","category_name":"甜品店","address":"青浦区朱家角北大街278号(泰安桥旁)"},{"poiid":"B209475DD26EA1FB449D","title":"中信泰富朱家角锦江酒店","lon":"121.055541","lat":"31.119806","category":"500","category_name":"未知分类","address":"上海市 珠湖路666号"},{"poiid":"B2094757D16AA6F94099","title":"绿洲江南园","lon":"121.06059","lat":"31.116209","category":"500","category_name":"未知分类","address":"上海市青浦区朱家角镇绿洲江南园"},{"poiid":"B2094757D16FA2FC429E","title":"阿婆茶楼","lon":"121.055595054","lat":"31.114830793","category":"260","category_name":"其他","address":"青浦区青浦县朱家角东井街122号"},{"poiid":"B2094757D16CA4F9499F","title":"大清邮局","lon":"121.053451093","lat":"31.1177179336","category":"621","category_name":"邮局","address":"上海市青浦区朱家角镇曹河路,城隍庙南侧"}]