[{"poiid":"B2094655D26FA5FF4398","title":"置地广场","lon":"121.48237","lat":"31.23631","category":"119","category_name":"商场","address":"黄浦区南京东路409-459号(近山西南路)"},{"poiid":"B2094655D26CAAF5419B","title":"353广场","lon":"121.48339","lat":"31.23676","category":"119","category_name":"商场","address":"黄浦区南京东路353号(近河南中路)"},{"poiid":"B2094654DA6FA5F44192","title":"渝信川菜(华盛大厦店)","lon":"121.48265","lat":"31.23582","category":"71","category_name":"四川菜","address":"黄浦区九江路399号华盛大厦5楼(近山西南路)"},{"poiid":"B2094753D76FAAFA449C","title":"上海滩国泰旗舰店","lon":"121.466011","lat":"31.216125","category":"249","category_name":"购物服务","address":"淮海中路868号"},{"poiid":"B209475CD564A7F84292","title":"上海滩新天地店","lon":"121.47463","lat":"31.22164","category":"119","category_name":"商场","address":"\"太仓路181弄新天地北里15号\r\n\""},{"poiid":"B209475CD564A7F8439E","title":"上海滩中信泰富店","lon":"121.45602","lat":"31.22851","category":"119","category_name":"商场","address":"\"南京西路1168号中信泰富广场，店铺号221.\r\n\""},{"poiid":"B209475CD564A7F84392","title":"上海滩浦东香格里拉店","lon":"121.50058","lat":"31.23634","category":"119","category_name":"商场","address":"浦东富成路33号香格里拉酒店内大堂层"},{"poiid":"B2094757D06FA2F4489B","title":"名人商业大厦","lon":"121.48353704","lat":"31.23810352","category":"46","category_name":"楼宇","address":"上海市天津路155号"},{"poiid":"B2094750D26EA4FE4099","title":"三人行骨头王火锅 南京东路二店","lon":"121.48115","lat":"31.23593","category":"86","category_name":"火锅店","address":"黄浦区南京东路479号新世界休闲港湾3-4楼(近福建中路)"},{"poiid":"B2094757D06FA2F5439A","title":"必胜客(先施店)","lon":"121.4802334","lat":"31.2357621","category":"94","category_name":"西餐厅","address":"黄浦区南京东路479号新世界先施休闲港湾1楼(近福建中路)"},{"poiid":"B2094757D06FA2F4489D","title":"斗牛士(353广场店)","lon":"121.483458755","lat":"31.2365172341","category":"94","category_name":"西餐厅","address":"黄浦区南京东路353号353广场5楼510室(山东路口)"},{"poiid":"B2094757D06FA1F9479D","title":"021上海菜主题餐厅(353广场店)","lon":"121.48358","lat":"31.23652","category":"76","category_name":"上海菜","address":"黄浦区南京东路353号353广场7楼(近河南中路)"},{"poiid":"B2094757D06FA0F9409B","title":"星巴克(上海古象大酒店)","lon":"121.479507","lat":"31.234364","category":"65","category_name":"咖啡厅","address":"黄浦区九江路595号古象大酒店内(近湖北路)"},{"poiid":"B2094654DB69A4FC4092","title":"好乐迪(南东店)","lon":"121.48132","lat":"31.23593","category":"170","category_name":"KTV","address":"黄浦区南京东路479号新世界先施休闲港湾6-7楼(近福建中路)"},{"poiid":"B2094757D06EAAFC439B","title":"美特斯邦威(南京东路旗舰店)","lon":"121.482674","lat":"31.236528","category":"141","category_name":"服装鞋帽皮具店","address":"黄浦区南京东路387号圣德娜商厦内(山西南路口)"},{"poiid":"B2094751D364AAFA4393","title":"上海南京路步行街（353广场）","lon":"121.482653","lat":"31.236516","category":"249","category_name":"购物服务","address":null},{"poiid":"B2094757D06FA0FE489E","title":"桥香园 南京东路店","lon":"121.48284074315","lat":"31.237031133729","category":"68","category_name":"快餐厅","address":"黄浦区南京东路388号2楼(山西南路口)"},{"poiid":"B2094654DB69A6F4479D","title":"吉野家  先施店","lon":"121.48124","lat":"31.23602","category":"95","category_name":"日本料理","address":"黄浦区南京东路479号先施休闲广场1楼(近福建中路)"},{"poiid":"B2094750D76EABFE469D","title":"许留山(名人商业广场店)","lon":"121.484","lat":"31.2373","category":"67","category_name":"甜品店","address":"黄浦区南京东路300号名人商业广场B1楼108商铺(近河南中路)"},{"poiid":"B2094654DA6FA5FF469E","title":"亚马逊巴西烤肉","lon":"121.48132","lat":"31.23593","category":"94","category_name":"西餐厅","address":"黄浦区南京东路479号新世界先施休闲港湾8楼(近福建中路)"},{"poiid":"B2094757D06AABF8499E","title":"上海市南京饭店","lon":"121.482299805","lat":"31.2373943329","category":"216","category_name":"经济型连锁酒店","address":"黄浦区山西南路200号(南京东路口)"},{"poiid":"B2094757D06FA4FE439B","title":"萨莉亚(353广场店)","lon":"121.48346473","lat":"31.236138426","category":"94","category_name":"西餐厅","address":"黄浦区南京东路353号4楼(近福建路)"},{"poiid":"B2094654DA6FA5F54798","title":"九江路金融广场","lon":"121.48319","lat":"31.23591","category":"46","category_name":"楼宇","address":"上海黄浦区九江路333号"},{"poiid":"B2094757D068A0F5499B","title":"应昌期围棋学校","lon":"121.48277","lat":"31.23792","category":"55","category_name":"中学","address":"黄浦区天津路200号(山西南路天津路)"},{"poiid":"B2094757D068A6F44392","title":"傣妹(南京东路一店)","lon":"121.48295","lat":"31.23611","category":"86","category_name":"火锅店","address":"黄浦区南京东路387号圣德娜商厦6楼(山西南路口)"},{"poiid":"B2094751D46AA2F54392","title":"雲上云源生态云南菜","lon":"121.4811952","lat":"31.2365955","category":"247","category_name":"餐饮美食","address":"南京东路233号南京大厦5楼(近河南中路)"},{"poiid":"B2094654DA6FA5F8469E","title":"蔡同德堂","lon":"121.48195","lat":"31.23659","category":"162","category_name":"医院","address":"黄浦区南京东路450号(近福建中路)"},{"poiid":"B2094655D264A1F94298","title":"桃源乡足道","lon":"121.48115","lat":"31.23594","category":"149","category_name":"洗浴推拿场所","address":"黄浦区南京东路479号新世界先施休闲港湾5楼(近福建中路)"},{"poiid":"B2094655D26AA1F5489D","title":"阿英煲山西南路店","lon":"121.48185","lat":"31.2378","category":"260","category_name":"其他","address":"黄浦区山西南路239号(近天津路)"},{"poiid":"B2094655D36CA2FC419D","title":"ZARA(353广场店)","lon":"121.48343","lat":"31.23683","category":"141","category_name":"服装鞋帽皮具店","address":"上海黄浦区南京东路369号(近河南中路)"},{"poiid":"B2094757D064AAFB409F","title":"大码头茶餐厅","lon":"121.482632738","lat":"31.2359394218","category":"500","category_name":"未知分类","address":"上海市黄浦区牛庄路"},{"poiid":"B2094654DA6FA5FF4699","title":"新世界休闲港湾","lon":"121.48114","lat":"31.23594","category":"46","category_name":"楼宇","address":"黄浦区南京东路479号新世界先施休闲港湾内(近福建中路)"},{"poiid":"B2094757D465A5F8459C","title":"沈大成 353广场店","lon":"121.483866054","lat":"31.237021793","category":"76","category_name":"上海菜","address":"黄浦区南京东路353号353广场3楼(近河南中路)"},{"poiid":"B2094757D068AAFE4699","title":"鸭王食府","lon":"121.48266475","lat":"31.236176656","category":"68","category_name":"快餐厅","address":"黄浦区南京东路358号(近河南路)"},{"poiid":"B2094757D068A7F5499A","title":"翠亭酒家","lon":"121.4823","lat":"31.23689","category":"76","category_name":"上海菜","address":"黄浦区山西南路211号(近天津路)"},{"poiid":"B2094757D168A7FD4698","title":"The Coffee Bean","lon":"121.483576738","lat":"31.2370234449","category":"65","category_name":"咖啡厅","address":"上海市黄浦区福建中路"},{"poiid":"B2094750D164A3F84493","title":"上海南京路青年旅舍","lon":"121.481613","lat":"31.237738","category":"215","category_name":"三星级宾馆","address":"上海市黄浦区天津路258号"},{"poiid":"B2094654DA6FA5F84592","title":"老凤祥银楼总店","lon":"121.48216","lat":"31.23663","category":"131","category_name":"珠宝首饰工艺品","address":"南京东路432"},{"poiid":"B2094655D26FA6F94798","title":"肯德基","lon":"121.48151","lat":"31.2361","category":"68","category_name":"快餐厅","address":"虹口区四川北路850号(塘沽路口)"},{"poiid":"B2094757D16CA2F84498","title":"周大福(南京路總店)","lon":"121.481736738","lat":"31.2366244364","category":"500","category_name":"未知分类","address":"上海ShanghaiHuangpuBeijing East Rd"},{"poiid":"B2094757D069A6FA439F","title":"好伦哥 南京东路二店 Origus","lon":"121.48466618895","lat":"31.237755843258","category":"94","category_name":"西餐厅","address":"黄浦区南京东路328号雅戈尔大厦3楼(近河南中路)"},{"poiid":"B2094757DB68A5F4469A","title":"芋贵人甜品店 置地广场店","lon":"121.48228883743","lat":"31.236242774077","category":"67","category_name":"甜品店","address":"黄浦区南京东路409-459号置地广场B1楼(近九江路)"},{"poiid":"B2094757D064A0FF479F","title":"德兴馆(山西南路店)","lon":"121.4826","lat":"31.23692","category":"76","category_name":"上海菜","address":"黄浦区山西南路199号(近南京东路)"},{"poiid":"B2094757D06FA0FC409F","title":"应氏大厦","lon":"121.482935","lat":"31.238545","category":"46","category_name":"楼宇","address":"上海天津路180号"},{"poiid":"B2094654DB6AA3F8429A","title":"沧浪亭 黄浦店","lon":"121.48246392867","lat":"31.236811090683","category":"68","category_name":"快餐厅","address":"黄浦区山西南路183号(近南京东路)"},{"poiid":"B2094757D06FA5FE4599","title":"恒记甜品(353广场店内)","lon":"121.483635","lat":"31.236367","category":"247","category_name":"餐饮美食","address":"黄浦区南京东路353号353广场6楼(近九江路)"},{"poiid":"B2094757D769A4FA479D","title":"赛百味 置地广场店 Subway","lon":"121.482310054","lat":"31.236245793","category":"94","category_name":"西餐厅","address":"黄浦区南京东路409-459号置地广场B1楼(近山西南路)"},{"poiid":"B2094750DA6EA7F44499","title":"三人行","lon":"121.481491","lat":"31.236122","category":"247","category_name":"餐饮美食","address":"南京東路"},{"poiid":"B2094757D064A5F54192","title":"三味丰","lon":"121.483732238","lat":"31.2364504327","category":"95","category_name":"日本料理","address":"黄浦区南京东路300号名人购物中心4楼(河南中路口)"},{"poiid":"B2094751D464ABF5419B","title":"上海外灘","lon":"121.48366","lat":"31.236304","category":"500","category_name":"未知分类","address":null},{"poiid":"B2094655D26FA5FF4398","title":"置地广场","lon":"121.48237","lat":"31.23631","category":"119","category_name":"商场","address":"黄浦区南京东路409-459号(近山西南路)"},{"poiid":"B2094655D26CAAF5419B","title":"353广场","lon":"121.48339","lat":"31.23676","category":"119","category_name":"商场","address":"黄浦区南京东路353号(近河南中路)"},{"poiid":"B2094654DA6FA5F44192","title":"渝信川菜(华盛大厦店)","lon":"121.48265","lat":"31.23582","category":"71","category_name":"四川菜","address":"黄浦区九江路399号华盛大厦5楼(近山西南路)"},{"poiid":"B2094753D76FAAFA449C","title":"上海滩国泰旗舰店","lon":"121.466011","lat":"31.216125","category":"249","category_name":"购物服务","address":"淮海中路868号"},{"poiid":"B209475CD564A7F84292","title":"上海滩新天地店","lon":"121.47463","lat":"31.22164","category":"119","category_name":"商场","address":"\"太仓路181弄新天地北里15号\r\n\""},{"poiid":"B209475CD564A7F8439E","title":"上海滩中信泰富店","lon":"121.45602","lat":"31.22851","category":"119","category_name":"商场","address":"\"南京西路1168号中信泰富广场，店铺号221.\r\n\""},{"poiid":"B209475CD564A7F84392","title":"上海滩浦东香格里拉店","lon":"121.50058","lat":"31.23634","category":"119","category_name":"商场","address":"浦东富成路33号香格里拉酒店内大堂层"},{"poiid":"B2094757D06FA2F4489B","title":"名人商业大厦","lon":"121.48353704","lat":"31.23810352","category":"46","category_name":"楼宇","address":"上海市天津路155号"},{"poiid":"B2094750D26EA4FE4099","title":"三人行骨头王火锅 南京东路二店","lon":"121.48115","lat":"31.23593","category":"86","category_name":"火锅店","address":"黄浦区南京东路479号新世界休闲港湾3-4楼(近福建中路)"},{"poiid":"B2094757D06FA2F5439A","title":"必胜客(先施店)","lon":"121.4802334","lat":"31.2357621","category":"94","category_name":"西餐厅","address":"黄浦区南京东路479号新世界先施休闲港湾1楼(近福建中路)"},{"poiid":"B2094757D06FA2F4489D","title":"斗牛士(353广场店)","lon":"121.483458755","lat":"31.2365172341","category":"94","category_name":"西餐厅","address":"黄浦区南京东路353号353广场5楼510室(山东路口)"},{"poiid":"B2094757D06FA1F9479D","title":"021上海菜主题餐厅(353广场店)","lon":"121.48358","lat":"31.23652","category":"76","category_name":"上海菜","address":"黄浦区南京东路353号353广场7楼(近河南中路)"},{"poiid":"B2094757D06FA0F9409B","title":"星巴克(上海古象大酒店)","lon":"121.479507","lat":"31.234364","category":"65","category_name":"咖啡厅","address":"黄浦区九江路595号古象大酒店内(近湖北路)"},{"poiid":"B2094654DB69A4FC4092","title":"好乐迪(南东店)","lon":"121.48132","lat":"31.23593","category":"170","category_name":"KTV","address":"黄浦区南京东路479号新世界先施休闲港湾6-7楼(近福建中路)"},{"poiid":"B2094757D06EAAFC439B","title":"美特斯邦威(南京东路旗舰店)","lon":"121.482674","lat":"31.236528","category":"141","category_name":"服装鞋帽皮具店","address":"黄浦区南京东路387号圣德娜商厦内(山西南路口)"},{"poiid":"B2094751D364AAFA4393","title":"上海南京路步行街（353广场）","lon":"121.482653","lat":"31.236516","category":"249","category_name":"购物服务","address":null},{"poiid":"B2094757D06FA0FE489E","title":"桥香园 南京东路店","lon":"121.48284074315","lat":"31.237031133729","category":"68","category_name":"快餐厅","address":"黄浦区南京东路388号2楼(山西南路口)"},{"poiid":"B2094654DB69A6F4479D","title":"吉野家  先施店","lon":"121.48124","lat":"31.23602","category":"95","category_name":"日本料理","address":"黄浦区南京东路479号先施休闲广场1楼(近福建中路)"},{"poiid":"B2094750D76EABFE469D","title":"许留山(名人商业广场店)","lon":"121.484","lat":"31.2373","category":"67","category_name":"甜品店","address":"黄浦区南京东路300号名人商业广场B1楼108商铺(近河南中路)"},{"poiid":"B2094654DA6FA5FF469E","title":"亚马逊巴西烤肉","lon":"121.48132","lat":"31.23593","category":"94","category_name":"西餐厅","address":"黄浦区南京东路479号新世界先施休闲港湾8楼(近福建中路)"},{"poiid":"B2094757D06AABF8499E","title":"上海市南京饭店","lon":"121.482299805","lat":"31.2373943329","category":"216","category_name":"经济型连锁酒店","address":"黄浦区山西南路200号(南京东路口)"},{"poiid":"B2094757D06FA4FE439B","title":"萨莉亚(353广场店)","lon":"121.48346473","lat":"31.236138426","category":"94","category_name":"西餐厅","address":"黄浦区南京东路353号4楼(近福建路)"},{"poiid":"B2094654DA6FA5F54798","title":"九江路金融广场","lon":"121.48319","lat":"31.23591","category":"46","category_name":"楼宇","address":"上海黄浦区九江路333号"},{"poiid":"B2094757D068A0F5499B","title":"应昌期围棋学校","lon":"121.48277","lat":"31.23792","category":"55","category_name":"中学","address":"黄浦区天津路200号(山西南路天津路)"},{"poiid":"B2094757D068A6F44392","title":"傣妹(南京东路一店)","lon":"121.48295","lat":"31.23611","category":"86","category_name":"火锅店","address":"黄浦区南京东路387号圣德娜商厦6楼(山西南路口)"},{"poiid":"B2094751D46AA2F54392","title":"雲上云源生态云南菜","lon":"121.4811952","lat":"31.2365955","category":"247","category_name":"餐饮美食","address":"南京东路233号南京大厦5楼(近河南中路)"},{"poiid":"B2094654DA6FA5F8469E","title":"蔡同德堂","lon":"121.48195","lat":"31.23659","category":"162","category_name":"医院","address":"黄浦区南京东路450号(近福建中路)"},{"poiid":"B2094655D264A1F94298","title":"桃源乡足道","lon":"121.48115","lat":"31.23594","category":"149","category_name":"洗浴推拿场所","address":"黄浦区南京东路479号新世界先施休闲港湾5楼(近福建中路)"},{"poiid":"B2094655D26AA1F5489D","title":"阿英煲山西南路店","lon":"121.48185","lat":"31.2378","category":"260","category_name":"其他","address":"黄浦区山西南路239号(近天津路)"},{"poiid":"B2094655D36CA2FC419D","title":"ZARA(353广场店)","lon":"121.48343","lat":"31.23683","category":"141","category_name":"服装鞋帽皮具店","address":"上海黄浦区南京东路369号(近河南中路)"},{"poiid":"B2094757D064AAFB409F","title":"大码头茶餐厅","lon":"121.482632738","lat":"31.2359394218","category":"500","category_name":"未知分类","address":"上海市黄浦区牛庄路"},{"poiid":"B2094654DA6FA5FF4699","title":"新世界休闲港湾","lon":"121.48114","lat":"31.23594","category":"46","category_name":"楼宇","address":"黄浦区南京东路479号新世界先施休闲港湾内(近福建中路)"},{"poiid":"B2094757D465A5F8459C","title":"沈大成 353广场店","lon":"121.483866054","lat":"31.237021793","category":"76","category_name":"上海菜","address":"黄浦区南京东路353号353广场3楼(近河南中路)"},{"poiid":"B2094757D068AAFE4699","title":"鸭王食府","lon":"121.48266475","lat":"31.236176656","category":"68","category_name":"快餐厅","address":"黄浦区南京东路358号(近河南路)"},{"poiid":"B2094757D068A7F5499A","title":"翠亭酒家","lon":"121.4823","lat":"31.23689","category":"76","category_name":"上海菜","address":"黄浦区山西南路211号(近天津路)"},{"poiid":"B2094757D168A7FD4698","title":"The Coffee Bean","lon":"121.483576738","lat":"31.2370234449","category":"65","category_name":"咖啡厅","address":"上海市黄浦区福建中路"},{"poiid":"B2094750D164A3F84493","title":"上海南京路青年旅舍","lon":"121.481613","lat":"31.237738","category":"215","category_name":"三星级宾馆","address":"上海市黄浦区天津路258号"},{"poiid":"B2094654DA6FA5F84592","title":"老凤祥银楼总店","lon":"121.48216","lat":"31.23663","category":"131","category_name":"珠宝首饰工艺品","address":"南京东路432"},{"poiid":"B2094655D26FA6F94798","title":"肯德基","lon":"121.48151","lat":"31.2361","category":"68","category_name":"快餐厅","address":"虹口区四川北路850号(塘沽路口)"},{"poiid":"B2094757D16CA2F84498","title":"周大福(南京路總店)","lon":"121.481736738","lat":"31.2366244364","category":"500","category_name":"未知分类","address":"上海ShanghaiHuangpuBeijing East Rd"},{"poiid":"B2094757D069A6FA439F","title":"好伦哥 南京东路二店 Origus","lon":"121.48466618895","lat":"31.237755843258","category":"94","category_name":"西餐厅","address":"黄浦区南京东路328号雅戈尔大厦3楼(近河南中路)"},{"poiid":"B2094757DB68A5F4469A","title":"芋贵人甜品店 置地广场店","lon":"121.48228883743","lat":"31.236242774077","category":"67","category_name":"甜品店","address":"黄浦区南京东路409-459号置地广场B1楼(近九江路)"},{"poiid":"B2094757D064A0FF479F","title":"德兴馆(山西南路店)","lon":"121.4826","lat":"31.23692","category":"76","category_name":"上海菜","address":"黄浦区山西南路199号(近南京东路)"},{"poiid":"B2094757D06FA0FC409F","title":"应氏大厦","lon":"121.482935","lat":"31.238545","category":"46","category_name":"楼宇","address":"上海天津路180号"},{"poiid":"B2094654DB6AA3F8429A","title":"沧浪亭 黄浦店","lon":"121.48246392867","lat":"31.236811090683","category":"68","category_name":"快餐厅","address":"黄浦区山西南路183号(近南京东路)"},{"poiid":"B2094757D06FA5FE4599","title":"恒记甜品(353广场店内)","lon":"121.483635","lat":"31.236367","category":"247","category_name":"餐饮美食","address":"黄浦区南京东路353号353广场6楼(近九江路)"},{"poiid":"B2094757D769A4FA479D","title":"赛百味 置地广场店 Subway","lon":"121.482310054","lat":"31.236245793","category":"94","category_name":"西餐厅","address":"黄浦区南京东路409-459号置地广场B1楼(近山西南路)"},{"poiid":"B2094750DA6EA7F44499","title":"三人行","lon":"121.481491","lat":"31.236122","category":"247","category_name":"餐饮美食","address":"南京東路"},{"poiid":"B2094757D064A5F54192","title":"三味丰","lon":"121.483732238","lat":"31.2364504327","category":"95","category_name":"日本料理","address":"黄浦区南京东路300号名人购物中心4楼(河南中路口)"},{"poiid":"B2094751D464ABF5419B","title":"上海外灘","lon":"121.48366","lat":"31.236304","category":"500","category_name":"未知分类","address":null},{"poiid":"B2094655D26FA5FF4398","title":"置地广场","lon":"121.48237","lat":"31.23631","category":"119","category_name":"商场","address":"黄浦区南京东路409-459号(近山西南路)"},{"poiid":"B2094655D26CAAF5419B","title":"353广场","lon":"121.48339","lat":"31.23676","category":"119","category_name":"商场","address":"黄浦区南京东路353号(近河南中路)"},{"poiid":"B2094654DA6FA5F44192","title":"渝信川菜(华盛大厦店)","lon":"121.48265","lat":"31.23582","category":"71","category_name":"四川菜","address":"黄浦区九江路399号华盛大厦5楼(近山西南路)"},{"poiid":"B2094753D76FAAFA449C","title":"上海滩国泰旗舰店","lon":"121.466011","lat":"31.216125","category":"249","category_name":"购物服务","address":"淮海中路868号"},{"poiid":"B209475CD564A7F84292","title":"上海滩新天地店","lon":"121.47463","lat":"31.22164","category":"119","category_name":"商场","address":"\"太仓路181弄新天地北里15号\r\n\""},{"poiid":"B209475CD564A7F8439E","title":"上海滩中信泰富店","lon":"121.45602","lat":"31.22851","category":"119","category_name":"商场","address":"\"南京西路1168号中信泰富广场，店铺号221.\r\n\""},{"poiid":"B209475CD564A7F84392","title":"上海滩浦东香格里拉店","lon":"121.50058","lat":"31.23634","category":"119","category_name":"商场","address":"浦东富成路33号香格里拉酒店内大堂层"},{"poiid":"B2094757D06FA2F4489B","title":"名人商业大厦","lon":"121.48353704","lat":"31.23810352","category":"46","category_name":"楼宇","address":"上海市天津路155号"},{"poiid":"B2094750D26EA4FE4099","title":"三人行骨头王火锅 南京东路二店","lon":"121.48115","lat":"31.23593","category":"86","category_name":"火锅店","address":"黄浦区南京东路479号新世界休闲港湾3-4楼(近福建中路)"},{"poiid":"B2094757D06FA2F5439A","title":"必胜客(先施店)","lon":"121.4802334","lat":"31.2357621","category":"94","category_name":"西餐厅","address":"黄浦区南京东路479号新世界先施休闲港湾1楼(近福建中路)"},{"poiid":"B2094757D06FA2F4489D","title":"斗牛士(353广场店)","lon":"121.483458755","lat":"31.2365172341","category":"94","category_name":"西餐厅","address":"黄浦区南京东路353号353广场5楼510室(山东路口)"},{"poiid":"B2094757D06FA1F9479D","title":"021上海菜主题餐厅(353广场店)","lon":"121.48358","lat":"31.23652","category":"76","category_name":"上海菜","address":"黄浦区南京东路353号353广场7楼(近河南中路)"},{"poiid":"B2094757D06FA0F9409B","title":"星巴克(上海古象大酒店)","lon":"121.479507","lat":"31.234364","category":"65","category_name":"咖啡厅","address":"黄浦区九江路595号古象大酒店内(近湖北路)"},{"poiid":"B2094654DB69A4FC4092","title":"好乐迪(南东店)","lon":"121.48132","lat":"31.23593","category":"170","category_name":"KTV","address":"黄浦区南京东路479号新世界先施休闲港湾6-7楼(近福建中路)"},{"poiid":"B2094757D06EAAFC439B","title":"美特斯邦威(南京东路旗舰店)","lon":"121.482674","lat":"31.236528","category":"141","category_name":"服装鞋帽皮具店","address":"黄浦区南京东路387号圣德娜商厦内(山西南路口)"},{"poiid":"B2094751D364AAFA4393","title":"上海南京路步行街（353广场）","lon":"121.482653","lat":"31.236516","category":"249","category_name":"购物服务","address":null},{"poiid":"B2094757D06FA0FE489E","title":"桥香园 南京东路店","lon":"121.48284074315","lat":"31.237031133729","category":"68","category_name":"快餐厅","address":"黄浦区南京东路388号2楼(山西南路口)"},{"poiid":"B2094654DB69A6F4479D","title":"吉野家  先施店","lon":"121.48124","lat":"31.23602","category":"95","category_name":"日本料理","address":"黄浦区南京东路479号先施休闲广场1楼(近福建中路)"},{"poiid":"B2094750D76EABFE469D","title":"许留山(名人商业广场店)","lon":"121.484","lat":"31.2373","category":"67","category_name":"甜品店","address":"黄浦区南京东路300号名人商业广场B1楼108商铺(近河南中路)"},{"poiid":"B2094654DA6FA5FF469E","title":"亚马逊巴西烤肉","lon":"121.48132","lat":"31.23593","category":"94","category_name":"西餐厅","address":"黄浦区南京东路479号新世界先施休闲港湾8楼(近福建中路)"},{"poiid":"B2094757D06AABF8499E","title":"上海市南京饭店","lon":"121.482299805","lat":"31.2373943329","category":"216","category_name":"经济型连锁酒店","address":"黄浦区山西南路200号(南京东路口)"},{"poiid":"B2094757D06FA4FE439B","title":"萨莉亚(353广场店)","lon":"121.48346473","lat":"31.236138426","category":"94","category_name":"西餐厅","address":"黄浦区南京东路353号4楼(近福建路)"},{"poiid":"B2094654DA6FA5F54798","title":"九江路金融广场","lon":"121.48319","lat":"31.23591","category":"46","category_name":"楼宇","address":"上海黄浦区九江路333号"},{"poiid":"B2094757D068A0F5499B","title":"应昌期围棋学校","lon":"121.48277","lat":"31.23792","category":"55","category_name":"中学","address":"黄浦区天津路200号(山西南路天津路)"},{"poiid":"B2094757D068A6F44392","title":"傣妹(南京东路一店)","lon":"121.48295","lat":"31.23611","category":"86","category_name":"火锅店","address":"黄浦区南京东路387号圣德娜商厦6楼(山西南路口)"},{"poiid":"B2094751D46AA2F54392","title":"雲上云源生态云南菜","lon":"121.4811952","lat":"31.2365955","category":"247","category_name":"餐饮美食","address":"南京东路233号南京大厦5楼(近河南中路)"},{"poiid":"B2094654DA6FA5F8469E","title":"蔡同德堂","lon":"121.48195","lat":"31.23659","category":"162","category_name":"医院","address":"黄浦区南京东路450号(近福建中路)"},{"poiid":"B2094655D264A1F94298","title":"桃源乡足道","lon":"121.48115","lat":"31.23594","category":"149","category_name":"洗浴推拿场所","address":"黄浦区南京东路479号新世界先施休闲港湾5楼(近福建中路)"},{"poiid":"B2094655D26AA1F5489D","title":"阿英煲山西南路店","lon":"121.48185","lat":"31.2378","category":"260","category_name":"其他","address":"黄浦区山西南路239号(近天津路)"},{"poiid":"B2094655D36CA2FC419D","title":"ZARA(353广场店)","lon":"121.48343","lat":"31.23683","category":"141","category_name":"服装鞋帽皮具店","address":"上海黄浦区南京东路369号(近河南中路)"},{"poiid":"B2094757D064AAFB409F","title":"大码头茶餐厅","lon":"121.482632738","lat":"31.2359394218","category":"500","category_name":"未知分类","address":"上海市黄浦区牛庄路"},{"poiid":"B2094654DA6FA5FF4699","title":"新世界休闲港湾","lon":"121.48114","lat":"31.23594","category":"46","category_name":"楼宇","address":"黄浦区南京东路479号新世界先施休闲港湾内(近福建中路)"},{"poiid":"B2094757D465A5F8459C","title":"沈大成 353广场店","lon":"121.483866054","lat":"31.237021793","category":"76","category_name":"上海菜","address":"黄浦区南京东路353号353广场3楼(近河南中路)"},{"poiid":"B2094757D068AAFE4699","title":"鸭王食府","lon":"121.48266475","lat":"31.236176656","category":"68","category_name":"快餐厅","address":"黄浦区南京东路358号(近河南路)"},{"poiid":"B2094757D068A7F5499A","title":"翠亭酒家","lon":"121.4823","lat":"31.23689","category":"76","category_name":"上海菜","address":"黄浦区山西南路211号(近天津路)"},{"poiid":"B2094757D168A7FD4698","title":"The Coffee Bean","lon":"121.483576738","lat":"31.2370234449","category":"65","category_name":"咖啡厅","address":"上海市黄浦区福建中路"},{"poiid":"B2094750D164A3F84493","title":"上海南京路青年旅舍","lon":"121.481613","lat":"31.237738","category":"215","category_name":"三星级宾馆","address":"上海市黄浦区天津路258号"},{"poiid":"B2094654DA6FA5F84592","title":"老凤祥银楼总店","lon":"121.48216","lat":"31.23663","category":"131","category_name":"珠宝首饰工艺品","address":"南京东路432"},{"poiid":"B2094655D26FA6F94798","title":"肯德基","lon":"121.48151","lat":"31.2361","category":"68","category_name":"快餐厅","address":"虹口区四川北路850号(塘沽路口)"},{"poiid":"B2094757D16CA2F84498","title":"周大福(南京路總店)","lon":"121.481736738","lat":"31.2366244364","category":"500","category_name":"未知分类","address":"上海ShanghaiHuangpuBeijing East Rd"},{"poiid":"B2094757D069A6FA439F","title":"好伦哥 南京东路二店 Origus","lon":"121.48466618895","lat":"31.237755843258","category":"94","category_name":"西餐厅","address":"黄浦区南京东路328号雅戈尔大厦3楼(近河南中路)"},{"poiid":"B2094757DB68A5F4469A","title":"芋贵人甜品店 置地广场店","lon":"121.48228883743","lat":"31.236242774077","category":"67","category_name":"甜品店","address":"黄浦区南京东路409-459号置地广场B1楼(近九江路)"},{"poiid":"B2094757D064A0FF479F","title":"德兴馆(山西南路店)","lon":"121.4826","lat":"31.23692","category":"76","category_name":"上海菜","address":"黄浦区山西南路199号(近南京东路)"},{"poiid":"B2094757D06FA0FC409F","title":"应氏大厦","lon":"121.482935","lat":"31.238545","category":"46","category_name":"楼宇","address":"上海天津路180号"},{"poiid":"B2094654DB6AA3F8429A","title":"沧浪亭 黄浦店","lon":"121.48246392867","lat":"31.236811090683","category":"68","category_name":"快餐厅","address":"黄浦区山西南路183号(近南京东路)"},{"poiid":"B2094757D06FA5FE4599","title":"恒记甜品(353广场店内)","lon":"121.483635","lat":"31.236367","category":"247","category_name":"餐饮美食","address":"黄浦区南京东路353号353广场6楼(近九江路)"},{"poiid":"B2094757D769A4FA479D","title":"赛百味 置地广场店 Subway","lon":"121.482310054","lat":"31.236245793","category":"94","category_name":"西餐厅","address":"黄浦区南京东路409-459号置地广场B1楼(近山西南路)"},{"poiid":"B2094750DA6EA7F44499","title":"三人行","lon":"121.481491","lat":"31.236122","category":"247","category_name":"餐饮美食","address":"南京東路"},{"poiid":"B2094757D064A5F54192","title":"三味丰","lon":"121.483732238","lat":"31.2364504327","category":"95","category_name":"日本料理","address":"黄浦区南京东路300号名人购物中心4楼(河南中路口)"},{"poiid":"B2094751D464ABF5419B","title":"上海外灘","lon":"121.48366","lat":"31.236304","category":"500","category_name":"未知分类","address":null},{"poiid":"B2094655D26FA5FF4398","title":"置地广场","lon":"121.48237","lat":"31.23631","category":"119","category_name":"商场","address":"黄浦区南京东路409-459号(近山西南路)"},{"poiid":"B2094655D26CAAF5419B","title":"353广场","lon":"121.48339","lat":"31.23676","category":"119","category_name":"商场","address":"黄浦区南京东路353号(近河南中路)"},{"poiid":"B2094654DA6FA5F44192","title":"渝信川菜(华盛大厦店)","lon":"121.48265","lat":"31.23582","category":"71","category_name":"四川菜","address":"黄浦区九江路399号华盛大厦5楼(近山西南路)"},{"poiid":"B2094753D76FAAFA449C","title":"上海滩国泰旗舰店","lon":"121.466011","lat":"31.216125","category":"249","category_name":"购物服务","address":"淮海中路868号"},{"poiid":"B209475CD564A7F84292","title":"上海滩新天地店","lon":"121.47463","lat":"31.22164","category":"119","category_name":"商场","address":"\"太仓路181弄新天地北里15号\r\n\""},{"poiid":"B209475CD564A7F8439E","title":"上海滩中信泰富店","lon":"121.45602","lat":"31.22851","category":"119","category_name":"商场","address":"\"南京西路1168号中信泰富广场，店铺号221.\r\n\""},{"poiid":"B209475CD564A7F84392","title":"上海滩浦东香格里拉店","lon":"121.50058","lat":"31.23634","category":"119","category_name":"商场","address":"浦东富成路33号香格里拉酒店内大堂层"},{"poiid":"B2094757D06FA2F4489B","title":"名人商业大厦","lon":"121.48353704","lat":"31.23810352","category":"46","category_name":"楼宇","address":"上海市天津路155号"},{"poiid":"B2094750D26EA4FE4099","title":"三人行骨头王火锅 南京东路二店","lon":"121.48115","lat":"31.23593","category":"86","category_name":"火锅店","address":"黄浦区南京东路479号新世界休闲港湾3-4楼(近福建中路)"},{"poiid":"B2094757D06FA2F5439A","title":"必胜客(先施店)","lon":"121.4802334","lat":"31.2357621","category":"94","category_name":"西餐厅","address":"黄浦区南京东路479号新世界先施休闲港湾1楼(近福建中路)"},{"poiid":"B2094757D06FA2F4489D","title":"斗牛士(353广场店)","lon":"121.483458755","lat":"31.2365172341","category":"94","category_name":"西餐厅","address":"黄浦区南京东路353号353广场5楼510室(山东路口)"},{"poiid":"B2094757D06FA1F9479D","title":"021上海菜主题餐厅(353广场店)","lon":"121.48358","lat":"31.23652","category":"76","category_name":"上海菜","address":"黄浦区南京东路353号353广场7楼(近河南中路)"},{"poiid":"B2094757D06FA0F9409B","title":"星巴克(上海古象大酒店)","lon":"121.479507","lat":"31.234364","category":"65","category_name":"咖啡厅","address":"黄浦区九江路595号古象大酒店内(近湖北路)"},{"poiid":"B2094654DB69A4FC4092","title":"好乐迪(南东店)","lon":"121.48132","lat":"31.23593","category":"170","category_name":"KTV","address":"黄浦区南京东路479号新世界先施休闲港湾6-7楼(近福建中路)"},{"poiid":"B2094757D06EAAFC439B","title":"美特斯邦威(南京东路旗舰店)","lon":"121.482674","lat":"31.236528","category":"141","category_name":"服装鞋帽皮具店","address":"黄浦区南京东路387号圣德娜商厦内(山西南路口)"},{"poiid":"B2094751D364AAFA4393","title":"上海南京路步行街（353广场）","lon":"121.482653","lat":"31.236516","category":"249","category_name":"购物服务","address":null},{"poiid":"B2094757D06FA0FE489E","title":"桥香园 南京东路店","lon":"121.48284074315","lat":"31.237031133729","category":"68","category_name":"快餐厅","address":"黄浦区南京东路388号2楼(山西南路口)"},{"poiid":"B2094654DB69A6F4479D","title":"吉野家  先施店","lon":"121.48124","lat":"31.23602","category":"95","category_name":"日本料理","address":"黄浦区南京东路479号先施休闲广场1楼(近福建中路)"},{"poiid":"B2094750D76EABFE469D","title":"许留山(名人商业广场店)","lon":"121.484","lat":"31.2373","category":"67","category_name":"甜品店","address":"黄浦区南京东路300号名人商业广场B1楼108商铺(近河南中路)"},{"poiid":"B2094654DA6FA5FF469E","title":"亚马逊巴西烤肉","lon":"121.48132","lat":"31.23593","category":"94","category_name":"西餐厅","address":"黄浦区南京东路479号新世界先施休闲港湾8楼(近福建中路)"},{"poiid":"B2094757D06AABF8499E","title":"上海市南京饭店","lon":"121.482299805","lat":"31.2373943329","category":"216","category_name":"经济型连锁酒店","address":"黄浦区山西南路200号(南京东路口)"},{"poiid":"B2094757D06FA4FE439B","title":"萨莉亚(353广场店)","lon":"121.48346473","lat":"31.236138426","category":"94","category_name":"西餐厅","address":"黄浦区南京东路353号4楼(近福建路)"},{"poiid":"B2094654DA6FA5F54798","title":"九江路金融广场","lon":"121.48319","lat":"31.23591","category":"46","category_name":"楼宇","address":"上海黄浦区九江路333号"},{"poiid":"B2094757D068A0F5499B","title":"应昌期围棋学校","lon":"121.48277","lat":"31.23792","category":"55","category_name":"中学","address":"黄浦区天津路200号(山西南路天津路)"},{"poiid":"B2094757D068A6F44392","title":"傣妹(南京东路一店)","lon":"121.48295","lat":"31.23611","category":"86","category_name":"火锅店","address":"黄浦区南京东路387号圣德娜商厦6楼(山西南路口)"},{"poiid":"B2094751D46AA2F54392","title":"雲上云源生态云南菜","lon":"121.4811952","lat":"31.2365955","category":"247","category_name":"餐饮美食","address":"南京东路233号南京大厦5楼(近河南中路)"},{"poiid":"B2094654DA6FA5F8469E","title":"蔡同德堂","lon":"121.48195","lat":"31.23659","category":"162","category_name":"医院","address":"黄浦区南京东路450号(近福建中路)"},{"poiid":"B2094655D264A1F94298","title":"桃源乡足道","lon":"121.48115","lat":"31.23594","category":"149","category_name":"洗浴推拿场所","address":"黄浦区南京东路479号新世界先施休闲港湾5楼(近福建中路)"},{"poiid":"B2094655D26AA1F5489D","title":"阿英煲山西南路店","lon":"121.48185","lat":"31.2378","category":"260","category_name":"其他","address":"黄浦区山西南路239号(近天津路)"},{"poiid":"B2094655D36CA2FC419D","title":"ZARA(353广场店)","lon":"121.48343","lat":"31.23683","category":"141","category_name":"服装鞋帽皮具店","address":"上海黄浦区南京东路369号(近河南中路)"},{"poiid":"B2094757D064AAFB409F","title":"大码头茶餐厅","lon":"121.482632738","lat":"31.2359394218","category":"500","category_name":"未知分类","address":"上海市黄浦区牛庄路"},{"poiid":"B2094654DA6FA5FF4699","title":"新世界休闲港湾","lon":"121.48114","lat":"31.23594","category":"46","category_name":"楼宇","address":"黄浦区南京东路479号新世界先施休闲港湾内(近福建中路)"},{"poiid":"B2094757D465A5F8459C","title":"沈大成 353广场店","lon":"121.483866054","lat":"31.237021793","category":"76","category_name":"上海菜","address":"黄浦区南京东路353号353广场3楼(近河南中路)"},{"poiid":"B2094757D068AAFE4699","title":"鸭王食府","lon":"121.48266475","lat":"31.236176656","category":"68","category_name":"快餐厅","address":"黄浦区南京东路358号(近河南路)"},{"poiid":"B2094757D068A7F5499A","title":"翠亭酒家","lon":"121.4823","lat":"31.23689","category":"76","category_name":"上海菜","address":"黄浦区山西南路211号(近天津路)"},{"poiid":"B2094757D168A7FD4698","title":"The Coffee Bean","lon":"121.483576738","lat":"31.2370234449","category":"65","category_name":"咖啡厅","address":"上海市黄浦区福建中路"},{"poiid":"B2094750D164A3F84493","title":"上海南京路青年旅舍","lon":"121.481613","lat":"31.237738","category":"215","category_name":"三星级宾馆","address":"上海市黄浦区天津路258号"},{"poiid":"B2094654DA6FA5F84592","title":"老凤祥银楼总店","lon":"121.48216","lat":"31.23663","category":"131","category_name":"珠宝首饰工艺品","address":"南京东路432"},{"poiid":"B2094655D26FA6F94798","title":"肯德基","lon":"121.48151","lat":"31.2361","category":"68","category_name":"快餐厅","address":"虹口区四川北路850号(塘沽路口)"},{"poiid":"B2094757D16CA2F84498","title":"周大福(南京路總店)","lon":"121.481736738","lat":"31.2366244364","category":"500","category_name":"未知分类","address":"上海ShanghaiHuangpuBeijing East Rd"},{"poiid":"B2094757D069A6FA439F","title":"好伦哥 南京东路二店 Origus","lon":"121.48466618895","lat":"31.237755843258","category":"94","category_name":"西餐厅","address":"黄浦区南京东路328号雅戈尔大厦3楼(近河南中路)"},{"poiid":"B2094757DB68A5F4469A","title":"芋贵人甜品店 置地广场店","lon":"121.48228883743","lat":"31.236242774077","category":"67","category_name":"甜品店","address":"黄浦区南京东路409-459号置地广场B1楼(近九江路)"},{"poiid":"B2094757D064A0FF479F","title":"德兴馆(山西南路店)","lon":"121.4826","lat":"31.23692","category":"76","category_name":"上海菜","address":"黄浦区山西南路199号(近南京东路)"},{"poiid":"B2094757D06FA0FC409F","title":"应氏大厦","lon":"121.482935","lat":"31.238545","category":"46","category_name":"楼宇","address":"上海天津路180号"},{"poiid":"B2094654DB6AA3F8429A","title":"沧浪亭 黄浦店","lon":"121.48246392867","lat":"31.236811090683","category":"68","category_name":"快餐厅","address":"黄浦区山西南路183号(近南京东路)"},{"poiid":"B2094757D06FA5FE4599","title":"恒记甜品(353广场店内)","lon":"121.483635","lat":"31.236367","category":"247","category_name":"餐饮美食","address":"黄浦区南京东路353号353广场6楼(近九江路)"},{"poiid":"B2094757D769A4FA479D","title":"赛百味 置地广场店 Subway","lon":"121.482310054","lat":"31.236245793","category":"94","category_name":"西餐厅","address":"黄浦区南京东路409-459号置地广场B1楼(近山西南路)"},{"poiid":"B2094750DA6EA7F44499","title":"三人行","lon":"121.481491","lat":"31.236122","category":"247","category_name":"餐饮美食","address":"南京東路"},{"poiid":"B2094757D064A5F54192","title":"三味丰","lon":"121.483732238","lat":"31.2364504327","category":"95","category_name":"日本料理","address":"黄浦区南京东路300号名人购物中心4楼(河南中路口)"},{"poiid":"B2094751D464ABF5419B","title":"上海外灘","lon":"121.48366","lat":"31.236304","category":"500","category_name":"未知分类","address":null},{"poiid":"B2094655D26FA5FF4398","title":"置地广场","lon":"121.48237","lat":"31.23631","category":"119","category_name":"商场","address":"黄浦区南京东路409-459号(近山西南路)"},{"poiid":"B2094655D26CAAF5419B","title":"353广场","lon":"121.48339","lat":"31.23676","category":"119","category_name":"商场","address":"黄浦区南京东路353号(近河南中路)"},{"poiid":"B2094654DA6FA5F44192","title":"渝信川菜(华盛大厦店)","lon":"121.48265","lat":"31.23582","category":"71","category_name":"四川菜","address":"黄浦区九江路399号华盛大厦5楼(近山西南路)"},{"poiid":"B2094753D76FAAFA449C","title":"上海滩国泰旗舰店","lon":"121.466011","lat":"31.216125","category":"249","category_name":"购物服务","address":"淮海中路868号"},{"poiid":"B209475CD564A7F84292","title":"上海滩新天地店","lon":"121.47463","lat":"31.22164","category":"119","category_name":"商场","address":"\"太仓路181弄新天地北里15号\r\n\""},{"poiid":"B209475CD564A7F8439E","title":"上海滩中信泰富店","lon":"121.45602","lat":"31.22851","category":"119","category_name":"商场","address":"\"南京西路1168号中信泰富广场，店铺号221.\r\n\""},{"poiid":"B209475CD564A7F84392","title":"上海滩浦东香格里拉店","lon":"121.50058","lat":"31.23634","category":"119","category_name":"商场","address":"浦东富成路33号香格里拉酒店内大堂层"},{"poiid":"B2094757D06FA2F4489B","title":"名人商业大厦","lon":"121.48353704","lat":"31.23810352","category":"46","category_name":"楼宇","address":"上海市天津路155号"},{"poiid":"B2094750D26EA4FE4099","title":"三人行骨头王火锅 南京东路二店","lon":"121.48115","lat":"31.23593","category":"86","category_name":"火锅店","address":"黄浦区南京东路479号新世界休闲港湾3-4楼(近福建中路)"},{"poiid":"B2094757D06FA2F5439A","title":"必胜客(先施店)","lon":"121.4802334","lat":"31.2357621","category":"94","category_name":"西餐厅","address":"黄浦区南京东路479号新世界先施休闲港湾1楼(近福建中路)"},{"poiid":"B2094757D06FA2F4489D","title":"斗牛士(353广场店)","lon":"121.483458755","lat":"31.2365172341","category":"94","category_name":"西餐厅","address":"黄浦区南京东路353号353广场5楼510室(山东路口)"},{"poiid":"B2094757D06FA1F9479D","title":"021上海菜主题餐厅(353广场店)","lon":"121.48358","lat":"31.23652","category":"76","category_name":"上海菜","address":"黄浦区南京东路353号353广场7楼(近河南中路)"},{"poiid":"B2094757D06FA0F9409B","title":"星巴克(上海古象大酒店)","lon":"121.479507","lat":"31.234364","category":"65","category_name":"咖啡厅","address":"黄浦区九江路595号古象大酒店内(近湖北路)"},{"poiid":"B2094654DB69A4FC4092","title":"好乐迪(南东店)","lon":"121.48132","lat":"31.23593","category":"170","category_name":"KTV","address":"黄浦区南京东路479号新世界先施休闲港湾6-7楼(近福建中路)"},{"poiid":"B2094757D06EAAFC439B","title":"美特斯邦威(南京东路旗舰店)","lon":"121.482674","lat":"31.236528","category":"141","category_name":"服装鞋帽皮具店","address":"黄浦区南京东路387号圣德娜商厦内(山西南路口)"},{"poiid":"B2094751D364AAFA4393","title":"上海南京路步行街（353广场）","lon":"121.482653","lat":"31.236516","category":"249","category_name":"购物服务","address":null},{"poiid":"B2094757D06FA0FE489E","title":"桥香园 南京东路店","lon":"121.48284074315","lat":"31.237031133729","category":"68","category_name":"快餐厅","address":"黄浦区南京东路388号2楼(山西南路口)"},{"poiid":"B2094654DB69A6F4479D","title":"吉野家  先施店","lon":"121.48124","lat":"31.23602","category":"95","category_name":"日本料理","address":"黄浦区南京东路479号先施休闲广场1楼(近福建中路)"},{"poiid":"B2094750D76EABFE469D","title":"许留山(名人商业广场店)","lon":"121.484","lat":"31.2373","category":"67","category_name":"甜品店","address":"黄浦区南京东路300号名人商业广场B1楼108商铺(近河南中路)"},{"poiid":"B2094654DA6FA5FF469E","title":"亚马逊巴西烤肉","lon":"121.48132","lat":"31.23593","category":"94","category_name":"西餐厅","address":"黄浦区南京东路479号新世界先施休闲港湾8楼(近福建中路)"},{"poiid":"B2094757D06AABF8499E","title":"上海市南京饭店","lon":"121.482299805","lat":"31.2373943329","category":"216","category_name":"经济型连锁酒店","address":"黄浦区山西南路200号(南京东路口)"},{"poiid":"B2094757D06FA4FE439B","title":"萨莉亚(353广场店)","lon":"121.48346473","lat":"31.236138426","category":"94","category_name":"西餐厅","address":"黄浦区南京东路353号4楼(近福建路)"},{"poiid":"B2094654DA6FA5F54798","title":"九江路金融广场","lon":"121.48319","lat":"31.23591","category":"46","category_name":"楼宇","address":"上海黄浦区九江路333号"},{"poiid":"B2094757D068A0F5499B","title":"应昌期围棋学校","lon":"121.48277","lat":"31.23792","category":"55","category_name":"中学","address":"黄浦区天津路200号(山西南路天津路)"},{"poiid":"B2094757D068A6F44392","title":"傣妹(南京东路一店)","lon":"121.48295","lat":"31.23611","category":"86","category_name":"火锅店","address":"黄浦区南京东路387号圣德娜商厦6楼(山西南路口)"},{"poiid":"B2094751D46AA2F54392","title":"雲上云源生态云南菜","lon":"121.4811952","lat":"31.2365955","category":"247","category_name":"餐饮美食","address":"南京东路233号南京大厦5楼(近河南中路)"},{"poiid":"B2094654DA6FA5F8469E","title":"蔡同德堂","lon":"121.48195","lat":"31.23659","category":"162","category_name":"医院","address":"黄浦区南京东路450号(近福建中路)"},{"poiid":"B2094655D264A1F94298","title":"桃源乡足道","lon":"121.48115","lat":"31.23594","category":"149","category_name":"洗浴推拿场所","address":"黄浦区南京东路479号新世界先施休闲港湾5楼(近福建中路)"},{"poiid":"B2094655D26AA1F5489D","title":"阿英煲山西南路店","lon":"121.48185","lat":"31.2378","category":"260","category_name":"其他","address":"黄浦区山西南路239号(近天津路)"},{"poiid":"B2094655D36CA2FC419D","title":"ZARA(353广场店)","lon":"121.48343","lat":"31.23683","category":"141","category_name":"服装鞋帽皮具店","address":"上海黄浦区南京东路369号(近河南中路)"},{"poiid":"B2094757D064AAFB409F","title":"大码头茶餐厅","lon":"121.482632738","lat":"31.2359394218","category":"500","category_name":"未知分类","address":"上海市黄浦区牛庄路"},{"poiid":"B2094654DA6FA5FF4699","title":"新世界休闲港湾","lon":"121.48114","lat":"31.23594","category":"46","category_name":"楼宇","address":"黄浦区南京东路479号新世界先施休闲港湾内(近福建中路)"},{"poiid":"B2094757D465A5F8459C","title":"沈大成 353广场店","lon":"121.483866054","lat":"31.237021793","category":"76","category_name":"上海菜","address":"黄浦区南京东路353号353广场3楼(近河南中路)"},{"poiid":"B2094757D068AAFE4699","title":"鸭王食府","lon":"121.48266475","lat":"31.236176656","category":"68","category_name":"快餐厅","address":"黄浦区南京东路358号(近河南路)"},{"poiid":"B2094757D068A7F5499A","title":"翠亭酒家","lon":"121.4823","lat":"31.23689","category":"76","category_name":"上海菜","address":"黄浦区山西南路211号(近天津路)"},{"poiid":"B2094757D168A7FD4698","title":"The Coffee Bean","lon":"121.483576738","lat":"31.2370234449","category":"65","category_name":"咖啡厅","address":"上海市黄浦区福建中路"},{"poiid":"B2094750D164A3F84493","title":"上海南京路青年旅舍","lon":"121.481613","lat":"31.237738","category":"215","category_name":"三星级宾馆","address":"上海市黄浦区天津路258号"},{"poiid":"B2094654DA6FA5F84592","title":"老凤祥银楼总店","lon":"121.48216","lat":"31.23663","category":"131","category_name":"珠宝首饰工艺品","address":"南京东路432"},{"poiid":"B2094655D26FA6F94798","title":"肯德基","lon":"121.48151","lat":"31.2361","category":"68","category_name":"快餐厅","address":"虹口区四川北路850号(塘沽路口)"},{"poiid":"B2094757D16CA2F84498","title":"周大福(南京路總店)","lon":"121.481736738","lat":"31.2366244364","category":"500","category_name":"未知分类","address":"上海ShanghaiHuangpuBeijing East Rd"},{"poiid":"B2094757D069A6FA439F","title":"好伦哥 南京东路二店 Origus","lon":"121.48466618895","lat":"31.237755843258","category":"94","category_name":"西餐厅","address":"黄浦区南京东路328号雅戈尔大厦3楼(近河南中路)"},{"poiid":"B2094757DB68A5F4469A","title":"芋贵人甜品店 置地广场店","lon":"121.48228883743","lat":"31.236242774077","category":"67","category_name":"甜品店","address":"黄浦区南京东路409-459号置地广场B1楼(近九江路)"},{"poiid":"B2094757D064A0FF479F","title":"德兴馆(山西南路店)","lon":"121.4826","lat":"31.23692","category":"76","category_name":"上海菜","address":"黄浦区山西南路199号(近南京东路)"},{"poiid":"B2094757D06FA0FC409F","title":"应氏大厦","lon":"121.482935","lat":"31.238545","category":"46","category_name":"楼宇","address":"上海天津路180号"},{"poiid":"B2094654DB6AA3F8429A","title":"沧浪亭 黄浦店","lon":"121.48246392867","lat":"31.236811090683","category":"68","category_name":"快餐厅","address":"黄浦区山西南路183号(近南京东路)"},{"poiid":"B2094757D06FA5FE4599","title":"恒记甜品(353广场店内)","lon":"121.483635","lat":"31.236367","category":"247","category_name":"餐饮美食","address":"黄浦区南京东路353号353广场6楼(近九江路)"},{"poiid":"B2094757D769A4FA479D","title":"赛百味 置地广场店 Subway","lon":"121.482310054","lat":"31.236245793","category":"94","category_name":"西餐厅","address":"黄浦区南京东路409-459号置地广场B1楼(近山西南路)"},{"poiid":"B2094750DA6EA7F44499","title":"三人行","lon":"121.481491","lat":"31.236122","category":"247","category_name":"餐饮美食","address":"南京東路"},{"poiid":"B2094757D064A5F54192","title":"三味丰","lon":"121.483732238","lat":"31.2364504327","category":"95","category_name":"日本料理","address":"黄浦区南京东路300号名人购物中心4楼(河南中路口)"},{"poiid":"B2094751D464ABF5419B","title":"上海外灘","lon":"121.48366","lat":"31.236304","category":"500","category_name":"未知分类","address":null}]