[{"poiid":"B2094757D06FA7F9419F","title":"毛胡子牛羊馆","lon":"121.3995","lat":"31.24469","category":"68","category_name":"快餐厅","address":"普陀区武宁路2132号(近杨柳青路)"},{"poiid":"B2094757D06FA0FB4999","title":"普陀区人民政府","lon":"121.396481784","lat":"31.2495622802","category":"252","category_name":"楼宇机构","address":"上海普陀区大渡河路1668号"},{"poiid":"B2094757D06EABF54898","title":"武宁路大渡河路","lon":"121.396488","lat":"31.246277","category":"38","category_name":"公交车站","address":"上海武宁路大渡河路"},{"poiid":"B2094757D06FA5F94798","title":"苏武牧羊(普陀店)","lon":"121.39745","lat":"31.24777","category":"86","category_name":"火锅店","address":"普陀区大渡河路1558号(近北石路)"},{"poiid":"B2094655D36CA5FC479D","title":"大渡河路北石路","lon":"121.39721","lat":"31.24791","category":"38","category_name":"公交车站","address":"上海大渡河路北石路"},{"poiid":"B2094757D06FA4FF439A","title":"乐天玛特(武宁路店)","lon":"121.398511","lat":"31.243815","category":"118","category_name":"超级市场","address":"普陀区武宁路768号(近杨柳青路)"},{"poiid":"B2094757D165A6FA4293","title":"长风公园海底世界","lon":"121.39705058","lat":"31.245754734","category":"196","category_name":"公园","address":"上海市普陀区北石路"},{"poiid":"B2094654D56BA4FD479F","title":"海上名庭","lon":"121.39221","lat":"31.243805","category":"47","category_name":"住宅区","address":"梅岭北路1258弄1-99号"},{"poiid":"B2094757D06AA4F54099","title":"潮汕庄","lon":"121.397329","lat":"31.248326","category":"86","category_name":"火锅店","address":"普陀区大渡河路1625号(近北石路)"},{"poiid":"B2094757D068A1FF4192","title":"普陀区税务局","lon":"121.394380281","lat":"31.2493238773","category":"252","category_name":"楼宇机构","address":"上海普陀区北石路579号"},{"poiid":"B2094757D16EA7FB479A","title":"波黎露(百联中环店)","lon":"121.390805586","lat":"31.2436804942","category":"94","category_name":"西餐厅","address":"普陀区真光路1288号百联中环B区3楼(近梅川路)"},{"poiid":"B2094751D464A6FE449A","title":"上山下乡知青火锅","lon":"121.39691","lat":"31.24574","category":"86","category_name":"火锅店","address":"普陀区兰溪路201号第一酒市6楼(近武宁路)"},{"poiid":"B2094757D06FA7FF4292","title":"曹安路农贸市场","lon":"121.39717","lat":"31.24498","category":"500","category_name":"未知分类","address":"普陀区武宁路2255号(大渡河路武宁路)"},{"poiid":"B2094654D56BA3F94092","title":"上海申普宠物医院","lon":"121.39752","lat":"31.24627","category":"162","category_name":"医院","address":"普陀区大渡河路1545号(近武宁路)"},{"poiid":"B2094757D168A3F9499C","title":"巴黎贝甜(乐天玛特店)","lon":"121.397437486","lat":"31.245048521","category":"67","category_name":"甜品店","address":"普陀区杨柳青路768号乐天玛特超市1楼(近武宁路)"},{"poiid":"B2094757D068AAF54999","title":"重庆德庄火锅(普陀店)","lon":"121.39715","lat":"31.24742","category":"86","category_name":"火锅店","address":"上海普陀区大渡河路1603号久良财富广场1楼(近北石路)  "},{"poiid":"B2094757D064AAF9489F","title":"上海票据交换中心","lon":"121.39899731","lat":"31.247277164","category":"500","category_name":"未知分类","address":"上海市普陀区真光路1581号"},{"poiid":"B2094757D069A5F84292","title":"真如体育场","lon":"121.399510261","lat":"31.2481169398","category":"220","category_name":"运动场所","address":"普陀区北石路208号(近兰溪路)"},{"poiid":"B2094757D16AA1FF409F","title":"红星世贸大厦","lon":"121.39256181928","lat":"31.243826936363","category":"252","category_name":"楼宇机构","address":"上海怒江北路598号"},{"poiid":"B2094751D56DA2F84198","title":"红宝石(大渡河路店)","lon":"121.3971","lat":"31.24719","category":"67","category_name":"甜品店","address":"普陀区大渡河路1550弄(近武宁路)"},{"poiid":"B2094757D16AA1FE449B","title":"大渡河路","lon":"121.39415058","lat":"31.245613732","category":"500","category_name":"未知分类","address":"上海市普陀区大渡河路1550弄90支弄"},{"poiid":"B2094751D56AA1FD449D","title":"谈阿姨炸猪排","lon":"121.3921658502795","lat":"31.24863703506036","category":"247","category_name":"餐饮美食","address":"铜川路万镇路"},{"poiid":"B2094654D56BA3F9419B","title":"久良财富休闲广场","lon":"121.39762","lat":"31.24669","category":"201","category_name":"城市广场","address":"普陀区大渡河路1501号"},{"poiid":"B2094757D068ABFD449C","title":"肯德基 KFC (长征店)","lon":"121.398891","lat":"31.243681","category":"68","category_name":"快餐厅","address":"上海普陀区杨柳青路768号乐天玛特普陀店一层"},{"poiid":"B2094655D26DA3FE4293","title":"真如镇社区卫生服务中心","lon":"121.39818","lat":"31.24679","category":"162","category_name":"医院","address":"上海普陀区大渡河路真如西村115号"},{"poiid":"B2094654D465A6FC4499","title":"樱花苑","lon":"121.39289","lat":"31.24876","category":"47","category_name":"住宅区","address":"静安区陕西南路(复兴中路陕西南路)"},{"poiid":"B2094654D465A6FC4593","title":"阳光商务大厦","lon":"121.39682","lat":"31.2502","category":"46","category_name":"楼宇","address":"闵行区七莘路联明路"},{"poiid":"B2094757D065A7F8469B","title":"二号线静安寺地铁站","lon":"121.397664586","lat":"31.2450967219","category":"36","category_name":"地铁站","address":"上海轨道交通七号线换乘二号线"},{"poiid":"B2094757D06FA0FB459D","title":"时代超级购物中心","lon":"121.39966","lat":"31.24413","category":"119","category_name":"商场","address":"上海普陀区武宁路768号2-3楼(杨柳青路口)"},{"poiid":"B2094655D36DA1FA429F","title":"华玉竹园","lon":"121.395645","lat":"31.245447","category":"47","category_name":"住宅区","address":"上海市长宁区延安西路1235弄"},{"poiid":"B2094757D06AA2FC449E","title":"金盟豪海鲜大酒楼","lon":"121.39387","lat":"31.24203","category":"75","category_name":"浙江菜","address":"普陀区中江路1277号(近梅川路)"},{"poiid":"B2094750D464A5F5469B","title":"虹口足球场","lon":"121.396278","lat":"31.245443","category":"220","category_name":"运动场所","address":null},{"poiid":"B2094757D66DA3FC4893","title":"真西饭店","lon":"121.39557","lat":"31.24528","category":"247","category_name":"餐饮美食","address":"上海普陀区长征镇武宁路2345号(大渡河路口)  "},{"poiid":"B2094654DB6BA0F5419A","title":"上岛咖啡 大渡河路店 UBC Coffee","lon":"121.397390054","lat":"31.245422793","category":"65","category_name":"咖啡厅","address":"大渡河路1580号(北石路口)"},{"poiid":"B2094757D06AA4FF4498","title":"花园鱼庄（原四川花园）(大渡河路店)","lon":"121.39785","lat":"31.2486","category":"71","category_name":"四川菜","address":"普陀区大渡河路1653号(近北石路)"},{"poiid":"B2094654DB6AA0FB499E","title":"中国移动上海公司大渡河路营业厅","lon":"121.3972","lat":"31.2462","category":"151","category_name":"电讯营业厅","address":"普陀区大渡河路1533号"},{"poiid":"B2094757D06BA0FC4398","title":"宋记香辣蟹","lon":"121.397255","lat":"31.248258","category":"247","category_name":"餐饮美食","address":"上海大渡河路近北石路"},{"poiid":"B2094655D26BA2FC439C","title":"武宁路真北路","lon":"121.39005","lat":"31.24633","category":"38","category_name":"公交车站","address":"上海市武宁路真北路"},{"poiid":"B2094757D06BA6FE499F","title":"只有时间是解药","lon":"121.39368958","lat":"31.245563731","category":"245","category_name":"教堂","address":"上海梅岭北路中江路"},{"poiid":"B2094757D069A7FE409C","title":"蒙自源云南过桥米线(武宁路店)","lon":"121.39968","lat":"31.24413","category":"68","category_name":"快餐厅","address":"普陀区武宁路768号乐天玛特购物中心1楼(近杨柳青路)"},{"poiid":"B2094654D56BA5F4419C","title":"快客No.1333","lon":"121.39472","lat":"31.2472","category":"117","category_name":"便民商店/便利店","address":"真如镇"},{"poiid":"B2094654D56BA5FB499D","title":"好德NO.443","lon":"121.39615","lat":"31.24706","category":"117","category_name":"便民商店/便利店","address":"大渡河路1550弄38"},{"poiid":"B2094655D264A6FE419C","title":"友通数码港","lon":"121.39737","lat":"31.24531","category":"138","category_name":"家电电子卖场","address":"普陀区大渡河路1501号(近武宁路)"},{"poiid":"B2094655D26EA3F9439E","title":"驰骋苑","lon":"121.39685","lat":"31.24617","category":"47","category_name":"住宅区","address":"大渡河路1516弄1、2号楼"},{"poiid":"B2094655D264A7F54299","title":"真西新苑","lon":"121.39583","lat":"31.247669","category":"47","category_name":"住宅区","address":"上海市普陀区北石路400弄"},{"poiid":"B2094655D26FA5FC429E","title":"真西新村第二小区","lon":"121.39331","lat":"31.246763","category":"47","category_name":"住宅区","address":"普陀区北石路1550弄160支弄真西新村9号居委会(近苏武牧)"},{"poiid":"B2094757D16CA7F94992","title":"和盛堂","lon":"121.3965","lat":"31.24704","category":"149","category_name":"洗浴推拿场所","address":"普陀区大渡河路1550弄37号"},{"poiid":"B2094757DA64A4F9459A","title":"普陀医院","lon":"121.395283","lat":"31.243362","category":"162","category_name":"医院","address":"梅岭北路"},{"poiid":"B2094654D56BA5F4409A","title":"程新大渡河小吃","lon":"121.39597","lat":"31.24735","category":"68","category_name":"快餐厅","address":"真如镇"},{"poiid":"B2094757D068A6F84393","title":"索福德足球世界(沪西体育宫店)","lon":"121.39667","lat":"31.24928","category":"220","category_name":"运动场所","address":"普陀区大渡河路1860号沪西体育宫内(近铜川路)"},{"poiid":"B2094757D06FA7F9419F","title":"毛胡子牛羊馆","lon":"121.3995","lat":"31.24469","category":"68","category_name":"快餐厅","address":"普陀区武宁路2132号(近杨柳青路)"},{"poiid":"B2094757D06FA0FB4999","title":"普陀区人民政府","lon":"121.396481784","lat":"31.2495622802","category":"252","category_name":"楼宇机构","address":"上海普陀区大渡河路1668号"},{"poiid":"B2094757D06EABF54898","title":"武宁路大渡河路","lon":"121.396488","lat":"31.246277","category":"38","category_name":"公交车站","address":"上海武宁路大渡河路"},{"poiid":"B2094757D06FA5F94798","title":"苏武牧羊(普陀店)","lon":"121.39745","lat":"31.24777","category":"86","category_name":"火锅店","address":"普陀区大渡河路1558号(近北石路)"},{"poiid":"B2094655D36CA5FC479D","title":"大渡河路北石路","lon":"121.39721","lat":"31.24791","category":"38","category_name":"公交车站","address":"上海大渡河路北石路"},{"poiid":"B2094757D06FA4FF439A","title":"乐天玛特(武宁路店)","lon":"121.398511","lat":"31.243815","category":"118","category_name":"超级市场","address":"普陀区武宁路768号(近杨柳青路)"},{"poiid":"B2094757D165A6FA4293","title":"长风公园海底世界","lon":"121.39705058","lat":"31.245754734","category":"196","category_name":"公园","address":"上海市普陀区北石路"},{"poiid":"B2094654D56BA4FD479F","title":"海上名庭","lon":"121.39221","lat":"31.243805","category":"47","category_name":"住宅区","address":"梅岭北路1258弄1-99号"},{"poiid":"B2094757D06AA4F54099","title":"潮汕庄","lon":"121.397329","lat":"31.248326","category":"86","category_name":"火锅店","address":"普陀区大渡河路1625号(近北石路)"},{"poiid":"B2094757D068A1FF4192","title":"普陀区税务局","lon":"121.394380281","lat":"31.2493238773","category":"252","category_name":"楼宇机构","address":"上海普陀区北石路579号"},{"poiid":"B2094757D16EA7FB479A","title":"波黎露(百联中环店)","lon":"121.390805586","lat":"31.2436804942","category":"94","category_name":"西餐厅","address":"普陀区真光路1288号百联中环B区3楼(近梅川路)"},{"poiid":"B2094751D464A6FE449A","title":"上山下乡知青火锅","lon":"121.39691","lat":"31.24574","category":"86","category_name":"火锅店","address":"普陀区兰溪路201号第一酒市6楼(近武宁路)"},{"poiid":"B2094757D06FA7FF4292","title":"曹安路农贸市场","lon":"121.39717","lat":"31.24498","category":"500","category_name":"未知分类","address":"普陀区武宁路2255号(大渡河路武宁路)"},{"poiid":"B2094654D56BA3F94092","title":"上海申普宠物医院","lon":"121.39752","lat":"31.24627","category":"162","category_name":"医院","address":"普陀区大渡河路1545号(近武宁路)"},{"poiid":"B2094757D168A3F9499C","title":"巴黎贝甜(乐天玛特店)","lon":"121.397437486","lat":"31.245048521","category":"67","category_name":"甜品店","address":"普陀区杨柳青路768号乐天玛特超市1楼(近武宁路)"},{"poiid":"B2094757D068AAF54999","title":"重庆德庄火锅(普陀店)","lon":"121.39715","lat":"31.24742","category":"86","category_name":"火锅店","address":"上海普陀区大渡河路1603号久良财富广场1楼(近北石路)  "},{"poiid":"B2094757D064AAF9489F","title":"上海票据交换中心","lon":"121.39899731","lat":"31.247277164","category":"500","category_name":"未知分类","address":"上海市普陀区真光路1581号"},{"poiid":"B2094757D069A5F84292","title":"真如体育场","lon":"121.399510261","lat":"31.2481169398","category":"220","category_name":"运动场所","address":"普陀区北石路208号(近兰溪路)"},{"poiid":"B2094757D16AA1FF409F","title":"红星世贸大厦","lon":"121.39256181928","lat":"31.243826936363","category":"252","category_name":"楼宇机构","address":"上海怒江北路598号"},{"poiid":"B2094751D56DA2F84198","title":"红宝石(大渡河路店)","lon":"121.3971","lat":"31.24719","category":"67","category_name":"甜品店","address":"普陀区大渡河路1550弄(近武宁路)"},{"poiid":"B2094757D16AA1FE449B","title":"大渡河路","lon":"121.39415058","lat":"31.245613732","category":"500","category_name":"未知分类","address":"上海市普陀区大渡河路1550弄90支弄"},{"poiid":"B2094751D56AA1FD449D","title":"谈阿姨炸猪排","lon":"121.3921658502795","lat":"31.24863703506036","category":"247","category_name":"餐饮美食","address":"铜川路万镇路"},{"poiid":"B2094654D56BA3F9419B","title":"久良财富休闲广场","lon":"121.39762","lat":"31.24669","category":"201","category_name":"城市广场","address":"普陀区大渡河路1501号"},{"poiid":"B2094757D068ABFD449C","title":"肯德基 KFC (长征店)","lon":"121.398891","lat":"31.243681","category":"68","category_name":"快餐厅","address":"上海普陀区杨柳青路768号乐天玛特普陀店一层"},{"poiid":"B2094655D26DA3FE4293","title":"真如镇社区卫生服务中心","lon":"121.39818","lat":"31.24679","category":"162","category_name":"医院","address":"上海普陀区大渡河路真如西村115号"},{"poiid":"B2094654D465A6FC4499","title":"樱花苑","lon":"121.39289","lat":"31.24876","category":"47","category_name":"住宅区","address":"静安区陕西南路(复兴中路陕西南路)"},{"poiid":"B2094654D465A6FC4593","title":"阳光商务大厦","lon":"121.39682","lat":"31.2502","category":"46","category_name":"楼宇","address":"闵行区七莘路联明路"},{"poiid":"B2094757D065A7F8469B","title":"二号线静安寺地铁站","lon":"121.397664586","lat":"31.2450967219","category":"36","category_name":"地铁站","address":"上海轨道交通七号线换乘二号线"},{"poiid":"B2094757D06FA0FB459D","title":"时代超级购物中心","lon":"121.39966","lat":"31.24413","category":"119","category_name":"商场","address":"上海普陀区武宁路768号2-3楼(杨柳青路口)"},{"poiid":"B2094655D36DA1FA429F","title":"华玉竹园","lon":"121.395645","lat":"31.245447","category":"47","category_name":"住宅区","address":"上海市长宁区延安西路1235弄"},{"poiid":"B2094757D06AA2FC449E","title":"金盟豪海鲜大酒楼","lon":"121.39387","lat":"31.24203","category":"75","category_name":"浙江菜","address":"普陀区中江路1277号(近梅川路)"},{"poiid":"B2094750D464A5F5469B","title":"虹口足球场","lon":"121.396278","lat":"31.245443","category":"220","category_name":"运动场所","address":null},{"poiid":"B2094757D66DA3FC4893","title":"真西饭店","lon":"121.39557","lat":"31.24528","category":"247","category_name":"餐饮美食","address":"上海普陀区长征镇武宁路2345号(大渡河路口)  "},{"poiid":"B2094654DB6BA0F5419A","title":"上岛咖啡 大渡河路店 UBC Coffee","lon":"121.397390054","lat":"31.245422793","category":"65","category_name":"咖啡厅","address":"大渡河路1580号(北石路口)"},{"poiid":"B2094757D06AA4FF4498","title":"花园鱼庄（原四川花园）(大渡河路店)","lon":"121.39785","lat":"31.2486","category":"71","category_name":"四川菜","address":"普陀区大渡河路1653号(近北石路)"},{"poiid":"B2094654DB6AA0FB499E","title":"中国移动上海公司大渡河路营业厅","lon":"121.3972","lat":"31.2462","category":"151","category_name":"电讯营业厅","address":"普陀区大渡河路1533号"},{"poiid":"B2094757D06BA0FC4398","title":"宋记香辣蟹","lon":"121.397255","lat":"31.248258","category":"247","category_name":"餐饮美食","address":"上海大渡河路近北石路"},{"poiid":"B2094655D26BA2FC439C","title":"武宁路真北路","lon":"121.39005","lat":"31.24633","category":"38","category_name":"公交车站","address":"上海市武宁路真北路"},{"poiid":"B2094757D06BA6FE499F","title":"只有时间是解药","lon":"121.39368958","lat":"31.245563731","category":"245","category_name":"教堂","address":"上海梅岭北路中江路"},{"poiid":"B2094757D069A7FE409C","title":"蒙自源云南过桥米线(武宁路店)","lon":"121.39968","lat":"31.24413","category":"68","category_name":"快餐厅","address":"普陀区武宁路768号乐天玛特购物中心1楼(近杨柳青路)"},{"poiid":"B2094654D56BA5F4419C","title":"快客No.1333","lon":"121.39472","lat":"31.2472","category":"117","category_name":"便民商店/便利店","address":"真如镇"},{"poiid":"B2094654D56BA5FB499D","title":"好德NO.443","lon":"121.39615","lat":"31.24706","category":"117","category_name":"便民商店/便利店","address":"大渡河路1550弄38"},{"poiid":"B2094655D264A6FE419C","title":"友通数码港","lon":"121.39737","lat":"31.24531","category":"138","category_name":"家电电子卖场","address":"普陀区大渡河路1501号(近武宁路)"},{"poiid":"B2094655D26EA3F9439E","title":"驰骋苑","lon":"121.39685","lat":"31.24617","category":"47","category_name":"住宅区","address":"大渡河路1516弄1、2号楼"},{"poiid":"B2094655D264A7F54299","title":"真西新苑","lon":"121.39583","lat":"31.247669","category":"47","category_name":"住宅区","address":"上海市普陀区北石路400弄"},{"poiid":"B2094655D26FA5FC429E","title":"真西新村第二小区","lon":"121.39331","lat":"31.246763","category":"47","category_name":"住宅区","address":"普陀区北石路1550弄160支弄真西新村9号居委会(近苏武牧)"},{"poiid":"B2094757D16CA7F94992","title":"和盛堂","lon":"121.3965","lat":"31.24704","category":"149","category_name":"洗浴推拿场所","address":"普陀区大渡河路1550弄37号"},{"poiid":"B2094757DA64A4F9459A","title":"普陀医院","lon":"121.395283","lat":"31.243362","category":"162","category_name":"医院","address":"梅岭北路"},{"poiid":"B2094654D56BA5F4409A","title":"程新大渡河小吃","lon":"121.39597","lat":"31.24735","category":"68","category_name":"快餐厅","address":"真如镇"},{"poiid":"B2094757D068A6F84393","title":"索福德足球世界(沪西体育宫店)","lon":"121.39667","lat":"31.24928","category":"220","category_name":"运动场所","address":"普陀区大渡河路1860号沪西体育宫内(近铜川路)"},{"poiid":"B2094757D06FA7F9419F","title":"毛胡子牛羊馆","lon":"121.3995","lat":"31.24469","category":"68","category_name":"快餐厅","address":"普陀区武宁路2132号(近杨柳青路)"},{"poiid":"B2094757D06FA0FB4999","title":"普陀区人民政府","lon":"121.396481784","lat":"31.2495622802","category":"252","category_name":"楼宇机构","address":"上海普陀区大渡河路1668号"},{"poiid":"B2094757D06EABF54898","title":"武宁路大渡河路","lon":"121.396488","lat":"31.246277","category":"38","category_name":"公交车站","address":"上海武宁路大渡河路"},{"poiid":"B2094757D06FA5F94798","title":"苏武牧羊(普陀店)","lon":"121.39745","lat":"31.24777","category":"86","category_name":"火锅店","address":"普陀区大渡河路1558号(近北石路)"},{"poiid":"B2094655D36CA5FC479D","title":"大渡河路北石路","lon":"121.39721","lat":"31.24791","category":"38","category_name":"公交车站","address":"上海大渡河路北石路"},{"poiid":"B2094757D06FA4FF439A","title":"乐天玛特(武宁路店)","lon":"121.398511","lat":"31.243815","category":"118","category_name":"超级市场","address":"普陀区武宁路768号(近杨柳青路)"},{"poiid":"B2094757D165A6FA4293","title":"长风公园海底世界","lon":"121.39705058","lat":"31.245754734","category":"196","category_name":"公园","address":"上海市普陀区北石路"},{"poiid":"B2094654D56BA4FD479F","title":"海上名庭","lon":"121.39221","lat":"31.243805","category":"47","category_name":"住宅区","address":"梅岭北路1258弄1-99号"},{"poiid":"B2094757D06AA4F54099","title":"潮汕庄","lon":"121.397329","lat":"31.248326","category":"86","category_name":"火锅店","address":"普陀区大渡河路1625号(近北石路)"},{"poiid":"B2094757D068A1FF4192","title":"普陀区税务局","lon":"121.394380281","lat":"31.2493238773","category":"252","category_name":"楼宇机构","address":"上海普陀区北石路579号"},{"poiid":"B2094757D16EA7FB479A","title":"波黎露(百联中环店)","lon":"121.390805586","lat":"31.2436804942","category":"94","category_name":"西餐厅","address":"普陀区真光路1288号百联中环B区3楼(近梅川路)"},{"poiid":"B2094751D464A6FE449A","title":"上山下乡知青火锅","lon":"121.39691","lat":"31.24574","category":"86","category_name":"火锅店","address":"普陀区兰溪路201号第一酒市6楼(近武宁路)"},{"poiid":"B2094757D06FA7FF4292","title":"曹安路农贸市场","lon":"121.39717","lat":"31.24498","category":"500","category_name":"未知分类","address":"普陀区武宁路2255号(大渡河路武宁路)"},{"poiid":"B2094654D56BA3F94092","title":"上海申普宠物医院","lon":"121.39752","lat":"31.24627","category":"162","category_name":"医院","address":"普陀区大渡河路1545号(近武宁路)"},{"poiid":"B2094757D168A3F9499C","title":"巴黎贝甜(乐天玛特店)","lon":"121.397437486","lat":"31.245048521","category":"67","category_name":"甜品店","address":"普陀区杨柳青路768号乐天玛特超市1楼(近武宁路)"},{"poiid":"B2094757D068AAF54999","title":"重庆德庄火锅(普陀店)","lon":"121.39715","lat":"31.24742","category":"86","category_name":"火锅店","address":"上海普陀区大渡河路1603号久良财富广场1楼(近北石路)  "},{"poiid":"B2094757D064AAF9489F","title":"上海票据交换中心","lon":"121.39899731","lat":"31.247277164","category":"500","category_name":"未知分类","address":"上海市普陀区真光路1581号"},{"poiid":"B2094757D069A5F84292","title":"真如体育场","lon":"121.399510261","lat":"31.2481169398","category":"220","category_name":"运动场所","address":"普陀区北石路208号(近兰溪路)"},{"poiid":"B2094757D16AA1FF409F","title":"红星世贸大厦","lon":"121.39256181928","lat":"31.243826936363","category":"252","category_name":"楼宇机构","address":"上海怒江北路598号"},{"poiid":"B2094751D56DA2F84198","title":"红宝石(大渡河路店)","lon":"121.3971","lat":"31.24719","category":"67","category_name":"甜品店","address":"普陀区大渡河路1550弄(近武宁路)"},{"poiid":"B2094757D16AA1FE449B","title":"大渡河路","lon":"121.39415058","lat":"31.245613732","category":"500","category_name":"未知分类","address":"上海市普陀区大渡河路1550弄90支弄"},{"poiid":"B2094751D56AA1FD449D","title":"谈阿姨炸猪排","lon":"121.3921658502795","lat":"31.24863703506036","category":"247","category_name":"餐饮美食","address":"铜川路万镇路"},{"poiid":"B2094654D56BA3F9419B","title":"久良财富休闲广场","lon":"121.39762","lat":"31.24669","category":"201","category_name":"城市广场","address":"普陀区大渡河路1501号"},{"poiid":"B2094757D068ABFD449C","title":"肯德基 KFC (长征店)","lon":"121.398891","lat":"31.243681","category":"68","category_name":"快餐厅","address":"上海普陀区杨柳青路768号乐天玛特普陀店一层"},{"poiid":"B2094655D26DA3FE4293","title":"真如镇社区卫生服务中心","lon":"121.39818","lat":"31.24679","category":"162","category_name":"医院","address":"上海普陀区大渡河路真如西村115号"},{"poiid":"B2094654D465A6FC4499","title":"樱花苑","lon":"121.39289","lat":"31.24876","category":"47","category_name":"住宅区","address":"静安区陕西南路(复兴中路陕西南路)"},{"poiid":"B2094654D465A6FC4593","title":"阳光商务大厦","lon":"121.39682","lat":"31.2502","category":"46","category_name":"楼宇","address":"闵行区七莘路联明路"},{"poiid":"B2094757D065A7F8469B","title":"二号线静安寺地铁站","lon":"121.397664586","lat":"31.2450967219","category":"36","category_name":"地铁站","address":"上海轨道交通七号线换乘二号线"},{"poiid":"B2094757D06FA0FB459D","title":"时代超级购物中心","lon":"121.39966","lat":"31.24413","category":"119","category_name":"商场","address":"上海普陀区武宁路768号2-3楼(杨柳青路口)"},{"poiid":"B2094655D36DA1FA429F","title":"华玉竹园","lon":"121.395645","lat":"31.245447","category":"47","category_name":"住宅区","address":"上海市长宁区延安西路1235弄"},{"poiid":"B2094757D06AA2FC449E","title":"金盟豪海鲜大酒楼","lon":"121.39387","lat":"31.24203","category":"75","category_name":"浙江菜","address":"普陀区中江路1277号(近梅川路)"},{"poiid":"B2094750D464A5F5469B","title":"虹口足球场","lon":"121.396278","lat":"31.245443","category":"220","category_name":"运动场所","address":null},{"poiid":"B2094757D66DA3FC4893","title":"真西饭店","lon":"121.39557","lat":"31.24528","category":"247","category_name":"餐饮美食","address":"上海普陀区长征镇武宁路2345号(大渡河路口)  "},{"poiid":"B2094654DB6BA0F5419A","title":"上岛咖啡 大渡河路店 UBC Coffee","lon":"121.397390054","lat":"31.245422793","category":"65","category_name":"咖啡厅","address":"大渡河路1580号(北石路口)"},{"poiid":"B2094757D06AA4FF4498","title":"花园鱼庄（原四川花园）(大渡河路店)","lon":"121.39785","lat":"31.2486","category":"71","category_name":"四川菜","address":"普陀区大渡河路1653号(近北石路)"},{"poiid":"B2094654DB6AA0FB499E","title":"中国移动上海公司大渡河路营业厅","lon":"121.3972","lat":"31.2462","category":"151","category_name":"电讯营业厅","address":"普陀区大渡河路1533号"},{"poiid":"B2094757D06BA0FC4398","title":"宋记香辣蟹","lon":"121.397255","lat":"31.248258","category":"247","category_name":"餐饮美食","address":"上海大渡河路近北石路"},{"poiid":"B2094655D26BA2FC439C","title":"武宁路真北路","lon":"121.39005","lat":"31.24633","category":"38","category_name":"公交车站","address":"上海市武宁路真北路"},{"poiid":"B2094757D06BA6FE499F","title":"只有时间是解药","lon":"121.39368958","lat":"31.245563731","category":"245","category_name":"教堂","address":"上海梅岭北路中江路"},{"poiid":"B2094757D069A7FE409C","title":"蒙自源云南过桥米线(武宁路店)","lon":"121.39968","lat":"31.24413","category":"68","category_name":"快餐厅","address":"普陀区武宁路768号乐天玛特购物中心1楼(近杨柳青路)"},{"poiid":"B2094654D56BA5F4419C","title":"快客No.1333","lon":"121.39472","lat":"31.2472","category":"117","category_name":"便民商店/便利店","address":"真如镇"},{"poiid":"B2094654D56BA5FB499D","title":"好德NO.443","lon":"121.39615","lat":"31.24706","category":"117","category_name":"便民商店/便利店","address":"大渡河路1550弄38"},{"poiid":"B2094655D264A6FE419C","title":"友通数码港","lon":"121.39737","lat":"31.24531","category":"138","category_name":"家电电子卖场","address":"普陀区大渡河路1501号(近武宁路)"},{"poiid":"B2094655D26EA3F9439E","title":"驰骋苑","lon":"121.39685","lat":"31.24617","category":"47","category_name":"住宅区","address":"大渡河路1516弄1、2号楼"},{"poiid":"B2094655D264A7F54299","title":"真西新苑","lon":"121.39583","lat":"31.247669","category":"47","category_name":"住宅区","address":"上海市普陀区北石路400弄"},{"poiid":"B2094655D26FA5FC429E","title":"真西新村第二小区","lon":"121.39331","lat":"31.246763","category":"47","category_name":"住宅区","address":"普陀区北石路1550弄160支弄真西新村9号居委会(近苏武牧)"},{"poiid":"B2094757D16CA7F94992","title":"和盛堂","lon":"121.3965","lat":"31.24704","category":"149","category_name":"洗浴推拿场所","address":"普陀区大渡河路1550弄37号"},{"poiid":"B2094757DA64A4F9459A","title":"普陀医院","lon":"121.395283","lat":"31.243362","category":"162","category_name":"医院","address":"梅岭北路"},{"poiid":"B2094654D56BA5F4409A","title":"程新大渡河小吃","lon":"121.39597","lat":"31.24735","category":"68","category_name":"快餐厅","address":"真如镇"},{"poiid":"B2094757D068A6F84393","title":"索福德足球世界(沪西体育宫店)","lon":"121.39667","lat":"31.24928","category":"220","category_name":"运动场所","address":"普陀区大渡河路1860号沪西体育宫内(近铜川路)"},{"poiid":"B2094757D06FA7F9419F","title":"毛胡子牛羊馆","lon":"121.3995","lat":"31.24469","category":"68","category_name":"快餐厅","address":"普陀区武宁路2132号(近杨柳青路)"},{"poiid":"B2094757D06FA0FB4999","title":"普陀区人民政府","lon":"121.396481784","lat":"31.2495622802","category":"252","category_name":"楼宇机构","address":"上海普陀区大渡河路1668号"},{"poiid":"B2094757D06EABF54898","title":"武宁路大渡河路","lon":"121.396488","lat":"31.246277","category":"38","category_name":"公交车站","address":"上海武宁路大渡河路"},{"poiid":"B2094757D06FA5F94798","title":"苏武牧羊(普陀店)","lon":"121.39745","lat":"31.24777","category":"86","category_name":"火锅店","address":"普陀区大渡河路1558号(近北石路)"},{"poiid":"B2094655D36CA5FC479D","title":"大渡河路北石路","lon":"121.39721","lat":"31.24791","category":"38","category_name":"公交车站","address":"上海大渡河路北石路"},{"poiid":"B2094757D06FA4FF439A","title":"乐天玛特(武宁路店)","lon":"121.398511","lat":"31.243815","category":"118","category_name":"超级市场","address":"普陀区武宁路768号(近杨柳青路)"},{"poiid":"B2094757D165A6FA4293","title":"长风公园海底世界","lon":"121.39705058","lat":"31.245754734","category":"196","category_name":"公园","address":"上海市普陀区北石路"},{"poiid":"B2094654D56BA4FD479F","title":"海上名庭","lon":"121.39221","lat":"31.243805","category":"47","category_name":"住宅区","address":"梅岭北路1258弄1-99号"},{"poiid":"B2094757D06AA4F54099","title":"潮汕庄","lon":"121.397329","lat":"31.248326","category":"86","category_name":"火锅店","address":"普陀区大渡河路1625号(近北石路)"},{"poiid":"B2094757D068A1FF4192","title":"普陀区税务局","lon":"121.394380281","lat":"31.2493238773","category":"252","category_name":"楼宇机构","address":"上海普陀区北石路579号"},{"poiid":"B2094757D16EA7FB479A","title":"波黎露(百联中环店)","lon":"121.390805586","lat":"31.2436804942","category":"94","category_name":"西餐厅","address":"普陀区真光路1288号百联中环B区3楼(近梅川路)"},{"poiid":"B2094751D464A6FE449A","title":"上山下乡知青火锅","lon":"121.39691","lat":"31.24574","category":"86","category_name":"火锅店","address":"普陀区兰溪路201号第一酒市6楼(近武宁路)"},{"poiid":"B2094757D06FA7FF4292","title":"曹安路农贸市场","lon":"121.39717","lat":"31.24498","category":"500","category_name":"未知分类","address":"普陀区武宁路2255号(大渡河路武宁路)"},{"poiid":"B2094654D56BA3F94092","title":"上海申普宠物医院","lon":"121.39752","lat":"31.24627","category":"162","category_name":"医院","address":"普陀区大渡河路1545号(近武宁路)"},{"poiid":"B2094757D168A3F9499C","title":"巴黎贝甜(乐天玛特店)","lon":"121.397437486","lat":"31.245048521","category":"67","category_name":"甜品店","address":"普陀区杨柳青路768号乐天玛特超市1楼(近武宁路)"},{"poiid":"B2094757D068AAF54999","title":"重庆德庄火锅(普陀店)","lon":"121.39715","lat":"31.24742","category":"86","category_name":"火锅店","address":"上海普陀区大渡河路1603号久良财富广场1楼(近北石路)  "},{"poiid":"B2094757D064AAF9489F","title":"上海票据交换中心","lon":"121.39899731","lat":"31.247277164","category":"500","category_name":"未知分类","address":"上海市普陀区真光路1581号"},{"poiid":"B2094757D069A5F84292","title":"真如体育场","lon":"121.399510261","lat":"31.2481169398","category":"220","category_name":"运动场所","address":"普陀区北石路208号(近兰溪路)"},{"poiid":"B2094757D16AA1FF409F","title":"红星世贸大厦","lon":"121.39256181928","lat":"31.243826936363","category":"252","category_name":"楼宇机构","address":"上海怒江北路598号"},{"poiid":"B2094751D56DA2F84198","title":"红宝石(大渡河路店)","lon":"121.3971","lat":"31.24719","category":"67","category_name":"甜品店","address":"普陀区大渡河路1550弄(近武宁路)"},{"poiid":"B2094757D16AA1FE449B","title":"大渡河路","lon":"121.39415058","lat":"31.245613732","category":"500","category_name":"未知分类","address":"上海市普陀区大渡河路1550弄90支弄"},{"poiid":"B2094751D56AA1FD449D","title":"谈阿姨炸猪排","lon":"121.3921658502795","lat":"31.24863703506036","category":"247","category_name":"餐饮美食","address":"铜川路万镇路"},{"poiid":"B2094654D56BA3F9419B","title":"久良财富休闲广场","lon":"121.39762","lat":"31.24669","category":"201","category_name":"城市广场","address":"普陀区大渡河路1501号"},{"poiid":"B2094757D068ABFD449C","title":"肯德基 KFC (长征店)","lon":"121.398891","lat":"31.243681","category":"68","category_name":"快餐厅","address":"上海普陀区杨柳青路768号乐天玛特普陀店一层"},{"poiid":"B2094655D26DA3FE4293","title":"真如镇社区卫生服务中心","lon":"121.39818","lat":"31.24679","category":"162","category_name":"医院","address":"上海普陀区大渡河路真如西村115号"},{"poiid":"B2094654D465A6FC4499","title":"樱花苑","lon":"121.39289","lat":"31.24876","category":"47","category_name":"住宅区","address":"静安区陕西南路(复兴中路陕西南路)"},{"poiid":"B2094654D465A6FC4593","title":"阳光商务大厦","lon":"121.39682","lat":"31.2502","category":"46","category_name":"楼宇","address":"闵行区七莘路联明路"},{"poiid":"B2094757D065A7F8469B","title":"二号线静安寺地铁站","lon":"121.397664586","lat":"31.2450967219","category":"36","category_name":"地铁站","address":"上海轨道交通七号线换乘二号线"},{"poiid":"B2094757D06FA0FB459D","title":"时代超级购物中心","lon":"121.39966","lat":"31.24413","category":"119","category_name":"商场","address":"上海普陀区武宁路768号2-3楼(杨柳青路口)"},{"poiid":"B2094655D36DA1FA429F","title":"华玉竹园","lon":"121.395645","lat":"31.245447","category":"47","category_name":"住宅区","address":"上海市长宁区延安西路1235弄"},{"poiid":"B2094757D06AA2FC449E","title":"金盟豪海鲜大酒楼","lon":"121.39387","lat":"31.24203","category":"75","category_name":"浙江菜","address":"普陀区中江路1277号(近梅川路)"},{"poiid":"B2094750D464A5F5469B","title":"虹口足球场","lon":"121.396278","lat":"31.245443","category":"220","category_name":"运动场所","address":null},{"poiid":"B2094757D66DA3FC4893","title":"真西饭店","lon":"121.39557","lat":"31.24528","category":"247","category_name":"餐饮美食","address":"上海普陀区长征镇武宁路2345号(大渡河路口)  "},{"poiid":"B2094654DB6BA0F5419A","title":"上岛咖啡 大渡河路店 UBC Coffee","lon":"121.397390054","lat":"31.245422793","category":"65","category_name":"咖啡厅","address":"大渡河路1580号(北石路口)"},{"poiid":"B2094757D06AA4FF4498","title":"花园鱼庄（原四川花园）(大渡河路店)","lon":"121.39785","lat":"31.2486","category":"71","category_name":"四川菜","address":"普陀区大渡河路1653号(近北石路)"},{"poiid":"B2094654DB6AA0FB499E","title":"中国移动上海公司大渡河路营业厅","lon":"121.3972","lat":"31.2462","category":"151","category_name":"电讯营业厅","address":"普陀区大渡河路1533号"},{"poiid":"B2094757D06BA0FC4398","title":"宋记香辣蟹","lon":"121.397255","lat":"31.248258","category":"247","category_name":"餐饮美食","address":"上海大渡河路近北石路"},{"poiid":"B2094655D26BA2FC439C","title":"武宁路真北路","lon":"121.39005","lat":"31.24633","category":"38","category_name":"公交车站","address":"上海市武宁路真北路"},{"poiid":"B2094757D06BA6FE499F","title":"只有时间是解药","lon":"121.39368958","lat":"31.245563731","category":"245","category_name":"教堂","address":"上海梅岭北路中江路"},{"poiid":"B2094757D069A7FE409C","title":"蒙自源云南过桥米线(武宁路店)","lon":"121.39968","lat":"31.24413","category":"68","category_name":"快餐厅","address":"普陀区武宁路768号乐天玛特购物中心1楼(近杨柳青路)"},{"poiid":"B2094654D56BA5F4419C","title":"快客No.1333","lon":"121.39472","lat":"31.2472","category":"117","category_name":"便民商店/便利店","address":"真如镇"},{"poiid":"B2094654D56BA5FB499D","title":"好德NO.443","lon":"121.39615","lat":"31.24706","category":"117","category_name":"便民商店/便利店","address":"大渡河路1550弄38"},{"poiid":"B2094655D264A6FE419C","title":"友通数码港","lon":"121.39737","lat":"31.24531","category":"138","category_name":"家电电子卖场","address":"普陀区大渡河路1501号(近武宁路)"},{"poiid":"B2094655D26EA3F9439E","title":"驰骋苑","lon":"121.39685","lat":"31.24617","category":"47","category_name":"住宅区","address":"大渡河路1516弄1、2号楼"},{"poiid":"B2094655D264A7F54299","title":"真西新苑","lon":"121.39583","lat":"31.247669","category":"47","category_name":"住宅区","address":"上海市普陀区北石路400弄"},{"poiid":"B2094655D26FA5FC429E","title":"真西新村第二小区","lon":"121.39331","lat":"31.246763","category":"47","category_name":"住宅区","address":"普陀区北石路1550弄160支弄真西新村9号居委会(近苏武牧)"},{"poiid":"B2094757D16CA7F94992","title":"和盛堂","lon":"121.3965","lat":"31.24704","category":"149","category_name":"洗浴推拿场所","address":"普陀区大渡河路1550弄37号"},{"poiid":"B2094757DA64A4F9459A","title":"普陀医院","lon":"121.395283","lat":"31.243362","category":"162","category_name":"医院","address":"梅岭北路"},{"poiid":"B2094654D56BA5F4409A","title":"程新大渡河小吃","lon":"121.39597","lat":"31.24735","category":"68","category_name":"快餐厅","address":"真如镇"},{"poiid":"B2094757D068A6F84393","title":"索福德足球世界(沪西体育宫店)","lon":"121.39667","lat":"31.24928","category":"220","category_name":"运动场所","address":"普陀区大渡河路1860号沪西体育宫内(近铜川路)"}]