[{"poiid":"B2094757D064A2F5489A","title":"滨海农家乐","lon":"121.8613583","lat":"31.018012974","category":"76","category_name":"上海菜","address":"浦东新区滨海旅游度假区"},{"poiid":"B2094655D36CA1F4449C","title":"老港","lon":"121.84672","lat":"31.02941","category":"38","category_name":"公交车站","address":""},{"poiid":"B2094655D36DA2FC429C","title":"沈港六队桥","lon":"121.84656","lat":"31.00324","category":"250","category_name":"公园户外","address":""},{"poiid":"B2094654DB6FA6F8499E","title":"东河村社区文化活动服务中心","lon":"121.85401","lat":"31.01667","category":"248","category_name":"生活娱乐","address":""},{"poiid":"B2094654DB6FA6F9439F","title":"南汇老港中学","lon":"121.84477","lat":"31.02702","category":"55","category_name":"中学","address":"浦东新区老港镇建中路1001号"},{"poiid":"B2094655D36CA6FE4692","title":"港东","lon":"121.84795","lat":"31.02745","category":"38","category_name":"公交车站","address":""}]