[{"poiid":"B2094757D06EAAF84699","title":"东安路地铁站","lon":"121.454743","lat":"31.190834","category":"36","category_name":"地铁站","address":"上海轨道交通 四号线 七号线 轨交东安路站 轻轨 4 7"},{"poiid":"B2094655D269A4FA419B","title":"徐汇游泳馆","lon":"121.45713","lat":"31.19343","category":"231","category_name":"游泳馆","address":"徐汇区枫林路329号(近零陵路)"},{"poiid":"B209475CD76CA3F8459F","title":"maan coffee漫咖啡","lon":"121.458557","lat":"31.186952","category":"500","category_name":"未知分类","address":"上海市 中山南二路699号正大乐城2楼(近东安路)"},{"poiid":"B2094753D76FAAFA449C","title":"上海滩国泰旗舰店","lon":"121.466011","lat":"31.216125","category":"249","category_name":"购物服务","address":"淮海中路868号"},{"poiid":"B2094757D06AA5FC4199","title":"上海田子坊","lon":"121.45459158","lat":"31.189467634","category":"500","category_name":"未知分类","address":"上海市徐汇区斜土路"},{"poiid":"B2094654DA6DA5F9419D","title":"复旦大学护理学院(枫林路)","lon":"121.45767","lat":"31.1938","category":"52","category_name":"高等院校","address":"徐汇区枫林路305"},{"poiid":"B2094757D064A1F4429C","title":"上海昆虫博物馆","lon":"121.45702","lat":"31.19306","category":"179","category_name":"音乐厅","address":"徐汇区枫林路300号(近斜土路)"},{"poiid":"B2094757D06FA4FF4393","title":"泡椒同学","lon":"121.45728","lat":"31.19275","category":"71","category_name":"四川菜","address":"上海徐汇区枫林路331号(近零陵路)"},{"poiid":"B2094753D664A3FD469E","title":"正大乐城","lon":"121.458213","lat":"31.186937","category":"170","category_name":"KTV","address":"上海市 东安路中山南二路"},{"poiid":"B2094654DA6DA5F94398","title":"中粮大厦","lon":"121.46189","lat":"31.19029","category":"46","category_name":"楼宇","address":"北一环与亳州路交叉口(庐阳区政府对面)"},{"poiid":"B2094757D06FA5FB489E","title":"西木小区","lon":"121.45944","lat":"31.193609","category":"47","category_name":"住宅区","address":"上海市徐汇区小木桥路斜土路"},{"poiid":"B2094757D06FA6F5409B","title":"黄毛烧烤(零陵店)","lon":"121.45999908","lat":"31.19260025","category":"269","category_name":"烧烤","address":"徐汇区零陵路231号(小木桥路口)"},{"poiid":"B2094757D068A7FD4599","title":"福岛第一核电站三号机组","lon":"121.46172857","lat":"31.190548563","category":"260","category_name":"其他","address":"日本福岛县"},{"poiid":"B2094757D069A6FF489A","title":"零陵中学","lon":"121.45628","lat":"31.1884","category":"55","category_name":"中学","address":"徐汇区东安路451号(近零陵路)"},{"poiid":"B2094757D06BA6FF469E","title":"船厂路中山南二路","lon":"121.459764","lat":"31.18839","category":"500","category_name":"未知分类","address":"上海船厂路中山南二路"},{"poiid":"B2094757D06FAAFD4892","title":"永和大王(东安路店)","lon":"121.45471","lat":"31.1912","category":"68","category_name":"快餐厅","address":"徐汇区东安路263-1号(近零陵路)"},{"poiid":"B2094757D06FA7FA489E","title":"东安一村","lon":"121.455943","lat":"31.191161","category":"47","category_name":"住宅区","address":"上海徐汇区零陵路350弄1-110号(近东安路)"},{"poiid":"B2094757D069A0F84793","title":"斯柯达4s店","lon":"121.460461","lat":"31.188615","category":"500","category_name":"未知分类","address":"上海中山南二路555号"},{"poiid":"B2094753D664AAF9469C","title":"正大乐城","lon":"121.456886","lat":"31.189115","category":"170","category_name":"KTV","address":"上海市 中山南二路679号"},{"poiid":"B2094655D36DA7F9449D","title":"肿瘤医院","lon":"121.45531","lat":"31.18997","category":"162","category_name":"医院","address":"徐汇区东安路270号"},{"poiid":"B2094655D36DA1F54498","title":"小木桥路中山南二路","lon":"121.4611","lat":"31.19248","category":"38","category_name":"公交车站","address":""},{"poiid":"B2094757D06AABFC4298","title":"肯德基KFC (东安路店)","lon":"121.454740903","lat":"31.1908887441","category":"68","category_name":"快餐厅","address":"上海轨道交通7号线东安路站站厅层"},{"poiid":"B2094752DA6BA4F8439A","title":"华士达影城","lon":"121.457227","lat":"31.18925","category":"178","category_name":"电影院","address":"上海市 东安路599号"},{"poiid":"B2094655D26AA0F44799","title":"新偶像艺术学校","lon":"121.46105","lat":"31.18889","category":"247","category_name":"餐饮美食","address":"徐汇区中山南二路555号冠霖大楼4127室(近大木桥路)"},{"poiid":"B2094654DA6DA5F9429C","title":"中国科学院上海有机化学研究所","lon":"121.45713","lat":"31.19247","category":"191","category_name":"科研机构","address":"枫林路354号"},{"poiid":"B2094655D268A4FC489D","title":"上海电子信息职业技术学院徐汇校区(东门)","lon":"121.45886","lat":"31.18878","category":"52","category_name":"高等院校","address":""},{"poiid":"B2094753D664A2FA4692","title":"天家（正大乐城店）","lon":"121.456863","lat":"31.189044","category":"247","category_name":"餐饮美食","address":"上海市 龙华中路"},{"poiid":"B2094654DA6DA5FF419C","title":"欣荣酒家","lon":"121.458470054","lat":"31.191898793","category":"76","category_name":"上海菜","address":"徐汇区零陵路342号(近枫林路)"},{"poiid":"B2094757D069A1F9479B","title":"苏州羊肉馆(东安路店)","lon":"121.45517","lat":"31.18966","category":"68","category_name":"快餐厅","address":"徐汇区东安路352号邮局旁(近零陵路)"},{"poiid":"B2094757DA6BA6FE449C","title":"上海绿地中心一期","lon":"121.456362","lat":"31.187987","category":"252","category_name":"楼宇机构","address":"徐汇钦州北路188号"},{"poiid":"B2094757D568AAFD4193","title":"汉庭快捷酒店(徐家汇东安路店)","lon":"121.45510715","lat":"31.19020562","category":"216","category_name":"经济型连锁酒店","address":"徐汇区东安路360号(近零陵路)"},{"poiid":"B2094655D36DA7F8469C","title":"中山南二路东安路","lon":"121.45702","lat":"31.18704","category":"38","category_name":"公交车站","address":""},{"poiid":"B2094654DB6AA6FF499C","title":"上海嘉煜宾馆","lon":"121.45691","lat":"31.19106","category":"250","category_name":"公园户外","address":"上海市徐汇区零陵路342号(近东安路)"},{"poiid":"B2094655D26FAAF4429D","title":"汇成民聚商务楼3号楼","lon":"121.45715","lat":"31.1909","category":"46","category_name":"楼宇","address":"零陵路342号"},{"poiid":"B2094757D568AAFE4292","title":"腾王阁","lon":"121.457487","lat":"31.189324","category":"47","category_name":"住宅区","address":"上海市徐汇区宛平南路968弄"},{"poiid":"B2094654DA6DA5F9499E","title":"东安一村(5号门)","lon":"121.45864","lat":"31.18923","category":"47","category_name":"住宅区","address":""},{"poiid":"B2094655D26FA6F4449A","title":"枫林新村","lon":"121.45953","lat":"31.192083","category":"47","category_name":"住宅区","address":"零陵路250弄,零陵路259弄"},{"poiid":"B2094654DA6DA5FF459D","title":"天全鱼庄","lon":"121.458603","lat":"31.192515","category":"71","category_name":"四川菜","address":"徐汇区零陵路289弄(枫林路口)"},{"poiid":"B2094757D165A1FB4698","title":"重庆鸡公煲 零陵路店","lon":"121.459109054","lat":"31.192281793","category":"71","category_name":"四川菜","address":"徐汇区零陵路260号(近枫林路)"},{"poiid":"B2094753DB64A0F94598","title":"一麻一辣","lon":"121.457527","lat":"31.187007","category":"500","category_name":"未知分类","address":"上海市 上海市中山南二路699号2楼"},{"poiid":"B2094654DA6DA5FA409D","title":"奥灶菜馆","lon":"121.456076054","lat":"31.187141793","category":"68","category_name":"快餐厅","address":"徐汇区东安路501号(近中山南二路)"},{"poiid":"B2094757D465A0F44799","title":"风调雨顺土菜馆 小木桥路店","lon":"121.46067545609","lat":"31.193509137011","category":"77","category_name":"湖南菜","address":"徐汇区小木桥路458号(近零陵路)"},{"poiid":"B2094654DA6DA5F94999","title":"上海电子信息职业技术学院徐汇校区","lon":"121.45859","lat":"31.18879","category":"54","category_name":"职业技术学校","address":""},{"poiid":"B2094757D06BA4F84493","title":"289弄住宅区","lon":"121.45797673","lat":"31.192104488","category":"47","category_name":"住宅区","address":"上海市徐汇区零陵路"},{"poiid":"B2094757D16AA5FC4199","title":"宛南实验幼儿园","lon":"121.459573938","lat":"31.1927580686","category":"57","category_name":"幼儿园","address":"徐汇区大木桥路323号(茶陵路大木桥路)"},{"poiid":"B2094654DA6DA5F94892","title":"上海市工业技术学校(中山南二路)","lon":"121.45996","lat":"31.18919","category":"54","category_name":"职业技术学校","address":"中山南二路530"},{"poiid":"B2094655D268A2F5489E","title":"上海电子信息职业技术培训学校(东门)","lon":"121.45885","lat":"31.1888","category":"678","category_name":"学校大门","address":""},{"poiid":"B209475CD16FA1FF459D","title":"小辉哥火锅","lon":"121.458099","lat":"31.186601","category":"247","category_name":"餐饮美食","address":"上海市 正大乐城"},{"poiid":"B2094654DB65A3FF489C","title":"好德No.336","lon":"121.458","lat":"31.19211","category":"117","category_name":"便民商店/便利店","address":"零陵路297"},{"poiid":"B2094752D56DA3FE459E","title":"美罗城","lon":"121.457773","lat":"31.189201","category":"500","category_name":"未知分类","address":null},{"poiid":"B2094757D06EAAF84699","title":"东安路地铁站","lon":"121.454743","lat":"31.190834","category":"36","category_name":"地铁站","address":"上海轨道交通 四号线 七号线 轨交东安路站 轻轨 4 7"},{"poiid":"B2094655D269A4FA419B","title":"徐汇游泳馆","lon":"121.45713","lat":"31.19343","category":"231","category_name":"游泳馆","address":"徐汇区枫林路329号(近零陵路)"},{"poiid":"B209475CD76CA3F8459F","title":"maan coffee漫咖啡","lon":"121.458557","lat":"31.186952","category":"500","category_name":"未知分类","address":"上海市 中山南二路699号正大乐城2楼(近东安路)"},{"poiid":"B2094753D76FAAFA449C","title":"上海滩国泰旗舰店","lon":"121.466011","lat":"31.216125","category":"249","category_name":"购物服务","address":"淮海中路868号"},{"poiid":"B2094757D06AA5FC4199","title":"上海田子坊","lon":"121.45459158","lat":"31.189467634","category":"500","category_name":"未知分类","address":"上海市徐汇区斜土路"},{"poiid":"B2094654DA6DA5F9419D","title":"复旦大学护理学院(枫林路)","lon":"121.45767","lat":"31.1938","category":"52","category_name":"高等院校","address":"徐汇区枫林路305"},{"poiid":"B2094757D064A1F4429C","title":"上海昆虫博物馆","lon":"121.45702","lat":"31.19306","category":"179","category_name":"音乐厅","address":"徐汇区枫林路300号(近斜土路)"},{"poiid":"B2094757D06FA4FF4393","title":"泡椒同学","lon":"121.45728","lat":"31.19275","category":"71","category_name":"四川菜","address":"上海徐汇区枫林路331号(近零陵路)"},{"poiid":"B2094753D664A3FD469E","title":"正大乐城","lon":"121.458213","lat":"31.186937","category":"170","category_name":"KTV","address":"上海市 东安路中山南二路"},{"poiid":"B2094654DA6DA5F94398","title":"中粮大厦","lon":"121.46189","lat":"31.19029","category":"46","category_name":"楼宇","address":"北一环与亳州路交叉口(庐阳区政府对面)"},{"poiid":"B2094757D06FA5FB489E","title":"西木小区","lon":"121.45944","lat":"31.193609","category":"47","category_name":"住宅区","address":"上海市徐汇区小木桥路斜土路"},{"poiid":"B2094757D06FA6F5409B","title":"黄毛烧烤(零陵店)","lon":"121.45999908","lat":"31.19260025","category":"269","category_name":"烧烤","address":"徐汇区零陵路231号(小木桥路口)"},{"poiid":"B2094757D068A7FD4599","title":"福岛第一核电站三号机组","lon":"121.46172857","lat":"31.190548563","category":"260","category_name":"其他","address":"日本福岛县"},{"poiid":"B2094757D069A6FF489A","title":"零陵中学","lon":"121.45628","lat":"31.1884","category":"55","category_name":"中学","address":"徐汇区东安路451号(近零陵路)"},{"poiid":"B2094757D06BA6FF469E","title":"船厂路中山南二路","lon":"121.459764","lat":"31.18839","category":"500","category_name":"未知分类","address":"上海船厂路中山南二路"},{"poiid":"B2094757D06FAAFD4892","title":"永和大王(东安路店)","lon":"121.45471","lat":"31.1912","category":"68","category_name":"快餐厅","address":"徐汇区东安路263-1号(近零陵路)"},{"poiid":"B2094757D06FA7FA489E","title":"东安一村","lon":"121.455943","lat":"31.191161","category":"47","category_name":"住宅区","address":"上海徐汇区零陵路350弄1-110号(近东安路)"},{"poiid":"B2094757D069A0F84793","title":"斯柯达4s店","lon":"121.460461","lat":"31.188615","category":"500","category_name":"未知分类","address":"上海中山南二路555号"},{"poiid":"B2094753D664AAF9469C","title":"正大乐城","lon":"121.456886","lat":"31.189115","category":"170","category_name":"KTV","address":"上海市 中山南二路679号"},{"poiid":"B2094655D36DA7F9449D","title":"肿瘤医院","lon":"121.45531","lat":"31.18997","category":"162","category_name":"医院","address":"徐汇区东安路270号"},{"poiid":"B2094655D36DA1F54498","title":"小木桥路中山南二路","lon":"121.4611","lat":"31.19248","category":"38","category_name":"公交车站","address":""},{"poiid":"B2094757D06AABFC4298","title":"肯德基KFC (东安路店)","lon":"121.454740903","lat":"31.1908887441","category":"68","category_name":"快餐厅","address":"上海轨道交通7号线东安路站站厅层"},{"poiid":"B2094752DA6BA4F8439A","title":"华士达影城","lon":"121.457227","lat":"31.18925","category":"178","category_name":"电影院","address":"上海市 东安路599号"},{"poiid":"B2094655D26AA0F44799","title":"新偶像艺术学校","lon":"121.46105","lat":"31.18889","category":"247","category_name":"餐饮美食","address":"徐汇区中山南二路555号冠霖大楼4127室(近大木桥路)"},{"poiid":"B2094654DA6DA5F9429C","title":"中国科学院上海有机化学研究所","lon":"121.45713","lat":"31.19247","category":"191","category_name":"科研机构","address":"枫林路354号"},{"poiid":"B2094655D268A4FC489D","title":"上海电子信息职业技术学院徐汇校区(东门)","lon":"121.45886","lat":"31.18878","category":"52","category_name":"高等院校","address":""},{"poiid":"B2094753D664A2FA4692","title":"天家（正大乐城店）","lon":"121.456863","lat":"31.189044","category":"247","category_name":"餐饮美食","address":"上海市 龙华中路"},{"poiid":"B2094654DA6DA5FF419C","title":"欣荣酒家","lon":"121.458470054","lat":"31.191898793","category":"76","category_name":"上海菜","address":"徐汇区零陵路342号(近枫林路)"},{"poiid":"B2094757D069A1F9479B","title":"苏州羊肉馆(东安路店)","lon":"121.45517","lat":"31.18966","category":"68","category_name":"快餐厅","address":"徐汇区东安路352号邮局旁(近零陵路)"},{"poiid":"B2094757DA6BA6FE449C","title":"上海绿地中心一期","lon":"121.456362","lat":"31.187987","category":"252","category_name":"楼宇机构","address":"徐汇钦州北路188号"},{"poiid":"B2094757D568AAFD4193","title":"汉庭快捷酒店(徐家汇东安路店)","lon":"121.45510715","lat":"31.19020562","category":"216","category_name":"经济型连锁酒店","address":"徐汇区东安路360号(近零陵路)"},{"poiid":"B2094655D36DA7F8469C","title":"中山南二路东安路","lon":"121.45702","lat":"31.18704","category":"38","category_name":"公交车站","address":""},{"poiid":"B2094654DB6AA6FF499C","title":"上海嘉煜宾馆","lon":"121.45691","lat":"31.19106","category":"250","category_name":"公园户外","address":"上海市徐汇区零陵路342号(近东安路)"},{"poiid":"B2094655D26FAAF4429D","title":"汇成民聚商务楼3号楼","lon":"121.45715","lat":"31.1909","category":"46","category_name":"楼宇","address":"零陵路342号"},{"poiid":"B2094757D568AAFE4292","title":"腾王阁","lon":"121.457487","lat":"31.189324","category":"47","category_name":"住宅区","address":"上海市徐汇区宛平南路968弄"},{"poiid":"B2094654DA6DA5F9499E","title":"东安一村(5号门)","lon":"121.45864","lat":"31.18923","category":"47","category_name":"住宅区","address":""},{"poiid":"B2094655D26FA6F4449A","title":"枫林新村","lon":"121.45953","lat":"31.192083","category":"47","category_name":"住宅区","address":"零陵路250弄,零陵路259弄"},{"poiid":"B2094654DA6DA5FF459D","title":"天全鱼庄","lon":"121.458603","lat":"31.192515","category":"71","category_name":"四川菜","address":"徐汇区零陵路289弄(枫林路口)"},{"poiid":"B2094757D165A1FB4698","title":"重庆鸡公煲 零陵路店","lon":"121.459109054","lat":"31.192281793","category":"71","category_name":"四川菜","address":"徐汇区零陵路260号(近枫林路)"},{"poiid":"B2094753DB64A0F94598","title":"一麻一辣","lon":"121.457527","lat":"31.187007","category":"500","category_name":"未知分类","address":"上海市 上海市中山南二路699号2楼"},{"poiid":"B2094654DA6DA5FA409D","title":"奥灶菜馆","lon":"121.456076054","lat":"31.187141793","category":"68","category_name":"快餐厅","address":"徐汇区东安路501号(近中山南二路)"},{"poiid":"B2094757D465A0F44799","title":"风调雨顺土菜馆 小木桥路店","lon":"121.46067545609","lat":"31.193509137011","category":"77","category_name":"湖南菜","address":"徐汇区小木桥路458号(近零陵路)"},{"poiid":"B2094654DA6DA5F94999","title":"上海电子信息职业技术学院徐汇校区","lon":"121.45859","lat":"31.18879","category":"54","category_name":"职业技术学校","address":""},{"poiid":"B2094757D06BA4F84493","title":"289弄住宅区","lon":"121.45797673","lat":"31.192104488","category":"47","category_name":"住宅区","address":"上海市徐汇区零陵路"},{"poiid":"B2094757D16AA5FC4199","title":"宛南实验幼儿园","lon":"121.459573938","lat":"31.1927580686","category":"57","category_name":"幼儿园","address":"徐汇区大木桥路323号(茶陵路大木桥路)"},{"poiid":"B2094654DA6DA5F94892","title":"上海市工业技术学校(中山南二路)","lon":"121.45996","lat":"31.18919","category":"54","category_name":"职业技术学校","address":"中山南二路530"},{"poiid":"B2094655D268A2F5489E","title":"上海电子信息职业技术培训学校(东门)","lon":"121.45885","lat":"31.1888","category":"678","category_name":"学校大门","address":""},{"poiid":"B209475CD16FA1FF459D","title":"小辉哥火锅","lon":"121.458099","lat":"31.186601","category":"247","category_name":"餐饮美食","address":"上海市 正大乐城"},{"poiid":"B2094654DB65A3FF489C","title":"好德No.336","lon":"121.458","lat":"31.19211","category":"117","category_name":"便民商店/便利店","address":"零陵路297"},{"poiid":"B2094752D56DA3FE459E","title":"美罗城","lon":"121.457773","lat":"31.189201","category":"500","category_name":"未知分类","address":null},{"poiid":"B2094757D06EAAF84699","title":"东安路地铁站","lon":"121.454743","lat":"31.190834","category":"36","category_name":"地铁站","address":"上海轨道交通 四号线 七号线 轨交东安路站 轻轨 4 7"},{"poiid":"B2094655D269A4FA419B","title":"徐汇游泳馆","lon":"121.45713","lat":"31.19343","category":"231","category_name":"游泳馆","address":"徐汇区枫林路329号(近零陵路)"},{"poiid":"B209475CD76CA3F8459F","title":"maan coffee漫咖啡","lon":"121.458557","lat":"31.186952","category":"500","category_name":"未知分类","address":"上海市 中山南二路699号正大乐城2楼(近东安路)"},{"poiid":"B2094753D76FAAFA449C","title":"上海滩国泰旗舰店","lon":"121.466011","lat":"31.216125","category":"249","category_name":"购物服务","address":"淮海中路868号"},{"poiid":"B2094757D06AA5FC4199","title":"上海田子坊","lon":"121.45459158","lat":"31.189467634","category":"500","category_name":"未知分类","address":"上海市徐汇区斜土路"},{"poiid":"B2094654DA6DA5F9419D","title":"复旦大学护理学院(枫林路)","lon":"121.45767","lat":"31.1938","category":"52","category_name":"高等院校","address":"徐汇区枫林路305"},{"poiid":"B2094757D064A1F4429C","title":"上海昆虫博物馆","lon":"121.45702","lat":"31.19306","category":"179","category_name":"音乐厅","address":"徐汇区枫林路300号(近斜土路)"},{"poiid":"B2094757D06FA4FF4393","title":"泡椒同学","lon":"121.45728","lat":"31.19275","category":"71","category_name":"四川菜","address":"上海徐汇区枫林路331号(近零陵路)"},{"poiid":"B2094753D664A3FD469E","title":"正大乐城","lon":"121.458213","lat":"31.186937","category":"170","category_name":"KTV","address":"上海市 东安路中山南二路"},{"poiid":"B2094654DA6DA5F94398","title":"中粮大厦","lon":"121.46189","lat":"31.19029","category":"46","category_name":"楼宇","address":"北一环与亳州路交叉口(庐阳区政府对面)"},{"poiid":"B2094757D06FA5FB489E","title":"西木小区","lon":"121.45944","lat":"31.193609","category":"47","category_name":"住宅区","address":"上海市徐汇区小木桥路斜土路"},{"poiid":"B2094757D06FA6F5409B","title":"黄毛烧烤(零陵店)","lon":"121.45999908","lat":"31.19260025","category":"269","category_name":"烧烤","address":"徐汇区零陵路231号(小木桥路口)"},{"poiid":"B2094757D068A7FD4599","title":"福岛第一核电站三号机组","lon":"121.46172857","lat":"31.190548563","category":"260","category_name":"其他","address":"日本福岛县"},{"poiid":"B2094757D069A6FF489A","title":"零陵中学","lon":"121.45628","lat":"31.1884","category":"55","category_name":"中学","address":"徐汇区东安路451号(近零陵路)"},{"poiid":"B2094757D06BA6FF469E","title":"船厂路中山南二路","lon":"121.459764","lat":"31.18839","category":"500","category_name":"未知分类","address":"上海船厂路中山南二路"},{"poiid":"B2094757D06FAAFD4892","title":"永和大王(东安路店)","lon":"121.45471","lat":"31.1912","category":"68","category_name":"快餐厅","address":"徐汇区东安路263-1号(近零陵路)"},{"poiid":"B2094757D06FA7FA489E","title":"东安一村","lon":"121.455943","lat":"31.191161","category":"47","category_name":"住宅区","address":"上海徐汇区零陵路350弄1-110号(近东安路)"},{"poiid":"B2094757D069A0F84793","title":"斯柯达4s店","lon":"121.460461","lat":"31.188615","category":"500","category_name":"未知分类","address":"上海中山南二路555号"},{"poiid":"B2094753D664AAF9469C","title":"正大乐城","lon":"121.456886","lat":"31.189115","category":"170","category_name":"KTV","address":"上海市 中山南二路679号"},{"poiid":"B2094655D36DA7F9449D","title":"肿瘤医院","lon":"121.45531","lat":"31.18997","category":"162","category_name":"医院","address":"徐汇区东安路270号"},{"poiid":"B2094655D36DA1F54498","title":"小木桥路中山南二路","lon":"121.4611","lat":"31.19248","category":"38","category_name":"公交车站","address":""},{"poiid":"B2094757D06AABFC4298","title":"肯德基KFC (东安路店)","lon":"121.454740903","lat":"31.1908887441","category":"68","category_name":"快餐厅","address":"上海轨道交通7号线东安路站站厅层"},{"poiid":"B2094752DA6BA4F8439A","title":"华士达影城","lon":"121.457227","lat":"31.18925","category":"178","category_name":"电影院","address":"上海市 东安路599号"},{"poiid":"B2094655D26AA0F44799","title":"新偶像艺术学校","lon":"121.46105","lat":"31.18889","category":"247","category_name":"餐饮美食","address":"徐汇区中山南二路555号冠霖大楼4127室(近大木桥路)"},{"poiid":"B2094654DA6DA5F9429C","title":"中国科学院上海有机化学研究所","lon":"121.45713","lat":"31.19247","category":"191","category_name":"科研机构","address":"枫林路354号"},{"poiid":"B2094655D268A4FC489D","title":"上海电子信息职业技术学院徐汇校区(东门)","lon":"121.45886","lat":"31.18878","category":"52","category_name":"高等院校","address":""},{"poiid":"B2094753D664A2FA4692","title":"天家（正大乐城店）","lon":"121.456863","lat":"31.189044","category":"247","category_name":"餐饮美食","address":"上海市 龙华中路"},{"poiid":"B2094654DA6DA5FF419C","title":"欣荣酒家","lon":"121.458470054","lat":"31.191898793","category":"76","category_name":"上海菜","address":"徐汇区零陵路342号(近枫林路)"},{"poiid":"B2094757D069A1F9479B","title":"苏州羊肉馆(东安路店)","lon":"121.45517","lat":"31.18966","category":"68","category_name":"快餐厅","address":"徐汇区东安路352号邮局旁(近零陵路)"},{"poiid":"B2094757DA6BA6FE449C","title":"上海绿地中心一期","lon":"121.456362","lat":"31.187987","category":"252","category_name":"楼宇机构","address":"徐汇钦州北路188号"},{"poiid":"B2094757D568AAFD4193","title":"汉庭快捷酒店(徐家汇东安路店)","lon":"121.45510715","lat":"31.19020562","category":"216","category_name":"经济型连锁酒店","address":"徐汇区东安路360号(近零陵路)"},{"poiid":"B2094655D36DA7F8469C","title":"中山南二路东安路","lon":"121.45702","lat":"31.18704","category":"38","category_name":"公交车站","address":""},{"poiid":"B2094654DB6AA6FF499C","title":"上海嘉煜宾馆","lon":"121.45691","lat":"31.19106","category":"250","category_name":"公园户外","address":"上海市徐汇区零陵路342号(近东安路)"},{"poiid":"B2094655D26FAAF4429D","title":"汇成民聚商务楼3号楼","lon":"121.45715","lat":"31.1909","category":"46","category_name":"楼宇","address":"零陵路342号"},{"poiid":"B2094757D568AAFE4292","title":"腾王阁","lon":"121.457487","lat":"31.189324","category":"47","category_name":"住宅区","address":"上海市徐汇区宛平南路968弄"},{"poiid":"B2094654DA6DA5F9499E","title":"东安一村(5号门)","lon":"121.45864","lat":"31.18923","category":"47","category_name":"住宅区","address":""},{"poiid":"B2094655D26FA6F4449A","title":"枫林新村","lon":"121.45953","lat":"31.192083","category":"47","category_name":"住宅区","address":"零陵路250弄,零陵路259弄"},{"poiid":"B2094654DA6DA5FF459D","title":"天全鱼庄","lon":"121.458603","lat":"31.192515","category":"71","category_name":"四川菜","address":"徐汇区零陵路289弄(枫林路口)"},{"poiid":"B2094757D165A1FB4698","title":"重庆鸡公煲 零陵路店","lon":"121.459109054","lat":"31.192281793","category":"71","category_name":"四川菜","address":"徐汇区零陵路260号(近枫林路)"},{"poiid":"B2094753DB64A0F94598","title":"一麻一辣","lon":"121.457527","lat":"31.187007","category":"500","category_name":"未知分类","address":"上海市 上海市中山南二路699号2楼"},{"poiid":"B2094654DA6DA5FA409D","title":"奥灶菜馆","lon":"121.456076054","lat":"31.187141793","category":"68","category_name":"快餐厅","address":"徐汇区东安路501号(近中山南二路)"},{"poiid":"B2094757D465A0F44799","title":"风调雨顺土菜馆 小木桥路店","lon":"121.46067545609","lat":"31.193509137011","category":"77","category_name":"湖南菜","address":"徐汇区小木桥路458号(近零陵路)"},{"poiid":"B2094654DA6DA5F94999","title":"上海电子信息职业技术学院徐汇校区","lon":"121.45859","lat":"31.18879","category":"54","category_name":"职业技术学校","address":""},{"poiid":"B2094757D06BA4F84493","title":"289弄住宅区","lon":"121.45797673","lat":"31.192104488","category":"47","category_name":"住宅区","address":"上海市徐汇区零陵路"},{"poiid":"B2094757D16AA5FC4199","title":"宛南实验幼儿园","lon":"121.459573938","lat":"31.1927580686","category":"57","category_name":"幼儿园","address":"徐汇区大木桥路323号(茶陵路大木桥路)"},{"poiid":"B2094654DA6DA5F94892","title":"上海市工业技术学校(中山南二路)","lon":"121.45996","lat":"31.18919","category":"54","category_name":"职业技术学校","address":"中山南二路530"},{"poiid":"B2094655D268A2F5489E","title":"上海电子信息职业技术培训学校(东门)","lon":"121.45885","lat":"31.1888","category":"678","category_name":"学校大门","address":""},{"poiid":"B209475CD16FA1FF459D","title":"小辉哥火锅","lon":"121.458099","lat":"31.186601","category":"247","category_name":"餐饮美食","address":"上海市 正大乐城"},{"poiid":"B2094654DB65A3FF489C","title":"好德No.336","lon":"121.458","lat":"31.19211","category":"117","category_name":"便民商店/便利店","address":"零陵路297"},{"poiid":"B2094752D56DA3FE459E","title":"美罗城","lon":"121.457773","lat":"31.189201","category":"500","category_name":"未知分类","address":null},{"poiid":"B2094757D06EAAF84699","title":"东安路地铁站","lon":"121.454743","lat":"31.190834","category":"36","category_name":"地铁站","address":"上海轨道交通 四号线 七号线 轨交东安路站 轻轨 4 7"},{"poiid":"B2094655D269A4FA419B","title":"徐汇游泳馆","lon":"121.45713","lat":"31.19343","category":"231","category_name":"游泳馆","address":"徐汇区枫林路329号(近零陵路)"},{"poiid":"B209475CD76CA3F8459F","title":"maan coffee漫咖啡","lon":"121.458557","lat":"31.186952","category":"500","category_name":"未知分类","address":"上海市 中山南二路699号正大乐城2楼(近东安路)"},{"poiid":"B2094753D76FAAFA449C","title":"上海滩国泰旗舰店","lon":"121.466011","lat":"31.216125","category":"249","category_name":"购物服务","address":"淮海中路868号"},{"poiid":"B2094757D06AA5FC4199","title":"上海田子坊","lon":"121.45459158","lat":"31.189467634","category":"500","category_name":"未知分类","address":"上海市徐汇区斜土路"},{"poiid":"B2094654DA6DA5F9419D","title":"复旦大学护理学院(枫林路)","lon":"121.45767","lat":"31.1938","category":"52","category_name":"高等院校","address":"徐汇区枫林路305"},{"poiid":"B2094757D064A1F4429C","title":"上海昆虫博物馆","lon":"121.45702","lat":"31.19306","category":"179","category_name":"音乐厅","address":"徐汇区枫林路300号(近斜土路)"},{"poiid":"B2094757D06FA4FF4393","title":"泡椒同学","lon":"121.45728","lat":"31.19275","category":"71","category_name":"四川菜","address":"上海徐汇区枫林路331号(近零陵路)"},{"poiid":"B2094753D664A3FD469E","title":"正大乐城","lon":"121.458213","lat":"31.186937","category":"170","category_name":"KTV","address":"上海市 东安路中山南二路"},{"poiid":"B2094654DA6DA5F94398","title":"中粮大厦","lon":"121.46189","lat":"31.19029","category":"46","category_name":"楼宇","address":"北一环与亳州路交叉口(庐阳区政府对面)"},{"poiid":"B2094757D06FA5FB489E","title":"西木小区","lon":"121.45944","lat":"31.193609","category":"47","category_name":"住宅区","address":"上海市徐汇区小木桥路斜土路"},{"poiid":"B2094757D06FA6F5409B","title":"黄毛烧烤(零陵店)","lon":"121.45999908","lat":"31.19260025","category":"269","category_name":"烧烤","address":"徐汇区零陵路231号(小木桥路口)"},{"poiid":"B2094757D068A7FD4599","title":"福岛第一核电站三号机组","lon":"121.46172857","lat":"31.190548563","category":"260","category_name":"其他","address":"日本福岛县"},{"poiid":"B2094757D069A6FF489A","title":"零陵中学","lon":"121.45628","lat":"31.1884","category":"55","category_name":"中学","address":"徐汇区东安路451号(近零陵路)"},{"poiid":"B2094757D06BA6FF469E","title":"船厂路中山南二路","lon":"121.459764","lat":"31.18839","category":"500","category_name":"未知分类","address":"上海船厂路中山南二路"},{"poiid":"B2094757D06FAAFD4892","title":"永和大王(东安路店)","lon":"121.45471","lat":"31.1912","category":"68","category_name":"快餐厅","address":"徐汇区东安路263-1号(近零陵路)"},{"poiid":"B2094757D06FA7FA489E","title":"东安一村","lon":"121.455943","lat":"31.191161","category":"47","category_name":"住宅区","address":"上海徐汇区零陵路350弄1-110号(近东安路)"},{"poiid":"B2094757D069A0F84793","title":"斯柯达4s店","lon":"121.460461","lat":"31.188615","category":"500","category_name":"未知分类","address":"上海中山南二路555号"},{"poiid":"B2094753D664AAF9469C","title":"正大乐城","lon":"121.456886","lat":"31.189115","category":"170","category_name":"KTV","address":"上海市 中山南二路679号"},{"poiid":"B2094655D36DA7F9449D","title":"肿瘤医院","lon":"121.45531","lat":"31.18997","category":"162","category_name":"医院","address":"徐汇区东安路270号"},{"poiid":"B2094655D36DA1F54498","title":"小木桥路中山南二路","lon":"121.4611","lat":"31.19248","category":"38","category_name":"公交车站","address":""},{"poiid":"B2094757D06AABFC4298","title":"肯德基KFC (东安路店)","lon":"121.454740903","lat":"31.1908887441","category":"68","category_name":"快餐厅","address":"上海轨道交通7号线东安路站站厅层"},{"poiid":"B2094752DA6BA4F8439A","title":"华士达影城","lon":"121.457227","lat":"31.18925","category":"178","category_name":"电影院","address":"上海市 东安路599号"},{"poiid":"B2094655D26AA0F44799","title":"新偶像艺术学校","lon":"121.46105","lat":"31.18889","category":"247","category_name":"餐饮美食","address":"徐汇区中山南二路555号冠霖大楼4127室(近大木桥路)"},{"poiid":"B2094654DA6DA5F9429C","title":"中国科学院上海有机化学研究所","lon":"121.45713","lat":"31.19247","category":"191","category_name":"科研机构","address":"枫林路354号"},{"poiid":"B2094655D268A4FC489D","title":"上海电子信息职业技术学院徐汇校区(东门)","lon":"121.45886","lat":"31.18878","category":"52","category_name":"高等院校","address":""},{"poiid":"B2094753D664A2FA4692","title":"天家（正大乐城店）","lon":"121.456863","lat":"31.189044","category":"247","category_name":"餐饮美食","address":"上海市 龙华中路"},{"poiid":"B2094654DA6DA5FF419C","title":"欣荣酒家","lon":"121.458470054","lat":"31.191898793","category":"76","category_name":"上海菜","address":"徐汇区零陵路342号(近枫林路)"},{"poiid":"B2094757D069A1F9479B","title":"苏州羊肉馆(东安路店)","lon":"121.45517","lat":"31.18966","category":"68","category_name":"快餐厅","address":"徐汇区东安路352号邮局旁(近零陵路)"},{"poiid":"B2094757DA6BA6FE449C","title":"上海绿地中心一期","lon":"121.456362","lat":"31.187987","category":"252","category_name":"楼宇机构","address":"徐汇钦州北路188号"},{"poiid":"B2094757D568AAFD4193","title":"汉庭快捷酒店(徐家汇东安路店)","lon":"121.45510715","lat":"31.19020562","category":"216","category_name":"经济型连锁酒店","address":"徐汇区东安路360号(近零陵路)"},{"poiid":"B2094655D36DA7F8469C","title":"中山南二路东安路","lon":"121.45702","lat":"31.18704","category":"38","category_name":"公交车站","address":""},{"poiid":"B2094654DB6AA6FF499C","title":"上海嘉煜宾馆","lon":"121.45691","lat":"31.19106","category":"250","category_name":"公园户外","address":"上海市徐汇区零陵路342号(近东安路)"},{"poiid":"B2094655D26FAAF4429D","title":"汇成民聚商务楼3号楼","lon":"121.45715","lat":"31.1909","category":"46","category_name":"楼宇","address":"零陵路342号"},{"poiid":"B2094757D568AAFE4292","title":"腾王阁","lon":"121.457487","lat":"31.189324","category":"47","category_name":"住宅区","address":"上海市徐汇区宛平南路968弄"},{"poiid":"B2094654DA6DA5F9499E","title":"东安一村(5号门)","lon":"121.45864","lat":"31.18923","category":"47","category_name":"住宅区","address":""},{"poiid":"B2094655D26FA6F4449A","title":"枫林新村","lon":"121.45953","lat":"31.192083","category":"47","category_name":"住宅区","address":"零陵路250弄,零陵路259弄"},{"poiid":"B2094654DA6DA5FF459D","title":"天全鱼庄","lon":"121.458603","lat":"31.192515","category":"71","category_name":"四川菜","address":"徐汇区零陵路289弄(枫林路口)"},{"poiid":"B2094757D165A1FB4698","title":"重庆鸡公煲 零陵路店","lon":"121.459109054","lat":"31.192281793","category":"71","category_name":"四川菜","address":"徐汇区零陵路260号(近枫林路)"},{"poiid":"B2094753DB64A0F94598","title":"一麻一辣","lon":"121.457527","lat":"31.187007","category":"500","category_name":"未知分类","address":"上海市 上海市中山南二路699号2楼"},{"poiid":"B2094654DA6DA5FA409D","title":"奥灶菜馆","lon":"121.456076054","lat":"31.187141793","category":"68","category_name":"快餐厅","address":"徐汇区东安路501号(近中山南二路)"},{"poiid":"B2094757D465A0F44799","title":"风调雨顺土菜馆 小木桥路店","lon":"121.46067545609","lat":"31.193509137011","category":"77","category_name":"湖南菜","address":"徐汇区小木桥路458号(近零陵路)"},{"poiid":"B2094654DA6DA5F94999","title":"上海电子信息职业技术学院徐汇校区","lon":"121.45859","lat":"31.18879","category":"54","category_name":"职业技术学校","address":""},{"poiid":"B2094757D06BA4F84493","title":"289弄住宅区","lon":"121.45797673","lat":"31.192104488","category":"47","category_name":"住宅区","address":"上海市徐汇区零陵路"},{"poiid":"B2094757D16AA5FC4199","title":"宛南实验幼儿园","lon":"121.459573938","lat":"31.1927580686","category":"57","category_name":"幼儿园","address":"徐汇区大木桥路323号(茶陵路大木桥路)"},{"poiid":"B2094654DA6DA5F94892","title":"上海市工业技术学校(中山南二路)","lon":"121.45996","lat":"31.18919","category":"54","category_name":"职业技术学校","address":"中山南二路530"},{"poiid":"B2094655D268A2F5489E","title":"上海电子信息职业技术培训学校(东门)","lon":"121.45885","lat":"31.1888","category":"678","category_name":"学校大门","address":""},{"poiid":"B209475CD16FA1FF459D","title":"小辉哥火锅","lon":"121.458099","lat":"31.186601","category":"247","category_name":"餐饮美食","address":"上海市 正大乐城"},{"poiid":"B2094654DB65A3FF489C","title":"好德No.336","lon":"121.458","lat":"31.19211","category":"117","category_name":"便民商店/便利店","address":"零陵路297"},{"poiid":"B2094752D56DA3FE459E","title":"美罗城","lon":"121.457773","lat":"31.189201","category":"500","category_name":"未知分类","address":null}]