[{"poiid":"B2094757D06FA0F8409E","title":"上海海事大学","lon":"121.54098","lat":"31.242395","category":"671","category_name":"高校中心点","address":"浦东新区浦东大道1550号上海海事大学院内(近民生路)"},{"poiid":"B2094757D468A6F54999","title":"二子龙虾 栖山路店","lon":"121.542679054","lat":"31.242488793","category":"68","category_name":"快餐厅","address":"浦东新区栖山路50号(近民生路)"},{"poiid":"B2094757D06FA7F4489F","title":"木炭小子烤肉馆","lon":"121.54643","lat":"31.24299","category":"96","category_name":"韩国料理","address":"上海浦东新区栖山路159号(近苗圃路)  "},{"poiid":"B2094757D064A3FB4899","title":"滩悦(苗圃路店)","lon":"121.545518738","lat":"31.2443566012","category":"76","category_name":"上海菜","address":"浦东新区苗圃路63号会馆3楼(近浦东大道)"},{"poiid":"B2094757D06FA4FB4593","title":"浦东大道北洋泾路","lon":"121.54427","lat":"31.245582","category":"500","category_name":"未知分类","address":"上海浦东大道北洋泾路"},{"poiid":"B2094757D06FA5FD4493","title":"上海滩花园洋房","lon":"121.54","lat":"31.2457","category":"252","category_name":"楼宇机构","address":"浦东新区乳山路506弄(福山路乳山路)"},{"poiid":"B2094757D16DA2FA4699","title":"民生路栖山路","lon":"121.54128464","lat":"31.243066869","category":"500","category_name":"未知分类","address":"上海民生路栖山路路口"},{"poiid":"B2094757D06EABF54299","title":"环球广场","lon":"121.54","lat":"31.2498","category":"46","category_name":"楼宇","address":"桃林路18号"},{"poiid":"B2094655D26BA1F9429B","title":"民生路浦东大道","lon":"121.54077","lat":"31.24432","category":"38","category_name":"公交车站","address":""},{"poiid":"B2094654DA68AAFD479F","title":"小厨面 巨野路店","lon":"121.545059054","lat":"31.242603793","category":"68","category_name":"快餐厅","address":"浦东新区巨野路181号(近栖山路)"},{"poiid":"B2094757D16FA6FE439E","title":"高恒大厦","lon":"121.541544078","lat":"31.2419453798","category":"252","category_name":"楼宇机构","address":"上海浦东大道1608号"},{"poiid":"B2094757D068AAFD419F","title":"潮汕砂锅粥(苗圃路店)","lon":"121.54625873","lat":"31.244231598","category":"72","category_name":"广东菜","address":"浦东新区苗圃路158号(近栖山路)"},{"poiid":"B2094757D069A2F4429D","title":"台台缘时尚火锅 浦东大道店","lon":"121.54541503555","lat":"31.246561255626","category":"86","category_name":"火锅店","address":"浦东新区浦东大道1705号(近苗圃路)"},{"poiid":"B2094757D068ABFE4399","title":"西域郎烧烤(栖山路店)","lon":"121.54273","lat":"31.2419","category":"68","category_name":"快餐厅","address":"浦东新区栖山路48号(近民生路)"},{"poiid":"B2094757D064A6FE459C","title":"简阳羊肉汤","lon":"121.545015","lat":"31.243357","category":"71","category_name":"四川菜","address":"浦东新区栖山路145号(近巨野路)"},{"poiid":"B2094654DA68ABF4409E","title":"天使口腔","lon":"121.54139","lat":"31.24417","category":"162","category_name":"医院","address":"浦东新区浦东大道1616号(民生路浦东大道)"},{"poiid":"B2094654DA68ABFA419A","title":"上海市泾南中学","lon":"121.54187","lat":"31.24162","category":"55","category_name":"中学","address":"浦东新区民生路303号(民生路栖山路)"},{"poiid":"B2094757D06BA1FD459E","title":"诸葛烤鱼(苗圃路店)","lon":"121.5465","lat":"31.24329","category":"71","category_name":"四川菜","address":"浦东新区苗圃路176号(近栖山路)"},{"poiid":"B2094757D06AABF8499C","title":"1758龙虾王","lon":"121.541451054","lat":"31.242051793","category":"68","category_name":"快餐厅","address":"浦东新区栖山路12号(近民生路)"},{"poiid":"B2094757D068A4FB429D","title":"民生路轮渡站","lon":"121.5381217","lat":"31.247109233","category":"35","category_name":"长途汽车站","address":"上海浦东新区民生路1号"},{"poiid":"B2094757D069A2F84899","title":"小绍兴(民生路店)","lon":"121.54031","lat":"31.24367","category":"68","category_name":"快餐厅","address":"浦东新区浦东大道1588号(近民生路)"},{"poiid":"B2094654DA68ABFB419A","title":"凌三小区","lon":"121.54348","lat":"31.24676","category":"47","category_name":"住宅区","address":"上海浦东大道1695弄"},{"poiid":"B2094757D66BA3F84793","title":"食知味龙虾馆 栖山路店","lon":"121.54153382439","lat":"31.242334441884","category":"68","category_name":"快餐厅","address":"浦东新区栖山路36号(近民生路)"},{"poiid":"B2094655D268A4F4439C","title":"凌二小区","lon":"121.54249","lat":"31.24584","category":"47","category_name":"住宅区","address":"浦东大道1623弄1-33号"},{"poiid":"B2094654DA68ABFB429C","title":"君豪宾馆","lon":"121.54319","lat":"31.24625","category":"250","category_name":"公园户外","address":"上海市浦东新区浦东大道1623弄25号(近夹浦路)"},{"poiid":"B2094654DA68ABFB479B","title":"凌一小区","lon":"121.54119","lat":"31.245237","category":"47","category_name":"住宅区","address":"浦东大道1615弄8号"},{"poiid":"B2094757D468A7F44099","title":"都市庄园苏北农家菜","lon":"121.54203","lat":"31.2445","category":"87","category_name":"特色／地方风味餐厅","address":"浦东新区浦东大道1642号(近民生路)"},{"poiid":"B2094654DA68AAFC409A","title":"旭辉雅苑","lon":"121.54498","lat":"31.244194","category":"47","category_name":"住宅区","address":"上海市浦东新区巨野路59号"},{"poiid":"B2094750D76EA4FF4693","title":"红宝石(浦东大道店)","lon":"121.539","lat":"31.2434","category":"67","category_name":"甜品店","address":"浦东新区浦东大道1574号(近民生路)"},{"poiid":"B2094757D168A0F44693","title":"清风人家(桃林店)","lon":"121.544568","lat":"31.241527","category":"247","category_name":"餐饮美食","address":"上海浦东新区桃林路465号(近沈家弄路)"},{"poiid":"B2094757D068A4F4449F","title":"全家便利(苗圃路店)","lon":"121.544275","lat":"31.246819","category":"117","category_name":"便民商店/便利店","address":"上海浦东新区浦东大道1578号(近苗圃路)"},{"poiid":"B2094750D664A5F9479E","title":"一品粥坊","lon":"121.54232","lat":"31.24515","category":"68","category_name":"快餐厅","address":"浦东新区浦东大道1625号(近民生路)"},{"poiid":"B2094757D16FA1FD4099","title":"粥道坊","lon":"121.545146738","lat":"31.2458596332","category":"76","category_name":"上海菜","address":"浦东新区浦东大道1662号(巨野路口)"},{"poiid":"B2094757D169A2F8469E","title":"老昌兴苏州汤包馆","lon":"121.542589439","lat":"31.2448117721","category":"247","category_name":"餐饮美食","address":"上海浦东新区浦东大道1662号"},{"poiid":"B2094753D564A2FA479D","title":"金桥国际商业广场","lon":"121.542228","lat":"31.24687","category":"500","category_name":"未知分类","address":"上海市 张扬路3611弄"},{"poiid":"B2094654DA68ABF4469B","title":"泾华新村","lon":"121.54409","lat":"31.245041","category":"47","category_name":"住宅区","address":"浦东大道1700弄1-35号"},{"poiid":"B2094654DA68ABFB459A","title":"国际顶尖银钻店","lon":"121.54224","lat":"31.24508","category":"148","category_name":"美容美发店","address":""},{"poiid":"B2094654DA68ABFB4199","title":"国大药房北洋泾店","lon":"121.54433","lat":"31.24603","category":"162","category_name":"医院","address":"浦东大道1689号"},{"poiid":"B2094655D268A6F5499F","title":"上海凤氏靓汤馆","lon":"121.54513","lat":"31.24335","category":"76","category_name":"上海菜","address":"浦东新区栖山路147号(近巨野路)"},{"poiid":"B2094752D16AABFE4998","title":"泰妃阁（南京东路店）","lon":"121.545144","lat":"31.243208","category":"247","category_name":"餐饮美食","address":"南京东路720号第一食品4楼(近贵州路)"},{"poiid":"B2094654DA68ABF8429D","title":"宜嘉商务楼","lon":"121.546","lat":"31.2445","category":"46","category_name":"楼宇","address":"朝阳区国贸桥南约500米"},{"poiid":"B2094655D26DA1FF489D","title":"上海财经大学科技园招商中心","lon":"121.54256","lat":"31.24448","category":"45","category_name":"产业园区","address":"巨野路22号申城公寓2308室"},{"poiid":"B2094757D66AA4FC469C","title":"邦邦香","lon":"121.541895054","lat":"31.244687793","category":"71","category_name":"四川菜","address":"浦东新区浦东大道1624号(近上海海事大学)"},{"poiid":"B2094654DA68ABF4409D","title":"发展大厦(浦东大道)","lon":"121.54166","lat":"31.24421","category":"46","category_name":"楼宇","address":"浦东大道1616"},{"poiid":"B2094654DA68ABF5499E","title":"巨野小区","lon":"121.54241","lat":"31.243601","category":"47","category_name":"住宅区","address":"巨野路60弄1-17"},{"poiid":"B2094757D66EA1FE4593","title":"苏北农家菜","lon":"121.542031","lat":"31.244502","category":"247","category_name":"餐饮美食","address":"上海浦东大道1642号"},{"poiid":"B2094757D16CA2FF489C","title":"广东祥记蚝庄(栖山路店)","lon":"121.5416","lat":"31.24159","category":"68","category_name":"快餐厅","address":"浦东新区栖山路12号(近民生路)"},{"poiid":"B2094654DB6BABF44799","title":"新亚大包 栖山路店","lon":"121.542346054","lat":"31.242687793","category":"68","category_name":"快餐厅","address":"浦东新区栖山路107号(近巨野路)"},{"poiid":"B2094654DA68ABFA4699","title":"枫叶速8酒店浦东店","lon":"121.54552","lat":"31.2426","category":"216","category_name":"经济型连锁酒店","address":"上海市浦东新区苗圃路151号(近浦东大道)"},{"poiid":"B2094655D26BA2F54799","title":"浦东大道民生路","lon":"121.5395","lat":"31.24371","category":"38","category_name":"公交车站","address":""},{"poiid":"B2094757D06FA0F8409E","title":"上海海事大学","lon":"121.54098","lat":"31.242395","category":"671","category_name":"高校中心点","address":"浦东新区浦东大道1550号上海海事大学院内(近民生路)"},{"poiid":"B2094757D468A6F54999","title":"二子龙虾 栖山路店","lon":"121.542679054","lat":"31.242488793","category":"68","category_name":"快餐厅","address":"浦东新区栖山路50号(近民生路)"},{"poiid":"B2094757D06FA7F4489F","title":"木炭小子烤肉馆","lon":"121.54643","lat":"31.24299","category":"96","category_name":"韩国料理","address":"上海浦东新区栖山路159号(近苗圃路)  "},{"poiid":"B2094757D064A3FB4899","title":"滩悦(苗圃路店)","lon":"121.545518738","lat":"31.2443566012","category":"76","category_name":"上海菜","address":"浦东新区苗圃路63号会馆3楼(近浦东大道)"},{"poiid":"B2094757D06FA4FB4593","title":"浦东大道北洋泾路","lon":"121.54427","lat":"31.245582","category":"500","category_name":"未知分类","address":"上海浦东大道北洋泾路"},{"poiid":"B2094757D06FA5FD4493","title":"上海滩花园洋房","lon":"121.54","lat":"31.2457","category":"252","category_name":"楼宇机构","address":"浦东新区乳山路506弄(福山路乳山路)"},{"poiid":"B2094757D16DA2FA4699","title":"民生路栖山路","lon":"121.54128464","lat":"31.243066869","category":"500","category_name":"未知分类","address":"上海民生路栖山路路口"},{"poiid":"B2094757D06EABF54299","title":"环球广场","lon":"121.54","lat":"31.2498","category":"46","category_name":"楼宇","address":"桃林路18号"},{"poiid":"B2094655D26BA1F9429B","title":"民生路浦东大道","lon":"121.54077","lat":"31.24432","category":"38","category_name":"公交车站","address":""},{"poiid":"B2094654DA68AAFD479F","title":"小厨面 巨野路店","lon":"121.545059054","lat":"31.242603793","category":"68","category_name":"快餐厅","address":"浦东新区巨野路181号(近栖山路)"},{"poiid":"B2094757D16FA6FE439E","title":"高恒大厦","lon":"121.541544078","lat":"31.2419453798","category":"252","category_name":"楼宇机构","address":"上海浦东大道1608号"},{"poiid":"B2094757D068AAFD419F","title":"潮汕砂锅粥(苗圃路店)","lon":"121.54625873","lat":"31.244231598","category":"72","category_name":"广东菜","address":"浦东新区苗圃路158号(近栖山路)"},{"poiid":"B2094757D069A2F4429D","title":"台台缘时尚火锅 浦东大道店","lon":"121.54541503555","lat":"31.246561255626","category":"86","category_name":"火锅店","address":"浦东新区浦东大道1705号(近苗圃路)"},{"poiid":"B2094757D068ABFE4399","title":"西域郎烧烤(栖山路店)","lon":"121.54273","lat":"31.2419","category":"68","category_name":"快餐厅","address":"浦东新区栖山路48号(近民生路)"},{"poiid":"B2094757D064A6FE459C","title":"简阳羊肉汤","lon":"121.545015","lat":"31.243357","category":"71","category_name":"四川菜","address":"浦东新区栖山路145号(近巨野路)"},{"poiid":"B2094654DA68ABF4409E","title":"天使口腔","lon":"121.54139","lat":"31.24417","category":"162","category_name":"医院","address":"浦东新区浦东大道1616号(民生路浦东大道)"},{"poiid":"B2094654DA68ABFA419A","title":"上海市泾南中学","lon":"121.54187","lat":"31.24162","category":"55","category_name":"中学","address":"浦东新区民生路303号(民生路栖山路)"},{"poiid":"B2094757D06BA1FD459E","title":"诸葛烤鱼(苗圃路店)","lon":"121.5465","lat":"31.24329","category":"71","category_name":"四川菜","address":"浦东新区苗圃路176号(近栖山路)"},{"poiid":"B2094757D06AABF8499C","title":"1758龙虾王","lon":"121.541451054","lat":"31.242051793","category":"68","category_name":"快餐厅","address":"浦东新区栖山路12号(近民生路)"},{"poiid":"B2094757D068A4FB429D","title":"民生路轮渡站","lon":"121.5381217","lat":"31.247109233","category":"35","category_name":"长途汽车站","address":"上海浦东新区民生路1号"},{"poiid":"B2094757D069A2F84899","title":"小绍兴(民生路店)","lon":"121.54031","lat":"31.24367","category":"68","category_name":"快餐厅","address":"浦东新区浦东大道1588号(近民生路)"},{"poiid":"B2094654DA68ABFB419A","title":"凌三小区","lon":"121.54348","lat":"31.24676","category":"47","category_name":"住宅区","address":"上海浦东大道1695弄"},{"poiid":"B2094757D66BA3F84793","title":"食知味龙虾馆 栖山路店","lon":"121.54153382439","lat":"31.242334441884","category":"68","category_name":"快餐厅","address":"浦东新区栖山路36号(近民生路)"},{"poiid":"B2094655D268A4F4439C","title":"凌二小区","lon":"121.54249","lat":"31.24584","category":"47","category_name":"住宅区","address":"浦东大道1623弄1-33号"},{"poiid":"B2094654DA68ABFB429C","title":"君豪宾馆","lon":"121.54319","lat":"31.24625","category":"250","category_name":"公园户外","address":"上海市浦东新区浦东大道1623弄25号(近夹浦路)"},{"poiid":"B2094654DA68ABFB479B","title":"凌一小区","lon":"121.54119","lat":"31.245237","category":"47","category_name":"住宅区","address":"浦东大道1615弄8号"},{"poiid":"B2094757D468A7F44099","title":"都市庄园苏北农家菜","lon":"121.54203","lat":"31.2445","category":"87","category_name":"特色／地方风味餐厅","address":"浦东新区浦东大道1642号(近民生路)"},{"poiid":"B2094654DA68AAFC409A","title":"旭辉雅苑","lon":"121.54498","lat":"31.244194","category":"47","category_name":"住宅区","address":"上海市浦东新区巨野路59号"},{"poiid":"B2094750D76EA4FF4693","title":"红宝石(浦东大道店)","lon":"121.539","lat":"31.2434","category":"67","category_name":"甜品店","address":"浦东新区浦东大道1574号(近民生路)"},{"poiid":"B2094757D168A0F44693","title":"清风人家(桃林店)","lon":"121.544568","lat":"31.241527","category":"247","category_name":"餐饮美食","address":"上海浦东新区桃林路465号(近沈家弄路)"},{"poiid":"B2094757D068A4F4449F","title":"全家便利(苗圃路店)","lon":"121.544275","lat":"31.246819","category":"117","category_name":"便民商店/便利店","address":"上海浦东新区浦东大道1578号(近苗圃路)"},{"poiid":"B2094750D664A5F9479E","title":"一品粥坊","lon":"121.54232","lat":"31.24515","category":"68","category_name":"快餐厅","address":"浦东新区浦东大道1625号(近民生路)"},{"poiid":"B2094757D16FA1FD4099","title":"粥道坊","lon":"121.545146738","lat":"31.2458596332","category":"76","category_name":"上海菜","address":"浦东新区浦东大道1662号(巨野路口)"},{"poiid":"B2094757D169A2F8469E","title":"老昌兴苏州汤包馆","lon":"121.542589439","lat":"31.2448117721","category":"247","category_name":"餐饮美食","address":"上海浦东新区浦东大道1662号"},{"poiid":"B2094753D564A2FA479D","title":"金桥国际商业广场","lon":"121.542228","lat":"31.24687","category":"500","category_name":"未知分类","address":"上海市 张扬路3611弄"},{"poiid":"B2094654DA68ABF4469B","title":"泾华新村","lon":"121.54409","lat":"31.245041","category":"47","category_name":"住宅区","address":"浦东大道1700弄1-35号"},{"poiid":"B2094654DA68ABFB459A","title":"国际顶尖银钻店","lon":"121.54224","lat":"31.24508","category":"148","category_name":"美容美发店","address":""},{"poiid":"B2094654DA68ABFB4199","title":"国大药房北洋泾店","lon":"121.54433","lat":"31.24603","category":"162","category_name":"医院","address":"浦东大道1689号"},{"poiid":"B2094655D268A6F5499F","title":"上海凤氏靓汤馆","lon":"121.54513","lat":"31.24335","category":"76","category_name":"上海菜","address":"浦东新区栖山路147号(近巨野路)"},{"poiid":"B2094752D16AABFE4998","title":"泰妃阁（南京东路店）","lon":"121.545144","lat":"31.243208","category":"247","category_name":"餐饮美食","address":"南京东路720号第一食品4楼(近贵州路)"},{"poiid":"B2094654DA68ABF8429D","title":"宜嘉商务楼","lon":"121.546","lat":"31.2445","category":"46","category_name":"楼宇","address":"朝阳区国贸桥南约500米"},{"poiid":"B2094655D26DA1FF489D","title":"上海财经大学科技园招商中心","lon":"121.54256","lat":"31.24448","category":"45","category_name":"产业园区","address":"巨野路22号申城公寓2308室"},{"poiid":"B2094757D66AA4FC469C","title":"邦邦香","lon":"121.541895054","lat":"31.244687793","category":"71","category_name":"四川菜","address":"浦东新区浦东大道1624号(近上海海事大学)"},{"poiid":"B2094654DA68ABF4409D","title":"发展大厦(浦东大道)","lon":"121.54166","lat":"31.24421","category":"46","category_name":"楼宇","address":"浦东大道1616"},{"poiid":"B2094654DA68ABF5499E","title":"巨野小区","lon":"121.54241","lat":"31.243601","category":"47","category_name":"住宅区","address":"巨野路60弄1-17"},{"poiid":"B2094757D66EA1FE4593","title":"苏北农家菜","lon":"121.542031","lat":"31.244502","category":"247","category_name":"餐饮美食","address":"上海浦东大道1642号"},{"poiid":"B2094757D16CA2FF489C","title":"广东祥记蚝庄(栖山路店)","lon":"121.5416","lat":"31.24159","category":"68","category_name":"快餐厅","address":"浦东新区栖山路12号(近民生路)"},{"poiid":"B2094654DB6BABF44799","title":"新亚大包 栖山路店","lon":"121.542346054","lat":"31.242687793","category":"68","category_name":"快餐厅","address":"浦东新区栖山路107号(近巨野路)"},{"poiid":"B2094654DA68ABFA4699","title":"枫叶速8酒店浦东店","lon":"121.54552","lat":"31.2426","category":"216","category_name":"经济型连锁酒店","address":"上海市浦东新区苗圃路151号(近浦东大道)"},{"poiid":"B2094655D26BA2F54799","title":"浦东大道民生路","lon":"121.5395","lat":"31.24371","category":"38","category_name":"公交车站","address":""},{"poiid":"B2094757D06FA0F8409E","title":"上海海事大学","lon":"121.54098","lat":"31.242395","category":"671","category_name":"高校中心点","address":"浦东新区浦东大道1550号上海海事大学院内(近民生路)"},{"poiid":"B2094757D468A6F54999","title":"二子龙虾 栖山路店","lon":"121.542679054","lat":"31.242488793","category":"68","category_name":"快餐厅","address":"浦东新区栖山路50号(近民生路)"},{"poiid":"B2094757D06FA7F4489F","title":"木炭小子烤肉馆","lon":"121.54643","lat":"31.24299","category":"96","category_name":"韩国料理","address":"上海浦东新区栖山路159号(近苗圃路)  "},{"poiid":"B2094757D064A3FB4899","title":"滩悦(苗圃路店)","lon":"121.545518738","lat":"31.2443566012","category":"76","category_name":"上海菜","address":"浦东新区苗圃路63号会馆3楼(近浦东大道)"},{"poiid":"B2094757D06FA4FB4593","title":"浦东大道北洋泾路","lon":"121.54427","lat":"31.245582","category":"500","category_name":"未知分类","address":"上海浦东大道北洋泾路"},{"poiid":"B2094757D06FA5FD4493","title":"上海滩花园洋房","lon":"121.54","lat":"31.2457","category":"252","category_name":"楼宇机构","address":"浦东新区乳山路506弄(福山路乳山路)"},{"poiid":"B2094757D16DA2FA4699","title":"民生路栖山路","lon":"121.54128464","lat":"31.243066869","category":"500","category_name":"未知分类","address":"上海民生路栖山路路口"},{"poiid":"B2094757D06EABF54299","title":"环球广场","lon":"121.54","lat":"31.2498","category":"46","category_name":"楼宇","address":"桃林路18号"},{"poiid":"B2094655D26BA1F9429B","title":"民生路浦东大道","lon":"121.54077","lat":"31.24432","category":"38","category_name":"公交车站","address":""},{"poiid":"B2094654DA68AAFD479F","title":"小厨面 巨野路店","lon":"121.545059054","lat":"31.242603793","category":"68","category_name":"快餐厅","address":"浦东新区巨野路181号(近栖山路)"},{"poiid":"B2094757D16FA6FE439E","title":"高恒大厦","lon":"121.541544078","lat":"31.2419453798","category":"252","category_name":"楼宇机构","address":"上海浦东大道1608号"},{"poiid":"B2094757D068AAFD419F","title":"潮汕砂锅粥(苗圃路店)","lon":"121.54625873","lat":"31.244231598","category":"72","category_name":"广东菜","address":"浦东新区苗圃路158号(近栖山路)"},{"poiid":"B2094757D069A2F4429D","title":"台台缘时尚火锅 浦东大道店","lon":"121.54541503555","lat":"31.246561255626","category":"86","category_name":"火锅店","address":"浦东新区浦东大道1705号(近苗圃路)"},{"poiid":"B2094757D068ABFE4399","title":"西域郎烧烤(栖山路店)","lon":"121.54273","lat":"31.2419","category":"68","category_name":"快餐厅","address":"浦东新区栖山路48号(近民生路)"},{"poiid":"B2094757D064A6FE459C","title":"简阳羊肉汤","lon":"121.545015","lat":"31.243357","category":"71","category_name":"四川菜","address":"浦东新区栖山路145号(近巨野路)"},{"poiid":"B2094654DA68ABF4409E","title":"天使口腔","lon":"121.54139","lat":"31.24417","category":"162","category_name":"医院","address":"浦东新区浦东大道1616号(民生路浦东大道)"},{"poiid":"B2094654DA68ABFA419A","title":"上海市泾南中学","lon":"121.54187","lat":"31.24162","category":"55","category_name":"中学","address":"浦东新区民生路303号(民生路栖山路)"},{"poiid":"B2094757D06BA1FD459E","title":"诸葛烤鱼(苗圃路店)","lon":"121.5465","lat":"31.24329","category":"71","category_name":"四川菜","address":"浦东新区苗圃路176号(近栖山路)"},{"poiid":"B2094757D06AABF8499C","title":"1758龙虾王","lon":"121.541451054","lat":"31.242051793","category":"68","category_name":"快餐厅","address":"浦东新区栖山路12号(近民生路)"},{"poiid":"B2094757D068A4FB429D","title":"民生路轮渡站","lon":"121.5381217","lat":"31.247109233","category":"35","category_name":"长途汽车站","address":"上海浦东新区民生路1号"},{"poiid":"B2094757D069A2F84899","title":"小绍兴(民生路店)","lon":"121.54031","lat":"31.24367","category":"68","category_name":"快餐厅","address":"浦东新区浦东大道1588号(近民生路)"},{"poiid":"B2094654DA68ABFB419A","title":"凌三小区","lon":"121.54348","lat":"31.24676","category":"47","category_name":"住宅区","address":"上海浦东大道1695弄"},{"poiid":"B2094757D66BA3F84793","title":"食知味龙虾馆 栖山路店","lon":"121.54153382439","lat":"31.242334441884","category":"68","category_name":"快餐厅","address":"浦东新区栖山路36号(近民生路)"},{"poiid":"B2094655D268A4F4439C","title":"凌二小区","lon":"121.54249","lat":"31.24584","category":"47","category_name":"住宅区","address":"浦东大道1623弄1-33号"},{"poiid":"B2094654DA68ABFB429C","title":"君豪宾馆","lon":"121.54319","lat":"31.24625","category":"250","category_name":"公园户外","address":"上海市浦东新区浦东大道1623弄25号(近夹浦路)"},{"poiid":"B2094654DA68ABFB479B","title":"凌一小区","lon":"121.54119","lat":"31.245237","category":"47","category_name":"住宅区","address":"浦东大道1615弄8号"},{"poiid":"B2094757D468A7F44099","title":"都市庄园苏北农家菜","lon":"121.54203","lat":"31.2445","category":"87","category_name":"特色／地方风味餐厅","address":"浦东新区浦东大道1642号(近民生路)"},{"poiid":"B2094654DA68AAFC409A","title":"旭辉雅苑","lon":"121.54498","lat":"31.244194","category":"47","category_name":"住宅区","address":"上海市浦东新区巨野路59号"},{"poiid":"B2094750D76EA4FF4693","title":"红宝石(浦东大道店)","lon":"121.539","lat":"31.2434","category":"67","category_name":"甜品店","address":"浦东新区浦东大道1574号(近民生路)"},{"poiid":"B2094757D168A0F44693","title":"清风人家(桃林店)","lon":"121.544568","lat":"31.241527","category":"247","category_name":"餐饮美食","address":"上海浦东新区桃林路465号(近沈家弄路)"},{"poiid":"B2094757D068A4F4449F","title":"全家便利(苗圃路店)","lon":"121.544275","lat":"31.246819","category":"117","category_name":"便民商店/便利店","address":"上海浦东新区浦东大道1578号(近苗圃路)"},{"poiid":"B2094750D664A5F9479E","title":"一品粥坊","lon":"121.54232","lat":"31.24515","category":"68","category_name":"快餐厅","address":"浦东新区浦东大道1625号(近民生路)"},{"poiid":"B2094757D16FA1FD4099","title":"粥道坊","lon":"121.545146738","lat":"31.2458596332","category":"76","category_name":"上海菜","address":"浦东新区浦东大道1662号(巨野路口)"},{"poiid":"B2094757D169A2F8469E","title":"老昌兴苏州汤包馆","lon":"121.542589439","lat":"31.2448117721","category":"247","category_name":"餐饮美食","address":"上海浦东新区浦东大道1662号"},{"poiid":"B2094753D564A2FA479D","title":"金桥国际商业广场","lon":"121.542228","lat":"31.24687","category":"500","category_name":"未知分类","address":"上海市 张扬路3611弄"},{"poiid":"B2094654DA68ABF4469B","title":"泾华新村","lon":"121.54409","lat":"31.245041","category":"47","category_name":"住宅区","address":"浦东大道1700弄1-35号"},{"poiid":"B2094654DA68ABFB459A","title":"国际顶尖银钻店","lon":"121.54224","lat":"31.24508","category":"148","category_name":"美容美发店","address":""},{"poiid":"B2094654DA68ABFB4199","title":"国大药房北洋泾店","lon":"121.54433","lat":"31.24603","category":"162","category_name":"医院","address":"浦东大道1689号"},{"poiid":"B2094655D268A6F5499F","title":"上海凤氏靓汤馆","lon":"121.54513","lat":"31.24335","category":"76","category_name":"上海菜","address":"浦东新区栖山路147号(近巨野路)"},{"poiid":"B2094752D16AABFE4998","title":"泰妃阁（南京东路店）","lon":"121.545144","lat":"31.243208","category":"247","category_name":"餐饮美食","address":"南京东路720号第一食品4楼(近贵州路)"},{"poiid":"B2094654DA68ABF8429D","title":"宜嘉商务楼","lon":"121.546","lat":"31.2445","category":"46","category_name":"楼宇","address":"朝阳区国贸桥南约500米"},{"poiid":"B2094655D26DA1FF489D","title":"上海财经大学科技园招商中心","lon":"121.54256","lat":"31.24448","category":"45","category_name":"产业园区","address":"巨野路22号申城公寓2308室"},{"poiid":"B2094757D66AA4FC469C","title":"邦邦香","lon":"121.541895054","lat":"31.244687793","category":"71","category_name":"四川菜","address":"浦东新区浦东大道1624号(近上海海事大学)"},{"poiid":"B2094654DA68ABF4409D","title":"发展大厦(浦东大道)","lon":"121.54166","lat":"31.24421","category":"46","category_name":"楼宇","address":"浦东大道1616"},{"poiid":"B2094654DA68ABF5499E","title":"巨野小区","lon":"121.54241","lat":"31.243601","category":"47","category_name":"住宅区","address":"巨野路60弄1-17"},{"poiid":"B2094757D66EA1FE4593","title":"苏北农家菜","lon":"121.542031","lat":"31.244502","category":"247","category_name":"餐饮美食","address":"上海浦东大道1642号"},{"poiid":"B2094757D16CA2FF489C","title":"广东祥记蚝庄(栖山路店)","lon":"121.5416","lat":"31.24159","category":"68","category_name":"快餐厅","address":"浦东新区栖山路12号(近民生路)"},{"poiid":"B2094654DB6BABF44799","title":"新亚大包 栖山路店","lon":"121.542346054","lat":"31.242687793","category":"68","category_name":"快餐厅","address":"浦东新区栖山路107号(近巨野路)"},{"poiid":"B2094654DA68ABFA4699","title":"枫叶速8酒店浦东店","lon":"121.54552","lat":"31.2426","category":"216","category_name":"经济型连锁酒店","address":"上海市浦东新区苗圃路151号(近浦东大道)"},{"poiid":"B2094655D26BA2F54799","title":"浦东大道民生路","lon":"121.5395","lat":"31.24371","category":"38","category_name":"公交车站","address":""},{"poiid":"B2094757D06FA0F8409E","title":"上海海事大学","lon":"121.54098","lat":"31.242395","category":"671","category_name":"高校中心点","address":"浦东新区浦东大道1550号上海海事大学院内(近民生路)"},{"poiid":"B2094757D468A6F54999","title":"二子龙虾 栖山路店","lon":"121.542679054","lat":"31.242488793","category":"68","category_name":"快餐厅","address":"浦东新区栖山路50号(近民生路)"},{"poiid":"B2094757D06FA7F4489F","title":"木炭小子烤肉馆","lon":"121.54643","lat":"31.24299","category":"96","category_name":"韩国料理","address":"上海浦东新区栖山路159号(近苗圃路)  "},{"poiid":"B2094757D064A3FB4899","title":"滩悦(苗圃路店)","lon":"121.545518738","lat":"31.2443566012","category":"76","category_name":"上海菜","address":"浦东新区苗圃路63号会馆3楼(近浦东大道)"},{"poiid":"B2094757D06FA4FB4593","title":"浦东大道北洋泾路","lon":"121.54427","lat":"31.245582","category":"500","category_name":"未知分类","address":"上海浦东大道北洋泾路"},{"poiid":"B2094757D06FA5FD4493","title":"上海滩花园洋房","lon":"121.54","lat":"31.2457","category":"252","category_name":"楼宇机构","address":"浦东新区乳山路506弄(福山路乳山路)"},{"poiid":"B2094757D16DA2FA4699","title":"民生路栖山路","lon":"121.54128464","lat":"31.243066869","category":"500","category_name":"未知分类","address":"上海民生路栖山路路口"},{"poiid":"B2094757D06EABF54299","title":"环球广场","lon":"121.54","lat":"31.2498","category":"46","category_name":"楼宇","address":"桃林路18号"},{"poiid":"B2094655D26BA1F9429B","title":"民生路浦东大道","lon":"121.54077","lat":"31.24432","category":"38","category_name":"公交车站","address":""},{"poiid":"B2094654DA68AAFD479F","title":"小厨面 巨野路店","lon":"121.545059054","lat":"31.242603793","category":"68","category_name":"快餐厅","address":"浦东新区巨野路181号(近栖山路)"},{"poiid":"B2094757D16FA6FE439E","title":"高恒大厦","lon":"121.541544078","lat":"31.2419453798","category":"252","category_name":"楼宇机构","address":"上海浦东大道1608号"},{"poiid":"B2094757D068AAFD419F","title":"潮汕砂锅粥(苗圃路店)","lon":"121.54625873","lat":"31.244231598","category":"72","category_name":"广东菜","address":"浦东新区苗圃路158号(近栖山路)"},{"poiid":"B2094757D069A2F4429D","title":"台台缘时尚火锅 浦东大道店","lon":"121.54541503555","lat":"31.246561255626","category":"86","category_name":"火锅店","address":"浦东新区浦东大道1705号(近苗圃路)"},{"poiid":"B2094757D068ABFE4399","title":"西域郎烧烤(栖山路店)","lon":"121.54273","lat":"31.2419","category":"68","category_name":"快餐厅","address":"浦东新区栖山路48号(近民生路)"},{"poiid":"B2094757D064A6FE459C","title":"简阳羊肉汤","lon":"121.545015","lat":"31.243357","category":"71","category_name":"四川菜","address":"浦东新区栖山路145号(近巨野路)"},{"poiid":"B2094654DA68ABF4409E","title":"天使口腔","lon":"121.54139","lat":"31.24417","category":"162","category_name":"医院","address":"浦东新区浦东大道1616号(民生路浦东大道)"},{"poiid":"B2094654DA68ABFA419A","title":"上海市泾南中学","lon":"121.54187","lat":"31.24162","category":"55","category_name":"中学","address":"浦东新区民生路303号(民生路栖山路)"},{"poiid":"B2094757D06BA1FD459E","title":"诸葛烤鱼(苗圃路店)","lon":"121.5465","lat":"31.24329","category":"71","category_name":"四川菜","address":"浦东新区苗圃路176号(近栖山路)"},{"poiid":"B2094757D06AABF8499C","title":"1758龙虾王","lon":"121.541451054","lat":"31.242051793","category":"68","category_name":"快餐厅","address":"浦东新区栖山路12号(近民生路)"},{"poiid":"B2094757D068A4FB429D","title":"民生路轮渡站","lon":"121.5381217","lat":"31.247109233","category":"35","category_name":"长途汽车站","address":"上海浦东新区民生路1号"},{"poiid":"B2094757D069A2F84899","title":"小绍兴(民生路店)","lon":"121.54031","lat":"31.24367","category":"68","category_name":"快餐厅","address":"浦东新区浦东大道1588号(近民生路)"},{"poiid":"B2094654DA68ABFB419A","title":"凌三小区","lon":"121.54348","lat":"31.24676","category":"47","category_name":"住宅区","address":"上海浦东大道1695弄"},{"poiid":"B2094757D66BA3F84793","title":"食知味龙虾馆 栖山路店","lon":"121.54153382439","lat":"31.242334441884","category":"68","category_name":"快餐厅","address":"浦东新区栖山路36号(近民生路)"},{"poiid":"B2094655D268A4F4439C","title":"凌二小区","lon":"121.54249","lat":"31.24584","category":"47","category_name":"住宅区","address":"浦东大道1623弄1-33号"},{"poiid":"B2094654DA68ABFB429C","title":"君豪宾馆","lon":"121.54319","lat":"31.24625","category":"250","category_name":"公园户外","address":"上海市浦东新区浦东大道1623弄25号(近夹浦路)"},{"poiid":"B2094654DA68ABFB479B","title":"凌一小区","lon":"121.54119","lat":"31.245237","category":"47","category_name":"住宅区","address":"浦东大道1615弄8号"},{"poiid":"B2094757D468A7F44099","title":"都市庄园苏北农家菜","lon":"121.54203","lat":"31.2445","category":"87","category_name":"特色／地方风味餐厅","address":"浦东新区浦东大道1642号(近民生路)"},{"poiid":"B2094654DA68AAFC409A","title":"旭辉雅苑","lon":"121.54498","lat":"31.244194","category":"47","category_name":"住宅区","address":"上海市浦东新区巨野路59号"},{"poiid":"B2094750D76EA4FF4693","title":"红宝石(浦东大道店)","lon":"121.539","lat":"31.2434","category":"67","category_name":"甜品店","address":"浦东新区浦东大道1574号(近民生路)"},{"poiid":"B2094757D168A0F44693","title":"清风人家(桃林店)","lon":"121.544568","lat":"31.241527","category":"247","category_name":"餐饮美食","address":"上海浦东新区桃林路465号(近沈家弄路)"},{"poiid":"B2094757D068A4F4449F","title":"全家便利(苗圃路店)","lon":"121.544275","lat":"31.246819","category":"117","category_name":"便民商店/便利店","address":"上海浦东新区浦东大道1578号(近苗圃路)"},{"poiid":"B2094750D664A5F9479E","title":"一品粥坊","lon":"121.54232","lat":"31.24515","category":"68","category_name":"快餐厅","address":"浦东新区浦东大道1625号(近民生路)"},{"poiid":"B2094757D16FA1FD4099","title":"粥道坊","lon":"121.545146738","lat":"31.2458596332","category":"76","category_name":"上海菜","address":"浦东新区浦东大道1662号(巨野路口)"},{"poiid":"B2094757D169A2F8469E","title":"老昌兴苏州汤包馆","lon":"121.542589439","lat":"31.2448117721","category":"247","category_name":"餐饮美食","address":"上海浦东新区浦东大道1662号"},{"poiid":"B2094753D564A2FA479D","title":"金桥国际商业广场","lon":"121.542228","lat":"31.24687","category":"500","category_name":"未知分类","address":"上海市 张扬路3611弄"},{"poiid":"B2094654DA68ABF4469B","title":"泾华新村","lon":"121.54409","lat":"31.245041","category":"47","category_name":"住宅区","address":"浦东大道1700弄1-35号"},{"poiid":"B2094654DA68ABFB459A","title":"国际顶尖银钻店","lon":"121.54224","lat":"31.24508","category":"148","category_name":"美容美发店","address":""},{"poiid":"B2094654DA68ABFB4199","title":"国大药房北洋泾店","lon":"121.54433","lat":"31.24603","category":"162","category_name":"医院","address":"浦东大道1689号"},{"poiid":"B2094655D268A6F5499F","title":"上海凤氏靓汤馆","lon":"121.54513","lat":"31.24335","category":"76","category_name":"上海菜","address":"浦东新区栖山路147号(近巨野路)"},{"poiid":"B2094752D16AABFE4998","title":"泰妃阁（南京东路店）","lon":"121.545144","lat":"31.243208","category":"247","category_name":"餐饮美食","address":"南京东路720号第一食品4楼(近贵州路)"},{"poiid":"B2094654DA68ABF8429D","title":"宜嘉商务楼","lon":"121.546","lat":"31.2445","category":"46","category_name":"楼宇","address":"朝阳区国贸桥南约500米"},{"poiid":"B2094655D26DA1FF489D","title":"上海财经大学科技园招商中心","lon":"121.54256","lat":"31.24448","category":"45","category_name":"产业园区","address":"巨野路22号申城公寓2308室"},{"poiid":"B2094757D66AA4FC469C","title":"邦邦香","lon":"121.541895054","lat":"31.244687793","category":"71","category_name":"四川菜","address":"浦东新区浦东大道1624号(近上海海事大学)"},{"poiid":"B2094654DA68ABF4409D","title":"发展大厦(浦东大道)","lon":"121.54166","lat":"31.24421","category":"46","category_name":"楼宇","address":"浦东大道1616"},{"poiid":"B2094654DA68ABF5499E","title":"巨野小区","lon":"121.54241","lat":"31.243601","category":"47","category_name":"住宅区","address":"巨野路60弄1-17"},{"poiid":"B2094757D66EA1FE4593","title":"苏北农家菜","lon":"121.542031","lat":"31.244502","category":"247","category_name":"餐饮美食","address":"上海浦东大道1642号"},{"poiid":"B2094757D16CA2FF489C","title":"广东祥记蚝庄(栖山路店)","lon":"121.5416","lat":"31.24159","category":"68","category_name":"快餐厅","address":"浦东新区栖山路12号(近民生路)"},{"poiid":"B2094654DB6BABF44799","title":"新亚大包 栖山路店","lon":"121.542346054","lat":"31.242687793","category":"68","category_name":"快餐厅","address":"浦东新区栖山路107号(近巨野路)"},{"poiid":"B2094654DA68ABFA4699","title":"枫叶速8酒店浦东店","lon":"121.54552","lat":"31.2426","category":"216","category_name":"经济型连锁酒店","address":"上海市浦东新区苗圃路151号(近浦东大道)"},{"poiid":"B2094655D26BA2F54799","title":"浦东大道民生路","lon":"121.5395","lat":"31.24371","category":"38","category_name":"公交车站","address":""}]