[{"poiid":"B2094757D06FA6FC4992","title":"Yasmine's Steakhouse and Butcher Shop","lon":"121.5744174","lat":"31.235780929","category":"94","category_name":"西餐厅","address":"浦东新区碧云路178号(近白桦路)"},{"poiid":"B2094757D06FA5F84992","title":"汉舍中国菜馆(丁香路店)","lon":"121.56411","lat":"31.22915","category":"71","category_name":"四川菜","address":"浦东新区丁香路1399弄30号3楼(近紫槐路)"},{"poiid":"B2094757D06FA2FF499C","title":"光头烧烤吧(德平路店)","lon":"121.56891","lat":"31.24135","category":"68","category_name":"快餐厅","address":"浦东新区德平路1072号(近灵山路)"},{"poiid":"B2094757D06FA7F4479C","title":"仁恒河滨城","lon":"121.5674189","lat":"31.227980431","category":"47","category_name":"住宅区","address":"奉贤区南桥南奉公路8889号"},{"poiid":"B2094757D568A6F9479E","title":"仁恒河滨城三期","lon":"121.574256","lat":"31.234036","category":"47","category_name":"住宅区","address":"上海市浦东新区丁香路1299弄"},{"poiid":"B2094757D069A5F54793","title":"上海市实验学校东校","lon":"121.5734","lat":"31.2331","category":"253","category_name":"校园生活","address":"浦东新区黑松路251号(近碧云路)"},{"poiid":"B2094757D06AA4F5479A","title":"德平路灵山路","lon":"121.569121","lat":"31.2407548","category":"500","category_name":"未知分类","address":"上海德平路灵山路"},{"poiid":"B2094654DA6AA1FA4192","title":"世茂湖滨花园(明月路)","lon":"121.57579","lat":"31.23166","category":"47","category_name":"住宅区","address":"上海市浦东新区昌里东路333弄"},{"poiid":"B2094757D06BA5F9419F","title":"瑞亚湖滨精品酒店","lon":"121.57144497","lat":"31.224963937","category":"217","category_name":"旅馆招待所","address":"上海市浦东新区罗山路1609号"},{"poiid":"B2094757D469A3F5429C","title":"瑞亚湖滨酒店多功能厅","lon":"121.570945","lat":"31.226697","category":"76","category_name":"上海菜","address":"罗山路1609号瑞亚湖滨酒店1楼近锦绣路"},{"poiid":"B2094757D068A4F8499D","title":"普陀山海鲜大酒店(德平路店)","lon":"121.56941","lat":"31.24064","category":"88","category_name":"海鲜酒楼","address":"浦东新区德平路1141号(近灵山路)"},{"poiid":"B2094757D068ABFF459F","title":"永达东风日产4s店","lon":"121.570136","lat":"31.226448","category":"158","category_name":"汽车销售","address":"上海罗山路1447号"},{"poiid":"B2094757D068A3F5409E","title":"第九城市二期","lon":"121.56994409049","lat":"31.233744453762","category":"47","category_name":"住宅区","address":"上海浦东新区迎春路1355弄"},{"poiid":"B2094757D068AAFB4699","title":"罗山路立交桥","lon":"121.56602928","lat":"31.236537863","category":"260","category_name":"其他","address":"上海罗山路杨高中路"},{"poiid":"B2094757D068ABFA419E","title":"SPR咖啡(碧云路店)","lon":"121.57662","lat":"31.23611","category":"65","category_name":"咖啡厅","address":"浦东新区碧云路236号(白桦路口)"},{"poiid":"B2094757D569A3FB409D","title":"仁恒河滨城一期","lon":"121.566375","lat":"31.22726806","category":"47","category_name":"住宅区","address":"上海市浦东新区丁香路1599弄"},{"poiid":"B2094757D064ABFA429C","title":"进才实验小学","lon":"121.562418475","lat":"31.2299315537","category":"56","category_name":"小学","address":"上海丁香路1289号"},{"poiid":"B2094654DA69A1FA439B","title":"康氏龙虾城 德平路店","lon":"121.5691633223","lat":"31.241419821509","category":"247","category_name":"餐饮美食","address":"上海浦东新区德平路1120号(近灵山路)  "},{"poiid":"B2094655D26BA1F84892","title":"明月路黑松路","lon":"121.57388","lat":"31.23191","category":"38","category_name":"公交车站","address":""},{"poiid":"B2094655D36CA0FD459E","title":"锦绣路罗山路","lon":"121.56943","lat":"31.22644","category":"38","category_name":"公交车站","address":""},{"poiid":"B2094753D36DA5F84292","title":"茉莉西餐厅","lon":"121.57371","lat":"31.23523","category":"94","category_name":"西餐厅","address":"浦东新区碧云路178号"},{"poiid":"B2094757D06AA7F5499E","title":"东风本田汽车冠松4S","lon":"121.571006","lat":"31.226105","category":"158","category_name":"汽车销售","address":"浦东新区罗山路1589号(近锦绣路)"},{"poiid":"B2094654DB6BAAFD419D","title":"当代清水园","lon":"121.56539381496","lat":"31.236603120845","category":"47","category_name":"住宅区","address":"芳甸路77弄1-33号"},{"poiid":"B2094751D56FA2F54993","title":"海世轩公馆","lon":"121.574046","lat":"31.23931","category":"72","category_name":"广东菜","address":"浦东新区白桦路98号(近蓝天路)"},{"poiid":"B2094757D16CA7F44398","title":"水清木华","lon":"121.566","lat":"31.2308","category":"47","category_name":"住宅区","address":"浦东新区芳甸路333号水清木华会所高档内(近锦绣路)"},{"poiid":"B2094654DA6AA1FA419A","title":"上海瑞东医院(瑞金医院浦东分院)","lon":"121.57312","lat":"31.22623","category":"162","category_name":"医院","address":"浦东新区锦绣东路120"},{"poiid":"B2094757DB6DA3FD429E","title":"The Fat Olive","lon":"121.58029836","lat":"31.23690468","category":"247","category_name":"餐饮美食","address":"浦东新区碧云路688号(近蓝桉路)"},{"poiid":"B2094757D06AA3F8419D","title":"仁恒河滨城邻里之家","lon":"121.56327257","lat":"31.228929767","category":"500","category_name":"未知分类","address":"上海浦东丁香路1399弄30号"},{"poiid":"B2094757D064A2FB409E","title":"987白桦路明月路","lon":"121.57402348","lat":"31.233823534","category":"38","category_name":"公交车站","address":"上海白桦路明月路"},{"poiid":"B2094654DA6AA1FA419B","title":"云间绿地别墅","lon":"121.57873","lat":"31.22948","category":"47","category_name":"住宅区","address":"锦绣东路418弄1-296号"},{"poiid":"B2094654DA6AA7FA479B","title":"金洋十方庭","lon":"121.57382","lat":"31.234564","category":"47","category_name":"住宅区","address":"上海市浦东新区碧云路86弄"},{"poiid":"B2094654DA6AA7FA479A","title":"罗山花苑","lon":"121.57581","lat":"31.234392","category":"47","category_name":"住宅区","address":"明月路199弄1-62号"},{"poiid":"B2094753D66AA7FB449D","title":"上外贤达","lon":"121.569557","lat":"31.230854","category":"500","category_name":"未知分类","address":"上海市 上海市崇明县陈家镇东滩大道"},{"poiid":"B2094757D065A2F54798","title":"冰厂田幼儿园碧云部","lon":"121.572622","lat":"31.234514","category":"253","category_name":"校园生活","address":"上海黑松路碧云路"},{"poiid":"B2094757D06FA4F9419F","title":"香山新村东南街坊","lon":"121.57201","lat":"31.241299","category":"47","category_name":"住宅区","address":"上海灵山路1840弄 德平路1189弄"},{"poiid":"B2094757D66AA4FA4898","title":"巴厘妃艺术咖啡馆 Putri Bali Art Cafe","lon":"121.568932054","lat":"31.229242793","category":"65","category_name":"咖啡厅","address":"浦东新区柳杉路75号(近锦绣路)"},{"poiid":"B2094757D068A7FE429B","title":"肯德基 KFC (灵山店)","lon":"121.569603","lat":"31.241162","category":"68","category_name":"快餐厅","address":"浦东新区灵山路1785号(德平路灵山路)"},{"poiid":"B2094757DA6FA3FD4792","title":"达美乐比萨(碧云路店)","lon":"121.575637699997","lat":"31.2361920999999","category":"94","category_name":"西餐厅","address":"浦东新区碧云路198号(近白桦路)"},{"poiid":"B2094757D16CA0FD449E","title":"金色碧云","lon":"121.57473536","lat":"31.234373789","category":"249","category_name":"购物服务","address":"上海白桦路266弄"},{"poiid":"B2094655D26DA7F4419C","title":"吉云公寓(东门)","lon":"121.56911","lat":"31.22876","category":"47","category_name":"住宅区","address":"罗山路1502弄"},{"poiid":"B2094757D569A0FE409B","title":"星程酒店(新国际博览中心)","lon":"121.567275","lat":"31.23316","category":"216","category_name":"经济型连锁酒店","address":"罗山路1505号"},{"poiid":"B2094757D16FABFA409D","title":"城市艺术季","lon":"121.573791","lat":"31.22919","category":"500","category_name":"未知分类","address":"上海柳杉路99弄"},{"poiid":"B2094757D16FAAFC489B","title":"百度风暴KTV","lon":"121.56955719","lat":"31.235752105","category":"170","category_name":"KTV","address":"上海浦东新区"},{"poiid":"B2094757D66CA4FF489E","title":"碧云路黑松路","lon":"121.57351525","lat":"31.235316271","category":"500","category_name":"未知分类","address":"上海碧云路黑松路"},{"poiid":"B2094655D26FA5F84293","title":"御翠园","lon":"121.5723460187","lat":"31.223593222378","category":"47","category_name":"住宅区","address":"上海市浦东新区花木路1883弄"},{"poiid":"B2094757D569A0FE4393","title":"乐乐便利店","lon":"121.56938911","lat":"31.22841444","category":"117","category_name":"便民商店/便利店","address":"罗山路1528"},{"poiid":"B2094757D169AAF84298","title":"东方幼儿园仁恒部","lon":"121.56943897","lat":"31.226610976","category":"253","category_name":"校园生活","address":"浦东新区锦绣路50号(罗山路口)"},{"poiid":"B2094654DA6AA1FA429D","title":"时代金领金桥爱达园(碧云路)","lon":"121.5744","lat":"31.23606","category":"47","category_name":"住宅区","address":"碧云路199弄1-40号"},{"poiid":"B2094757D66CA6F54792","title":"德平路","lon":"121.57052197","lat":"31.241272319","category":"500","category_name":"未知分类","address":"上海市浦东新区张杨路"},{"poiid":"B2094655D26FA5FF449E","title":"吉云公寓","lon":"121.5685","lat":"31.228199","category":"47","category_name":"住宅区","address":"罗山路1502弄"},{"poiid":"B2094757D06FA6FC4992","title":"Yasmine's Steakhouse and Butcher Shop","lon":"121.5744174","lat":"31.235780929","category":"94","category_name":"西餐厅","address":"浦东新区碧云路178号(近白桦路)"},{"poiid":"B2094757D06FA5F84992","title":"汉舍中国菜馆(丁香路店)","lon":"121.56411","lat":"31.22915","category":"71","category_name":"四川菜","address":"浦东新区丁香路1399弄30号3楼(近紫槐路)"},{"poiid":"B2094757D06FA2FF499C","title":"光头烧烤吧(德平路店)","lon":"121.56891","lat":"31.24135","category":"68","category_name":"快餐厅","address":"浦东新区德平路1072号(近灵山路)"},{"poiid":"B2094757D06FA7F4479C","title":"仁恒河滨城","lon":"121.5674189","lat":"31.227980431","category":"47","category_name":"住宅区","address":"奉贤区南桥南奉公路8889号"},{"poiid":"B2094757D568A6F9479E","title":"仁恒河滨城三期","lon":"121.574256","lat":"31.234036","category":"47","category_name":"住宅区","address":"上海市浦东新区丁香路1299弄"},{"poiid":"B2094757D069A5F54793","title":"上海市实验学校东校","lon":"121.5734","lat":"31.2331","category":"253","category_name":"校园生活","address":"浦东新区黑松路251号(近碧云路)"},{"poiid":"B2094757D06AA4F5479A","title":"德平路灵山路","lon":"121.569121","lat":"31.2407548","category":"500","category_name":"未知分类","address":"上海德平路灵山路"},{"poiid":"B2094654DA6AA1FA4192","title":"世茂湖滨花园(明月路)","lon":"121.57579","lat":"31.23166","category":"47","category_name":"住宅区","address":"上海市浦东新区昌里东路333弄"},{"poiid":"B2094757D06BA5F9419F","title":"瑞亚湖滨精品酒店","lon":"121.57144497","lat":"31.224963937","category":"217","category_name":"旅馆招待所","address":"上海市浦东新区罗山路1609号"},{"poiid":"B2094757D469A3F5429C","title":"瑞亚湖滨酒店多功能厅","lon":"121.570945","lat":"31.226697","category":"76","category_name":"上海菜","address":"罗山路1609号瑞亚湖滨酒店1楼近锦绣路"},{"poiid":"B2094757D068A4F8499D","title":"普陀山海鲜大酒店(德平路店)","lon":"121.56941","lat":"31.24064","category":"88","category_name":"海鲜酒楼","address":"浦东新区德平路1141号(近灵山路)"},{"poiid":"B2094757D068ABFF459F","title":"永达东风日产4s店","lon":"121.570136","lat":"31.226448","category":"158","category_name":"汽车销售","address":"上海罗山路1447号"},{"poiid":"B2094757D068A3F5409E","title":"第九城市二期","lon":"121.56994409049","lat":"31.233744453762","category":"47","category_name":"住宅区","address":"上海浦东新区迎春路1355弄"},{"poiid":"B2094757D068AAFB4699","title":"罗山路立交桥","lon":"121.56602928","lat":"31.236537863","category":"260","category_name":"其他","address":"上海罗山路杨高中路"},{"poiid":"B2094757D068ABFA419E","title":"SPR咖啡(碧云路店)","lon":"121.57662","lat":"31.23611","category":"65","category_name":"咖啡厅","address":"浦东新区碧云路236号(白桦路口)"},{"poiid":"B2094757D569A3FB409D","title":"仁恒河滨城一期","lon":"121.566375","lat":"31.22726806","category":"47","category_name":"住宅区","address":"上海市浦东新区丁香路1599弄"},{"poiid":"B2094757D064ABFA429C","title":"进才实验小学","lon":"121.562418475","lat":"31.2299315537","category":"56","category_name":"小学","address":"上海丁香路1289号"},{"poiid":"B2094654DA69A1FA439B","title":"康氏龙虾城 德平路店","lon":"121.5691633223","lat":"31.241419821509","category":"247","category_name":"餐饮美食","address":"上海浦东新区德平路1120号(近灵山路)  "},{"poiid":"B2094655D26BA1F84892","title":"明月路黑松路","lon":"121.57388","lat":"31.23191","category":"38","category_name":"公交车站","address":""},{"poiid":"B2094655D36CA0FD459E","title":"锦绣路罗山路","lon":"121.56943","lat":"31.22644","category":"38","category_name":"公交车站","address":""},{"poiid":"B2094753D36DA5F84292","title":"茉莉西餐厅","lon":"121.57371","lat":"31.23523","category":"94","category_name":"西餐厅","address":"浦东新区碧云路178号"},{"poiid":"B2094757D06AA7F5499E","title":"东风本田汽车冠松4S","lon":"121.571006","lat":"31.226105","category":"158","category_name":"汽车销售","address":"浦东新区罗山路1589号(近锦绣路)"},{"poiid":"B2094654DB6BAAFD419D","title":"当代清水园","lon":"121.56539381496","lat":"31.236603120845","category":"47","category_name":"住宅区","address":"芳甸路77弄1-33号"},{"poiid":"B2094751D56FA2F54993","title":"海世轩公馆","lon":"121.574046","lat":"31.23931","category":"72","category_name":"广东菜","address":"浦东新区白桦路98号(近蓝天路)"},{"poiid":"B2094757D16CA7F44398","title":"水清木华","lon":"121.566","lat":"31.2308","category":"47","category_name":"住宅区","address":"浦东新区芳甸路333号水清木华会所高档内(近锦绣路)"},{"poiid":"B2094654DA6AA1FA419A","title":"上海瑞东医院(瑞金医院浦东分院)","lon":"121.57312","lat":"31.22623","category":"162","category_name":"医院","address":"浦东新区锦绣东路120"},{"poiid":"B2094757DB6DA3FD429E","title":"The Fat Olive","lon":"121.58029836","lat":"31.23690468","category":"247","category_name":"餐饮美食","address":"浦东新区碧云路688号(近蓝桉路)"},{"poiid":"B2094757D06AA3F8419D","title":"仁恒河滨城邻里之家","lon":"121.56327257","lat":"31.228929767","category":"500","category_name":"未知分类","address":"上海浦东丁香路1399弄30号"},{"poiid":"B2094757D064A2FB409E","title":"987白桦路明月路","lon":"121.57402348","lat":"31.233823534","category":"38","category_name":"公交车站","address":"上海白桦路明月路"},{"poiid":"B2094654DA6AA1FA419B","title":"云间绿地别墅","lon":"121.57873","lat":"31.22948","category":"47","category_name":"住宅区","address":"锦绣东路418弄1-296号"},{"poiid":"B2094654DA6AA7FA479B","title":"金洋十方庭","lon":"121.57382","lat":"31.234564","category":"47","category_name":"住宅区","address":"上海市浦东新区碧云路86弄"},{"poiid":"B2094654DA6AA7FA479A","title":"罗山花苑","lon":"121.57581","lat":"31.234392","category":"47","category_name":"住宅区","address":"明月路199弄1-62号"},{"poiid":"B2094753D66AA7FB449D","title":"上外贤达","lon":"121.569557","lat":"31.230854","category":"500","category_name":"未知分类","address":"上海市 上海市崇明县陈家镇东滩大道"},{"poiid":"B2094757D065A2F54798","title":"冰厂田幼儿园碧云部","lon":"121.572622","lat":"31.234514","category":"253","category_name":"校园生活","address":"上海黑松路碧云路"},{"poiid":"B2094757D06FA4F9419F","title":"香山新村东南街坊","lon":"121.57201","lat":"31.241299","category":"47","category_name":"住宅区","address":"上海灵山路1840弄 德平路1189弄"},{"poiid":"B2094757D66AA4FA4898","title":"巴厘妃艺术咖啡馆 Putri Bali Art Cafe","lon":"121.568932054","lat":"31.229242793","category":"65","category_name":"咖啡厅","address":"浦东新区柳杉路75号(近锦绣路)"},{"poiid":"B2094757D068A7FE429B","title":"肯德基 KFC (灵山店)","lon":"121.569603","lat":"31.241162","category":"68","category_name":"快餐厅","address":"浦东新区灵山路1785号(德平路灵山路)"},{"poiid":"B2094757DA6FA3FD4792","title":"达美乐比萨(碧云路店)","lon":"121.575637699997","lat":"31.2361920999999","category":"94","category_name":"西餐厅","address":"浦东新区碧云路198号(近白桦路)"},{"poiid":"B2094757D16CA0FD449E","title":"金色碧云","lon":"121.57473536","lat":"31.234373789","category":"249","category_name":"购物服务","address":"上海白桦路266弄"},{"poiid":"B2094655D26DA7F4419C","title":"吉云公寓(东门)","lon":"121.56911","lat":"31.22876","category":"47","category_name":"住宅区","address":"罗山路1502弄"},{"poiid":"B2094757D569A0FE409B","title":"星程酒店(新国际博览中心)","lon":"121.567275","lat":"31.23316","category":"216","category_name":"经济型连锁酒店","address":"罗山路1505号"},{"poiid":"B2094757D16FABFA409D","title":"城市艺术季","lon":"121.573791","lat":"31.22919","category":"500","category_name":"未知分类","address":"上海柳杉路99弄"},{"poiid":"B2094757D16FAAFC489B","title":"百度风暴KTV","lon":"121.56955719","lat":"31.235752105","category":"170","category_name":"KTV","address":"上海浦东新区"},{"poiid":"B2094757D66CA4FF489E","title":"碧云路黑松路","lon":"121.57351525","lat":"31.235316271","category":"500","category_name":"未知分类","address":"上海碧云路黑松路"},{"poiid":"B2094655D26FA5F84293","title":"御翠园","lon":"121.5723460187","lat":"31.223593222378","category":"47","category_name":"住宅区","address":"上海市浦东新区花木路1883弄"},{"poiid":"B2094757D569A0FE4393","title":"乐乐便利店","lon":"121.56938911","lat":"31.22841444","category":"117","category_name":"便民商店/便利店","address":"罗山路1528"},{"poiid":"B2094757D169AAF84298","title":"东方幼儿园仁恒部","lon":"121.56943897","lat":"31.226610976","category":"253","category_name":"校园生活","address":"浦东新区锦绣路50号(罗山路口)"},{"poiid":"B2094654DA6AA1FA429D","title":"时代金领金桥爱达园(碧云路)","lon":"121.5744","lat":"31.23606","category":"47","category_name":"住宅区","address":"碧云路199弄1-40号"},{"poiid":"B2094757D66CA6F54792","title":"德平路","lon":"121.57052197","lat":"31.241272319","category":"500","category_name":"未知分类","address":"上海市浦东新区张杨路"},{"poiid":"B2094655D26FA5FF449E","title":"吉云公寓","lon":"121.5685","lat":"31.228199","category":"47","category_name":"住宅区","address":"罗山路1502弄"},{"poiid":"B2094757D06FA6FC4992","title":"Yasmine's Steakhouse and Butcher Shop","lon":"121.5744174","lat":"31.235780929","category":"94","category_name":"西餐厅","address":"浦东新区碧云路178号(近白桦路)"},{"poiid":"B2094757D06FA5F84992","title":"汉舍中国菜馆(丁香路店)","lon":"121.56411","lat":"31.22915","category":"71","category_name":"四川菜","address":"浦东新区丁香路1399弄30号3楼(近紫槐路)"},{"poiid":"B2094757D06FA2FF499C","title":"光头烧烤吧(德平路店)","lon":"121.56891","lat":"31.24135","category":"68","category_name":"快餐厅","address":"浦东新区德平路1072号(近灵山路)"},{"poiid":"B2094757D06FA7F4479C","title":"仁恒河滨城","lon":"121.5674189","lat":"31.227980431","category":"47","category_name":"住宅区","address":"奉贤区南桥南奉公路8889号"},{"poiid":"B2094757D568A6F9479E","title":"仁恒河滨城三期","lon":"121.574256","lat":"31.234036","category":"47","category_name":"住宅区","address":"上海市浦东新区丁香路1299弄"},{"poiid":"B2094757D069A5F54793","title":"上海市实验学校东校","lon":"121.5734","lat":"31.2331","category":"253","category_name":"校园生活","address":"浦东新区黑松路251号(近碧云路)"},{"poiid":"B2094757D06AA4F5479A","title":"德平路灵山路","lon":"121.569121","lat":"31.2407548","category":"500","category_name":"未知分类","address":"上海德平路灵山路"},{"poiid":"B2094654DA6AA1FA4192","title":"世茂湖滨花园(明月路)","lon":"121.57579","lat":"31.23166","category":"47","category_name":"住宅区","address":"上海市浦东新区昌里东路333弄"},{"poiid":"B2094757D06BA5F9419F","title":"瑞亚湖滨精品酒店","lon":"121.57144497","lat":"31.224963937","category":"217","category_name":"旅馆招待所","address":"上海市浦东新区罗山路1609号"},{"poiid":"B2094757D469A3F5429C","title":"瑞亚湖滨酒店多功能厅","lon":"121.570945","lat":"31.226697","category":"76","category_name":"上海菜","address":"罗山路1609号瑞亚湖滨酒店1楼近锦绣路"},{"poiid":"B2094757D068A4F8499D","title":"普陀山海鲜大酒店(德平路店)","lon":"121.56941","lat":"31.24064","category":"88","category_name":"海鲜酒楼","address":"浦东新区德平路1141号(近灵山路)"},{"poiid":"B2094757D068ABFF459F","title":"永达东风日产4s店","lon":"121.570136","lat":"31.226448","category":"158","category_name":"汽车销售","address":"上海罗山路1447号"},{"poiid":"B2094757D068A3F5409E","title":"第九城市二期","lon":"121.56994409049","lat":"31.233744453762","category":"47","category_name":"住宅区","address":"上海浦东新区迎春路1355弄"},{"poiid":"B2094757D068AAFB4699","title":"罗山路立交桥","lon":"121.56602928","lat":"31.236537863","category":"260","category_name":"其他","address":"上海罗山路杨高中路"},{"poiid":"B2094757D068ABFA419E","title":"SPR咖啡(碧云路店)","lon":"121.57662","lat":"31.23611","category":"65","category_name":"咖啡厅","address":"浦东新区碧云路236号(白桦路口)"},{"poiid":"B2094757D569A3FB409D","title":"仁恒河滨城一期","lon":"121.566375","lat":"31.22726806","category":"47","category_name":"住宅区","address":"上海市浦东新区丁香路1599弄"},{"poiid":"B2094757D064ABFA429C","title":"进才实验小学","lon":"121.562418475","lat":"31.2299315537","category":"56","category_name":"小学","address":"上海丁香路1289号"},{"poiid":"B2094654DA69A1FA439B","title":"康氏龙虾城 德平路店","lon":"121.5691633223","lat":"31.241419821509","category":"247","category_name":"餐饮美食","address":"上海浦东新区德平路1120号(近灵山路)  "},{"poiid":"B2094655D26BA1F84892","title":"明月路黑松路","lon":"121.57388","lat":"31.23191","category":"38","category_name":"公交车站","address":""},{"poiid":"B2094655D36CA0FD459E","title":"锦绣路罗山路","lon":"121.56943","lat":"31.22644","category":"38","category_name":"公交车站","address":""},{"poiid":"B2094753D36DA5F84292","title":"茉莉西餐厅","lon":"121.57371","lat":"31.23523","category":"94","category_name":"西餐厅","address":"浦东新区碧云路178号"},{"poiid":"B2094757D06AA7F5499E","title":"东风本田汽车冠松4S","lon":"121.571006","lat":"31.226105","category":"158","category_name":"汽车销售","address":"浦东新区罗山路1589号(近锦绣路)"},{"poiid":"B2094654DB6BAAFD419D","title":"当代清水园","lon":"121.56539381496","lat":"31.236603120845","category":"47","category_name":"住宅区","address":"芳甸路77弄1-33号"},{"poiid":"B2094751D56FA2F54993","title":"海世轩公馆","lon":"121.574046","lat":"31.23931","category":"72","category_name":"广东菜","address":"浦东新区白桦路98号(近蓝天路)"},{"poiid":"B2094757D16CA7F44398","title":"水清木华","lon":"121.566","lat":"31.2308","category":"47","category_name":"住宅区","address":"浦东新区芳甸路333号水清木华会所高档内(近锦绣路)"},{"poiid":"B2094654DA6AA1FA419A","title":"上海瑞东医院(瑞金医院浦东分院)","lon":"121.57312","lat":"31.22623","category":"162","category_name":"医院","address":"浦东新区锦绣东路120"},{"poiid":"B2094757DB6DA3FD429E","title":"The Fat Olive","lon":"121.58029836","lat":"31.23690468","category":"247","category_name":"餐饮美食","address":"浦东新区碧云路688号(近蓝桉路)"},{"poiid":"B2094757D06AA3F8419D","title":"仁恒河滨城邻里之家","lon":"121.56327257","lat":"31.228929767","category":"500","category_name":"未知分类","address":"上海浦东丁香路1399弄30号"},{"poiid":"B2094757D064A2FB409E","title":"987白桦路明月路","lon":"121.57402348","lat":"31.233823534","category":"38","category_name":"公交车站","address":"上海白桦路明月路"},{"poiid":"B2094654DA6AA1FA419B","title":"云间绿地别墅","lon":"121.57873","lat":"31.22948","category":"47","category_name":"住宅区","address":"锦绣东路418弄1-296号"},{"poiid":"B2094654DA6AA7FA479B","title":"金洋十方庭","lon":"121.57382","lat":"31.234564","category":"47","category_name":"住宅区","address":"上海市浦东新区碧云路86弄"},{"poiid":"B2094654DA6AA7FA479A","title":"罗山花苑","lon":"121.57581","lat":"31.234392","category":"47","category_name":"住宅区","address":"明月路199弄1-62号"},{"poiid":"B2094753D66AA7FB449D","title":"上外贤达","lon":"121.569557","lat":"31.230854","category":"500","category_name":"未知分类","address":"上海市 上海市崇明县陈家镇东滩大道"},{"poiid":"B2094757D065A2F54798","title":"冰厂田幼儿园碧云部","lon":"121.572622","lat":"31.234514","category":"253","category_name":"校园生活","address":"上海黑松路碧云路"},{"poiid":"B2094757D06FA4F9419F","title":"香山新村东南街坊","lon":"121.57201","lat":"31.241299","category":"47","category_name":"住宅区","address":"上海灵山路1840弄 德平路1189弄"},{"poiid":"B2094757D66AA4FA4898","title":"巴厘妃艺术咖啡馆 Putri Bali Art Cafe","lon":"121.568932054","lat":"31.229242793","category":"65","category_name":"咖啡厅","address":"浦东新区柳杉路75号(近锦绣路)"},{"poiid":"B2094757D068A7FE429B","title":"肯德基 KFC (灵山店)","lon":"121.569603","lat":"31.241162","category":"68","category_name":"快餐厅","address":"浦东新区灵山路1785号(德平路灵山路)"},{"poiid":"B2094757DA6FA3FD4792","title":"达美乐比萨(碧云路店)","lon":"121.575637699997","lat":"31.2361920999999","category":"94","category_name":"西餐厅","address":"浦东新区碧云路198号(近白桦路)"},{"poiid":"B2094757D16CA0FD449E","title":"金色碧云","lon":"121.57473536","lat":"31.234373789","category":"249","category_name":"购物服务","address":"上海白桦路266弄"},{"poiid":"B2094655D26DA7F4419C","title":"吉云公寓(东门)","lon":"121.56911","lat":"31.22876","category":"47","category_name":"住宅区","address":"罗山路1502弄"},{"poiid":"B2094757D569A0FE409B","title":"星程酒店(新国际博览中心)","lon":"121.567275","lat":"31.23316","category":"216","category_name":"经济型连锁酒店","address":"罗山路1505号"},{"poiid":"B2094757D16FABFA409D","title":"城市艺术季","lon":"121.573791","lat":"31.22919","category":"500","category_name":"未知分类","address":"上海柳杉路99弄"},{"poiid":"B2094757D16FAAFC489B","title":"百度风暴KTV","lon":"121.56955719","lat":"31.235752105","category":"170","category_name":"KTV","address":"上海浦东新区"},{"poiid":"B2094757D66CA4FF489E","title":"碧云路黑松路","lon":"121.57351525","lat":"31.235316271","category":"500","category_name":"未知分类","address":"上海碧云路黑松路"},{"poiid":"B2094655D26FA5F84293","title":"御翠园","lon":"121.5723460187","lat":"31.223593222378","category":"47","category_name":"住宅区","address":"上海市浦东新区花木路1883弄"},{"poiid":"B2094757D569A0FE4393","title":"乐乐便利店","lon":"121.56938911","lat":"31.22841444","category":"117","category_name":"便民商店/便利店","address":"罗山路1528"},{"poiid":"B2094757D169AAF84298","title":"东方幼儿园仁恒部","lon":"121.56943897","lat":"31.226610976","category":"253","category_name":"校园生活","address":"浦东新区锦绣路50号(罗山路口)"},{"poiid":"B2094654DA6AA1FA429D","title":"时代金领金桥爱达园(碧云路)","lon":"121.5744","lat":"31.23606","category":"47","category_name":"住宅区","address":"碧云路199弄1-40号"},{"poiid":"B2094757D66CA6F54792","title":"德平路","lon":"121.57052197","lat":"31.241272319","category":"500","category_name":"未知分类","address":"上海市浦东新区张杨路"},{"poiid":"B2094655D26FA5FF449E","title":"吉云公寓","lon":"121.5685","lat":"31.228199","category":"47","category_name":"住宅区","address":"罗山路1502弄"},{"poiid":"B2094757D06FA6FC4992","title":"Yasmine's Steakhouse and Butcher Shop","lon":"121.5744174","lat":"31.235780929","category":"94","category_name":"西餐厅","address":"浦东新区碧云路178号(近白桦路)"},{"poiid":"B2094757D06FA5F84992","title":"汉舍中国菜馆(丁香路店)","lon":"121.56411","lat":"31.22915","category":"71","category_name":"四川菜","address":"浦东新区丁香路1399弄30号3楼(近紫槐路)"},{"poiid":"B2094757D06FA2FF499C","title":"光头烧烤吧(德平路店)","lon":"121.56891","lat":"31.24135","category":"68","category_name":"快餐厅","address":"浦东新区德平路1072号(近灵山路)"},{"poiid":"B2094757D06FA7F4479C","title":"仁恒河滨城","lon":"121.5674189","lat":"31.227980431","category":"47","category_name":"住宅区","address":"奉贤区南桥南奉公路8889号"},{"poiid":"B2094757D568A6F9479E","title":"仁恒河滨城三期","lon":"121.574256","lat":"31.234036","category":"47","category_name":"住宅区","address":"上海市浦东新区丁香路1299弄"},{"poiid":"B2094757D069A5F54793","title":"上海市实验学校东校","lon":"121.5734","lat":"31.2331","category":"253","category_name":"校园生活","address":"浦东新区黑松路251号(近碧云路)"},{"poiid":"B2094757D06AA4F5479A","title":"德平路灵山路","lon":"121.569121","lat":"31.2407548","category":"500","category_name":"未知分类","address":"上海德平路灵山路"},{"poiid":"B2094654DA6AA1FA4192","title":"世茂湖滨花园(明月路)","lon":"121.57579","lat":"31.23166","category":"47","category_name":"住宅区","address":"上海市浦东新区昌里东路333弄"},{"poiid":"B2094757D06BA5F9419F","title":"瑞亚湖滨精品酒店","lon":"121.57144497","lat":"31.224963937","category":"217","category_name":"旅馆招待所","address":"上海市浦东新区罗山路1609号"},{"poiid":"B2094757D469A3F5429C","title":"瑞亚湖滨酒店多功能厅","lon":"121.570945","lat":"31.226697","category":"76","category_name":"上海菜","address":"罗山路1609号瑞亚湖滨酒店1楼近锦绣路"},{"poiid":"B2094757D068A4F8499D","title":"普陀山海鲜大酒店(德平路店)","lon":"121.56941","lat":"31.24064","category":"88","category_name":"海鲜酒楼","address":"浦东新区德平路1141号(近灵山路)"},{"poiid":"B2094757D068ABFF459F","title":"永达东风日产4s店","lon":"121.570136","lat":"31.226448","category":"158","category_name":"汽车销售","address":"上海罗山路1447号"},{"poiid":"B2094757D068A3F5409E","title":"第九城市二期","lon":"121.56994409049","lat":"31.233744453762","category":"47","category_name":"住宅区","address":"上海浦东新区迎春路1355弄"},{"poiid":"B2094757D068AAFB4699","title":"罗山路立交桥","lon":"121.56602928","lat":"31.236537863","category":"260","category_name":"其他","address":"上海罗山路杨高中路"},{"poiid":"B2094757D068ABFA419E","title":"SPR咖啡(碧云路店)","lon":"121.57662","lat":"31.23611","category":"65","category_name":"咖啡厅","address":"浦东新区碧云路236号(白桦路口)"},{"poiid":"B2094757D569A3FB409D","title":"仁恒河滨城一期","lon":"121.566375","lat":"31.22726806","category":"47","category_name":"住宅区","address":"上海市浦东新区丁香路1599弄"},{"poiid":"B2094757D064ABFA429C","title":"进才实验小学","lon":"121.562418475","lat":"31.2299315537","category":"56","category_name":"小学","address":"上海丁香路1289号"},{"poiid":"B2094654DA69A1FA439B","title":"康氏龙虾城 德平路店","lon":"121.5691633223","lat":"31.241419821509","category":"247","category_name":"餐饮美食","address":"上海浦东新区德平路1120号(近灵山路)  "},{"poiid":"B2094655D26BA1F84892","title":"明月路黑松路","lon":"121.57388","lat":"31.23191","category":"38","category_name":"公交车站","address":""},{"poiid":"B2094655D36CA0FD459E","title":"锦绣路罗山路","lon":"121.56943","lat":"31.22644","category":"38","category_name":"公交车站","address":""},{"poiid":"B2094753D36DA5F84292","title":"茉莉西餐厅","lon":"121.57371","lat":"31.23523","category":"94","category_name":"西餐厅","address":"浦东新区碧云路178号"},{"poiid":"B2094757D06AA7F5499E","title":"东风本田汽车冠松4S","lon":"121.571006","lat":"31.226105","category":"158","category_name":"汽车销售","address":"浦东新区罗山路1589号(近锦绣路)"},{"poiid":"B2094654DB6BAAFD419D","title":"当代清水园","lon":"121.56539381496","lat":"31.236603120845","category":"47","category_name":"住宅区","address":"芳甸路77弄1-33号"},{"poiid":"B2094751D56FA2F54993","title":"海世轩公馆","lon":"121.574046","lat":"31.23931","category":"72","category_name":"广东菜","address":"浦东新区白桦路98号(近蓝天路)"},{"poiid":"B2094757D16CA7F44398","title":"水清木华","lon":"121.566","lat":"31.2308","category":"47","category_name":"住宅区","address":"浦东新区芳甸路333号水清木华会所高档内(近锦绣路)"},{"poiid":"B2094654DA6AA1FA419A","title":"上海瑞东医院(瑞金医院浦东分院)","lon":"121.57312","lat":"31.22623","category":"162","category_name":"医院","address":"浦东新区锦绣东路120"},{"poiid":"B2094757DB6DA3FD429E","title":"The Fat Olive","lon":"121.58029836","lat":"31.23690468","category":"247","category_name":"餐饮美食","address":"浦东新区碧云路688号(近蓝桉路)"},{"poiid":"B2094757D06AA3F8419D","title":"仁恒河滨城邻里之家","lon":"121.56327257","lat":"31.228929767","category":"500","category_name":"未知分类","address":"上海浦东丁香路1399弄30号"},{"poiid":"B2094757D064A2FB409E","title":"987白桦路明月路","lon":"121.57402348","lat":"31.233823534","category":"38","category_name":"公交车站","address":"上海白桦路明月路"},{"poiid":"B2094654DA6AA1FA419B","title":"云间绿地别墅","lon":"121.57873","lat":"31.22948","category":"47","category_name":"住宅区","address":"锦绣东路418弄1-296号"},{"poiid":"B2094654DA6AA7FA479B","title":"金洋十方庭","lon":"121.57382","lat":"31.234564","category":"47","category_name":"住宅区","address":"上海市浦东新区碧云路86弄"},{"poiid":"B2094654DA6AA7FA479A","title":"罗山花苑","lon":"121.57581","lat":"31.234392","category":"47","category_name":"住宅区","address":"明月路199弄1-62号"},{"poiid":"B2094753D66AA7FB449D","title":"上外贤达","lon":"121.569557","lat":"31.230854","category":"500","category_name":"未知分类","address":"上海市 上海市崇明县陈家镇东滩大道"},{"poiid":"B2094757D065A2F54798","title":"冰厂田幼儿园碧云部","lon":"121.572622","lat":"31.234514","category":"253","category_name":"校园生活","address":"上海黑松路碧云路"},{"poiid":"B2094757D06FA4F9419F","title":"香山新村东南街坊","lon":"121.57201","lat":"31.241299","category":"47","category_name":"住宅区","address":"上海灵山路1840弄 德平路1189弄"},{"poiid":"B2094757D66AA4FA4898","title":"巴厘妃艺术咖啡馆 Putri Bali Art Cafe","lon":"121.568932054","lat":"31.229242793","category":"65","category_name":"咖啡厅","address":"浦东新区柳杉路75号(近锦绣路)"},{"poiid":"B2094757D068A7FE429B","title":"肯德基 KFC (灵山店)","lon":"121.569603","lat":"31.241162","category":"68","category_name":"快餐厅","address":"浦东新区灵山路1785号(德平路灵山路)"},{"poiid":"B2094757DA6FA3FD4792","title":"达美乐比萨(碧云路店)","lon":"121.575637699997","lat":"31.2361920999999","category":"94","category_name":"西餐厅","address":"浦东新区碧云路198号(近白桦路)"},{"poiid":"B2094757D16CA0FD449E","title":"金色碧云","lon":"121.57473536","lat":"31.234373789","category":"249","category_name":"购物服务","address":"上海白桦路266弄"},{"poiid":"B2094655D26DA7F4419C","title":"吉云公寓(东门)","lon":"121.56911","lat":"31.22876","category":"47","category_name":"住宅区","address":"罗山路1502弄"},{"poiid":"B2094757D569A0FE409B","title":"星程酒店(新国际博览中心)","lon":"121.567275","lat":"31.23316","category":"216","category_name":"经济型连锁酒店","address":"罗山路1505号"},{"poiid":"B2094757D16FABFA409D","title":"城市艺术季","lon":"121.573791","lat":"31.22919","category":"500","category_name":"未知分类","address":"上海柳杉路99弄"},{"poiid":"B2094757D16FAAFC489B","title":"百度风暴KTV","lon":"121.56955719","lat":"31.235752105","category":"170","category_name":"KTV","address":"上海浦东新区"},{"poiid":"B2094757D66CA4FF489E","title":"碧云路黑松路","lon":"121.57351525","lat":"31.235316271","category":"500","category_name":"未知分类","address":"上海碧云路黑松路"},{"poiid":"B2094655D26FA5F84293","title":"御翠园","lon":"121.5723460187","lat":"31.223593222378","category":"47","category_name":"住宅区","address":"上海市浦东新区花木路1883弄"},{"poiid":"B2094757D569A0FE4393","title":"乐乐便利店","lon":"121.56938911","lat":"31.22841444","category":"117","category_name":"便民商店/便利店","address":"罗山路1528"},{"poiid":"B2094757D169AAF84298","title":"东方幼儿园仁恒部","lon":"121.56943897","lat":"31.226610976","category":"253","category_name":"校园生活","address":"浦东新区锦绣路50号(罗山路口)"},{"poiid":"B2094654DA6AA1FA429D","title":"时代金领金桥爱达园(碧云路)","lon":"121.5744","lat":"31.23606","category":"47","category_name":"住宅区","address":"碧云路199弄1-40号"},{"poiid":"B2094757D66CA6F54792","title":"德平路","lon":"121.57052197","lat":"31.241272319","category":"500","category_name":"未知分类","address":"上海市浦东新区张杨路"},{"poiid":"B2094655D26FA5FF449E","title":"吉云公寓","lon":"121.5685","lat":"31.228199","category":"47","category_name":"住宅区","address":"罗山路1502弄"}]