[{"poiid":"B2094757D06EAAFA469E","title":"东宝兴路地铁站","lon":"121.47995875","lat":"31.260103405","category":"36","category_name":"地铁站","address":"上海轨道交通 三号线 轨交东宝兴路站 轻轨 3"},{"poiid":"B2094654D56DA1F44199","title":"铭德国际广场","lon":"121.477","lat":"31.2568","category":"46","category_name":"楼宇","address":"铁西兴华南街与十马路交汇处"},{"poiid":"B2094655D36CA5F54893","title":"宝山路","lon":"121.477415364418","lat":"31.25733917149673","category":"38","category_name":"公交车站","address":"上海市闸北区"},{"poiid":"B2094655D36CA6F44492","title":"东宝兴路中兴路","lon":"121.47758","lat":"31.26081","category":"38","category_name":"公交车站","address":"上海东宝兴路中兴路"},{"poiid":"B2094655D36CA6F44493","title":"东宝兴路","lon":"121.47783","lat":"31.25832","category":"38","category_name":"公交车站","address":""},{"poiid":"B2094757D16FA3FD4899","title":"19弄(spicy lane)","lon":"121.479216103","lat":"31.2554041085","category":"75","category_name":"浙江菜","address":"虹口区西江湾路388号虹口凯德龙之梦购物中心6楼(近虹口足球场)"},{"poiid":"B2094757DB68A5F84493","title":"鮮芋仙(壹丰廣場店)","lon":"121.47922641","lat":"31.25438153","category":"500","category_name":"未知分类","address":"四川北路1363號壹丰廣場B2F"},{"poiid":"B2094757D068A0F94093","title":"市北职业高级中学","lon":"121.47814178","lat":"31.259740829","category":"500","category_name":"未知分类","address":"闸北区宝山路584号(近东宝兴路)"},{"poiid":"B2094655D26FA1FB449A","title":"三宝花苑","lon":"121.47641","lat":"31.257627","category":"47","category_name":"住宅区","address":"上海市闸北区宝山路452号"},{"poiid":"B2094655D26FA0F4479B","title":"嘉杰国际广场(西门)","lon":"121.48072","lat":"31.25928","category":"48","category_name":"楼宇大门","address":"四川北路1727弄1-10号"},{"poiid":"B2094753D469A4FE459A","title":"月星•环球港","lon":"121.478042","lat":"31.259443","category":"500","category_name":"未知分类","address":"上海市 普陀区中山北路3300号"},{"poiid":"B2094757D06AA0FD489C","title":"大桶大足浴(中兴店)","lon":"121.47759","lat":"31.25987","category":"149","category_name":"洗浴推拿场所","address":"闸北区中兴路237号(近东宝兴路)"},{"poiid":"B2094654DB69A4FD4999","title":"锦江之星(四川北路店)","lon":"121.47928","lat":"31.25902","category":"216","category_name":"经济型连锁酒店","address":"上海市虹口区东宝兴路440号(近四川北路)"},{"poiid":"B2094757D06FA3FF4292","title":"网鱼网咖(宝兴店)","lon":"121.481514","lat":"31.257693","category":"173","category_name":"游戏厅","address":"虹口区四川北路1661号凯鸿商场B1楼01-A室(近东宝兴路)"},{"poiid":"B2094757D069A2FE499F","title":"虹口区业余大学","lon":"121.479806","lat":"31.258855","category":"52","category_name":"高等院校","address":"上海东宝兴路440号"},{"poiid":"B2094757D06BA6FB409A","title":"轨道交通三号线东宝兴路站","lon":"121.481584103","lat":"31.2574371509","category":"500","category_name":"未知分类","address":"上海东宝兴路"},{"poiid":"B2094757D66DA2FD419F","title":"老李涮锅","lon":"121.4789598","lat":"31.257710956","category":"247","category_name":"餐饮美食","address":"上海同心路"},{"poiid":"B2094655D36CA5F54899","title":"宝通路","lon":"121.47661","lat":"31.25867","category":"38","category_name":"公交车站","address":"宝通路239弄"},{"poiid":"B2094757DB6FAAFF419B","title":"世纪大道地铁站","lon":"121.480201155577","lat":"31.25980006696586","category":"36","category_name":"地铁站","address":"世纪大道"},{"poiid":"B2094757D16DA3FF459E","title":"小诸烧烤","lon":"121.4803221","lat":"31.258461172","category":"247","category_name":"餐饮美食","address":"上海东宝兴路轻轨下面"},{"poiid":"B2094757D66BA3F5409B","title":"潮汕野味馆","lon":"121.477738","lat":"31.256928","category":"72","category_name":"广东菜","address":"闸北区宝通路263号(近宝山路)"},{"poiid":"B2094757D068AAF8429B","title":"全家便利(宝通店)","lon":"121.4773575","lat":"31.2570752","category":"117","category_name":"便民商店/便利店","address":"上海闸北区宝山路452号(近宝通路)"},{"poiid":"B2094757D168A5F44798","title":"世纪烧烤","lon":"121.48002","lat":"31.258313","category":"68","category_name":"快餐厅","address":"虹口区东宝兴路(近轻轨三号线东宝兴路站)"},{"poiid":"B2094654DB6BA3FA4599","title":"好德(宝山路)","lon":"121.47787","lat":"31.25802","category":"117","category_name":"便民商店/便利店","address":"宝山路501"},{"poiid":"B2094757D165ABF4459D","title":"阿英馆","lon":"121.4793805","lat":"31.258081264","category":"76","category_name":"上海菜","address":"虹口区东宝兴路428号(近轻轨3号线)"},{"poiid":"B2094655D26FA7FE4398","title":"宝山路499弄小区(西门)","lon":"121.47785","lat":"31.25791","category":"47","category_name":"住宅区","address":""},{"poiid":"B2094655D26BA4F5479D","title":"重庆鸡公煲 宝昌路店","lon":"121.477255054","lat":"31.255787793","category":"71","category_name":"四川菜","address":"闸北区宝昌路151号(近宝山路)"},{"poiid":"B2094654D56DA1FB479F","title":"中铁物资大厦","lon":"121.479","lat":"31.2586","category":"46","category_name":"楼宇","address":"上海会文路88号"},{"poiid":"B2094654D56EA2FF449F","title":"老城隍庙小吃 宝山路店","lon":"121.477736054","lat":"31.257835793","category":"68","category_name":"快餐厅","address":"闸北区宝山路393号(宝昌路口)"},{"poiid":"B2094654D56EA2F84699","title":"老炼咸肉菜饭店","lon":"121.47917","lat":"31.25921","category":"68","category_name":"快餐厅","address":"虹口区东宝兴路460号(近宝山路)"},{"poiid":"B2094655D26AA0F94193","title":"地铁东宝兴路站","lon":"121.47994","lat":"31.26011","category":"36","category_name":"地铁站","address":""},{"poiid":"B2094654D56EA2FF4698","title":"良友金伴No.450","lon":"121.47755","lat":"31.25708","category":"117","category_name":"便民商店/便利店","address":"宝通路271"},{"poiid":"B2094654D56EA2F8419F","title":"永兴幼儿园","lon":"121.47857","lat":"31.25671","category":"57","category_name":"幼儿园","address":"宝通路239弄2"},{"poiid":"B2094757D16FA4FC449B","title":"方中排档","lon":"121.47885812","lat":"31.258338169","category":"247","category_name":"餐饮美食","address":"上海方浜中路780号"},{"poiid":"B2094655D26CA0FD449D","title":"良友(宝山路)","lon":"121.47816","lat":"31.25875","category":"117","category_name":"便民商店/便利店","address":"宝山路557"},{"poiid":"B2094654D56EA2FE4699","title":"通源小区","lon":"121.47968","lat":"31.256783","category":"47","category_name":"住宅区","address":"上海闸北区宝源路209弄"},{"poiid":"B2094654D56EA1FA4499","title":"宝通公寓","lon":"121.47615","lat":"31.259264","category":"47","category_name":"住宅区","address":"上海市闸北区宝通路425号"},{"poiid":"B2094654D56EA2F8479E","title":"上海电大虹口分校分部","lon":"121.47933","lat":"31.25877","category":"52","category_name":"高等院校","address":"闸北区东宝兴路440"},{"poiid":"B2094654D56EA2FE449C","title":"申桂公寓","lon":"121.47974","lat":"31.258474","category":"47","category_name":"住宅区","address":"申桂公寓位于闸北东宝兴路418号"},{"poiid":"B2094654D56EA2FE449E","title":"小褚烧烤店","lon":"121.48049","lat":"31.25785","category":"68","category_name":"快餐厅","address":"闸北区东宝兴路轻轨二号门附近(近宝源路)"},{"poiid":"B2094654D56EA2FA459D","title":"金宝大厦","lon":"121.47983","lat":"31.260185","category":"47","category_name":"住宅区","address":"上海市虹口区宝山路623,633号"},{"poiid":"B2094757D168A4FE439C","title":"东方体育中心海上王冠","lon":"121.478882903","lat":"31.2579153609","category":"500","category_name":"未知分类","address":"上海东方体育中心"},{"poiid":"B2094654D56EA2F8469D","title":"宝山新村","lon":"121.47871","lat":"31.25851","category":"47","category_name":"住宅区","address":"东宝兴路458弄"},{"poiid":"B2094654D56EA2FA449F","title":"四川北路街道社区卫生服务中心","lon":"121.48056","lat":"31.25846","category":"162","category_name":"医院","address":"虹口区东宝兴路336号"},{"poiid":"B2094654D56EA2FF4792","title":"和馨苑","lon":"121.47897","lat":"31.256388","category":"47","category_name":"住宅区","address":"上海市闸北区宝山路463号"},{"poiid":"B2094757D164ABFE439C","title":"达人面馆","lon":"121.476017103","lat":"31.258874181","category":"68","category_name":"快餐厅","address":"闸北区宝通路402号(近中兴路)"},{"poiid":"B2094655D26AA1FC459E","title":"好再来河南拉面馆东宝兴路店","lon":"121.479","lat":"31.25936","category":"68","category_name":"快餐厅","address":"闸北区东宝兴路474号(近宝山路)"},{"poiid":"B2094752D368ABF54999","title":"1933老场坊","lon":"121.47849","lat":"31.256954","category":"500","category_name":"未知分类","address":null},{"poiid":"B2094757D065A4F4489E","title":"同心路","lon":"121.4788138","lat":"31.258141165","category":"500","category_name":"未知分类","address":"上海同心路"},{"poiid":"B2094654D56EA2F84493","title":"香辣麻辣烫","lon":"121.47882","lat":"31.25952","category":"68","category_name":"快餐厅","address":"闸北区东宝兴路480号(近宝山路)"},{"poiid":"B2094757D06EAAFA469E","title":"东宝兴路地铁站","lon":"121.47995875","lat":"31.260103405","category":"36","category_name":"地铁站","address":"上海轨道交通 三号线 轨交东宝兴路站 轻轨 3"},{"poiid":"B2094654D56DA1F44199","title":"铭德国际广场","lon":"121.477","lat":"31.2568","category":"46","category_name":"楼宇","address":"铁西兴华南街与十马路交汇处"},{"poiid":"B2094655D36CA5F54893","title":"宝山路","lon":"121.477415364418","lat":"31.25733917149673","category":"38","category_name":"公交车站","address":"上海市闸北区"},{"poiid":"B2094655D36CA6F44492","title":"东宝兴路中兴路","lon":"121.47758","lat":"31.26081","category":"38","category_name":"公交车站","address":"上海东宝兴路中兴路"},{"poiid":"B2094655D36CA6F44493","title":"东宝兴路","lon":"121.47783","lat":"31.25832","category":"38","category_name":"公交车站","address":""},{"poiid":"B2094757D16FA3FD4899","title":"19弄(spicy lane)","lon":"121.479216103","lat":"31.2554041085","category":"75","category_name":"浙江菜","address":"虹口区西江湾路388号虹口凯德龙之梦购物中心6楼(近虹口足球场)"},{"poiid":"B2094757DB68A5F84493","title":"鮮芋仙(壹丰廣場店)","lon":"121.47922641","lat":"31.25438153","category":"500","category_name":"未知分类","address":"四川北路1363號壹丰廣場B2F"},{"poiid":"B2094757D068A0F94093","title":"市北职业高级中学","lon":"121.47814178","lat":"31.259740829","category":"500","category_name":"未知分类","address":"闸北区宝山路584号(近东宝兴路)"},{"poiid":"B2094655D26FA1FB449A","title":"三宝花苑","lon":"121.47641","lat":"31.257627","category":"47","category_name":"住宅区","address":"上海市闸北区宝山路452号"},{"poiid":"B2094655D26FA0F4479B","title":"嘉杰国际广场(西门)","lon":"121.48072","lat":"31.25928","category":"48","category_name":"楼宇大门","address":"四川北路1727弄1-10号"},{"poiid":"B2094753D469A4FE459A","title":"月星•环球港","lon":"121.478042","lat":"31.259443","category":"500","category_name":"未知分类","address":"上海市 普陀区中山北路3300号"},{"poiid":"B2094757D06AA0FD489C","title":"大桶大足浴(中兴店)","lon":"121.47759","lat":"31.25987","category":"149","category_name":"洗浴推拿场所","address":"闸北区中兴路237号(近东宝兴路)"},{"poiid":"B2094654DB69A4FD4999","title":"锦江之星(四川北路店)","lon":"121.47928","lat":"31.25902","category":"216","category_name":"经济型连锁酒店","address":"上海市虹口区东宝兴路440号(近四川北路)"},{"poiid":"B2094757D06FA3FF4292","title":"网鱼网咖(宝兴店)","lon":"121.481514","lat":"31.257693","category":"173","category_name":"游戏厅","address":"虹口区四川北路1661号凯鸿商场B1楼01-A室(近东宝兴路)"},{"poiid":"B2094757D069A2FE499F","title":"虹口区业余大学","lon":"121.479806","lat":"31.258855","category":"52","category_name":"高等院校","address":"上海东宝兴路440号"},{"poiid":"B2094757D06BA6FB409A","title":"轨道交通三号线东宝兴路站","lon":"121.481584103","lat":"31.2574371509","category":"500","category_name":"未知分类","address":"上海东宝兴路"},{"poiid":"B2094757D66DA2FD419F","title":"老李涮锅","lon":"121.4789598","lat":"31.257710956","category":"247","category_name":"餐饮美食","address":"上海同心路"},{"poiid":"B2094655D36CA5F54899","title":"宝通路","lon":"121.47661","lat":"31.25867","category":"38","category_name":"公交车站","address":"宝通路239弄"},{"poiid":"B2094757DB6FAAFF419B","title":"世纪大道地铁站","lon":"121.480201155577","lat":"31.25980006696586","category":"36","category_name":"地铁站","address":"世纪大道"},{"poiid":"B2094757D16DA3FF459E","title":"小诸烧烤","lon":"121.4803221","lat":"31.258461172","category":"247","category_name":"餐饮美食","address":"上海东宝兴路轻轨下面"},{"poiid":"B2094757D66BA3F5409B","title":"潮汕野味馆","lon":"121.477738","lat":"31.256928","category":"72","category_name":"广东菜","address":"闸北区宝通路263号(近宝山路)"},{"poiid":"B2094757D068AAF8429B","title":"全家便利(宝通店)","lon":"121.4773575","lat":"31.2570752","category":"117","category_name":"便民商店/便利店","address":"上海闸北区宝山路452号(近宝通路)"},{"poiid":"B2094757D168A5F44798","title":"世纪烧烤","lon":"121.48002","lat":"31.258313","category":"68","category_name":"快餐厅","address":"虹口区东宝兴路(近轻轨三号线东宝兴路站)"},{"poiid":"B2094654DB6BA3FA4599","title":"好德(宝山路)","lon":"121.47787","lat":"31.25802","category":"117","category_name":"便民商店/便利店","address":"宝山路501"},{"poiid":"B2094757D165ABF4459D","title":"阿英馆","lon":"121.4793805","lat":"31.258081264","category":"76","category_name":"上海菜","address":"虹口区东宝兴路428号(近轻轨3号线)"},{"poiid":"B2094655D26FA7FE4398","title":"宝山路499弄小区(西门)","lon":"121.47785","lat":"31.25791","category":"47","category_name":"住宅区","address":""},{"poiid":"B2094655D26BA4F5479D","title":"重庆鸡公煲 宝昌路店","lon":"121.477255054","lat":"31.255787793","category":"71","category_name":"四川菜","address":"闸北区宝昌路151号(近宝山路)"},{"poiid":"B2094654D56DA1FB479F","title":"中铁物资大厦","lon":"121.479","lat":"31.2586","category":"46","category_name":"楼宇","address":"上海会文路88号"},{"poiid":"B2094654D56EA2FF449F","title":"老城隍庙小吃 宝山路店","lon":"121.477736054","lat":"31.257835793","category":"68","category_name":"快餐厅","address":"闸北区宝山路393号(宝昌路口)"},{"poiid":"B2094654D56EA2F84699","title":"老炼咸肉菜饭店","lon":"121.47917","lat":"31.25921","category":"68","category_name":"快餐厅","address":"虹口区东宝兴路460号(近宝山路)"},{"poiid":"B2094655D26AA0F94193","title":"地铁东宝兴路站","lon":"121.47994","lat":"31.26011","category":"36","category_name":"地铁站","address":""},{"poiid":"B2094654D56EA2FF4698","title":"良友金伴No.450","lon":"121.47755","lat":"31.25708","category":"117","category_name":"便民商店/便利店","address":"宝通路271"},{"poiid":"B2094654D56EA2F8419F","title":"永兴幼儿园","lon":"121.47857","lat":"31.25671","category":"57","category_name":"幼儿园","address":"宝通路239弄2"},{"poiid":"B2094757D16FA4FC449B","title":"方中排档","lon":"121.47885812","lat":"31.258338169","category":"247","category_name":"餐饮美食","address":"上海方浜中路780号"},{"poiid":"B2094655D26CA0FD449D","title":"良友(宝山路)","lon":"121.47816","lat":"31.25875","category":"117","category_name":"便民商店/便利店","address":"宝山路557"},{"poiid":"B2094654D56EA2FE4699","title":"通源小区","lon":"121.47968","lat":"31.256783","category":"47","category_name":"住宅区","address":"上海闸北区宝源路209弄"},{"poiid":"B2094654D56EA1FA4499","title":"宝通公寓","lon":"121.47615","lat":"31.259264","category":"47","category_name":"住宅区","address":"上海市闸北区宝通路425号"},{"poiid":"B2094654D56EA2F8479E","title":"上海电大虹口分校分部","lon":"121.47933","lat":"31.25877","category":"52","category_name":"高等院校","address":"闸北区东宝兴路440"},{"poiid":"B2094654D56EA2FE449C","title":"申桂公寓","lon":"121.47974","lat":"31.258474","category":"47","category_name":"住宅区","address":"申桂公寓位于闸北东宝兴路418号"},{"poiid":"B2094654D56EA2FE449E","title":"小褚烧烤店","lon":"121.48049","lat":"31.25785","category":"68","category_name":"快餐厅","address":"闸北区东宝兴路轻轨二号门附近(近宝源路)"},{"poiid":"B2094654D56EA2FA459D","title":"金宝大厦","lon":"121.47983","lat":"31.260185","category":"47","category_name":"住宅区","address":"上海市虹口区宝山路623,633号"},{"poiid":"B2094757D168A4FE439C","title":"东方体育中心海上王冠","lon":"121.478882903","lat":"31.2579153609","category":"500","category_name":"未知分类","address":"上海东方体育中心"},{"poiid":"B2094654D56EA2F8469D","title":"宝山新村","lon":"121.47871","lat":"31.25851","category":"47","category_name":"住宅区","address":"东宝兴路458弄"},{"poiid":"B2094654D56EA2FA449F","title":"四川北路街道社区卫生服务中心","lon":"121.48056","lat":"31.25846","category":"162","category_name":"医院","address":"虹口区东宝兴路336号"},{"poiid":"B2094654D56EA2FF4792","title":"和馨苑","lon":"121.47897","lat":"31.256388","category":"47","category_name":"住宅区","address":"上海市闸北区宝山路463号"},{"poiid":"B2094757D164ABFE439C","title":"达人面馆","lon":"121.476017103","lat":"31.258874181","category":"68","category_name":"快餐厅","address":"闸北区宝通路402号(近中兴路)"},{"poiid":"B2094655D26AA1FC459E","title":"好再来河南拉面馆东宝兴路店","lon":"121.479","lat":"31.25936","category":"68","category_name":"快餐厅","address":"闸北区东宝兴路474号(近宝山路)"},{"poiid":"B2094752D368ABF54999","title":"1933老场坊","lon":"121.47849","lat":"31.256954","category":"500","category_name":"未知分类","address":null},{"poiid":"B2094757D065A4F4489E","title":"同心路","lon":"121.4788138","lat":"31.258141165","category":"500","category_name":"未知分类","address":"上海同心路"},{"poiid":"B2094654D56EA2F84493","title":"香辣麻辣烫","lon":"121.47882","lat":"31.25952","category":"68","category_name":"快餐厅","address":"闸北区东宝兴路480号(近宝山路)"},{"poiid":"B2094757D06EAAFA469E","title":"东宝兴路地铁站","lon":"121.47995875","lat":"31.260103405","category":"36","category_name":"地铁站","address":"上海轨道交通 三号线 轨交东宝兴路站 轻轨 3"},{"poiid":"B2094654D56DA1F44199","title":"铭德国际广场","lon":"121.477","lat":"31.2568","category":"46","category_name":"楼宇","address":"铁西兴华南街与十马路交汇处"},{"poiid":"B2094655D36CA5F54893","title":"宝山路","lon":"121.477415364418","lat":"31.25733917149673","category":"38","category_name":"公交车站","address":"上海市闸北区"},{"poiid":"B2094655D36CA6F44492","title":"东宝兴路中兴路","lon":"121.47758","lat":"31.26081","category":"38","category_name":"公交车站","address":"上海东宝兴路中兴路"},{"poiid":"B2094655D36CA6F44493","title":"东宝兴路","lon":"121.47783","lat":"31.25832","category":"38","category_name":"公交车站","address":""},{"poiid":"B2094757D16FA3FD4899","title":"19弄(spicy lane)","lon":"121.479216103","lat":"31.2554041085","category":"75","category_name":"浙江菜","address":"虹口区西江湾路388号虹口凯德龙之梦购物中心6楼(近虹口足球场)"},{"poiid":"B2094757DB68A5F84493","title":"鮮芋仙(壹丰廣場店)","lon":"121.47922641","lat":"31.25438153","category":"500","category_name":"未知分类","address":"四川北路1363號壹丰廣場B2F"},{"poiid":"B2094757D068A0F94093","title":"市北职业高级中学","lon":"121.47814178","lat":"31.259740829","category":"500","category_name":"未知分类","address":"闸北区宝山路584号(近东宝兴路)"},{"poiid":"B2094655D26FA1FB449A","title":"三宝花苑","lon":"121.47641","lat":"31.257627","category":"47","category_name":"住宅区","address":"上海市闸北区宝山路452号"},{"poiid":"B2094655D26FA0F4479B","title":"嘉杰国际广场(西门)","lon":"121.48072","lat":"31.25928","category":"48","category_name":"楼宇大门","address":"四川北路1727弄1-10号"},{"poiid":"B2094753D469A4FE459A","title":"月星•环球港","lon":"121.478042","lat":"31.259443","category":"500","category_name":"未知分类","address":"上海市 普陀区中山北路3300号"},{"poiid":"B2094757D06AA0FD489C","title":"大桶大足浴(中兴店)","lon":"121.47759","lat":"31.25987","category":"149","category_name":"洗浴推拿场所","address":"闸北区中兴路237号(近东宝兴路)"},{"poiid":"B2094654DB69A4FD4999","title":"锦江之星(四川北路店)","lon":"121.47928","lat":"31.25902","category":"216","category_name":"经济型连锁酒店","address":"上海市虹口区东宝兴路440号(近四川北路)"},{"poiid":"B2094757D06FA3FF4292","title":"网鱼网咖(宝兴店)","lon":"121.481514","lat":"31.257693","category":"173","category_name":"游戏厅","address":"虹口区四川北路1661号凯鸿商场B1楼01-A室(近东宝兴路)"},{"poiid":"B2094757D069A2FE499F","title":"虹口区业余大学","lon":"121.479806","lat":"31.258855","category":"52","category_name":"高等院校","address":"上海东宝兴路440号"},{"poiid":"B2094757D06BA6FB409A","title":"轨道交通三号线东宝兴路站","lon":"121.481584103","lat":"31.2574371509","category":"500","category_name":"未知分类","address":"上海东宝兴路"},{"poiid":"B2094757D66DA2FD419F","title":"老李涮锅","lon":"121.4789598","lat":"31.257710956","category":"247","category_name":"餐饮美食","address":"上海同心路"},{"poiid":"B2094655D36CA5F54899","title":"宝通路","lon":"121.47661","lat":"31.25867","category":"38","category_name":"公交车站","address":"宝通路239弄"},{"poiid":"B2094757DB6FAAFF419B","title":"世纪大道地铁站","lon":"121.480201155577","lat":"31.25980006696586","category":"36","category_name":"地铁站","address":"世纪大道"},{"poiid":"B2094757D16DA3FF459E","title":"小诸烧烤","lon":"121.4803221","lat":"31.258461172","category":"247","category_name":"餐饮美食","address":"上海东宝兴路轻轨下面"},{"poiid":"B2094757D66BA3F5409B","title":"潮汕野味馆","lon":"121.477738","lat":"31.256928","category":"72","category_name":"广东菜","address":"闸北区宝通路263号(近宝山路)"},{"poiid":"B2094757D068AAF8429B","title":"全家便利(宝通店)","lon":"121.4773575","lat":"31.2570752","category":"117","category_name":"便民商店/便利店","address":"上海闸北区宝山路452号(近宝通路)"},{"poiid":"B2094757D168A5F44798","title":"世纪烧烤","lon":"121.48002","lat":"31.258313","category":"68","category_name":"快餐厅","address":"虹口区东宝兴路(近轻轨三号线东宝兴路站)"},{"poiid":"B2094654DB6BA3FA4599","title":"好德(宝山路)","lon":"121.47787","lat":"31.25802","category":"117","category_name":"便民商店/便利店","address":"宝山路501"},{"poiid":"B2094757D165ABF4459D","title":"阿英馆","lon":"121.4793805","lat":"31.258081264","category":"76","category_name":"上海菜","address":"虹口区东宝兴路428号(近轻轨3号线)"},{"poiid":"B2094655D26FA7FE4398","title":"宝山路499弄小区(西门)","lon":"121.47785","lat":"31.25791","category":"47","category_name":"住宅区","address":""},{"poiid":"B2094655D26BA4F5479D","title":"重庆鸡公煲 宝昌路店","lon":"121.477255054","lat":"31.255787793","category":"71","category_name":"四川菜","address":"闸北区宝昌路151号(近宝山路)"},{"poiid":"B2094654D56DA1FB479F","title":"中铁物资大厦","lon":"121.479","lat":"31.2586","category":"46","category_name":"楼宇","address":"上海会文路88号"},{"poiid":"B2094654D56EA2FF449F","title":"老城隍庙小吃 宝山路店","lon":"121.477736054","lat":"31.257835793","category":"68","category_name":"快餐厅","address":"闸北区宝山路393号(宝昌路口)"},{"poiid":"B2094654D56EA2F84699","title":"老炼咸肉菜饭店","lon":"121.47917","lat":"31.25921","category":"68","category_name":"快餐厅","address":"虹口区东宝兴路460号(近宝山路)"},{"poiid":"B2094655D26AA0F94193","title":"地铁东宝兴路站","lon":"121.47994","lat":"31.26011","category":"36","category_name":"地铁站","address":""},{"poiid":"B2094654D56EA2FF4698","title":"良友金伴No.450","lon":"121.47755","lat":"31.25708","category":"117","category_name":"便民商店/便利店","address":"宝通路271"},{"poiid":"B2094654D56EA2F8419F","title":"永兴幼儿园","lon":"121.47857","lat":"31.25671","category":"57","category_name":"幼儿园","address":"宝通路239弄2"},{"poiid":"B2094757D16FA4FC449B","title":"方中排档","lon":"121.47885812","lat":"31.258338169","category":"247","category_name":"餐饮美食","address":"上海方浜中路780号"},{"poiid":"B2094655D26CA0FD449D","title":"良友(宝山路)","lon":"121.47816","lat":"31.25875","category":"117","category_name":"便民商店/便利店","address":"宝山路557"},{"poiid":"B2094654D56EA2FE4699","title":"通源小区","lon":"121.47968","lat":"31.256783","category":"47","category_name":"住宅区","address":"上海闸北区宝源路209弄"},{"poiid":"B2094654D56EA1FA4499","title":"宝通公寓","lon":"121.47615","lat":"31.259264","category":"47","category_name":"住宅区","address":"上海市闸北区宝通路425号"},{"poiid":"B2094654D56EA2F8479E","title":"上海电大虹口分校分部","lon":"121.47933","lat":"31.25877","category":"52","category_name":"高等院校","address":"闸北区东宝兴路440"},{"poiid":"B2094654D56EA2FE449C","title":"申桂公寓","lon":"121.47974","lat":"31.258474","category":"47","category_name":"住宅区","address":"申桂公寓位于闸北东宝兴路418号"},{"poiid":"B2094654D56EA2FE449E","title":"小褚烧烤店","lon":"121.48049","lat":"31.25785","category":"68","category_name":"快餐厅","address":"闸北区东宝兴路轻轨二号门附近(近宝源路)"},{"poiid":"B2094654D56EA2FA459D","title":"金宝大厦","lon":"121.47983","lat":"31.260185","category":"47","category_name":"住宅区","address":"上海市虹口区宝山路623,633号"},{"poiid":"B2094757D168A4FE439C","title":"东方体育中心海上王冠","lon":"121.478882903","lat":"31.2579153609","category":"500","category_name":"未知分类","address":"上海东方体育中心"},{"poiid":"B2094654D56EA2F8469D","title":"宝山新村","lon":"121.47871","lat":"31.25851","category":"47","category_name":"住宅区","address":"东宝兴路458弄"},{"poiid":"B2094654D56EA2FA449F","title":"四川北路街道社区卫生服务中心","lon":"121.48056","lat":"31.25846","category":"162","category_name":"医院","address":"虹口区东宝兴路336号"},{"poiid":"B2094654D56EA2FF4792","title":"和馨苑","lon":"121.47897","lat":"31.256388","category":"47","category_name":"住宅区","address":"上海市闸北区宝山路463号"},{"poiid":"B2094757D164ABFE439C","title":"达人面馆","lon":"121.476017103","lat":"31.258874181","category":"68","category_name":"快餐厅","address":"闸北区宝通路402号(近中兴路)"},{"poiid":"B2094655D26AA1FC459E","title":"好再来河南拉面馆东宝兴路店","lon":"121.479","lat":"31.25936","category":"68","category_name":"快餐厅","address":"闸北区东宝兴路474号(近宝山路)"},{"poiid":"B2094752D368ABF54999","title":"1933老场坊","lon":"121.47849","lat":"31.256954","category":"500","category_name":"未知分类","address":null},{"poiid":"B2094757D065A4F4489E","title":"同心路","lon":"121.4788138","lat":"31.258141165","category":"500","category_name":"未知分类","address":"上海同心路"},{"poiid":"B2094654D56EA2F84493","title":"香辣麻辣烫","lon":"121.47882","lat":"31.25952","category":"68","category_name":"快餐厅","address":"闸北区东宝兴路480号(近宝山路)"},{"poiid":"B2094757D06EAAFA469E","title":"东宝兴路地铁站","lon":"121.47995875","lat":"31.260103405","category":"36","category_name":"地铁站","address":"上海轨道交通 三号线 轨交东宝兴路站 轻轨 3"},{"poiid":"B2094654D56DA1F44199","title":"铭德国际广场","lon":"121.477","lat":"31.2568","category":"46","category_name":"楼宇","address":"铁西兴华南街与十马路交汇处"},{"poiid":"B2094655D36CA5F54893","title":"宝山路","lon":"121.477415364418","lat":"31.25733917149673","category":"38","category_name":"公交车站","address":"上海市闸北区"},{"poiid":"B2094655D36CA6F44492","title":"东宝兴路中兴路","lon":"121.47758","lat":"31.26081","category":"38","category_name":"公交车站","address":"上海东宝兴路中兴路"},{"poiid":"B2094655D36CA6F44493","title":"东宝兴路","lon":"121.47783","lat":"31.25832","category":"38","category_name":"公交车站","address":""},{"poiid":"B2094757D16FA3FD4899","title":"19弄(spicy lane)","lon":"121.479216103","lat":"31.2554041085","category":"75","category_name":"浙江菜","address":"虹口区西江湾路388号虹口凯德龙之梦购物中心6楼(近虹口足球场)"},{"poiid":"B2094757DB68A5F84493","title":"鮮芋仙(壹丰廣場店)","lon":"121.47922641","lat":"31.25438153","category":"500","category_name":"未知分类","address":"四川北路1363號壹丰廣場B2F"},{"poiid":"B2094757D068A0F94093","title":"市北职业高级中学","lon":"121.47814178","lat":"31.259740829","category":"500","category_name":"未知分类","address":"闸北区宝山路584号(近东宝兴路)"},{"poiid":"B2094655D26FA1FB449A","title":"三宝花苑","lon":"121.47641","lat":"31.257627","category":"47","category_name":"住宅区","address":"上海市闸北区宝山路452号"},{"poiid":"B2094655D26FA0F4479B","title":"嘉杰国际广场(西门)","lon":"121.48072","lat":"31.25928","category":"48","category_name":"楼宇大门","address":"四川北路1727弄1-10号"},{"poiid":"B2094753D469A4FE459A","title":"月星•环球港","lon":"121.478042","lat":"31.259443","category":"500","category_name":"未知分类","address":"上海市 普陀区中山北路3300号"},{"poiid":"B2094757D06AA0FD489C","title":"大桶大足浴(中兴店)","lon":"121.47759","lat":"31.25987","category":"149","category_name":"洗浴推拿场所","address":"闸北区中兴路237号(近东宝兴路)"},{"poiid":"B2094654DB69A4FD4999","title":"锦江之星(四川北路店)","lon":"121.47928","lat":"31.25902","category":"216","category_name":"经济型连锁酒店","address":"上海市虹口区东宝兴路440号(近四川北路)"},{"poiid":"B2094757D06FA3FF4292","title":"网鱼网咖(宝兴店)","lon":"121.481514","lat":"31.257693","category":"173","category_name":"游戏厅","address":"虹口区四川北路1661号凯鸿商场B1楼01-A室(近东宝兴路)"},{"poiid":"B2094757D069A2FE499F","title":"虹口区业余大学","lon":"121.479806","lat":"31.258855","category":"52","category_name":"高等院校","address":"上海东宝兴路440号"},{"poiid":"B2094757D06BA6FB409A","title":"轨道交通三号线东宝兴路站","lon":"121.481584103","lat":"31.2574371509","category":"500","category_name":"未知分类","address":"上海东宝兴路"},{"poiid":"B2094757D66DA2FD419F","title":"老李涮锅","lon":"121.4789598","lat":"31.257710956","category":"247","category_name":"餐饮美食","address":"上海同心路"},{"poiid":"B2094655D36CA5F54899","title":"宝通路","lon":"121.47661","lat":"31.25867","category":"38","category_name":"公交车站","address":"宝通路239弄"},{"poiid":"B2094757DB6FAAFF419B","title":"世纪大道地铁站","lon":"121.480201155577","lat":"31.25980006696586","category":"36","category_name":"地铁站","address":"世纪大道"},{"poiid":"B2094757D16DA3FF459E","title":"小诸烧烤","lon":"121.4803221","lat":"31.258461172","category":"247","category_name":"餐饮美食","address":"上海东宝兴路轻轨下面"},{"poiid":"B2094757D66BA3F5409B","title":"潮汕野味馆","lon":"121.477738","lat":"31.256928","category":"72","category_name":"广东菜","address":"闸北区宝通路263号(近宝山路)"},{"poiid":"B2094757D068AAF8429B","title":"全家便利(宝通店)","lon":"121.4773575","lat":"31.2570752","category":"117","category_name":"便民商店/便利店","address":"上海闸北区宝山路452号(近宝通路)"},{"poiid":"B2094757D168A5F44798","title":"世纪烧烤","lon":"121.48002","lat":"31.258313","category":"68","category_name":"快餐厅","address":"虹口区东宝兴路(近轻轨三号线东宝兴路站)"},{"poiid":"B2094654DB6BA3FA4599","title":"好德(宝山路)","lon":"121.47787","lat":"31.25802","category":"117","category_name":"便民商店/便利店","address":"宝山路501"},{"poiid":"B2094757D165ABF4459D","title":"阿英馆","lon":"121.4793805","lat":"31.258081264","category":"76","category_name":"上海菜","address":"虹口区东宝兴路428号(近轻轨3号线)"},{"poiid":"B2094655D26FA7FE4398","title":"宝山路499弄小区(西门)","lon":"121.47785","lat":"31.25791","category":"47","category_name":"住宅区","address":""},{"poiid":"B2094655D26BA4F5479D","title":"重庆鸡公煲 宝昌路店","lon":"121.477255054","lat":"31.255787793","category":"71","category_name":"四川菜","address":"闸北区宝昌路151号(近宝山路)"},{"poiid":"B2094654D56DA1FB479F","title":"中铁物资大厦","lon":"121.479","lat":"31.2586","category":"46","category_name":"楼宇","address":"上海会文路88号"},{"poiid":"B2094654D56EA2FF449F","title":"老城隍庙小吃 宝山路店","lon":"121.477736054","lat":"31.257835793","category":"68","category_name":"快餐厅","address":"闸北区宝山路393号(宝昌路口)"},{"poiid":"B2094654D56EA2F84699","title":"老炼咸肉菜饭店","lon":"121.47917","lat":"31.25921","category":"68","category_name":"快餐厅","address":"虹口区东宝兴路460号(近宝山路)"},{"poiid":"B2094655D26AA0F94193","title":"地铁东宝兴路站","lon":"121.47994","lat":"31.26011","category":"36","category_name":"地铁站","address":""},{"poiid":"B2094654D56EA2FF4698","title":"良友金伴No.450","lon":"121.47755","lat":"31.25708","category":"117","category_name":"便民商店/便利店","address":"宝通路271"},{"poiid":"B2094654D56EA2F8419F","title":"永兴幼儿园","lon":"121.47857","lat":"31.25671","category":"57","category_name":"幼儿园","address":"宝通路239弄2"},{"poiid":"B2094757D16FA4FC449B","title":"方中排档","lon":"121.47885812","lat":"31.258338169","category":"247","category_name":"餐饮美食","address":"上海方浜中路780号"},{"poiid":"B2094655D26CA0FD449D","title":"良友(宝山路)","lon":"121.47816","lat":"31.25875","category":"117","category_name":"便民商店/便利店","address":"宝山路557"},{"poiid":"B2094654D56EA2FE4699","title":"通源小区","lon":"121.47968","lat":"31.256783","category":"47","category_name":"住宅区","address":"上海闸北区宝源路209弄"},{"poiid":"B2094654D56EA1FA4499","title":"宝通公寓","lon":"121.47615","lat":"31.259264","category":"47","category_name":"住宅区","address":"上海市闸北区宝通路425号"},{"poiid":"B2094654D56EA2F8479E","title":"上海电大虹口分校分部","lon":"121.47933","lat":"31.25877","category":"52","category_name":"高等院校","address":"闸北区东宝兴路440"},{"poiid":"B2094654D56EA2FE449C","title":"申桂公寓","lon":"121.47974","lat":"31.258474","category":"47","category_name":"住宅区","address":"申桂公寓位于闸北东宝兴路418号"},{"poiid":"B2094654D56EA2FE449E","title":"小褚烧烤店","lon":"121.48049","lat":"31.25785","category":"68","category_name":"快餐厅","address":"闸北区东宝兴路轻轨二号门附近(近宝源路)"},{"poiid":"B2094654D56EA2FA459D","title":"金宝大厦","lon":"121.47983","lat":"31.260185","category":"47","category_name":"住宅区","address":"上海市虹口区宝山路623,633号"},{"poiid":"B2094757D168A4FE439C","title":"东方体育中心海上王冠","lon":"121.478882903","lat":"31.2579153609","category":"500","category_name":"未知分类","address":"上海东方体育中心"},{"poiid":"B2094654D56EA2F8469D","title":"宝山新村","lon":"121.47871","lat":"31.25851","category":"47","category_name":"住宅区","address":"东宝兴路458弄"},{"poiid":"B2094654D56EA2FA449F","title":"四川北路街道社区卫生服务中心","lon":"121.48056","lat":"31.25846","category":"162","category_name":"医院","address":"虹口区东宝兴路336号"},{"poiid":"B2094654D56EA2FF4792","title":"和馨苑","lon":"121.47897","lat":"31.256388","category":"47","category_name":"住宅区","address":"上海市闸北区宝山路463号"},{"poiid":"B2094757D164ABFE439C","title":"达人面馆","lon":"121.476017103","lat":"31.258874181","category":"68","category_name":"快餐厅","address":"闸北区宝通路402号(近中兴路)"},{"poiid":"B2094655D26AA1FC459E","title":"好再来河南拉面馆东宝兴路店","lon":"121.479","lat":"31.25936","category":"68","category_name":"快餐厅","address":"闸北区东宝兴路474号(近宝山路)"},{"poiid":"B2094752D368ABF54999","title":"1933老场坊","lon":"121.47849","lat":"31.256954","category":"500","category_name":"未知分类","address":null},{"poiid":"B2094757D065A4F4489E","title":"同心路","lon":"121.4788138","lat":"31.258141165","category":"500","category_name":"未知分类","address":"上海同心路"},{"poiid":"B2094654D56EA2F84493","title":"香辣麻辣烫","lon":"121.47882","lat":"31.25952","category":"68","category_name":"快餐厅","address":"闸北区东宝兴路480号(近宝山路)"}]