[{"poiid":"B2094757D06FA6F4479F","title":"星美乐莫国际影城","lon":"121.25474","lat":"31.00927","category":"178","category_name":"电影院","address":"松江区环城路515-555号LOMO玩库3楼(近松东路)"},{"poiid":"B2094757D06BA0FB4793","title":"沁韵渔火","lon":"121.255016793","lat":"31.0103385638","category":"86","category_name":"火锅店","address":"松江区环城路518号(近LOMO玩库)"},{"poiid":"B2094654DB6DAAFA439E","title":"松江方塔中医医院","lon":"121.25234","lat":"31.00686","category":"162","category_name":"医院","address":"松江区中山东路39号"},{"poiid":"B2094757D06AA6F44498","title":"阿胖鲁肉饭(松江店)","lon":"121.25749","lat":"31.017","category":"91","category_name":"台湾菜","address":"松江区荣乐东路1825号(近爱丽雅花苑)"},{"poiid":"B2094654DB6EA4FB4492","title":"晋盛食府(松东路)","lon":"121.25592","lat":"31.01276","category":"76","category_name":"上海菜","address":"松江区松江松东路76号(繁华路松东路)"},{"poiid":"B2094757D464A7F8429A","title":"三德屋日本料理 松江店","lon":"121.25501924243","lat":"31.011631808326","category":"95","category_name":"日本料理","address":"松江区松东路50号甲(松东路松江环城路)"},{"poiid":"B2094654DB6EA4F94998","title":"川流不息 松东路店","lon":"121.25600829974","lat":"31.009959830294","category":"71","category_name":"四川菜","address":"松江区松东路(松东路俞塘路)"},{"poiid":"B2094654DB6EA4FA419D","title":"蓝天新村","lon":"121.25504","lat":"31.014357","category":"47","category_name":"住宅区","address":"松江工业区中山街道"},{"poiid":"B2094757D66EA4FF459B","title":"松江区 环城路","lon":"121.255793","lat":"31.009118","category":"500","category_name":"未知分类","address":"上海松江区 环城路"},{"poiid":"B2094654DB6DAAFA4399","title":"森活","lon":"121.25196","lat":"31.00845","category":"47","category_name":"住宅区","address":"松江区中山东路70号"},{"poiid":"B2094655D26BA2FB4798","title":"松东路","lon":"121.25523","lat":"31.01743","category":"38","category_name":"公交车站","address":""},{"poiid":"B2094757D169A7FE4299","title":"麦盛莉(松江店)","lon":"121.24893","lat":"31.01727","category":"76","category_name":"上海菜","address":"松江区荣乐东路2283号"},{"poiid":"B2094757D16DABF54592","title":"百味佳","lon":"121.25588","lat":"31.01181","category":"76","category_name":"上海菜","address":"松江区松东路168号(近荣乐东路)"},{"poiid":"B2094655D264A0FE4892","title":"乐莫苑","lon":"121.259","lat":"31.0141","category":"47","category_name":"住宅区","address":"松江区中山东路70号"},{"poiid":"B2094654DB6EA4F9479F","title":"灵盛河鲜馆","lon":"121.25534","lat":"31.01055","category":"76","category_name":"上海菜","address":"松江区松东路21号(近环城路)"},{"poiid":"B2094750D768AAFC439C","title":"鱼满楼","lon":"121.256","lat":"31.0147","category":"86","category_name":"火锅店","address":"松江区松东路146-148号(近荣乐东路)"},{"poiid":"B2094757D168A5F84993","title":"蓝天东区","lon":"121.259547","lat":"31.015865","category":"252","category_name":"楼宇机构","address":"上海松江区荣乐东路蓝天东区"},{"poiid":"B2094757D66DA1FC479C","title":"十八香小龙虾(松东路店)","lon":"121.25574","lat":"31.01258","category":"68","category_name":"快餐厅","address":"松江区松东路145号"},{"poiid":"B2094654DB6EA4FA429B","title":"樱木屋","lon":"121.25562","lat":"31.01558","category":"95","category_name":"日本料理","address":"松江区荣乐东路1587号-2-3号(近松卫北路)"},{"poiid":"B2094655D268A3FA4092","title":"格林豪泰上海松江松东酒店","lon":"121.25531","lat":"31.0093","category":"216","category_name":"经济型连锁酒店","address":"上海市松江区环城路421号(松东路口)"},{"poiid":"B2094757D66AA5F9439B","title":"潮福城","lon":"121.254134054","lat":"31.010985793","category":"76","category_name":"上海菜","address":"松江区环城路550号(近松东路)"},{"poiid":"B2094654DB6EA4FB459E","title":"百味佳特色风味酒楼","lon":"121.25588","lat":"31.01181","category":"70","category_name":"综合酒楼","address":"松江区松东路60号(繁华路松东路)"},{"poiid":"B2094654DB6EA4FA409A","title":"黄山楼","lon":"121.25547","lat":"31.01301","category":"76","category_name":"上海菜","address":"松东路161-165号近俞塘路"},{"poiid":"B2094757D769ABFC4398","title":"毛湘土菜馆 松东路店","lon":"121.255952","lat":"31.012904","category":"77","category_name":"湖南菜","address":"松江区松东路78号(近俞塘路)"},{"poiid":"B2094757D465ABF8419D","title":"虾之道","lon":"121.2558074","lat":"31.015238","category":"76","category_name":"上海菜","address":"松江区松东路(环城路)"},{"poiid":"B2094757D16AABFE459C","title":"高木日本料理(松江店)","lon":"121.256328051","lat":"31.0166706997","category":"95","category_name":"日本料理","address":"松江区松东路238号(近荣乐路)"},{"poiid":"B2094757D465A0F4429D","title":"渔太郎日本料理 松江店","lon":"121.25525040644","lat":"31.008629942312","category":"95","category_name":"日本料理","address":"松江区环城路340号(方塔小学对面)"},{"poiid":"B2094757D66EA6FF4899","title":"人民公社松江店","lon":"121.256413803","lat":"31.0121489143","category":"77","category_name":"湖南菜","address":"松江区环城路380号(近松东路)"},{"poiid":"B2094750D664ABF54692","title":"田字食号","lon":"121.256","lat":"31.0119","category":"76","category_name":"上海菜","address":"松江区松东路80弄(近黄山楼)"},{"poiid":"B209475CD568A5FC469F","title":"星巴克","lon":"121.260192","lat":"31.013896","category":"500","category_name":"未知分类","address":"上海市 上海市松江区松东路星巴克"},{"poiid":"B2094757D16AA1FF4898","title":"汉庭快捷酒店(松江店)","lon":"121.262321798","lat":"31.017702782","category":"217","category_name":"旅馆招待所","address":"松江区荣乐东路605号(近西林北路)"},{"poiid":"B2094654DB6EA4FA409F","title":"川味餐馆","lon":"121.25595","lat":"31.016008","category":"71","category_name":"四川菜","address":"松江区松东路173号"},{"poiid":"B2094654DB69A5FF4292","title":"莫泰168连锁旅店(松卫北路店)","lon":"121.26164","lat":"31.02169","category":"216","category_name":"经济型连锁酒店","address":"松江区松卫北路860-868号(松卫北路荣乐东路)"},{"poiid":"B2094655D268A3FD4193","title":"玩库","lon":"121.25411","lat":"31.0103","category":"119","category_name":"商场","address":""},{"poiid":"B2094654DB6EA4FB439E","title":"东北风味农家小菜","lon":"121.25599","lat":"31.01408","category":"82","category_name":"东北菜","address":"松东路128号"},{"poiid":"B2094654DB6EA4FB4498","title":"上海市松江警松门诊部","lon":"121.25594","lat":"31.01347","category":"162","category_name":"医院","address":"松东路102号"},{"poiid":"B2094654DB6EA4FA409D","title":"无名粥吧","lon":"121.25549","lat":"31.01336","category":"257","category_name":"中餐厅","address":"松东路179号"},{"poiid":"B2094757D16CA3FE4399","title":"天母蓝鸟咖啡(上海松江店)","lon":"121.255901","lat":"31.017212476","category":"65","category_name":"咖啡厅","address":"上海市松江区荣乐东路31号"},{"poiid":"B2094654DB6EA4FA409E","title":"好德便利NO.564","lon":"121.25548","lat":"31.01316","category":"117","category_name":"便民商店/便利店","address":"松江工业区"},{"poiid":"B2094655D26EAAFF4992","title":"鲁山人日本料理(松东路店)","lon":"121.25567","lat":"31.01221","category":"95","category_name":"日本料理","address":"松江区松东路72号"},{"poiid":"B2094757D169A3FE4993","title":"企福天地","lon":"121.262777","lat":"31.019279","category":"46","category_name":"楼宇","address":"上海松江区松卫北路665号"},{"poiid":"B2094750D16AA1FD419D","title":"星美国际影城上海松江店","lon":"121.254012","lat":"31.010243","category":"178","category_name":"电影院","address":"环城路515号玩库生活广场3层"},{"poiid":"B2094654DB6EA4FA4798","title":"顺昭小馆","lon":"121.25868","lat":"31.01719","category":"68","category_name":"快餐厅","address":"松江区松江镇荣乐东路3弄133号"},{"poiid":"B2094655D268A3FA409E","title":"乐家购物广场","lon":"121.25545","lat":"31.01239","category":"119","category_name":"商场","address":""},{"poiid":"B2094757D66EA3F5429E","title":"韩浦江 碳烤","lon":"121.255644103","lat":"31.0114772995","category":"247","category_name":"餐饮美食","address":"上海松东路81号"},{"poiid":"B2094654DB6EA4FB429C","title":"耀江花苑","lon":"121.25645","lat":"31.014961","category":"47","category_name":"住宅区","address":"松东路180弄1-28号"},{"poiid":"B2094654DB6EA4FB429F","title":"喜士多便利连锁(松东路)","lon":"121.25605","lat":"31.01521","category":"117","category_name":"便民商店/便利店","address":"松东路182、184"},{"poiid":"B2094654DB6EA4F9499E","title":"老东北菜馆松江店","lon":"121.25543","lat":"31.01219","category":"82","category_name":"东北菜","address":""},{"poiid":"B2094654DB6EA4F9489D","title":"天天美味居","lon":"121.25541","lat":"31.01134","category":"257","category_name":"中餐厅","address":"松东路51-53"},{"poiid":"B2094654DB6EA4FB429A","title":"快客全国连锁超市NO.01719","lon":"121.25607","lat":"31.01557","category":"117","category_name":"便民商店/便利店","address":""},{"poiid":"B2094757D06FA6F4479F","title":"星美乐莫国际影城","lon":"121.25474","lat":"31.00927","category":"178","category_name":"电影院","address":"松江区环城路515-555号LOMO玩库3楼(近松东路)"},{"poiid":"B2094757D06BA0FB4793","title":"沁韵渔火","lon":"121.255016793","lat":"31.0103385638","category":"86","category_name":"火锅店","address":"松江区环城路518号(近LOMO玩库)"},{"poiid":"B2094654DB6DAAFA439E","title":"松江方塔中医医院","lon":"121.25234","lat":"31.00686","category":"162","category_name":"医院","address":"松江区中山东路39号"},{"poiid":"B2094757D06AA6F44498","title":"阿胖鲁肉饭(松江店)","lon":"121.25749","lat":"31.017","category":"91","category_name":"台湾菜","address":"松江区荣乐东路1825号(近爱丽雅花苑)"},{"poiid":"B2094654DB6EA4FB4492","title":"晋盛食府(松东路)","lon":"121.25592","lat":"31.01276","category":"76","category_name":"上海菜","address":"松江区松江松东路76号(繁华路松东路)"},{"poiid":"B2094757D464A7F8429A","title":"三德屋日本料理 松江店","lon":"121.25501924243","lat":"31.011631808326","category":"95","category_name":"日本料理","address":"松江区松东路50号甲(松东路松江环城路)"},{"poiid":"B2094654DB6EA4F94998","title":"川流不息 松东路店","lon":"121.25600829974","lat":"31.009959830294","category":"71","category_name":"四川菜","address":"松江区松东路(松东路俞塘路)"},{"poiid":"B2094654DB6EA4FA419D","title":"蓝天新村","lon":"121.25504","lat":"31.014357","category":"47","category_name":"住宅区","address":"松江工业区中山街道"},{"poiid":"B2094757D66EA4FF459B","title":"松江区 环城路","lon":"121.255793","lat":"31.009118","category":"500","category_name":"未知分类","address":"上海松江区 环城路"},{"poiid":"B2094654DB6DAAFA4399","title":"森活","lon":"121.25196","lat":"31.00845","category":"47","category_name":"住宅区","address":"松江区中山东路70号"},{"poiid":"B2094655D26BA2FB4798","title":"松东路","lon":"121.25523","lat":"31.01743","category":"38","category_name":"公交车站","address":""},{"poiid":"B2094757D169A7FE4299","title":"麦盛莉(松江店)","lon":"121.24893","lat":"31.01727","category":"76","category_name":"上海菜","address":"松江区荣乐东路2283号"},{"poiid":"B2094757D16DABF54592","title":"百味佳","lon":"121.25588","lat":"31.01181","category":"76","category_name":"上海菜","address":"松江区松东路168号(近荣乐东路)"},{"poiid":"B2094655D264A0FE4892","title":"乐莫苑","lon":"121.259","lat":"31.0141","category":"47","category_name":"住宅区","address":"松江区中山东路70号"},{"poiid":"B2094654DB6EA4F9479F","title":"灵盛河鲜馆","lon":"121.25534","lat":"31.01055","category":"76","category_name":"上海菜","address":"松江区松东路21号(近环城路)"},{"poiid":"B2094750D768AAFC439C","title":"鱼满楼","lon":"121.256","lat":"31.0147","category":"86","category_name":"火锅店","address":"松江区松东路146-148号(近荣乐东路)"},{"poiid":"B2094757D168A5F84993","title":"蓝天东区","lon":"121.259547","lat":"31.015865","category":"252","category_name":"楼宇机构","address":"上海松江区荣乐东路蓝天东区"},{"poiid":"B2094757D66DA1FC479C","title":"十八香小龙虾(松东路店)","lon":"121.25574","lat":"31.01258","category":"68","category_name":"快餐厅","address":"松江区松东路145号"},{"poiid":"B2094654DB6EA4FA429B","title":"樱木屋","lon":"121.25562","lat":"31.01558","category":"95","category_name":"日本料理","address":"松江区荣乐东路1587号-2-3号(近松卫北路)"},{"poiid":"B2094655D268A3FA4092","title":"格林豪泰上海松江松东酒店","lon":"121.25531","lat":"31.0093","category":"216","category_name":"经济型连锁酒店","address":"上海市松江区环城路421号(松东路口)"},{"poiid":"B2094757D66AA5F9439B","title":"潮福城","lon":"121.254134054","lat":"31.010985793","category":"76","category_name":"上海菜","address":"松江区环城路550号(近松东路)"},{"poiid":"B2094654DB6EA4FB459E","title":"百味佳特色风味酒楼","lon":"121.25588","lat":"31.01181","category":"70","category_name":"综合酒楼","address":"松江区松东路60号(繁华路松东路)"},{"poiid":"B2094654DB6EA4FA409A","title":"黄山楼","lon":"121.25547","lat":"31.01301","category":"76","category_name":"上海菜","address":"松东路161-165号近俞塘路"},{"poiid":"B2094757D769ABFC4398","title":"毛湘土菜馆 松东路店","lon":"121.255952","lat":"31.012904","category":"77","category_name":"湖南菜","address":"松江区松东路78号(近俞塘路)"},{"poiid":"B2094757D465ABF8419D","title":"虾之道","lon":"121.2558074","lat":"31.015238","category":"76","category_name":"上海菜","address":"松江区松东路(环城路)"},{"poiid":"B2094757D16AABFE459C","title":"高木日本料理(松江店)","lon":"121.256328051","lat":"31.0166706997","category":"95","category_name":"日本料理","address":"松江区松东路238号(近荣乐路)"},{"poiid":"B2094757D465A0F4429D","title":"渔太郎日本料理 松江店","lon":"121.25525040644","lat":"31.008629942312","category":"95","category_name":"日本料理","address":"松江区环城路340号(方塔小学对面)"},{"poiid":"B2094757D66EA6FF4899","title":"人民公社松江店","lon":"121.256413803","lat":"31.0121489143","category":"77","category_name":"湖南菜","address":"松江区环城路380号(近松东路)"},{"poiid":"B2094750D664ABF54692","title":"田字食号","lon":"121.256","lat":"31.0119","category":"76","category_name":"上海菜","address":"松江区松东路80弄(近黄山楼)"},{"poiid":"B209475CD568A5FC469F","title":"星巴克","lon":"121.260192","lat":"31.013896","category":"500","category_name":"未知分类","address":"上海市 上海市松江区松东路星巴克"},{"poiid":"B2094757D16AA1FF4898","title":"汉庭快捷酒店(松江店)","lon":"121.262321798","lat":"31.017702782","category":"217","category_name":"旅馆招待所","address":"松江区荣乐东路605号(近西林北路)"},{"poiid":"B2094654DB6EA4FA409F","title":"川味餐馆","lon":"121.25595","lat":"31.016008","category":"71","category_name":"四川菜","address":"松江区松东路173号"},{"poiid":"B2094654DB69A5FF4292","title":"莫泰168连锁旅店(松卫北路店)","lon":"121.26164","lat":"31.02169","category":"216","category_name":"经济型连锁酒店","address":"松江区松卫北路860-868号(松卫北路荣乐东路)"},{"poiid":"B2094655D268A3FD4193","title":"玩库","lon":"121.25411","lat":"31.0103","category":"119","category_name":"商场","address":""},{"poiid":"B2094654DB6EA4FB439E","title":"东北风味农家小菜","lon":"121.25599","lat":"31.01408","category":"82","category_name":"东北菜","address":"松东路128号"},{"poiid":"B2094654DB6EA4FB4498","title":"上海市松江警松门诊部","lon":"121.25594","lat":"31.01347","category":"162","category_name":"医院","address":"松东路102号"},{"poiid":"B2094654DB6EA4FA409D","title":"无名粥吧","lon":"121.25549","lat":"31.01336","category":"257","category_name":"中餐厅","address":"松东路179号"},{"poiid":"B2094757D16CA3FE4399","title":"天母蓝鸟咖啡(上海松江店)","lon":"121.255901","lat":"31.017212476","category":"65","category_name":"咖啡厅","address":"上海市松江区荣乐东路31号"},{"poiid":"B2094654DB6EA4FA409E","title":"好德便利NO.564","lon":"121.25548","lat":"31.01316","category":"117","category_name":"便民商店/便利店","address":"松江工业区"},{"poiid":"B2094655D26EAAFF4992","title":"鲁山人日本料理(松东路店)","lon":"121.25567","lat":"31.01221","category":"95","category_name":"日本料理","address":"松江区松东路72号"},{"poiid":"B2094757D169A3FE4993","title":"企福天地","lon":"121.262777","lat":"31.019279","category":"46","category_name":"楼宇","address":"上海松江区松卫北路665号"},{"poiid":"B2094750D16AA1FD419D","title":"星美国际影城上海松江店","lon":"121.254012","lat":"31.010243","category":"178","category_name":"电影院","address":"环城路515号玩库生活广场3层"},{"poiid":"B2094654DB6EA4FA4798","title":"顺昭小馆","lon":"121.25868","lat":"31.01719","category":"68","category_name":"快餐厅","address":"松江区松江镇荣乐东路3弄133号"},{"poiid":"B2094655D268A3FA409E","title":"乐家购物广场","lon":"121.25545","lat":"31.01239","category":"119","category_name":"商场","address":""},{"poiid":"B2094757D66EA3F5429E","title":"韩浦江 碳烤","lon":"121.255644103","lat":"31.0114772995","category":"247","category_name":"餐饮美食","address":"上海松东路81号"},{"poiid":"B2094654DB6EA4FB429C","title":"耀江花苑","lon":"121.25645","lat":"31.014961","category":"47","category_name":"住宅区","address":"松东路180弄1-28号"},{"poiid":"B2094654DB6EA4FB429F","title":"喜士多便利连锁(松东路)","lon":"121.25605","lat":"31.01521","category":"117","category_name":"便民商店/便利店","address":"松东路182、184"},{"poiid":"B2094654DB6EA4F9499E","title":"老东北菜馆松江店","lon":"121.25543","lat":"31.01219","category":"82","category_name":"东北菜","address":""},{"poiid":"B2094654DB6EA4F9489D","title":"天天美味居","lon":"121.25541","lat":"31.01134","category":"257","category_name":"中餐厅","address":"松东路51-53"},{"poiid":"B2094654DB6EA4FB429A","title":"快客全国连锁超市NO.01719","lon":"121.25607","lat":"31.01557","category":"117","category_name":"便民商店/便利店","address":""},{"poiid":"B2094757D06FA6F4479F","title":"星美乐莫国际影城","lon":"121.25474","lat":"31.00927","category":"178","category_name":"电影院","address":"松江区环城路515-555号LOMO玩库3楼(近松东路)"},{"poiid":"B2094757D06BA0FB4793","title":"沁韵渔火","lon":"121.255016793","lat":"31.0103385638","category":"86","category_name":"火锅店","address":"松江区环城路518号(近LOMO玩库)"},{"poiid":"B2094654DB6DAAFA439E","title":"松江方塔中医医院","lon":"121.25234","lat":"31.00686","category":"162","category_name":"医院","address":"松江区中山东路39号"},{"poiid":"B2094757D06AA6F44498","title":"阿胖鲁肉饭(松江店)","lon":"121.25749","lat":"31.017","category":"91","category_name":"台湾菜","address":"松江区荣乐东路1825号(近爱丽雅花苑)"},{"poiid":"B2094654DB6EA4FB4492","title":"晋盛食府(松东路)","lon":"121.25592","lat":"31.01276","category":"76","category_name":"上海菜","address":"松江区松江松东路76号(繁华路松东路)"},{"poiid":"B2094757D464A7F8429A","title":"三德屋日本料理 松江店","lon":"121.25501924243","lat":"31.011631808326","category":"95","category_name":"日本料理","address":"松江区松东路50号甲(松东路松江环城路)"},{"poiid":"B2094654DB6EA4F94998","title":"川流不息 松东路店","lon":"121.25600829974","lat":"31.009959830294","category":"71","category_name":"四川菜","address":"松江区松东路(松东路俞塘路)"},{"poiid":"B2094654DB6EA4FA419D","title":"蓝天新村","lon":"121.25504","lat":"31.014357","category":"47","category_name":"住宅区","address":"松江工业区中山街道"},{"poiid":"B2094757D66EA4FF459B","title":"松江区 环城路","lon":"121.255793","lat":"31.009118","category":"500","category_name":"未知分类","address":"上海松江区 环城路"},{"poiid":"B2094654DB6DAAFA4399","title":"森活","lon":"121.25196","lat":"31.00845","category":"47","category_name":"住宅区","address":"松江区中山东路70号"},{"poiid":"B2094655D26BA2FB4798","title":"松东路","lon":"121.25523","lat":"31.01743","category":"38","category_name":"公交车站","address":""},{"poiid":"B2094757D169A7FE4299","title":"麦盛莉(松江店)","lon":"121.24893","lat":"31.01727","category":"76","category_name":"上海菜","address":"松江区荣乐东路2283号"},{"poiid":"B2094757D16DABF54592","title":"百味佳","lon":"121.25588","lat":"31.01181","category":"76","category_name":"上海菜","address":"松江区松东路168号(近荣乐东路)"},{"poiid":"B2094655D264A0FE4892","title":"乐莫苑","lon":"121.259","lat":"31.0141","category":"47","category_name":"住宅区","address":"松江区中山东路70号"},{"poiid":"B2094654DB6EA4F9479F","title":"灵盛河鲜馆","lon":"121.25534","lat":"31.01055","category":"76","category_name":"上海菜","address":"松江区松东路21号(近环城路)"},{"poiid":"B2094750D768AAFC439C","title":"鱼满楼","lon":"121.256","lat":"31.0147","category":"86","category_name":"火锅店","address":"松江区松东路146-148号(近荣乐东路)"},{"poiid":"B2094757D168A5F84993","title":"蓝天东区","lon":"121.259547","lat":"31.015865","category":"252","category_name":"楼宇机构","address":"上海松江区荣乐东路蓝天东区"},{"poiid":"B2094757D66DA1FC479C","title":"十八香小龙虾(松东路店)","lon":"121.25574","lat":"31.01258","category":"68","category_name":"快餐厅","address":"松江区松东路145号"},{"poiid":"B2094654DB6EA4FA429B","title":"樱木屋","lon":"121.25562","lat":"31.01558","category":"95","category_name":"日本料理","address":"松江区荣乐东路1587号-2-3号(近松卫北路)"},{"poiid":"B2094655D268A3FA4092","title":"格林豪泰上海松江松东酒店","lon":"121.25531","lat":"31.0093","category":"216","category_name":"经济型连锁酒店","address":"上海市松江区环城路421号(松东路口)"},{"poiid":"B2094757D66AA5F9439B","title":"潮福城","lon":"121.254134054","lat":"31.010985793","category":"76","category_name":"上海菜","address":"松江区环城路550号(近松东路)"},{"poiid":"B2094654DB6EA4FB459E","title":"百味佳特色风味酒楼","lon":"121.25588","lat":"31.01181","category":"70","category_name":"综合酒楼","address":"松江区松东路60号(繁华路松东路)"},{"poiid":"B2094654DB6EA4FA409A","title":"黄山楼","lon":"121.25547","lat":"31.01301","category":"76","category_name":"上海菜","address":"松东路161-165号近俞塘路"},{"poiid":"B2094757D769ABFC4398","title":"毛湘土菜馆 松东路店","lon":"121.255952","lat":"31.012904","category":"77","category_name":"湖南菜","address":"松江区松东路78号(近俞塘路)"},{"poiid":"B2094757D465ABF8419D","title":"虾之道","lon":"121.2558074","lat":"31.015238","category":"76","category_name":"上海菜","address":"松江区松东路(环城路)"},{"poiid":"B2094757D16AABFE459C","title":"高木日本料理(松江店)","lon":"121.256328051","lat":"31.0166706997","category":"95","category_name":"日本料理","address":"松江区松东路238号(近荣乐路)"},{"poiid":"B2094757D465A0F4429D","title":"渔太郎日本料理 松江店","lon":"121.25525040644","lat":"31.008629942312","category":"95","category_name":"日本料理","address":"松江区环城路340号(方塔小学对面)"},{"poiid":"B2094757D66EA6FF4899","title":"人民公社松江店","lon":"121.256413803","lat":"31.0121489143","category":"77","category_name":"湖南菜","address":"松江区环城路380号(近松东路)"},{"poiid":"B2094750D664ABF54692","title":"田字食号","lon":"121.256","lat":"31.0119","category":"76","category_name":"上海菜","address":"松江区松东路80弄(近黄山楼)"},{"poiid":"B209475CD568A5FC469F","title":"星巴克","lon":"121.260192","lat":"31.013896","category":"500","category_name":"未知分类","address":"上海市 上海市松江区松东路星巴克"},{"poiid":"B2094757D16AA1FF4898","title":"汉庭快捷酒店(松江店)","lon":"121.262321798","lat":"31.017702782","category":"217","category_name":"旅馆招待所","address":"松江区荣乐东路605号(近西林北路)"},{"poiid":"B2094654DB6EA4FA409F","title":"川味餐馆","lon":"121.25595","lat":"31.016008","category":"71","category_name":"四川菜","address":"松江区松东路173号"},{"poiid":"B2094654DB69A5FF4292","title":"莫泰168连锁旅店(松卫北路店)","lon":"121.26164","lat":"31.02169","category":"216","category_name":"经济型连锁酒店","address":"松江区松卫北路860-868号(松卫北路荣乐东路)"},{"poiid":"B2094655D268A3FD4193","title":"玩库","lon":"121.25411","lat":"31.0103","category":"119","category_name":"商场","address":""},{"poiid":"B2094654DB6EA4FB439E","title":"东北风味农家小菜","lon":"121.25599","lat":"31.01408","category":"82","category_name":"东北菜","address":"松东路128号"},{"poiid":"B2094654DB6EA4FB4498","title":"上海市松江警松门诊部","lon":"121.25594","lat":"31.01347","category":"162","category_name":"医院","address":"松东路102号"},{"poiid":"B2094654DB6EA4FA409D","title":"无名粥吧","lon":"121.25549","lat":"31.01336","category":"257","category_name":"中餐厅","address":"松东路179号"},{"poiid":"B2094757D16CA3FE4399","title":"天母蓝鸟咖啡(上海松江店)","lon":"121.255901","lat":"31.017212476","category":"65","category_name":"咖啡厅","address":"上海市松江区荣乐东路31号"},{"poiid":"B2094654DB6EA4FA409E","title":"好德便利NO.564","lon":"121.25548","lat":"31.01316","category":"117","category_name":"便民商店/便利店","address":"松江工业区"},{"poiid":"B2094655D26EAAFF4992","title":"鲁山人日本料理(松东路店)","lon":"121.25567","lat":"31.01221","category":"95","category_name":"日本料理","address":"松江区松东路72号"},{"poiid":"B2094757D169A3FE4993","title":"企福天地","lon":"121.262777","lat":"31.019279","category":"46","category_name":"楼宇","address":"上海松江区松卫北路665号"},{"poiid":"B2094750D16AA1FD419D","title":"星美国际影城上海松江店","lon":"121.254012","lat":"31.010243","category":"178","category_name":"电影院","address":"环城路515号玩库生活广场3层"},{"poiid":"B2094654DB6EA4FA4798","title":"顺昭小馆","lon":"121.25868","lat":"31.01719","category":"68","category_name":"快餐厅","address":"松江区松江镇荣乐东路3弄133号"},{"poiid":"B2094655D268A3FA409E","title":"乐家购物广场","lon":"121.25545","lat":"31.01239","category":"119","category_name":"商场","address":""},{"poiid":"B2094757D66EA3F5429E","title":"韩浦江 碳烤","lon":"121.255644103","lat":"31.0114772995","category":"247","category_name":"餐饮美食","address":"上海松东路81号"},{"poiid":"B2094654DB6EA4FB429C","title":"耀江花苑","lon":"121.25645","lat":"31.014961","category":"47","category_name":"住宅区","address":"松东路180弄1-28号"},{"poiid":"B2094654DB6EA4FB429F","title":"喜士多便利连锁(松东路)","lon":"121.25605","lat":"31.01521","category":"117","category_name":"便民商店/便利店","address":"松东路182、184"},{"poiid":"B2094654DB6EA4F9499E","title":"老东北菜馆松江店","lon":"121.25543","lat":"31.01219","category":"82","category_name":"东北菜","address":""},{"poiid":"B2094654DB6EA4F9489D","title":"天天美味居","lon":"121.25541","lat":"31.01134","category":"257","category_name":"中餐厅","address":"松东路51-53"},{"poiid":"B2094654DB6EA4FB429A","title":"快客全国连锁超市NO.01719","lon":"121.25607","lat":"31.01557","category":"117","category_name":"便民商店/便利店","address":""},{"poiid":"B2094757D06FA6F4479F","title":"星美乐莫国际影城","lon":"121.25474","lat":"31.00927","category":"178","category_name":"电影院","address":"松江区环城路515-555号LOMO玩库3楼(近松东路)"},{"poiid":"B2094757D06BA0FB4793","title":"沁韵渔火","lon":"121.255016793","lat":"31.0103385638","category":"86","category_name":"火锅店","address":"松江区环城路518号(近LOMO玩库)"},{"poiid":"B2094654DB6DAAFA439E","title":"松江方塔中医医院","lon":"121.25234","lat":"31.00686","category":"162","category_name":"医院","address":"松江区中山东路39号"},{"poiid":"B2094757D06AA6F44498","title":"阿胖鲁肉饭(松江店)","lon":"121.25749","lat":"31.017","category":"91","category_name":"台湾菜","address":"松江区荣乐东路1825号(近爱丽雅花苑)"},{"poiid":"B2094654DB6EA4FB4492","title":"晋盛食府(松东路)","lon":"121.25592","lat":"31.01276","category":"76","category_name":"上海菜","address":"松江区松江松东路76号(繁华路松东路)"},{"poiid":"B2094757D464A7F8429A","title":"三德屋日本料理 松江店","lon":"121.25501924243","lat":"31.011631808326","category":"95","category_name":"日本料理","address":"松江区松东路50号甲(松东路松江环城路)"},{"poiid":"B2094654DB6EA4F94998","title":"川流不息 松东路店","lon":"121.25600829974","lat":"31.009959830294","category":"71","category_name":"四川菜","address":"松江区松东路(松东路俞塘路)"},{"poiid":"B2094654DB6EA4FA419D","title":"蓝天新村","lon":"121.25504","lat":"31.014357","category":"47","category_name":"住宅区","address":"松江工业区中山街道"},{"poiid":"B2094757D66EA4FF459B","title":"松江区 环城路","lon":"121.255793","lat":"31.009118","category":"500","category_name":"未知分类","address":"上海松江区 环城路"},{"poiid":"B2094654DB6DAAFA4399","title":"森活","lon":"121.25196","lat":"31.00845","category":"47","category_name":"住宅区","address":"松江区中山东路70号"},{"poiid":"B2094655D26BA2FB4798","title":"松东路","lon":"121.25523","lat":"31.01743","category":"38","category_name":"公交车站","address":""},{"poiid":"B2094757D169A7FE4299","title":"麦盛莉(松江店)","lon":"121.24893","lat":"31.01727","category":"76","category_name":"上海菜","address":"松江区荣乐东路2283号"},{"poiid":"B2094757D16DABF54592","title":"百味佳","lon":"121.25588","lat":"31.01181","category":"76","category_name":"上海菜","address":"松江区松东路168号(近荣乐东路)"},{"poiid":"B2094655D264A0FE4892","title":"乐莫苑","lon":"121.259","lat":"31.0141","category":"47","category_name":"住宅区","address":"松江区中山东路70号"},{"poiid":"B2094654DB6EA4F9479F","title":"灵盛河鲜馆","lon":"121.25534","lat":"31.01055","category":"76","category_name":"上海菜","address":"松江区松东路21号(近环城路)"},{"poiid":"B2094750D768AAFC439C","title":"鱼满楼","lon":"121.256","lat":"31.0147","category":"86","category_name":"火锅店","address":"松江区松东路146-148号(近荣乐东路)"},{"poiid":"B2094757D168A5F84993","title":"蓝天东区","lon":"121.259547","lat":"31.015865","category":"252","category_name":"楼宇机构","address":"上海松江区荣乐东路蓝天东区"},{"poiid":"B2094757D66DA1FC479C","title":"十八香小龙虾(松东路店)","lon":"121.25574","lat":"31.01258","category":"68","category_name":"快餐厅","address":"松江区松东路145号"},{"poiid":"B2094654DB6EA4FA429B","title":"樱木屋","lon":"121.25562","lat":"31.01558","category":"95","category_name":"日本料理","address":"松江区荣乐东路1587号-2-3号(近松卫北路)"},{"poiid":"B2094655D268A3FA4092","title":"格林豪泰上海松江松东酒店","lon":"121.25531","lat":"31.0093","category":"216","category_name":"经济型连锁酒店","address":"上海市松江区环城路421号(松东路口)"},{"poiid":"B2094757D66AA5F9439B","title":"潮福城","lon":"121.254134054","lat":"31.010985793","category":"76","category_name":"上海菜","address":"松江区环城路550号(近松东路)"},{"poiid":"B2094654DB6EA4FB459E","title":"百味佳特色风味酒楼","lon":"121.25588","lat":"31.01181","category":"70","category_name":"综合酒楼","address":"松江区松东路60号(繁华路松东路)"},{"poiid":"B2094654DB6EA4FA409A","title":"黄山楼","lon":"121.25547","lat":"31.01301","category":"76","category_name":"上海菜","address":"松东路161-165号近俞塘路"},{"poiid":"B2094757D769ABFC4398","title":"毛湘土菜馆 松东路店","lon":"121.255952","lat":"31.012904","category":"77","category_name":"湖南菜","address":"松江区松东路78号(近俞塘路)"},{"poiid":"B2094757D465ABF8419D","title":"虾之道","lon":"121.2558074","lat":"31.015238","category":"76","category_name":"上海菜","address":"松江区松东路(环城路)"},{"poiid":"B2094757D16AABFE459C","title":"高木日本料理(松江店)","lon":"121.256328051","lat":"31.0166706997","category":"95","category_name":"日本料理","address":"松江区松东路238号(近荣乐路)"},{"poiid":"B2094757D465A0F4429D","title":"渔太郎日本料理 松江店","lon":"121.25525040644","lat":"31.008629942312","category":"95","category_name":"日本料理","address":"松江区环城路340号(方塔小学对面)"},{"poiid":"B2094757D66EA6FF4899","title":"人民公社松江店","lon":"121.256413803","lat":"31.0121489143","category":"77","category_name":"湖南菜","address":"松江区环城路380号(近松东路)"},{"poiid":"B2094750D664ABF54692","title":"田字食号","lon":"121.256","lat":"31.0119","category":"76","category_name":"上海菜","address":"松江区松东路80弄(近黄山楼)"},{"poiid":"B209475CD568A5FC469F","title":"星巴克","lon":"121.260192","lat":"31.013896","category":"500","category_name":"未知分类","address":"上海市 上海市松江区松东路星巴克"},{"poiid":"B2094757D16AA1FF4898","title":"汉庭快捷酒店(松江店)","lon":"121.262321798","lat":"31.017702782","category":"217","category_name":"旅馆招待所","address":"松江区荣乐东路605号(近西林北路)"},{"poiid":"B2094654DB6EA4FA409F","title":"川味餐馆","lon":"121.25595","lat":"31.016008","category":"71","category_name":"四川菜","address":"松江区松东路173号"},{"poiid":"B2094654DB69A5FF4292","title":"莫泰168连锁旅店(松卫北路店)","lon":"121.26164","lat":"31.02169","category":"216","category_name":"经济型连锁酒店","address":"松江区松卫北路860-868号(松卫北路荣乐东路)"},{"poiid":"B2094655D268A3FD4193","title":"玩库","lon":"121.25411","lat":"31.0103","category":"119","category_name":"商场","address":""},{"poiid":"B2094654DB6EA4FB439E","title":"东北风味农家小菜","lon":"121.25599","lat":"31.01408","category":"82","category_name":"东北菜","address":"松东路128号"},{"poiid":"B2094654DB6EA4FB4498","title":"上海市松江警松门诊部","lon":"121.25594","lat":"31.01347","category":"162","category_name":"医院","address":"松东路102号"},{"poiid":"B2094654DB6EA4FA409D","title":"无名粥吧","lon":"121.25549","lat":"31.01336","category":"257","category_name":"中餐厅","address":"松东路179号"},{"poiid":"B2094757D16CA3FE4399","title":"天母蓝鸟咖啡(上海松江店)","lon":"121.255901","lat":"31.017212476","category":"65","category_name":"咖啡厅","address":"上海市松江区荣乐东路31号"},{"poiid":"B2094654DB6EA4FA409E","title":"好德便利NO.564","lon":"121.25548","lat":"31.01316","category":"117","category_name":"便民商店/便利店","address":"松江工业区"},{"poiid":"B2094655D26EAAFF4992","title":"鲁山人日本料理(松东路店)","lon":"121.25567","lat":"31.01221","category":"95","category_name":"日本料理","address":"松江区松东路72号"},{"poiid":"B2094757D169A3FE4993","title":"企福天地","lon":"121.262777","lat":"31.019279","category":"46","category_name":"楼宇","address":"上海松江区松卫北路665号"},{"poiid":"B2094750D16AA1FD419D","title":"星美国际影城上海松江店","lon":"121.254012","lat":"31.010243","category":"178","category_name":"电影院","address":"环城路515号玩库生活广场3层"},{"poiid":"B2094654DB6EA4FA4798","title":"顺昭小馆","lon":"121.25868","lat":"31.01719","category":"68","category_name":"快餐厅","address":"松江区松江镇荣乐东路3弄133号"},{"poiid":"B2094655D268A3FA409E","title":"乐家购物广场","lon":"121.25545","lat":"31.01239","category":"119","category_name":"商场","address":""},{"poiid":"B2094757D66EA3F5429E","title":"韩浦江 碳烤","lon":"121.255644103","lat":"31.0114772995","category":"247","category_name":"餐饮美食","address":"上海松东路81号"},{"poiid":"B2094654DB6EA4FB429C","title":"耀江花苑","lon":"121.25645","lat":"31.014961","category":"47","category_name":"住宅区","address":"松东路180弄1-28号"},{"poiid":"B2094654DB6EA4FB429F","title":"喜士多便利连锁(松东路)","lon":"121.25605","lat":"31.01521","category":"117","category_name":"便民商店/便利店","address":"松东路182、184"},{"poiid":"B2094654DB6EA4F9499E","title":"老东北菜馆松江店","lon":"121.25543","lat":"31.01219","category":"82","category_name":"东北菜","address":""},{"poiid":"B2094654DB6EA4F9489D","title":"天天美味居","lon":"121.25541","lat":"31.01134","category":"257","category_name":"中餐厅","address":"松东路51-53"},{"poiid":"B2094654DB6EA4FB429A","title":"快客全国连锁超市NO.01719","lon":"121.25607","lat":"31.01557","category":"117","category_name":"便民商店/便利店","address":""}]