[{"poiid":"B2094757D06FA1FA4798","title":"藏珑泰极(湖南路店)","lon":"121.43899","lat":"31.20803","category":"99","category_name":"泰国／越南菜品餐厅","address":"徐汇区湖南路285号(近武康路)"},{"poiid":"B2094757D068A7FA4398","title":"武康路","lon":"121.439185","lat":"31.207438","category":"184","category_name":"美术馆","address":"上海都说了是武康路嘛"},{"poiid":"B2094757D06FA3FB4893","title":"花马天堂云南餐厅(高邮路店)","lon":"121.43851","lat":"31.20998","category":"260","category_name":"其他","address":"徐汇区高邮路38号(近复兴西路)"},{"poiid":"B2094753D76FAAFA449C","title":"上海滩国泰旗舰店","lon":"121.466011","lat":"31.216125","category":"249","category_name":"购物服务","address":"淮海中路868号"},{"poiid":"B209475CD564A7F8439E","title":"上海滩中信泰富店","lon":"121.45602","lat":"31.22851","category":"119","category_name":"商场","address":"\"南京西路1168号中信泰富广场，店铺号221.\r\n\""},{"poiid":"B2094757D068AAFE489F","title":"复兴西路","lon":"121.443012","lat":"31.208405","category":"46","category_name":"楼宇","address":"上海永福路"},{"poiid":"B2094757D06FA5FE4798","title":"薇婷故事","lon":"121.43753","lat":"31.20909","category":"260","category_name":"其他","address":"徐汇区高邮路50弄5号(近复兴西路)查看地图"},{"poiid":"B2094757D16EA6FE499A","title":"聚膳源","lon":"121.437081586","lat":"31.2093992236","category":"76","category_name":"上海菜","address":"徐汇区复兴西路258号(近华山路)"},{"poiid":"B2094757D069A2F94398","title":"Petite Jasmine 小茉莉西餐厅","lon":"121.440465586","lat":"31.2090540169","category":"94","category_name":"西餐厅","address":"徐汇区武康路214号(近湖南路)"},{"poiid":"B2094757D06FA7FB419B","title":"Coffee Tree(武康路店)","lon":"121.43923","lat":"31.20593","category":"260","category_name":"其他","address":"徐汇区武康路376号武康庭内(近泰安路)"},{"poiid":"B2094757DA6EAAFC4198","title":"Aroom","lon":"121.435461000002","lat":"31.2060190000001","category":"260","category_name":"其他","address":"徐汇区泰安路120弄卫乐园15号(近华山路)"},{"poiid":"B2094750D269A1FB439A","title":"Azul Tapad Lounge","lon":"121.439964","lat":"31.207233","category":"500","category_name":"未知分类","address":"378 Wukang lu, Shanghai"},{"poiid":"B2094757D06FA5F84892","title":"中村发型设计中心(淮海中路店)","lon":"121.43946","lat":"31.20461","category":"148","category_name":"美容美发店","address":"徐汇区淮海中路1808号(近宋庆龄故居)"},{"poiid":"B2094757D169ABF54599","title":"泰安路兴国路","lon":"121.43685808","lat":"31.205923289","category":"46","category_name":"楼宇","address":"上海泰安路兴国路"},{"poiid":"B2094654DA6DA3FF4293","title":"申通信息广场","lon":"121.441","lat":"31.2077","category":"46","category_name":"楼宇","address":"格林SOHO位于和平十三纬路云集街10号甲(东北炊具城西侧)"},{"poiid":"B2094654DB6BA7F5469A","title":"逸谷餐厅","lon":"121.43748","lat":"31.20458","category":"70","category_name":"综合酒楼","address":"徐汇区兴国路380号(近淮海中路)"},{"poiid":"B2094757D068A1FB499F","title":"圆苑酒家(兴国路店)","lon":"121.43766","lat":"31.20577","category":"76","category_name":"上海菜","address":"徐汇区兴国路201号(近泰安路)"},{"poiid":"B2094752D26EA1F9439B","title":"椰香天堂","lon":"121.439186","lat":"31.206525","category":"247","category_name":"餐饮美食","address":"武康路378号"},{"poiid":"B2094757D068ABFE489F","title":"武康大楼(Normandie Apartments)","lon":"121.43832667","lat":"31.204479872","category":"47","category_name":"住宅区","address":"上海徐汇区淮海中路1836-1858号(武康路口)"},{"poiid":"B2094752D46AA7FB489C","title":"FARINE","lon":"121.439154","lat":"31.206338","category":"247","category_name":"餐饮美食","address":"武康路378号1楼"},{"poiid":"B2094757D069A1FC409B","title":"兴国宾馆8号楼宴会厅","lon":"121.43587","lat":"31.20916","category":"217","category_name":"旅馆招待所","address":"上海徐汇区兴国路78号兴国宾馆内(华山路口)  "},{"poiid":"B2094757D46EABF84198","title":"麦坊威士忌酒吧","lon":"121.44067562392524","lat":"31.208291232965074","category":"94","category_name":"西餐厅","address":"上海市徐汇区湖南路123号(近武康路)"},{"poiid":"B2094757D06FA2F4419A","title":"Y 瑜伽生活馆(复兴店)","lon":"121.43848","lat":"31.2107","category":"148","category_name":"美容美发店","address":"徐汇区复兴西路299号(近华山路)"},{"poiid":"B2094757D06BA2FF419D","title":"Le Petit Saleya","lon":"121.43431","lat":"31.20494","category":"94","category_name":"西餐厅","address":"徐汇区泰安路139号(近华山路)"},{"poiid":"B2094757D464A7FD4699","title":"MARDI GRAS","lon":"121.436810054","lat":"31.205342793","category":"94","category_name":"西餐厅","address":"徐汇区兴国路372弄1号(近泰安路)"},{"poiid":"B2094654DB69A7FE4699","title":"南鹰饭店","lon":"121.44057","lat":"31.2059","category":"215","category_name":"三星级宾馆","address":"徐汇区淮海中路1728号(近宛平路)"},{"poiid":"B2094655D26FA5FB4598","title":"缇咖园","lon":"121.436985054","lat":"31.205757793","category":"94","category_name":"西餐厅","address":"徐汇区泰安路50号(兴国路口)"},{"poiid":"B2094757DB69ABF8469C","title":"宜家家居IKEA","lon":"121.4408459263085","lat":"31.20728964266857","category":"249","category_name":"购物服务","address":"漕溪路126号"},{"poiid":"B2094751D368A1FC409B","title":"Daga Cafe","lon":"121.4376","lat":"31.206","category":"247","category_name":"餐饮美食","address":"徐汇区泰安路36号(近兴国路)"},{"poiid":"B2094757D069A3FC4198","title":"湖南路兴国路口街心花园","lon":"121.4367","lat":"31.20798","category":"196","category_name":"公园","address":"徐汇区湖南路(兴国路口)"},{"poiid":"B2094751D56CA7F8479F","title":"Ginger Cafe(兴国路店)","lon":"121.43604","lat":"31.2089","category":"247","category_name":"餐饮美食","address":"徐汇区兴国路91号(近湖南路预计10月初开业)"},{"poiid":"B209475CD764A1FA4199","title":"椰香天堂 武康路店 Coconut Paradise","lon":"121.4390602","lat":"31.2064416","category":"99","category_name":"泰国／越南菜品餐厅","address":"武康路378号近泰安路"},{"poiid":"B2094752D468A1F5469A","title":"Pistacchio","lon":"121.439237","lat":"31.206668","category":"247","category_name":"餐饮美食","address":"武康路378号"},{"poiid":"B2094757D068A7FB4892","title":"东北四季饺子王(徐汇店)","lon":"121.439977085","lat":"31.2051445931","category":"82","category_name":"东北菜","address":"徐汇区淮海中路1791号(近宛平路)"},{"poiid":"B2094757D66BA3FC499E","title":"西岸吧屋 la concession francaise","lon":"121.43850023389","lat":"31.208135215395","category":"94","category_name":"西餐厅","address":"徐汇区湖南路287号(近高邮路)"},{"poiid":"B2094757D064A7FC459E","title":"Wedding Story","lon":"121.437617","lat":"31.209661","category":"500","category_name":"未知分类","address":"上海徐汇区高邮路50弄5号"},{"poiid":"B2094655D264A7FA4598","title":"致真会馆","lon":"121.44039","lat":"31.2065","category":"208","category_name":"休闲场所","address":"淮海中路1726临"},{"poiid":"B2094757DB6EA6FE479E","title":"上海庞瑅酒店宝丽会馆","lon":"121.438633","lat":"31.208344","category":"213","category_name":"五星级宾馆","address":"徐汇区湖南路285号(近武康路)"},{"poiid":"B2094750D768ABF54699","title":"狠牛碳烤酒肴","lon":"121.439","lat":"31.2068","category":"269","category_name":"烧烤","address":"徐汇区武康路378号1楼5室武康庭内(近泰安路)"},{"poiid":"B2094757D568A0F8459F","title":"兴国花园(南门)","lon":"121.438293","lat":"31.207242","category":"47","category_name":"住宅区","address":"武康路280弄"},{"poiid":"B2094757D16FA3F8429C","title":"Lapis Thai","lon":"121.438614366","lat":"31.2080662776","category":"500","category_name":"未知分类","address":"上海湖南路265号"},{"poiid":"B2094753D669A3F94093","title":"星巴克(武康路店)","lon":"121.437815","lat":"31.204325","category":"500","category_name":"未知分类","address":"上海市 上海市徐汇区武康路420号1F"},{"poiid":"B2094655D26FA3FF4999","title":"武康亭","lon":"121.43926","lat":"31.20648","category":"46","category_name":"楼宇","address":""},{"poiid":"B2094654DA6DABF8439E","title":"亿方砂锅粥淮海店","lon":"121.43995","lat":"31.20506","category":"257","category_name":"中餐厅","address":"徐汇区淮海中路1793号(宛平路口)"},{"poiid":"B2094752D66AA4FD4493","title":"franck bistrot","lon":"121.43906","lat":"31.20644","category":"247","category_name":"餐饮美食","address":"武康路376号武康庭内(近湖南路)"},{"poiid":"B2094655D36CA0F5419B","title":"淮海中路武康路","lon":"121.4387","lat":"31.20445","category":"38","category_name":"公交车站","address":""},{"poiid":"B2094750D268A5F9459D","title":"徐汇老房子艺术中心","lon":"121.438842","lat":"31.207448","category":"252","category_name":"楼宇机构","address":"武康路393号"},{"poiid":"B2094654DB6BA7F54593","title":"新亚大包 兴国路店","lon":"121.43739739493","lat":"31.204392216969","category":"68","category_name":"快餐厅","address":"徐汇区兴国路408号(近淮海中路武康路)"},{"poiid":"B2094753D164A0FC4999","title":"老吉士酒家","lon":"121.43891","lat":"31.206868","category":"247","category_name":"餐饮美食","address":"上海市 天平路41号"},{"poiid":"B2094654D564A5F44798","title":"汇成武康公寓","lon":"121.43819","lat":"31.20681","category":"47","category_name":"住宅区","address":"武康路280弄1-6号"},{"poiid":"B2094757D06FA1FA4798","title":"藏珑泰极(湖南路店)","lon":"121.43899","lat":"31.20803","category":"99","category_name":"泰国／越南菜品餐厅","address":"徐汇区湖南路285号(近武康路)"},{"poiid":"B2094757D068A7FA4398","title":"武康路","lon":"121.439185","lat":"31.207438","category":"184","category_name":"美术馆","address":"上海都说了是武康路嘛"},{"poiid":"B2094757D06FA3FB4893","title":"花马天堂云南餐厅(高邮路店)","lon":"121.43851","lat":"31.20998","category":"260","category_name":"其他","address":"徐汇区高邮路38号(近复兴西路)"},{"poiid":"B2094753D76FAAFA449C","title":"上海滩国泰旗舰店","lon":"121.466011","lat":"31.216125","category":"249","category_name":"购物服务","address":"淮海中路868号"},{"poiid":"B209475CD564A7F8439E","title":"上海滩中信泰富店","lon":"121.45602","lat":"31.22851","category":"119","category_name":"商场","address":"\"南京西路1168号中信泰富广场，店铺号221.\r\n\""},{"poiid":"B2094757D068AAFE489F","title":"复兴西路","lon":"121.443012","lat":"31.208405","category":"46","category_name":"楼宇","address":"上海永福路"},{"poiid":"B2094757D06FA5FE4798","title":"薇婷故事","lon":"121.43753","lat":"31.20909","category":"260","category_name":"其他","address":"徐汇区高邮路50弄5号(近复兴西路)查看地图"},{"poiid":"B2094757D16EA6FE499A","title":"聚膳源","lon":"121.437081586","lat":"31.2093992236","category":"76","category_name":"上海菜","address":"徐汇区复兴西路258号(近华山路)"},{"poiid":"B2094757D069A2F94398","title":"Petite Jasmine 小茉莉西餐厅","lon":"121.440465586","lat":"31.2090540169","category":"94","category_name":"西餐厅","address":"徐汇区武康路214号(近湖南路)"},{"poiid":"B2094757D06FA7FB419B","title":"Coffee Tree(武康路店)","lon":"121.43923","lat":"31.20593","category":"260","category_name":"其他","address":"徐汇区武康路376号武康庭内(近泰安路)"},{"poiid":"B2094757DA6EAAFC4198","title":"Aroom","lon":"121.435461000002","lat":"31.2060190000001","category":"260","category_name":"其他","address":"徐汇区泰安路120弄卫乐园15号(近华山路)"},{"poiid":"B2094750D269A1FB439A","title":"Azul Tapad Lounge","lon":"121.439964","lat":"31.207233","category":"500","category_name":"未知分类","address":"378 Wukang lu, Shanghai"},{"poiid":"B2094757D06FA5F84892","title":"中村发型设计中心(淮海中路店)","lon":"121.43946","lat":"31.20461","category":"148","category_name":"美容美发店","address":"徐汇区淮海中路1808号(近宋庆龄故居)"},{"poiid":"B2094757D169ABF54599","title":"泰安路兴国路","lon":"121.43685808","lat":"31.205923289","category":"46","category_name":"楼宇","address":"上海泰安路兴国路"},{"poiid":"B2094654DA6DA3FF4293","title":"申通信息广场","lon":"121.441","lat":"31.2077","category":"46","category_name":"楼宇","address":"格林SOHO位于和平十三纬路云集街10号甲(东北炊具城西侧)"},{"poiid":"B2094654DB6BA7F5469A","title":"逸谷餐厅","lon":"121.43748","lat":"31.20458","category":"70","category_name":"综合酒楼","address":"徐汇区兴国路380号(近淮海中路)"},{"poiid":"B2094757D068A1FB499F","title":"圆苑酒家(兴国路店)","lon":"121.43766","lat":"31.20577","category":"76","category_name":"上海菜","address":"徐汇区兴国路201号(近泰安路)"},{"poiid":"B2094752D26EA1F9439B","title":"椰香天堂","lon":"121.439186","lat":"31.206525","category":"247","category_name":"餐饮美食","address":"武康路378号"},{"poiid":"B2094757D068ABFE489F","title":"武康大楼(Normandie Apartments)","lon":"121.43832667","lat":"31.204479872","category":"47","category_name":"住宅区","address":"上海徐汇区淮海中路1836-1858号(武康路口)"},{"poiid":"B2094752D46AA7FB489C","title":"FARINE","lon":"121.439154","lat":"31.206338","category":"247","category_name":"餐饮美食","address":"武康路378号1楼"},{"poiid":"B2094757D069A1FC409B","title":"兴国宾馆8号楼宴会厅","lon":"121.43587","lat":"31.20916","category":"217","category_name":"旅馆招待所","address":"上海徐汇区兴国路78号兴国宾馆内(华山路口)  "},{"poiid":"B2094757D46EABF84198","title":"麦坊威士忌酒吧","lon":"121.44067562392524","lat":"31.208291232965074","category":"94","category_name":"西餐厅","address":"上海市徐汇区湖南路123号(近武康路)"},{"poiid":"B2094757D06FA2F4419A","title":"Y 瑜伽生活馆(复兴店)","lon":"121.43848","lat":"31.2107","category":"148","category_name":"美容美发店","address":"徐汇区复兴西路299号(近华山路)"},{"poiid":"B2094757D06BA2FF419D","title":"Le Petit Saleya","lon":"121.43431","lat":"31.20494","category":"94","category_name":"西餐厅","address":"徐汇区泰安路139号(近华山路)"},{"poiid":"B2094757D464A7FD4699","title":"MARDI GRAS","lon":"121.436810054","lat":"31.205342793","category":"94","category_name":"西餐厅","address":"徐汇区兴国路372弄1号(近泰安路)"},{"poiid":"B2094654DB69A7FE4699","title":"南鹰饭店","lon":"121.44057","lat":"31.2059","category":"215","category_name":"三星级宾馆","address":"徐汇区淮海中路1728号(近宛平路)"},{"poiid":"B2094655D26FA5FB4598","title":"缇咖园","lon":"121.436985054","lat":"31.205757793","category":"94","category_name":"西餐厅","address":"徐汇区泰安路50号(兴国路口)"},{"poiid":"B2094757DB69ABF8469C","title":"宜家家居IKEA","lon":"121.4408459263085","lat":"31.20728964266857","category":"249","category_name":"购物服务","address":"漕溪路126号"},{"poiid":"B2094751D368A1FC409B","title":"Daga Cafe","lon":"121.4376","lat":"31.206","category":"247","category_name":"餐饮美食","address":"徐汇区泰安路36号(近兴国路)"},{"poiid":"B2094757D069A3FC4198","title":"湖南路兴国路口街心花园","lon":"121.4367","lat":"31.20798","category":"196","category_name":"公园","address":"徐汇区湖南路(兴国路口)"},{"poiid":"B2094751D56CA7F8479F","title":"Ginger Cafe(兴国路店)","lon":"121.43604","lat":"31.2089","category":"247","category_name":"餐饮美食","address":"徐汇区兴国路91号(近湖南路预计10月初开业)"},{"poiid":"B209475CD764A1FA4199","title":"椰香天堂 武康路店 Coconut Paradise","lon":"121.4390602","lat":"31.2064416","category":"99","category_name":"泰国／越南菜品餐厅","address":"武康路378号近泰安路"},{"poiid":"B2094752D468A1F5469A","title":"Pistacchio","lon":"121.439237","lat":"31.206668","category":"247","category_name":"餐饮美食","address":"武康路378号"},{"poiid":"B2094757D068A7FB4892","title":"东北四季饺子王(徐汇店)","lon":"121.439977085","lat":"31.2051445931","category":"82","category_name":"东北菜","address":"徐汇区淮海中路1791号(近宛平路)"},{"poiid":"B2094757D66BA3FC499E","title":"西岸吧屋 la concession francaise","lon":"121.43850023389","lat":"31.208135215395","category":"94","category_name":"西餐厅","address":"徐汇区湖南路287号(近高邮路)"},{"poiid":"B2094757D064A7FC459E","title":"Wedding Story","lon":"121.437617","lat":"31.209661","category":"500","category_name":"未知分类","address":"上海徐汇区高邮路50弄5号"},{"poiid":"B2094655D264A7FA4598","title":"致真会馆","lon":"121.44039","lat":"31.2065","category":"208","category_name":"休闲场所","address":"淮海中路1726临"},{"poiid":"B2094757DB6EA6FE479E","title":"上海庞瑅酒店宝丽会馆","lon":"121.438633","lat":"31.208344","category":"213","category_name":"五星级宾馆","address":"徐汇区湖南路285号(近武康路)"},{"poiid":"B2094750D768ABF54699","title":"狠牛碳烤酒肴","lon":"121.439","lat":"31.2068","category":"269","category_name":"烧烤","address":"徐汇区武康路378号1楼5室武康庭内(近泰安路)"},{"poiid":"B2094757D568A0F8459F","title":"兴国花园(南门)","lon":"121.438293","lat":"31.207242","category":"47","category_name":"住宅区","address":"武康路280弄"},{"poiid":"B2094757D16FA3F8429C","title":"Lapis Thai","lon":"121.438614366","lat":"31.2080662776","category":"500","category_name":"未知分类","address":"上海湖南路265号"},{"poiid":"B2094753D669A3F94093","title":"星巴克(武康路店)","lon":"121.437815","lat":"31.204325","category":"500","category_name":"未知分类","address":"上海市 上海市徐汇区武康路420号1F"},{"poiid":"B2094655D26FA3FF4999","title":"武康亭","lon":"121.43926","lat":"31.20648","category":"46","category_name":"楼宇","address":""},{"poiid":"B2094654DA6DABF8439E","title":"亿方砂锅粥淮海店","lon":"121.43995","lat":"31.20506","category":"257","category_name":"中餐厅","address":"徐汇区淮海中路1793号(宛平路口)"},{"poiid":"B2094752D66AA4FD4493","title":"franck bistrot","lon":"121.43906","lat":"31.20644","category":"247","category_name":"餐饮美食","address":"武康路376号武康庭内(近湖南路)"},{"poiid":"B2094655D36CA0F5419B","title":"淮海中路武康路","lon":"121.4387","lat":"31.20445","category":"38","category_name":"公交车站","address":""},{"poiid":"B2094750D268A5F9459D","title":"徐汇老房子艺术中心","lon":"121.438842","lat":"31.207448","category":"252","category_name":"楼宇机构","address":"武康路393号"},{"poiid":"B2094654DB6BA7F54593","title":"新亚大包 兴国路店","lon":"121.43739739493","lat":"31.204392216969","category":"68","category_name":"快餐厅","address":"徐汇区兴国路408号(近淮海中路武康路)"},{"poiid":"B2094753D164A0FC4999","title":"老吉士酒家","lon":"121.43891","lat":"31.206868","category":"247","category_name":"餐饮美食","address":"上海市 天平路41号"},{"poiid":"B2094654D564A5F44798","title":"汇成武康公寓","lon":"121.43819","lat":"31.20681","category":"47","category_name":"住宅区","address":"武康路280弄1-6号"},{"poiid":"B2094757D06FA1FA4798","title":"藏珑泰极(湖南路店)","lon":"121.43899","lat":"31.20803","category":"99","category_name":"泰国／越南菜品餐厅","address":"徐汇区湖南路285号(近武康路)"},{"poiid":"B2094757D068A7FA4398","title":"武康路","lon":"121.439185","lat":"31.207438","category":"184","category_name":"美术馆","address":"上海都说了是武康路嘛"},{"poiid":"B2094757D06FA3FB4893","title":"花马天堂云南餐厅(高邮路店)","lon":"121.43851","lat":"31.20998","category":"260","category_name":"其他","address":"徐汇区高邮路38号(近复兴西路)"},{"poiid":"B2094753D76FAAFA449C","title":"上海滩国泰旗舰店","lon":"121.466011","lat":"31.216125","category":"249","category_name":"购物服务","address":"淮海中路868号"},{"poiid":"B209475CD564A7F8439E","title":"上海滩中信泰富店","lon":"121.45602","lat":"31.22851","category":"119","category_name":"商场","address":"\"南京西路1168号中信泰富广场，店铺号221.\r\n\""},{"poiid":"B2094757D068AAFE489F","title":"复兴西路","lon":"121.443012","lat":"31.208405","category":"46","category_name":"楼宇","address":"上海永福路"},{"poiid":"B2094757D06FA5FE4798","title":"薇婷故事","lon":"121.43753","lat":"31.20909","category":"260","category_name":"其他","address":"徐汇区高邮路50弄5号(近复兴西路)查看地图"},{"poiid":"B2094757D16EA6FE499A","title":"聚膳源","lon":"121.437081586","lat":"31.2093992236","category":"76","category_name":"上海菜","address":"徐汇区复兴西路258号(近华山路)"},{"poiid":"B2094757D069A2F94398","title":"Petite Jasmine 小茉莉西餐厅","lon":"121.440465586","lat":"31.2090540169","category":"94","category_name":"西餐厅","address":"徐汇区武康路214号(近湖南路)"},{"poiid":"B2094757D06FA7FB419B","title":"Coffee Tree(武康路店)","lon":"121.43923","lat":"31.20593","category":"260","category_name":"其他","address":"徐汇区武康路376号武康庭内(近泰安路)"},{"poiid":"B2094757DA6EAAFC4198","title":"Aroom","lon":"121.435461000002","lat":"31.2060190000001","category":"260","category_name":"其他","address":"徐汇区泰安路120弄卫乐园15号(近华山路)"},{"poiid":"B2094750D269A1FB439A","title":"Azul Tapad Lounge","lon":"121.439964","lat":"31.207233","category":"500","category_name":"未知分类","address":"378 Wukang lu, Shanghai"},{"poiid":"B2094757D06FA5F84892","title":"中村发型设计中心(淮海中路店)","lon":"121.43946","lat":"31.20461","category":"148","category_name":"美容美发店","address":"徐汇区淮海中路1808号(近宋庆龄故居)"},{"poiid":"B2094757D169ABF54599","title":"泰安路兴国路","lon":"121.43685808","lat":"31.205923289","category":"46","category_name":"楼宇","address":"上海泰安路兴国路"},{"poiid":"B2094654DA6DA3FF4293","title":"申通信息广场","lon":"121.441","lat":"31.2077","category":"46","category_name":"楼宇","address":"格林SOHO位于和平十三纬路云集街10号甲(东北炊具城西侧)"},{"poiid":"B2094654DB6BA7F5469A","title":"逸谷餐厅","lon":"121.43748","lat":"31.20458","category":"70","category_name":"综合酒楼","address":"徐汇区兴国路380号(近淮海中路)"},{"poiid":"B2094757D068A1FB499F","title":"圆苑酒家(兴国路店)","lon":"121.43766","lat":"31.20577","category":"76","category_name":"上海菜","address":"徐汇区兴国路201号(近泰安路)"},{"poiid":"B2094752D26EA1F9439B","title":"椰香天堂","lon":"121.439186","lat":"31.206525","category":"247","category_name":"餐饮美食","address":"武康路378号"},{"poiid":"B2094757D068ABFE489F","title":"武康大楼(Normandie Apartments)","lon":"121.43832667","lat":"31.204479872","category":"47","category_name":"住宅区","address":"上海徐汇区淮海中路1836-1858号(武康路口)"},{"poiid":"B2094752D46AA7FB489C","title":"FARINE","lon":"121.439154","lat":"31.206338","category":"247","category_name":"餐饮美食","address":"武康路378号1楼"},{"poiid":"B2094757D069A1FC409B","title":"兴国宾馆8号楼宴会厅","lon":"121.43587","lat":"31.20916","category":"217","category_name":"旅馆招待所","address":"上海徐汇区兴国路78号兴国宾馆内(华山路口)  "},{"poiid":"B2094757D46EABF84198","title":"麦坊威士忌酒吧","lon":"121.44067562392524","lat":"31.208291232965074","category":"94","category_name":"西餐厅","address":"上海市徐汇区湖南路123号(近武康路)"},{"poiid":"B2094757D06FA2F4419A","title":"Y 瑜伽生活馆(复兴店)","lon":"121.43848","lat":"31.2107","category":"148","category_name":"美容美发店","address":"徐汇区复兴西路299号(近华山路)"},{"poiid":"B2094757D06BA2FF419D","title":"Le Petit Saleya","lon":"121.43431","lat":"31.20494","category":"94","category_name":"西餐厅","address":"徐汇区泰安路139号(近华山路)"},{"poiid":"B2094757D464A7FD4699","title":"MARDI GRAS","lon":"121.436810054","lat":"31.205342793","category":"94","category_name":"西餐厅","address":"徐汇区兴国路372弄1号(近泰安路)"},{"poiid":"B2094654DB69A7FE4699","title":"南鹰饭店","lon":"121.44057","lat":"31.2059","category":"215","category_name":"三星级宾馆","address":"徐汇区淮海中路1728号(近宛平路)"},{"poiid":"B2094655D26FA5FB4598","title":"缇咖园","lon":"121.436985054","lat":"31.205757793","category":"94","category_name":"西餐厅","address":"徐汇区泰安路50号(兴国路口)"},{"poiid":"B2094757DB69ABF8469C","title":"宜家家居IKEA","lon":"121.4408459263085","lat":"31.20728964266857","category":"249","category_name":"购物服务","address":"漕溪路126号"},{"poiid":"B2094751D368A1FC409B","title":"Daga Cafe","lon":"121.4376","lat":"31.206","category":"247","category_name":"餐饮美食","address":"徐汇区泰安路36号(近兴国路)"},{"poiid":"B2094757D069A3FC4198","title":"湖南路兴国路口街心花园","lon":"121.4367","lat":"31.20798","category":"196","category_name":"公园","address":"徐汇区湖南路(兴国路口)"},{"poiid":"B2094751D56CA7F8479F","title":"Ginger Cafe(兴国路店)","lon":"121.43604","lat":"31.2089","category":"247","category_name":"餐饮美食","address":"徐汇区兴国路91号(近湖南路预计10月初开业)"},{"poiid":"B209475CD764A1FA4199","title":"椰香天堂 武康路店 Coconut Paradise","lon":"121.4390602","lat":"31.2064416","category":"99","category_name":"泰国／越南菜品餐厅","address":"武康路378号近泰安路"},{"poiid":"B2094752D468A1F5469A","title":"Pistacchio","lon":"121.439237","lat":"31.206668","category":"247","category_name":"餐饮美食","address":"武康路378号"},{"poiid":"B2094757D068A7FB4892","title":"东北四季饺子王(徐汇店)","lon":"121.439977085","lat":"31.2051445931","category":"82","category_name":"东北菜","address":"徐汇区淮海中路1791号(近宛平路)"},{"poiid":"B2094757D66BA3FC499E","title":"西岸吧屋 la concession francaise","lon":"121.43850023389","lat":"31.208135215395","category":"94","category_name":"西餐厅","address":"徐汇区湖南路287号(近高邮路)"},{"poiid":"B2094757D064A7FC459E","title":"Wedding Story","lon":"121.437617","lat":"31.209661","category":"500","category_name":"未知分类","address":"上海徐汇区高邮路50弄5号"},{"poiid":"B2094655D264A7FA4598","title":"致真会馆","lon":"121.44039","lat":"31.2065","category":"208","category_name":"休闲场所","address":"淮海中路1726临"},{"poiid":"B2094757DB6EA6FE479E","title":"上海庞瑅酒店宝丽会馆","lon":"121.438633","lat":"31.208344","category":"213","category_name":"五星级宾馆","address":"徐汇区湖南路285号(近武康路)"},{"poiid":"B2094750D768ABF54699","title":"狠牛碳烤酒肴","lon":"121.439","lat":"31.2068","category":"269","category_name":"烧烤","address":"徐汇区武康路378号1楼5室武康庭内(近泰安路)"},{"poiid":"B2094757D568A0F8459F","title":"兴国花园(南门)","lon":"121.438293","lat":"31.207242","category":"47","category_name":"住宅区","address":"武康路280弄"},{"poiid":"B2094757D16FA3F8429C","title":"Lapis Thai","lon":"121.438614366","lat":"31.2080662776","category":"500","category_name":"未知分类","address":"上海湖南路265号"},{"poiid":"B2094753D669A3F94093","title":"星巴克(武康路店)","lon":"121.437815","lat":"31.204325","category":"500","category_name":"未知分类","address":"上海市 上海市徐汇区武康路420号1F"},{"poiid":"B2094655D26FA3FF4999","title":"武康亭","lon":"121.43926","lat":"31.20648","category":"46","category_name":"楼宇","address":""},{"poiid":"B2094654DA6DABF8439E","title":"亿方砂锅粥淮海店","lon":"121.43995","lat":"31.20506","category":"257","category_name":"中餐厅","address":"徐汇区淮海中路1793号(宛平路口)"},{"poiid":"B2094752D66AA4FD4493","title":"franck bistrot","lon":"121.43906","lat":"31.20644","category":"247","category_name":"餐饮美食","address":"武康路376号武康庭内(近湖南路)"},{"poiid":"B2094655D36CA0F5419B","title":"淮海中路武康路","lon":"121.4387","lat":"31.20445","category":"38","category_name":"公交车站","address":""},{"poiid":"B2094750D268A5F9459D","title":"徐汇老房子艺术中心","lon":"121.438842","lat":"31.207448","category":"252","category_name":"楼宇机构","address":"武康路393号"},{"poiid":"B2094654DB6BA7F54593","title":"新亚大包 兴国路店","lon":"121.43739739493","lat":"31.204392216969","category":"68","category_name":"快餐厅","address":"徐汇区兴国路408号(近淮海中路武康路)"},{"poiid":"B2094753D164A0FC4999","title":"老吉士酒家","lon":"121.43891","lat":"31.206868","category":"247","category_name":"餐饮美食","address":"上海市 天平路41号"},{"poiid":"B2094654D564A5F44798","title":"汇成武康公寓","lon":"121.43819","lat":"31.20681","category":"47","category_name":"住宅区","address":"武康路280弄1-6号"},{"poiid":"B2094757D06FA1FA4798","title":"藏珑泰极(湖南路店)","lon":"121.43899","lat":"31.20803","category":"99","category_name":"泰国／越南菜品餐厅","address":"徐汇区湖南路285号(近武康路)"},{"poiid":"B2094757D068A7FA4398","title":"武康路","lon":"121.439185","lat":"31.207438","category":"184","category_name":"美术馆","address":"上海都说了是武康路嘛"},{"poiid":"B2094757D06FA3FB4893","title":"花马天堂云南餐厅(高邮路店)","lon":"121.43851","lat":"31.20998","category":"260","category_name":"其他","address":"徐汇区高邮路38号(近复兴西路)"},{"poiid":"B2094753D76FAAFA449C","title":"上海滩国泰旗舰店","lon":"121.466011","lat":"31.216125","category":"249","category_name":"购物服务","address":"淮海中路868号"},{"poiid":"B209475CD564A7F8439E","title":"上海滩中信泰富店","lon":"121.45602","lat":"31.22851","category":"119","category_name":"商场","address":"\"南京西路1168号中信泰富广场，店铺号221.\r\n\""},{"poiid":"B2094757D068AAFE489F","title":"复兴西路","lon":"121.443012","lat":"31.208405","category":"46","category_name":"楼宇","address":"上海永福路"},{"poiid":"B2094757D06FA5FE4798","title":"薇婷故事","lon":"121.43753","lat":"31.20909","category":"260","category_name":"其他","address":"徐汇区高邮路50弄5号(近复兴西路)查看地图"},{"poiid":"B2094757D16EA6FE499A","title":"聚膳源","lon":"121.437081586","lat":"31.2093992236","category":"76","category_name":"上海菜","address":"徐汇区复兴西路258号(近华山路)"},{"poiid":"B2094757D069A2F94398","title":"Petite Jasmine 小茉莉西餐厅","lon":"121.440465586","lat":"31.2090540169","category":"94","category_name":"西餐厅","address":"徐汇区武康路214号(近湖南路)"},{"poiid":"B2094757D06FA7FB419B","title":"Coffee Tree(武康路店)","lon":"121.43923","lat":"31.20593","category":"260","category_name":"其他","address":"徐汇区武康路376号武康庭内(近泰安路)"},{"poiid":"B2094757DA6EAAFC4198","title":"Aroom","lon":"121.435461000002","lat":"31.2060190000001","category":"260","category_name":"其他","address":"徐汇区泰安路120弄卫乐园15号(近华山路)"},{"poiid":"B2094750D269A1FB439A","title":"Azul Tapad Lounge","lon":"121.439964","lat":"31.207233","category":"500","category_name":"未知分类","address":"378 Wukang lu, Shanghai"},{"poiid":"B2094757D06FA5F84892","title":"中村发型设计中心(淮海中路店)","lon":"121.43946","lat":"31.20461","category":"148","category_name":"美容美发店","address":"徐汇区淮海中路1808号(近宋庆龄故居)"},{"poiid":"B2094757D169ABF54599","title":"泰安路兴国路","lon":"121.43685808","lat":"31.205923289","category":"46","category_name":"楼宇","address":"上海泰安路兴国路"},{"poiid":"B2094654DA6DA3FF4293","title":"申通信息广场","lon":"121.441","lat":"31.2077","category":"46","category_name":"楼宇","address":"格林SOHO位于和平十三纬路云集街10号甲(东北炊具城西侧)"},{"poiid":"B2094654DB6BA7F5469A","title":"逸谷餐厅","lon":"121.43748","lat":"31.20458","category":"70","category_name":"综合酒楼","address":"徐汇区兴国路380号(近淮海中路)"},{"poiid":"B2094757D068A1FB499F","title":"圆苑酒家(兴国路店)","lon":"121.43766","lat":"31.20577","category":"76","category_name":"上海菜","address":"徐汇区兴国路201号(近泰安路)"},{"poiid":"B2094752D26EA1F9439B","title":"椰香天堂","lon":"121.439186","lat":"31.206525","category":"247","category_name":"餐饮美食","address":"武康路378号"},{"poiid":"B2094757D068ABFE489F","title":"武康大楼(Normandie Apartments)","lon":"121.43832667","lat":"31.204479872","category":"47","category_name":"住宅区","address":"上海徐汇区淮海中路1836-1858号(武康路口)"},{"poiid":"B2094752D46AA7FB489C","title":"FARINE","lon":"121.439154","lat":"31.206338","category":"247","category_name":"餐饮美食","address":"武康路378号1楼"},{"poiid":"B2094757D069A1FC409B","title":"兴国宾馆8号楼宴会厅","lon":"121.43587","lat":"31.20916","category":"217","category_name":"旅馆招待所","address":"上海徐汇区兴国路78号兴国宾馆内(华山路口)  "},{"poiid":"B2094757D46EABF84198","title":"麦坊威士忌酒吧","lon":"121.44067562392524","lat":"31.208291232965074","category":"94","category_name":"西餐厅","address":"上海市徐汇区湖南路123号(近武康路)"},{"poiid":"B2094757D06FA2F4419A","title":"Y 瑜伽生活馆(复兴店)","lon":"121.43848","lat":"31.2107","category":"148","category_name":"美容美发店","address":"徐汇区复兴西路299号(近华山路)"},{"poiid":"B2094757D06BA2FF419D","title":"Le Petit Saleya","lon":"121.43431","lat":"31.20494","category":"94","category_name":"西餐厅","address":"徐汇区泰安路139号(近华山路)"},{"poiid":"B2094757D464A7FD4699","title":"MARDI GRAS","lon":"121.436810054","lat":"31.205342793","category":"94","category_name":"西餐厅","address":"徐汇区兴国路372弄1号(近泰安路)"},{"poiid":"B2094654DB69A7FE4699","title":"南鹰饭店","lon":"121.44057","lat":"31.2059","category":"215","category_name":"三星级宾馆","address":"徐汇区淮海中路1728号(近宛平路)"},{"poiid":"B2094655D26FA5FB4598","title":"缇咖园","lon":"121.436985054","lat":"31.205757793","category":"94","category_name":"西餐厅","address":"徐汇区泰安路50号(兴国路口)"},{"poiid":"B2094757DB69ABF8469C","title":"宜家家居IKEA","lon":"121.4408459263085","lat":"31.20728964266857","category":"249","category_name":"购物服务","address":"漕溪路126号"},{"poiid":"B2094751D368A1FC409B","title":"Daga Cafe","lon":"121.4376","lat":"31.206","category":"247","category_name":"餐饮美食","address":"徐汇区泰安路36号(近兴国路)"},{"poiid":"B2094757D069A3FC4198","title":"湖南路兴国路口街心花园","lon":"121.4367","lat":"31.20798","category":"196","category_name":"公园","address":"徐汇区湖南路(兴国路口)"},{"poiid":"B2094751D56CA7F8479F","title":"Ginger Cafe(兴国路店)","lon":"121.43604","lat":"31.2089","category":"247","category_name":"餐饮美食","address":"徐汇区兴国路91号(近湖南路预计10月初开业)"},{"poiid":"B209475CD764A1FA4199","title":"椰香天堂 武康路店 Coconut Paradise","lon":"121.4390602","lat":"31.2064416","category":"99","category_name":"泰国／越南菜品餐厅","address":"武康路378号近泰安路"},{"poiid":"B2094752D468A1F5469A","title":"Pistacchio","lon":"121.439237","lat":"31.206668","category":"247","category_name":"餐饮美食","address":"武康路378号"},{"poiid":"B2094757D068A7FB4892","title":"东北四季饺子王(徐汇店)","lon":"121.439977085","lat":"31.2051445931","category":"82","category_name":"东北菜","address":"徐汇区淮海中路1791号(近宛平路)"},{"poiid":"B2094757D66BA3FC499E","title":"西岸吧屋 la concession francaise","lon":"121.43850023389","lat":"31.208135215395","category":"94","category_name":"西餐厅","address":"徐汇区湖南路287号(近高邮路)"},{"poiid":"B2094757D064A7FC459E","title":"Wedding Story","lon":"121.437617","lat":"31.209661","category":"500","category_name":"未知分类","address":"上海徐汇区高邮路50弄5号"},{"poiid":"B2094655D264A7FA4598","title":"致真会馆","lon":"121.44039","lat":"31.2065","category":"208","category_name":"休闲场所","address":"淮海中路1726临"},{"poiid":"B2094757DB6EA6FE479E","title":"上海庞瑅酒店宝丽会馆","lon":"121.438633","lat":"31.208344","category":"213","category_name":"五星级宾馆","address":"徐汇区湖南路285号(近武康路)"},{"poiid":"B2094750D768ABF54699","title":"狠牛碳烤酒肴","lon":"121.439","lat":"31.2068","category":"269","category_name":"烧烤","address":"徐汇区武康路378号1楼5室武康庭内(近泰安路)"},{"poiid":"B2094757D568A0F8459F","title":"兴国花园(南门)","lon":"121.438293","lat":"31.207242","category":"47","category_name":"住宅区","address":"武康路280弄"},{"poiid":"B2094757D16FA3F8429C","title":"Lapis Thai","lon":"121.438614366","lat":"31.2080662776","category":"500","category_name":"未知分类","address":"上海湖南路265号"},{"poiid":"B2094753D669A3F94093","title":"星巴克(武康路店)","lon":"121.437815","lat":"31.204325","category":"500","category_name":"未知分类","address":"上海市 上海市徐汇区武康路420号1F"},{"poiid":"B2094655D26FA3FF4999","title":"武康亭","lon":"121.43926","lat":"31.20648","category":"46","category_name":"楼宇","address":""},{"poiid":"B2094654DA6DABF8439E","title":"亿方砂锅粥淮海店","lon":"121.43995","lat":"31.20506","category":"257","category_name":"中餐厅","address":"徐汇区淮海中路1793号(宛平路口)"},{"poiid":"B2094752D66AA4FD4493","title":"franck bistrot","lon":"121.43906","lat":"31.20644","category":"247","category_name":"餐饮美食","address":"武康路376号武康庭内(近湖南路)"},{"poiid":"B2094655D36CA0F5419B","title":"淮海中路武康路","lon":"121.4387","lat":"31.20445","category":"38","category_name":"公交车站","address":""},{"poiid":"B2094750D268A5F9459D","title":"徐汇老房子艺术中心","lon":"121.438842","lat":"31.207448","category":"252","category_name":"楼宇机构","address":"武康路393号"},{"poiid":"B2094654DB6BA7F54593","title":"新亚大包 兴国路店","lon":"121.43739739493","lat":"31.204392216969","category":"68","category_name":"快餐厅","address":"徐汇区兴国路408号(近淮海中路武康路)"},{"poiid":"B2094753D164A0FC4999","title":"老吉士酒家","lon":"121.43891","lat":"31.206868","category":"247","category_name":"餐饮美食","address":"上海市 天平路41号"},{"poiid":"B2094654D564A5F44798","title":"汇成武康公寓","lon":"121.43819","lat":"31.20681","category":"47","category_name":"住宅区","address":"武康路280弄1-6号"}]