[{"poiid":"B2094757D06FA3F4489C","title":"和记小菜(长宁店)","lon":"121.40547","lat":"31.2172","category":"76","category_name":"上海菜","address":"长宁区娄山关路999弄79号春天花园会所(近长宁路)"},{"poiid":"B2094757D06FA3F8429B","title":"好乐迪量贩式KTV(天山店)","lon":"121.403163586","lat":"31.2139461125","category":"170","category_name":"KTV","address":"上海市长宁区长宁路889号百盛购物中心5楼"},{"poiid":"B2094757D06FA3F44893","title":"天山中医医院","lon":"121.40489641","lat":"31.2147423822","category":"162","category_name":"医院","address":"长宁区娄山关路868号(近云雾山路)"},{"poiid":"B2094757D06FA0FA499F","title":"天山路古北路","lon":"121.40088843","lat":"31.215104645","category":"500","category_name":"未知分类","address":"上海天山路古北路"},{"poiid":"B2094655D36CA5F9419B","title":"长宁路娄山关路","lon":"121.40622","lat":"31.21751","category":"38","category_name":"公交车站","address":""},{"poiid":"B2094757D06FABF5439D","title":"春天花园","lon":"121.4038","lat":"31.217037","category":"47","category_name":"住宅区","address":"长宁区娄山关路999弄(近长宁路)"},{"poiid":"B2094757D06FA2FC489A","title":"思创大厦","lon":"121.403","lat":"31.2197","category":"46","category_name":"楼宇","address":"上海市长宁区天山路600弄3-4号楼"},{"poiid":"B2094654D56BA4F4469F","title":"上海花城","lon":"121.40445","lat":"31.21896","category":"47","category_name":"住宅区","address":"普陀区澳门路519号华生大厦2号楼2202室(近普陀路)查看地图"},{"poiid":"B2094757D069A0FA409D","title":"虹桥河滨公园","lon":"121.40090251","lat":"31.219385867","category":"196","category_name":"公园","address":"长宁区长宁路2080号(锦屏路口)"},{"poiid":"B2094757D06FA7FB4098","title":"虹桥万博花园","lon":"121.40051","lat":"31.216806","category":"47","category_name":"住宅区","address":"上海古北路69弄(近长宁路)"},{"poiid":"B2094757D068A3FC429A","title":"同达创业大厦","lon":"121.403","lat":"31.2189","category":"46","category_name":"楼宇","address":"朝阳华威桥东北角"},{"poiid":"B2094757D16DA1F5469F","title":"虹桥河滨花园","lon":"121.40254","lat":"31.219532","category":"47","category_name":"住宅区","address":"上海市长宁区长宁路1898弄"},{"poiid":"B2094757D06FAAF44298","title":"艺林盲人按摩院(长宁店)","lon":"121.40361","lat":"31.21796","category":"149","category_name":"洗浴推拿场所","address":"长宁区长宁路1842号"},{"poiid":"B2094757D06FA6F84998","title":"威尔士健身会所(长宁店)","lon":"121.40599","lat":"31.21729","category":"221","category_name":"健身中心","address":"长宁区娄山关路999号春天花园(近长宁路)"},{"poiid":"B2094757D66BA2F94592","title":"角落里ころり Corori","lon":"121.405356054","lat":"31.215454793","category":"95","category_name":"日本料理","address":"娄山关路884号近云雾山路"},{"poiid":"B2094654D56BA1F4499C","title":"新古北中学","lon":"121.40104","lat":"31.21554","category":"55","category_name":"中学","address":"长宁区玉屏南路640号(近古北路)"},{"poiid":"B2094654DB69AAFF479F","title":"天山中医院","lon":"121.40525","lat":"31.21475","category":"162","category_name":"医院","address":"上海市长宁区娄山关路868号"},{"poiid":"B2094757D069A6F4469D","title":"全家便利(虹桥机场店)","lon":"121.405636","lat":"31.218717","category":"117","category_name":"便民商店/便利店","address":"上海长宁区虹桥机场2号航站楼内"},{"poiid":"B2094757D165AAF84493","title":"宁悦人家","lon":"121.404210586","lat":"31.2179331905","category":"76","category_name":"上海菜","address":"长宁区长宁路1796号(近娄山关路)"},{"poiid":"B2094757D06FA1FC459F","title":"南华火锅(天山店)","lon":"121.40546","lat":"31.21478","category":"86","category_name":"火锅店","address":"长宁区娄山关路858号(玉屏南路口)"},{"poiid":"B2094757D068A2FB499E","title":"虹桥新城","lon":"121.40627","lat":"31.216637","category":"47","category_name":"住宅区","address":"上海市徐汇区漕溪北路555号(南丹东路口)"},{"poiid":"B2094655D36CA5F9419A","title":"长宁路锦屏路","lon":"121.40189","lat":"31.21831","category":"38","category_name":"公交车站","address":""},{"poiid":"B2094757DB69A7F44799","title":"和米堂","lon":"121.403828","lat":"31.218376","category":"95","category_name":"日本料理","address":"长宁区长宁路820号上海小马路美食街轻食区-10商铺"},{"poiid":"B2094757D069A0F5479E","title":"春草堂足疗(长宁店)","lon":"121.40519","lat":"31.218","category":"149","category_name":"洗浴推拿场所","address":"上海长宁区长宁路1798号(近娄山关路)  "},{"poiid":"B2094757D06FABFE419C","title":"古北路桥","lon":"121.39896392","lat":"31.216470718","category":"500","category_name":"未知分类","address":"上海长宁路古北路"},{"poiid":"B2094757DB69A5FF489F","title":"东方明珠塔","lon":"121.404627","lat":"31.216969","category":"500","category_name":"未知分类","address":null},{"poiid":"B2094654D56AAAF9409B","title":"天华公寓","lon":"121.402","lat":"31.2176","category":"46","category_name":"楼宇","address":"芙蓉江路276弄1-3号"},{"poiid":"B2094757D064AAFB4998","title":"牛将日本烧肉","lon":"121.40011","lat":"31.21435","category":"269","category_name":"烧烤","address":"长宁区古北路169号(近玉屏南路)"},{"poiid":"B2094654D56BA0FE489F","title":"小花园经典上海菜","lon":"121.40526737137","lat":"31.21600775918","category":"76","category_name":"上海菜","address":"长宁区云雾山路81号(娄山关路)"},{"poiid":"B2094655D26EA3F4499A","title":"上海电子信息职业技术学院(长宁校区)","lon":"121.40313","lat":"31.2149","category":"54","category_name":"职业技术学校","address":"上海市长宁区娄山关路玉屏南路"},{"poiid":"B2094757D069A3F4439A","title":"茅台花苑","lon":"121.399","lat":"31.216","category":"47","category_name":"住宅区","address":"上海市长宁区茅台路500弄"},{"poiid":"B2094751D36AA4F54392","title":"长湘情蒸菜馆","lon":"121.40518","lat":"31.21577","category":"77","category_name":"湖南菜","address":"长宁区云雾山路108号(近娄山关路)"},{"poiid":"B2094757D068A4F94798","title":"牛尚牛炭烤","lon":"121.40501158","lat":"31.215629145","category":"269","category_name":"烧烤","address":"长宁区云雾山路102号(近娄山关路)"},{"poiid":"B2094654D56BA1F4419E","title":"民生里","lon":"121.40318","lat":"31.215574","category":"47","category_name":"住宅区","address":"云雾山路221弄1-29单号,2-12双号"},{"poiid":"B2094757D06FA7FD4898","title":"华师大文史楼","lon":"121.403717983","lat":"31.2205415171","category":"253","category_name":"校园生活","address":"上海中山北路3663"},{"poiid":"B2094655D26DA7F9479F","title":"宁锦小区(东门)","lon":"121.40142","lat":"31.21646","category":"47","category_name":"住宅区","address":"锦屏路71弄1-23号"},{"poiid":"B2094757D065ABFD4493","title":"全家便利店(天山西路店)","lon":"121.402597026","lat":"31.2162928534","category":"500","category_name":"未知分类","address":"上海长宁区天山西路332号"},{"poiid":"B2094750DB69A5FE449E","title":"新招鲜","lon":"121.404815","lat":"31.214859","category":"247","category_name":"餐饮美食","address":"长宁区娄山关路858号2楼(近玉屏南路)"},{"poiid":"B2094757D164A5FF4699","title":"梦田","lon":"121.40259","lat":"31.21814","category":"148","category_name":"美容美发店","address":"上海长宁区长宁路(近娄山关路)  "},{"poiid":"B2094757D069A0F5469D","title":"虹桥河滨公园篮球场","lon":"121.4026753","lat":"31.218889484","category":"220","category_name":"运动场所","address":"上海长宁区长宁路2080号(近古北路)"},{"poiid":"B2094757D06FAAFA4293","title":"上海市电子工业学校(长宁校区)","lon":"121.40161758","lat":"31.217003172","category":"253","category_name":"校园生活","address":"上海市长宁区玉屏南路娄山关路由"},{"poiid":"B2094757D068A4F9409B","title":"四海游龙(玉屏店)","lon":"121.40478","lat":"31.21408","category":"68","category_name":"快餐厅","address":"长宁区娄山关路921号(近玉屏南路)"},{"poiid":"B2094654D56BA4F4459B","title":"周家桥街道社区卫生服务中心","lon":"121.40583","lat":"31.21796","category":"162","category_name":"医院","address":"长宁区长宁路1700号(近万航渡路)"},{"poiid":"B2094750D26EA2F44599","title":"西湖","lon":"121.401748","lat":"31.21669","category":"500","category_name":"未知分类","address":"杭州"},{"poiid":"B2094757D068A6FD499B","title":"长宁信息园","lon":"121.404","lat":"31.2191","category":"46","category_name":"楼宇","address":"上海天山路641号"},{"poiid":"B2094757D064A1FE479D","title":"宁锦小区","lon":"121.4008","lat":"31.216404","category":"47","category_name":"住宅区","address":"上海市长宁区锦屏路"},{"poiid":"B2094654D56BA0FF4198","title":"金匠发型工作室(娄山关路)","lon":"121.4053","lat":"31.21677","category":"148","category_name":"美容美发店","address":"长宁区娄山关路1016号(近长宁路)"},{"poiid":"B2094757D16AABFD4592","title":"天手古舞","lon":"121.399879","lat":"31.214492","category":"95","category_name":"日本料理","address":"长宁区古北路179号(近玉屏南路)"},{"poiid":"B2094752DB69A4FE469C","title":"上海电影博物馆","lon":"121.40435","lat":"31.217244","category":"500","category_name":"未知分类","address":"上海市 漕溪北路595号"},{"poiid":"B2094750D76DA1FF489B","title":"串丁","lon":"121.405","lat":"31.2151","category":"269","category_name":"烧烤","address":"长宁区娄山关路888号101室(近云雾山路)"},{"poiid":"B2094757D06FA3F4489C","title":"和记小菜(长宁店)","lon":"121.40547","lat":"31.2172","category":"76","category_name":"上海菜","address":"长宁区娄山关路999弄79号春天花园会所(近长宁路)"},{"poiid":"B2094757D06FA3F8429B","title":"好乐迪量贩式KTV(天山店)","lon":"121.403163586","lat":"31.2139461125","category":"170","category_name":"KTV","address":"上海市长宁区长宁路889号百盛购物中心5楼"},{"poiid":"B2094757D06FA3F44893","title":"天山中医医院","lon":"121.40489641","lat":"31.2147423822","category":"162","category_name":"医院","address":"长宁区娄山关路868号(近云雾山路)"},{"poiid":"B2094757D06FA0FA499F","title":"天山路古北路","lon":"121.40088843","lat":"31.215104645","category":"500","category_name":"未知分类","address":"上海天山路古北路"},{"poiid":"B2094655D36CA5F9419B","title":"长宁路娄山关路","lon":"121.40622","lat":"31.21751","category":"38","category_name":"公交车站","address":""},{"poiid":"B2094757D06FABF5439D","title":"春天花园","lon":"121.4038","lat":"31.217037","category":"47","category_name":"住宅区","address":"长宁区娄山关路999弄(近长宁路)"},{"poiid":"B2094757D06FA2FC489A","title":"思创大厦","lon":"121.403","lat":"31.2197","category":"46","category_name":"楼宇","address":"上海市长宁区天山路600弄3-4号楼"},{"poiid":"B2094654D56BA4F4469F","title":"上海花城","lon":"121.40445","lat":"31.21896","category":"47","category_name":"住宅区","address":"普陀区澳门路519号华生大厦2号楼2202室(近普陀路)查看地图"},{"poiid":"B2094757D069A0FA409D","title":"虹桥河滨公园","lon":"121.40090251","lat":"31.219385867","category":"196","category_name":"公园","address":"长宁区长宁路2080号(锦屏路口)"},{"poiid":"B2094757D06FA7FB4098","title":"虹桥万博花园","lon":"121.40051","lat":"31.216806","category":"47","category_name":"住宅区","address":"上海古北路69弄(近长宁路)"},{"poiid":"B2094757D068A3FC429A","title":"同达创业大厦","lon":"121.403","lat":"31.2189","category":"46","category_name":"楼宇","address":"朝阳华威桥东北角"},{"poiid":"B2094757D16DA1F5469F","title":"虹桥河滨花园","lon":"121.40254","lat":"31.219532","category":"47","category_name":"住宅区","address":"上海市长宁区长宁路1898弄"},{"poiid":"B2094757D06FAAF44298","title":"艺林盲人按摩院(长宁店)","lon":"121.40361","lat":"31.21796","category":"149","category_name":"洗浴推拿场所","address":"长宁区长宁路1842号"},{"poiid":"B2094757D06FA6F84998","title":"威尔士健身会所(长宁店)","lon":"121.40599","lat":"31.21729","category":"221","category_name":"健身中心","address":"长宁区娄山关路999号春天花园(近长宁路)"},{"poiid":"B2094757D66BA2F94592","title":"角落里ころり Corori","lon":"121.405356054","lat":"31.215454793","category":"95","category_name":"日本料理","address":"娄山关路884号近云雾山路"},{"poiid":"B2094654D56BA1F4499C","title":"新古北中学","lon":"121.40104","lat":"31.21554","category":"55","category_name":"中学","address":"长宁区玉屏南路640号(近古北路)"},{"poiid":"B2094654DB69AAFF479F","title":"天山中医院","lon":"121.40525","lat":"31.21475","category":"162","category_name":"医院","address":"上海市长宁区娄山关路868号"},{"poiid":"B2094757D069A6F4469D","title":"全家便利(虹桥机场店)","lon":"121.405636","lat":"31.218717","category":"117","category_name":"便民商店/便利店","address":"上海长宁区虹桥机场2号航站楼内"},{"poiid":"B2094757D165AAF84493","title":"宁悦人家","lon":"121.404210586","lat":"31.2179331905","category":"76","category_name":"上海菜","address":"长宁区长宁路1796号(近娄山关路)"},{"poiid":"B2094757D06FA1FC459F","title":"南华火锅(天山店)","lon":"121.40546","lat":"31.21478","category":"86","category_name":"火锅店","address":"长宁区娄山关路858号(玉屏南路口)"},{"poiid":"B2094757D068A2FB499E","title":"虹桥新城","lon":"121.40627","lat":"31.216637","category":"47","category_name":"住宅区","address":"上海市徐汇区漕溪北路555号(南丹东路口)"},{"poiid":"B2094655D36CA5F9419A","title":"长宁路锦屏路","lon":"121.40189","lat":"31.21831","category":"38","category_name":"公交车站","address":""},{"poiid":"B2094757DB69A7F44799","title":"和米堂","lon":"121.403828","lat":"31.218376","category":"95","category_name":"日本料理","address":"长宁区长宁路820号上海小马路美食街轻食区-10商铺"},{"poiid":"B2094757D069A0F5479E","title":"春草堂足疗(长宁店)","lon":"121.40519","lat":"31.218","category":"149","category_name":"洗浴推拿场所","address":"上海长宁区长宁路1798号(近娄山关路)  "},{"poiid":"B2094757D06FABFE419C","title":"古北路桥","lon":"121.39896392","lat":"31.216470718","category":"500","category_name":"未知分类","address":"上海长宁路古北路"},{"poiid":"B2094757DB69A5FF489F","title":"东方明珠塔","lon":"121.404627","lat":"31.216969","category":"500","category_name":"未知分类","address":null},{"poiid":"B2094654D56AAAF9409B","title":"天华公寓","lon":"121.402","lat":"31.2176","category":"46","category_name":"楼宇","address":"芙蓉江路276弄1-3号"},{"poiid":"B2094757D064AAFB4998","title":"牛将日本烧肉","lon":"121.40011","lat":"31.21435","category":"269","category_name":"烧烤","address":"长宁区古北路169号(近玉屏南路)"},{"poiid":"B2094654D56BA0FE489F","title":"小花园经典上海菜","lon":"121.40526737137","lat":"31.21600775918","category":"76","category_name":"上海菜","address":"长宁区云雾山路81号(娄山关路)"},{"poiid":"B2094655D26EA3F4499A","title":"上海电子信息职业技术学院(长宁校区)","lon":"121.40313","lat":"31.2149","category":"54","category_name":"职业技术学校","address":"上海市长宁区娄山关路玉屏南路"},{"poiid":"B2094757D069A3F4439A","title":"茅台花苑","lon":"121.399","lat":"31.216","category":"47","category_name":"住宅区","address":"上海市长宁区茅台路500弄"},{"poiid":"B2094751D36AA4F54392","title":"长湘情蒸菜馆","lon":"121.40518","lat":"31.21577","category":"77","category_name":"湖南菜","address":"长宁区云雾山路108号(近娄山关路)"},{"poiid":"B2094757D068A4F94798","title":"牛尚牛炭烤","lon":"121.40501158","lat":"31.215629145","category":"269","category_name":"烧烤","address":"长宁区云雾山路102号(近娄山关路)"},{"poiid":"B2094654D56BA1F4419E","title":"民生里","lon":"121.40318","lat":"31.215574","category":"47","category_name":"住宅区","address":"云雾山路221弄1-29单号,2-12双号"},{"poiid":"B2094757D06FA7FD4898","title":"华师大文史楼","lon":"121.403717983","lat":"31.2205415171","category":"253","category_name":"校园生活","address":"上海中山北路3663"},{"poiid":"B2094655D26DA7F9479F","title":"宁锦小区(东门)","lon":"121.40142","lat":"31.21646","category":"47","category_name":"住宅区","address":"锦屏路71弄1-23号"},{"poiid":"B2094757D065ABFD4493","title":"全家便利店(天山西路店)","lon":"121.402597026","lat":"31.2162928534","category":"500","category_name":"未知分类","address":"上海长宁区天山西路332号"},{"poiid":"B2094750DB69A5FE449E","title":"新招鲜","lon":"121.404815","lat":"31.214859","category":"247","category_name":"餐饮美食","address":"长宁区娄山关路858号2楼(近玉屏南路)"},{"poiid":"B2094757D164A5FF4699","title":"梦田","lon":"121.40259","lat":"31.21814","category":"148","category_name":"美容美发店","address":"上海长宁区长宁路(近娄山关路)  "},{"poiid":"B2094757D069A0F5469D","title":"虹桥河滨公园篮球场","lon":"121.4026753","lat":"31.218889484","category":"220","category_name":"运动场所","address":"上海长宁区长宁路2080号(近古北路)"},{"poiid":"B2094757D06FAAFA4293","title":"上海市电子工业学校(长宁校区)","lon":"121.40161758","lat":"31.217003172","category":"253","category_name":"校园生活","address":"上海市长宁区玉屏南路娄山关路由"},{"poiid":"B2094757D068A4F9409B","title":"四海游龙(玉屏店)","lon":"121.40478","lat":"31.21408","category":"68","category_name":"快餐厅","address":"长宁区娄山关路921号(近玉屏南路)"},{"poiid":"B2094654D56BA4F4459B","title":"周家桥街道社区卫生服务中心","lon":"121.40583","lat":"31.21796","category":"162","category_name":"医院","address":"长宁区长宁路1700号(近万航渡路)"},{"poiid":"B2094750D26EA2F44599","title":"西湖","lon":"121.401748","lat":"31.21669","category":"500","category_name":"未知分类","address":"杭州"},{"poiid":"B2094757D068A6FD499B","title":"长宁信息园","lon":"121.404","lat":"31.2191","category":"46","category_name":"楼宇","address":"上海天山路641号"},{"poiid":"B2094757D064A1FE479D","title":"宁锦小区","lon":"121.4008","lat":"31.216404","category":"47","category_name":"住宅区","address":"上海市长宁区锦屏路"},{"poiid":"B2094654D56BA0FF4198","title":"金匠发型工作室(娄山关路)","lon":"121.4053","lat":"31.21677","category":"148","category_name":"美容美发店","address":"长宁区娄山关路1016号(近长宁路)"},{"poiid":"B2094757D16AABFD4592","title":"天手古舞","lon":"121.399879","lat":"31.214492","category":"95","category_name":"日本料理","address":"长宁区古北路179号(近玉屏南路)"},{"poiid":"B2094752DB69A4FE469C","title":"上海电影博物馆","lon":"121.40435","lat":"31.217244","category":"500","category_name":"未知分类","address":"上海市 漕溪北路595号"},{"poiid":"B2094750D76DA1FF489B","title":"串丁","lon":"121.405","lat":"31.2151","category":"269","category_name":"烧烤","address":"长宁区娄山关路888号101室(近云雾山路)"},{"poiid":"B2094757D06FA3F4489C","title":"和记小菜(长宁店)","lon":"121.40547","lat":"31.2172","category":"76","category_name":"上海菜","address":"长宁区娄山关路999弄79号春天花园会所(近长宁路)"},{"poiid":"B2094757D06FA3F8429B","title":"好乐迪量贩式KTV(天山店)","lon":"121.403163586","lat":"31.2139461125","category":"170","category_name":"KTV","address":"上海市长宁区长宁路889号百盛购物中心5楼"},{"poiid":"B2094757D06FA3F44893","title":"天山中医医院","lon":"121.40489641","lat":"31.2147423822","category":"162","category_name":"医院","address":"长宁区娄山关路868号(近云雾山路)"},{"poiid":"B2094757D06FA0FA499F","title":"天山路古北路","lon":"121.40088843","lat":"31.215104645","category":"500","category_name":"未知分类","address":"上海天山路古北路"},{"poiid":"B2094655D36CA5F9419B","title":"长宁路娄山关路","lon":"121.40622","lat":"31.21751","category":"38","category_name":"公交车站","address":""},{"poiid":"B2094757D06FABF5439D","title":"春天花园","lon":"121.4038","lat":"31.217037","category":"47","category_name":"住宅区","address":"长宁区娄山关路999弄(近长宁路)"},{"poiid":"B2094757D06FA2FC489A","title":"思创大厦","lon":"121.403","lat":"31.2197","category":"46","category_name":"楼宇","address":"上海市长宁区天山路600弄3-4号楼"},{"poiid":"B2094654D56BA4F4469F","title":"上海花城","lon":"121.40445","lat":"31.21896","category":"47","category_name":"住宅区","address":"普陀区澳门路519号华生大厦2号楼2202室(近普陀路)查看地图"},{"poiid":"B2094757D069A0FA409D","title":"虹桥河滨公园","lon":"121.40090251","lat":"31.219385867","category":"196","category_name":"公园","address":"长宁区长宁路2080号(锦屏路口)"},{"poiid":"B2094757D06FA7FB4098","title":"虹桥万博花园","lon":"121.40051","lat":"31.216806","category":"47","category_name":"住宅区","address":"上海古北路69弄(近长宁路)"},{"poiid":"B2094757D068A3FC429A","title":"同达创业大厦","lon":"121.403","lat":"31.2189","category":"46","category_name":"楼宇","address":"朝阳华威桥东北角"},{"poiid":"B2094757D16DA1F5469F","title":"虹桥河滨花园","lon":"121.40254","lat":"31.219532","category":"47","category_name":"住宅区","address":"上海市长宁区长宁路1898弄"},{"poiid":"B2094757D06FAAF44298","title":"艺林盲人按摩院(长宁店)","lon":"121.40361","lat":"31.21796","category":"149","category_name":"洗浴推拿场所","address":"长宁区长宁路1842号"},{"poiid":"B2094757D06FA6F84998","title":"威尔士健身会所(长宁店)","lon":"121.40599","lat":"31.21729","category":"221","category_name":"健身中心","address":"长宁区娄山关路999号春天花园(近长宁路)"},{"poiid":"B2094757D66BA2F94592","title":"角落里ころり Corori","lon":"121.405356054","lat":"31.215454793","category":"95","category_name":"日本料理","address":"娄山关路884号近云雾山路"},{"poiid":"B2094654D56BA1F4499C","title":"新古北中学","lon":"121.40104","lat":"31.21554","category":"55","category_name":"中学","address":"长宁区玉屏南路640号(近古北路)"},{"poiid":"B2094654DB69AAFF479F","title":"天山中医院","lon":"121.40525","lat":"31.21475","category":"162","category_name":"医院","address":"上海市长宁区娄山关路868号"},{"poiid":"B2094757D069A6F4469D","title":"全家便利(虹桥机场店)","lon":"121.405636","lat":"31.218717","category":"117","category_name":"便民商店/便利店","address":"上海长宁区虹桥机场2号航站楼内"},{"poiid":"B2094757D165AAF84493","title":"宁悦人家","lon":"121.404210586","lat":"31.2179331905","category":"76","category_name":"上海菜","address":"长宁区长宁路1796号(近娄山关路)"},{"poiid":"B2094757D06FA1FC459F","title":"南华火锅(天山店)","lon":"121.40546","lat":"31.21478","category":"86","category_name":"火锅店","address":"长宁区娄山关路858号(玉屏南路口)"},{"poiid":"B2094757D068A2FB499E","title":"虹桥新城","lon":"121.40627","lat":"31.216637","category":"47","category_name":"住宅区","address":"上海市徐汇区漕溪北路555号(南丹东路口)"},{"poiid":"B2094655D36CA5F9419A","title":"长宁路锦屏路","lon":"121.40189","lat":"31.21831","category":"38","category_name":"公交车站","address":""},{"poiid":"B2094757DB69A7F44799","title":"和米堂","lon":"121.403828","lat":"31.218376","category":"95","category_name":"日本料理","address":"长宁区长宁路820号上海小马路美食街轻食区-10商铺"},{"poiid":"B2094757D069A0F5479E","title":"春草堂足疗(长宁店)","lon":"121.40519","lat":"31.218","category":"149","category_name":"洗浴推拿场所","address":"上海长宁区长宁路1798号(近娄山关路)  "},{"poiid":"B2094757D06FABFE419C","title":"古北路桥","lon":"121.39896392","lat":"31.216470718","category":"500","category_name":"未知分类","address":"上海长宁路古北路"},{"poiid":"B2094757DB69A5FF489F","title":"东方明珠塔","lon":"121.404627","lat":"31.216969","category":"500","category_name":"未知分类","address":null},{"poiid":"B2094654D56AAAF9409B","title":"天华公寓","lon":"121.402","lat":"31.2176","category":"46","category_name":"楼宇","address":"芙蓉江路276弄1-3号"},{"poiid":"B2094757D064AAFB4998","title":"牛将日本烧肉","lon":"121.40011","lat":"31.21435","category":"269","category_name":"烧烤","address":"长宁区古北路169号(近玉屏南路)"},{"poiid":"B2094654D56BA0FE489F","title":"小花园经典上海菜","lon":"121.40526737137","lat":"31.21600775918","category":"76","category_name":"上海菜","address":"长宁区云雾山路81号(娄山关路)"},{"poiid":"B2094655D26EA3F4499A","title":"上海电子信息职业技术学院(长宁校区)","lon":"121.40313","lat":"31.2149","category":"54","category_name":"职业技术学校","address":"上海市长宁区娄山关路玉屏南路"},{"poiid":"B2094757D069A3F4439A","title":"茅台花苑","lon":"121.399","lat":"31.216","category":"47","category_name":"住宅区","address":"上海市长宁区茅台路500弄"},{"poiid":"B2094751D36AA4F54392","title":"长湘情蒸菜馆","lon":"121.40518","lat":"31.21577","category":"77","category_name":"湖南菜","address":"长宁区云雾山路108号(近娄山关路)"},{"poiid":"B2094757D068A4F94798","title":"牛尚牛炭烤","lon":"121.40501158","lat":"31.215629145","category":"269","category_name":"烧烤","address":"长宁区云雾山路102号(近娄山关路)"},{"poiid":"B2094654D56BA1F4419E","title":"民生里","lon":"121.40318","lat":"31.215574","category":"47","category_name":"住宅区","address":"云雾山路221弄1-29单号,2-12双号"},{"poiid":"B2094757D06FA7FD4898","title":"华师大文史楼","lon":"121.403717983","lat":"31.2205415171","category":"253","category_name":"校园生活","address":"上海中山北路3663"},{"poiid":"B2094655D26DA7F9479F","title":"宁锦小区(东门)","lon":"121.40142","lat":"31.21646","category":"47","category_name":"住宅区","address":"锦屏路71弄1-23号"},{"poiid":"B2094757D065ABFD4493","title":"全家便利店(天山西路店)","lon":"121.402597026","lat":"31.2162928534","category":"500","category_name":"未知分类","address":"上海长宁区天山西路332号"},{"poiid":"B2094750DB69A5FE449E","title":"新招鲜","lon":"121.404815","lat":"31.214859","category":"247","category_name":"餐饮美食","address":"长宁区娄山关路858号2楼(近玉屏南路)"},{"poiid":"B2094757D164A5FF4699","title":"梦田","lon":"121.40259","lat":"31.21814","category":"148","category_name":"美容美发店","address":"上海长宁区长宁路(近娄山关路)  "},{"poiid":"B2094757D069A0F5469D","title":"虹桥河滨公园篮球场","lon":"121.4026753","lat":"31.218889484","category":"220","category_name":"运动场所","address":"上海长宁区长宁路2080号(近古北路)"},{"poiid":"B2094757D06FAAFA4293","title":"上海市电子工业学校(长宁校区)","lon":"121.40161758","lat":"31.217003172","category":"253","category_name":"校园生活","address":"上海市长宁区玉屏南路娄山关路由"},{"poiid":"B2094757D068A4F9409B","title":"四海游龙(玉屏店)","lon":"121.40478","lat":"31.21408","category":"68","category_name":"快餐厅","address":"长宁区娄山关路921号(近玉屏南路)"},{"poiid":"B2094654D56BA4F4459B","title":"周家桥街道社区卫生服务中心","lon":"121.40583","lat":"31.21796","category":"162","category_name":"医院","address":"长宁区长宁路1700号(近万航渡路)"},{"poiid":"B2094750D26EA2F44599","title":"西湖","lon":"121.401748","lat":"31.21669","category":"500","category_name":"未知分类","address":"杭州"},{"poiid":"B2094757D068A6FD499B","title":"长宁信息园","lon":"121.404","lat":"31.2191","category":"46","category_name":"楼宇","address":"上海天山路641号"},{"poiid":"B2094757D064A1FE479D","title":"宁锦小区","lon":"121.4008","lat":"31.216404","category":"47","category_name":"住宅区","address":"上海市长宁区锦屏路"},{"poiid":"B2094654D56BA0FF4198","title":"金匠发型工作室(娄山关路)","lon":"121.4053","lat":"31.21677","category":"148","category_name":"美容美发店","address":"长宁区娄山关路1016号(近长宁路)"},{"poiid":"B2094757D16AABFD4592","title":"天手古舞","lon":"121.399879","lat":"31.214492","category":"95","category_name":"日本料理","address":"长宁区古北路179号(近玉屏南路)"},{"poiid":"B2094752DB69A4FE469C","title":"上海电影博物馆","lon":"121.40435","lat":"31.217244","category":"500","category_name":"未知分类","address":"上海市 漕溪北路595号"},{"poiid":"B2094750D76DA1FF489B","title":"串丁","lon":"121.405","lat":"31.2151","category":"269","category_name":"烧烤","address":"长宁区娄山关路888号101室(近云雾山路)"},{"poiid":"B2094757D06FA3F4489C","title":"和记小菜(长宁店)","lon":"121.40547","lat":"31.2172","category":"76","category_name":"上海菜","address":"长宁区娄山关路999弄79号春天花园会所(近长宁路)"},{"poiid":"B2094757D06FA3F8429B","title":"好乐迪量贩式KTV(天山店)","lon":"121.403163586","lat":"31.2139461125","category":"170","category_name":"KTV","address":"上海市长宁区长宁路889号百盛购物中心5楼"},{"poiid":"B2094757D06FA3F44893","title":"天山中医医院","lon":"121.40489641","lat":"31.2147423822","category":"162","category_name":"医院","address":"长宁区娄山关路868号(近云雾山路)"},{"poiid":"B2094757D06FA0FA499F","title":"天山路古北路","lon":"121.40088843","lat":"31.215104645","category":"500","category_name":"未知分类","address":"上海天山路古北路"},{"poiid":"B2094655D36CA5F9419B","title":"长宁路娄山关路","lon":"121.40622","lat":"31.21751","category":"38","category_name":"公交车站","address":""},{"poiid":"B2094757D06FABF5439D","title":"春天花园","lon":"121.4038","lat":"31.217037","category":"47","category_name":"住宅区","address":"长宁区娄山关路999弄(近长宁路)"},{"poiid":"B2094757D06FA2FC489A","title":"思创大厦","lon":"121.403","lat":"31.2197","category":"46","category_name":"楼宇","address":"上海市长宁区天山路600弄3-4号楼"},{"poiid":"B2094654D56BA4F4469F","title":"上海花城","lon":"121.40445","lat":"31.21896","category":"47","category_name":"住宅区","address":"普陀区澳门路519号华生大厦2号楼2202室(近普陀路)查看地图"},{"poiid":"B2094757D069A0FA409D","title":"虹桥河滨公园","lon":"121.40090251","lat":"31.219385867","category":"196","category_name":"公园","address":"长宁区长宁路2080号(锦屏路口)"},{"poiid":"B2094757D06FA7FB4098","title":"虹桥万博花园","lon":"121.40051","lat":"31.216806","category":"47","category_name":"住宅区","address":"上海古北路69弄(近长宁路)"},{"poiid":"B2094757D068A3FC429A","title":"同达创业大厦","lon":"121.403","lat":"31.2189","category":"46","category_name":"楼宇","address":"朝阳华威桥东北角"},{"poiid":"B2094757D16DA1F5469F","title":"虹桥河滨花园","lon":"121.40254","lat":"31.219532","category":"47","category_name":"住宅区","address":"上海市长宁区长宁路1898弄"},{"poiid":"B2094757D06FAAF44298","title":"艺林盲人按摩院(长宁店)","lon":"121.40361","lat":"31.21796","category":"149","category_name":"洗浴推拿场所","address":"长宁区长宁路1842号"},{"poiid":"B2094757D06FA6F84998","title":"威尔士健身会所(长宁店)","lon":"121.40599","lat":"31.21729","category":"221","category_name":"健身中心","address":"长宁区娄山关路999号春天花园(近长宁路)"},{"poiid":"B2094757D66BA2F94592","title":"角落里ころり Corori","lon":"121.405356054","lat":"31.215454793","category":"95","category_name":"日本料理","address":"娄山关路884号近云雾山路"},{"poiid":"B2094654D56BA1F4499C","title":"新古北中学","lon":"121.40104","lat":"31.21554","category":"55","category_name":"中学","address":"长宁区玉屏南路640号(近古北路)"},{"poiid":"B2094654DB69AAFF479F","title":"天山中医院","lon":"121.40525","lat":"31.21475","category":"162","category_name":"医院","address":"上海市长宁区娄山关路868号"},{"poiid":"B2094757D069A6F4469D","title":"全家便利(虹桥机场店)","lon":"121.405636","lat":"31.218717","category":"117","category_name":"便民商店/便利店","address":"上海长宁区虹桥机场2号航站楼内"},{"poiid":"B2094757D165AAF84493","title":"宁悦人家","lon":"121.404210586","lat":"31.2179331905","category":"76","category_name":"上海菜","address":"长宁区长宁路1796号(近娄山关路)"},{"poiid":"B2094757D06FA1FC459F","title":"南华火锅(天山店)","lon":"121.40546","lat":"31.21478","category":"86","category_name":"火锅店","address":"长宁区娄山关路858号(玉屏南路口)"},{"poiid":"B2094757D068A2FB499E","title":"虹桥新城","lon":"121.40627","lat":"31.216637","category":"47","category_name":"住宅区","address":"上海市徐汇区漕溪北路555号(南丹东路口)"},{"poiid":"B2094655D36CA5F9419A","title":"长宁路锦屏路","lon":"121.40189","lat":"31.21831","category":"38","category_name":"公交车站","address":""},{"poiid":"B2094757DB69A7F44799","title":"和米堂","lon":"121.403828","lat":"31.218376","category":"95","category_name":"日本料理","address":"长宁区长宁路820号上海小马路美食街轻食区-10商铺"},{"poiid":"B2094757D069A0F5479E","title":"春草堂足疗(长宁店)","lon":"121.40519","lat":"31.218","category":"149","category_name":"洗浴推拿场所","address":"上海长宁区长宁路1798号(近娄山关路)  "},{"poiid":"B2094757D06FABFE419C","title":"古北路桥","lon":"121.39896392","lat":"31.216470718","category":"500","category_name":"未知分类","address":"上海长宁路古北路"},{"poiid":"B2094757DB69A5FF489F","title":"东方明珠塔","lon":"121.404627","lat":"31.216969","category":"500","category_name":"未知分类","address":null},{"poiid":"B2094654D56AAAF9409B","title":"天华公寓","lon":"121.402","lat":"31.2176","category":"46","category_name":"楼宇","address":"芙蓉江路276弄1-3号"},{"poiid":"B2094757D064AAFB4998","title":"牛将日本烧肉","lon":"121.40011","lat":"31.21435","category":"269","category_name":"烧烤","address":"长宁区古北路169号(近玉屏南路)"},{"poiid":"B2094654D56BA0FE489F","title":"小花园经典上海菜","lon":"121.40526737137","lat":"31.21600775918","category":"76","category_name":"上海菜","address":"长宁区云雾山路81号(娄山关路)"},{"poiid":"B2094655D26EA3F4499A","title":"上海电子信息职业技术学院(长宁校区)","lon":"121.40313","lat":"31.2149","category":"54","category_name":"职业技术学校","address":"上海市长宁区娄山关路玉屏南路"},{"poiid":"B2094757D069A3F4439A","title":"茅台花苑","lon":"121.399","lat":"31.216","category":"47","category_name":"住宅区","address":"上海市长宁区茅台路500弄"},{"poiid":"B2094751D36AA4F54392","title":"长湘情蒸菜馆","lon":"121.40518","lat":"31.21577","category":"77","category_name":"湖南菜","address":"长宁区云雾山路108号(近娄山关路)"},{"poiid":"B2094757D068A4F94798","title":"牛尚牛炭烤","lon":"121.40501158","lat":"31.215629145","category":"269","category_name":"烧烤","address":"长宁区云雾山路102号(近娄山关路)"},{"poiid":"B2094654D56BA1F4419E","title":"民生里","lon":"121.40318","lat":"31.215574","category":"47","category_name":"住宅区","address":"云雾山路221弄1-29单号,2-12双号"},{"poiid":"B2094757D06FA7FD4898","title":"华师大文史楼","lon":"121.403717983","lat":"31.2205415171","category":"253","category_name":"校园生活","address":"上海中山北路3663"},{"poiid":"B2094655D26DA7F9479F","title":"宁锦小区(东门)","lon":"121.40142","lat":"31.21646","category":"47","category_name":"住宅区","address":"锦屏路71弄1-23号"},{"poiid":"B2094757D065ABFD4493","title":"全家便利店(天山西路店)","lon":"121.402597026","lat":"31.2162928534","category":"500","category_name":"未知分类","address":"上海长宁区天山西路332号"},{"poiid":"B2094750DB69A5FE449E","title":"新招鲜","lon":"121.404815","lat":"31.214859","category":"247","category_name":"餐饮美食","address":"长宁区娄山关路858号2楼(近玉屏南路)"},{"poiid":"B2094757D164A5FF4699","title":"梦田","lon":"121.40259","lat":"31.21814","category":"148","category_name":"美容美发店","address":"上海长宁区长宁路(近娄山关路)  "},{"poiid":"B2094757D069A0F5469D","title":"虹桥河滨公园篮球场","lon":"121.4026753","lat":"31.218889484","category":"220","category_name":"运动场所","address":"上海长宁区长宁路2080号(近古北路)"},{"poiid":"B2094757D06FAAFA4293","title":"上海市电子工业学校(长宁校区)","lon":"121.40161758","lat":"31.217003172","category":"253","category_name":"校园生活","address":"上海市长宁区玉屏南路娄山关路由"},{"poiid":"B2094757D068A4F9409B","title":"四海游龙(玉屏店)","lon":"121.40478","lat":"31.21408","category":"68","category_name":"快餐厅","address":"长宁区娄山关路921号(近玉屏南路)"},{"poiid":"B2094654D56BA4F4459B","title":"周家桥街道社区卫生服务中心","lon":"121.40583","lat":"31.21796","category":"162","category_name":"医院","address":"长宁区长宁路1700号(近万航渡路)"},{"poiid":"B2094750D26EA2F44599","title":"西湖","lon":"121.401748","lat":"31.21669","category":"500","category_name":"未知分类","address":"杭州"},{"poiid":"B2094757D068A6FD499B","title":"长宁信息园","lon":"121.404","lat":"31.2191","category":"46","category_name":"楼宇","address":"上海天山路641号"},{"poiid":"B2094757D064A1FE479D","title":"宁锦小区","lon":"121.4008","lat":"31.216404","category":"47","category_name":"住宅区","address":"上海市长宁区锦屏路"},{"poiid":"B2094654D56BA0FF4198","title":"金匠发型工作室(娄山关路)","lon":"121.4053","lat":"31.21677","category":"148","category_name":"美容美发店","address":"长宁区娄山关路1016号(近长宁路)"},{"poiid":"B2094757D16AABFD4592","title":"天手古舞","lon":"121.399879","lat":"31.214492","category":"95","category_name":"日本料理","address":"长宁区古北路179号(近玉屏南路)"},{"poiid":"B2094752DB69A4FE469C","title":"上海电影博物馆","lon":"121.40435","lat":"31.217244","category":"500","category_name":"未知分类","address":"上海市 漕溪北路595号"},{"poiid":"B2094750D76DA1FF489B","title":"串丁","lon":"121.405","lat":"31.2151","category":"269","category_name":"烧烤","address":"长宁区娄山关路888号101室(近云雾山路)"}]