[{"poiid":"B2094757D06EAAFF4793","title":"上海国际体操中心","lon":"121.41346669","lat":"31.213709584","category":"220","category_name":"运动场所","address":"长宁区武夷路777号国际体操中心游泳馆内(近中山西路)"},{"poiid":"B2094654D565A5F9429F","title":"上海市长宁区妇幼保健院(上海妇孺医院)","lon":"121.41479","lat":"31.21307","category":"162","category_name":"医院","address":"长宁区武夷路773号(近中山西路)"},{"poiid":"B2094654D565A5F94293","title":"上海国际体操中心游泳馆","lon":"121.41432","lat":"31.21341","category":"231","category_name":"游泳馆","address":"上海长宁区武夷路777号上海国际体操中心内(近中山西路)"},{"poiid":"B2094757D06FABFD429A","title":"美仑大酒店","lon":"121.41327064","lat":"31.214548775","category":"217","category_name":"旅馆招待所","address":"上海长宁区武夷路789号(近中山西路)"},{"poiid":"B2094757DA6EABFB469A","title":"尚嘉中心","lon":"121.413","lat":"31.2115","category":"249","category_name":"购物服务","address":"上海市长宁区仙霞路99号"},{"poiid":"B2094757D06FA7FA4393","title":"华师大","lon":"121.413307586","lat":"31.2167411672","category":"52","category_name":"高等院校","address":"上海市中山北路"},{"poiid":"B2094757D16EA5FB409E","title":"中山西路长宁路","lon":"121.411937586","lat":"31.2175041821","category":"500","category_name":"未知分类","address":"上海市长宁区长宁路"},{"poiid":"B2094757D068A4FA469E","title":"绿洲大厦","lon":"121.412556","lat":"31.213812","category":"46","category_name":"楼宇","address":"石景山区阜石路与杨庄东街交叉口西北角"},{"poiid":"B2094757D06FA7F4409C","title":"上海国际体操中心羽毛球馆","lon":"121.41341304","lat":"31.213108572","category":"220","category_name":"运动场所","address":"上海长宁区武夷路777号(近中山西路)"},{"poiid":"B2094757D06FA2FB419F","title":"家顺寿司","lon":"121.41635","lat":"31.21819","category":"269","category_name":"烧烤","address":"长宁区长宁路1018号龙之梦购物中心7楼(近凯旋路)"},{"poiid":"B2094654D565A5F9439B","title":"乐购(长宁店)","lon":"121.41323","lat":"31.21296","category":"118","category_name":"超级市场","address":"长宁区武夷路777号国际体操中心游泳馆1楼(近中山西路)"},{"poiid":"B2094757D06FA7FB489B","title":"天山茶城","lon":"121.41228","lat":"31.2127","category":"136","category_name":"烟酒专卖店","address":"长宁区中山西路518号(玉屏南路口)"},{"poiid":"B2094757D06FA7FD4193","title":"盛高国际大厦","lon":"121.41","lat":"31.2119","category":"46","category_name":"楼宇","address":"上海市长宁区仙霞路137号"},{"poiid":"B2094757D064A6FF4092","title":"堡德佳西班牙餐厅","lon":"121.4136","lat":"31.21384","category":"94","category_name":"西餐厅","address":"长宁区武夷路789号美仑大酒店1楼(近中山西路)"},{"poiid":"B2094757D068A3FA469B","title":"沪西礼拜堂","lon":"121.409736454","lat":"31.2167527845","category":"245","category_name":"教堂","address":"长宁区长宁路1465号(近遵义路)"},{"poiid":"B2094654D565A5F9499A","title":"中山公寓","lon":"121.41261","lat":"31.216496","category":"47","category_name":"住宅区","address":"上海市长宁区长宁路1277弄"},{"poiid":"B2094757D16CA2FD429D","title":"上海新视界眼科医院","lon":"121.414183586","lat":"31.2162461575","category":"162","category_name":"医院","address":"长宁区汇川路18号(近中山公园)"},{"poiid":"B2094757D064A4FB489F","title":"美仑大酒店皇冠厅","lon":"121.41416","lat":"31.2143","category":"72","category_name":"广东菜","address":"上海长宁区武夷路789号美仑大酒店5楼  "},{"poiid":"B2094654D56BA0F5459E","title":"安泰大楼","lon":"121.413","lat":"31.2129","category":"46","category_name":"楼宇","address":"上海市长宁区遵义路107号"},{"poiid":"B2094750D464ABFE4693","title":"思迈乐咖喱","lon":"121.411499","lat":"31.215938","category":"95","category_name":"日本料理","address":"长宁区长宁路999号光一百货B1楼B204号铺(近中山公园地铁站)"},{"poiid":"B2094757DA69A1F94499","title":"虹桥上海城","lon":"121.414","lat":"31.2127","category":"119","category_name":"商场","address":"上海市长宁区遵义路100号"},{"poiid":"B2094757D16DA7FE4398","title":"食之密","lon":"121.414020586","lat":"31.2164781621","category":"500","category_name":"未知分类","address":"上海龙之梦B1层"},{"poiid":"B2094757D06EAAF44399","title":"上海消防博物馆","lon":"121.41157","lat":"31.21739","category":"182","category_name":"博物馆","address":"上海市长宁区中山西路"},{"poiid":"B2094654DB64A6F9499E","title":"汉庭快捷(中山西路店)","lon":"121.41239","lat":"31.2138","category":"216","category_name":"经济型连锁酒店","address":"上海闵行区吴中路638号(近虹许路)  "},{"poiid":"B2094654D565A5F9479F","title":"上海天大医疗美容医院","lon":"121.41148","lat":"31.21614","category":"162","category_name":"医院","address":"长宁区中山西路339号(长宁路口)"},{"poiid":"B2094654D56BA0F9439E","title":"科宁小区","lon":"121.4107","lat":"31.214743","category":"47","category_name":"住宅区","address":"中山西路450弄"},{"poiid":"B2094655D26CABF8499D","title":"绿洲大厦商务楼","lon":"121.41255","lat":"31.2138","category":"46","category_name":"楼宇","address":"中山西路555"},{"poiid":"B2094757D16FAAFE429A","title":"上海市长宁区妇幼保健医院9楼佳佳母婴天地！","lon":"121.414710586","lat":"31.2133331006","category":"162","category_name":"医院","address":"上海市长宁区武夷路773号9楼。"},{"poiid":"B2094757D66FA2F4439A","title":"爆爆椒中山公园店","lon":"121.413293586","lat":"31.2159511518","category":"196","category_name":"公园","address":"上海定西路1550号"},{"poiid":"B2094757D065A1FC409B","title":"天山三村","lon":"121.411854086","lat":"31.2150001332","category":"252","category_name":"楼宇机构","address":"上海遵义路玉屏南路"},{"poiid":"B2094757D06FAAF4469D","title":"招商银行(长宁支行)","lon":"121.413010017","lat":"31.2177561137","category":"150","category_name":"银行","address":"长宁区长宁路1302号(近中山西路)"},{"poiid":"B2094655D269AAFC4993","title":"美仑大酒店宴会厅","lon":"121.41389","lat":"31.21457","category":"247","category_name":"餐饮美食","address":"长宁区武夷路789号美仑大酒店内(近中山西路)查看地图"},{"poiid":"B2094655D26BA2FC419A","title":"武夷路中山西路","lon":"121.41431","lat":"31.21268","category":"38","category_name":"公交车站","address":""},{"poiid":"B2094757D469A5F9489B","title":"赞歧田野 武夷路店","lon":"121.412915","lat":"31.2129","category":"95","category_name":"日本料理","address":"长宁区武夷路789号美仑大酒店1楼(近国际体操中心)"},{"poiid":"B2094654D565A5F9479B","title":"碧云公寓","lon":"121.41278","lat":"31.214733","category":"47","category_name":"住宅区","address":"中山西路483号"},{"poiid":"B2094655D26DA7FF489D","title":"碧云公寓(西门)","lon":"121.41194","lat":"31.21477","category":"47","category_name":"住宅区","address":"中山西路483"},{"poiid":"B2094757D069A5F5429D","title":"天山路","lon":"121.414787292","lat":"31.2130813599","category":"260","category_name":"其他","address":"上海长宁区天山路"},{"poiid":"B2094757D469A2F4439F","title":"美仑大酒店仲马厅","lon":"121.412899","lat":"31.212905","category":"76","category_name":"上海菜","address":"长宁区武夷路789号美仑大酒店4楼(近中山西路)"},{"poiid":"B2094655D26DA3FC4099","title":"大华公寓","lon":"121.41141","lat":"31.21386","category":"47","category_name":"住宅区","address":"玉屏南路110弄20、22"},{"poiid":"B2094757D068A0FE479C","title":"星之健身(长宁店)","lon":"121.4137","lat":"31.21239","category":"221","category_name":"健身中心","address":"长宁区武夷路777号国际体操中心游泳馆3楼(近中山西路)"},{"poiid":"B2094751D465A2FF4398","title":"大桶大","lon":"121.411067","lat":"31.21429","category":"500","category_name":"未知分类","address":null},{"poiid":"B2094757D064A6FF439F","title":"真锅咖啡厅(绿洲大厦店)","lon":"121.41282","lat":"31.21354","category":"260","category_name":"其他","address":"长宁区中山西路555号绿洲大厦1楼(近武夷路)"},{"poiid":"B2094654DB6AA2F5499F","title":"日本株式会社赛路岛上海代表处","lon":"121.41255","lat":"31.21381","category":"250","category_name":"公园户外","address":"长宁区中山西路555号绿洲大厦901室"},{"poiid":"B2094757D66DA7F54193","title":"中山公园地下商城","lon":"121.41290408","lat":"31.217456681","category":"196","category_name":"公园","address":"上海第一次驾到此处~"},{"poiid":"B2094757D469A0FE4199","title":"美仑大酒店香港厅","lon":"121.412767054","lat":"31.212718793","category":"72","category_name":"广东菜","address":"长宁区武夷路789号美仑大酒店2楼(近中山西路)"},{"poiid":"B2094757D06AA1FE4898","title":"九龙男子医院","lon":"121.41185","lat":"31.21616","category":"162","category_name":"医院","address":"上海长宁区中山西路333号"},{"poiid":"B2094757D069A6F4489A","title":"许记生煎(遵义路店)","lon":"121.40873","lat":"31.21446","category":"68","category_name":"快餐厅","address":"长宁区遵义路585号(近云雾山路)"},{"poiid":"B2094757DA65A5F4439C","title":"上海众奕酒店","lon":"121.412792802","lat":"31.213072145","category":"216","category_name":"经济型连锁酒店","address":"上海市长宁区中山西路513号(近武夷路)"},{"poiid":"B2094654D565A5F94798","title":"上海高架桥养护管理有限公司","lon":"121.4119","lat":"31.21497","category":"263","category_name":"公司","address":"中山西路435号"},{"poiid":"B2094757D16EA4FE409F","title":"三泾庙","lon":"121.414215","lat":"31.214636","category":"245","category_name":"教堂","address":"长宁区长宁路三泾北宅244号(安化路凯旋路)"},{"poiid":"B2094757D06EAAFF4793","title":"上海国际体操中心","lon":"121.41346669","lat":"31.213709584","category":"220","category_name":"运动场所","address":"长宁区武夷路777号国际体操中心游泳馆内(近中山西路)"},{"poiid":"B2094654D565A5F9429F","title":"上海市长宁区妇幼保健院(上海妇孺医院)","lon":"121.41479","lat":"31.21307","category":"162","category_name":"医院","address":"长宁区武夷路773号(近中山西路)"},{"poiid":"B2094654D565A5F94293","title":"上海国际体操中心游泳馆","lon":"121.41432","lat":"31.21341","category":"231","category_name":"游泳馆","address":"上海长宁区武夷路777号上海国际体操中心内(近中山西路)"},{"poiid":"B2094757D06FABFD429A","title":"美仑大酒店","lon":"121.41327064","lat":"31.214548775","category":"217","category_name":"旅馆招待所","address":"上海长宁区武夷路789号(近中山西路)"},{"poiid":"B2094757DA6EABFB469A","title":"尚嘉中心","lon":"121.413","lat":"31.2115","category":"249","category_name":"购物服务","address":"上海市长宁区仙霞路99号"},{"poiid":"B2094757D06FA7FA4393","title":"华师大","lon":"121.413307586","lat":"31.2167411672","category":"52","category_name":"高等院校","address":"上海市中山北路"},{"poiid":"B2094757D16EA5FB409E","title":"中山西路长宁路","lon":"121.411937586","lat":"31.2175041821","category":"500","category_name":"未知分类","address":"上海市长宁区长宁路"},{"poiid":"B2094757D068A4FA469E","title":"绿洲大厦","lon":"121.412556","lat":"31.213812","category":"46","category_name":"楼宇","address":"石景山区阜石路与杨庄东街交叉口西北角"},{"poiid":"B2094757D06FA7F4409C","title":"上海国际体操中心羽毛球馆","lon":"121.41341304","lat":"31.213108572","category":"220","category_name":"运动场所","address":"上海长宁区武夷路777号(近中山西路)"},{"poiid":"B2094757D06FA2FB419F","title":"家顺寿司","lon":"121.41635","lat":"31.21819","category":"269","category_name":"烧烤","address":"长宁区长宁路1018号龙之梦购物中心7楼(近凯旋路)"},{"poiid":"B2094654D565A5F9439B","title":"乐购(长宁店)","lon":"121.41323","lat":"31.21296","category":"118","category_name":"超级市场","address":"长宁区武夷路777号国际体操中心游泳馆1楼(近中山西路)"},{"poiid":"B2094757D06FA7FB489B","title":"天山茶城","lon":"121.41228","lat":"31.2127","category":"136","category_name":"烟酒专卖店","address":"长宁区中山西路518号(玉屏南路口)"},{"poiid":"B2094757D06FA7FD4193","title":"盛高国际大厦","lon":"121.41","lat":"31.2119","category":"46","category_name":"楼宇","address":"上海市长宁区仙霞路137号"},{"poiid":"B2094757D064A6FF4092","title":"堡德佳西班牙餐厅","lon":"121.4136","lat":"31.21384","category":"94","category_name":"西餐厅","address":"长宁区武夷路789号美仑大酒店1楼(近中山西路)"},{"poiid":"B2094757D068A3FA469B","title":"沪西礼拜堂","lon":"121.409736454","lat":"31.2167527845","category":"245","category_name":"教堂","address":"长宁区长宁路1465号(近遵义路)"},{"poiid":"B2094654D565A5F9499A","title":"中山公寓","lon":"121.41261","lat":"31.216496","category":"47","category_name":"住宅区","address":"上海市长宁区长宁路1277弄"},{"poiid":"B2094757D16CA2FD429D","title":"上海新视界眼科医院","lon":"121.414183586","lat":"31.2162461575","category":"162","category_name":"医院","address":"长宁区汇川路18号(近中山公园)"},{"poiid":"B2094757D064A4FB489F","title":"美仑大酒店皇冠厅","lon":"121.41416","lat":"31.2143","category":"72","category_name":"广东菜","address":"上海长宁区武夷路789号美仑大酒店5楼  "},{"poiid":"B2094654D56BA0F5459E","title":"安泰大楼","lon":"121.413","lat":"31.2129","category":"46","category_name":"楼宇","address":"上海市长宁区遵义路107号"},{"poiid":"B2094750D464ABFE4693","title":"思迈乐咖喱","lon":"121.411499","lat":"31.215938","category":"95","category_name":"日本料理","address":"长宁区长宁路999号光一百货B1楼B204号铺(近中山公园地铁站)"},{"poiid":"B2094757DA69A1F94499","title":"虹桥上海城","lon":"121.414","lat":"31.2127","category":"119","category_name":"商场","address":"上海市长宁区遵义路100号"},{"poiid":"B2094757D16DA7FE4398","title":"食之密","lon":"121.414020586","lat":"31.2164781621","category":"500","category_name":"未知分类","address":"上海龙之梦B1层"},{"poiid":"B2094757D06EAAF44399","title":"上海消防博物馆","lon":"121.41157","lat":"31.21739","category":"182","category_name":"博物馆","address":"上海市长宁区中山西路"},{"poiid":"B2094654DB64A6F9499E","title":"汉庭快捷(中山西路店)","lon":"121.41239","lat":"31.2138","category":"216","category_name":"经济型连锁酒店","address":"上海闵行区吴中路638号(近虹许路)  "},{"poiid":"B2094654D565A5F9479F","title":"上海天大医疗美容医院","lon":"121.41148","lat":"31.21614","category":"162","category_name":"医院","address":"长宁区中山西路339号(长宁路口)"},{"poiid":"B2094654D56BA0F9439E","title":"科宁小区","lon":"121.4107","lat":"31.214743","category":"47","category_name":"住宅区","address":"中山西路450弄"},{"poiid":"B2094655D26CABF8499D","title":"绿洲大厦商务楼","lon":"121.41255","lat":"31.2138","category":"46","category_name":"楼宇","address":"中山西路555"},{"poiid":"B2094757D16FAAFE429A","title":"上海市长宁区妇幼保健医院9楼佳佳母婴天地！","lon":"121.414710586","lat":"31.2133331006","category":"162","category_name":"医院","address":"上海市长宁区武夷路773号9楼。"},{"poiid":"B2094757D66FA2F4439A","title":"爆爆椒中山公园店","lon":"121.413293586","lat":"31.2159511518","category":"196","category_name":"公园","address":"上海定西路1550号"},{"poiid":"B2094757D065A1FC409B","title":"天山三村","lon":"121.411854086","lat":"31.2150001332","category":"252","category_name":"楼宇机构","address":"上海遵义路玉屏南路"},{"poiid":"B2094757D06FAAF4469D","title":"招商银行(长宁支行)","lon":"121.413010017","lat":"31.2177561137","category":"150","category_name":"银行","address":"长宁区长宁路1302号(近中山西路)"},{"poiid":"B2094655D269AAFC4993","title":"美仑大酒店宴会厅","lon":"121.41389","lat":"31.21457","category":"247","category_name":"餐饮美食","address":"长宁区武夷路789号美仑大酒店内(近中山西路)查看地图"},{"poiid":"B2094655D26BA2FC419A","title":"武夷路中山西路","lon":"121.41431","lat":"31.21268","category":"38","category_name":"公交车站","address":""},{"poiid":"B2094757D469A5F9489B","title":"赞歧田野 武夷路店","lon":"121.412915","lat":"31.2129","category":"95","category_name":"日本料理","address":"长宁区武夷路789号美仑大酒店1楼(近国际体操中心)"},{"poiid":"B2094654D565A5F9479B","title":"碧云公寓","lon":"121.41278","lat":"31.214733","category":"47","category_name":"住宅区","address":"中山西路483号"},{"poiid":"B2094655D26DA7FF489D","title":"碧云公寓(西门)","lon":"121.41194","lat":"31.21477","category":"47","category_name":"住宅区","address":"中山西路483"},{"poiid":"B2094757D069A5F5429D","title":"天山路","lon":"121.414787292","lat":"31.2130813599","category":"260","category_name":"其他","address":"上海长宁区天山路"},{"poiid":"B2094757D469A2F4439F","title":"美仑大酒店仲马厅","lon":"121.412899","lat":"31.212905","category":"76","category_name":"上海菜","address":"长宁区武夷路789号美仑大酒店4楼(近中山西路)"},{"poiid":"B2094655D26DA3FC4099","title":"大华公寓","lon":"121.41141","lat":"31.21386","category":"47","category_name":"住宅区","address":"玉屏南路110弄20、22"},{"poiid":"B2094757D068A0FE479C","title":"星之健身(长宁店)","lon":"121.4137","lat":"31.21239","category":"221","category_name":"健身中心","address":"长宁区武夷路777号国际体操中心游泳馆3楼(近中山西路)"},{"poiid":"B2094751D465A2FF4398","title":"大桶大","lon":"121.411067","lat":"31.21429","category":"500","category_name":"未知分类","address":null},{"poiid":"B2094757D064A6FF439F","title":"真锅咖啡厅(绿洲大厦店)","lon":"121.41282","lat":"31.21354","category":"260","category_name":"其他","address":"长宁区中山西路555号绿洲大厦1楼(近武夷路)"},{"poiid":"B2094654DB6AA2F5499F","title":"日本株式会社赛路岛上海代表处","lon":"121.41255","lat":"31.21381","category":"250","category_name":"公园户外","address":"长宁区中山西路555号绿洲大厦901室"},{"poiid":"B2094757D66DA7F54193","title":"中山公园地下商城","lon":"121.41290408","lat":"31.217456681","category":"196","category_name":"公园","address":"上海第一次驾到此处~"},{"poiid":"B2094757D469A0FE4199","title":"美仑大酒店香港厅","lon":"121.412767054","lat":"31.212718793","category":"72","category_name":"广东菜","address":"长宁区武夷路789号美仑大酒店2楼(近中山西路)"},{"poiid":"B2094757D06AA1FE4898","title":"九龙男子医院","lon":"121.41185","lat":"31.21616","category":"162","category_name":"医院","address":"上海长宁区中山西路333号"},{"poiid":"B2094757D069A6F4489A","title":"许记生煎(遵义路店)","lon":"121.40873","lat":"31.21446","category":"68","category_name":"快餐厅","address":"长宁区遵义路585号(近云雾山路)"},{"poiid":"B2094757DA65A5F4439C","title":"上海众奕酒店","lon":"121.412792802","lat":"31.213072145","category":"216","category_name":"经济型连锁酒店","address":"上海市长宁区中山西路513号(近武夷路)"},{"poiid":"B2094654D565A5F94798","title":"上海高架桥养护管理有限公司","lon":"121.4119","lat":"31.21497","category":"263","category_name":"公司","address":"中山西路435号"},{"poiid":"B2094757D16EA4FE409F","title":"三泾庙","lon":"121.414215","lat":"31.214636","category":"245","category_name":"教堂","address":"长宁区长宁路三泾北宅244号(安化路凯旋路)"},{"poiid":"B2094757D06EAAFF4793","title":"上海国际体操中心","lon":"121.41346669","lat":"31.213709584","category":"220","category_name":"运动场所","address":"长宁区武夷路777号国际体操中心游泳馆内(近中山西路)"},{"poiid":"B2094654D565A5F9429F","title":"上海市长宁区妇幼保健院(上海妇孺医院)","lon":"121.41479","lat":"31.21307","category":"162","category_name":"医院","address":"长宁区武夷路773号(近中山西路)"},{"poiid":"B2094654D565A5F94293","title":"上海国际体操中心游泳馆","lon":"121.41432","lat":"31.21341","category":"231","category_name":"游泳馆","address":"上海长宁区武夷路777号上海国际体操中心内(近中山西路)"},{"poiid":"B2094757D06FABFD429A","title":"美仑大酒店","lon":"121.41327064","lat":"31.214548775","category":"217","category_name":"旅馆招待所","address":"上海长宁区武夷路789号(近中山西路)"},{"poiid":"B2094757DA6EABFB469A","title":"尚嘉中心","lon":"121.413","lat":"31.2115","category":"249","category_name":"购物服务","address":"上海市长宁区仙霞路99号"},{"poiid":"B2094757D06FA7FA4393","title":"华师大","lon":"121.413307586","lat":"31.2167411672","category":"52","category_name":"高等院校","address":"上海市中山北路"},{"poiid":"B2094757D16EA5FB409E","title":"中山西路长宁路","lon":"121.411937586","lat":"31.2175041821","category":"500","category_name":"未知分类","address":"上海市长宁区长宁路"},{"poiid":"B2094757D068A4FA469E","title":"绿洲大厦","lon":"121.412556","lat":"31.213812","category":"46","category_name":"楼宇","address":"石景山区阜石路与杨庄东街交叉口西北角"},{"poiid":"B2094757D06FA7F4409C","title":"上海国际体操中心羽毛球馆","lon":"121.41341304","lat":"31.213108572","category":"220","category_name":"运动场所","address":"上海长宁区武夷路777号(近中山西路)"},{"poiid":"B2094757D06FA2FB419F","title":"家顺寿司","lon":"121.41635","lat":"31.21819","category":"269","category_name":"烧烤","address":"长宁区长宁路1018号龙之梦购物中心7楼(近凯旋路)"},{"poiid":"B2094654D565A5F9439B","title":"乐购(长宁店)","lon":"121.41323","lat":"31.21296","category":"118","category_name":"超级市场","address":"长宁区武夷路777号国际体操中心游泳馆1楼(近中山西路)"},{"poiid":"B2094757D06FA7FB489B","title":"天山茶城","lon":"121.41228","lat":"31.2127","category":"136","category_name":"烟酒专卖店","address":"长宁区中山西路518号(玉屏南路口)"},{"poiid":"B2094757D06FA7FD4193","title":"盛高国际大厦","lon":"121.41","lat":"31.2119","category":"46","category_name":"楼宇","address":"上海市长宁区仙霞路137号"},{"poiid":"B2094757D064A6FF4092","title":"堡德佳西班牙餐厅","lon":"121.4136","lat":"31.21384","category":"94","category_name":"西餐厅","address":"长宁区武夷路789号美仑大酒店1楼(近中山西路)"},{"poiid":"B2094757D068A3FA469B","title":"沪西礼拜堂","lon":"121.409736454","lat":"31.2167527845","category":"245","category_name":"教堂","address":"长宁区长宁路1465号(近遵义路)"},{"poiid":"B2094654D565A5F9499A","title":"中山公寓","lon":"121.41261","lat":"31.216496","category":"47","category_name":"住宅区","address":"上海市长宁区长宁路1277弄"},{"poiid":"B2094757D16CA2FD429D","title":"上海新视界眼科医院","lon":"121.414183586","lat":"31.2162461575","category":"162","category_name":"医院","address":"长宁区汇川路18号(近中山公园)"},{"poiid":"B2094757D064A4FB489F","title":"美仑大酒店皇冠厅","lon":"121.41416","lat":"31.2143","category":"72","category_name":"广东菜","address":"上海长宁区武夷路789号美仑大酒店5楼  "},{"poiid":"B2094654D56BA0F5459E","title":"安泰大楼","lon":"121.413","lat":"31.2129","category":"46","category_name":"楼宇","address":"上海市长宁区遵义路107号"},{"poiid":"B2094750D464ABFE4693","title":"思迈乐咖喱","lon":"121.411499","lat":"31.215938","category":"95","category_name":"日本料理","address":"长宁区长宁路999号光一百货B1楼B204号铺(近中山公园地铁站)"},{"poiid":"B2094757DA69A1F94499","title":"虹桥上海城","lon":"121.414","lat":"31.2127","category":"119","category_name":"商场","address":"上海市长宁区遵义路100号"},{"poiid":"B2094757D16DA7FE4398","title":"食之密","lon":"121.414020586","lat":"31.2164781621","category":"500","category_name":"未知分类","address":"上海龙之梦B1层"},{"poiid":"B2094757D06EAAF44399","title":"上海消防博物馆","lon":"121.41157","lat":"31.21739","category":"182","category_name":"博物馆","address":"上海市长宁区中山西路"},{"poiid":"B2094654DB64A6F9499E","title":"汉庭快捷(中山西路店)","lon":"121.41239","lat":"31.2138","category":"216","category_name":"经济型连锁酒店","address":"上海闵行区吴中路638号(近虹许路)  "},{"poiid":"B2094654D565A5F9479F","title":"上海天大医疗美容医院","lon":"121.41148","lat":"31.21614","category":"162","category_name":"医院","address":"长宁区中山西路339号(长宁路口)"},{"poiid":"B2094654D56BA0F9439E","title":"科宁小区","lon":"121.4107","lat":"31.214743","category":"47","category_name":"住宅区","address":"中山西路450弄"},{"poiid":"B2094655D26CABF8499D","title":"绿洲大厦商务楼","lon":"121.41255","lat":"31.2138","category":"46","category_name":"楼宇","address":"中山西路555"},{"poiid":"B2094757D16FAAFE429A","title":"上海市长宁区妇幼保健医院9楼佳佳母婴天地！","lon":"121.414710586","lat":"31.2133331006","category":"162","category_name":"医院","address":"上海市长宁区武夷路773号9楼。"},{"poiid":"B2094757D66FA2F4439A","title":"爆爆椒中山公园店","lon":"121.413293586","lat":"31.2159511518","category":"196","category_name":"公园","address":"上海定西路1550号"},{"poiid":"B2094757D065A1FC409B","title":"天山三村","lon":"121.411854086","lat":"31.2150001332","category":"252","category_name":"楼宇机构","address":"上海遵义路玉屏南路"},{"poiid":"B2094757D06FAAF4469D","title":"招商银行(长宁支行)","lon":"121.413010017","lat":"31.2177561137","category":"150","category_name":"银行","address":"长宁区长宁路1302号(近中山西路)"},{"poiid":"B2094655D269AAFC4993","title":"美仑大酒店宴会厅","lon":"121.41389","lat":"31.21457","category":"247","category_name":"餐饮美食","address":"长宁区武夷路789号美仑大酒店内(近中山西路)查看地图"},{"poiid":"B2094655D26BA2FC419A","title":"武夷路中山西路","lon":"121.41431","lat":"31.21268","category":"38","category_name":"公交车站","address":""},{"poiid":"B2094757D469A5F9489B","title":"赞歧田野 武夷路店","lon":"121.412915","lat":"31.2129","category":"95","category_name":"日本料理","address":"长宁区武夷路789号美仑大酒店1楼(近国际体操中心)"},{"poiid":"B2094654D565A5F9479B","title":"碧云公寓","lon":"121.41278","lat":"31.214733","category":"47","category_name":"住宅区","address":"中山西路483号"},{"poiid":"B2094655D26DA7FF489D","title":"碧云公寓(西门)","lon":"121.41194","lat":"31.21477","category":"47","category_name":"住宅区","address":"中山西路483"},{"poiid":"B2094757D069A5F5429D","title":"天山路","lon":"121.414787292","lat":"31.2130813599","category":"260","category_name":"其他","address":"上海长宁区天山路"},{"poiid":"B2094757D469A2F4439F","title":"美仑大酒店仲马厅","lon":"121.412899","lat":"31.212905","category":"76","category_name":"上海菜","address":"长宁区武夷路789号美仑大酒店4楼(近中山西路)"},{"poiid":"B2094655D26DA3FC4099","title":"大华公寓","lon":"121.41141","lat":"31.21386","category":"47","category_name":"住宅区","address":"玉屏南路110弄20、22"},{"poiid":"B2094757D068A0FE479C","title":"星之健身(长宁店)","lon":"121.4137","lat":"31.21239","category":"221","category_name":"健身中心","address":"长宁区武夷路777号国际体操中心游泳馆3楼(近中山西路)"},{"poiid":"B2094751D465A2FF4398","title":"大桶大","lon":"121.411067","lat":"31.21429","category":"500","category_name":"未知分类","address":null},{"poiid":"B2094757D064A6FF439F","title":"真锅咖啡厅(绿洲大厦店)","lon":"121.41282","lat":"31.21354","category":"260","category_name":"其他","address":"长宁区中山西路555号绿洲大厦1楼(近武夷路)"},{"poiid":"B2094654DB6AA2F5499F","title":"日本株式会社赛路岛上海代表处","lon":"121.41255","lat":"31.21381","category":"250","category_name":"公园户外","address":"长宁区中山西路555号绿洲大厦901室"},{"poiid":"B2094757D66DA7F54193","title":"中山公园地下商城","lon":"121.41290408","lat":"31.217456681","category":"196","category_name":"公园","address":"上海第一次驾到此处~"},{"poiid":"B2094757D469A0FE4199","title":"美仑大酒店香港厅","lon":"121.412767054","lat":"31.212718793","category":"72","category_name":"广东菜","address":"长宁区武夷路789号美仑大酒店2楼(近中山西路)"},{"poiid":"B2094757D06AA1FE4898","title":"九龙男子医院","lon":"121.41185","lat":"31.21616","category":"162","category_name":"医院","address":"上海长宁区中山西路333号"},{"poiid":"B2094757D069A6F4489A","title":"许记生煎(遵义路店)","lon":"121.40873","lat":"31.21446","category":"68","category_name":"快餐厅","address":"长宁区遵义路585号(近云雾山路)"},{"poiid":"B2094757DA65A5F4439C","title":"上海众奕酒店","lon":"121.412792802","lat":"31.213072145","category":"216","category_name":"经济型连锁酒店","address":"上海市长宁区中山西路513号(近武夷路)"},{"poiid":"B2094654D565A5F94798","title":"上海高架桥养护管理有限公司","lon":"121.4119","lat":"31.21497","category":"263","category_name":"公司","address":"中山西路435号"},{"poiid":"B2094757D16EA4FE409F","title":"三泾庙","lon":"121.414215","lat":"31.214636","category":"245","category_name":"教堂","address":"长宁区长宁路三泾北宅244号(安化路凯旋路)"},{"poiid":"B2094757D06EAAFF4793","title":"上海国际体操中心","lon":"121.41346669","lat":"31.213709584","category":"220","category_name":"运动场所","address":"长宁区武夷路777号国际体操中心游泳馆内(近中山西路)"},{"poiid":"B2094654D565A5F9429F","title":"上海市长宁区妇幼保健院(上海妇孺医院)","lon":"121.41479","lat":"31.21307","category":"162","category_name":"医院","address":"长宁区武夷路773号(近中山西路)"},{"poiid":"B2094654D565A5F94293","title":"上海国际体操中心游泳馆","lon":"121.41432","lat":"31.21341","category":"231","category_name":"游泳馆","address":"上海长宁区武夷路777号上海国际体操中心内(近中山西路)"},{"poiid":"B2094757D06FABFD429A","title":"美仑大酒店","lon":"121.41327064","lat":"31.214548775","category":"217","category_name":"旅馆招待所","address":"上海长宁区武夷路789号(近中山西路)"},{"poiid":"B2094757DA6EABFB469A","title":"尚嘉中心","lon":"121.413","lat":"31.2115","category":"249","category_name":"购物服务","address":"上海市长宁区仙霞路99号"},{"poiid":"B2094757D06FA7FA4393","title":"华师大","lon":"121.413307586","lat":"31.2167411672","category":"52","category_name":"高等院校","address":"上海市中山北路"},{"poiid":"B2094757D16EA5FB409E","title":"中山西路长宁路","lon":"121.411937586","lat":"31.2175041821","category":"500","category_name":"未知分类","address":"上海市长宁区长宁路"},{"poiid":"B2094757D068A4FA469E","title":"绿洲大厦","lon":"121.412556","lat":"31.213812","category":"46","category_name":"楼宇","address":"石景山区阜石路与杨庄东街交叉口西北角"},{"poiid":"B2094757D06FA7F4409C","title":"上海国际体操中心羽毛球馆","lon":"121.41341304","lat":"31.213108572","category":"220","category_name":"运动场所","address":"上海长宁区武夷路777号(近中山西路)"},{"poiid":"B2094757D06FA2FB419F","title":"家顺寿司","lon":"121.41635","lat":"31.21819","category":"269","category_name":"烧烤","address":"长宁区长宁路1018号龙之梦购物中心7楼(近凯旋路)"},{"poiid":"B2094654D565A5F9439B","title":"乐购(长宁店)","lon":"121.41323","lat":"31.21296","category":"118","category_name":"超级市场","address":"长宁区武夷路777号国际体操中心游泳馆1楼(近中山西路)"},{"poiid":"B2094757D06FA7FB489B","title":"天山茶城","lon":"121.41228","lat":"31.2127","category":"136","category_name":"烟酒专卖店","address":"长宁区中山西路518号(玉屏南路口)"},{"poiid":"B2094757D06FA7FD4193","title":"盛高国际大厦","lon":"121.41","lat":"31.2119","category":"46","category_name":"楼宇","address":"上海市长宁区仙霞路137号"},{"poiid":"B2094757D064A6FF4092","title":"堡德佳西班牙餐厅","lon":"121.4136","lat":"31.21384","category":"94","category_name":"西餐厅","address":"长宁区武夷路789号美仑大酒店1楼(近中山西路)"},{"poiid":"B2094757D068A3FA469B","title":"沪西礼拜堂","lon":"121.409736454","lat":"31.2167527845","category":"245","category_name":"教堂","address":"长宁区长宁路1465号(近遵义路)"},{"poiid":"B2094654D565A5F9499A","title":"中山公寓","lon":"121.41261","lat":"31.216496","category":"47","category_name":"住宅区","address":"上海市长宁区长宁路1277弄"},{"poiid":"B2094757D16CA2FD429D","title":"上海新视界眼科医院","lon":"121.414183586","lat":"31.2162461575","category":"162","category_name":"医院","address":"长宁区汇川路18号(近中山公园)"},{"poiid":"B2094757D064A4FB489F","title":"美仑大酒店皇冠厅","lon":"121.41416","lat":"31.2143","category":"72","category_name":"广东菜","address":"上海长宁区武夷路789号美仑大酒店5楼  "},{"poiid":"B2094654D56BA0F5459E","title":"安泰大楼","lon":"121.413","lat":"31.2129","category":"46","category_name":"楼宇","address":"上海市长宁区遵义路107号"},{"poiid":"B2094750D464ABFE4693","title":"思迈乐咖喱","lon":"121.411499","lat":"31.215938","category":"95","category_name":"日本料理","address":"长宁区长宁路999号光一百货B1楼B204号铺(近中山公园地铁站)"},{"poiid":"B2094757DA69A1F94499","title":"虹桥上海城","lon":"121.414","lat":"31.2127","category":"119","category_name":"商场","address":"上海市长宁区遵义路100号"},{"poiid":"B2094757D16DA7FE4398","title":"食之密","lon":"121.414020586","lat":"31.2164781621","category":"500","category_name":"未知分类","address":"上海龙之梦B1层"},{"poiid":"B2094757D06EAAF44399","title":"上海消防博物馆","lon":"121.41157","lat":"31.21739","category":"182","category_name":"博物馆","address":"上海市长宁区中山西路"},{"poiid":"B2094654DB64A6F9499E","title":"汉庭快捷(中山西路店)","lon":"121.41239","lat":"31.2138","category":"216","category_name":"经济型连锁酒店","address":"上海闵行区吴中路638号(近虹许路)  "},{"poiid":"B2094654D565A5F9479F","title":"上海天大医疗美容医院","lon":"121.41148","lat":"31.21614","category":"162","category_name":"医院","address":"长宁区中山西路339号(长宁路口)"},{"poiid":"B2094654D56BA0F9439E","title":"科宁小区","lon":"121.4107","lat":"31.214743","category":"47","category_name":"住宅区","address":"中山西路450弄"},{"poiid":"B2094655D26CABF8499D","title":"绿洲大厦商务楼","lon":"121.41255","lat":"31.2138","category":"46","category_name":"楼宇","address":"中山西路555"},{"poiid":"B2094757D16FAAFE429A","title":"上海市长宁区妇幼保健医院9楼佳佳母婴天地！","lon":"121.414710586","lat":"31.2133331006","category":"162","category_name":"医院","address":"上海市长宁区武夷路773号9楼。"},{"poiid":"B2094757D66FA2F4439A","title":"爆爆椒中山公园店","lon":"121.413293586","lat":"31.2159511518","category":"196","category_name":"公园","address":"上海定西路1550号"},{"poiid":"B2094757D065A1FC409B","title":"天山三村","lon":"121.411854086","lat":"31.2150001332","category":"252","category_name":"楼宇机构","address":"上海遵义路玉屏南路"},{"poiid":"B2094757D06FAAF4469D","title":"招商银行(长宁支行)","lon":"121.413010017","lat":"31.2177561137","category":"150","category_name":"银行","address":"长宁区长宁路1302号(近中山西路)"},{"poiid":"B2094655D269AAFC4993","title":"美仑大酒店宴会厅","lon":"121.41389","lat":"31.21457","category":"247","category_name":"餐饮美食","address":"长宁区武夷路789号美仑大酒店内(近中山西路)查看地图"},{"poiid":"B2094655D26BA2FC419A","title":"武夷路中山西路","lon":"121.41431","lat":"31.21268","category":"38","category_name":"公交车站","address":""},{"poiid":"B2094757D469A5F9489B","title":"赞歧田野 武夷路店","lon":"121.412915","lat":"31.2129","category":"95","category_name":"日本料理","address":"长宁区武夷路789号美仑大酒店1楼(近国际体操中心)"},{"poiid":"B2094654D565A5F9479B","title":"碧云公寓","lon":"121.41278","lat":"31.214733","category":"47","category_name":"住宅区","address":"中山西路483号"},{"poiid":"B2094655D26DA7FF489D","title":"碧云公寓(西门)","lon":"121.41194","lat":"31.21477","category":"47","category_name":"住宅区","address":"中山西路483"},{"poiid":"B2094757D069A5F5429D","title":"天山路","lon":"121.414787292","lat":"31.2130813599","category":"260","category_name":"其他","address":"上海长宁区天山路"},{"poiid":"B2094757D469A2F4439F","title":"美仑大酒店仲马厅","lon":"121.412899","lat":"31.212905","category":"76","category_name":"上海菜","address":"长宁区武夷路789号美仑大酒店4楼(近中山西路)"},{"poiid":"B2094655D26DA3FC4099","title":"大华公寓","lon":"121.41141","lat":"31.21386","category":"47","category_name":"住宅区","address":"玉屏南路110弄20、22"},{"poiid":"B2094757D068A0FE479C","title":"星之健身(长宁店)","lon":"121.4137","lat":"31.21239","category":"221","category_name":"健身中心","address":"长宁区武夷路777号国际体操中心游泳馆3楼(近中山西路)"},{"poiid":"B2094751D465A2FF4398","title":"大桶大","lon":"121.411067","lat":"31.21429","category":"500","category_name":"未知分类","address":null},{"poiid":"B2094757D064A6FF439F","title":"真锅咖啡厅(绿洲大厦店)","lon":"121.41282","lat":"31.21354","category":"260","category_name":"其他","address":"长宁区中山西路555号绿洲大厦1楼(近武夷路)"},{"poiid":"B2094654DB6AA2F5499F","title":"日本株式会社赛路岛上海代表处","lon":"121.41255","lat":"31.21381","category":"250","category_name":"公园户外","address":"长宁区中山西路555号绿洲大厦901室"},{"poiid":"B2094757D66DA7F54193","title":"中山公园地下商城","lon":"121.41290408","lat":"31.217456681","category":"196","category_name":"公园","address":"上海第一次驾到此处~"},{"poiid":"B2094757D469A0FE4199","title":"美仑大酒店香港厅","lon":"121.412767054","lat":"31.212718793","category":"72","category_name":"广东菜","address":"长宁区武夷路789号美仑大酒店2楼(近中山西路)"},{"poiid":"B2094757D06AA1FE4898","title":"九龙男子医院","lon":"121.41185","lat":"31.21616","category":"162","category_name":"医院","address":"上海长宁区中山西路333号"},{"poiid":"B2094757D069A6F4489A","title":"许记生煎(遵义路店)","lon":"121.40873","lat":"31.21446","category":"68","category_name":"快餐厅","address":"长宁区遵义路585号(近云雾山路)"},{"poiid":"B2094757DA65A5F4439C","title":"上海众奕酒店","lon":"121.412792802","lat":"31.213072145","category":"216","category_name":"经济型连锁酒店","address":"上海市长宁区中山西路513号(近武夷路)"},{"poiid":"B2094654D565A5F94798","title":"上海高架桥养护管理有限公司","lon":"121.4119","lat":"31.21497","category":"263","category_name":"公司","address":"中山西路435号"},{"poiid":"B2094757D16EA4FE409F","title":"三泾庙","lon":"121.414215","lat":"31.214636","category":"245","category_name":"教堂","address":"长宁区长宁路三泾北宅244号(安化路凯旋路)"}]