[{"poiid":"B2094757D06FA6F4479F","title":"星美乐莫国际影城","lon":"121.25474","lat":"31.00927","category":"178","category_name":"电影院","address":"松江区环城路515-555号LOMO玩库3楼(近松东路)"},{"poiid":"B2094757D06AA6F44498","title":"阿胖鲁肉饭(松江店)","lon":"121.25749","lat":"31.017","category":"91","category_name":"台湾菜","address":"松江区荣乐东路1825号(近爱丽雅花苑)"},{"poiid":"B2094757D06BA0FB4793","title":"沁韵渔火","lon":"121.255016793","lat":"31.0103385638","category":"86","category_name":"火锅店","address":"松江区环城路518号(近LOMO玩库)"},{"poiid":"B2094654DB69A5FF4292","title":"莫泰168连锁旅店(松卫北路店)","lon":"121.26164","lat":"31.02169","category":"216","category_name":"经济型连锁酒店","address":"松江区松卫北路860-868号(松卫北路荣乐东路)"},{"poiid":"B2094654DB64A0FE439C","title":"如家快捷酒店(上海松江工业区店)","lon":"121.26161","lat":"31.02251","category":"216","category_name":"经济型连锁酒店","address":"上海市松江区松卫北路679号（松卫汽配城旁）"},{"poiid":"B2094655D26BA2FB4798","title":"松东路","lon":"121.25523","lat":"31.01743","category":"38","category_name":"公交车站","address":""},{"poiid":"B2094757D169A3FE4993","title":"企福天地","lon":"121.262777","lat":"31.019279","category":"46","category_name":"楼宇","address":"上海松江区松卫北路665号"},{"poiid":"B2094654DB6EA4FB4492","title":"晋盛食府(松东路)","lon":"121.25592","lat":"31.01276","category":"76","category_name":"上海菜","address":"松江区松江松东路76号(繁华路松东路)"},{"poiid":"B2094757D168A1F4479B","title":"千岛湖山水人家农家菜","lon":"121.261438103","lat":"31.0197784829","category":"75","category_name":"浙江菜","address":"松江区松卫北路806号1-2楼"},{"poiid":"B2094757D66CA0FF479E","title":"金月海大饭店","lon":"121.261783103","lat":"31.0207705048","category":"72","category_name":"广东菜","address":"松江区松卫北路789号(近荣乐东路)"},{"poiid":"B2094654DB6EA4FA419D","title":"蓝天新村","lon":"121.25504","lat":"31.014357","category":"47","category_name":"住宅区","address":"松江工业区中山街道"},{"poiid":"B2094757D16AA1FF4898","title":"汉庭快捷酒店(松江店)","lon":"121.262321798","lat":"31.017702782","category":"217","category_name":"旅馆招待所","address":"松江区荣乐东路605号(近西林北路)"},{"poiid":"B2094757D169A7FE4299","title":"麦盛莉(松江店)","lon":"121.24893","lat":"31.01727","category":"76","category_name":"上海菜","address":"松江区荣乐东路2283号"},{"poiid":"B2094654DB6EA6FF469E","title":"光电大楼","lon":"121.26183","lat":"31.02045","category":"46","category_name":"楼宇","address":"松卫北路801号"},{"poiid":"B2094757D464A7F8429A","title":"三德屋日本料理 松江店","lon":"121.25501924243","lat":"31.011631808326","category":"95","category_name":"日本料理","address":"松江区松东路50号甲(松东路松江环城路)"},{"poiid":"B2094654DB6EA4F44592","title":"林香餐厅","lon":"121.258833054","lat":"31.018306793","category":"68","category_name":"快餐厅","address":"松江区洞泾路8号(近荣乐中路)"},{"poiid":"B2094655D268A7FE479B","title":"天上人间","lon":"121.2614","lat":"31.01943","category":"170","category_name":"KTV","address":"松卫北路828"},{"poiid":"B2094757D16AABFE459C","title":"高木日本料理(松江店)","lon":"121.256328051","lat":"31.0166706997","category":"95","category_name":"日本料理","address":"松江区松东路238号(近荣乐路)"},{"poiid":"B2094654DB6EA4F4469F","title":"上海都城经济园区(东城工商所南)","lon":"121.25994","lat":"31.01895","category":"45","category_name":"产业园区","address":"洞泾路10号"},{"poiid":"B2094757D169AAFF409E","title":"延锋伟世通汽车电子有限公司","lon":"121.257423","lat":"31.025313","category":"46","category_name":"楼宇","address":"上海美能达路300号"},{"poiid":"B2094655D268A7FE4693","title":"三铭杰座","lon":"121.26152","lat":"31.018579","category":"47","category_name":"住宅区","address":"上海市松江区松卫北路888号,荣乐东路"},{"poiid":"B2094757D16CA3FE4399","title":"天母蓝鸟咖啡(上海松江店)","lon":"121.255901","lat":"31.017212476","category":"65","category_name":"咖啡厅","address":"上海市松江区荣乐东路31号"},{"poiid":"B2094654DB6EA4F94998","title":"川流不息 松东路店","lon":"121.25600829974","lat":"31.009959830294","category":"71","category_name":"四川菜","address":"松江区松东路(松东路俞塘路)"},{"poiid":"B2094654DB6EA4FA4798","title":"顺昭小馆","lon":"121.25868","lat":"31.01719","category":"68","category_name":"快餐厅","address":"松江区松江镇荣乐东路3弄133号"},{"poiid":"B2094654DB6EA4FA429B","title":"樱木屋","lon":"121.25562","lat":"31.01558","category":"95","category_name":"日本料理","address":"松江区荣乐东路1587号-2-3号(近松卫北路)"},{"poiid":"B2094757D168A5F84993","title":"蓝天东区","lon":"121.259547","lat":"31.015865","category":"252","category_name":"楼宇机构","address":"上海松江区荣乐东路蓝天东区"},{"poiid":"B2094654DB6EA4F4479B","title":"上海四国食品包装机械有限公司","lon":"121.25948","lat":"31.02236","category":"263","category_name":"公司","address":"洞泾路18号"},{"poiid":"B2094750D56EA3F8449E","title":"掘金歌城","lon":"121.257308","lat":"31.017887","category":"170","category_name":"KTV","address":"松江区荣乐东路1819号(松东路口)"},{"poiid":"B2094757D16AA7FA449D","title":"御桶天下","lon":"121.26152666","lat":"31.0199685","category":"149","category_name":"洗浴推拿场所","address":"上海松江区中山街道松卫北路806号三楼"},{"poiid":"B2094655D268A5FB4299","title":"蓝天东区(北门)","lon":"121.25957","lat":"31.01719","category":"47","category_name":"住宅区","address":""},{"poiid":"B2094655D268A7FE469F","title":"三铭公寓式酒店","lon":"121.26152","lat":"31.01857","category":"47","category_name":"住宅区","address":""},{"poiid":"B2094654DB6EA4F44899","title":"松江工业区高新技术产业园区","lon":"121.25589","lat":"31.02444","category":"45","category_name":"产业园区","address":"美能达路503号"},{"poiid":"B2094757D66EA4FF459B","title":"松江区 环城路","lon":"121.255793","lat":"31.009118","category":"500","category_name":"未知分类","address":"上海松江区 环城路"},{"poiid":"B2094655D269A4F94292","title":"上海松江九华汽车","lon":"121.26228","lat":"31.01708","category":"158","category_name":"汽车销售","address":"上海市松江区松卫北路1189号（靠近荣乐东路）"},{"poiid":"B2094757D168A5F94293","title":"木の子","lon":"121.2620161","lat":"31.017624435","category":"95","category_name":"日本料理","address":"松江区松卫路(近荣乐东路)"},{"poiid":"B2094654DB6EA4F4489E","title":"雀巢","lon":"121.25689","lat":"31.02244","category":"263","category_name":"公司","address":"俞塘路318号"},{"poiid":"B2094655D268A6FB419A","title":"碧海夜总会","lon":"121.26097","lat":"31.02245","category":"248","category_name":"生活娱乐","address":""},{"poiid":"B2094655D268A5FD4793","title":"松江工业区","lon":"121.25487","lat":"31.01695","category":"46","category_name":"楼宇","address":"荣乐东路81号"},{"poiid":"B2094750D768AAFC439C","title":"鱼满楼","lon":"121.256","lat":"31.0147","category":"86","category_name":"火锅店","address":"松江区松东路146-148号(近荣乐东路)"},{"poiid":"B2094654DB6EA4FA4892","title":"爱丽雅花苑","lon":"121.25694","lat":"31.016794","category":"47","category_name":"住宅区","address":"荣乐东路9号"},{"poiid":"B2094757D16DABF54592","title":"百味佳","lon":"121.25588","lat":"31.01181","category":"76","category_name":"上海菜","address":"松江区松东路168号(近荣乐东路)"},{"poiid":"B2094757D465ABF8419D","title":"虾之道","lon":"121.2558074","lat":"31.015238","category":"76","category_name":"上海菜","address":"松江区松东路(环城路)"},{"poiid":"B2094654DB6EA5FD449C","title":"上海汇胜汽车贸易有限公司(光电大楼北)","lon":"121.26174","lat":"31.02196","category":"158","category_name":"汽车销售","address":"新沪松公路755号"},{"poiid":"B2094655D264A6F54292","title":"7天酒店上海松江店","lon":"121.26233","lat":"31.01709","category":"216","category_name":"经济型连锁酒店","address":"荣乐东路605号"},{"poiid":"B2094654DB6EA4F44898","title":"上海市松江工业区管理委员会(美能达路)","lon":"121.25588","lat":"31.02444","category":"45","category_name":"产业园区","address":"美能达路503号"},{"poiid":"B2094655D36CA6FA439C","title":"洞泾路","lon":"121.25631","lat":"31.025","category":"38","category_name":"公交车站","address":""},{"poiid":"B2094752D769A1F54493","title":"上海车墩影视城","lon":"121.261565","lat":"31.018636","category":"627","category_name":"一般地点标志","address":null},{"poiid":"B2094655D268A5F44799","title":"爱丽雅花苑(北门)","lon":"121.25688","lat":"31.01717","category":"47","category_name":"住宅区","address":"荣乐东路9号"},{"poiid":"B2094654DB6EA5FD459D","title":"上海协力汽配","lon":"121.26213","lat":"31.02206","category":"248","category_name":"生活娱乐","address":"松江区松卫汽配城B3区28-30号"},{"poiid":"B209475CD164A6FA479F","title":"星巴克","lon":"121.260025","lat":"31.017246","category":"500","category_name":"未知分类","address":"上海市 松东路"},{"poiid":"B2094757D06FA6F4479F","title":"星美乐莫国际影城","lon":"121.25474","lat":"31.00927","category":"178","category_name":"电影院","address":"松江区环城路515-555号LOMO玩库3楼(近松东路)"},{"poiid":"B2094757D06AA6F44498","title":"阿胖鲁肉饭(松江店)","lon":"121.25749","lat":"31.017","category":"91","category_name":"台湾菜","address":"松江区荣乐东路1825号(近爱丽雅花苑)"},{"poiid":"B2094757D06BA0FB4793","title":"沁韵渔火","lon":"121.255016793","lat":"31.0103385638","category":"86","category_name":"火锅店","address":"松江区环城路518号(近LOMO玩库)"},{"poiid":"B2094654DB69A5FF4292","title":"莫泰168连锁旅店(松卫北路店)","lon":"121.26164","lat":"31.02169","category":"216","category_name":"经济型连锁酒店","address":"松江区松卫北路860-868号(松卫北路荣乐东路)"},{"poiid":"B2094654DB64A0FE439C","title":"如家快捷酒店(上海松江工业区店)","lon":"121.26161","lat":"31.02251","category":"216","category_name":"经济型连锁酒店","address":"上海市松江区松卫北路679号（松卫汽配城旁）"},{"poiid":"B2094655D26BA2FB4798","title":"松东路","lon":"121.25523","lat":"31.01743","category":"38","category_name":"公交车站","address":""},{"poiid":"B2094757D169A3FE4993","title":"企福天地","lon":"121.262777","lat":"31.019279","category":"46","category_name":"楼宇","address":"上海松江区松卫北路665号"},{"poiid":"B2094654DB6EA4FB4492","title":"晋盛食府(松东路)","lon":"121.25592","lat":"31.01276","category":"76","category_name":"上海菜","address":"松江区松江松东路76号(繁华路松东路)"},{"poiid":"B2094757D168A1F4479B","title":"千岛湖山水人家农家菜","lon":"121.261438103","lat":"31.0197784829","category":"75","category_name":"浙江菜","address":"松江区松卫北路806号1-2楼"},{"poiid":"B2094757D66CA0FF479E","title":"金月海大饭店","lon":"121.261783103","lat":"31.0207705048","category":"72","category_name":"广东菜","address":"松江区松卫北路789号(近荣乐东路)"},{"poiid":"B2094654DB6EA4FA419D","title":"蓝天新村","lon":"121.25504","lat":"31.014357","category":"47","category_name":"住宅区","address":"松江工业区中山街道"},{"poiid":"B2094757D16AA1FF4898","title":"汉庭快捷酒店(松江店)","lon":"121.262321798","lat":"31.017702782","category":"217","category_name":"旅馆招待所","address":"松江区荣乐东路605号(近西林北路)"},{"poiid":"B2094757D169A7FE4299","title":"麦盛莉(松江店)","lon":"121.24893","lat":"31.01727","category":"76","category_name":"上海菜","address":"松江区荣乐东路2283号"},{"poiid":"B2094654DB6EA6FF469E","title":"光电大楼","lon":"121.26183","lat":"31.02045","category":"46","category_name":"楼宇","address":"松卫北路801号"},{"poiid":"B2094757D464A7F8429A","title":"三德屋日本料理 松江店","lon":"121.25501924243","lat":"31.011631808326","category":"95","category_name":"日本料理","address":"松江区松东路50号甲(松东路松江环城路)"},{"poiid":"B2094654DB6EA4F44592","title":"林香餐厅","lon":"121.258833054","lat":"31.018306793","category":"68","category_name":"快餐厅","address":"松江区洞泾路8号(近荣乐中路)"},{"poiid":"B2094655D268A7FE479B","title":"天上人间","lon":"121.2614","lat":"31.01943","category":"170","category_name":"KTV","address":"松卫北路828"},{"poiid":"B2094757D16AABFE459C","title":"高木日本料理(松江店)","lon":"121.256328051","lat":"31.0166706997","category":"95","category_name":"日本料理","address":"松江区松东路238号(近荣乐路)"},{"poiid":"B2094654DB6EA4F4469F","title":"上海都城经济园区(东城工商所南)","lon":"121.25994","lat":"31.01895","category":"45","category_name":"产业园区","address":"洞泾路10号"},{"poiid":"B2094757D169AAFF409E","title":"延锋伟世通汽车电子有限公司","lon":"121.257423","lat":"31.025313","category":"46","category_name":"楼宇","address":"上海美能达路300号"},{"poiid":"B2094655D268A7FE4693","title":"三铭杰座","lon":"121.26152","lat":"31.018579","category":"47","category_name":"住宅区","address":"上海市松江区松卫北路888号,荣乐东路"},{"poiid":"B2094757D16CA3FE4399","title":"天母蓝鸟咖啡(上海松江店)","lon":"121.255901","lat":"31.017212476","category":"65","category_name":"咖啡厅","address":"上海市松江区荣乐东路31号"},{"poiid":"B2094654DB6EA4F94998","title":"川流不息 松东路店","lon":"121.25600829974","lat":"31.009959830294","category":"71","category_name":"四川菜","address":"松江区松东路(松东路俞塘路)"},{"poiid":"B2094654DB6EA4FA4798","title":"顺昭小馆","lon":"121.25868","lat":"31.01719","category":"68","category_name":"快餐厅","address":"松江区松江镇荣乐东路3弄133号"},{"poiid":"B2094654DB6EA4FA429B","title":"樱木屋","lon":"121.25562","lat":"31.01558","category":"95","category_name":"日本料理","address":"松江区荣乐东路1587号-2-3号(近松卫北路)"},{"poiid":"B2094757D168A5F84993","title":"蓝天东区","lon":"121.259547","lat":"31.015865","category":"252","category_name":"楼宇机构","address":"上海松江区荣乐东路蓝天东区"},{"poiid":"B2094654DB6EA4F4479B","title":"上海四国食品包装机械有限公司","lon":"121.25948","lat":"31.02236","category":"263","category_name":"公司","address":"洞泾路18号"},{"poiid":"B2094750D56EA3F8449E","title":"掘金歌城","lon":"121.257308","lat":"31.017887","category":"170","category_name":"KTV","address":"松江区荣乐东路1819号(松东路口)"},{"poiid":"B2094757D16AA7FA449D","title":"御桶天下","lon":"121.26152666","lat":"31.0199685","category":"149","category_name":"洗浴推拿场所","address":"上海松江区中山街道松卫北路806号三楼"},{"poiid":"B2094655D268A5FB4299","title":"蓝天东区(北门)","lon":"121.25957","lat":"31.01719","category":"47","category_name":"住宅区","address":""},{"poiid":"B2094655D268A7FE469F","title":"三铭公寓式酒店","lon":"121.26152","lat":"31.01857","category":"47","category_name":"住宅区","address":""},{"poiid":"B2094654DB6EA4F44899","title":"松江工业区高新技术产业园区","lon":"121.25589","lat":"31.02444","category":"45","category_name":"产业园区","address":"美能达路503号"},{"poiid":"B2094757D66EA4FF459B","title":"松江区 环城路","lon":"121.255793","lat":"31.009118","category":"500","category_name":"未知分类","address":"上海松江区 环城路"},{"poiid":"B2094655D269A4F94292","title":"上海松江九华汽车","lon":"121.26228","lat":"31.01708","category":"158","category_name":"汽车销售","address":"上海市松江区松卫北路1189号（靠近荣乐东路）"},{"poiid":"B2094757D168A5F94293","title":"木の子","lon":"121.2620161","lat":"31.017624435","category":"95","category_name":"日本料理","address":"松江区松卫路(近荣乐东路)"},{"poiid":"B2094654DB6EA4F4489E","title":"雀巢","lon":"121.25689","lat":"31.02244","category":"263","category_name":"公司","address":"俞塘路318号"},{"poiid":"B2094655D268A6FB419A","title":"碧海夜总会","lon":"121.26097","lat":"31.02245","category":"248","category_name":"生活娱乐","address":""},{"poiid":"B2094655D268A5FD4793","title":"松江工业区","lon":"121.25487","lat":"31.01695","category":"46","category_name":"楼宇","address":"荣乐东路81号"},{"poiid":"B2094750D768AAFC439C","title":"鱼满楼","lon":"121.256","lat":"31.0147","category":"86","category_name":"火锅店","address":"松江区松东路146-148号(近荣乐东路)"},{"poiid":"B2094654DB6EA4FA4892","title":"爱丽雅花苑","lon":"121.25694","lat":"31.016794","category":"47","category_name":"住宅区","address":"荣乐东路9号"},{"poiid":"B2094757D16DABF54592","title":"百味佳","lon":"121.25588","lat":"31.01181","category":"76","category_name":"上海菜","address":"松江区松东路168号(近荣乐东路)"},{"poiid":"B2094757D465ABF8419D","title":"虾之道","lon":"121.2558074","lat":"31.015238","category":"76","category_name":"上海菜","address":"松江区松东路(环城路)"},{"poiid":"B2094654DB6EA5FD449C","title":"上海汇胜汽车贸易有限公司(光电大楼北)","lon":"121.26174","lat":"31.02196","category":"158","category_name":"汽车销售","address":"新沪松公路755号"},{"poiid":"B2094655D264A6F54292","title":"7天酒店上海松江店","lon":"121.26233","lat":"31.01709","category":"216","category_name":"经济型连锁酒店","address":"荣乐东路605号"},{"poiid":"B2094654DB6EA4F44898","title":"上海市松江工业区管理委员会(美能达路)","lon":"121.25588","lat":"31.02444","category":"45","category_name":"产业园区","address":"美能达路503号"},{"poiid":"B2094655D36CA6FA439C","title":"洞泾路","lon":"121.25631","lat":"31.025","category":"38","category_name":"公交车站","address":""},{"poiid":"B2094752D769A1F54493","title":"上海车墩影视城","lon":"121.261565","lat":"31.018636","category":"627","category_name":"一般地点标志","address":null},{"poiid":"B2094655D268A5F44799","title":"爱丽雅花苑(北门)","lon":"121.25688","lat":"31.01717","category":"47","category_name":"住宅区","address":"荣乐东路9号"},{"poiid":"B2094654DB6EA5FD459D","title":"上海协力汽配","lon":"121.26213","lat":"31.02206","category":"248","category_name":"生活娱乐","address":"松江区松卫汽配城B3区28-30号"},{"poiid":"B209475CD164A6FA479F","title":"星巴克","lon":"121.260025","lat":"31.017246","category":"500","category_name":"未知分类","address":"上海市 松东路"},{"poiid":"B2094757D06FA6F4479F","title":"星美乐莫国际影城","lon":"121.25474","lat":"31.00927","category":"178","category_name":"电影院","address":"松江区环城路515-555号LOMO玩库3楼(近松东路)"},{"poiid":"B2094757D06AA6F44498","title":"阿胖鲁肉饭(松江店)","lon":"121.25749","lat":"31.017","category":"91","category_name":"台湾菜","address":"松江区荣乐东路1825号(近爱丽雅花苑)"},{"poiid":"B2094757D06BA0FB4793","title":"沁韵渔火","lon":"121.255016793","lat":"31.0103385638","category":"86","category_name":"火锅店","address":"松江区环城路518号(近LOMO玩库)"},{"poiid":"B2094654DB69A5FF4292","title":"莫泰168连锁旅店(松卫北路店)","lon":"121.26164","lat":"31.02169","category":"216","category_name":"经济型连锁酒店","address":"松江区松卫北路860-868号(松卫北路荣乐东路)"},{"poiid":"B2094654DB64A0FE439C","title":"如家快捷酒店(上海松江工业区店)","lon":"121.26161","lat":"31.02251","category":"216","category_name":"经济型连锁酒店","address":"上海市松江区松卫北路679号（松卫汽配城旁）"},{"poiid":"B2094655D26BA2FB4798","title":"松东路","lon":"121.25523","lat":"31.01743","category":"38","category_name":"公交车站","address":""},{"poiid":"B2094757D169A3FE4993","title":"企福天地","lon":"121.262777","lat":"31.019279","category":"46","category_name":"楼宇","address":"上海松江区松卫北路665号"},{"poiid":"B2094654DB6EA4FB4492","title":"晋盛食府(松东路)","lon":"121.25592","lat":"31.01276","category":"76","category_name":"上海菜","address":"松江区松江松东路76号(繁华路松东路)"},{"poiid":"B2094757D168A1F4479B","title":"千岛湖山水人家农家菜","lon":"121.261438103","lat":"31.0197784829","category":"75","category_name":"浙江菜","address":"松江区松卫北路806号1-2楼"},{"poiid":"B2094757D66CA0FF479E","title":"金月海大饭店","lon":"121.261783103","lat":"31.0207705048","category":"72","category_name":"广东菜","address":"松江区松卫北路789号(近荣乐东路)"},{"poiid":"B2094654DB6EA4FA419D","title":"蓝天新村","lon":"121.25504","lat":"31.014357","category":"47","category_name":"住宅区","address":"松江工业区中山街道"},{"poiid":"B2094757D16AA1FF4898","title":"汉庭快捷酒店(松江店)","lon":"121.262321798","lat":"31.017702782","category":"217","category_name":"旅馆招待所","address":"松江区荣乐东路605号(近西林北路)"},{"poiid":"B2094757D169A7FE4299","title":"麦盛莉(松江店)","lon":"121.24893","lat":"31.01727","category":"76","category_name":"上海菜","address":"松江区荣乐东路2283号"},{"poiid":"B2094654DB6EA6FF469E","title":"光电大楼","lon":"121.26183","lat":"31.02045","category":"46","category_name":"楼宇","address":"松卫北路801号"},{"poiid":"B2094757D464A7F8429A","title":"三德屋日本料理 松江店","lon":"121.25501924243","lat":"31.011631808326","category":"95","category_name":"日本料理","address":"松江区松东路50号甲(松东路松江环城路)"},{"poiid":"B2094654DB6EA4F44592","title":"林香餐厅","lon":"121.258833054","lat":"31.018306793","category":"68","category_name":"快餐厅","address":"松江区洞泾路8号(近荣乐中路)"},{"poiid":"B2094655D268A7FE479B","title":"天上人间","lon":"121.2614","lat":"31.01943","category":"170","category_name":"KTV","address":"松卫北路828"},{"poiid":"B2094757D16AABFE459C","title":"高木日本料理(松江店)","lon":"121.256328051","lat":"31.0166706997","category":"95","category_name":"日本料理","address":"松江区松东路238号(近荣乐路)"},{"poiid":"B2094654DB6EA4F4469F","title":"上海都城经济园区(东城工商所南)","lon":"121.25994","lat":"31.01895","category":"45","category_name":"产业园区","address":"洞泾路10号"},{"poiid":"B2094757D169AAFF409E","title":"延锋伟世通汽车电子有限公司","lon":"121.257423","lat":"31.025313","category":"46","category_name":"楼宇","address":"上海美能达路300号"},{"poiid":"B2094655D268A7FE4693","title":"三铭杰座","lon":"121.26152","lat":"31.018579","category":"47","category_name":"住宅区","address":"上海市松江区松卫北路888号,荣乐东路"},{"poiid":"B2094757D16CA3FE4399","title":"天母蓝鸟咖啡(上海松江店)","lon":"121.255901","lat":"31.017212476","category":"65","category_name":"咖啡厅","address":"上海市松江区荣乐东路31号"},{"poiid":"B2094654DB6EA4F94998","title":"川流不息 松东路店","lon":"121.25600829974","lat":"31.009959830294","category":"71","category_name":"四川菜","address":"松江区松东路(松东路俞塘路)"},{"poiid":"B2094654DB6EA4FA4798","title":"顺昭小馆","lon":"121.25868","lat":"31.01719","category":"68","category_name":"快餐厅","address":"松江区松江镇荣乐东路3弄133号"},{"poiid":"B2094654DB6EA4FA429B","title":"樱木屋","lon":"121.25562","lat":"31.01558","category":"95","category_name":"日本料理","address":"松江区荣乐东路1587号-2-3号(近松卫北路)"},{"poiid":"B2094757D168A5F84993","title":"蓝天东区","lon":"121.259547","lat":"31.015865","category":"252","category_name":"楼宇机构","address":"上海松江区荣乐东路蓝天东区"},{"poiid":"B2094654DB6EA4F4479B","title":"上海四国食品包装机械有限公司","lon":"121.25948","lat":"31.02236","category":"263","category_name":"公司","address":"洞泾路18号"},{"poiid":"B2094750D56EA3F8449E","title":"掘金歌城","lon":"121.257308","lat":"31.017887","category":"170","category_name":"KTV","address":"松江区荣乐东路1819号(松东路口)"},{"poiid":"B2094757D16AA7FA449D","title":"御桶天下","lon":"121.26152666","lat":"31.0199685","category":"149","category_name":"洗浴推拿场所","address":"上海松江区中山街道松卫北路806号三楼"},{"poiid":"B2094655D268A5FB4299","title":"蓝天东区(北门)","lon":"121.25957","lat":"31.01719","category":"47","category_name":"住宅区","address":""},{"poiid":"B2094655D268A7FE469F","title":"三铭公寓式酒店","lon":"121.26152","lat":"31.01857","category":"47","category_name":"住宅区","address":""},{"poiid":"B2094654DB6EA4F44899","title":"松江工业区高新技术产业园区","lon":"121.25589","lat":"31.02444","category":"45","category_name":"产业园区","address":"美能达路503号"},{"poiid":"B2094757D66EA4FF459B","title":"松江区 环城路","lon":"121.255793","lat":"31.009118","category":"500","category_name":"未知分类","address":"上海松江区 环城路"},{"poiid":"B2094655D269A4F94292","title":"上海松江九华汽车","lon":"121.26228","lat":"31.01708","category":"158","category_name":"汽车销售","address":"上海市松江区松卫北路1189号（靠近荣乐东路）"},{"poiid":"B2094757D168A5F94293","title":"木の子","lon":"121.2620161","lat":"31.017624435","category":"95","category_name":"日本料理","address":"松江区松卫路(近荣乐东路)"},{"poiid":"B2094654DB6EA4F4489E","title":"雀巢","lon":"121.25689","lat":"31.02244","category":"263","category_name":"公司","address":"俞塘路318号"},{"poiid":"B2094655D268A6FB419A","title":"碧海夜总会","lon":"121.26097","lat":"31.02245","category":"248","category_name":"生活娱乐","address":""},{"poiid":"B2094655D268A5FD4793","title":"松江工业区","lon":"121.25487","lat":"31.01695","category":"46","category_name":"楼宇","address":"荣乐东路81号"},{"poiid":"B2094750D768AAFC439C","title":"鱼满楼","lon":"121.256","lat":"31.0147","category":"86","category_name":"火锅店","address":"松江区松东路146-148号(近荣乐东路)"},{"poiid":"B2094654DB6EA4FA4892","title":"爱丽雅花苑","lon":"121.25694","lat":"31.016794","category":"47","category_name":"住宅区","address":"荣乐东路9号"},{"poiid":"B2094757D16DABF54592","title":"百味佳","lon":"121.25588","lat":"31.01181","category":"76","category_name":"上海菜","address":"松江区松东路168号(近荣乐东路)"},{"poiid":"B2094757D465ABF8419D","title":"虾之道","lon":"121.2558074","lat":"31.015238","category":"76","category_name":"上海菜","address":"松江区松东路(环城路)"},{"poiid":"B2094654DB6EA5FD449C","title":"上海汇胜汽车贸易有限公司(光电大楼北)","lon":"121.26174","lat":"31.02196","category":"158","category_name":"汽车销售","address":"新沪松公路755号"},{"poiid":"B2094655D264A6F54292","title":"7天酒店上海松江店","lon":"121.26233","lat":"31.01709","category":"216","category_name":"经济型连锁酒店","address":"荣乐东路605号"},{"poiid":"B2094654DB6EA4F44898","title":"上海市松江工业区管理委员会(美能达路)","lon":"121.25588","lat":"31.02444","category":"45","category_name":"产业园区","address":"美能达路503号"},{"poiid":"B2094655D36CA6FA439C","title":"洞泾路","lon":"121.25631","lat":"31.025","category":"38","category_name":"公交车站","address":""},{"poiid":"B2094752D769A1F54493","title":"上海车墩影视城","lon":"121.261565","lat":"31.018636","category":"627","category_name":"一般地点标志","address":null},{"poiid":"B2094655D268A5F44799","title":"爱丽雅花苑(北门)","lon":"121.25688","lat":"31.01717","category":"47","category_name":"住宅区","address":"荣乐东路9号"},{"poiid":"B2094654DB6EA5FD459D","title":"上海协力汽配","lon":"121.26213","lat":"31.02206","category":"248","category_name":"生活娱乐","address":"松江区松卫汽配城B3区28-30号"},{"poiid":"B209475CD164A6FA479F","title":"星巴克","lon":"121.260025","lat":"31.017246","category":"500","category_name":"未知分类","address":"上海市 松东路"},{"poiid":"B2094757D06FA6F4479F","title":"星美乐莫国际影城","lon":"121.25474","lat":"31.00927","category":"178","category_name":"电影院","address":"松江区环城路515-555号LOMO玩库3楼(近松东路)"},{"poiid":"B2094757D06AA6F44498","title":"阿胖鲁肉饭(松江店)","lon":"121.25749","lat":"31.017","category":"91","category_name":"台湾菜","address":"松江区荣乐东路1825号(近爱丽雅花苑)"},{"poiid":"B2094757D06BA0FB4793","title":"沁韵渔火","lon":"121.255016793","lat":"31.0103385638","category":"86","category_name":"火锅店","address":"松江区环城路518号(近LOMO玩库)"},{"poiid":"B2094654DB69A5FF4292","title":"莫泰168连锁旅店(松卫北路店)","lon":"121.26164","lat":"31.02169","category":"216","category_name":"经济型连锁酒店","address":"松江区松卫北路860-868号(松卫北路荣乐东路)"},{"poiid":"B2094654DB64A0FE439C","title":"如家快捷酒店(上海松江工业区店)","lon":"121.26161","lat":"31.02251","category":"216","category_name":"经济型连锁酒店","address":"上海市松江区松卫北路679号（松卫汽配城旁）"},{"poiid":"B2094655D26BA2FB4798","title":"松东路","lon":"121.25523","lat":"31.01743","category":"38","category_name":"公交车站","address":""},{"poiid":"B2094757D169A3FE4993","title":"企福天地","lon":"121.262777","lat":"31.019279","category":"46","category_name":"楼宇","address":"上海松江区松卫北路665号"},{"poiid":"B2094654DB6EA4FB4492","title":"晋盛食府(松东路)","lon":"121.25592","lat":"31.01276","category":"76","category_name":"上海菜","address":"松江区松江松东路76号(繁华路松东路)"},{"poiid":"B2094757D168A1F4479B","title":"千岛湖山水人家农家菜","lon":"121.261438103","lat":"31.0197784829","category":"75","category_name":"浙江菜","address":"松江区松卫北路806号1-2楼"},{"poiid":"B2094757D66CA0FF479E","title":"金月海大饭店","lon":"121.261783103","lat":"31.0207705048","category":"72","category_name":"广东菜","address":"松江区松卫北路789号(近荣乐东路)"},{"poiid":"B2094654DB6EA4FA419D","title":"蓝天新村","lon":"121.25504","lat":"31.014357","category":"47","category_name":"住宅区","address":"松江工业区中山街道"},{"poiid":"B2094757D16AA1FF4898","title":"汉庭快捷酒店(松江店)","lon":"121.262321798","lat":"31.017702782","category":"217","category_name":"旅馆招待所","address":"松江区荣乐东路605号(近西林北路)"},{"poiid":"B2094757D169A7FE4299","title":"麦盛莉(松江店)","lon":"121.24893","lat":"31.01727","category":"76","category_name":"上海菜","address":"松江区荣乐东路2283号"},{"poiid":"B2094654DB6EA6FF469E","title":"光电大楼","lon":"121.26183","lat":"31.02045","category":"46","category_name":"楼宇","address":"松卫北路801号"},{"poiid":"B2094757D464A7F8429A","title":"三德屋日本料理 松江店","lon":"121.25501924243","lat":"31.011631808326","category":"95","category_name":"日本料理","address":"松江区松东路50号甲(松东路松江环城路)"},{"poiid":"B2094654DB6EA4F44592","title":"林香餐厅","lon":"121.258833054","lat":"31.018306793","category":"68","category_name":"快餐厅","address":"松江区洞泾路8号(近荣乐中路)"},{"poiid":"B2094655D268A7FE479B","title":"天上人间","lon":"121.2614","lat":"31.01943","category":"170","category_name":"KTV","address":"松卫北路828"},{"poiid":"B2094757D16AABFE459C","title":"高木日本料理(松江店)","lon":"121.256328051","lat":"31.0166706997","category":"95","category_name":"日本料理","address":"松江区松东路238号(近荣乐路)"},{"poiid":"B2094654DB6EA4F4469F","title":"上海都城经济园区(东城工商所南)","lon":"121.25994","lat":"31.01895","category":"45","category_name":"产业园区","address":"洞泾路10号"},{"poiid":"B2094757D169AAFF409E","title":"延锋伟世通汽车电子有限公司","lon":"121.257423","lat":"31.025313","category":"46","category_name":"楼宇","address":"上海美能达路300号"},{"poiid":"B2094655D268A7FE4693","title":"三铭杰座","lon":"121.26152","lat":"31.018579","category":"47","category_name":"住宅区","address":"上海市松江区松卫北路888号,荣乐东路"},{"poiid":"B2094757D16CA3FE4399","title":"天母蓝鸟咖啡(上海松江店)","lon":"121.255901","lat":"31.017212476","category":"65","category_name":"咖啡厅","address":"上海市松江区荣乐东路31号"},{"poiid":"B2094654DB6EA4F94998","title":"川流不息 松东路店","lon":"121.25600829974","lat":"31.009959830294","category":"71","category_name":"四川菜","address":"松江区松东路(松东路俞塘路)"},{"poiid":"B2094654DB6EA4FA4798","title":"顺昭小馆","lon":"121.25868","lat":"31.01719","category":"68","category_name":"快餐厅","address":"松江区松江镇荣乐东路3弄133号"},{"poiid":"B2094654DB6EA4FA429B","title":"樱木屋","lon":"121.25562","lat":"31.01558","category":"95","category_name":"日本料理","address":"松江区荣乐东路1587号-2-3号(近松卫北路)"},{"poiid":"B2094757D168A5F84993","title":"蓝天东区","lon":"121.259547","lat":"31.015865","category":"252","category_name":"楼宇机构","address":"上海松江区荣乐东路蓝天东区"},{"poiid":"B2094654DB6EA4F4479B","title":"上海四国食品包装机械有限公司","lon":"121.25948","lat":"31.02236","category":"263","category_name":"公司","address":"洞泾路18号"},{"poiid":"B2094750D56EA3F8449E","title":"掘金歌城","lon":"121.257308","lat":"31.017887","category":"170","category_name":"KTV","address":"松江区荣乐东路1819号(松东路口)"},{"poiid":"B2094757D16AA7FA449D","title":"御桶天下","lon":"121.26152666","lat":"31.0199685","category":"149","category_name":"洗浴推拿场所","address":"上海松江区中山街道松卫北路806号三楼"},{"poiid":"B2094655D268A5FB4299","title":"蓝天东区(北门)","lon":"121.25957","lat":"31.01719","category":"47","category_name":"住宅区","address":""},{"poiid":"B2094655D268A7FE469F","title":"三铭公寓式酒店","lon":"121.26152","lat":"31.01857","category":"47","category_name":"住宅区","address":""},{"poiid":"B2094654DB6EA4F44899","title":"松江工业区高新技术产业园区","lon":"121.25589","lat":"31.02444","category":"45","category_name":"产业园区","address":"美能达路503号"},{"poiid":"B2094757D66EA4FF459B","title":"松江区 环城路","lon":"121.255793","lat":"31.009118","category":"500","category_name":"未知分类","address":"上海松江区 环城路"},{"poiid":"B2094655D269A4F94292","title":"上海松江九华汽车","lon":"121.26228","lat":"31.01708","category":"158","category_name":"汽车销售","address":"上海市松江区松卫北路1189号（靠近荣乐东路）"},{"poiid":"B2094757D168A5F94293","title":"木の子","lon":"121.2620161","lat":"31.017624435","category":"95","category_name":"日本料理","address":"松江区松卫路(近荣乐东路)"},{"poiid":"B2094654DB6EA4F4489E","title":"雀巢","lon":"121.25689","lat":"31.02244","category":"263","category_name":"公司","address":"俞塘路318号"},{"poiid":"B2094655D268A6FB419A","title":"碧海夜总会","lon":"121.26097","lat":"31.02245","category":"248","category_name":"生活娱乐","address":""},{"poiid":"B2094655D268A5FD4793","title":"松江工业区","lon":"121.25487","lat":"31.01695","category":"46","category_name":"楼宇","address":"荣乐东路81号"},{"poiid":"B2094750D768AAFC439C","title":"鱼满楼","lon":"121.256","lat":"31.0147","category":"86","category_name":"火锅店","address":"松江区松东路146-148号(近荣乐东路)"},{"poiid":"B2094654DB6EA4FA4892","title":"爱丽雅花苑","lon":"121.25694","lat":"31.016794","category":"47","category_name":"住宅区","address":"荣乐东路9号"},{"poiid":"B2094757D16DABF54592","title":"百味佳","lon":"121.25588","lat":"31.01181","category":"76","category_name":"上海菜","address":"松江区松东路168号(近荣乐东路)"},{"poiid":"B2094757D465ABF8419D","title":"虾之道","lon":"121.2558074","lat":"31.015238","category":"76","category_name":"上海菜","address":"松江区松东路(环城路)"},{"poiid":"B2094654DB6EA5FD449C","title":"上海汇胜汽车贸易有限公司(光电大楼北)","lon":"121.26174","lat":"31.02196","category":"158","category_name":"汽车销售","address":"新沪松公路755号"},{"poiid":"B2094655D264A6F54292","title":"7天酒店上海松江店","lon":"121.26233","lat":"31.01709","category":"216","category_name":"经济型连锁酒店","address":"荣乐东路605号"},{"poiid":"B2094654DB6EA4F44898","title":"上海市松江工业区管理委员会(美能达路)","lon":"121.25588","lat":"31.02444","category":"45","category_name":"产业园区","address":"美能达路503号"},{"poiid":"B2094655D36CA6FA439C","title":"洞泾路","lon":"121.25631","lat":"31.025","category":"38","category_name":"公交车站","address":""},{"poiid":"B2094752D769A1F54493","title":"上海车墩影视城","lon":"121.261565","lat":"31.018636","category":"627","category_name":"一般地点标志","address":null},{"poiid":"B2094655D268A5F44799","title":"爱丽雅花苑(北门)","lon":"121.25688","lat":"31.01717","category":"47","category_name":"住宅区","address":"荣乐东路9号"},{"poiid":"B2094654DB6EA5FD459D","title":"上海协力汽配","lon":"121.26213","lat":"31.02206","category":"248","category_name":"生活娱乐","address":"松江区松卫汽配城B3区28-30号"},{"poiid":"B209475CD164A6FA479F","title":"星巴克","lon":"121.260025","lat":"31.017246","category":"500","category_name":"未知分类","address":"上海市 松东路"}]