[{"poiid":"B2094757D06FA4F9489A","title":"西郊庄园","lon":"121.28551","lat":"31.20104","category":"47","category_name":"住宅区","address":"上海市闵行区华漕镇金丰路588弄"},{"poiid":"B2094654DB69A5F9449B","title":"星巴克(金丰路店)","lon":"121.2848848","lat":"31.2031635","category":"65","category_name":"咖啡厅","address":"闵行区金丰路447号(近保乐路)"},{"poiid":"B2094757D16FAAFD409E","title":"上海美国学校(浦西校区)","lon":"121.27917886","lat":"31.205523976","category":"253","category_name":"校园生活","address":"上海闵行区金丰路256号(近保乐路)"},{"poiid":"B2094757D16CA2FB489A","title":"德邦物流总部","lon":"121.262709","lat":"31.1869674","category":"46","category_name":"楼宇","address":"上海市青浦区徐泾镇明珠路1018号"},{"poiid":"B2094654D56AABF8489F","title":"上海新加坡国际学校(朱建路)","lon":"121.27282","lat":"31.21683","category":"55","category_name":"中学","address":"朱建路301号"},{"poiid":"B2094757D16EA1FA469F","title":"天国墓园","lon":"121.263553947","lat":"31.2043146509","category":"500","category_name":"未知分类","address":"闵行区北青公路2200号"},{"poiid":"B2094757D66DABFB419C","title":"迪丰集团","lon":"121.27259356","lat":"31.192406849","category":"263","category_name":"公司","address":"上海市青浦区徐径镇双联路168号"},{"poiid":"B2094655D26BA1F8489E","title":"明珠路","lon":"121.25859","lat":"31.19764","category":"38","category_name":"公交车站","address":""},{"poiid":"B2094654D56AA4F84699","title":"中国·冠福家用","lon":"121.26931","lat":"31.19968","category":"263","category_name":"公司","address":""},{"poiid":"B2094757D06BA4F94499","title":"四季王朝大酒楼(北青公路店)","lon":"121.26379","lat":"31.20328","category":"247","category_name":"餐饮美食","address":"闵行区北青公路909号(近北翟路)"},{"poiid":"B2094654D56AA6FA4492","title":"石皮弄村","lon":"121.27216","lat":"31.206022","category":"47","category_name":"住宅区","address":"金光路6号"},{"poiid":"B2094757D164A1F8409C","title":"G15沈海高速北青公路收费站","lon":"121.263276609","lat":"31.2025942105","category":"267","category_name":"收费站","address":"上海G15沈海高速北青公路收费站"},{"poiid":"B2094757D064AAF4449C","title":"凯德·林茵湖畔园(Westwood Green)","lon":"121.28067262","lat":"31.207256158","category":"47","category_name":"住宅区","address":"上海闵行区金丰路55弄"},{"poiid":"B2094757D069A6FF4499","title":"G15沈海高速崧泽高架路收费站","lon":"121.28071856","lat":"31.187516158","category":"267","category_name":"收费站","address":"上海青浦区G15沈海高速崧泽高架路出口"},{"poiid":"B2094654D56AA6FA459A","title":"上海英国学校","lon":"121.278","lat":"31.19609","category":"55","category_name":"中学","address":"闵行区华漕镇金光路588号"},{"poiid":"B2094655D26BA6FC419A","title":"五天商贸广场","lon":"121.25951","lat":"31.20877","category":"119","category_name":"商场","address":"华徐公路888号"},{"poiid":"B2094757D06BA3F5489F","title":"上海虹桥火车站A26检票口","lon":"121.2746795","lat":"31.210813598","category":"22","category_name":"火车站","address":"上海虹桥火车站A26检票口"},{"poiid":"B2094757D069ABFA409D","title":"朗迪姆","lon":"121.28484","lat":"31.20335","category":"94","category_name":"西餐厅","address":"闵行区诸翟镇金丰路435号(近保乐路)"},{"poiid":"B2094757D165A6FC469B","title":"G15高速","lon":"121.25748356","lat":"31.214491315","category":"500","category_name":"未知分类","address":"上海高速"},{"poiid":"B2094655D36CA0FF469D","title":"金光路运乐路","lon":"121.27586","lat":"31.20133","category":"38","category_name":"公交车站","address":""},{"poiid":"B2094757D569A7FE4192","title":"西郊林茵湖畔园","lon":"121.2788539","lat":"31.20646","category":"47","category_name":"住宅区","address":"上海市闵行区幸乐路500弄"},{"poiid":"B2094654D56AA6FA489B","title":"兰桥圣菲","lon":"121.277","lat":"31.20501","category":"47","category_name":"住宅区","address":"金辉路333弄"},{"poiid":"B2094757D164A4FE4498","title":"益金行easymro","lon":"121.266109","lat":"31.199349","category":"249","category_name":"购物服务","address":"上海青浦区华徐公路888号"},{"poiid":"B2094655D36CA0FF4192","title":"金联明珠家苑","lon":"121.26056","lat":"31.19244","category":"47","category_name":"住宅区","address":""},{"poiid":"B2094757D16CA6F9409E","title":"华徐公路755号","lon":"121.264193","lat":"31.199767","category":"500","category_name":"未知分类","address":"上海青浦区徐泾镇华徐公路755号"},{"poiid":"B2094654D56AABF8479C","title":"上海优乐加城市工业园","lon":"121.27223","lat":"31.21421","category":"45","category_name":"产业园区","address":""},{"poiid":"B2094757D468AAF9469F","title":"安娜意大利餐厅","lon":"121.281413","lat":"31.204921","category":"98","category_name":"意式菜品餐厅","address":"闵行区华漕镇金丰路472号(近保乐路)"},{"poiid":"B2094655D268ABFF499F","title":"Ａ５北青公路收费站","lon":"121.26545","lat":"31.19831","category":"267","category_name":"收费站","address":""},{"poiid":"B2094757D164A0F9469E","title":"佳吉快运(徐泾店)","lon":"121.26246856","lat":"31.2017040458","category":"263","category_name":"公司","address":"上海近郊青浦区徐泾北青公路2999号  "},{"poiid":"B2094757D464ABF9449A","title":"棒约翰比萨 金丰店 Papa John's Pizza","lon":"121.28428025352","lat":"31.204068642386","category":"94","category_name":"西餐厅","address":"闵行区金丰路441号1楼(近保乐路)"},{"poiid":"B2094655D36DA7FC479D","title":"运乐路金丰路","lon":"121.28368","lat":"31.20491","category":"38","category_name":"公交车站","address":""},{"poiid":"B2094757D469A5FD479D","title":"赛百味 金丰路店 Subway","lon":"121.284490054","lat":"31.203679793","category":"94","category_name":"西餐厅","address":"闵行区华漕镇金丰路452号(近西郊庄园)"},{"poiid":"B2094757D16AABFE479E","title":"万科兰桥圣菲","lon":"121.27794656","lat":"31.200155013","category":"252","category_name":"楼宇机构","address":"上海闵行区运乐路777弄"},{"poiid":"B2094654DB6BA0FA439C","title":"佳吉快运","lon":"121.26046","lat":"31.2021","category":"248","category_name":"生活娱乐","address":"北青公路2999号"},{"poiid":"B2094655D264A1F9439C","title":"G15北青公路收费站","lon":"121.26084","lat":"31.20703","category":"267","category_name":"收费站","address":""},{"poiid":"B2094751D369A1FB4498","title":"乡村咖啡馆","lon":"121.28374","lat":"31.20449","category":"65","category_name":"咖啡厅","address":"闵行区保乐路620号（近金丰路）"},{"poiid":"B2094654D56AA4F8469F","title":"上海正迪服饰发展有限公司","lon":"121.27222","lat":"31.19558","category":"263","category_name":"公司","address":"汇龙路111号"},{"poiid":"B2094757D16FAAFD409C","title":"台商子女学校","lon":"121.27294056","lat":"31.2113902502","category":"500","category_name":"未知分类","address":"上海市闵行区朱建路"},{"poiid":"B2094757D465ABFD419F","title":"威尼斯意式咖啡休闲书吧","lon":"121.2841611","lat":"31.2013278","category":"65","category_name":"咖啡厅","address":"闵行区保乐路648号(近西郊庄园)"},{"poiid":"B2094757D164AAF54492","title":"兰桥圣菲会所","lon":"121.27867007","lat":"31.2016784753","category":"500","category_name":"未知分类","address":"上海"},{"poiid":"B2094753D66FAAFE4199","title":"虹桥二号航站楼","lon":"121.258284","lat":"31.202872","category":"500","category_name":"未知分类","address":"上海市 虹桥机场"},{"poiid":"B2094757D66EA5FA4993","title":"佳吉快运(松江店)","lon":"121.26073","lat":"31.20183","category":"263","category_name":"公司","address":"松江区徐泾北青公路2999号"},{"poiid":"B2094757D164AAF44599","title":"青浦徐泾仓库","lon":"121.26282","lat":"31.195017","category":"500","category_name":"未知分类","address":"上海徐祥路"},{"poiid":"B2094654D56AABF8489C","title":"上海韩国学校","lon":"121.27558","lat":"31.21515","category":"55","category_name":"中学","address":"联友路355号"},{"poiid":"B2094654D56AA6FA4992","title":"上岛咖啡(金丰路)","lon":"121.28489","lat":"31.20302","category":"65","category_name":"咖啡厅","address":"金丰路459"},{"poiid":"B2094757D16CA0FE4799","title":"永记广东菜","lon":"121.28522","lat":"31.20171","category":"72","category_name":"广东菜","address":"闵行区华漕镇保乐路610号(近金丰路)"},{"poiid":"B2094654D56AA4F54593","title":"德莉雪丝烘焙坊 Delicious Bakery","lon":"121.28479","lat":"31.20207","category":"112","category_name":"糕饼店","address":"闵行区保乐路612号(保乐路闵行金丰路)"},{"poiid":"B2094757D065A0F8479F","title":"N.Y.D.C美式休闲餐厅","lon":"121.28468","lat":"31.20302","category":"94","category_name":"西餐厅","address":"闵行区金丰路453号(近保乐路)"},{"poiid":"B2094654D56AA6FA4793","title":"泰海香泰式餐厅","lon":"121.28369","lat":"31.20122","category":"99","category_name":"泰国／越南菜品餐厅","address":"闵行区保乐路664号(近西郊庄园)"},{"poiid":"B2094757D16DA4FE409A","title":"万科 · 红郡","lon":"121.28605556","lat":"31.210141223","category":"47","category_name":"住宅区","address":"上海市闵行区运乐路"},{"poiid":"B2094757D06FA4F9489A","title":"西郊庄园","lon":"121.28551","lat":"31.20104","category":"47","category_name":"住宅区","address":"上海市闵行区华漕镇金丰路588弄"},{"poiid":"B2094654DB69A5F9449B","title":"星巴克(金丰路店)","lon":"121.2848848","lat":"31.2031635","category":"65","category_name":"咖啡厅","address":"闵行区金丰路447号(近保乐路)"},{"poiid":"B2094757D16FAAFD409E","title":"上海美国学校(浦西校区)","lon":"121.27917886","lat":"31.205523976","category":"253","category_name":"校园生活","address":"上海闵行区金丰路256号(近保乐路)"},{"poiid":"B2094757D16CA2FB489A","title":"德邦物流总部","lon":"121.262709","lat":"31.1869674","category":"46","category_name":"楼宇","address":"上海市青浦区徐泾镇明珠路1018号"},{"poiid":"B2094654D56AABF8489F","title":"上海新加坡国际学校(朱建路)","lon":"121.27282","lat":"31.21683","category":"55","category_name":"中学","address":"朱建路301号"},{"poiid":"B2094757D16EA1FA469F","title":"天国墓园","lon":"121.263553947","lat":"31.2043146509","category":"500","category_name":"未知分类","address":"闵行区北青公路2200号"},{"poiid":"B2094757D66DABFB419C","title":"迪丰集团","lon":"121.27259356","lat":"31.192406849","category":"263","category_name":"公司","address":"上海市青浦区徐径镇双联路168号"},{"poiid":"B2094655D26BA1F8489E","title":"明珠路","lon":"121.25859","lat":"31.19764","category":"38","category_name":"公交车站","address":""},{"poiid":"B2094654D56AA4F84699","title":"中国·冠福家用","lon":"121.26931","lat":"31.19968","category":"263","category_name":"公司","address":""},{"poiid":"B2094757D06BA4F94499","title":"四季王朝大酒楼(北青公路店)","lon":"121.26379","lat":"31.20328","category":"247","category_name":"餐饮美食","address":"闵行区北青公路909号(近北翟路)"},{"poiid":"B2094654D56AA6FA4492","title":"石皮弄村","lon":"121.27216","lat":"31.206022","category":"47","category_name":"住宅区","address":"金光路6号"},{"poiid":"B2094757D164A1F8409C","title":"G15沈海高速北青公路收费站","lon":"121.263276609","lat":"31.2025942105","category":"267","category_name":"收费站","address":"上海G15沈海高速北青公路收费站"},{"poiid":"B2094757D064AAF4449C","title":"凯德·林茵湖畔园(Westwood Green)","lon":"121.28067262","lat":"31.207256158","category":"47","category_name":"住宅区","address":"上海闵行区金丰路55弄"},{"poiid":"B2094757D069A6FF4499","title":"G15沈海高速崧泽高架路收费站","lon":"121.28071856","lat":"31.187516158","category":"267","category_name":"收费站","address":"上海青浦区G15沈海高速崧泽高架路出口"},{"poiid":"B2094654D56AA6FA459A","title":"上海英国学校","lon":"121.278","lat":"31.19609","category":"55","category_name":"中学","address":"闵行区华漕镇金光路588号"},{"poiid":"B2094655D26BA6FC419A","title":"五天商贸广场","lon":"121.25951","lat":"31.20877","category":"119","category_name":"商场","address":"华徐公路888号"},{"poiid":"B2094757D06BA3F5489F","title":"上海虹桥火车站A26检票口","lon":"121.2746795","lat":"31.210813598","category":"22","category_name":"火车站","address":"上海虹桥火车站A26检票口"},{"poiid":"B2094757D069ABFA409D","title":"朗迪姆","lon":"121.28484","lat":"31.20335","category":"94","category_name":"西餐厅","address":"闵行区诸翟镇金丰路435号(近保乐路)"},{"poiid":"B2094757D165A6FC469B","title":"G15高速","lon":"121.25748356","lat":"31.214491315","category":"500","category_name":"未知分类","address":"上海高速"},{"poiid":"B2094655D36CA0FF469D","title":"金光路运乐路","lon":"121.27586","lat":"31.20133","category":"38","category_name":"公交车站","address":""},{"poiid":"B2094757D569A7FE4192","title":"西郊林茵湖畔园","lon":"121.2788539","lat":"31.20646","category":"47","category_name":"住宅区","address":"上海市闵行区幸乐路500弄"},{"poiid":"B2094654D56AA6FA489B","title":"兰桥圣菲","lon":"121.277","lat":"31.20501","category":"47","category_name":"住宅区","address":"金辉路333弄"},{"poiid":"B2094757D164A4FE4498","title":"益金行easymro","lon":"121.266109","lat":"31.199349","category":"249","category_name":"购物服务","address":"上海青浦区华徐公路888号"},{"poiid":"B2094655D36CA0FF4192","title":"金联明珠家苑","lon":"121.26056","lat":"31.19244","category":"47","category_name":"住宅区","address":""},{"poiid":"B2094757D16CA6F9409E","title":"华徐公路755号","lon":"121.264193","lat":"31.199767","category":"500","category_name":"未知分类","address":"上海青浦区徐泾镇华徐公路755号"},{"poiid":"B2094654D56AABF8479C","title":"上海优乐加城市工业园","lon":"121.27223","lat":"31.21421","category":"45","category_name":"产业园区","address":""},{"poiid":"B2094757D468AAF9469F","title":"安娜意大利餐厅","lon":"121.281413","lat":"31.204921","category":"98","category_name":"意式菜品餐厅","address":"闵行区华漕镇金丰路472号(近保乐路)"},{"poiid":"B2094655D268ABFF499F","title":"Ａ５北青公路收费站","lon":"121.26545","lat":"31.19831","category":"267","category_name":"收费站","address":""},{"poiid":"B2094757D164A0F9469E","title":"佳吉快运(徐泾店)","lon":"121.26246856","lat":"31.2017040458","category":"263","category_name":"公司","address":"上海近郊青浦区徐泾北青公路2999号  "},{"poiid":"B2094757D464ABF9449A","title":"棒约翰比萨 金丰店 Papa John's Pizza","lon":"121.28428025352","lat":"31.204068642386","category":"94","category_name":"西餐厅","address":"闵行区金丰路441号1楼(近保乐路)"},{"poiid":"B2094655D36DA7FC479D","title":"运乐路金丰路","lon":"121.28368","lat":"31.20491","category":"38","category_name":"公交车站","address":""},{"poiid":"B2094757D469A5FD479D","title":"赛百味 金丰路店 Subway","lon":"121.284490054","lat":"31.203679793","category":"94","category_name":"西餐厅","address":"闵行区华漕镇金丰路452号(近西郊庄园)"},{"poiid":"B2094757D16AABFE479E","title":"万科兰桥圣菲","lon":"121.27794656","lat":"31.200155013","category":"252","category_name":"楼宇机构","address":"上海闵行区运乐路777弄"},{"poiid":"B2094654DB6BA0FA439C","title":"佳吉快运","lon":"121.26046","lat":"31.2021","category":"248","category_name":"生活娱乐","address":"北青公路2999号"},{"poiid":"B2094655D264A1F9439C","title":"G15北青公路收费站","lon":"121.26084","lat":"31.20703","category":"267","category_name":"收费站","address":""},{"poiid":"B2094751D369A1FB4498","title":"乡村咖啡馆","lon":"121.28374","lat":"31.20449","category":"65","category_name":"咖啡厅","address":"闵行区保乐路620号（近金丰路）"},{"poiid":"B2094654D56AA4F8469F","title":"上海正迪服饰发展有限公司","lon":"121.27222","lat":"31.19558","category":"263","category_name":"公司","address":"汇龙路111号"},{"poiid":"B2094757D16FAAFD409C","title":"台商子女学校","lon":"121.27294056","lat":"31.2113902502","category":"500","category_name":"未知分类","address":"上海市闵行区朱建路"},{"poiid":"B2094757D465ABFD419F","title":"威尼斯意式咖啡休闲书吧","lon":"121.2841611","lat":"31.2013278","category":"65","category_name":"咖啡厅","address":"闵行区保乐路648号(近西郊庄园)"},{"poiid":"B2094757D164AAF54492","title":"兰桥圣菲会所","lon":"121.27867007","lat":"31.2016784753","category":"500","category_name":"未知分类","address":"上海"},{"poiid":"B2094753D66FAAFE4199","title":"虹桥二号航站楼","lon":"121.258284","lat":"31.202872","category":"500","category_name":"未知分类","address":"上海市 虹桥机场"},{"poiid":"B2094757D66EA5FA4993","title":"佳吉快运(松江店)","lon":"121.26073","lat":"31.20183","category":"263","category_name":"公司","address":"松江区徐泾北青公路2999号"},{"poiid":"B2094757D164AAF44599","title":"青浦徐泾仓库","lon":"121.26282","lat":"31.195017","category":"500","category_name":"未知分类","address":"上海徐祥路"},{"poiid":"B2094654D56AABF8489C","title":"上海韩国学校","lon":"121.27558","lat":"31.21515","category":"55","category_name":"中学","address":"联友路355号"},{"poiid":"B2094654D56AA6FA4992","title":"上岛咖啡(金丰路)","lon":"121.28489","lat":"31.20302","category":"65","category_name":"咖啡厅","address":"金丰路459"},{"poiid":"B2094757D16CA0FE4799","title":"永记广东菜","lon":"121.28522","lat":"31.20171","category":"72","category_name":"广东菜","address":"闵行区华漕镇保乐路610号(近金丰路)"},{"poiid":"B2094654D56AA4F54593","title":"德莉雪丝烘焙坊 Delicious Bakery","lon":"121.28479","lat":"31.20207","category":"112","category_name":"糕饼店","address":"闵行区保乐路612号(保乐路闵行金丰路)"},{"poiid":"B2094757D065A0F8479F","title":"N.Y.D.C美式休闲餐厅","lon":"121.28468","lat":"31.20302","category":"94","category_name":"西餐厅","address":"闵行区金丰路453号(近保乐路)"},{"poiid":"B2094654D56AA6FA4793","title":"泰海香泰式餐厅","lon":"121.28369","lat":"31.20122","category":"99","category_name":"泰国／越南菜品餐厅","address":"闵行区保乐路664号(近西郊庄园)"},{"poiid":"B2094757D16DA4FE409A","title":"万科 · 红郡","lon":"121.28605556","lat":"31.210141223","category":"47","category_name":"住宅区","address":"上海市闵行区运乐路"},{"poiid":"B2094757D06FA4F9489A","title":"西郊庄园","lon":"121.28551","lat":"31.20104","category":"47","category_name":"住宅区","address":"上海市闵行区华漕镇金丰路588弄"},{"poiid":"B2094654DB69A5F9449B","title":"星巴克(金丰路店)","lon":"121.2848848","lat":"31.2031635","category":"65","category_name":"咖啡厅","address":"闵行区金丰路447号(近保乐路)"},{"poiid":"B2094757D16FAAFD409E","title":"上海美国学校(浦西校区)","lon":"121.27917886","lat":"31.205523976","category":"253","category_name":"校园生活","address":"上海闵行区金丰路256号(近保乐路)"},{"poiid":"B2094757D16CA2FB489A","title":"德邦物流总部","lon":"121.262709","lat":"31.1869674","category":"46","category_name":"楼宇","address":"上海市青浦区徐泾镇明珠路1018号"},{"poiid":"B2094654D56AABF8489F","title":"上海新加坡国际学校(朱建路)","lon":"121.27282","lat":"31.21683","category":"55","category_name":"中学","address":"朱建路301号"},{"poiid":"B2094757D16EA1FA469F","title":"天国墓园","lon":"121.263553947","lat":"31.2043146509","category":"500","category_name":"未知分类","address":"闵行区北青公路2200号"},{"poiid":"B2094757D66DABFB419C","title":"迪丰集团","lon":"121.27259356","lat":"31.192406849","category":"263","category_name":"公司","address":"上海市青浦区徐径镇双联路168号"},{"poiid":"B2094655D26BA1F8489E","title":"明珠路","lon":"121.25859","lat":"31.19764","category":"38","category_name":"公交车站","address":""},{"poiid":"B2094654D56AA4F84699","title":"中国·冠福家用","lon":"121.26931","lat":"31.19968","category":"263","category_name":"公司","address":""},{"poiid":"B2094757D06BA4F94499","title":"四季王朝大酒楼(北青公路店)","lon":"121.26379","lat":"31.20328","category":"247","category_name":"餐饮美食","address":"闵行区北青公路909号(近北翟路)"},{"poiid":"B2094654D56AA6FA4492","title":"石皮弄村","lon":"121.27216","lat":"31.206022","category":"47","category_name":"住宅区","address":"金光路6号"},{"poiid":"B2094757D164A1F8409C","title":"G15沈海高速北青公路收费站","lon":"121.263276609","lat":"31.2025942105","category":"267","category_name":"收费站","address":"上海G15沈海高速北青公路收费站"},{"poiid":"B2094757D064AAF4449C","title":"凯德·林茵湖畔园(Westwood Green)","lon":"121.28067262","lat":"31.207256158","category":"47","category_name":"住宅区","address":"上海闵行区金丰路55弄"},{"poiid":"B2094757D069A6FF4499","title":"G15沈海高速崧泽高架路收费站","lon":"121.28071856","lat":"31.187516158","category":"267","category_name":"收费站","address":"上海青浦区G15沈海高速崧泽高架路出口"},{"poiid":"B2094654D56AA6FA459A","title":"上海英国学校","lon":"121.278","lat":"31.19609","category":"55","category_name":"中学","address":"闵行区华漕镇金光路588号"},{"poiid":"B2094655D26BA6FC419A","title":"五天商贸广场","lon":"121.25951","lat":"31.20877","category":"119","category_name":"商场","address":"华徐公路888号"},{"poiid":"B2094757D06BA3F5489F","title":"上海虹桥火车站A26检票口","lon":"121.2746795","lat":"31.210813598","category":"22","category_name":"火车站","address":"上海虹桥火车站A26检票口"},{"poiid":"B2094757D069ABFA409D","title":"朗迪姆","lon":"121.28484","lat":"31.20335","category":"94","category_name":"西餐厅","address":"闵行区诸翟镇金丰路435号(近保乐路)"},{"poiid":"B2094757D165A6FC469B","title":"G15高速","lon":"121.25748356","lat":"31.214491315","category":"500","category_name":"未知分类","address":"上海高速"},{"poiid":"B2094655D36CA0FF469D","title":"金光路运乐路","lon":"121.27586","lat":"31.20133","category":"38","category_name":"公交车站","address":""},{"poiid":"B2094757D569A7FE4192","title":"西郊林茵湖畔园","lon":"121.2788539","lat":"31.20646","category":"47","category_name":"住宅区","address":"上海市闵行区幸乐路500弄"},{"poiid":"B2094654D56AA6FA489B","title":"兰桥圣菲","lon":"121.277","lat":"31.20501","category":"47","category_name":"住宅区","address":"金辉路333弄"},{"poiid":"B2094757D164A4FE4498","title":"益金行easymro","lon":"121.266109","lat":"31.199349","category":"249","category_name":"购物服务","address":"上海青浦区华徐公路888号"},{"poiid":"B2094655D36CA0FF4192","title":"金联明珠家苑","lon":"121.26056","lat":"31.19244","category":"47","category_name":"住宅区","address":""},{"poiid":"B2094757D16CA6F9409E","title":"华徐公路755号","lon":"121.264193","lat":"31.199767","category":"500","category_name":"未知分类","address":"上海青浦区徐泾镇华徐公路755号"},{"poiid":"B2094654D56AABF8479C","title":"上海优乐加城市工业园","lon":"121.27223","lat":"31.21421","category":"45","category_name":"产业园区","address":""},{"poiid":"B2094757D468AAF9469F","title":"安娜意大利餐厅","lon":"121.281413","lat":"31.204921","category":"98","category_name":"意式菜品餐厅","address":"闵行区华漕镇金丰路472号(近保乐路)"},{"poiid":"B2094655D268ABFF499F","title":"Ａ５北青公路收费站","lon":"121.26545","lat":"31.19831","category":"267","category_name":"收费站","address":""},{"poiid":"B2094757D164A0F9469E","title":"佳吉快运(徐泾店)","lon":"121.26246856","lat":"31.2017040458","category":"263","category_name":"公司","address":"上海近郊青浦区徐泾北青公路2999号  "},{"poiid":"B2094757D464ABF9449A","title":"棒约翰比萨 金丰店 Papa John's Pizza","lon":"121.28428025352","lat":"31.204068642386","category":"94","category_name":"西餐厅","address":"闵行区金丰路441号1楼(近保乐路)"},{"poiid":"B2094655D36DA7FC479D","title":"运乐路金丰路","lon":"121.28368","lat":"31.20491","category":"38","category_name":"公交车站","address":""},{"poiid":"B2094757D469A5FD479D","title":"赛百味 金丰路店 Subway","lon":"121.284490054","lat":"31.203679793","category":"94","category_name":"西餐厅","address":"闵行区华漕镇金丰路452号(近西郊庄园)"},{"poiid":"B2094757D16AABFE479E","title":"万科兰桥圣菲","lon":"121.27794656","lat":"31.200155013","category":"252","category_name":"楼宇机构","address":"上海闵行区运乐路777弄"},{"poiid":"B2094654DB6BA0FA439C","title":"佳吉快运","lon":"121.26046","lat":"31.2021","category":"248","category_name":"生活娱乐","address":"北青公路2999号"},{"poiid":"B2094655D264A1F9439C","title":"G15北青公路收费站","lon":"121.26084","lat":"31.20703","category":"267","category_name":"收费站","address":""},{"poiid":"B2094751D369A1FB4498","title":"乡村咖啡馆","lon":"121.28374","lat":"31.20449","category":"65","category_name":"咖啡厅","address":"闵行区保乐路620号（近金丰路）"},{"poiid":"B2094654D56AA4F8469F","title":"上海正迪服饰发展有限公司","lon":"121.27222","lat":"31.19558","category":"263","category_name":"公司","address":"汇龙路111号"},{"poiid":"B2094757D16FAAFD409C","title":"台商子女学校","lon":"121.27294056","lat":"31.2113902502","category":"500","category_name":"未知分类","address":"上海市闵行区朱建路"},{"poiid":"B2094757D465ABFD419F","title":"威尼斯意式咖啡休闲书吧","lon":"121.2841611","lat":"31.2013278","category":"65","category_name":"咖啡厅","address":"闵行区保乐路648号(近西郊庄园)"},{"poiid":"B2094757D164AAF54492","title":"兰桥圣菲会所","lon":"121.27867007","lat":"31.2016784753","category":"500","category_name":"未知分类","address":"上海"},{"poiid":"B2094753D66FAAFE4199","title":"虹桥二号航站楼","lon":"121.258284","lat":"31.202872","category":"500","category_name":"未知分类","address":"上海市 虹桥机场"},{"poiid":"B2094757D66EA5FA4993","title":"佳吉快运(松江店)","lon":"121.26073","lat":"31.20183","category":"263","category_name":"公司","address":"松江区徐泾北青公路2999号"},{"poiid":"B2094757D164AAF44599","title":"青浦徐泾仓库","lon":"121.26282","lat":"31.195017","category":"500","category_name":"未知分类","address":"上海徐祥路"},{"poiid":"B2094654D56AABF8489C","title":"上海韩国学校","lon":"121.27558","lat":"31.21515","category":"55","category_name":"中学","address":"联友路355号"},{"poiid":"B2094654D56AA6FA4992","title":"上岛咖啡(金丰路)","lon":"121.28489","lat":"31.20302","category":"65","category_name":"咖啡厅","address":"金丰路459"},{"poiid":"B2094757D16CA0FE4799","title":"永记广东菜","lon":"121.28522","lat":"31.20171","category":"72","category_name":"广东菜","address":"闵行区华漕镇保乐路610号(近金丰路)"},{"poiid":"B2094654D56AA4F54593","title":"德莉雪丝烘焙坊 Delicious Bakery","lon":"121.28479","lat":"31.20207","category":"112","category_name":"糕饼店","address":"闵行区保乐路612号(保乐路闵行金丰路)"},{"poiid":"B2094757D065A0F8479F","title":"N.Y.D.C美式休闲餐厅","lon":"121.28468","lat":"31.20302","category":"94","category_name":"西餐厅","address":"闵行区金丰路453号(近保乐路)"},{"poiid":"B2094654D56AA6FA4793","title":"泰海香泰式餐厅","lon":"121.28369","lat":"31.20122","category":"99","category_name":"泰国／越南菜品餐厅","address":"闵行区保乐路664号(近西郊庄园)"},{"poiid":"B2094757D16DA4FE409A","title":"万科 · 红郡","lon":"121.28605556","lat":"31.210141223","category":"47","category_name":"住宅区","address":"上海市闵行区运乐路"}]