[{"poiid":"B2094757D06EAAFE4398","title":"上海歌城(中兴路店)","lon":"121.46375","lat":"31.25196","category":"170","category_name":"KTV","address":"闸北区中兴路1233号中兴财富广场1幢1-2号(近共和新路)"},{"poiid":"B2094757D06EAAFC489B","title":"嘉里不夜城","lon":"121.463","lat":"31.2514","category":"500","category_name":"未知分类","address":"上海市松江区涞坊路599弄"},{"poiid":"B2094757D06FA1F84099","title":"城上城","lon":"121.46487666","lat":"31.249323921","category":"47","category_name":"住宅区","address":"上海闸北区虬江路1488弄"},{"poiid":"B209475CD564A7F8439E","title":"上海滩中信泰富店","lon":"121.45602","lat":"31.22851","category":"119","category_name":"商场","address":"\"南京西路1168号中信泰富广场，店铺号221.\r\n\""},{"poiid":"B2094757D06AA0FC4499","title":"南北高架","lon":"121.46357196","lat":"31.250989706","category":"500","category_name":"未知分类","address":"上海天目西路至中环"},{"poiid":"B2094757D068A2FD469B","title":"共和新路中兴路","lon":"121.463348","lat":"31.251093","category":"500","category_name":"未知分类","address":"上海共和新路中兴路"},{"poiid":"B2094757D06FAAFA419E","title":"汉中广场","lon":"121.465","lat":"31.2486","category":"500","category_name":"未知分类","address":"上海市四川北路1851号"},{"poiid":"B2094757D06FA4F5409E","title":"一天下大厦","lon":"121.464","lat":"31.2469","category":"46","category_name":"楼宇","address":"行宫位于沈河北站一路41号"},{"poiid":"B2094757D06FA4F9429C","title":"青年餐厅(火车站店)","lon":"121.46552","lat":"31.25192","category":"71","category_name":"四川菜","address":"闸北区中兴路1122号2楼(近共和新路)"},{"poiid":"B2094655D268A7FF489A","title":"中土大厦","lon":"121.463746","lat":"31.250478","category":"46","category_name":"楼宇","address":"上海市闸北区共和新路666号"},{"poiid":"B2094757D068AAFB429B","title":"豪享来上海天目店","lon":"121.4665","lat":"31.2451","category":"247","category_name":"餐饮美食","address":"上海市闸北区天目中路463号甲"},{"poiid":"B2094757D06AA0FB439C","title":"闸北区出入境管理局","lon":"121.462799","lat":"31.248908","category":"500","category_name":"未知分类","address":"上海天目中路578号"},{"poiid":"B2094757D168A5FB439F","title":"上海火车站6号候车室","lon":"121.463178","lat":"31.251041","category":"22","category_name":"火车站","address":"闸北区上海火车站"},{"poiid":"B2094654D56CA2F5469B","title":"中国移动(虬江路)","lon":"121.46797","lat":"31.25004","category":"138","category_name":"家电电子卖场","address":""},{"poiid":"B2094750DB6DABFE469A","title":"小天鹅火锅","lon":"121.464471","lat":"31.248126","category":"247","category_name":"餐饮美食","address":"黄浦区南京路2-88号新世界城4楼"},{"poiid":"B2094654D56CA2FA409E","title":"沙湾小镇茶餐厅","lon":"121.46447","lat":"31.24968","category":"72","category_name":"广东菜","address":"闸北区虬江路1504号城上城(近共和新路)"},{"poiid":"B2094654D56CA2FA4292","title":"长城苑","lon":"121.46644","lat":"31.248995","category":"47","category_name":"住宅区","address":"上海市闸北区共和新路409号"},{"poiid":"B2094757D064A3FB499C","title":"唯一天使婚纱","lon":"121.468716103","lat":"31.2512740222","category":"255","category_name":"专卖店","address":"上海中兴路605号"},{"poiid":"B2094757D06BA6FD489A","title":"金光大道大酒家(中兴路店)","lon":"121.46483","lat":"31.25215","category":"76","category_name":"上海菜","address":"闸北区中兴路1111号(近共和新路)"},{"poiid":"B2094757D069A1F5429B","title":"复元坊","lon":"121.46567","lat":"31.250195","category":"47","category_name":"住宅区","address":"上海虬江路1431弄"},{"poiid":"B2094757D069A6FF4093","title":"贵州苗家酸汤鱼馆 中兴路店","lon":"121.463040054","lat":"31.252511793","category":"83","category_name":"云贵菜","address":"闸北区中兴路1233号中兴财富广场内(近共和新路)"},{"poiid":"B2094654D56CA2FA439C","title":"长城苑商务楼","lon":"121.4667","lat":"31.24935","category":"46","category_name":"楼宇","address":"虬江路1376号"},{"poiid":"B2094655D264A7FF479D","title":"馨云阁私房菜","lon":"121.4648","lat":"31.24967","category":"74","category_name":"江苏菜","address":"闸北区虬江路1496号(近南北高架)"},{"poiid":"B2094654DB69AAF8499F","title":"湘土人家","lon":"121.464169054","lat":"31.250009793","category":"77","category_name":"湖南菜","address":"闸北区虬江路1500号(近共和新路)"},{"poiid":"B2094654D56CA2FA439E","title":"老先生餐馆","lon":"121.4666","lat":"31.24943","category":"257","category_name":"中餐厅","address":"闸北区虬江路1386号(近共和新路)"},{"poiid":"B2094655D265AAFB4698","title":"鸿昌兴苏州面馆","lon":"121.4641","lat":"31.24979","category":"68","category_name":"快餐厅","address":"闸北区虬江路1518号(近共和新路)"},{"poiid":"B2094654D56CA2FA419D","title":"诗婷SPA香薰水疗馆上海城上城店","lon":"121.46559","lat":"31.24949","category":"148","category_name":"美容美发店","address":"虬江路1440"},{"poiid":"B2094655D26CA1FC499F","title":"好德便利No.101","lon":"121.46513","lat":"31.24959","category":"117","category_name":"便民商店/便利店","address":"虬江路1458"},{"poiid":"B2094654D56CA2F94998","title":"京江商业街","lon":"121.46443","lat":"31.24856","category":"116","category_name":"特色商业街","address":""},{"poiid":"B2094757D06BABF8459F","title":"超谊小笼馆","lon":"121.46648904","lat":"31.250645737","category":"68","category_name":"快餐厅","address":"闸北区虬江路1450号(近永兴小马路)"},{"poiid":"B2094655D26EA5FD459B","title":"亚繁风尚商务酒店(上海中兴路店)","lon":"121.46503","lat":"31.25213","category":"250","category_name":"公园户外","address":"上海市闸北区中兴路1122号（近共和新路）"},{"poiid":"B2094654D56CA2F44199","title":"快客(虬江路)","lon":"121.46545","lat":"31.24988","category":"117","category_name":"便民商店/便利店","address":"虬江路1449号"},{"poiid":"B2094757D165A1F5429E","title":"宝逸堂","lon":"121.464888438","lat":"31.2475452692","category":"111","category_name":"休闲餐饮场所","address":"闸北区虬江路1520号(近共和新路)"},{"poiid":"B2094750D665A1FD439F","title":"鼎新小馆","lon":"121.466","lat":"31.2527","category":"76","category_name":"上海菜","address":"闸北区中兴路1055号(近共和新路)"},{"poiid":"B2094757DB68A3F9439C","title":"蛇摊","lon":"121.4683665801971","lat":"31.24743910043616","category":"247","category_name":"餐饮美食","address":"海宁路西藏北路"},{"poiid":"B2094654DB6AAAFF449A","title":"城上城(北门)","lon":"121.46494","lat":"31.24957","category":"47","category_name":"住宅区","address":"虬江路1488弄"},{"poiid":"B2094655D26FA7FB449E","title":"复元坊(南门)","lon":"121.46569","lat":"31.24989","category":"47","category_name":"住宅区","address":"虬江路1431弄"},{"poiid":"B2094655D265A6F9419E","title":"梵迪美容美发","lon":"121.46526","lat":"31.24956","category":"148","category_name":"美容美发店","address":"虬江路1452"},{"poiid":"B2094654D564AAFA449B","title":"汇贡大厦","lon":"121.465","lat":"31.2528","category":"46","category_name":"楼宇","address":"浦东区崂山东路410号"},{"poiid":"B2094654D56CA2FA4692","title":"闸北芷江西开业园区","lon":"121.46724","lat":"31.24904","category":"45","category_name":"产业园区","address":"徐家宅路143"},{"poiid":"B2094757D16DA2FD469D","title":"苏州沈源兴","lon":"121.46570473","lat":"31.247975678","category":"500","category_name":"未知分类","address":"上海黄浦区汉口路649号"},{"poiid":"B2094757D66DA2FA4092","title":"O  Hair Salon","lon":"121.463479103","lat":"31.2503690033","category":"500","category_name":"未知分类","address":"上海市闸北区虬江路1452号"},{"poiid":"B2094757D068A2F94393","title":"浦东新区税务局","lon":"121.4663406","lat":"31.249264749","category":"252","category_name":"楼宇机构","address":"上海浦东新区向城路80号(近福山路)"},{"poiid":"B2094750D66DA6FD4792","title":"和源中环企业广场","lon":"121.463673","lat":"31.250031","category":"46","category_name":"楼宇","address":"闸北区共和新路2993号"},{"poiid":"B2094654D56CA2F4479F","title":"界点桌球俱乐部","lon":"121.46422","lat":"31.2503","category":"171","category_name":"台球厅","address":"凯鹏大厦4层"},{"poiid":"B2094757D66DA5F9429D","title":"浦江镇体育中心","lon":"121.465805458","lat":"31.2495723567","category":"500","category_name":"未知分类","address":"上海江玮路江文路"},{"poiid":"B2094757D16EAAFE439B","title":"金峰大厦","lon":"121.465","lat":"31.2459","category":"46","category_name":"楼宇","address":"上海闸北区恒丰路31号"},{"poiid":"B2094654DA6FA2FD4493","title":"交通公园","lon":"121.46762","lat":"31.24767","category":"196","category_name":"公园","address":"闸北区新马路262号(近育婴堂路)"},{"poiid":"B2094654D56CA2FB4699","title":"晟泰都市工业园区","lon":"121.46705","lat":"31.25013","category":"45","category_name":"产业园区","address":"虬江路1379"},{"poiid":"B2094654D56CA2F5429B","title":"光华坊","lon":"121.46649","lat":"31.25143","category":"47","category_name":"住宅区","address":"上海市闸北区永兴路595弄"},{"poiid":"B2094757D06EAAFE4398","title":"上海歌城(中兴路店)","lon":"121.46375","lat":"31.25196","category":"170","category_name":"KTV","address":"闸北区中兴路1233号中兴财富广场1幢1-2号(近共和新路)"},{"poiid":"B2094757D06EAAFC489B","title":"嘉里不夜城","lon":"121.463","lat":"31.2514","category":"500","category_name":"未知分类","address":"上海市松江区涞坊路599弄"},{"poiid":"B2094757D06FA1F84099","title":"城上城","lon":"121.46487666","lat":"31.249323921","category":"47","category_name":"住宅区","address":"上海闸北区虬江路1488弄"},{"poiid":"B209475CD564A7F8439E","title":"上海滩中信泰富店","lon":"121.45602","lat":"31.22851","category":"119","category_name":"商场","address":"\"南京西路1168号中信泰富广场，店铺号221.\r\n\""},{"poiid":"B2094757D06AA0FC4499","title":"南北高架","lon":"121.46357196","lat":"31.250989706","category":"500","category_name":"未知分类","address":"上海天目西路至中环"},{"poiid":"B2094757D068A2FD469B","title":"共和新路中兴路","lon":"121.463348","lat":"31.251093","category":"500","category_name":"未知分类","address":"上海共和新路中兴路"},{"poiid":"B2094757D06FAAFA419E","title":"汉中广场","lon":"121.465","lat":"31.2486","category":"500","category_name":"未知分类","address":"上海市四川北路1851号"},{"poiid":"B2094757D06FA4F5409E","title":"一天下大厦","lon":"121.464","lat":"31.2469","category":"46","category_name":"楼宇","address":"行宫位于沈河北站一路41号"},{"poiid":"B2094757D06FA4F9429C","title":"青年餐厅(火车站店)","lon":"121.46552","lat":"31.25192","category":"71","category_name":"四川菜","address":"闸北区中兴路1122号2楼(近共和新路)"},{"poiid":"B2094655D268A7FF489A","title":"中土大厦","lon":"121.463746","lat":"31.250478","category":"46","category_name":"楼宇","address":"上海市闸北区共和新路666号"},{"poiid":"B2094757D068AAFB429B","title":"豪享来上海天目店","lon":"121.4665","lat":"31.2451","category":"247","category_name":"餐饮美食","address":"上海市闸北区天目中路463号甲"},{"poiid":"B2094757D06AA0FB439C","title":"闸北区出入境管理局","lon":"121.462799","lat":"31.248908","category":"500","category_name":"未知分类","address":"上海天目中路578号"},{"poiid":"B2094757D168A5FB439F","title":"上海火车站6号候车室","lon":"121.463178","lat":"31.251041","category":"22","category_name":"火车站","address":"闸北区上海火车站"},{"poiid":"B2094654D56CA2F5469B","title":"中国移动(虬江路)","lon":"121.46797","lat":"31.25004","category":"138","category_name":"家电电子卖场","address":""},{"poiid":"B2094750DB6DABFE469A","title":"小天鹅火锅","lon":"121.464471","lat":"31.248126","category":"247","category_name":"餐饮美食","address":"黄浦区南京路2-88号新世界城4楼"},{"poiid":"B2094654D56CA2FA409E","title":"沙湾小镇茶餐厅","lon":"121.46447","lat":"31.24968","category":"72","category_name":"广东菜","address":"闸北区虬江路1504号城上城(近共和新路)"},{"poiid":"B2094654D56CA2FA4292","title":"长城苑","lon":"121.46644","lat":"31.248995","category":"47","category_name":"住宅区","address":"上海市闸北区共和新路409号"},{"poiid":"B2094757D064A3FB499C","title":"唯一天使婚纱","lon":"121.468716103","lat":"31.2512740222","category":"255","category_name":"专卖店","address":"上海中兴路605号"},{"poiid":"B2094757D06BA6FD489A","title":"金光大道大酒家(中兴路店)","lon":"121.46483","lat":"31.25215","category":"76","category_name":"上海菜","address":"闸北区中兴路1111号(近共和新路)"},{"poiid":"B2094757D069A1F5429B","title":"复元坊","lon":"121.46567","lat":"31.250195","category":"47","category_name":"住宅区","address":"上海虬江路1431弄"},{"poiid":"B2094757D069A6FF4093","title":"贵州苗家酸汤鱼馆 中兴路店","lon":"121.463040054","lat":"31.252511793","category":"83","category_name":"云贵菜","address":"闸北区中兴路1233号中兴财富广场内(近共和新路)"},{"poiid":"B2094654D56CA2FA439C","title":"长城苑商务楼","lon":"121.4667","lat":"31.24935","category":"46","category_name":"楼宇","address":"虬江路1376号"},{"poiid":"B2094655D264A7FF479D","title":"馨云阁私房菜","lon":"121.4648","lat":"31.24967","category":"74","category_name":"江苏菜","address":"闸北区虬江路1496号(近南北高架)"},{"poiid":"B2094654DB69AAF8499F","title":"湘土人家","lon":"121.464169054","lat":"31.250009793","category":"77","category_name":"湖南菜","address":"闸北区虬江路1500号(近共和新路)"},{"poiid":"B2094654D56CA2FA439E","title":"老先生餐馆","lon":"121.4666","lat":"31.24943","category":"257","category_name":"中餐厅","address":"闸北区虬江路1386号(近共和新路)"},{"poiid":"B2094655D265AAFB4698","title":"鸿昌兴苏州面馆","lon":"121.4641","lat":"31.24979","category":"68","category_name":"快餐厅","address":"闸北区虬江路1518号(近共和新路)"},{"poiid":"B2094654D56CA2FA419D","title":"诗婷SPA香薰水疗馆上海城上城店","lon":"121.46559","lat":"31.24949","category":"148","category_name":"美容美发店","address":"虬江路1440"},{"poiid":"B2094655D26CA1FC499F","title":"好德便利No.101","lon":"121.46513","lat":"31.24959","category":"117","category_name":"便民商店/便利店","address":"虬江路1458"},{"poiid":"B2094654D56CA2F94998","title":"京江商业街","lon":"121.46443","lat":"31.24856","category":"116","category_name":"特色商业街","address":""},{"poiid":"B2094757D06BABF8459F","title":"超谊小笼馆","lon":"121.46648904","lat":"31.250645737","category":"68","category_name":"快餐厅","address":"闸北区虬江路1450号(近永兴小马路)"},{"poiid":"B2094655D26EA5FD459B","title":"亚繁风尚商务酒店(上海中兴路店)","lon":"121.46503","lat":"31.25213","category":"250","category_name":"公园户外","address":"上海市闸北区中兴路1122号（近共和新路）"},{"poiid":"B2094654D56CA2F44199","title":"快客(虬江路)","lon":"121.46545","lat":"31.24988","category":"117","category_name":"便民商店/便利店","address":"虬江路1449号"},{"poiid":"B2094757D165A1F5429E","title":"宝逸堂","lon":"121.464888438","lat":"31.2475452692","category":"111","category_name":"休闲餐饮场所","address":"闸北区虬江路1520号(近共和新路)"},{"poiid":"B2094750D665A1FD439F","title":"鼎新小馆","lon":"121.466","lat":"31.2527","category":"76","category_name":"上海菜","address":"闸北区中兴路1055号(近共和新路)"},{"poiid":"B2094757DB68A3F9439C","title":"蛇摊","lon":"121.4683665801971","lat":"31.24743910043616","category":"247","category_name":"餐饮美食","address":"海宁路西藏北路"},{"poiid":"B2094654DB6AAAFF449A","title":"城上城(北门)","lon":"121.46494","lat":"31.24957","category":"47","category_name":"住宅区","address":"虬江路1488弄"},{"poiid":"B2094655D26FA7FB449E","title":"复元坊(南门)","lon":"121.46569","lat":"31.24989","category":"47","category_name":"住宅区","address":"虬江路1431弄"},{"poiid":"B2094655D265A6F9419E","title":"梵迪美容美发","lon":"121.46526","lat":"31.24956","category":"148","category_name":"美容美发店","address":"虬江路1452"},{"poiid":"B2094654D564AAFA449B","title":"汇贡大厦","lon":"121.465","lat":"31.2528","category":"46","category_name":"楼宇","address":"浦东区崂山东路410号"},{"poiid":"B2094654D56CA2FA4692","title":"闸北芷江西开业园区","lon":"121.46724","lat":"31.24904","category":"45","category_name":"产业园区","address":"徐家宅路143"},{"poiid":"B2094757D16DA2FD469D","title":"苏州沈源兴","lon":"121.46570473","lat":"31.247975678","category":"500","category_name":"未知分类","address":"上海黄浦区汉口路649号"},{"poiid":"B2094757D66DA2FA4092","title":"O  Hair Salon","lon":"121.463479103","lat":"31.2503690033","category":"500","category_name":"未知分类","address":"上海市闸北区虬江路1452号"},{"poiid":"B2094757D068A2F94393","title":"浦东新区税务局","lon":"121.4663406","lat":"31.249264749","category":"252","category_name":"楼宇机构","address":"上海浦东新区向城路80号(近福山路)"},{"poiid":"B2094750D66DA6FD4792","title":"和源中环企业广场","lon":"121.463673","lat":"31.250031","category":"46","category_name":"楼宇","address":"闸北区共和新路2993号"},{"poiid":"B2094654D56CA2F4479F","title":"界点桌球俱乐部","lon":"121.46422","lat":"31.2503","category":"171","category_name":"台球厅","address":"凯鹏大厦4层"},{"poiid":"B2094757D66DA5F9429D","title":"浦江镇体育中心","lon":"121.465805458","lat":"31.2495723567","category":"500","category_name":"未知分类","address":"上海江玮路江文路"},{"poiid":"B2094757D16EAAFE439B","title":"金峰大厦","lon":"121.465","lat":"31.2459","category":"46","category_name":"楼宇","address":"上海闸北区恒丰路31号"},{"poiid":"B2094654DA6FA2FD4493","title":"交通公园","lon":"121.46762","lat":"31.24767","category":"196","category_name":"公园","address":"闸北区新马路262号(近育婴堂路)"},{"poiid":"B2094654D56CA2FB4699","title":"晟泰都市工业园区","lon":"121.46705","lat":"31.25013","category":"45","category_name":"产业园区","address":"虬江路1379"},{"poiid":"B2094654D56CA2F5429B","title":"光华坊","lon":"121.46649","lat":"31.25143","category":"47","category_name":"住宅区","address":"上海市闸北区永兴路595弄"},{"poiid":"B2094757D06EAAFE4398","title":"上海歌城(中兴路店)","lon":"121.46375","lat":"31.25196","category":"170","category_name":"KTV","address":"闸北区中兴路1233号中兴财富广场1幢1-2号(近共和新路)"},{"poiid":"B2094757D06EAAFC489B","title":"嘉里不夜城","lon":"121.463","lat":"31.2514","category":"500","category_name":"未知分类","address":"上海市松江区涞坊路599弄"},{"poiid":"B2094757D06FA1F84099","title":"城上城","lon":"121.46487666","lat":"31.249323921","category":"47","category_name":"住宅区","address":"上海闸北区虬江路1488弄"},{"poiid":"B209475CD564A7F8439E","title":"上海滩中信泰富店","lon":"121.45602","lat":"31.22851","category":"119","category_name":"商场","address":"\"南京西路1168号中信泰富广场，店铺号221.\r\n\""},{"poiid":"B2094757D06AA0FC4499","title":"南北高架","lon":"121.46357196","lat":"31.250989706","category":"500","category_name":"未知分类","address":"上海天目西路至中环"},{"poiid":"B2094757D068A2FD469B","title":"共和新路中兴路","lon":"121.463348","lat":"31.251093","category":"500","category_name":"未知分类","address":"上海共和新路中兴路"},{"poiid":"B2094757D06FAAFA419E","title":"汉中广场","lon":"121.465","lat":"31.2486","category":"500","category_name":"未知分类","address":"上海市四川北路1851号"},{"poiid":"B2094757D06FA4F5409E","title":"一天下大厦","lon":"121.464","lat":"31.2469","category":"46","category_name":"楼宇","address":"行宫位于沈河北站一路41号"},{"poiid":"B2094757D06FA4F9429C","title":"青年餐厅(火车站店)","lon":"121.46552","lat":"31.25192","category":"71","category_name":"四川菜","address":"闸北区中兴路1122号2楼(近共和新路)"},{"poiid":"B2094655D268A7FF489A","title":"中土大厦","lon":"121.463746","lat":"31.250478","category":"46","category_name":"楼宇","address":"上海市闸北区共和新路666号"},{"poiid":"B2094757D068AAFB429B","title":"豪享来上海天目店","lon":"121.4665","lat":"31.2451","category":"247","category_name":"餐饮美食","address":"上海市闸北区天目中路463号甲"},{"poiid":"B2094757D06AA0FB439C","title":"闸北区出入境管理局","lon":"121.462799","lat":"31.248908","category":"500","category_name":"未知分类","address":"上海天目中路578号"},{"poiid":"B2094757D168A5FB439F","title":"上海火车站6号候车室","lon":"121.463178","lat":"31.251041","category":"22","category_name":"火车站","address":"闸北区上海火车站"},{"poiid":"B2094654D56CA2F5469B","title":"中国移动(虬江路)","lon":"121.46797","lat":"31.25004","category":"138","category_name":"家电电子卖场","address":""},{"poiid":"B2094750DB6DABFE469A","title":"小天鹅火锅","lon":"121.464471","lat":"31.248126","category":"247","category_name":"餐饮美食","address":"黄浦区南京路2-88号新世界城4楼"},{"poiid":"B2094654D56CA2FA409E","title":"沙湾小镇茶餐厅","lon":"121.46447","lat":"31.24968","category":"72","category_name":"广东菜","address":"闸北区虬江路1504号城上城(近共和新路)"},{"poiid":"B2094654D56CA2FA4292","title":"长城苑","lon":"121.46644","lat":"31.248995","category":"47","category_name":"住宅区","address":"上海市闸北区共和新路409号"},{"poiid":"B2094757D064A3FB499C","title":"唯一天使婚纱","lon":"121.468716103","lat":"31.2512740222","category":"255","category_name":"专卖店","address":"上海中兴路605号"},{"poiid":"B2094757D06BA6FD489A","title":"金光大道大酒家(中兴路店)","lon":"121.46483","lat":"31.25215","category":"76","category_name":"上海菜","address":"闸北区中兴路1111号(近共和新路)"},{"poiid":"B2094757D069A1F5429B","title":"复元坊","lon":"121.46567","lat":"31.250195","category":"47","category_name":"住宅区","address":"上海虬江路1431弄"},{"poiid":"B2094757D069A6FF4093","title":"贵州苗家酸汤鱼馆 中兴路店","lon":"121.463040054","lat":"31.252511793","category":"83","category_name":"云贵菜","address":"闸北区中兴路1233号中兴财富广场内(近共和新路)"},{"poiid":"B2094654D56CA2FA439C","title":"长城苑商务楼","lon":"121.4667","lat":"31.24935","category":"46","category_name":"楼宇","address":"虬江路1376号"},{"poiid":"B2094655D264A7FF479D","title":"馨云阁私房菜","lon":"121.4648","lat":"31.24967","category":"74","category_name":"江苏菜","address":"闸北区虬江路1496号(近南北高架)"},{"poiid":"B2094654DB69AAF8499F","title":"湘土人家","lon":"121.464169054","lat":"31.250009793","category":"77","category_name":"湖南菜","address":"闸北区虬江路1500号(近共和新路)"},{"poiid":"B2094654D56CA2FA439E","title":"老先生餐馆","lon":"121.4666","lat":"31.24943","category":"257","category_name":"中餐厅","address":"闸北区虬江路1386号(近共和新路)"},{"poiid":"B2094655D265AAFB4698","title":"鸿昌兴苏州面馆","lon":"121.4641","lat":"31.24979","category":"68","category_name":"快餐厅","address":"闸北区虬江路1518号(近共和新路)"},{"poiid":"B2094654D56CA2FA419D","title":"诗婷SPA香薰水疗馆上海城上城店","lon":"121.46559","lat":"31.24949","category":"148","category_name":"美容美发店","address":"虬江路1440"},{"poiid":"B2094655D26CA1FC499F","title":"好德便利No.101","lon":"121.46513","lat":"31.24959","category":"117","category_name":"便民商店/便利店","address":"虬江路1458"},{"poiid":"B2094654D56CA2F94998","title":"京江商业街","lon":"121.46443","lat":"31.24856","category":"116","category_name":"特色商业街","address":""},{"poiid":"B2094757D06BABF8459F","title":"超谊小笼馆","lon":"121.46648904","lat":"31.250645737","category":"68","category_name":"快餐厅","address":"闸北区虬江路1450号(近永兴小马路)"},{"poiid":"B2094655D26EA5FD459B","title":"亚繁风尚商务酒店(上海中兴路店)","lon":"121.46503","lat":"31.25213","category":"250","category_name":"公园户外","address":"上海市闸北区中兴路1122号（近共和新路）"},{"poiid":"B2094654D56CA2F44199","title":"快客(虬江路)","lon":"121.46545","lat":"31.24988","category":"117","category_name":"便民商店/便利店","address":"虬江路1449号"},{"poiid":"B2094757D165A1F5429E","title":"宝逸堂","lon":"121.464888438","lat":"31.2475452692","category":"111","category_name":"休闲餐饮场所","address":"闸北区虬江路1520号(近共和新路)"},{"poiid":"B2094750D665A1FD439F","title":"鼎新小馆","lon":"121.466","lat":"31.2527","category":"76","category_name":"上海菜","address":"闸北区中兴路1055号(近共和新路)"},{"poiid":"B2094757DB68A3F9439C","title":"蛇摊","lon":"121.4683665801971","lat":"31.24743910043616","category":"247","category_name":"餐饮美食","address":"海宁路西藏北路"},{"poiid":"B2094654DB6AAAFF449A","title":"城上城(北门)","lon":"121.46494","lat":"31.24957","category":"47","category_name":"住宅区","address":"虬江路1488弄"},{"poiid":"B2094655D26FA7FB449E","title":"复元坊(南门)","lon":"121.46569","lat":"31.24989","category":"47","category_name":"住宅区","address":"虬江路1431弄"},{"poiid":"B2094655D265A6F9419E","title":"梵迪美容美发","lon":"121.46526","lat":"31.24956","category":"148","category_name":"美容美发店","address":"虬江路1452"},{"poiid":"B2094654D564AAFA449B","title":"汇贡大厦","lon":"121.465","lat":"31.2528","category":"46","category_name":"楼宇","address":"浦东区崂山东路410号"},{"poiid":"B2094654D56CA2FA4692","title":"闸北芷江西开业园区","lon":"121.46724","lat":"31.24904","category":"45","category_name":"产业园区","address":"徐家宅路143"},{"poiid":"B2094757D16DA2FD469D","title":"苏州沈源兴","lon":"121.46570473","lat":"31.247975678","category":"500","category_name":"未知分类","address":"上海黄浦区汉口路649号"},{"poiid":"B2094757D66DA2FA4092","title":"O  Hair Salon","lon":"121.463479103","lat":"31.2503690033","category":"500","category_name":"未知分类","address":"上海市闸北区虬江路1452号"},{"poiid":"B2094757D068A2F94393","title":"浦东新区税务局","lon":"121.4663406","lat":"31.249264749","category":"252","category_name":"楼宇机构","address":"上海浦东新区向城路80号(近福山路)"},{"poiid":"B2094750D66DA6FD4792","title":"和源中环企业广场","lon":"121.463673","lat":"31.250031","category":"46","category_name":"楼宇","address":"闸北区共和新路2993号"},{"poiid":"B2094654D56CA2F4479F","title":"界点桌球俱乐部","lon":"121.46422","lat":"31.2503","category":"171","category_name":"台球厅","address":"凯鹏大厦4层"},{"poiid":"B2094757D66DA5F9429D","title":"浦江镇体育中心","lon":"121.465805458","lat":"31.2495723567","category":"500","category_name":"未知分类","address":"上海江玮路江文路"},{"poiid":"B2094757D16EAAFE439B","title":"金峰大厦","lon":"121.465","lat":"31.2459","category":"46","category_name":"楼宇","address":"上海闸北区恒丰路31号"},{"poiid":"B2094654DA6FA2FD4493","title":"交通公园","lon":"121.46762","lat":"31.24767","category":"196","category_name":"公园","address":"闸北区新马路262号(近育婴堂路)"},{"poiid":"B2094654D56CA2FB4699","title":"晟泰都市工业园区","lon":"121.46705","lat":"31.25013","category":"45","category_name":"产业园区","address":"虬江路1379"},{"poiid":"B2094654D56CA2F5429B","title":"光华坊","lon":"121.46649","lat":"31.25143","category":"47","category_name":"住宅区","address":"上海市闸北区永兴路595弄"},{"poiid":"B2094757D06EAAFE4398","title":"上海歌城(中兴路店)","lon":"121.46375","lat":"31.25196","category":"170","category_name":"KTV","address":"闸北区中兴路1233号中兴财富广场1幢1-2号(近共和新路)"},{"poiid":"B2094757D06EAAFC489B","title":"嘉里不夜城","lon":"121.463","lat":"31.2514","category":"500","category_name":"未知分类","address":"上海市松江区涞坊路599弄"},{"poiid":"B2094757D06FA1F84099","title":"城上城","lon":"121.46487666","lat":"31.249323921","category":"47","category_name":"住宅区","address":"上海闸北区虬江路1488弄"},{"poiid":"B209475CD564A7F8439E","title":"上海滩中信泰富店","lon":"121.45602","lat":"31.22851","category":"119","category_name":"商场","address":"\"南京西路1168号中信泰富广场，店铺号221.\r\n\""},{"poiid":"B2094757D06AA0FC4499","title":"南北高架","lon":"121.46357196","lat":"31.250989706","category":"500","category_name":"未知分类","address":"上海天目西路至中环"},{"poiid":"B2094757D068A2FD469B","title":"共和新路中兴路","lon":"121.463348","lat":"31.251093","category":"500","category_name":"未知分类","address":"上海共和新路中兴路"},{"poiid":"B2094757D06FAAFA419E","title":"汉中广场","lon":"121.465","lat":"31.2486","category":"500","category_name":"未知分类","address":"上海市四川北路1851号"},{"poiid":"B2094757D06FA4F5409E","title":"一天下大厦","lon":"121.464","lat":"31.2469","category":"46","category_name":"楼宇","address":"行宫位于沈河北站一路41号"},{"poiid":"B2094757D06FA4F9429C","title":"青年餐厅(火车站店)","lon":"121.46552","lat":"31.25192","category":"71","category_name":"四川菜","address":"闸北区中兴路1122号2楼(近共和新路)"},{"poiid":"B2094655D268A7FF489A","title":"中土大厦","lon":"121.463746","lat":"31.250478","category":"46","category_name":"楼宇","address":"上海市闸北区共和新路666号"},{"poiid":"B2094757D068AAFB429B","title":"豪享来上海天目店","lon":"121.4665","lat":"31.2451","category":"247","category_name":"餐饮美食","address":"上海市闸北区天目中路463号甲"},{"poiid":"B2094757D06AA0FB439C","title":"闸北区出入境管理局","lon":"121.462799","lat":"31.248908","category":"500","category_name":"未知分类","address":"上海天目中路578号"},{"poiid":"B2094757D168A5FB439F","title":"上海火车站6号候车室","lon":"121.463178","lat":"31.251041","category":"22","category_name":"火车站","address":"闸北区上海火车站"},{"poiid":"B2094654D56CA2F5469B","title":"中国移动(虬江路)","lon":"121.46797","lat":"31.25004","category":"138","category_name":"家电电子卖场","address":""},{"poiid":"B2094750DB6DABFE469A","title":"小天鹅火锅","lon":"121.464471","lat":"31.248126","category":"247","category_name":"餐饮美食","address":"黄浦区南京路2-88号新世界城4楼"},{"poiid":"B2094654D56CA2FA409E","title":"沙湾小镇茶餐厅","lon":"121.46447","lat":"31.24968","category":"72","category_name":"广东菜","address":"闸北区虬江路1504号城上城(近共和新路)"},{"poiid":"B2094654D56CA2FA4292","title":"长城苑","lon":"121.46644","lat":"31.248995","category":"47","category_name":"住宅区","address":"上海市闸北区共和新路409号"},{"poiid":"B2094757D064A3FB499C","title":"唯一天使婚纱","lon":"121.468716103","lat":"31.2512740222","category":"255","category_name":"专卖店","address":"上海中兴路605号"},{"poiid":"B2094757D06BA6FD489A","title":"金光大道大酒家(中兴路店)","lon":"121.46483","lat":"31.25215","category":"76","category_name":"上海菜","address":"闸北区中兴路1111号(近共和新路)"},{"poiid":"B2094757D069A1F5429B","title":"复元坊","lon":"121.46567","lat":"31.250195","category":"47","category_name":"住宅区","address":"上海虬江路1431弄"},{"poiid":"B2094757D069A6FF4093","title":"贵州苗家酸汤鱼馆 中兴路店","lon":"121.463040054","lat":"31.252511793","category":"83","category_name":"云贵菜","address":"闸北区中兴路1233号中兴财富广场内(近共和新路)"},{"poiid":"B2094654D56CA2FA439C","title":"长城苑商务楼","lon":"121.4667","lat":"31.24935","category":"46","category_name":"楼宇","address":"虬江路1376号"},{"poiid":"B2094655D264A7FF479D","title":"馨云阁私房菜","lon":"121.4648","lat":"31.24967","category":"74","category_name":"江苏菜","address":"闸北区虬江路1496号(近南北高架)"},{"poiid":"B2094654DB69AAF8499F","title":"湘土人家","lon":"121.464169054","lat":"31.250009793","category":"77","category_name":"湖南菜","address":"闸北区虬江路1500号(近共和新路)"},{"poiid":"B2094654D56CA2FA439E","title":"老先生餐馆","lon":"121.4666","lat":"31.24943","category":"257","category_name":"中餐厅","address":"闸北区虬江路1386号(近共和新路)"},{"poiid":"B2094655D265AAFB4698","title":"鸿昌兴苏州面馆","lon":"121.4641","lat":"31.24979","category":"68","category_name":"快餐厅","address":"闸北区虬江路1518号(近共和新路)"},{"poiid":"B2094654D56CA2FA419D","title":"诗婷SPA香薰水疗馆上海城上城店","lon":"121.46559","lat":"31.24949","category":"148","category_name":"美容美发店","address":"虬江路1440"},{"poiid":"B2094655D26CA1FC499F","title":"好德便利No.101","lon":"121.46513","lat":"31.24959","category":"117","category_name":"便民商店/便利店","address":"虬江路1458"},{"poiid":"B2094654D56CA2F94998","title":"京江商业街","lon":"121.46443","lat":"31.24856","category":"116","category_name":"特色商业街","address":""},{"poiid":"B2094757D06BABF8459F","title":"超谊小笼馆","lon":"121.46648904","lat":"31.250645737","category":"68","category_name":"快餐厅","address":"闸北区虬江路1450号(近永兴小马路)"},{"poiid":"B2094655D26EA5FD459B","title":"亚繁风尚商务酒店(上海中兴路店)","lon":"121.46503","lat":"31.25213","category":"250","category_name":"公园户外","address":"上海市闸北区中兴路1122号（近共和新路）"},{"poiid":"B2094654D56CA2F44199","title":"快客(虬江路)","lon":"121.46545","lat":"31.24988","category":"117","category_name":"便民商店/便利店","address":"虬江路1449号"},{"poiid":"B2094757D165A1F5429E","title":"宝逸堂","lon":"121.464888438","lat":"31.2475452692","category":"111","category_name":"休闲餐饮场所","address":"闸北区虬江路1520号(近共和新路)"},{"poiid":"B2094750D665A1FD439F","title":"鼎新小馆","lon":"121.466","lat":"31.2527","category":"76","category_name":"上海菜","address":"闸北区中兴路1055号(近共和新路)"},{"poiid":"B2094757DB68A3F9439C","title":"蛇摊","lon":"121.4683665801971","lat":"31.24743910043616","category":"247","category_name":"餐饮美食","address":"海宁路西藏北路"},{"poiid":"B2094654DB6AAAFF449A","title":"城上城(北门)","lon":"121.46494","lat":"31.24957","category":"47","category_name":"住宅区","address":"虬江路1488弄"},{"poiid":"B2094655D26FA7FB449E","title":"复元坊(南门)","lon":"121.46569","lat":"31.24989","category":"47","category_name":"住宅区","address":"虬江路1431弄"},{"poiid":"B2094655D265A6F9419E","title":"梵迪美容美发","lon":"121.46526","lat":"31.24956","category":"148","category_name":"美容美发店","address":"虬江路1452"},{"poiid":"B2094654D564AAFA449B","title":"汇贡大厦","lon":"121.465","lat":"31.2528","category":"46","category_name":"楼宇","address":"浦东区崂山东路410号"},{"poiid":"B2094654D56CA2FA4692","title":"闸北芷江西开业园区","lon":"121.46724","lat":"31.24904","category":"45","category_name":"产业园区","address":"徐家宅路143"},{"poiid":"B2094757D16DA2FD469D","title":"苏州沈源兴","lon":"121.46570473","lat":"31.247975678","category":"500","category_name":"未知分类","address":"上海黄浦区汉口路649号"},{"poiid":"B2094757D66DA2FA4092","title":"O  Hair Salon","lon":"121.463479103","lat":"31.2503690033","category":"500","category_name":"未知分类","address":"上海市闸北区虬江路1452号"},{"poiid":"B2094757D068A2F94393","title":"浦东新区税务局","lon":"121.4663406","lat":"31.249264749","category":"252","category_name":"楼宇机构","address":"上海浦东新区向城路80号(近福山路)"},{"poiid":"B2094750D66DA6FD4792","title":"和源中环企业广场","lon":"121.463673","lat":"31.250031","category":"46","category_name":"楼宇","address":"闸北区共和新路2993号"},{"poiid":"B2094654D56CA2F4479F","title":"界点桌球俱乐部","lon":"121.46422","lat":"31.2503","category":"171","category_name":"台球厅","address":"凯鹏大厦4层"},{"poiid":"B2094757D66DA5F9429D","title":"浦江镇体育中心","lon":"121.465805458","lat":"31.2495723567","category":"500","category_name":"未知分类","address":"上海江玮路江文路"},{"poiid":"B2094757D16EAAFE439B","title":"金峰大厦","lon":"121.465","lat":"31.2459","category":"46","category_name":"楼宇","address":"上海闸北区恒丰路31号"},{"poiid":"B2094654DA6FA2FD4493","title":"交通公园","lon":"121.46762","lat":"31.24767","category":"196","category_name":"公园","address":"闸北区新马路262号(近育婴堂路)"},{"poiid":"B2094654D56CA2FB4699","title":"晟泰都市工业园区","lon":"121.46705","lat":"31.25013","category":"45","category_name":"产业园区","address":"虬江路1379"},{"poiid":"B2094654D56CA2F5429B","title":"光华坊","lon":"121.46649","lat":"31.25143","category":"47","category_name":"住宅区","address":"上海市闸北区永兴路595弄"}]