[{"poiid":"B2094757D06BA2FF499F","title":"辰山植物园大草坪","lon":"121.180050196","lat":"31.0788457038","category":"197","category_name":"动物园","address":"上海市松江区辰塔路"},{"poiid":"B2094757D16CABF54193","title":"辰山植物园月季园","lon":"121.181565196","lat":"31.072828575","category":"500","category_name":"未知分类","address":"上海辰山植物园"},{"poiid":"B2094757D16AABFC4798","title":"辰山山庄","lon":"121.168518196","lat":"31.0699665137","category":"500","category_name":"未知分类","address":"上海市松江区陈家公路508号"},{"poiid":"B2094757D069A6FA429C","title":"天马山","lon":"121.1568","lat":"31.07369","category":"260","category_name":"其他","address":"天马山位于佘山国家旅游度假区西南面约5公里处。"},{"poiid":"B2094655D26BA2F9409D","title":"天马公墓","lon":"121.15457","lat":"31.0821","category":"620","category_name":"丧葬","address":""},{"poiid":"B2094750D56EA3FF4498","title":"辰山植物园秋季活动－辰山秋韵（签到惊喜）","lon":"121.181173","lat":"31.072418","category":"250","category_name":"公园户外","address":"松江区辰花公路3888号"},{"poiid":"B2094654DB6DA4FF469F","title":"天马山(天鸡路)","lon":"121.14822","lat":"31.07453","category":"196","category_name":"公园","address":"天马山镇"},{"poiid":"B2094654DA6BA4F4429F","title":"天马塔园","lon":"121.1546","lat":"31.08231","category":"47","category_name":"住宅区","address":"上海市松江区沈砖公路"},{"poiid":"B2094757D16BA5FC4298","title":"复旦大学附属中山医院(天马山分院)","lon":"121.15633","lat":"31.07521","category":"162","category_name":"医院","address":"松江区佘山镇新宅二路55号"},{"poiid":"B2094655D26FA1FE469C","title":"佘山国家旅游度假区(沈砖公路)","lon":"121.17105","lat":"31.0845","category":"240","category_name":"国家级景点","address":""},{"poiid":"B2094654DB6DA4F8409E","title":"中山医院天马山分部","lon":"121.15604","lat":"31.07561","category":"162","category_name":"医院","address":"刘家山村456"},{"poiid":"B2094757D16AAAFB4999","title":"维纳斯小镇","lon":"121.155479246","lat":"31.0708045316","category":"500","category_name":"未知分类","address":"上海松江区佘山东街一号"},{"poiid":"B2094655D26BA2F9409E","title":"天马镇","lon":"121.14818","lat":"31.06948","category":"38","category_name":"公交车站","address":""},{"poiid":"B2094655D36DA2FF429A","title":"辰山河桥","lon":"121.17469","lat":"31.07859","category":"250","category_name":"公园户外","address":""},{"poiid":"B2094752D56CABFB4292","title":"纳米魔幻城","lon":"121.169379","lat":"31.06904","category":"47","category_name":"住宅区","address":"佘山国家旅游度假区辰花路5088号"},{"poiid":"B2094655D36CA5F84298","title":"辰花公路辰塔路","lon":"121.1759","lat":"31.06879","category":"38","category_name":"公交车站","address":""},{"poiid":"B2094654DB6DA4FF4699","title":"护珠塔","lon":"121.14858","lat":"31.07473","category":"250","category_name":"公园户外","address":"松江区莱乐东路78号"},{"poiid":"B2094752D568A0FC449A","title":"上海辰山植物园","lon":"121.177192","lat":"31.074245","category":"250","category_name":"公园户外","address":null},{"poiid":"B2094654DB6DA4F8419C","title":"天马商场","lon":"121.14878","lat":"31.07232","category":"119","category_name":"商场","address":""},{"poiid":"B2094757D06AA3FD4798","title":"大厨家常菜馆(江秋店)","lon":"121.1733669","lat":"31.0947934","category":"247","category_name":"餐饮美食","address":"上海佘山镇千新公路860号(佘北公路将军大桥旁)"},{"poiid":"B2094753D569A0FB479B","title":"上海欢乐谷","lon":"121.17015","lat":"31.093461","category":"500","category_name":"未知分类","address":"上海市 林湖路"},{"poiid":"B2094654DB6DA4FF479D","title":"云峰小区","lon":"121.1466","lat":"31.07102","category":"47","category_name":"住宅区","address":"天马山镇"},{"poiid":"B2094750DA68ABF54892","title":"佘山家园","lon":"121.171302","lat":"31.09686","category":"47","category_name":"住宅区","address":"千新公路585弄"},{"poiid":"B2094757D66CABFA439F","title":"佘山汽车站","lon":"121.174742996","lat":"31.0941167308","category":"35","category_name":"长途汽车站","address":"上海佘山"},{"poiid":"B2094654DA6BA4F8449A","title":"上海江秋度假村","lon":"121.16706","lat":"31.09528","category":"207","category_name":"度假疗养场所","address":"松江区佘山镇江秋村九江公路"},{"poiid":"B2094757D568A7FD459F","title":"佘山度假饭店","lon":"121.18166558","lat":"31.08534966","category":"251","category_name":"出行住宿","address":"佘山国家度假区"}]