[{"poiid":"B2094757D16BA2F44498","title":"共富新村地铁站","lon":"121.434068","lat":"31.355398","category":"36","category_name":"地铁站","address":"上海轨道交通 一号线 轨交共富新村站"},{"poiid":"B2094757D06FA2FB4699","title":"天馨花园","lon":"121.42878","lat":"31.362499","category":"47","category_name":"住宅区","address":"上海宝山区蕴川路1498弄(水产西路)"},{"poiid":"B2094757D06FA3F94493","title":"宝安公路地铁站","lon":"121.431154","lat":"31.369615773","category":"36","category_name":"地铁站","address":"上海轨道交通 一号线 轨交宝安公路站 1"},{"poiid":"B2094757D06FA0FF459C","title":"泰和新城","lon":"121.412","lat":"31.3549","category":"47","category_name":"住宅区","address":"上海泰和新城3381弄"},{"poiid":"B2094757D06FA0F4449E","title":"共富一村","lon":"121.43013","lat":"31.352312","category":"47","category_name":"住宅区","address":"上海宝山区共富路"},{"poiid":"B2094757D068A1F44099","title":"高老庄","lon":"121.426433079","lat":"31.359378721","category":"75","category_name":"浙江菜","address":"宝山区水产西路308号(近蕰川路)"},{"poiid":"B2094757D068A2F8409B","title":"宝山殡仪馆","lon":"121.42613","lat":"31.37145","category":"620","category_name":"丧葬","address":"宝山区宝安公路111号"},{"poiid":"B2094757D068AAFD429A","title":"宝山太平禅寺","lon":"121.410213","lat":"31.355918","category":"246","category_name":"回教寺","address":"上海宝山区顾村镇富联路(近泰和西路)"},{"poiid":"B2094757D06FA6FA459F","title":"卜蜂莲花(蕰川路店)","lon":"121.43348","lat":"31.36588","category":"118","category_name":"超级市场","address":"宝山区薀川路1557号(近一号线宝安公路站)"},{"poiid":"B2094655D36CA5FC449F","title":"大黄馨园","lon":"121.4224","lat":"31.35862","category":"38","category_name":"公交车站","address":"水产西路489弄"},{"poiid":"B2094757D069A3F84499","title":"共富二村","lon":"121.43156","lat":"31.349676","category":"47","category_name":"住宅区","address":"共富路156弄"},{"poiid":"B2094654D469AAFA4093","title":"北上海商业广场","lon":"121.43274","lat":"31.36505","category":"119","category_name":"商场","address":"宝山蕴川路1553号"},{"poiid":"B2094757D569A2FC499A","title":"绿地公元1860","lon":"121.426551","lat":"31.361697","category":"47","category_name":"住宅区","address":"上海市宝山区富长路水产西路口"},{"poiid":"B2094757D069A1F4429D","title":"旭辉依云湾","lon":"121.41096434243","lat":"31.362431789432","category":"47","category_name":"住宅区","address":"宝山区沪太路顾北路666号(近沪太路)"},{"poiid":"B2094654D46AA0F4429D","title":"龙景轩 水产店","lon":"121.43155844196","lat":"31.36020603782","category":"76","category_name":"上海菜","address":"宝山区水产西路189号(近蕴川路)"},{"poiid":"B2094654D46AA3FB4893","title":"共富四村","lon":"121.426","lat":"31.350039","category":"47","category_name":"住宅区","address":"上海市宝山区共富四村6号等"},{"poiid":"B2094757D069A5FC4592","title":"顾村大家园C区","lon":"121.41204192","lat":"31.360784179","category":"500","category_name":"未知分类","address":"上海顾北东路155弄"},{"poiid":"B2094757D069A7F9479C","title":"成亿宝盛","lon":"121.414759","lat":"31.354816","category":"500","category_name":"未知分类","address":"上海水产西路859弄"},{"poiid":"B2094757D06AA7FA4292","title":"顾村大家园A区","lon":"121.407711679","lat":"31.3588722439","category":"500","category_name":"未知分类","address":"上海市宝山区顾北东路501弄"},{"poiid":"B2094655D36CA1FE4798","title":"水产西路富联路","lon":"121.41202","lat":"31.35561","category":"38","category_name":"公交车站","address":""},{"poiid":"B2094757D665A2F44493","title":"兄弟私房菜 水产西路店","lon":"121.4173575","lat":"31.3563621","category":"76","category_name":"上海菜","address":"宝山区水产西路730号(近富长路)"},{"poiid":"B2094654D46AA3F44493","title":"富弘苑","lon":"121.4239","lat":"31.347776","category":"47","category_name":"住宅区","address":"宝山共富路518弄"},{"poiid":"B2094757D068A7F84899","title":"柏丽华庭","lon":"121.43332","lat":"31.368744","category":"47","category_name":"住宅区","address":"上海市宝山区蕴川路1623弄(近龙飞路)"},{"poiid":"B2094757D06FAAFE4199","title":"肯德基 KFC (蕴川店)","lon":"121.432546","lat":"31.36659","category":"68","category_name":"快餐厅","address":"宝山区蕴川路1555号北上海商业广场1楼(近一号线宝安公路站)"},{"poiid":"B2094753DB69A0FC489B","title":"宝山万达","lon":"121.421722","lat":"31.360757","category":"500","category_name":"未知分类","address":"上海市 宝山万达"},{"poiid":"B2094655D36CA1FC469C","title":"盛宅新村","lon":"121.417","lat":"31.3596","category":"47","category_name":"住宅区","address":"上海市宝山区富联路128弄"},{"poiid":"B2094757D06AA7F8449B","title":"fish's home","lon":"121.42134667","lat":"31.359664258","category":"500","category_name":"未知分类","address":null},{"poiid":"B2094655D264A7F9499A","title":"丽景花园","lon":"121.41569","lat":"31.356567","category":"47","category_name":"住宅区","address":"上海市宝山区水产西路777弄"},{"poiid":"B2094757D66EA3FF409F","title":"波波^_^家","lon":"121.42133967","lat":"31.359465255","category":"500","category_name":"未知分类","address":null},{"poiid":"B2094655D36CA1FE479B","title":"水产西路富长路","lon":"121.41978","lat":"31.35673","category":"38","category_name":"公交车站","address":""},{"poiid":"B2094751D465A1F9449D","title":"金马豪生海鲜城","lon":"121.420341","lat":"31.357812","category":"260","category_name":"其他","address":"宝山区水产西路519号(近富长路)"},{"poiid":"B2094654D469AAFA409B","title":"上海市天馨学校","lon":"121.42633","lat":"31.36053","category":"55","category_name":"中学","address":"宝山区水产西路289"},{"poiid":"B2094757D568A4F8469D","title":"新顾村大家园C块商品住宅","lon":"121.420209","lat":"31.365081","category":"47","category_name":"住宅区","address":"上海市宝山区顾北东路155弄"},{"poiid":"B2094757D164ABFE4898","title":"上海逸隆宝鸿汽车销售服务有限公司","lon":"121.42460867","lat":"31.358758241","category":"500","category_name":"未知分类","address":"宝山区宝安公路839号"},{"poiid":"B2094757D16BA2F84793","title":"园香缘","lon":"121.4198","lat":"31.35709","category":"71","category_name":"四川菜","address":"宝山区水产西路(近富长路)"},{"poiid":"B2094655D26FA6F5489D","title":"合鑫大酒店","lon":"121.41294","lat":"31.3549","category":"71","category_name":"四川菜","address":"宝山区水产西路939号(近富联路)"},{"poiid":"B2094757D769A7F9419D","title":"苹果花园 水产西路店","lon":"121.414129","lat":"31.35517","category":"47","category_name":"住宅区","address":"宝山区水产西路900号(近富联路)"},{"poiid":"B2094654D46AA3FD4198","title":"新顾村大家园","lon":"121.419957","lat":"31.36572","category":"47","category_name":"住宅区","address":"顾北路155弄"},{"poiid":"B2094757D069A2FA4592","title":"天极盛宅花园","lon":"121.41443","lat":"31.352009","category":"47","category_name":"住宅区","address":"天极盛宅花园位于宝山上海宝山泰和西路3419弄"},{"poiid":"B2094757DB6EAAFF4792","title":"小杨生煎","lon":"121.428296","lat":"31.368478","category":"247","category_name":"餐饮美食","address":"宝山区薀川路1557号卜蜂莲花1楼美食区(近杨鑫路)"},{"poiid":"B2094757D569A0FA419E","title":"天馨花园十期商业","lon":"121.4276669","lat":"31.360325","category":"47","category_name":"住宅区","address":"蕴川路1498弄"},{"poiid":"B2094753D26FA0FE499F","title":"段式龙虾","lon":"121.427264","lat":"31.360099","category":"247","category_name":"餐饮美食","address":"上海市 水产西路店"},{"poiid":"B2094757D068A5FE469E","title":"世纪联华(顾村店)","lon":"121.41346","lat":"31.35497","category":"118","category_name":"超级市场","address":"宝山区水产西路1028号(近富联路)"},{"poiid":"B2094654D46AA3FC419F","title":"小山沟湘菜馆","lon":"121.42991","lat":"31.36122","category":"77","category_name":"湖南菜","address":"宝山区水产西路151号(近蕴川路卜蜂莲花)"},{"poiid":"B2094757D569A1F5479D","title":"天馨花园六期","lon":"121.4291908","lat":"31.36181778","category":"47","category_name":"住宅区","address":"上海市宝山区蕴川路1498弄"},{"poiid":"B2094757D064A3F4439B","title":"三品坊","lon":"121.41077567","lat":"31.356282195","category":"76","category_name":"上海菜","address":"宝山区宝山区水产西路1057-1063号(近富联路)"},{"poiid":"B2094757D569A3FF4792","title":"天馨花园七期","lon":"121.4293439","lat":"31.36143778","category":"47","category_name":"住宅区","address":"上海市宝山区蕴川路1498号"},{"poiid":"B2094757D164A2FC439C","title":"Home Pa","lon":"121.415727679","lat":"31.360946283","category":"500","category_name":"未知分类","address":null},{"poiid":"B2094757D069A6FD469E","title":"顾村大家园B区","lon":"121.407729","lat":"31.358065","category":"500","category_name":"未知分类","address":"上海宝山区顾村大家园B区"},{"poiid":"B2094654D46AA2F94298","title":"富华苑","lon":"121.42565","lat":"31.35155","category":"47","category_name":"住宅区","address":"富华苑(二期)位于宝山共富路349号"},{"poiid":"B2094757D16BA2F44498","title":"共富新村地铁站","lon":"121.434068","lat":"31.355398","category":"36","category_name":"地铁站","address":"上海轨道交通 一号线 轨交共富新村站"},{"poiid":"B2094757D06FA2FB4699","title":"天馨花园","lon":"121.42878","lat":"31.362499","category":"47","category_name":"住宅区","address":"上海宝山区蕴川路1498弄(水产西路)"},{"poiid":"B2094757D06FA3F94493","title":"宝安公路地铁站","lon":"121.431154","lat":"31.369615773","category":"36","category_name":"地铁站","address":"上海轨道交通 一号线 轨交宝安公路站 1"},{"poiid":"B2094757D06FA0FF459C","title":"泰和新城","lon":"121.412","lat":"31.3549","category":"47","category_name":"住宅区","address":"上海泰和新城3381弄"},{"poiid":"B2094757D06FA0F4449E","title":"共富一村","lon":"121.43013","lat":"31.352312","category":"47","category_name":"住宅区","address":"上海宝山区共富路"},{"poiid":"B2094757D068A1F44099","title":"高老庄","lon":"121.426433079","lat":"31.359378721","category":"75","category_name":"浙江菜","address":"宝山区水产西路308号(近蕰川路)"},{"poiid":"B2094757D068A2F8409B","title":"宝山殡仪馆","lon":"121.42613","lat":"31.37145","category":"620","category_name":"丧葬","address":"宝山区宝安公路111号"},{"poiid":"B2094757D068AAFD429A","title":"宝山太平禅寺","lon":"121.410213","lat":"31.355918","category":"246","category_name":"回教寺","address":"上海宝山区顾村镇富联路(近泰和西路)"},{"poiid":"B2094757D06FA6FA459F","title":"卜蜂莲花(蕰川路店)","lon":"121.43348","lat":"31.36588","category":"118","category_name":"超级市场","address":"宝山区薀川路1557号(近一号线宝安公路站)"},{"poiid":"B2094655D36CA5FC449F","title":"大黄馨园","lon":"121.4224","lat":"31.35862","category":"38","category_name":"公交车站","address":"水产西路489弄"},{"poiid":"B2094757D069A3F84499","title":"共富二村","lon":"121.43156","lat":"31.349676","category":"47","category_name":"住宅区","address":"共富路156弄"},{"poiid":"B2094654D469AAFA4093","title":"北上海商业广场","lon":"121.43274","lat":"31.36505","category":"119","category_name":"商场","address":"宝山蕴川路1553号"},{"poiid":"B2094757D569A2FC499A","title":"绿地公元1860","lon":"121.426551","lat":"31.361697","category":"47","category_name":"住宅区","address":"上海市宝山区富长路水产西路口"},{"poiid":"B2094757D069A1F4429D","title":"旭辉依云湾","lon":"121.41096434243","lat":"31.362431789432","category":"47","category_name":"住宅区","address":"宝山区沪太路顾北路666号(近沪太路)"},{"poiid":"B2094654D46AA0F4429D","title":"龙景轩 水产店","lon":"121.43155844196","lat":"31.36020603782","category":"76","category_name":"上海菜","address":"宝山区水产西路189号(近蕴川路)"},{"poiid":"B2094654D46AA3FB4893","title":"共富四村","lon":"121.426","lat":"31.350039","category":"47","category_name":"住宅区","address":"上海市宝山区共富四村6号等"},{"poiid":"B2094757D069A5FC4592","title":"顾村大家园C区","lon":"121.41204192","lat":"31.360784179","category":"500","category_name":"未知分类","address":"上海顾北东路155弄"},{"poiid":"B2094757D069A7F9479C","title":"成亿宝盛","lon":"121.414759","lat":"31.354816","category":"500","category_name":"未知分类","address":"上海水产西路859弄"},{"poiid":"B2094757D06AA7FA4292","title":"顾村大家园A区","lon":"121.407711679","lat":"31.3588722439","category":"500","category_name":"未知分类","address":"上海市宝山区顾北东路501弄"},{"poiid":"B2094655D36CA1FE4798","title":"水产西路富联路","lon":"121.41202","lat":"31.35561","category":"38","category_name":"公交车站","address":""},{"poiid":"B2094757D665A2F44493","title":"兄弟私房菜 水产西路店","lon":"121.4173575","lat":"31.3563621","category":"76","category_name":"上海菜","address":"宝山区水产西路730号(近富长路)"},{"poiid":"B2094654D46AA3F44493","title":"富弘苑","lon":"121.4239","lat":"31.347776","category":"47","category_name":"住宅区","address":"宝山共富路518弄"},{"poiid":"B2094757D068A7F84899","title":"柏丽华庭","lon":"121.43332","lat":"31.368744","category":"47","category_name":"住宅区","address":"上海市宝山区蕴川路1623弄(近龙飞路)"},{"poiid":"B2094757D06FAAFE4199","title":"肯德基 KFC (蕴川店)","lon":"121.432546","lat":"31.36659","category":"68","category_name":"快餐厅","address":"宝山区蕴川路1555号北上海商业广场1楼(近一号线宝安公路站)"},{"poiid":"B2094753DB69A0FC489B","title":"宝山万达","lon":"121.421722","lat":"31.360757","category":"500","category_name":"未知分类","address":"上海市 宝山万达"},{"poiid":"B2094655D36CA1FC469C","title":"盛宅新村","lon":"121.417","lat":"31.3596","category":"47","category_name":"住宅区","address":"上海市宝山区富联路128弄"},{"poiid":"B2094757D06AA7F8449B","title":"fish's home","lon":"121.42134667","lat":"31.359664258","category":"500","category_name":"未知分类","address":null},{"poiid":"B2094655D264A7F9499A","title":"丽景花园","lon":"121.41569","lat":"31.356567","category":"47","category_name":"住宅区","address":"上海市宝山区水产西路777弄"},{"poiid":"B2094757D66EA3FF409F","title":"波波^_^家","lon":"121.42133967","lat":"31.359465255","category":"500","category_name":"未知分类","address":null},{"poiid":"B2094655D36CA1FE479B","title":"水产西路富长路","lon":"121.41978","lat":"31.35673","category":"38","category_name":"公交车站","address":""},{"poiid":"B2094751D465A1F9449D","title":"金马豪生海鲜城","lon":"121.420341","lat":"31.357812","category":"260","category_name":"其他","address":"宝山区水产西路519号(近富长路)"},{"poiid":"B2094654D469AAFA409B","title":"上海市天馨学校","lon":"121.42633","lat":"31.36053","category":"55","category_name":"中学","address":"宝山区水产西路289"},{"poiid":"B2094757D568A4F8469D","title":"新顾村大家园C块商品住宅","lon":"121.420209","lat":"31.365081","category":"47","category_name":"住宅区","address":"上海市宝山区顾北东路155弄"},{"poiid":"B2094757D164ABFE4898","title":"上海逸隆宝鸿汽车销售服务有限公司","lon":"121.42460867","lat":"31.358758241","category":"500","category_name":"未知分类","address":"宝山区宝安公路839号"},{"poiid":"B2094757D16BA2F84793","title":"园香缘","lon":"121.4198","lat":"31.35709","category":"71","category_name":"四川菜","address":"宝山区水产西路(近富长路)"},{"poiid":"B2094655D26FA6F5489D","title":"合鑫大酒店","lon":"121.41294","lat":"31.3549","category":"71","category_name":"四川菜","address":"宝山区水产西路939号(近富联路)"},{"poiid":"B2094757D769A7F9419D","title":"苹果花园 水产西路店","lon":"121.414129","lat":"31.35517","category":"47","category_name":"住宅区","address":"宝山区水产西路900号(近富联路)"},{"poiid":"B2094654D46AA3FD4198","title":"新顾村大家园","lon":"121.419957","lat":"31.36572","category":"47","category_name":"住宅区","address":"顾北路155弄"},{"poiid":"B2094757D069A2FA4592","title":"天极盛宅花园","lon":"121.41443","lat":"31.352009","category":"47","category_name":"住宅区","address":"天极盛宅花园位于宝山上海宝山泰和西路3419弄"},{"poiid":"B2094757DB6EAAFF4792","title":"小杨生煎","lon":"121.428296","lat":"31.368478","category":"247","category_name":"餐饮美食","address":"宝山区薀川路1557号卜蜂莲花1楼美食区(近杨鑫路)"},{"poiid":"B2094757D569A0FA419E","title":"天馨花园十期商业","lon":"121.4276669","lat":"31.360325","category":"47","category_name":"住宅区","address":"蕴川路1498弄"},{"poiid":"B2094753D26FA0FE499F","title":"段式龙虾","lon":"121.427264","lat":"31.360099","category":"247","category_name":"餐饮美食","address":"上海市 水产西路店"},{"poiid":"B2094757D068A5FE469E","title":"世纪联华(顾村店)","lon":"121.41346","lat":"31.35497","category":"118","category_name":"超级市场","address":"宝山区水产西路1028号(近富联路)"},{"poiid":"B2094654D46AA3FC419F","title":"小山沟湘菜馆","lon":"121.42991","lat":"31.36122","category":"77","category_name":"湖南菜","address":"宝山区水产西路151号(近蕴川路卜蜂莲花)"},{"poiid":"B2094757D569A1F5479D","title":"天馨花园六期","lon":"121.4291908","lat":"31.36181778","category":"47","category_name":"住宅区","address":"上海市宝山区蕴川路1498弄"},{"poiid":"B2094757D064A3F4439B","title":"三品坊","lon":"121.41077567","lat":"31.356282195","category":"76","category_name":"上海菜","address":"宝山区宝山区水产西路1057-1063号(近富联路)"},{"poiid":"B2094757D569A3FF4792","title":"天馨花园七期","lon":"121.4293439","lat":"31.36143778","category":"47","category_name":"住宅区","address":"上海市宝山区蕴川路1498号"},{"poiid":"B2094757D164A2FC439C","title":"Home Pa","lon":"121.415727679","lat":"31.360946283","category":"500","category_name":"未知分类","address":null},{"poiid":"B2094757D069A6FD469E","title":"顾村大家园B区","lon":"121.407729","lat":"31.358065","category":"500","category_name":"未知分类","address":"上海宝山区顾村大家园B区"},{"poiid":"B2094654D46AA2F94298","title":"富华苑","lon":"121.42565","lat":"31.35155","category":"47","category_name":"住宅区","address":"富华苑(二期)位于宝山共富路349号"},{"poiid":"B2094757D16BA2F44498","title":"共富新村地铁站","lon":"121.434068","lat":"31.355398","category":"36","category_name":"地铁站","address":"上海轨道交通 一号线 轨交共富新村站"},{"poiid":"B2094757D06FA2FB4699","title":"天馨花园","lon":"121.42878","lat":"31.362499","category":"47","category_name":"住宅区","address":"上海宝山区蕴川路1498弄(水产西路)"},{"poiid":"B2094757D06FA3F94493","title":"宝安公路地铁站","lon":"121.431154","lat":"31.369615773","category":"36","category_name":"地铁站","address":"上海轨道交通 一号线 轨交宝安公路站 1"},{"poiid":"B2094757D06FA0FF459C","title":"泰和新城","lon":"121.412","lat":"31.3549","category":"47","category_name":"住宅区","address":"上海泰和新城3381弄"},{"poiid":"B2094757D06FA0F4449E","title":"共富一村","lon":"121.43013","lat":"31.352312","category":"47","category_name":"住宅区","address":"上海宝山区共富路"},{"poiid":"B2094757D068A1F44099","title":"高老庄","lon":"121.426433079","lat":"31.359378721","category":"75","category_name":"浙江菜","address":"宝山区水产西路308号(近蕰川路)"},{"poiid":"B2094757D068A2F8409B","title":"宝山殡仪馆","lon":"121.42613","lat":"31.37145","category":"620","category_name":"丧葬","address":"宝山区宝安公路111号"},{"poiid":"B2094757D068AAFD429A","title":"宝山太平禅寺","lon":"121.410213","lat":"31.355918","category":"246","category_name":"回教寺","address":"上海宝山区顾村镇富联路(近泰和西路)"},{"poiid":"B2094757D06FA6FA459F","title":"卜蜂莲花(蕰川路店)","lon":"121.43348","lat":"31.36588","category":"118","category_name":"超级市场","address":"宝山区薀川路1557号(近一号线宝安公路站)"},{"poiid":"B2094655D36CA5FC449F","title":"大黄馨园","lon":"121.4224","lat":"31.35862","category":"38","category_name":"公交车站","address":"水产西路489弄"},{"poiid":"B2094757D069A3F84499","title":"共富二村","lon":"121.43156","lat":"31.349676","category":"47","category_name":"住宅区","address":"共富路156弄"},{"poiid":"B2094654D469AAFA4093","title":"北上海商业广场","lon":"121.43274","lat":"31.36505","category":"119","category_name":"商场","address":"宝山蕴川路1553号"},{"poiid":"B2094757D569A2FC499A","title":"绿地公元1860","lon":"121.426551","lat":"31.361697","category":"47","category_name":"住宅区","address":"上海市宝山区富长路水产西路口"},{"poiid":"B2094757D069A1F4429D","title":"旭辉依云湾","lon":"121.41096434243","lat":"31.362431789432","category":"47","category_name":"住宅区","address":"宝山区沪太路顾北路666号(近沪太路)"},{"poiid":"B2094654D46AA0F4429D","title":"龙景轩 水产店","lon":"121.43155844196","lat":"31.36020603782","category":"76","category_name":"上海菜","address":"宝山区水产西路189号(近蕴川路)"},{"poiid":"B2094654D46AA3FB4893","title":"共富四村","lon":"121.426","lat":"31.350039","category":"47","category_name":"住宅区","address":"上海市宝山区共富四村6号等"},{"poiid":"B2094757D069A5FC4592","title":"顾村大家园C区","lon":"121.41204192","lat":"31.360784179","category":"500","category_name":"未知分类","address":"上海顾北东路155弄"},{"poiid":"B2094757D069A7F9479C","title":"成亿宝盛","lon":"121.414759","lat":"31.354816","category":"500","category_name":"未知分类","address":"上海水产西路859弄"},{"poiid":"B2094757D06AA7FA4292","title":"顾村大家园A区","lon":"121.407711679","lat":"31.3588722439","category":"500","category_name":"未知分类","address":"上海市宝山区顾北东路501弄"},{"poiid":"B2094655D36CA1FE4798","title":"水产西路富联路","lon":"121.41202","lat":"31.35561","category":"38","category_name":"公交车站","address":""},{"poiid":"B2094757D665A2F44493","title":"兄弟私房菜 水产西路店","lon":"121.4173575","lat":"31.3563621","category":"76","category_name":"上海菜","address":"宝山区水产西路730号(近富长路)"},{"poiid":"B2094654D46AA3F44493","title":"富弘苑","lon":"121.4239","lat":"31.347776","category":"47","category_name":"住宅区","address":"宝山共富路518弄"},{"poiid":"B2094757D068A7F84899","title":"柏丽华庭","lon":"121.43332","lat":"31.368744","category":"47","category_name":"住宅区","address":"上海市宝山区蕴川路1623弄(近龙飞路)"},{"poiid":"B2094757D06FAAFE4199","title":"肯德基 KFC (蕴川店)","lon":"121.432546","lat":"31.36659","category":"68","category_name":"快餐厅","address":"宝山区蕴川路1555号北上海商业广场1楼(近一号线宝安公路站)"},{"poiid":"B2094753DB69A0FC489B","title":"宝山万达","lon":"121.421722","lat":"31.360757","category":"500","category_name":"未知分类","address":"上海市 宝山万达"},{"poiid":"B2094655D36CA1FC469C","title":"盛宅新村","lon":"121.417","lat":"31.3596","category":"47","category_name":"住宅区","address":"上海市宝山区富联路128弄"},{"poiid":"B2094757D06AA7F8449B","title":"fish's home","lon":"121.42134667","lat":"31.359664258","category":"500","category_name":"未知分类","address":null},{"poiid":"B2094655D264A7F9499A","title":"丽景花园","lon":"121.41569","lat":"31.356567","category":"47","category_name":"住宅区","address":"上海市宝山区水产西路777弄"},{"poiid":"B2094757D66EA3FF409F","title":"波波^_^家","lon":"121.42133967","lat":"31.359465255","category":"500","category_name":"未知分类","address":null},{"poiid":"B2094655D36CA1FE479B","title":"水产西路富长路","lon":"121.41978","lat":"31.35673","category":"38","category_name":"公交车站","address":""},{"poiid":"B2094751D465A1F9449D","title":"金马豪生海鲜城","lon":"121.420341","lat":"31.357812","category":"260","category_name":"其他","address":"宝山区水产西路519号(近富长路)"},{"poiid":"B2094654D469AAFA409B","title":"上海市天馨学校","lon":"121.42633","lat":"31.36053","category":"55","category_name":"中学","address":"宝山区水产西路289"},{"poiid":"B2094757D568A4F8469D","title":"新顾村大家园C块商品住宅","lon":"121.420209","lat":"31.365081","category":"47","category_name":"住宅区","address":"上海市宝山区顾北东路155弄"},{"poiid":"B2094757D164ABFE4898","title":"上海逸隆宝鸿汽车销售服务有限公司","lon":"121.42460867","lat":"31.358758241","category":"500","category_name":"未知分类","address":"宝山区宝安公路839号"},{"poiid":"B2094757D16BA2F84793","title":"园香缘","lon":"121.4198","lat":"31.35709","category":"71","category_name":"四川菜","address":"宝山区水产西路(近富长路)"},{"poiid":"B2094655D26FA6F5489D","title":"合鑫大酒店","lon":"121.41294","lat":"31.3549","category":"71","category_name":"四川菜","address":"宝山区水产西路939号(近富联路)"},{"poiid":"B2094757D769A7F9419D","title":"苹果花园 水产西路店","lon":"121.414129","lat":"31.35517","category":"47","category_name":"住宅区","address":"宝山区水产西路900号(近富联路)"},{"poiid":"B2094654D46AA3FD4198","title":"新顾村大家园","lon":"121.419957","lat":"31.36572","category":"47","category_name":"住宅区","address":"顾北路155弄"},{"poiid":"B2094757D069A2FA4592","title":"天极盛宅花园","lon":"121.41443","lat":"31.352009","category":"47","category_name":"住宅区","address":"天极盛宅花园位于宝山上海宝山泰和西路3419弄"},{"poiid":"B2094757DB6EAAFF4792","title":"小杨生煎","lon":"121.428296","lat":"31.368478","category":"247","category_name":"餐饮美食","address":"宝山区薀川路1557号卜蜂莲花1楼美食区(近杨鑫路)"},{"poiid":"B2094757D569A0FA419E","title":"天馨花园十期商业","lon":"121.4276669","lat":"31.360325","category":"47","category_name":"住宅区","address":"蕴川路1498弄"},{"poiid":"B2094753D26FA0FE499F","title":"段式龙虾","lon":"121.427264","lat":"31.360099","category":"247","category_name":"餐饮美食","address":"上海市 水产西路店"},{"poiid":"B2094757D068A5FE469E","title":"世纪联华(顾村店)","lon":"121.41346","lat":"31.35497","category":"118","category_name":"超级市场","address":"宝山区水产西路1028号(近富联路)"},{"poiid":"B2094654D46AA3FC419F","title":"小山沟湘菜馆","lon":"121.42991","lat":"31.36122","category":"77","category_name":"湖南菜","address":"宝山区水产西路151号(近蕴川路卜蜂莲花)"},{"poiid":"B2094757D569A1F5479D","title":"天馨花园六期","lon":"121.4291908","lat":"31.36181778","category":"47","category_name":"住宅区","address":"上海市宝山区蕴川路1498弄"},{"poiid":"B2094757D064A3F4439B","title":"三品坊","lon":"121.41077567","lat":"31.356282195","category":"76","category_name":"上海菜","address":"宝山区宝山区水产西路1057-1063号(近富联路)"},{"poiid":"B2094757D569A3FF4792","title":"天馨花园七期","lon":"121.4293439","lat":"31.36143778","category":"47","category_name":"住宅区","address":"上海市宝山区蕴川路1498号"},{"poiid":"B2094757D164A2FC439C","title":"Home Pa","lon":"121.415727679","lat":"31.360946283","category":"500","category_name":"未知分类","address":null},{"poiid":"B2094757D069A6FD469E","title":"顾村大家园B区","lon":"121.407729","lat":"31.358065","category":"500","category_name":"未知分类","address":"上海宝山区顾村大家园B区"},{"poiid":"B2094654D46AA2F94298","title":"富华苑","lon":"121.42565","lat":"31.35155","category":"47","category_name":"住宅区","address":"富华苑(二期)位于宝山共富路349号"},{"poiid":"B2094757D16BA2F44498","title":"共富新村地铁站","lon":"121.434068","lat":"31.355398","category":"36","category_name":"地铁站","address":"上海轨道交通 一号线 轨交共富新村站"},{"poiid":"B2094757D06FA2FB4699","title":"天馨花园","lon":"121.42878","lat":"31.362499","category":"47","category_name":"住宅区","address":"上海宝山区蕴川路1498弄(水产西路)"},{"poiid":"B2094757D06FA3F94493","title":"宝安公路地铁站","lon":"121.431154","lat":"31.369615773","category":"36","category_name":"地铁站","address":"上海轨道交通 一号线 轨交宝安公路站 1"},{"poiid":"B2094757D06FA0FF459C","title":"泰和新城","lon":"121.412","lat":"31.3549","category":"47","category_name":"住宅区","address":"上海泰和新城3381弄"},{"poiid":"B2094757D06FA0F4449E","title":"共富一村","lon":"121.43013","lat":"31.352312","category":"47","category_name":"住宅区","address":"上海宝山区共富路"},{"poiid":"B2094757D068A1F44099","title":"高老庄","lon":"121.426433079","lat":"31.359378721","category":"75","category_name":"浙江菜","address":"宝山区水产西路308号(近蕰川路)"},{"poiid":"B2094757D068A2F8409B","title":"宝山殡仪馆","lon":"121.42613","lat":"31.37145","category":"620","category_name":"丧葬","address":"宝山区宝安公路111号"},{"poiid":"B2094757D068AAFD429A","title":"宝山太平禅寺","lon":"121.410213","lat":"31.355918","category":"246","category_name":"回教寺","address":"上海宝山区顾村镇富联路(近泰和西路)"},{"poiid":"B2094757D06FA6FA459F","title":"卜蜂莲花(蕰川路店)","lon":"121.43348","lat":"31.36588","category":"118","category_name":"超级市场","address":"宝山区薀川路1557号(近一号线宝安公路站)"},{"poiid":"B2094655D36CA5FC449F","title":"大黄馨园","lon":"121.4224","lat":"31.35862","category":"38","category_name":"公交车站","address":"水产西路489弄"},{"poiid":"B2094757D069A3F84499","title":"共富二村","lon":"121.43156","lat":"31.349676","category":"47","category_name":"住宅区","address":"共富路156弄"},{"poiid":"B2094654D469AAFA4093","title":"北上海商业广场","lon":"121.43274","lat":"31.36505","category":"119","category_name":"商场","address":"宝山蕴川路1553号"},{"poiid":"B2094757D569A2FC499A","title":"绿地公元1860","lon":"121.426551","lat":"31.361697","category":"47","category_name":"住宅区","address":"上海市宝山区富长路水产西路口"},{"poiid":"B2094757D069A1F4429D","title":"旭辉依云湾","lon":"121.41096434243","lat":"31.362431789432","category":"47","category_name":"住宅区","address":"宝山区沪太路顾北路666号(近沪太路)"},{"poiid":"B2094654D46AA0F4429D","title":"龙景轩 水产店","lon":"121.43155844196","lat":"31.36020603782","category":"76","category_name":"上海菜","address":"宝山区水产西路189号(近蕴川路)"},{"poiid":"B2094654D46AA3FB4893","title":"共富四村","lon":"121.426","lat":"31.350039","category":"47","category_name":"住宅区","address":"上海市宝山区共富四村6号等"},{"poiid":"B2094757D069A5FC4592","title":"顾村大家园C区","lon":"121.41204192","lat":"31.360784179","category":"500","category_name":"未知分类","address":"上海顾北东路155弄"},{"poiid":"B2094757D069A7F9479C","title":"成亿宝盛","lon":"121.414759","lat":"31.354816","category":"500","category_name":"未知分类","address":"上海水产西路859弄"},{"poiid":"B2094757D06AA7FA4292","title":"顾村大家园A区","lon":"121.407711679","lat":"31.3588722439","category":"500","category_name":"未知分类","address":"上海市宝山区顾北东路501弄"},{"poiid":"B2094655D36CA1FE4798","title":"水产西路富联路","lon":"121.41202","lat":"31.35561","category":"38","category_name":"公交车站","address":""},{"poiid":"B2094757D665A2F44493","title":"兄弟私房菜 水产西路店","lon":"121.4173575","lat":"31.3563621","category":"76","category_name":"上海菜","address":"宝山区水产西路730号(近富长路)"},{"poiid":"B2094654D46AA3F44493","title":"富弘苑","lon":"121.4239","lat":"31.347776","category":"47","category_name":"住宅区","address":"宝山共富路518弄"},{"poiid":"B2094757D068A7F84899","title":"柏丽华庭","lon":"121.43332","lat":"31.368744","category":"47","category_name":"住宅区","address":"上海市宝山区蕴川路1623弄(近龙飞路)"},{"poiid":"B2094757D06FAAFE4199","title":"肯德基 KFC (蕴川店)","lon":"121.432546","lat":"31.36659","category":"68","category_name":"快餐厅","address":"宝山区蕴川路1555号北上海商业广场1楼(近一号线宝安公路站)"},{"poiid":"B2094753DB69A0FC489B","title":"宝山万达","lon":"121.421722","lat":"31.360757","category":"500","category_name":"未知分类","address":"上海市 宝山万达"},{"poiid":"B2094655D36CA1FC469C","title":"盛宅新村","lon":"121.417","lat":"31.3596","category":"47","category_name":"住宅区","address":"上海市宝山区富联路128弄"},{"poiid":"B2094757D06AA7F8449B","title":"fish's home","lon":"121.42134667","lat":"31.359664258","category":"500","category_name":"未知分类","address":null},{"poiid":"B2094655D264A7F9499A","title":"丽景花园","lon":"121.41569","lat":"31.356567","category":"47","category_name":"住宅区","address":"上海市宝山区水产西路777弄"},{"poiid":"B2094757D66EA3FF409F","title":"波波^_^家","lon":"121.42133967","lat":"31.359465255","category":"500","category_name":"未知分类","address":null},{"poiid":"B2094655D36CA1FE479B","title":"水产西路富长路","lon":"121.41978","lat":"31.35673","category":"38","category_name":"公交车站","address":""},{"poiid":"B2094751D465A1F9449D","title":"金马豪生海鲜城","lon":"121.420341","lat":"31.357812","category":"260","category_name":"其他","address":"宝山区水产西路519号(近富长路)"},{"poiid":"B2094654D469AAFA409B","title":"上海市天馨学校","lon":"121.42633","lat":"31.36053","category":"55","category_name":"中学","address":"宝山区水产西路289"},{"poiid":"B2094757D568A4F8469D","title":"新顾村大家园C块商品住宅","lon":"121.420209","lat":"31.365081","category":"47","category_name":"住宅区","address":"上海市宝山区顾北东路155弄"},{"poiid":"B2094757D164ABFE4898","title":"上海逸隆宝鸿汽车销售服务有限公司","lon":"121.42460867","lat":"31.358758241","category":"500","category_name":"未知分类","address":"宝山区宝安公路839号"},{"poiid":"B2094757D16BA2F84793","title":"园香缘","lon":"121.4198","lat":"31.35709","category":"71","category_name":"四川菜","address":"宝山区水产西路(近富长路)"},{"poiid":"B2094655D26FA6F5489D","title":"合鑫大酒店","lon":"121.41294","lat":"31.3549","category":"71","category_name":"四川菜","address":"宝山区水产西路939号(近富联路)"},{"poiid":"B2094757D769A7F9419D","title":"苹果花园 水产西路店","lon":"121.414129","lat":"31.35517","category":"47","category_name":"住宅区","address":"宝山区水产西路900号(近富联路)"},{"poiid":"B2094654D46AA3FD4198","title":"新顾村大家园","lon":"121.419957","lat":"31.36572","category":"47","category_name":"住宅区","address":"顾北路155弄"},{"poiid":"B2094757D069A2FA4592","title":"天极盛宅花园","lon":"121.41443","lat":"31.352009","category":"47","category_name":"住宅区","address":"天极盛宅花园位于宝山上海宝山泰和西路3419弄"},{"poiid":"B2094757DB6EAAFF4792","title":"小杨生煎","lon":"121.428296","lat":"31.368478","category":"247","category_name":"餐饮美食","address":"宝山区薀川路1557号卜蜂莲花1楼美食区(近杨鑫路)"},{"poiid":"B2094757D569A0FA419E","title":"天馨花园十期商业","lon":"121.4276669","lat":"31.360325","category":"47","category_name":"住宅区","address":"蕴川路1498弄"},{"poiid":"B2094753D26FA0FE499F","title":"段式龙虾","lon":"121.427264","lat":"31.360099","category":"247","category_name":"餐饮美食","address":"上海市 水产西路店"},{"poiid":"B2094757D068A5FE469E","title":"世纪联华(顾村店)","lon":"121.41346","lat":"31.35497","category":"118","category_name":"超级市场","address":"宝山区水产西路1028号(近富联路)"},{"poiid":"B2094654D46AA3FC419F","title":"小山沟湘菜馆","lon":"121.42991","lat":"31.36122","category":"77","category_name":"湖南菜","address":"宝山区水产西路151号(近蕴川路卜蜂莲花)"},{"poiid":"B2094757D569A1F5479D","title":"天馨花园六期","lon":"121.4291908","lat":"31.36181778","category":"47","category_name":"住宅区","address":"上海市宝山区蕴川路1498弄"},{"poiid":"B2094757D064A3F4439B","title":"三品坊","lon":"121.41077567","lat":"31.356282195","category":"76","category_name":"上海菜","address":"宝山区宝山区水产西路1057-1063号(近富联路)"},{"poiid":"B2094757D569A3FF4792","title":"天馨花园七期","lon":"121.4293439","lat":"31.36143778","category":"47","category_name":"住宅区","address":"上海市宝山区蕴川路1498号"},{"poiid":"B2094757D164A2FC439C","title":"Home Pa","lon":"121.415727679","lat":"31.360946283","category":"500","category_name":"未知分类","address":null},{"poiid":"B2094757D069A6FD469E","title":"顾村大家园B区","lon":"121.407729","lat":"31.358065","category":"500","category_name":"未知分类","address":"上海宝山区顾村大家园B区"},{"poiid":"B2094654D46AA2F94298","title":"富华苑","lon":"121.42565","lat":"31.35155","category":"47","category_name":"住宅区","address":"富华苑(二期)位于宝山共富路349号"}]