[{"poiid":"B2094757D06FA4F54492","title":"小四川水煮鱼(高桥店)","lon":"121.57752","lat":"31.35074","category":"71","category_name":"四川菜","address":"浦东新区高桥镇同港路110号(近地铁六号线港城路站)"},{"poiid":"B2094757D068A2FC4993","title":"上海正地豪生大酒店","lon":"121.5740414578504","lat":"31.34564600811117","category":"213","category_name":"五星级宾馆","address":"上海浦东新区张杨北路5658号(近花山路)"},{"poiid":"B2094655D36CA6FE4098","title":"高桥镇","lon":"121.578492","lat":"31.349224","category":"38","category_name":"公交车站","address":"上海浦东新区高桥镇"},{"poiid":"B2094655D36CA6FE4693","title":"港城路地铁站","lon":"121.57234","lat":"31.35225","category":"36","category_name":"地铁站","address":""},{"poiid":"B2094757D06FA6FD4898","title":"外高桥二期码头","lon":"121.581858","lat":"31.359955","category":"500","category_name":"未知分类","address":"上海市浦东新区港华路1299号"},{"poiid":"B2094757D068A5F4489A","title":"荷兰风情小镇","lon":"121.57858","lat":"31.337483","category":"260","category_name":"其他","address":"上海外高桥高荷路"},{"poiid":"B2094655D26AA0FA449C","title":"地铁港城路站","lon":"121.57492","lat":"31.35359","category":"36","category_name":"地铁站","address":""},{"poiid":"B2094757D06EAAFA429D","title":"地铁六号线","lon":"121.57514","lat":"31.35351","category":"36","category_name":"地铁站","address":"港城路 - 东方体育中心 上海轨道交通六号线 轨交 6"},{"poiid":"B2094757D068ABFC419B","title":"高桥公园","lon":"121.5730388","lat":"31.346113478","category":"196","category_name":"公园","address":"浦东新区高桥镇通园路269号(花山路张杨北路)"},{"poiid":"B2094654D46AABFD409C","title":"上海市高桥中学","lon":"121.58134","lat":"31.34812","category":"55","category_name":"中学","address":"浦东新区高桥镇季景北路859号"},{"poiid":"B2094654D46BA3F8499A","title":"高桥烈士陵园","lon":"121.57672","lat":"31.35764","category":"620","category_name":"丧葬","address":"浦东新区欧高路钟家弄78号"},{"poiid":"B2094654D46BA3F8499B","title":"上海市民办外高桥中学","lon":"121.57605","lat":"31.35666","category":"55","category_name":"中学","address":"浦东新区欧高路钟家弄74号"},{"poiid":"B2094757D66CA7FC4192","title":"怡心苑","lon":"121.58149289088","lat":"31.354172322681","category":"500","category_name":"未知分类","address":"上海市浦东新区花山路609弄"},{"poiid":"B2094757D16EA1FF4698","title":"海星大酒店","lon":"121.56959","lat":"31.34616","category":"76","category_name":"上海菜","address":"浦东新区高桥镇花山路321号(和龙路花山路)"},{"poiid":"B2094757D16FA6FF4993","title":"高桥胡子烧烤","lon":"121.57744406","lat":"31.351625203","category":"247","category_name":"餐饮美食","address":"上海同港路草高支路"},{"poiid":"B2094757D16DA6F94092","title":"高桥镇小学","lon":"121.578666","lat":"31.34961","category":"56","category_name":"小学","address":"上海市花山路789号"},{"poiid":"B2094654D46BA3F9429A","title":"上海浦东国安电力建设有限公司(港城路)","lon":"121.57519","lat":"31.35385","category":"263","category_name":"公司","address":"港城路800号"},{"poiid":"B2094655D36DA7FD4898","title":"张杨北路花山路","lon":"121.57317","lat":"31.34759","category":"38","category_name":"公交车站","address":"上海张杨北路5893号"},{"poiid":"B2094655D36DA7FD4798","title":"张杨北路","lon":"121.57194","lat":"31.35514","category":"38","category_name":"公交车站","address":""},{"poiid":"B2094655D36CA6FE479A","title":"港城路","lon":"121.57749","lat":"31.35179","category":"38","category_name":"公交车站","address":"屯粮巷"},{"poiid":"B2094757D168A4FD419D","title":"家弘海鲜渔庄","lon":"121.584862968","lat":"31.3507511832","category":"247","category_name":"餐饮美食","address":"上海浦东高桥镇花山路1199号"},{"poiid":"B2094655D36DA7FD479D","title":"张杨北路港城路","lon":"121.57195","lat":"31.35498","category":"38","category_name":"公交车站","address":""},{"poiid":"B2094654D46BA3F94299","title":"华发腾飞国际货运有限公司","lon":"121.57418","lat":"31.35382","category":"248","category_name":"生活娱乐","address":"港城路872"},{"poiid":"B2094654D46BA3F9429F","title":"上海新元仓储有限公司","lon":"121.57376","lat":"31.35377","category":"263","category_name":"公司","address":"港城路828号"},{"poiid":"B2094757D064A4F9449D","title":"港城路站长室","lon":"121.5748317","lat":"31.352715961","category":"500","category_name":"未知分类","address":"上海港城路车站"},{"poiid":"B2094757D16EA1FB459D","title":"景欣苑面菜馆","lon":"121.57293408","lat":"31.346654671","category":"68","category_name":"快餐厅","address":"浦东新区高桥镇花山路432号(近和龙路)"},{"poiid":"B2094757D56EA5F54599","title":"港城路站2号出口(地铁6号线)","lon":"121.575032","lat":"31.353055","category":"251","category_name":"出行住宿","address":"中国上海市浦东新区港城路"},{"poiid":"B2094654D46BA3F84993","title":"上港集箱外高桥码头","lon":"121.58197","lat":"31.36184","category":"34","category_name":"港口码头","address":"港华路1299号"},{"poiid":"B2094750DA68AAF44498","title":"滨江森林公园","lon":"121.568557","lat":"31.352237","category":"250","category_name":"公园户外","address":null},{"poiid":"B2094655D26BA3FA429A","title":"济州岛韩国小菜","lon":"121.57867","lat":"31.3496","category":"96","category_name":"韩国料理","address":"浦东新区花山路79号高桥镇小学对面(大同路口)"},{"poiid":"B2094654D46BA3F94098","title":"上海港城危险品物流有限公司","lon":"121.57214","lat":"31.35751","category":"248","category_name":"生活娱乐","address":"张杨北路6555号"},{"poiid":"B2094654DB6AA5FA469E","title":"浦东新区高桥社区卫生服务中心","lon":"121.57801","lat":"31.35041","category":"162","category_name":"医院","address":"欧高路128号"},{"poiid":"B2094654D46AABF9439F","title":"东兴苑","lon":"121.58160016617","lat":"31.353401844874","category":"47","category_name":"住宅区","address":"花山路618弄1-53号"},{"poiid":"B2094654D46AA4F4489E","title":"黔海足浴会所浪屿分店","lon":"121.57456","lat":"31.35141","category":"149","category_name":"洗浴推拿场所","address":"草高支路681号"},{"poiid":"B2094654D46AA4F44699","title":"潼港七村","lon":"121.57671","lat":"31.350018","category":"47","category_name":"住宅区","address":"花山路609弄"},{"poiid":"B2094757D16AA0F5469B","title":"公交(川张高线)","lon":"121.573375","lat":"31.351594","category":"500","category_name":"未知分类","address":"上海川沙停车厂到高桥"},{"poiid":"B2094654DB65A0FA4393","title":"段氏龙虾","lon":"121.573","lat":"31.34758","category":"88","category_name":"海鲜酒楼","address":"张杨路5841-5843临"},{"poiid":"B2094757D164A0FF409B","title":"基隆路3号","lon":"121.577533","lat":"31.350255","category":"47","category_name":"住宅区","address":"上海外高桥保税区基隆路3号税务局"},{"poiid":"B2094750D465A2F94093","title":"地铁港城路培训基地","lon":"121.57254","lat":"31.358087","category":"252","category_name":"楼宇机构","address":"浦东新区和龙路1099号"},{"poiid":"B2094654D46AA4F4449C","title":"浦东新区地方税务局第二十五税务所","lon":"121.57753","lat":"31.35025","category":"250","category_name":"公园户外","address":"欧高公路"},{"poiid":"B2094654DB65A0F9419C","title":"富华大楼","lon":"121.5789","lat":"31.35033","category":"46","category_name":"楼宇","address":"欧高路97"},{"poiid":"B2094757D66DABFC429C","title":"君悦豪酒店","lon":"121.577693068","lat":"31.348981143","category":"76","category_name":"上海菜","address":"上海市浦东新区张杨北路"},{"poiid":"B2094655D26FA0F94799","title":"潼港七村(东门)","lon":"121.57717","lat":"31.35009","category":"47","category_name":"住宅区","address":""},{"poiid":"B2094654D46AABFC479C","title":"苗记饺子馆","lon":"121.577278054","lat":"31.348542793","category":"68","category_name":"快餐厅","address":"浦东新区花山路(近大同路)"},{"poiid":"B2094757D768A4F8479E","title":"东北一家人 花山路店","lon":"121.576395054","lat":"31.348439793","category":"82","category_name":"东北菜","address":"浦东新区花山路715弄5号德天川菜附近(和龙路花山路)"},{"poiid":"B2094654D46AA4F44293","title":"光明乳业高南配送站","lon":"121.579","lat":"31.35027","category":"117","category_name":"便民商店/便利店","address":""},{"poiid":"B2094750D26AA7FC449D","title":"港城新苑","lon":"121.583282","lat":"31.352983","category":"47","category_name":"住宅区","address":"草高支路168弄"},{"poiid":"B2094757D66DA2FD479E","title":"济州岛传统韩国料理","lon":"121.577915068","lat":"31.3492311487","category":"247","category_name":"餐饮美食","address":"上海花山路808号"},{"poiid":"B2094751D465ABF8409E","title":"苏州老庆太羊肉馆","lon":"121.5793","lat":"31.34883","category":"75","category_name":"浙江菜","address":"浦东新区花山路800号"},{"poiid":"B2094654D46AA4F5469C","title":"海高二村","lon":"121.58173","lat":"31.350508","category":"47","category_name":"住宅区","address":"花山路1001弄1-48号"},{"poiid":"B2094757D06FA4F54492","title":"小四川水煮鱼(高桥店)","lon":"121.57752","lat":"31.35074","category":"71","category_name":"四川菜","address":"浦东新区高桥镇同港路110号(近地铁六号线港城路站)"},{"poiid":"B2094757D068A2FC4993","title":"上海正地豪生大酒店","lon":"121.5740414578504","lat":"31.34564600811117","category":"213","category_name":"五星级宾馆","address":"上海浦东新区张杨北路5658号(近花山路)"},{"poiid":"B2094655D36CA6FE4098","title":"高桥镇","lon":"121.578492","lat":"31.349224","category":"38","category_name":"公交车站","address":"上海浦东新区高桥镇"},{"poiid":"B2094655D36CA6FE4693","title":"港城路地铁站","lon":"121.57234","lat":"31.35225","category":"36","category_name":"地铁站","address":""},{"poiid":"B2094757D06FA6FD4898","title":"外高桥二期码头","lon":"121.581858","lat":"31.359955","category":"500","category_name":"未知分类","address":"上海市浦东新区港华路1299号"},{"poiid":"B2094757D068A5F4489A","title":"荷兰风情小镇","lon":"121.57858","lat":"31.337483","category":"260","category_name":"其他","address":"上海外高桥高荷路"},{"poiid":"B2094655D26AA0FA449C","title":"地铁港城路站","lon":"121.57492","lat":"31.35359","category":"36","category_name":"地铁站","address":""},{"poiid":"B2094757D06EAAFA429D","title":"地铁六号线","lon":"121.57514","lat":"31.35351","category":"36","category_name":"地铁站","address":"港城路 - 东方体育中心 上海轨道交通六号线 轨交 6"},{"poiid":"B2094757D068ABFC419B","title":"高桥公园","lon":"121.5730388","lat":"31.346113478","category":"196","category_name":"公园","address":"浦东新区高桥镇通园路269号(花山路张杨北路)"},{"poiid":"B2094654D46AABFD409C","title":"上海市高桥中学","lon":"121.58134","lat":"31.34812","category":"55","category_name":"中学","address":"浦东新区高桥镇季景北路859号"},{"poiid":"B2094654D46BA3F8499A","title":"高桥烈士陵园","lon":"121.57672","lat":"31.35764","category":"620","category_name":"丧葬","address":"浦东新区欧高路钟家弄78号"},{"poiid":"B2094654D46BA3F8499B","title":"上海市民办外高桥中学","lon":"121.57605","lat":"31.35666","category":"55","category_name":"中学","address":"浦东新区欧高路钟家弄74号"},{"poiid":"B2094757D66CA7FC4192","title":"怡心苑","lon":"121.58149289088","lat":"31.354172322681","category":"500","category_name":"未知分类","address":"上海市浦东新区花山路609弄"},{"poiid":"B2094757D16EA1FF4698","title":"海星大酒店","lon":"121.56959","lat":"31.34616","category":"76","category_name":"上海菜","address":"浦东新区高桥镇花山路321号(和龙路花山路)"},{"poiid":"B2094757D16FA6FF4993","title":"高桥胡子烧烤","lon":"121.57744406","lat":"31.351625203","category":"247","category_name":"餐饮美食","address":"上海同港路草高支路"},{"poiid":"B2094757D16DA6F94092","title":"高桥镇小学","lon":"121.578666","lat":"31.34961","category":"56","category_name":"小学","address":"上海市花山路789号"},{"poiid":"B2094654D46BA3F9429A","title":"上海浦东国安电力建设有限公司(港城路)","lon":"121.57519","lat":"31.35385","category":"263","category_name":"公司","address":"港城路800号"},{"poiid":"B2094655D36DA7FD4898","title":"张杨北路花山路","lon":"121.57317","lat":"31.34759","category":"38","category_name":"公交车站","address":"上海张杨北路5893号"},{"poiid":"B2094655D36DA7FD4798","title":"张杨北路","lon":"121.57194","lat":"31.35514","category":"38","category_name":"公交车站","address":""},{"poiid":"B2094655D36CA6FE479A","title":"港城路","lon":"121.57749","lat":"31.35179","category":"38","category_name":"公交车站","address":"屯粮巷"},{"poiid":"B2094757D168A4FD419D","title":"家弘海鲜渔庄","lon":"121.584862968","lat":"31.3507511832","category":"247","category_name":"餐饮美食","address":"上海浦东高桥镇花山路1199号"},{"poiid":"B2094655D36DA7FD479D","title":"张杨北路港城路","lon":"121.57195","lat":"31.35498","category":"38","category_name":"公交车站","address":""},{"poiid":"B2094654D46BA3F94299","title":"华发腾飞国际货运有限公司","lon":"121.57418","lat":"31.35382","category":"248","category_name":"生活娱乐","address":"港城路872"},{"poiid":"B2094654D46BA3F9429F","title":"上海新元仓储有限公司","lon":"121.57376","lat":"31.35377","category":"263","category_name":"公司","address":"港城路828号"},{"poiid":"B2094757D064A4F9449D","title":"港城路站长室","lon":"121.5748317","lat":"31.352715961","category":"500","category_name":"未知分类","address":"上海港城路车站"},{"poiid":"B2094757D16EA1FB459D","title":"景欣苑面菜馆","lon":"121.57293408","lat":"31.346654671","category":"68","category_name":"快餐厅","address":"浦东新区高桥镇花山路432号(近和龙路)"},{"poiid":"B2094757D56EA5F54599","title":"港城路站2号出口(地铁6号线)","lon":"121.575032","lat":"31.353055","category":"251","category_name":"出行住宿","address":"中国上海市浦东新区港城路"},{"poiid":"B2094654D46BA3F84993","title":"上港集箱外高桥码头","lon":"121.58197","lat":"31.36184","category":"34","category_name":"港口码头","address":"港华路1299号"},{"poiid":"B2094750DA68AAF44498","title":"滨江森林公园","lon":"121.568557","lat":"31.352237","category":"250","category_name":"公园户外","address":null},{"poiid":"B2094655D26BA3FA429A","title":"济州岛韩国小菜","lon":"121.57867","lat":"31.3496","category":"96","category_name":"韩国料理","address":"浦东新区花山路79号高桥镇小学对面(大同路口)"},{"poiid":"B2094654D46BA3F94098","title":"上海港城危险品物流有限公司","lon":"121.57214","lat":"31.35751","category":"248","category_name":"生活娱乐","address":"张杨北路6555号"},{"poiid":"B2094654DB6AA5FA469E","title":"浦东新区高桥社区卫生服务中心","lon":"121.57801","lat":"31.35041","category":"162","category_name":"医院","address":"欧高路128号"},{"poiid":"B2094654D46AABF9439F","title":"东兴苑","lon":"121.58160016617","lat":"31.353401844874","category":"47","category_name":"住宅区","address":"花山路618弄1-53号"},{"poiid":"B2094654D46AA4F4489E","title":"黔海足浴会所浪屿分店","lon":"121.57456","lat":"31.35141","category":"149","category_name":"洗浴推拿场所","address":"草高支路681号"},{"poiid":"B2094654D46AA4F44699","title":"潼港七村","lon":"121.57671","lat":"31.350018","category":"47","category_name":"住宅区","address":"花山路609弄"},{"poiid":"B2094757D16AA0F5469B","title":"公交(川张高线)","lon":"121.573375","lat":"31.351594","category":"500","category_name":"未知分类","address":"上海川沙停车厂到高桥"},{"poiid":"B2094654DB65A0FA4393","title":"段氏龙虾","lon":"121.573","lat":"31.34758","category":"88","category_name":"海鲜酒楼","address":"张杨路5841-5843临"},{"poiid":"B2094757D164A0FF409B","title":"基隆路3号","lon":"121.577533","lat":"31.350255","category":"47","category_name":"住宅区","address":"上海外高桥保税区基隆路3号税务局"},{"poiid":"B2094750D465A2F94093","title":"地铁港城路培训基地","lon":"121.57254","lat":"31.358087","category":"252","category_name":"楼宇机构","address":"浦东新区和龙路1099号"},{"poiid":"B2094654D46AA4F4449C","title":"浦东新区地方税务局第二十五税务所","lon":"121.57753","lat":"31.35025","category":"250","category_name":"公园户外","address":"欧高公路"},{"poiid":"B2094654DB65A0F9419C","title":"富华大楼","lon":"121.5789","lat":"31.35033","category":"46","category_name":"楼宇","address":"欧高路97"},{"poiid":"B2094757D66DABFC429C","title":"君悦豪酒店","lon":"121.577693068","lat":"31.348981143","category":"76","category_name":"上海菜","address":"上海市浦东新区张杨北路"},{"poiid":"B2094655D26FA0F94799","title":"潼港七村(东门)","lon":"121.57717","lat":"31.35009","category":"47","category_name":"住宅区","address":""},{"poiid":"B2094654D46AABFC479C","title":"苗记饺子馆","lon":"121.577278054","lat":"31.348542793","category":"68","category_name":"快餐厅","address":"浦东新区花山路(近大同路)"},{"poiid":"B2094757D768A4F8479E","title":"东北一家人 花山路店","lon":"121.576395054","lat":"31.348439793","category":"82","category_name":"东北菜","address":"浦东新区花山路715弄5号德天川菜附近(和龙路花山路)"},{"poiid":"B2094654D46AA4F44293","title":"光明乳业高南配送站","lon":"121.579","lat":"31.35027","category":"117","category_name":"便民商店/便利店","address":""},{"poiid":"B2094750D26AA7FC449D","title":"港城新苑","lon":"121.583282","lat":"31.352983","category":"47","category_name":"住宅区","address":"草高支路168弄"},{"poiid":"B2094757D66DA2FD479E","title":"济州岛传统韩国料理","lon":"121.577915068","lat":"31.3492311487","category":"247","category_name":"餐饮美食","address":"上海花山路808号"},{"poiid":"B2094751D465ABF8409E","title":"苏州老庆太羊肉馆","lon":"121.5793","lat":"31.34883","category":"75","category_name":"浙江菜","address":"浦东新区花山路800号"},{"poiid":"B2094654D46AA4F5469C","title":"海高二村","lon":"121.58173","lat":"31.350508","category":"47","category_name":"住宅区","address":"花山路1001弄1-48号"},{"poiid":"B2094757D06FA4F54492","title":"小四川水煮鱼(高桥店)","lon":"121.57752","lat":"31.35074","category":"71","category_name":"四川菜","address":"浦东新区高桥镇同港路110号(近地铁六号线港城路站)"},{"poiid":"B2094757D068A2FC4993","title":"上海正地豪生大酒店","lon":"121.5740414578504","lat":"31.34564600811117","category":"213","category_name":"五星级宾馆","address":"上海浦东新区张杨北路5658号(近花山路)"},{"poiid":"B2094655D36CA6FE4098","title":"高桥镇","lon":"121.578492","lat":"31.349224","category":"38","category_name":"公交车站","address":"上海浦东新区高桥镇"},{"poiid":"B2094655D36CA6FE4693","title":"港城路地铁站","lon":"121.57234","lat":"31.35225","category":"36","category_name":"地铁站","address":""},{"poiid":"B2094757D06FA6FD4898","title":"外高桥二期码头","lon":"121.581858","lat":"31.359955","category":"500","category_name":"未知分类","address":"上海市浦东新区港华路1299号"},{"poiid":"B2094757D068A5F4489A","title":"荷兰风情小镇","lon":"121.57858","lat":"31.337483","category":"260","category_name":"其他","address":"上海外高桥高荷路"},{"poiid":"B2094655D26AA0FA449C","title":"地铁港城路站","lon":"121.57492","lat":"31.35359","category":"36","category_name":"地铁站","address":""},{"poiid":"B2094757D06EAAFA429D","title":"地铁六号线","lon":"121.57514","lat":"31.35351","category":"36","category_name":"地铁站","address":"港城路 - 东方体育中心 上海轨道交通六号线 轨交 6"},{"poiid":"B2094757D068ABFC419B","title":"高桥公园","lon":"121.5730388","lat":"31.346113478","category":"196","category_name":"公园","address":"浦东新区高桥镇通园路269号(花山路张杨北路)"},{"poiid":"B2094654D46AABFD409C","title":"上海市高桥中学","lon":"121.58134","lat":"31.34812","category":"55","category_name":"中学","address":"浦东新区高桥镇季景北路859号"},{"poiid":"B2094654D46BA3F8499A","title":"高桥烈士陵园","lon":"121.57672","lat":"31.35764","category":"620","category_name":"丧葬","address":"浦东新区欧高路钟家弄78号"},{"poiid":"B2094654D46BA3F8499B","title":"上海市民办外高桥中学","lon":"121.57605","lat":"31.35666","category":"55","category_name":"中学","address":"浦东新区欧高路钟家弄74号"},{"poiid":"B2094757D66CA7FC4192","title":"怡心苑","lon":"121.58149289088","lat":"31.354172322681","category":"500","category_name":"未知分类","address":"上海市浦东新区花山路609弄"},{"poiid":"B2094757D16EA1FF4698","title":"海星大酒店","lon":"121.56959","lat":"31.34616","category":"76","category_name":"上海菜","address":"浦东新区高桥镇花山路321号(和龙路花山路)"},{"poiid":"B2094757D16FA6FF4993","title":"高桥胡子烧烤","lon":"121.57744406","lat":"31.351625203","category":"247","category_name":"餐饮美食","address":"上海同港路草高支路"},{"poiid":"B2094757D16DA6F94092","title":"高桥镇小学","lon":"121.578666","lat":"31.34961","category":"56","category_name":"小学","address":"上海市花山路789号"},{"poiid":"B2094654D46BA3F9429A","title":"上海浦东国安电力建设有限公司(港城路)","lon":"121.57519","lat":"31.35385","category":"263","category_name":"公司","address":"港城路800号"},{"poiid":"B2094655D36DA7FD4898","title":"张杨北路花山路","lon":"121.57317","lat":"31.34759","category":"38","category_name":"公交车站","address":"上海张杨北路5893号"},{"poiid":"B2094655D36DA7FD4798","title":"张杨北路","lon":"121.57194","lat":"31.35514","category":"38","category_name":"公交车站","address":""},{"poiid":"B2094655D36CA6FE479A","title":"港城路","lon":"121.57749","lat":"31.35179","category":"38","category_name":"公交车站","address":"屯粮巷"},{"poiid":"B2094757D168A4FD419D","title":"家弘海鲜渔庄","lon":"121.584862968","lat":"31.3507511832","category":"247","category_name":"餐饮美食","address":"上海浦东高桥镇花山路1199号"},{"poiid":"B2094655D36DA7FD479D","title":"张杨北路港城路","lon":"121.57195","lat":"31.35498","category":"38","category_name":"公交车站","address":""},{"poiid":"B2094654D46BA3F94299","title":"华发腾飞国际货运有限公司","lon":"121.57418","lat":"31.35382","category":"248","category_name":"生活娱乐","address":"港城路872"},{"poiid":"B2094654D46BA3F9429F","title":"上海新元仓储有限公司","lon":"121.57376","lat":"31.35377","category":"263","category_name":"公司","address":"港城路828号"},{"poiid":"B2094757D064A4F9449D","title":"港城路站长室","lon":"121.5748317","lat":"31.352715961","category":"500","category_name":"未知分类","address":"上海港城路车站"},{"poiid":"B2094757D16EA1FB459D","title":"景欣苑面菜馆","lon":"121.57293408","lat":"31.346654671","category":"68","category_name":"快餐厅","address":"浦东新区高桥镇花山路432号(近和龙路)"},{"poiid":"B2094757D56EA5F54599","title":"港城路站2号出口(地铁6号线)","lon":"121.575032","lat":"31.353055","category":"251","category_name":"出行住宿","address":"中国上海市浦东新区港城路"},{"poiid":"B2094654D46BA3F84993","title":"上港集箱外高桥码头","lon":"121.58197","lat":"31.36184","category":"34","category_name":"港口码头","address":"港华路1299号"},{"poiid":"B2094750DA68AAF44498","title":"滨江森林公园","lon":"121.568557","lat":"31.352237","category":"250","category_name":"公园户外","address":null},{"poiid":"B2094655D26BA3FA429A","title":"济州岛韩国小菜","lon":"121.57867","lat":"31.3496","category":"96","category_name":"韩国料理","address":"浦东新区花山路79号高桥镇小学对面(大同路口)"},{"poiid":"B2094654D46BA3F94098","title":"上海港城危险品物流有限公司","lon":"121.57214","lat":"31.35751","category":"248","category_name":"生活娱乐","address":"张杨北路6555号"},{"poiid":"B2094654DB6AA5FA469E","title":"浦东新区高桥社区卫生服务中心","lon":"121.57801","lat":"31.35041","category":"162","category_name":"医院","address":"欧高路128号"},{"poiid":"B2094654D46AABF9439F","title":"东兴苑","lon":"121.58160016617","lat":"31.353401844874","category":"47","category_name":"住宅区","address":"花山路618弄1-53号"},{"poiid":"B2094654D46AA4F4489E","title":"黔海足浴会所浪屿分店","lon":"121.57456","lat":"31.35141","category":"149","category_name":"洗浴推拿场所","address":"草高支路681号"},{"poiid":"B2094654D46AA4F44699","title":"潼港七村","lon":"121.57671","lat":"31.350018","category":"47","category_name":"住宅区","address":"花山路609弄"},{"poiid":"B2094757D16AA0F5469B","title":"公交(川张高线)","lon":"121.573375","lat":"31.351594","category":"500","category_name":"未知分类","address":"上海川沙停车厂到高桥"},{"poiid":"B2094654DB65A0FA4393","title":"段氏龙虾","lon":"121.573","lat":"31.34758","category":"88","category_name":"海鲜酒楼","address":"张杨路5841-5843临"},{"poiid":"B2094757D164A0FF409B","title":"基隆路3号","lon":"121.577533","lat":"31.350255","category":"47","category_name":"住宅区","address":"上海外高桥保税区基隆路3号税务局"},{"poiid":"B2094750D465A2F94093","title":"地铁港城路培训基地","lon":"121.57254","lat":"31.358087","category":"252","category_name":"楼宇机构","address":"浦东新区和龙路1099号"},{"poiid":"B2094654D46AA4F4449C","title":"浦东新区地方税务局第二十五税务所","lon":"121.57753","lat":"31.35025","category":"250","category_name":"公园户外","address":"欧高公路"},{"poiid":"B2094654DB65A0F9419C","title":"富华大楼","lon":"121.5789","lat":"31.35033","category":"46","category_name":"楼宇","address":"欧高路97"},{"poiid":"B2094757D66DABFC429C","title":"君悦豪酒店","lon":"121.577693068","lat":"31.348981143","category":"76","category_name":"上海菜","address":"上海市浦东新区张杨北路"},{"poiid":"B2094655D26FA0F94799","title":"潼港七村(东门)","lon":"121.57717","lat":"31.35009","category":"47","category_name":"住宅区","address":""},{"poiid":"B2094654D46AABFC479C","title":"苗记饺子馆","lon":"121.577278054","lat":"31.348542793","category":"68","category_name":"快餐厅","address":"浦东新区花山路(近大同路)"},{"poiid":"B2094757D768A4F8479E","title":"东北一家人 花山路店","lon":"121.576395054","lat":"31.348439793","category":"82","category_name":"东北菜","address":"浦东新区花山路715弄5号德天川菜附近(和龙路花山路)"},{"poiid":"B2094654D46AA4F44293","title":"光明乳业高南配送站","lon":"121.579","lat":"31.35027","category":"117","category_name":"便民商店/便利店","address":""},{"poiid":"B2094750D26AA7FC449D","title":"港城新苑","lon":"121.583282","lat":"31.352983","category":"47","category_name":"住宅区","address":"草高支路168弄"},{"poiid":"B2094757D66DA2FD479E","title":"济州岛传统韩国料理","lon":"121.577915068","lat":"31.3492311487","category":"247","category_name":"餐饮美食","address":"上海花山路808号"},{"poiid":"B2094751D465ABF8409E","title":"苏州老庆太羊肉馆","lon":"121.5793","lat":"31.34883","category":"75","category_name":"浙江菜","address":"浦东新区花山路800号"},{"poiid":"B2094654D46AA4F5469C","title":"海高二村","lon":"121.58173","lat":"31.350508","category":"47","category_name":"住宅区","address":"花山路1001弄1-48号"},{"poiid":"B2094757D06FA4F54492","title":"小四川水煮鱼(高桥店)","lon":"121.57752","lat":"31.35074","category":"71","category_name":"四川菜","address":"浦东新区高桥镇同港路110号(近地铁六号线港城路站)"},{"poiid":"B2094757D068A2FC4993","title":"上海正地豪生大酒店","lon":"121.5740414578504","lat":"31.34564600811117","category":"213","category_name":"五星级宾馆","address":"上海浦东新区张杨北路5658号(近花山路)"},{"poiid":"B2094655D36CA6FE4098","title":"高桥镇","lon":"121.578492","lat":"31.349224","category":"38","category_name":"公交车站","address":"上海浦东新区高桥镇"},{"poiid":"B2094655D36CA6FE4693","title":"港城路地铁站","lon":"121.57234","lat":"31.35225","category":"36","category_name":"地铁站","address":""},{"poiid":"B2094757D06FA6FD4898","title":"外高桥二期码头","lon":"121.581858","lat":"31.359955","category":"500","category_name":"未知分类","address":"上海市浦东新区港华路1299号"},{"poiid":"B2094757D068A5F4489A","title":"荷兰风情小镇","lon":"121.57858","lat":"31.337483","category":"260","category_name":"其他","address":"上海外高桥高荷路"},{"poiid":"B2094655D26AA0FA449C","title":"地铁港城路站","lon":"121.57492","lat":"31.35359","category":"36","category_name":"地铁站","address":""},{"poiid":"B2094757D06EAAFA429D","title":"地铁六号线","lon":"121.57514","lat":"31.35351","category":"36","category_name":"地铁站","address":"港城路 - 东方体育中心 上海轨道交通六号线 轨交 6"},{"poiid":"B2094757D068ABFC419B","title":"高桥公园","lon":"121.5730388","lat":"31.346113478","category":"196","category_name":"公园","address":"浦东新区高桥镇通园路269号(花山路张杨北路)"},{"poiid":"B2094654D46AABFD409C","title":"上海市高桥中学","lon":"121.58134","lat":"31.34812","category":"55","category_name":"中学","address":"浦东新区高桥镇季景北路859号"},{"poiid":"B2094654D46BA3F8499A","title":"高桥烈士陵园","lon":"121.57672","lat":"31.35764","category":"620","category_name":"丧葬","address":"浦东新区欧高路钟家弄78号"},{"poiid":"B2094654D46BA3F8499B","title":"上海市民办外高桥中学","lon":"121.57605","lat":"31.35666","category":"55","category_name":"中学","address":"浦东新区欧高路钟家弄74号"},{"poiid":"B2094757D66CA7FC4192","title":"怡心苑","lon":"121.58149289088","lat":"31.354172322681","category":"500","category_name":"未知分类","address":"上海市浦东新区花山路609弄"},{"poiid":"B2094757D16EA1FF4698","title":"海星大酒店","lon":"121.56959","lat":"31.34616","category":"76","category_name":"上海菜","address":"浦东新区高桥镇花山路321号(和龙路花山路)"},{"poiid":"B2094757D16FA6FF4993","title":"高桥胡子烧烤","lon":"121.57744406","lat":"31.351625203","category":"247","category_name":"餐饮美食","address":"上海同港路草高支路"},{"poiid":"B2094757D16DA6F94092","title":"高桥镇小学","lon":"121.578666","lat":"31.34961","category":"56","category_name":"小学","address":"上海市花山路789号"},{"poiid":"B2094654D46BA3F9429A","title":"上海浦东国安电力建设有限公司(港城路)","lon":"121.57519","lat":"31.35385","category":"263","category_name":"公司","address":"港城路800号"},{"poiid":"B2094655D36DA7FD4898","title":"张杨北路花山路","lon":"121.57317","lat":"31.34759","category":"38","category_name":"公交车站","address":"上海张杨北路5893号"},{"poiid":"B2094655D36DA7FD4798","title":"张杨北路","lon":"121.57194","lat":"31.35514","category":"38","category_name":"公交车站","address":""},{"poiid":"B2094655D36CA6FE479A","title":"港城路","lon":"121.57749","lat":"31.35179","category":"38","category_name":"公交车站","address":"屯粮巷"},{"poiid":"B2094757D168A4FD419D","title":"家弘海鲜渔庄","lon":"121.584862968","lat":"31.3507511832","category":"247","category_name":"餐饮美食","address":"上海浦东高桥镇花山路1199号"},{"poiid":"B2094655D36DA7FD479D","title":"张杨北路港城路","lon":"121.57195","lat":"31.35498","category":"38","category_name":"公交车站","address":""},{"poiid":"B2094654D46BA3F94299","title":"华发腾飞国际货运有限公司","lon":"121.57418","lat":"31.35382","category":"248","category_name":"生活娱乐","address":"港城路872"},{"poiid":"B2094654D46BA3F9429F","title":"上海新元仓储有限公司","lon":"121.57376","lat":"31.35377","category":"263","category_name":"公司","address":"港城路828号"},{"poiid":"B2094757D064A4F9449D","title":"港城路站长室","lon":"121.5748317","lat":"31.352715961","category":"500","category_name":"未知分类","address":"上海港城路车站"},{"poiid":"B2094757D16EA1FB459D","title":"景欣苑面菜馆","lon":"121.57293408","lat":"31.346654671","category":"68","category_name":"快餐厅","address":"浦东新区高桥镇花山路432号(近和龙路)"},{"poiid":"B2094757D56EA5F54599","title":"港城路站2号出口(地铁6号线)","lon":"121.575032","lat":"31.353055","category":"251","category_name":"出行住宿","address":"中国上海市浦东新区港城路"},{"poiid":"B2094654D46BA3F84993","title":"上港集箱外高桥码头","lon":"121.58197","lat":"31.36184","category":"34","category_name":"港口码头","address":"港华路1299号"},{"poiid":"B2094750DA68AAF44498","title":"滨江森林公园","lon":"121.568557","lat":"31.352237","category":"250","category_name":"公园户外","address":null},{"poiid":"B2094655D26BA3FA429A","title":"济州岛韩国小菜","lon":"121.57867","lat":"31.3496","category":"96","category_name":"韩国料理","address":"浦东新区花山路79号高桥镇小学对面(大同路口)"},{"poiid":"B2094654D46BA3F94098","title":"上海港城危险品物流有限公司","lon":"121.57214","lat":"31.35751","category":"248","category_name":"生活娱乐","address":"张杨北路6555号"},{"poiid":"B2094654DB6AA5FA469E","title":"浦东新区高桥社区卫生服务中心","lon":"121.57801","lat":"31.35041","category":"162","category_name":"医院","address":"欧高路128号"},{"poiid":"B2094654D46AABF9439F","title":"东兴苑","lon":"121.58160016617","lat":"31.353401844874","category":"47","category_name":"住宅区","address":"花山路618弄1-53号"},{"poiid":"B2094654D46AA4F4489E","title":"黔海足浴会所浪屿分店","lon":"121.57456","lat":"31.35141","category":"149","category_name":"洗浴推拿场所","address":"草高支路681号"},{"poiid":"B2094654D46AA4F44699","title":"潼港七村","lon":"121.57671","lat":"31.350018","category":"47","category_name":"住宅区","address":"花山路609弄"},{"poiid":"B2094757D16AA0F5469B","title":"公交(川张高线)","lon":"121.573375","lat":"31.351594","category":"500","category_name":"未知分类","address":"上海川沙停车厂到高桥"},{"poiid":"B2094654DB65A0FA4393","title":"段氏龙虾","lon":"121.573","lat":"31.34758","category":"88","category_name":"海鲜酒楼","address":"张杨路5841-5843临"},{"poiid":"B2094757D164A0FF409B","title":"基隆路3号","lon":"121.577533","lat":"31.350255","category":"47","category_name":"住宅区","address":"上海外高桥保税区基隆路3号税务局"},{"poiid":"B2094750D465A2F94093","title":"地铁港城路培训基地","lon":"121.57254","lat":"31.358087","category":"252","category_name":"楼宇机构","address":"浦东新区和龙路1099号"},{"poiid":"B2094654D46AA4F4449C","title":"浦东新区地方税务局第二十五税务所","lon":"121.57753","lat":"31.35025","category":"250","category_name":"公园户外","address":"欧高公路"},{"poiid":"B2094654DB65A0F9419C","title":"富华大楼","lon":"121.5789","lat":"31.35033","category":"46","category_name":"楼宇","address":"欧高路97"},{"poiid":"B2094757D66DABFC429C","title":"君悦豪酒店","lon":"121.577693068","lat":"31.348981143","category":"76","category_name":"上海菜","address":"上海市浦东新区张杨北路"},{"poiid":"B2094655D26FA0F94799","title":"潼港七村(东门)","lon":"121.57717","lat":"31.35009","category":"47","category_name":"住宅区","address":""},{"poiid":"B2094654D46AABFC479C","title":"苗记饺子馆","lon":"121.577278054","lat":"31.348542793","category":"68","category_name":"快餐厅","address":"浦东新区花山路(近大同路)"},{"poiid":"B2094757D768A4F8479E","title":"东北一家人 花山路店","lon":"121.576395054","lat":"31.348439793","category":"82","category_name":"东北菜","address":"浦东新区花山路715弄5号德天川菜附近(和龙路花山路)"},{"poiid":"B2094654D46AA4F44293","title":"光明乳业高南配送站","lon":"121.579","lat":"31.35027","category":"117","category_name":"便民商店/便利店","address":""},{"poiid":"B2094750D26AA7FC449D","title":"港城新苑","lon":"121.583282","lat":"31.352983","category":"47","category_name":"住宅区","address":"草高支路168弄"},{"poiid":"B2094757D66DA2FD479E","title":"济州岛传统韩国料理","lon":"121.577915068","lat":"31.3492311487","category":"247","category_name":"餐饮美食","address":"上海花山路808号"},{"poiid":"B2094751D465ABF8409E","title":"苏州老庆太羊肉馆","lon":"121.5793","lat":"31.34883","category":"75","category_name":"浙江菜","address":"浦东新区花山路800号"},{"poiid":"B2094654D46AA4F5469C","title":"海高二村","lon":"121.58173","lat":"31.350508","category":"47","category_name":"住宅区","address":"花山路1001弄1-48号"}]