[{"poiid":"B2094654DB6AA6FF4699","title":"上海豫园万丽酒店","lon":"121.48799","lat":"31.22754","category":"213","category_name":"五星级宾馆","address":"上海黄浦区河南南路159号(近福佑路)"},{"poiid":"B2094757D66FA6FA459E","title":"城隍庙豫园老街","lon":"121.487217235","lat":"31.2276862092","category":"260","category_name":"其他","address":"上海市黄浦区福佑路"},{"poiid":"B2094757D069AAF8499C","title":"城皇庙九曲桥","lon":"121.48767571","lat":"31.22413437","category":"250","category_name":"公园户外","address":"上海城皇庙内"},{"poiid":"B2094753D76FAAFA449C","title":"上海滩国泰旗舰店","lon":"121.466011","lat":"31.216125","category":"249","category_name":"购物服务","address":"淮海中路868号"},{"poiid":"B209475CD564A7F84292","title":"上海滩新天地店","lon":"121.47463","lat":"31.22164","category":"119","category_name":"商场","address":"\"太仓路181弄新天地北里15号\r\n\""},{"poiid":"B209475CD564A7F8439E","title":"上海滩中信泰富店","lon":"121.45602","lat":"31.22851","category":"119","category_name":"商场","address":"\"南京西路1168号中信泰富广场，店铺号221.\r\n\""},{"poiid":"B209475CD564A7F84392","title":"上海滩浦东香格里拉店","lon":"121.50058","lat":"31.23634","category":"119","category_name":"商场","address":"浦东富成路33号香格里拉酒店内大堂层"},{"poiid":"B2094750DA6FA1FC469C","title":"上海虹桥火车站","lon":"121.486068","lat":"31.225217","category":"500","category_name":"未知分类","address":null},{"poiid":"B2094757D068ABFF4592","title":"白云观","lon":"121.4838714","lat":"31.2246919829","category":"246","category_name":"回教寺","address":"黄浦区大境路239号(近青莲街)"},{"poiid":"B2094655D26FA1FE479A","title":"太阳都市花园","lon":"121.4887","lat":"31.22276","category":"47","category_name":"住宅区","address":"河南南路398弄1-4号"},{"poiid":"B2094757D06FA3FE499D","title":"松屋 西藏南路店","lon":"121.481204","lat":"31.224029","category":"95","category_name":"日本料理","address":"黄浦区西藏南路279号弘基西门町(近淮海中路)"},{"poiid":"B2094757D164A0FB4199","title":"南外滩","lon":"121.487013338","lat":"31.2261241126","category":"500","category_name":"未知分类","address":"上海中山东路"},{"poiid":"B2094757D068A3FA4692","title":"申能国际大厦","lon":"121.489","lat":"31.2239","category":"46","category_name":"楼宇","address":"丰台学城海鹰路1号,3号"},{"poiid":"B2094753D76DA0FA4292","title":"K歌之王","lon":"121.487571","lat":"31.223407","category":"247","category_name":"餐饮美食","address":"上海市 金陵东路569号5楼"},{"poiid":"B2094757D06FAAF9439A","title":"GUCCI(时代广场店)","lon":"121.484517","lat":"31.225729","category":"141","category_name":"服装鞋帽皮具店","address":"卢湾区淮海中路99号大上海时代广场大上海时代广场"},{"poiid":"B2094655D26AA4FA479B","title":"万丽轩豫园万丽店","lon":"121.48799","lat":"31.22753","category":"72","category_name":"广东菜","address":"黄浦区河南南路159号豫园万丽大酒店4楼(河南南路吴家弄)"},{"poiid":"B209475CD26BA2FC4998","title":"80后烤吧","lon":"121.484519","lat":"31.224714","category":"247","category_name":"餐饮美食","address":"上海市 亚龙广场"},{"poiid":"B2094757D069AAFF489F","title":"西施豆腐坊(方浜中路店)","lon":"121.48932","lat":"31.22406","category":"68","category_name":"快餐厅","address":"黄浦区方浜中路454号(近城隍庙豫龙坊)"},{"poiid":"B2094757D06FA2FF449B","title":"元利香辣蟹(亚龙广场店)","lon":"121.47998","lat":"31.22672","category":"71","category_name":"四川菜","address":"黄浦区金陵东路500号亚龙国际广场3楼301号商铺(近西藏南路)"},{"poiid":"B209475CD565A5FA429A","title":"80后烤吧","lon":"121.484397","lat":"31.224946","category":"247","category_name":"餐饮美食","address":"上海市 金陵中路500号亚龙国际广场3楼"},{"poiid":"B2094757D06AAAFD409F","title":"方浜路夜排档","lon":"121.48544973","lat":"31.223300152","category":"247","category_name":"餐饮美食","address":"上海市人民路方浜路"},{"poiid":"B2094655D26FA5FF4399","title":"佳日公寓","lon":"121.48738","lat":"31.224913","category":"47","category_name":"住宅区","address":"上海市黄浦区河南南路260号(近大境路)"},{"poiid":"B2094750DA64A5FF449F","title":"上海东方艺术中心","lon":"121.487915","lat":"31.222635","category":"500","category_name":"未知分类","address":null},{"poiid":"B2094757D169A5FF489C","title":"重庆小天鹅火锅","lon":"121.48479673","lat":"31.22649922","category":"500","category_name":"未知分类","address":"上海市黄浦区云南南路"},{"poiid":"B2094757D068A3FE489A","title":"东淮海公寓","lon":"121.48508","lat":"31.227438","category":"47","category_name":"住宅区","address":"上海市黄浦区人民路777弄"},{"poiid":"B2094750DB6EA6F54999","title":"美罗城","lon":"121.486221","lat":"31.223758","category":"249","category_name":"购物服务","address":"徐汇区肇嘉浜路1111号"},{"poiid":"B2094752D06EA2FC429F","title":"新天地时尚","lon":"121.485703","lat":"31.223812","category":"248","category_name":"生活娱乐","address":"新天地"},{"poiid":"B2094454D264A4FD469C","title":"很久以前只是家串店","lon":"121.485931","lat":"31.224838","category":"247","category_name":"餐饮美食","address":"上海市 云南南路184号"},{"poiid":"B2094750DA6BA4F5459E","title":"老西门","lon":"121.483703","lat":"31.224035","category":"627","category_name":"一般地点标志","address":"地铁老西门站"},{"poiid":"B209475DD16EA7FD459A","title":"很久以前只是家串店","lon":"121.485862","lat":"31.224849","category":"247","category_name":"餐饮美食","address":"上海市 云南南路180号"},{"poiid":"B2094753DB6CA4F8499A","title":"继光香香鸡（淮海东店）","lon":"121.486503","lat":"31.225032","category":"247","category_name":"餐饮美食","address":"上海市 黄浦区淮海东路58号"},{"poiid":"B2094753D26CABFB4398","title":"金茂大厦","lon":"121.485226","lat":"31.224728","category":"252","category_name":"楼宇机构","address":"上海市 上海"},{"poiid":"B2094654DB69A6F94893","title":"翠湖天地雅苑","lon":"121.48524103756","lat":"31.224243032072","category":"47","category_name":"住宅区","address":"卢湾区自忠路263号"},{"poiid":"B2094757D06BA4FD4592","title":"大城小事茶艺馆","lon":"121.48714673","lat":"31.225828206","category":"66","category_name":"茶艺馆","address":"上海徐汇区天钥桥路666号八万人体育场2号通道旁(近中山南二路)"},{"poiid":"B2094752D164A6FF439C","title":"Jean Georges","lon":"121.486628","lat":"31.225153","category":"500","category_name":"未知分类","address":"外滩3号"},{"poiid":"B2094757D16DA7FC459A","title":"壽寧路18號自家小龍蝦店","lon":"121.48472573","lat":"31.225216193","category":"500","category_name":"未知分类","address":"上海黄浦区壽寧路18號"},{"poiid":"B2094654DB6BA4F94092","title":"光明新鲜屋(露香园路)","lon":"121.48567","lat":"31.22451","category":"117","category_name":"便民商店/便利店","address":""},{"poiid":"B2094750D76EA0F8499E","title":"日式碳火烧烤","lon":"121.487","lat":"31.2234","category":"68","category_name":"快餐厅","address":"黄浦区河南南路松雪街66弄(近太阳都市花园)"},{"poiid":"B2094655D26CA7F4419C","title":"兴泰小区","lon":"121.48629","lat":"31.2253","category":"47","category_name":"住宅区","address":"大境路92弄1-8号"},{"poiid":"B2094654DA6EA5FE499F","title":"长白山保健品公司","lon":"121.48648","lat":"31.22536","category":"162","category_name":"医院","address":""},{"poiid":"B2094655D36CA3FF4092","title":"怡丰大厦","lon":"121.48759","lat":"31.22555","category":"46","category_name":"楼宇","address":"河南南路288号"},{"poiid":"B209475DD668A2FC4792","title":"上尚签成都特色料理","lon":"121.486267","lat":"31.223712","category":"247","category_name":"餐饮美食","address":"淮海东路99号（新尚数码广场507）"},{"poiid":"B2094757DB6FA6F8439D","title":"陆家浜路9地铁站","lon":"121.488546","lat":"31.222738","category":"36","category_name":"地铁站","address":"陆家浜路"},{"poiid":"B2094750D26FA5FC449E","title":"寿宁路龙虾街","lon":"121.483604","lat":"31.225391","category":"247","category_name":"餐饮美食","address":"黄浦区寿宁路9号"},{"poiid":"B2094655D26CA7F4439A","title":"开明里(大境路)","lon":"121.4859","lat":"31.22569","category":"47","category_name":"住宅区","address":"大境路97弄1-64号"},{"poiid":"B2094654DB65AAF8429F","title":"泰瑞小区","lon":"121.48695","lat":"31.225359","category":"47","category_name":"住宅区","address":"黄浦区大境路58号"},{"poiid":"B2094757D16EA0F4429C","title":"彭浦第一炸(寿宁路店)","lon":"121.483581738","lat":"31.2253271956","category":"68","category_name":"快餐厅","address":"黄浦区寿宁路13号(近西藏南路)"},{"poiid":"B209475CD46CA3FD479B","title":"house时尚火锅","lon":"121.485","lat":"31.225223","category":"247","category_name":"餐饮美食","address":"上海市 金陵路"},{"poiid":"B2094654DB6BA4F9419B","title":"太阳都市花园西门","lon":"121.48741","lat":"31.2241","category":"47","category_name":"住宅区","address":""},{"poiid":"B2094654DB65A2FE429E","title":"联皓综合商店","lon":"121.48551","lat":"31.22496","category":"117","category_name":"便民商店/便利店","address":"露香园路167"},{"poiid":"B2094654DB6AA6FF4699","title":"上海豫园万丽酒店","lon":"121.48799","lat":"31.22754","category":"213","category_name":"五星级宾馆","address":"上海黄浦区河南南路159号(近福佑路)"},{"poiid":"B2094757D66FA6FA459E","title":"城隍庙豫园老街","lon":"121.487217235","lat":"31.2276862092","category":"260","category_name":"其他","address":"上海市黄浦区福佑路"},{"poiid":"B2094757D069AAF8499C","title":"城皇庙九曲桥","lon":"121.48767571","lat":"31.22413437","category":"250","category_name":"公园户外","address":"上海城皇庙内"},{"poiid":"B2094753D76FAAFA449C","title":"上海滩国泰旗舰店","lon":"121.466011","lat":"31.216125","category":"249","category_name":"购物服务","address":"淮海中路868号"},{"poiid":"B209475CD564A7F84292","title":"上海滩新天地店","lon":"121.47463","lat":"31.22164","category":"119","category_name":"商场","address":"\"太仓路181弄新天地北里15号\r\n\""},{"poiid":"B209475CD564A7F8439E","title":"上海滩中信泰富店","lon":"121.45602","lat":"31.22851","category":"119","category_name":"商场","address":"\"南京西路1168号中信泰富广场，店铺号221.\r\n\""},{"poiid":"B209475CD564A7F84392","title":"上海滩浦东香格里拉店","lon":"121.50058","lat":"31.23634","category":"119","category_name":"商场","address":"浦东富成路33号香格里拉酒店内大堂层"},{"poiid":"B2094750DA6FA1FC469C","title":"上海虹桥火车站","lon":"121.486068","lat":"31.225217","category":"500","category_name":"未知分类","address":null},{"poiid":"B2094757D068ABFF4592","title":"白云观","lon":"121.4838714","lat":"31.2246919829","category":"246","category_name":"回教寺","address":"黄浦区大境路239号(近青莲街)"},{"poiid":"B2094655D26FA1FE479A","title":"太阳都市花园","lon":"121.4887","lat":"31.22276","category":"47","category_name":"住宅区","address":"河南南路398弄1-4号"},{"poiid":"B2094757D06FA3FE499D","title":"松屋 西藏南路店","lon":"121.481204","lat":"31.224029","category":"95","category_name":"日本料理","address":"黄浦区西藏南路279号弘基西门町(近淮海中路)"},{"poiid":"B2094757D164A0FB4199","title":"南外滩","lon":"121.487013338","lat":"31.2261241126","category":"500","category_name":"未知分类","address":"上海中山东路"},{"poiid":"B2094757D068A3FA4692","title":"申能国际大厦","lon":"121.489","lat":"31.2239","category":"46","category_name":"楼宇","address":"丰台学城海鹰路1号,3号"},{"poiid":"B2094753D76DA0FA4292","title":"K歌之王","lon":"121.487571","lat":"31.223407","category":"247","category_name":"餐饮美食","address":"上海市 金陵东路569号5楼"},{"poiid":"B2094757D06FAAF9439A","title":"GUCCI(时代广场店)","lon":"121.484517","lat":"31.225729","category":"141","category_name":"服装鞋帽皮具店","address":"卢湾区淮海中路99号大上海时代广场大上海时代广场"},{"poiid":"B2094655D26AA4FA479B","title":"万丽轩豫园万丽店","lon":"121.48799","lat":"31.22753","category":"72","category_name":"广东菜","address":"黄浦区河南南路159号豫园万丽大酒店4楼(河南南路吴家弄)"},{"poiid":"B209475CD26BA2FC4998","title":"80后烤吧","lon":"121.484519","lat":"31.224714","category":"247","category_name":"餐饮美食","address":"上海市 亚龙广场"},{"poiid":"B2094757D069AAFF489F","title":"西施豆腐坊(方浜中路店)","lon":"121.48932","lat":"31.22406","category":"68","category_name":"快餐厅","address":"黄浦区方浜中路454号(近城隍庙豫龙坊)"},{"poiid":"B2094757D06FA2FF449B","title":"元利香辣蟹(亚龙广场店)","lon":"121.47998","lat":"31.22672","category":"71","category_name":"四川菜","address":"黄浦区金陵东路500号亚龙国际广场3楼301号商铺(近西藏南路)"},{"poiid":"B209475CD565A5FA429A","title":"80后烤吧","lon":"121.484397","lat":"31.224946","category":"247","category_name":"餐饮美食","address":"上海市 金陵中路500号亚龙国际广场3楼"},{"poiid":"B2094757D06AAAFD409F","title":"方浜路夜排档","lon":"121.48544973","lat":"31.223300152","category":"247","category_name":"餐饮美食","address":"上海市人民路方浜路"},{"poiid":"B2094655D26FA5FF4399","title":"佳日公寓","lon":"121.48738","lat":"31.224913","category":"47","category_name":"住宅区","address":"上海市黄浦区河南南路260号(近大境路)"},{"poiid":"B2094750DA64A5FF449F","title":"上海东方艺术中心","lon":"121.487915","lat":"31.222635","category":"500","category_name":"未知分类","address":null},{"poiid":"B2094757D169A5FF489C","title":"重庆小天鹅火锅","lon":"121.48479673","lat":"31.22649922","category":"500","category_name":"未知分类","address":"上海市黄浦区云南南路"},{"poiid":"B2094757D068A3FE489A","title":"东淮海公寓","lon":"121.48508","lat":"31.227438","category":"47","category_name":"住宅区","address":"上海市黄浦区人民路777弄"},{"poiid":"B2094750DB6EA6F54999","title":"美罗城","lon":"121.486221","lat":"31.223758","category":"249","category_name":"购物服务","address":"徐汇区肇嘉浜路1111号"},{"poiid":"B2094752D06EA2FC429F","title":"新天地时尚","lon":"121.485703","lat":"31.223812","category":"248","category_name":"生活娱乐","address":"新天地"},{"poiid":"B2094454D264A4FD469C","title":"很久以前只是家串店","lon":"121.485931","lat":"31.224838","category":"247","category_name":"餐饮美食","address":"上海市 云南南路184号"},{"poiid":"B2094750DA6BA4F5459E","title":"老西门","lon":"121.483703","lat":"31.224035","category":"627","category_name":"一般地点标志","address":"地铁老西门站"},{"poiid":"B209475DD16EA7FD459A","title":"很久以前只是家串店","lon":"121.485862","lat":"31.224849","category":"247","category_name":"餐饮美食","address":"上海市 云南南路180号"},{"poiid":"B2094753DB6CA4F8499A","title":"继光香香鸡（淮海东店）","lon":"121.486503","lat":"31.225032","category":"247","category_name":"餐饮美食","address":"上海市 黄浦区淮海东路58号"},{"poiid":"B2094753D26CABFB4398","title":"金茂大厦","lon":"121.485226","lat":"31.224728","category":"252","category_name":"楼宇机构","address":"上海市 上海"},{"poiid":"B2094654DB69A6F94893","title":"翠湖天地雅苑","lon":"121.48524103756","lat":"31.224243032072","category":"47","category_name":"住宅区","address":"卢湾区自忠路263号"},{"poiid":"B2094757D06BA4FD4592","title":"大城小事茶艺馆","lon":"121.48714673","lat":"31.225828206","category":"66","category_name":"茶艺馆","address":"上海徐汇区天钥桥路666号八万人体育场2号通道旁(近中山南二路)"},{"poiid":"B2094752D164A6FF439C","title":"Jean Georges","lon":"121.486628","lat":"31.225153","category":"500","category_name":"未知分类","address":"外滩3号"},{"poiid":"B2094757D16DA7FC459A","title":"壽寧路18號自家小龍蝦店","lon":"121.48472573","lat":"31.225216193","category":"500","category_name":"未知分类","address":"上海黄浦区壽寧路18號"},{"poiid":"B2094654DB6BA4F94092","title":"光明新鲜屋(露香园路)","lon":"121.48567","lat":"31.22451","category":"117","category_name":"便民商店/便利店","address":""},{"poiid":"B2094750D76EA0F8499E","title":"日式碳火烧烤","lon":"121.487","lat":"31.2234","category":"68","category_name":"快餐厅","address":"黄浦区河南南路松雪街66弄(近太阳都市花园)"},{"poiid":"B2094655D26CA7F4419C","title":"兴泰小区","lon":"121.48629","lat":"31.2253","category":"47","category_name":"住宅区","address":"大境路92弄1-8号"},{"poiid":"B2094654DA6EA5FE499F","title":"长白山保健品公司","lon":"121.48648","lat":"31.22536","category":"162","category_name":"医院","address":""},{"poiid":"B2094655D36CA3FF4092","title":"怡丰大厦","lon":"121.48759","lat":"31.22555","category":"46","category_name":"楼宇","address":"河南南路288号"},{"poiid":"B209475DD668A2FC4792","title":"上尚签成都特色料理","lon":"121.486267","lat":"31.223712","category":"247","category_name":"餐饮美食","address":"淮海东路99号（新尚数码广场507）"},{"poiid":"B2094757DB6FA6F8439D","title":"陆家浜路9地铁站","lon":"121.488546","lat":"31.222738","category":"36","category_name":"地铁站","address":"陆家浜路"},{"poiid":"B2094750D26FA5FC449E","title":"寿宁路龙虾街","lon":"121.483604","lat":"31.225391","category":"247","category_name":"餐饮美食","address":"黄浦区寿宁路9号"},{"poiid":"B2094655D26CA7F4439A","title":"开明里(大境路)","lon":"121.4859","lat":"31.22569","category":"47","category_name":"住宅区","address":"大境路97弄1-64号"},{"poiid":"B2094654DB65AAF8429F","title":"泰瑞小区","lon":"121.48695","lat":"31.225359","category":"47","category_name":"住宅区","address":"黄浦区大境路58号"},{"poiid":"B2094757D16EA0F4429C","title":"彭浦第一炸(寿宁路店)","lon":"121.483581738","lat":"31.2253271956","category":"68","category_name":"快餐厅","address":"黄浦区寿宁路13号(近西藏南路)"},{"poiid":"B209475CD46CA3FD479B","title":"house时尚火锅","lon":"121.485","lat":"31.225223","category":"247","category_name":"餐饮美食","address":"上海市 金陵路"},{"poiid":"B2094654DB6BA4F9419B","title":"太阳都市花园西门","lon":"121.48741","lat":"31.2241","category":"47","category_name":"住宅区","address":""},{"poiid":"B2094654DB65A2FE429E","title":"联皓综合商店","lon":"121.48551","lat":"31.22496","category":"117","category_name":"便民商店/便利店","address":"露香园路167"},{"poiid":"B2094654DB6AA6FF4699","title":"上海豫园万丽酒店","lon":"121.48799","lat":"31.22754","category":"213","category_name":"五星级宾馆","address":"上海黄浦区河南南路159号(近福佑路)"},{"poiid":"B2094757D66FA6FA459E","title":"城隍庙豫园老街","lon":"121.487217235","lat":"31.2276862092","category":"260","category_name":"其他","address":"上海市黄浦区福佑路"},{"poiid":"B2094757D069AAF8499C","title":"城皇庙九曲桥","lon":"121.48767571","lat":"31.22413437","category":"250","category_name":"公园户外","address":"上海城皇庙内"},{"poiid":"B2094753D76FAAFA449C","title":"上海滩国泰旗舰店","lon":"121.466011","lat":"31.216125","category":"249","category_name":"购物服务","address":"淮海中路868号"},{"poiid":"B209475CD564A7F84292","title":"上海滩新天地店","lon":"121.47463","lat":"31.22164","category":"119","category_name":"商场","address":"\"太仓路181弄新天地北里15号\r\n\""},{"poiid":"B209475CD564A7F8439E","title":"上海滩中信泰富店","lon":"121.45602","lat":"31.22851","category":"119","category_name":"商场","address":"\"南京西路1168号中信泰富广场，店铺号221.\r\n\""},{"poiid":"B209475CD564A7F84392","title":"上海滩浦东香格里拉店","lon":"121.50058","lat":"31.23634","category":"119","category_name":"商场","address":"浦东富成路33号香格里拉酒店内大堂层"},{"poiid":"B2094750DA6FA1FC469C","title":"上海虹桥火车站","lon":"121.486068","lat":"31.225217","category":"500","category_name":"未知分类","address":null},{"poiid":"B2094757D068ABFF4592","title":"白云观","lon":"121.4838714","lat":"31.2246919829","category":"246","category_name":"回教寺","address":"黄浦区大境路239号(近青莲街)"},{"poiid":"B2094655D26FA1FE479A","title":"太阳都市花园","lon":"121.4887","lat":"31.22276","category":"47","category_name":"住宅区","address":"河南南路398弄1-4号"},{"poiid":"B2094757D06FA3FE499D","title":"松屋 西藏南路店","lon":"121.481204","lat":"31.224029","category":"95","category_name":"日本料理","address":"黄浦区西藏南路279号弘基西门町(近淮海中路)"},{"poiid":"B2094757D164A0FB4199","title":"南外滩","lon":"121.487013338","lat":"31.2261241126","category":"500","category_name":"未知分类","address":"上海中山东路"},{"poiid":"B2094757D068A3FA4692","title":"申能国际大厦","lon":"121.489","lat":"31.2239","category":"46","category_name":"楼宇","address":"丰台学城海鹰路1号,3号"},{"poiid":"B2094753D76DA0FA4292","title":"K歌之王","lon":"121.487571","lat":"31.223407","category":"247","category_name":"餐饮美食","address":"上海市 金陵东路569号5楼"},{"poiid":"B2094757D06FAAF9439A","title":"GUCCI(时代广场店)","lon":"121.484517","lat":"31.225729","category":"141","category_name":"服装鞋帽皮具店","address":"卢湾区淮海中路99号大上海时代广场大上海时代广场"},{"poiid":"B2094655D26AA4FA479B","title":"万丽轩豫园万丽店","lon":"121.48799","lat":"31.22753","category":"72","category_name":"广东菜","address":"黄浦区河南南路159号豫园万丽大酒店4楼(河南南路吴家弄)"},{"poiid":"B209475CD26BA2FC4998","title":"80后烤吧","lon":"121.484519","lat":"31.224714","category":"247","category_name":"餐饮美食","address":"上海市 亚龙广场"},{"poiid":"B2094757D069AAFF489F","title":"西施豆腐坊(方浜中路店)","lon":"121.48932","lat":"31.22406","category":"68","category_name":"快餐厅","address":"黄浦区方浜中路454号(近城隍庙豫龙坊)"},{"poiid":"B2094757D06FA2FF449B","title":"元利香辣蟹(亚龙广场店)","lon":"121.47998","lat":"31.22672","category":"71","category_name":"四川菜","address":"黄浦区金陵东路500号亚龙国际广场3楼301号商铺(近西藏南路)"},{"poiid":"B209475CD565A5FA429A","title":"80后烤吧","lon":"121.484397","lat":"31.224946","category":"247","category_name":"餐饮美食","address":"上海市 金陵中路500号亚龙国际广场3楼"},{"poiid":"B2094757D06AAAFD409F","title":"方浜路夜排档","lon":"121.48544973","lat":"31.223300152","category":"247","category_name":"餐饮美食","address":"上海市人民路方浜路"},{"poiid":"B2094655D26FA5FF4399","title":"佳日公寓","lon":"121.48738","lat":"31.224913","category":"47","category_name":"住宅区","address":"上海市黄浦区河南南路260号(近大境路)"},{"poiid":"B2094750DA64A5FF449F","title":"上海东方艺术中心","lon":"121.487915","lat":"31.222635","category":"500","category_name":"未知分类","address":null},{"poiid":"B2094757D169A5FF489C","title":"重庆小天鹅火锅","lon":"121.48479673","lat":"31.22649922","category":"500","category_name":"未知分类","address":"上海市黄浦区云南南路"},{"poiid":"B2094757D068A3FE489A","title":"东淮海公寓","lon":"121.48508","lat":"31.227438","category":"47","category_name":"住宅区","address":"上海市黄浦区人民路777弄"},{"poiid":"B2094750DB6EA6F54999","title":"美罗城","lon":"121.486221","lat":"31.223758","category":"249","category_name":"购物服务","address":"徐汇区肇嘉浜路1111号"},{"poiid":"B2094752D06EA2FC429F","title":"新天地时尚","lon":"121.485703","lat":"31.223812","category":"248","category_name":"生活娱乐","address":"新天地"},{"poiid":"B2094454D264A4FD469C","title":"很久以前只是家串店","lon":"121.485931","lat":"31.224838","category":"247","category_name":"餐饮美食","address":"上海市 云南南路184号"},{"poiid":"B2094750DA6BA4F5459E","title":"老西门","lon":"121.483703","lat":"31.224035","category":"627","category_name":"一般地点标志","address":"地铁老西门站"},{"poiid":"B209475DD16EA7FD459A","title":"很久以前只是家串店","lon":"121.485862","lat":"31.224849","category":"247","category_name":"餐饮美食","address":"上海市 云南南路180号"},{"poiid":"B2094753DB6CA4F8499A","title":"继光香香鸡（淮海东店）","lon":"121.486503","lat":"31.225032","category":"247","category_name":"餐饮美食","address":"上海市 黄浦区淮海东路58号"},{"poiid":"B2094753D26CABFB4398","title":"金茂大厦","lon":"121.485226","lat":"31.224728","category":"252","category_name":"楼宇机构","address":"上海市 上海"},{"poiid":"B2094654DB69A6F94893","title":"翠湖天地雅苑","lon":"121.48524103756","lat":"31.224243032072","category":"47","category_name":"住宅区","address":"卢湾区自忠路263号"},{"poiid":"B2094757D06BA4FD4592","title":"大城小事茶艺馆","lon":"121.48714673","lat":"31.225828206","category":"66","category_name":"茶艺馆","address":"上海徐汇区天钥桥路666号八万人体育场2号通道旁(近中山南二路)"},{"poiid":"B2094752D164A6FF439C","title":"Jean Georges","lon":"121.486628","lat":"31.225153","category":"500","category_name":"未知分类","address":"外滩3号"},{"poiid":"B2094757D16DA7FC459A","title":"壽寧路18號自家小龍蝦店","lon":"121.48472573","lat":"31.225216193","category":"500","category_name":"未知分类","address":"上海黄浦区壽寧路18號"},{"poiid":"B2094654DB6BA4F94092","title":"光明新鲜屋(露香园路)","lon":"121.48567","lat":"31.22451","category":"117","category_name":"便民商店/便利店","address":""},{"poiid":"B2094750D76EA0F8499E","title":"日式碳火烧烤","lon":"121.487","lat":"31.2234","category":"68","category_name":"快餐厅","address":"黄浦区河南南路松雪街66弄(近太阳都市花园)"},{"poiid":"B2094655D26CA7F4419C","title":"兴泰小区","lon":"121.48629","lat":"31.2253","category":"47","category_name":"住宅区","address":"大境路92弄1-8号"},{"poiid":"B2094654DA6EA5FE499F","title":"长白山保健品公司","lon":"121.48648","lat":"31.22536","category":"162","category_name":"医院","address":""},{"poiid":"B2094655D36CA3FF4092","title":"怡丰大厦","lon":"121.48759","lat":"31.22555","category":"46","category_name":"楼宇","address":"河南南路288号"},{"poiid":"B209475DD668A2FC4792","title":"上尚签成都特色料理","lon":"121.486267","lat":"31.223712","category":"247","category_name":"餐饮美食","address":"淮海东路99号（新尚数码广场507）"},{"poiid":"B2094757DB6FA6F8439D","title":"陆家浜路9地铁站","lon":"121.488546","lat":"31.222738","category":"36","category_name":"地铁站","address":"陆家浜路"},{"poiid":"B2094750D26FA5FC449E","title":"寿宁路龙虾街","lon":"121.483604","lat":"31.225391","category":"247","category_name":"餐饮美食","address":"黄浦区寿宁路9号"},{"poiid":"B2094655D26CA7F4439A","title":"开明里(大境路)","lon":"121.4859","lat":"31.22569","category":"47","category_name":"住宅区","address":"大境路97弄1-64号"},{"poiid":"B2094654DB65AAF8429F","title":"泰瑞小区","lon":"121.48695","lat":"31.225359","category":"47","category_name":"住宅区","address":"黄浦区大境路58号"},{"poiid":"B2094757D16EA0F4429C","title":"彭浦第一炸(寿宁路店)","lon":"121.483581738","lat":"31.2253271956","category":"68","category_name":"快餐厅","address":"黄浦区寿宁路13号(近西藏南路)"},{"poiid":"B209475CD46CA3FD479B","title":"house时尚火锅","lon":"121.485","lat":"31.225223","category":"247","category_name":"餐饮美食","address":"上海市 金陵路"},{"poiid":"B2094654DB6BA4F9419B","title":"太阳都市花园西门","lon":"121.48741","lat":"31.2241","category":"47","category_name":"住宅区","address":""},{"poiid":"B2094654DB65A2FE429E","title":"联皓综合商店","lon":"121.48551","lat":"31.22496","category":"117","category_name":"便民商店/便利店","address":"露香园路167"},{"poiid":"B2094654DB6AA6FF4699","title":"上海豫园万丽酒店","lon":"121.48799","lat":"31.22754","category":"213","category_name":"五星级宾馆","address":"上海黄浦区河南南路159号(近福佑路)"},{"poiid":"B2094757D66FA6FA459E","title":"城隍庙豫园老街","lon":"121.487217235","lat":"31.2276862092","category":"260","category_name":"其他","address":"上海市黄浦区福佑路"},{"poiid":"B2094757D069AAF8499C","title":"城皇庙九曲桥","lon":"121.48767571","lat":"31.22413437","category":"250","category_name":"公园户外","address":"上海城皇庙内"},{"poiid":"B2094753D76FAAFA449C","title":"上海滩国泰旗舰店","lon":"121.466011","lat":"31.216125","category":"249","category_name":"购物服务","address":"淮海中路868号"},{"poiid":"B209475CD564A7F84292","title":"上海滩新天地店","lon":"121.47463","lat":"31.22164","category":"119","category_name":"商场","address":"\"太仓路181弄新天地北里15号\r\n\""},{"poiid":"B209475CD564A7F8439E","title":"上海滩中信泰富店","lon":"121.45602","lat":"31.22851","category":"119","category_name":"商场","address":"\"南京西路1168号中信泰富广场，店铺号221.\r\n\""},{"poiid":"B209475CD564A7F84392","title":"上海滩浦东香格里拉店","lon":"121.50058","lat":"31.23634","category":"119","category_name":"商场","address":"浦东富成路33号香格里拉酒店内大堂层"},{"poiid":"B2094750DA6FA1FC469C","title":"上海虹桥火车站","lon":"121.486068","lat":"31.225217","category":"500","category_name":"未知分类","address":null},{"poiid":"B2094757D068ABFF4592","title":"白云观","lon":"121.4838714","lat":"31.2246919829","category":"246","category_name":"回教寺","address":"黄浦区大境路239号(近青莲街)"},{"poiid":"B2094655D26FA1FE479A","title":"太阳都市花园","lon":"121.4887","lat":"31.22276","category":"47","category_name":"住宅区","address":"河南南路398弄1-4号"},{"poiid":"B2094757D06FA3FE499D","title":"松屋 西藏南路店","lon":"121.481204","lat":"31.224029","category":"95","category_name":"日本料理","address":"黄浦区西藏南路279号弘基西门町(近淮海中路)"},{"poiid":"B2094757D164A0FB4199","title":"南外滩","lon":"121.487013338","lat":"31.2261241126","category":"500","category_name":"未知分类","address":"上海中山东路"},{"poiid":"B2094757D068A3FA4692","title":"申能国际大厦","lon":"121.489","lat":"31.2239","category":"46","category_name":"楼宇","address":"丰台学城海鹰路1号,3号"},{"poiid":"B2094753D76DA0FA4292","title":"K歌之王","lon":"121.487571","lat":"31.223407","category":"247","category_name":"餐饮美食","address":"上海市 金陵东路569号5楼"},{"poiid":"B2094757D06FAAF9439A","title":"GUCCI(时代广场店)","lon":"121.484517","lat":"31.225729","category":"141","category_name":"服装鞋帽皮具店","address":"卢湾区淮海中路99号大上海时代广场大上海时代广场"},{"poiid":"B2094655D26AA4FA479B","title":"万丽轩豫园万丽店","lon":"121.48799","lat":"31.22753","category":"72","category_name":"广东菜","address":"黄浦区河南南路159号豫园万丽大酒店4楼(河南南路吴家弄)"},{"poiid":"B209475CD26BA2FC4998","title":"80后烤吧","lon":"121.484519","lat":"31.224714","category":"247","category_name":"餐饮美食","address":"上海市 亚龙广场"},{"poiid":"B2094757D069AAFF489F","title":"西施豆腐坊(方浜中路店)","lon":"121.48932","lat":"31.22406","category":"68","category_name":"快餐厅","address":"黄浦区方浜中路454号(近城隍庙豫龙坊)"},{"poiid":"B2094757D06FA2FF449B","title":"元利香辣蟹(亚龙广场店)","lon":"121.47998","lat":"31.22672","category":"71","category_name":"四川菜","address":"黄浦区金陵东路500号亚龙国际广场3楼301号商铺(近西藏南路)"},{"poiid":"B209475CD565A5FA429A","title":"80后烤吧","lon":"121.484397","lat":"31.224946","category":"247","category_name":"餐饮美食","address":"上海市 金陵中路500号亚龙国际广场3楼"},{"poiid":"B2094757D06AAAFD409F","title":"方浜路夜排档","lon":"121.48544973","lat":"31.223300152","category":"247","category_name":"餐饮美食","address":"上海市人民路方浜路"},{"poiid":"B2094655D26FA5FF4399","title":"佳日公寓","lon":"121.48738","lat":"31.224913","category":"47","category_name":"住宅区","address":"上海市黄浦区河南南路260号(近大境路)"},{"poiid":"B2094750DA64A5FF449F","title":"上海东方艺术中心","lon":"121.487915","lat":"31.222635","category":"500","category_name":"未知分类","address":null},{"poiid":"B2094757D169A5FF489C","title":"重庆小天鹅火锅","lon":"121.48479673","lat":"31.22649922","category":"500","category_name":"未知分类","address":"上海市黄浦区云南南路"},{"poiid":"B2094757D068A3FE489A","title":"东淮海公寓","lon":"121.48508","lat":"31.227438","category":"47","category_name":"住宅区","address":"上海市黄浦区人民路777弄"},{"poiid":"B2094750DB6EA6F54999","title":"美罗城","lon":"121.486221","lat":"31.223758","category":"249","category_name":"购物服务","address":"徐汇区肇嘉浜路1111号"},{"poiid":"B2094752D06EA2FC429F","title":"新天地时尚","lon":"121.485703","lat":"31.223812","category":"248","category_name":"生活娱乐","address":"新天地"},{"poiid":"B2094454D264A4FD469C","title":"很久以前只是家串店","lon":"121.485931","lat":"31.224838","category":"247","category_name":"餐饮美食","address":"上海市 云南南路184号"},{"poiid":"B2094750DA6BA4F5459E","title":"老西门","lon":"121.483703","lat":"31.224035","category":"627","category_name":"一般地点标志","address":"地铁老西门站"},{"poiid":"B209475DD16EA7FD459A","title":"很久以前只是家串店","lon":"121.485862","lat":"31.224849","category":"247","category_name":"餐饮美食","address":"上海市 云南南路180号"},{"poiid":"B2094753DB6CA4F8499A","title":"继光香香鸡（淮海东店）","lon":"121.486503","lat":"31.225032","category":"247","category_name":"餐饮美食","address":"上海市 黄浦区淮海东路58号"},{"poiid":"B2094753D26CABFB4398","title":"金茂大厦","lon":"121.485226","lat":"31.224728","category":"252","category_name":"楼宇机构","address":"上海市 上海"},{"poiid":"B2094654DB69A6F94893","title":"翠湖天地雅苑","lon":"121.48524103756","lat":"31.224243032072","category":"47","category_name":"住宅区","address":"卢湾区自忠路263号"},{"poiid":"B2094757D06BA4FD4592","title":"大城小事茶艺馆","lon":"121.48714673","lat":"31.225828206","category":"66","category_name":"茶艺馆","address":"上海徐汇区天钥桥路666号八万人体育场2号通道旁(近中山南二路)"},{"poiid":"B2094752D164A6FF439C","title":"Jean Georges","lon":"121.486628","lat":"31.225153","category":"500","category_name":"未知分类","address":"外滩3号"},{"poiid":"B2094757D16DA7FC459A","title":"壽寧路18號自家小龍蝦店","lon":"121.48472573","lat":"31.225216193","category":"500","category_name":"未知分类","address":"上海黄浦区壽寧路18號"},{"poiid":"B2094654DB6BA4F94092","title":"光明新鲜屋(露香园路)","lon":"121.48567","lat":"31.22451","category":"117","category_name":"便民商店/便利店","address":""},{"poiid":"B2094750D76EA0F8499E","title":"日式碳火烧烤","lon":"121.487","lat":"31.2234","category":"68","category_name":"快餐厅","address":"黄浦区河南南路松雪街66弄(近太阳都市花园)"},{"poiid":"B2094655D26CA7F4419C","title":"兴泰小区","lon":"121.48629","lat":"31.2253","category":"47","category_name":"住宅区","address":"大境路92弄1-8号"},{"poiid":"B2094654DA6EA5FE499F","title":"长白山保健品公司","lon":"121.48648","lat":"31.22536","category":"162","category_name":"医院","address":""},{"poiid":"B2094655D36CA3FF4092","title":"怡丰大厦","lon":"121.48759","lat":"31.22555","category":"46","category_name":"楼宇","address":"河南南路288号"},{"poiid":"B209475DD668A2FC4792","title":"上尚签成都特色料理","lon":"121.486267","lat":"31.223712","category":"247","category_name":"餐饮美食","address":"淮海东路99号（新尚数码广场507）"},{"poiid":"B2094757DB6FA6F8439D","title":"陆家浜路9地铁站","lon":"121.488546","lat":"31.222738","category":"36","category_name":"地铁站","address":"陆家浜路"},{"poiid":"B2094750D26FA5FC449E","title":"寿宁路龙虾街","lon":"121.483604","lat":"31.225391","category":"247","category_name":"餐饮美食","address":"黄浦区寿宁路9号"},{"poiid":"B2094655D26CA7F4439A","title":"开明里(大境路)","lon":"121.4859","lat":"31.22569","category":"47","category_name":"住宅区","address":"大境路97弄1-64号"},{"poiid":"B2094654DB65AAF8429F","title":"泰瑞小区","lon":"121.48695","lat":"31.225359","category":"47","category_name":"住宅区","address":"黄浦区大境路58号"},{"poiid":"B2094757D16EA0F4429C","title":"彭浦第一炸(寿宁路店)","lon":"121.483581738","lat":"31.2253271956","category":"68","category_name":"快餐厅","address":"黄浦区寿宁路13号(近西藏南路)"},{"poiid":"B209475CD46CA3FD479B","title":"house时尚火锅","lon":"121.485","lat":"31.225223","category":"247","category_name":"餐饮美食","address":"上海市 金陵路"},{"poiid":"B2094654DB6BA4F9419B","title":"太阳都市花园西门","lon":"121.48741","lat":"31.2241","category":"47","category_name":"住宅区","address":""},{"poiid":"B2094654DB65A2FE429E","title":"联皓综合商店","lon":"121.48551","lat":"31.22496","category":"117","category_name":"便民商店/便利店","address":"露香园路167"}]