[{"poiid":"B2094757D06FA1FF4798","title":"上海电力学院(南汇校区)","lon":"121.78842","lat":"31.04788","category":"52","category_name":"高等院校","address":"浦东新区学海路28号(近拱极路)"},{"poiid":"B2094757D06FA4FB409C","title":"富客斯豪布斯卡名品村","lon":"121.781","lat":"31.0551","category":"500","category_name":"未知分类","address":"浦东新区惠南镇人民东路2635弄(近靖海路)"},{"poiid":"B2094757D06AA0FE499C","title":"南汇体育中心","lon":"121.78353815","lat":"31.054417856","category":"220","category_name":"运动场所","address":"上海市浦东新区南汇惠南镇观海路1000号"},{"poiid":"B2094655D268A7FB429D","title":"上海电力学院大学生生活园区","lon":"121.78547","lat":"31.050335","category":"47","category_name":"住宅区","address":""},{"poiid":"B2094757D06BAAFC439F","title":"南汇中学","lon":"121.78808","lat":"31.05649","category":"55","category_name":"中学","address":"浦东新区惠南镇学海路288号(近南汇大学城)"},{"poiid":"B2094757D16CA5F4459D","title":"上海电力学院(南汇校区)图书馆","lon":"121.786394557","lat":"31.0494882038","category":"181","category_name":"图书馆","address":"上海南汇区惠南镇学海路28号"},{"poiid":"B2094654DB64AAFE429A","title":"成日新墅","lon":"121.81022","lat":"31.06057","category":"47","category_name":"住宅区","address":"滴翠路888弄"},{"poiid":"B2094757D66DA6FB479C","title":"南汇麦当劳","lon":"121.79745176","lat":"31.071766743","category":"500","category_name":"未知分类","address":"上海南汇城东路932号"},{"poiid":"B2094654DB6FA4F44193","title":"上海浦东中港高尔夫俱乐部","lon":"121.80297","lat":"31.05184","category":"206","category_name":"高尔夫相关","address":"浦东新区惠南镇盐大公路128号"},{"poiid":"B2094757D165A5FB499D","title":"祝桥镇","lon":"121.79984196","lat":"31.072326555","category":"500","category_name":"未知分类","address":"上海六如村"},{"poiid":"B2094654DB64A5F94792","title":"太平洋(衡山)会议中心","lon":"121.78648","lat":"31.06017","category":"185","category_name":"会展中心","address":"学海路328号"},{"poiid":"B2094654DB6FA6F84499","title":"现代农业园区","lon":"121.79946","lat":"31.05286","category":"45","category_name":"产业园区","address":""},{"poiid":"B2094655D36DA0FF469F","title":"学海路拱北路","lon":"121.78641","lat":"31.05797","category":"38","category_name":"公交车站","address":""},{"poiid":"B2094655D26BA7FA459E","title":"G1501拱极路收费站","lon":"121.79049","lat":"31.05418","category":"267","category_name":"收费站","address":""},{"poiid":"B2094654DB6FA6F8429B","title":"盐仓镇高宅村社区文化活动中心","lon":"121.79463","lat":"31.07323","category":"248","category_name":"生活娱乐","address":""},{"poiid":"B2094757D16FA1FB4898","title":"上海电力学院南汇校区北1教","lon":"121.789692363","lat":"31.0525979174","category":"500","category_name":"未知分类","address":"上海市浦东新区惠南镇学海路28号北1教"},{"poiid":"B2094654DB6FA6FA499D","title":"羽毛球乒乓球馆","lon":"121.78501","lat":"31.05505","category":"225","category_name":"乒乓球馆","address":""},{"poiid":"B2094757DA6EABF4419C","title":"上海电力学院南汇生活园区","lon":"121.784389000002","lat":"31.0498499999999","category":"253","category_name":"校园生活","address":"浦东新区惠南镇人民东路22号"},{"poiid":"B2094654DB6FA6F9449B","title":"复旦大学太平洋金融学院","lon":"121.78161","lat":"31.05781","category":"671","category_name":"高校中心点","address":"浦东新区惠南镇拱北路168号"},{"poiid":"B2094655D36DA2FC439D","title":"拱极路桥","lon":"121.78936","lat":"31.05315","category":"250","category_name":"公园户外","address":""},{"poiid":"B2094757D66EAAF9499B","title":"南汇游泳馆","lon":"121.78478126","lat":"31.055395079","category":"220","category_name":"运动场所","address":"上海浦东新区观海路1000号"},{"poiid":"B2094655D36DA2FC429A","title":"六如桥","lon":"121.80873","lat":"31.0739","category":"250","category_name":"公园户外","address":""},{"poiid":"B2094757D66CA2F84592","title":"张南线终点站","lon":"121.79008266","lat":"31.052464114","category":"500","category_name":"未知分类","address":"上海市南汇区人民东路电力学院生活区南门门口"},{"poiid":"B2094655D268A7FB429C","title":"上海电力学院大学生生活园区(东门)","lon":"121.78619","lat":"31.05107","category":"656","category_name":"大门","address":""},{"poiid":"B2094757D568AAF5409F","title":"科教园区南区","lon":"121.7844561","lat":"31.04898667","category":"52","category_name":"高等院校","address":"人民东路22弄2号楼"},{"poiid":"B2094752D165ABFA4198","title":"浦东机场","lon":"121.778458","lat":"31.063858","category":"500","category_name":"未知分类","address":null},{"poiid":"B2094654DB65A7F44892","title":"阿康烧烤(南汇大学城店)","lon":"121.78505","lat":"31.0462","category":"68","category_name":"快餐厅","address":"浦东新区南汇人民东路22弄科教生活园区南汇大学城21幢(勤奋路学海路)"},{"poiid":"B2094757D165A2FD419D","title":"上海电力学院北区食堂","lon":"121.78983406","lat":"31.052666918","category":"500","category_name":"未知分类","address":"上海市南汇区学海路28号"},{"poiid":"B2094757D568A0FC479B","title":"新凤凰城一期","lon":"121.778056","lat":"31.05965","category":"47","category_name":"住宅区","address":"上海市南汇区拱极路2626弄"},{"poiid":"B2094757D065AAF44198","title":"浦东新区祝桥镇","lon":"121.807187163","lat":"31.0813697568","category":"500","category_name":"未知分类","address":"上海新东村"},{"poiid":"B2094654DB6FA4FD419A","title":"南汇科教四区第三餐厅","lon":"121.78611","lat":"31.05101","category":"257","category_name":"中餐厅","address":""},{"poiid":"B2094654DB6FA4FD419B","title":"上海南汇科教园区生活区9号门","lon":"121.7862","lat":"31.05108","category":"47","category_name":"住宅区","address":""},{"poiid":"B2094655D26FAAFE429D","title":"上海电力学院体育馆","lon":"121.7879","lat":"31.04712","category":"224","category_name":"综合体育馆","address":""},{"poiid":"B2094655D26BA1FF489F","title":"南汇科教园区","lon":"121.78415","lat":"31.04927","category":"38","category_name":"公交车站","address":""},{"poiid":"B2094654DB6FA4FD429B","title":"上海南汇科教园区生活区2号门","lon":"121.7855","lat":"31.04898","category":"47","category_name":"住宅区","address":"惠南镇人民东路22号"},{"poiid":"B2094655D26BABF4449C","title":"科教园区北区","lon":"121.78446","lat":"31.04899","category":"45","category_name":"产业园区","address":"人民东路22弄8号楼6层"},{"poiid":"B2094757D568A0F84092","title":"科教园区南区学生公寓6号楼","lon":"121.7844561","lat":"31.04898667","category":"47","category_name":"住宅区","address":"人民东路22弄2号楼1层"},{"poiid":"B2094654DB6FA4FD419F","title":"上海南汇科教园区生活区8号门","lon":"121.78439","lat":"31.04984","category":"47","category_name":"住宅区","address":"惠南镇人民东路22号"},{"poiid":"B2094757D568A6FF4998","title":"科教园区北区学生公寓27号楼","lon":"121.7844561","lat":"31.04898667","category":"47","category_name":"住宅区","address":"人民东路22弄8号楼6层"},{"poiid":"B2094757D16EA6F9479E","title":"上海电力学院南汇校区南教学区","lon":"121.788147","lat":"31.048149","category":"500","category_name":"未知分类","address":"上海浦东新区学海路28号"},{"poiid":"B2094751D46BA2FB419C","title":"上海电力学院大礼堂","lon":"121.7917175","lat":"31.0473187","category":"253","category_name":"校园生活","address":"学海路28号"},{"poiid":"B2094757D16DA3FF4298","title":"南汇科教园区电力生活园区24幢","lon":"121.784640463","lat":"31.0492798437","category":"253","category_name":"校园生活","address":"上海近郊惠南镇人民东路22号"},{"poiid":"B2094655D26AA6FE459E","title":"Skyline","lon":"121.78815","lat":"31.04815","category":"260","category_name":"其他","address":"浦东新区惠南镇学海路28号上海电力学院附近(近勤奋路)"},{"poiid":"B2094757D16CA4FA4593","title":"每日拜胖超神之圣地","lon":"121.784210263","lat":"31.049697953","category":"500","category_name":"未知分类","address":null},{"poiid":"B2094757D165ABFE489A","title":"成为一个蛤丝","lon":"121.784354263","lat":"31.0498729568","category":"500","category_name":"未知分类","address":"上海独一无二的蛤丝没有骑"},{"poiid":"B2094655D26FAAFD429C","title":"上海电力学院(西三门)","lon":"121.78672","lat":"31.05134","category":"656","category_name":"大门","address":""},{"poiid":"B2094757D16EA3FB4292","title":"人民东路","lon":"121.786124633","lat":"31.0491908128","category":"260","category_name":"其他","address":"上海市浦东新区惠南镇人民东路"},{"poiid":"B2094654DB6FA6FA429D","title":"上海脉通园艺有限公司","lon":"121.79543","lat":"31.04576","category":"263","category_name":"公司","address":""},{"poiid":"B2094655D26FAAFD4299","title":"上海电力学院(西一门)","lon":"121.78679","lat":"31.04809","category":"656","category_name":"大门","address":"学海路28号"},{"poiid":"B2094655D26FAAFD429E","title":"上海电力学院(西二门)","lon":"121.78663","lat":"31.0492","category":"656","category_name":"大门","address":""}]