[{"poiid":"B2094757D06FA2F8469F","title":"江杨北路地铁站","lon":"121.439261","lat":"31.407223","category":"36","category_name":"地铁站","address":"上海轨道交通 三号线 轨交江杨北路站 轻轨 3"},{"poiid":"B2094757D06FA1F44893","title":"宝钢人才开发院","lon":"121.43393707","lat":"31.412914276","category":"263","category_name":"公司","address":"上海宝山区四元路"},{"poiid":"B2094757D068A3FF449B","title":"BAOSTEEL","lon":"121.46223683","lat":"31.409588384","category":"500","category_name":"未知分类","address":"上海市宝山区"},{"poiid":"B2094654D46AA3FF429B","title":"上海中冶医院","lon":"121.43325","lat":"31.41258","category":"162","category_name":"医院","address":"宝山区春蕾路456号"},{"poiid":"B2094757D06BA1FC439D","title":"麦当劳 海尚明城店","lon":"121.450463679","lat":"31.394129909","category":"68","category_name":"快餐厅","address":"宝山区友谊路1881-1883号(近铁山路)"},{"poiid":"B2094757D169A2FF4292","title":"段氏龙虾","lon":"121.43410167","lat":"31.406575144","category":"247","category_name":"餐饮美食","address":"上海市宝山区绥化路100号"},{"poiid":"B2094654D469AAFD409F","title":"宝山钢铁股份有限公司","lon":"121.46598","lat":"31.41466","category":"263","category_name":"公司","address":""},{"poiid":"B2094757D068ABFE449F","title":"馨煌大酒店","lon":"121.42714","lat":"31.40976","category":"76","category_name":"上海菜","address":"宝山区安家路17号(安家路庆安路)"},{"poiid":"B2094654D46AA3FE409D","title":"庆安苑","lon":"121.43623","lat":"31.406603","category":"47","category_name":"住宅区","address":"绥化路50弄"},{"poiid":"B2094655D26AA0F94398","title":"地铁铁力路站","lon":"121.46197","lat":"31.40836","category":"36","category_name":"地铁站","address":""},{"poiid":"B2094757D069A7FB439A","title":"钢领","lon":"121.45451683","lat":"31.393636054","category":"46","category_name":"楼宇","address":"上海宝山区铁山路"},{"poiid":"B2094757D16BA0FE469E","title":"宝钢五号门","lon":"121.434525779","lat":"31.4148508003","category":"500","category_name":"未知分类","address":"上海宝钢五号门"},{"poiid":"B2094757D168ABFE4099","title":"混迹于宝钢大院内","lon":"121.43918367","lat":"31.418531369","category":"500","category_name":"未知分类","address":"上海市宝山区纬十二西路"},{"poiid":"B2094654D469AAFF4493","title":"富浩河滨花园","lon":"121.433","lat":"31.4124","category":"47","category_name":"住宅区","address":"上海市宝山区德都路88弄"},{"poiid":"B2094654D469AAFB489D","title":"宝钢体检中心","lon":"121.4564","lat":"31.40393","category":"162","category_name":"医院","address":""},{"poiid":"B2094757D06AA4FD479F","title":"新月福邸","lon":"121.44","lat":"31.4112","category":"500","category_name":"未知分类","address":"上海市宝山区春雷路136弄"},{"poiid":"B2094654D469ABF5439E","title":"果园生活园区","lon":"121.46278","lat":"31.4076","category":"47","category_name":"住宅区","address":"富锦路克山路"},{"poiid":"B2094757D069A0FD449B","title":"友谊家园","lon":"121.45241","lat":"31.396225","category":"500","category_name":"未知分类","address":"上海铁峰路2000弄"},{"poiid":"B2094655D265AAF4409A","title":"保集欧郡","lon":"121.45355371894","lat":"31.397439343484","category":"47","category_name":"住宅区","address":"友谊路1999弄"},{"poiid":"B2094654DB69A7F8409A","title":"上海市宝山区月浦中学","lon":"121.4353","lat":"31.41132","category":"55","category_name":"中学","address":"宝山区四元路20弄78号(近春雷路)"},{"poiid":"B2094757D068AAFF439E","title":"宝钢工程技术集团有限公司","lon":"121.45825195","lat":"31.406448364","category":"263","category_name":"公司","address":"上海铁力路2510号"},{"poiid":"B2094757D16FA1FD4199","title":"宝钢1800","lon":"121.45384225","lat":"31.416474405","category":"500","category_name":"未知分类","address":"上海宝钢厂区大院内"},{"poiid":"B2094655D26AA0F94399","title":"地铁江杨北路站","lon":"121.43926","lat":"31.40722","category":"36","category_name":"地铁站","address":""},{"poiid":"B2094757D06BA4FA4293","title":"鼎中鼎澳门豆捞 月浦店","lon":"121.424644054","lat":"31.413510793","category":"86","category_name":"火锅店","address":"宝山区月浦镇四元路吉买盛超市内(庆安路四元路)"},{"poiid":"B2094757D568A5FA4492","title":"宝钢科技中心","lon":"121.4544","lat":"31.4108","category":"46","category_name":"楼宇","address":"克东路宝钢三号门"},{"poiid":"B2094654D46AA3FF4699","title":"乐业一村(春雷路)","lon":"121.43397","lat":"31.40993","category":"47","category_name":"住宅区","address":""},{"poiid":"B2094654D46AA3FE4299","title":"庆安一村","lon":"121.43616","lat":"31.407169","category":"47","category_name":"住宅区","address":"绥化路49弄"},{"poiid":"B2094654D46AA3FE4593","title":"宝莲湖景园","lon":"121.42947","lat":"31.405355","category":"47","category_name":"住宅区","address":"上海市宝山区绥化路260弄"},{"poiid":"B2094757D16DAAFF4298","title":"富锦苑","lon":"121.43376","lat":"31.4034","category":"47","category_name":"住宅区","address":"上海富锦路1815弄"},{"poiid":"B2094757D16CA0FC439A","title":"宝钢车库","lon":"121.44836354","lat":"31.410185045","category":"262","category_name":"停车场","address":"上海江杨北路"},{"poiid":"B2094654D469AAFF459A","title":"新月丽苑","lon":"121.43195","lat":"31.40723","category":"47","category_name":"住宅区","address":"上海市宝山区绥化路66弄"},{"poiid":"B2094655D36DA6FD4693","title":"江杨北路","lon":"121.43926","lat":"31.40722","category":"38","category_name":"公交车站","address":"上海绥化路宝山十路车站"},{"poiid":"B2094757D16AA6F9419A","title":"上海轨道交通江杨北路基地(宝山基地)","lon":"121.452328679","lat":"31.4055557247","category":"500","category_name":"未知分类","address":"上海市宝山区富锦路1285号"},{"poiid":"B2094757D168AAFC409D","title":"小紅帽幼兒園","lon":"121.436874679","lat":"31.4052721194","category":"57","category_name":"幼儿园","address":"上海市宝山区绥化路"},{"poiid":"B2094757D164A7F4479C","title":"宝钢机械制造事业部","lon":"121.450460679","lat":"31.4170702422","category":"500","category_name":"未知分类","address":"上海市宝山区经五路纬一路口"},{"poiid":"B2094750D56FA4F4439E","title":"沈阳航空航天大学","lon":"121.438339","lat":"31.408559","category":"671","category_name":"高校中心点","address":"N-12"},{"poiid":"B2094757D16FA2F8429D","title":"鑫斐大酒店(月浦店)","lon":"121.43425","lat":"31.4094","category":"76","category_name":"上海菜","address":"宝山区月浦春雷路29号"},{"poiid":"B2094655D26AA3FA4093","title":"吉优大酒店中餐厅","lon":"121.458168054","lat":"31.407760793","category":"76","category_name":"上海菜","address":"宝山区铁力路2491号(近富锦路)"},{"poiid":"B2094757D56EA5FB459B","title":"G1501上海绕城高速月浦收费站","lon":"121.446275000001","lat":"31.4048949999997","category":"267","category_name":"收费站","address":"宝山区G1501上海绕城高速"},{"poiid":"B2094757D569A2FF409F","title":"新月万升家园","lon":"121.434659","lat":"31.412331","category":"47","category_name":"住宅区","address":"上海市宝山区绥化路265弄"},{"poiid":"B2094655D36CA0F8489C","title":"江杨北路富锦路","lon":"121.4393","lat":"31.40564","category":"38","category_name":"公交车站","address":""},{"poiid":"B2094655D36CA0F8489D","title":"江杨北路四元路","lon":"121.43576","lat":"31.41426","category":"38","category_name":"公交车站","address":""},{"poiid":"B2094654DB6AA5FF429E","title":"兴旺饭店","lon":"121.43564","lat":"31.40676","category":"71","category_name":"四川菜","address":"宝山区月浦绥化路79号(近春雷路)"},{"poiid":"B2094655D26BA4FD4593","title":"A30公路收费站","lon":"121.44629","lat":"31.40481","category":"267","category_name":"收费站","address":""},{"poiid":"B2094757D16CAAFF4698","title":"上行线(江杨北路店)","lon":"121.43928589","lat":"31.407214069","category":"125","category_name":"书店","address":"上海地铁三号线江杨北路站"},{"poiid":"B2094654DB69A6F9469F","title":"金悦生活广场","lon":"121.427829","lat":"31.406021","category":"46","category_name":"楼宇","address":"宝山区月浦镇绥化路288号"},{"poiid":"B2094654D46AA3FE4398","title":"申达美食","lon":"121.43512","lat":"31.40682","category":"71","category_name":"四川菜","address":"宝山区月浦镇绥化路87号(近江杨北路)"},{"poiid":"B2094757D569A2FD4699","title":"新月时代家园","lon":"121.433","lat":"31.4121","category":"47","category_name":"住宅区","address":"上海市宝山区德都路28弄1-23号"},{"poiid":"B2094757D06AA5FB429D","title":"月浦单宿","lon":"121.4306692","lat":"31.4169697","category":"500","category_name":"未知分类","address":"上海市宝山区龙镇路7号"},{"poiid":"B2094654D46AA3FE4298","title":"良友金伴便利连锁NO.607","lon":"121.4363","lat":"31.40705","category":"117","category_name":"便民商店/便利店","address":"月浦镇"},{"poiid":"B2094757D06FA2F8469F","title":"江杨北路地铁站","lon":"121.439261","lat":"31.407223","category":"36","category_name":"地铁站","address":"上海轨道交通 三号线 轨交江杨北路站 轻轨 3"},{"poiid":"B2094757D06FA1F44893","title":"宝钢人才开发院","lon":"121.43393707","lat":"31.412914276","category":"263","category_name":"公司","address":"上海宝山区四元路"},{"poiid":"B2094757D068A3FF449B","title":"BAOSTEEL","lon":"121.46223683","lat":"31.409588384","category":"500","category_name":"未知分类","address":"上海市宝山区"},{"poiid":"B2094654D46AA3FF429B","title":"上海中冶医院","lon":"121.43325","lat":"31.41258","category":"162","category_name":"医院","address":"宝山区春蕾路456号"},{"poiid":"B2094757D06BA1FC439D","title":"麦当劳 海尚明城店","lon":"121.450463679","lat":"31.394129909","category":"68","category_name":"快餐厅","address":"宝山区友谊路1881-1883号(近铁山路)"},{"poiid":"B2094757D169A2FF4292","title":"段氏龙虾","lon":"121.43410167","lat":"31.406575144","category":"247","category_name":"餐饮美食","address":"上海市宝山区绥化路100号"},{"poiid":"B2094654D469AAFD409F","title":"宝山钢铁股份有限公司","lon":"121.46598","lat":"31.41466","category":"263","category_name":"公司","address":""},{"poiid":"B2094757D068ABFE449F","title":"馨煌大酒店","lon":"121.42714","lat":"31.40976","category":"76","category_name":"上海菜","address":"宝山区安家路17号(安家路庆安路)"},{"poiid":"B2094654D46AA3FE409D","title":"庆安苑","lon":"121.43623","lat":"31.406603","category":"47","category_name":"住宅区","address":"绥化路50弄"},{"poiid":"B2094655D26AA0F94398","title":"地铁铁力路站","lon":"121.46197","lat":"31.40836","category":"36","category_name":"地铁站","address":""},{"poiid":"B2094757D069A7FB439A","title":"钢领","lon":"121.45451683","lat":"31.393636054","category":"46","category_name":"楼宇","address":"上海宝山区铁山路"},{"poiid":"B2094757D16BA0FE469E","title":"宝钢五号门","lon":"121.434525779","lat":"31.4148508003","category":"500","category_name":"未知分类","address":"上海宝钢五号门"},{"poiid":"B2094757D168ABFE4099","title":"混迹于宝钢大院内","lon":"121.43918367","lat":"31.418531369","category":"500","category_name":"未知分类","address":"上海市宝山区纬十二西路"},{"poiid":"B2094654D469AAFF4493","title":"富浩河滨花园","lon":"121.433","lat":"31.4124","category":"47","category_name":"住宅区","address":"上海市宝山区德都路88弄"},{"poiid":"B2094654D469AAFB489D","title":"宝钢体检中心","lon":"121.4564","lat":"31.40393","category":"162","category_name":"医院","address":""},{"poiid":"B2094757D06AA4FD479F","title":"新月福邸","lon":"121.44","lat":"31.4112","category":"500","category_name":"未知分类","address":"上海市宝山区春雷路136弄"},{"poiid":"B2094654D469ABF5439E","title":"果园生活园区","lon":"121.46278","lat":"31.4076","category":"47","category_name":"住宅区","address":"富锦路克山路"},{"poiid":"B2094757D069A0FD449B","title":"友谊家园","lon":"121.45241","lat":"31.396225","category":"500","category_name":"未知分类","address":"上海铁峰路2000弄"},{"poiid":"B2094655D265AAF4409A","title":"保集欧郡","lon":"121.45355371894","lat":"31.397439343484","category":"47","category_name":"住宅区","address":"友谊路1999弄"},{"poiid":"B2094654DB69A7F8409A","title":"上海市宝山区月浦中学","lon":"121.4353","lat":"31.41132","category":"55","category_name":"中学","address":"宝山区四元路20弄78号(近春雷路)"},{"poiid":"B2094757D068AAFF439E","title":"宝钢工程技术集团有限公司","lon":"121.45825195","lat":"31.406448364","category":"263","category_name":"公司","address":"上海铁力路2510号"},{"poiid":"B2094757D16FA1FD4199","title":"宝钢1800","lon":"121.45384225","lat":"31.416474405","category":"500","category_name":"未知分类","address":"上海宝钢厂区大院内"},{"poiid":"B2094655D26AA0F94399","title":"地铁江杨北路站","lon":"121.43926","lat":"31.40722","category":"36","category_name":"地铁站","address":""},{"poiid":"B2094757D06BA4FA4293","title":"鼎中鼎澳门豆捞 月浦店","lon":"121.424644054","lat":"31.413510793","category":"86","category_name":"火锅店","address":"宝山区月浦镇四元路吉买盛超市内(庆安路四元路)"},{"poiid":"B2094757D568A5FA4492","title":"宝钢科技中心","lon":"121.4544","lat":"31.4108","category":"46","category_name":"楼宇","address":"克东路宝钢三号门"},{"poiid":"B2094654D46AA3FF4699","title":"乐业一村(春雷路)","lon":"121.43397","lat":"31.40993","category":"47","category_name":"住宅区","address":""},{"poiid":"B2094654D46AA3FE4299","title":"庆安一村","lon":"121.43616","lat":"31.407169","category":"47","category_name":"住宅区","address":"绥化路49弄"},{"poiid":"B2094654D46AA3FE4593","title":"宝莲湖景园","lon":"121.42947","lat":"31.405355","category":"47","category_name":"住宅区","address":"上海市宝山区绥化路260弄"},{"poiid":"B2094757D16DAAFF4298","title":"富锦苑","lon":"121.43376","lat":"31.4034","category":"47","category_name":"住宅区","address":"上海富锦路1815弄"},{"poiid":"B2094757D16CA0FC439A","title":"宝钢车库","lon":"121.44836354","lat":"31.410185045","category":"262","category_name":"停车场","address":"上海江杨北路"},{"poiid":"B2094654D469AAFF459A","title":"新月丽苑","lon":"121.43195","lat":"31.40723","category":"47","category_name":"住宅区","address":"上海市宝山区绥化路66弄"},{"poiid":"B2094655D36DA6FD4693","title":"江杨北路","lon":"121.43926","lat":"31.40722","category":"38","category_name":"公交车站","address":"上海绥化路宝山十路车站"},{"poiid":"B2094757D16AA6F9419A","title":"上海轨道交通江杨北路基地(宝山基地)","lon":"121.452328679","lat":"31.4055557247","category":"500","category_name":"未知分类","address":"上海市宝山区富锦路1285号"},{"poiid":"B2094757D168AAFC409D","title":"小紅帽幼兒園","lon":"121.436874679","lat":"31.4052721194","category":"57","category_name":"幼儿园","address":"上海市宝山区绥化路"},{"poiid":"B2094757D164A7F4479C","title":"宝钢机械制造事业部","lon":"121.450460679","lat":"31.4170702422","category":"500","category_name":"未知分类","address":"上海市宝山区经五路纬一路口"},{"poiid":"B2094750D56FA4F4439E","title":"沈阳航空航天大学","lon":"121.438339","lat":"31.408559","category":"671","category_name":"高校中心点","address":"N-12"},{"poiid":"B2094757D16FA2F8429D","title":"鑫斐大酒店(月浦店)","lon":"121.43425","lat":"31.4094","category":"76","category_name":"上海菜","address":"宝山区月浦春雷路29号"},{"poiid":"B2094655D26AA3FA4093","title":"吉优大酒店中餐厅","lon":"121.458168054","lat":"31.407760793","category":"76","category_name":"上海菜","address":"宝山区铁力路2491号(近富锦路)"},{"poiid":"B2094757D56EA5FB459B","title":"G1501上海绕城高速月浦收费站","lon":"121.446275000001","lat":"31.4048949999997","category":"267","category_name":"收费站","address":"宝山区G1501上海绕城高速"},{"poiid":"B2094757D569A2FF409F","title":"新月万升家园","lon":"121.434659","lat":"31.412331","category":"47","category_name":"住宅区","address":"上海市宝山区绥化路265弄"},{"poiid":"B2094655D36CA0F8489C","title":"江杨北路富锦路","lon":"121.4393","lat":"31.40564","category":"38","category_name":"公交车站","address":""},{"poiid":"B2094655D36CA0F8489D","title":"江杨北路四元路","lon":"121.43576","lat":"31.41426","category":"38","category_name":"公交车站","address":""},{"poiid":"B2094654DB6AA5FF429E","title":"兴旺饭店","lon":"121.43564","lat":"31.40676","category":"71","category_name":"四川菜","address":"宝山区月浦绥化路79号(近春雷路)"},{"poiid":"B2094655D26BA4FD4593","title":"A30公路收费站","lon":"121.44629","lat":"31.40481","category":"267","category_name":"收费站","address":""},{"poiid":"B2094757D16CAAFF4698","title":"上行线(江杨北路店)","lon":"121.43928589","lat":"31.407214069","category":"125","category_name":"书店","address":"上海地铁三号线江杨北路站"},{"poiid":"B2094654DB69A6F9469F","title":"金悦生活广场","lon":"121.427829","lat":"31.406021","category":"46","category_name":"楼宇","address":"宝山区月浦镇绥化路288号"},{"poiid":"B2094654D46AA3FE4398","title":"申达美食","lon":"121.43512","lat":"31.40682","category":"71","category_name":"四川菜","address":"宝山区月浦镇绥化路87号(近江杨北路)"},{"poiid":"B2094757D569A2FD4699","title":"新月时代家园","lon":"121.433","lat":"31.4121","category":"47","category_name":"住宅区","address":"上海市宝山区德都路28弄1-23号"},{"poiid":"B2094757D06AA5FB429D","title":"月浦单宿","lon":"121.4306692","lat":"31.4169697","category":"500","category_name":"未知分类","address":"上海市宝山区龙镇路7号"},{"poiid":"B2094654D46AA3FE4298","title":"良友金伴便利连锁NO.607","lon":"121.4363","lat":"31.40705","category":"117","category_name":"便民商店/便利店","address":"月浦镇"},{"poiid":"B2094757D06FA2F8469F","title":"江杨北路地铁站","lon":"121.439261","lat":"31.407223","category":"36","category_name":"地铁站","address":"上海轨道交通 三号线 轨交江杨北路站 轻轨 3"},{"poiid":"B2094757D06FA1F44893","title":"宝钢人才开发院","lon":"121.43393707","lat":"31.412914276","category":"263","category_name":"公司","address":"上海宝山区四元路"},{"poiid":"B2094757D068A3FF449B","title":"BAOSTEEL","lon":"121.46223683","lat":"31.409588384","category":"500","category_name":"未知分类","address":"上海市宝山区"},{"poiid":"B2094654D46AA3FF429B","title":"上海中冶医院","lon":"121.43325","lat":"31.41258","category":"162","category_name":"医院","address":"宝山区春蕾路456号"},{"poiid":"B2094757D06BA1FC439D","title":"麦当劳 海尚明城店","lon":"121.450463679","lat":"31.394129909","category":"68","category_name":"快餐厅","address":"宝山区友谊路1881-1883号(近铁山路)"},{"poiid":"B2094757D169A2FF4292","title":"段氏龙虾","lon":"121.43410167","lat":"31.406575144","category":"247","category_name":"餐饮美食","address":"上海市宝山区绥化路100号"},{"poiid":"B2094654D469AAFD409F","title":"宝山钢铁股份有限公司","lon":"121.46598","lat":"31.41466","category":"263","category_name":"公司","address":""},{"poiid":"B2094757D068ABFE449F","title":"馨煌大酒店","lon":"121.42714","lat":"31.40976","category":"76","category_name":"上海菜","address":"宝山区安家路17号(安家路庆安路)"},{"poiid":"B2094654D46AA3FE409D","title":"庆安苑","lon":"121.43623","lat":"31.406603","category":"47","category_name":"住宅区","address":"绥化路50弄"},{"poiid":"B2094655D26AA0F94398","title":"地铁铁力路站","lon":"121.46197","lat":"31.40836","category":"36","category_name":"地铁站","address":""},{"poiid":"B2094757D069A7FB439A","title":"钢领","lon":"121.45451683","lat":"31.393636054","category":"46","category_name":"楼宇","address":"上海宝山区铁山路"},{"poiid":"B2094757D16BA0FE469E","title":"宝钢五号门","lon":"121.434525779","lat":"31.4148508003","category":"500","category_name":"未知分类","address":"上海宝钢五号门"},{"poiid":"B2094757D168ABFE4099","title":"混迹于宝钢大院内","lon":"121.43918367","lat":"31.418531369","category":"500","category_name":"未知分类","address":"上海市宝山区纬十二西路"},{"poiid":"B2094654D469AAFF4493","title":"富浩河滨花园","lon":"121.433","lat":"31.4124","category":"47","category_name":"住宅区","address":"上海市宝山区德都路88弄"},{"poiid":"B2094654D469AAFB489D","title":"宝钢体检中心","lon":"121.4564","lat":"31.40393","category":"162","category_name":"医院","address":""},{"poiid":"B2094757D06AA4FD479F","title":"新月福邸","lon":"121.44","lat":"31.4112","category":"500","category_name":"未知分类","address":"上海市宝山区春雷路136弄"},{"poiid":"B2094654D469ABF5439E","title":"果园生活园区","lon":"121.46278","lat":"31.4076","category":"47","category_name":"住宅区","address":"富锦路克山路"},{"poiid":"B2094757D069A0FD449B","title":"友谊家园","lon":"121.45241","lat":"31.396225","category":"500","category_name":"未知分类","address":"上海铁峰路2000弄"},{"poiid":"B2094655D265AAF4409A","title":"保集欧郡","lon":"121.45355371894","lat":"31.397439343484","category":"47","category_name":"住宅区","address":"友谊路1999弄"},{"poiid":"B2094654DB69A7F8409A","title":"上海市宝山区月浦中学","lon":"121.4353","lat":"31.41132","category":"55","category_name":"中学","address":"宝山区四元路20弄78号(近春雷路)"},{"poiid":"B2094757D068AAFF439E","title":"宝钢工程技术集团有限公司","lon":"121.45825195","lat":"31.406448364","category":"263","category_name":"公司","address":"上海铁力路2510号"},{"poiid":"B2094757D16FA1FD4199","title":"宝钢1800","lon":"121.45384225","lat":"31.416474405","category":"500","category_name":"未知分类","address":"上海宝钢厂区大院内"},{"poiid":"B2094655D26AA0F94399","title":"地铁江杨北路站","lon":"121.43926","lat":"31.40722","category":"36","category_name":"地铁站","address":""},{"poiid":"B2094757D06BA4FA4293","title":"鼎中鼎澳门豆捞 月浦店","lon":"121.424644054","lat":"31.413510793","category":"86","category_name":"火锅店","address":"宝山区月浦镇四元路吉买盛超市内(庆安路四元路)"},{"poiid":"B2094757D568A5FA4492","title":"宝钢科技中心","lon":"121.4544","lat":"31.4108","category":"46","category_name":"楼宇","address":"克东路宝钢三号门"},{"poiid":"B2094654D46AA3FF4699","title":"乐业一村(春雷路)","lon":"121.43397","lat":"31.40993","category":"47","category_name":"住宅区","address":""},{"poiid":"B2094654D46AA3FE4299","title":"庆安一村","lon":"121.43616","lat":"31.407169","category":"47","category_name":"住宅区","address":"绥化路49弄"},{"poiid":"B2094654D46AA3FE4593","title":"宝莲湖景园","lon":"121.42947","lat":"31.405355","category":"47","category_name":"住宅区","address":"上海市宝山区绥化路260弄"},{"poiid":"B2094757D16DAAFF4298","title":"富锦苑","lon":"121.43376","lat":"31.4034","category":"47","category_name":"住宅区","address":"上海富锦路1815弄"},{"poiid":"B2094757D16CA0FC439A","title":"宝钢车库","lon":"121.44836354","lat":"31.410185045","category":"262","category_name":"停车场","address":"上海江杨北路"},{"poiid":"B2094654D469AAFF459A","title":"新月丽苑","lon":"121.43195","lat":"31.40723","category":"47","category_name":"住宅区","address":"上海市宝山区绥化路66弄"},{"poiid":"B2094655D36DA6FD4693","title":"江杨北路","lon":"121.43926","lat":"31.40722","category":"38","category_name":"公交车站","address":"上海绥化路宝山十路车站"},{"poiid":"B2094757D16AA6F9419A","title":"上海轨道交通江杨北路基地(宝山基地)","lon":"121.452328679","lat":"31.4055557247","category":"500","category_name":"未知分类","address":"上海市宝山区富锦路1285号"},{"poiid":"B2094757D168AAFC409D","title":"小紅帽幼兒園","lon":"121.436874679","lat":"31.4052721194","category":"57","category_name":"幼儿园","address":"上海市宝山区绥化路"},{"poiid":"B2094757D164A7F4479C","title":"宝钢机械制造事业部","lon":"121.450460679","lat":"31.4170702422","category":"500","category_name":"未知分类","address":"上海市宝山区经五路纬一路口"},{"poiid":"B2094750D56FA4F4439E","title":"沈阳航空航天大学","lon":"121.438339","lat":"31.408559","category":"671","category_name":"高校中心点","address":"N-12"},{"poiid":"B2094757D16FA2F8429D","title":"鑫斐大酒店(月浦店)","lon":"121.43425","lat":"31.4094","category":"76","category_name":"上海菜","address":"宝山区月浦春雷路29号"},{"poiid":"B2094655D26AA3FA4093","title":"吉优大酒店中餐厅","lon":"121.458168054","lat":"31.407760793","category":"76","category_name":"上海菜","address":"宝山区铁力路2491号(近富锦路)"},{"poiid":"B2094757D56EA5FB459B","title":"G1501上海绕城高速月浦收费站","lon":"121.446275000001","lat":"31.4048949999997","category":"267","category_name":"收费站","address":"宝山区G1501上海绕城高速"},{"poiid":"B2094757D569A2FF409F","title":"新月万升家园","lon":"121.434659","lat":"31.412331","category":"47","category_name":"住宅区","address":"上海市宝山区绥化路265弄"},{"poiid":"B2094655D36CA0F8489C","title":"江杨北路富锦路","lon":"121.4393","lat":"31.40564","category":"38","category_name":"公交车站","address":""},{"poiid":"B2094655D36CA0F8489D","title":"江杨北路四元路","lon":"121.43576","lat":"31.41426","category":"38","category_name":"公交车站","address":""},{"poiid":"B2094654DB6AA5FF429E","title":"兴旺饭店","lon":"121.43564","lat":"31.40676","category":"71","category_name":"四川菜","address":"宝山区月浦绥化路79号(近春雷路)"},{"poiid":"B2094655D26BA4FD4593","title":"A30公路收费站","lon":"121.44629","lat":"31.40481","category":"267","category_name":"收费站","address":""},{"poiid":"B2094757D16CAAFF4698","title":"上行线(江杨北路店)","lon":"121.43928589","lat":"31.407214069","category":"125","category_name":"书店","address":"上海地铁三号线江杨北路站"},{"poiid":"B2094654DB69A6F9469F","title":"金悦生活广场","lon":"121.427829","lat":"31.406021","category":"46","category_name":"楼宇","address":"宝山区月浦镇绥化路288号"},{"poiid":"B2094654D46AA3FE4398","title":"申达美食","lon":"121.43512","lat":"31.40682","category":"71","category_name":"四川菜","address":"宝山区月浦镇绥化路87号(近江杨北路)"},{"poiid":"B2094757D569A2FD4699","title":"新月时代家园","lon":"121.433","lat":"31.4121","category":"47","category_name":"住宅区","address":"上海市宝山区德都路28弄1-23号"},{"poiid":"B2094757D06AA5FB429D","title":"月浦单宿","lon":"121.4306692","lat":"31.4169697","category":"500","category_name":"未知分类","address":"上海市宝山区龙镇路7号"},{"poiid":"B2094654D46AA3FE4298","title":"良友金伴便利连锁NO.607","lon":"121.4363","lat":"31.40705","category":"117","category_name":"便民商店/便利店","address":"月浦镇"},{"poiid":"B2094757D06FA2F8469F","title":"江杨北路地铁站","lon":"121.439261","lat":"31.407223","category":"36","category_name":"地铁站","address":"上海轨道交通 三号线 轨交江杨北路站 轻轨 3"},{"poiid":"B2094757D06FA1F44893","title":"宝钢人才开发院","lon":"121.43393707","lat":"31.412914276","category":"263","category_name":"公司","address":"上海宝山区四元路"},{"poiid":"B2094757D068A3FF449B","title":"BAOSTEEL","lon":"121.46223683","lat":"31.409588384","category":"500","category_name":"未知分类","address":"上海市宝山区"},{"poiid":"B2094654D46AA3FF429B","title":"上海中冶医院","lon":"121.43325","lat":"31.41258","category":"162","category_name":"医院","address":"宝山区春蕾路456号"},{"poiid":"B2094757D06BA1FC439D","title":"麦当劳 海尚明城店","lon":"121.450463679","lat":"31.394129909","category":"68","category_name":"快餐厅","address":"宝山区友谊路1881-1883号(近铁山路)"},{"poiid":"B2094757D169A2FF4292","title":"段氏龙虾","lon":"121.43410167","lat":"31.406575144","category":"247","category_name":"餐饮美食","address":"上海市宝山区绥化路100号"},{"poiid":"B2094654D469AAFD409F","title":"宝山钢铁股份有限公司","lon":"121.46598","lat":"31.41466","category":"263","category_name":"公司","address":""},{"poiid":"B2094757D068ABFE449F","title":"馨煌大酒店","lon":"121.42714","lat":"31.40976","category":"76","category_name":"上海菜","address":"宝山区安家路17号(安家路庆安路)"},{"poiid":"B2094654D46AA3FE409D","title":"庆安苑","lon":"121.43623","lat":"31.406603","category":"47","category_name":"住宅区","address":"绥化路50弄"},{"poiid":"B2094655D26AA0F94398","title":"地铁铁力路站","lon":"121.46197","lat":"31.40836","category":"36","category_name":"地铁站","address":""},{"poiid":"B2094757D069A7FB439A","title":"钢领","lon":"121.45451683","lat":"31.393636054","category":"46","category_name":"楼宇","address":"上海宝山区铁山路"},{"poiid":"B2094757D16BA0FE469E","title":"宝钢五号门","lon":"121.434525779","lat":"31.4148508003","category":"500","category_name":"未知分类","address":"上海宝钢五号门"},{"poiid":"B2094757D168ABFE4099","title":"混迹于宝钢大院内","lon":"121.43918367","lat":"31.418531369","category":"500","category_name":"未知分类","address":"上海市宝山区纬十二西路"},{"poiid":"B2094654D469AAFF4493","title":"富浩河滨花园","lon":"121.433","lat":"31.4124","category":"47","category_name":"住宅区","address":"上海市宝山区德都路88弄"},{"poiid":"B2094654D469AAFB489D","title":"宝钢体检中心","lon":"121.4564","lat":"31.40393","category":"162","category_name":"医院","address":""},{"poiid":"B2094757D06AA4FD479F","title":"新月福邸","lon":"121.44","lat":"31.4112","category":"500","category_name":"未知分类","address":"上海市宝山区春雷路136弄"},{"poiid":"B2094654D469ABF5439E","title":"果园生活园区","lon":"121.46278","lat":"31.4076","category":"47","category_name":"住宅区","address":"富锦路克山路"},{"poiid":"B2094757D069A0FD449B","title":"友谊家园","lon":"121.45241","lat":"31.396225","category":"500","category_name":"未知分类","address":"上海铁峰路2000弄"},{"poiid":"B2094655D265AAF4409A","title":"保集欧郡","lon":"121.45355371894","lat":"31.397439343484","category":"47","category_name":"住宅区","address":"友谊路1999弄"},{"poiid":"B2094654DB69A7F8409A","title":"上海市宝山区月浦中学","lon":"121.4353","lat":"31.41132","category":"55","category_name":"中学","address":"宝山区四元路20弄78号(近春雷路)"},{"poiid":"B2094757D068AAFF439E","title":"宝钢工程技术集团有限公司","lon":"121.45825195","lat":"31.406448364","category":"263","category_name":"公司","address":"上海铁力路2510号"},{"poiid":"B2094757D16FA1FD4199","title":"宝钢1800","lon":"121.45384225","lat":"31.416474405","category":"500","category_name":"未知分类","address":"上海宝钢厂区大院内"},{"poiid":"B2094655D26AA0F94399","title":"地铁江杨北路站","lon":"121.43926","lat":"31.40722","category":"36","category_name":"地铁站","address":""},{"poiid":"B2094757D06BA4FA4293","title":"鼎中鼎澳门豆捞 月浦店","lon":"121.424644054","lat":"31.413510793","category":"86","category_name":"火锅店","address":"宝山区月浦镇四元路吉买盛超市内(庆安路四元路)"},{"poiid":"B2094757D568A5FA4492","title":"宝钢科技中心","lon":"121.4544","lat":"31.4108","category":"46","category_name":"楼宇","address":"克东路宝钢三号门"},{"poiid":"B2094654D46AA3FF4699","title":"乐业一村(春雷路)","lon":"121.43397","lat":"31.40993","category":"47","category_name":"住宅区","address":""},{"poiid":"B2094654D46AA3FE4299","title":"庆安一村","lon":"121.43616","lat":"31.407169","category":"47","category_name":"住宅区","address":"绥化路49弄"},{"poiid":"B2094654D46AA3FE4593","title":"宝莲湖景园","lon":"121.42947","lat":"31.405355","category":"47","category_name":"住宅区","address":"上海市宝山区绥化路260弄"},{"poiid":"B2094757D16DAAFF4298","title":"富锦苑","lon":"121.43376","lat":"31.4034","category":"47","category_name":"住宅区","address":"上海富锦路1815弄"},{"poiid":"B2094757D16CA0FC439A","title":"宝钢车库","lon":"121.44836354","lat":"31.410185045","category":"262","category_name":"停车场","address":"上海江杨北路"},{"poiid":"B2094654D469AAFF459A","title":"新月丽苑","lon":"121.43195","lat":"31.40723","category":"47","category_name":"住宅区","address":"上海市宝山区绥化路66弄"},{"poiid":"B2094655D36DA6FD4693","title":"江杨北路","lon":"121.43926","lat":"31.40722","category":"38","category_name":"公交车站","address":"上海绥化路宝山十路车站"},{"poiid":"B2094757D16AA6F9419A","title":"上海轨道交通江杨北路基地(宝山基地)","lon":"121.452328679","lat":"31.4055557247","category":"500","category_name":"未知分类","address":"上海市宝山区富锦路1285号"},{"poiid":"B2094757D168AAFC409D","title":"小紅帽幼兒園","lon":"121.436874679","lat":"31.4052721194","category":"57","category_name":"幼儿园","address":"上海市宝山区绥化路"},{"poiid":"B2094757D164A7F4479C","title":"宝钢机械制造事业部","lon":"121.450460679","lat":"31.4170702422","category":"500","category_name":"未知分类","address":"上海市宝山区经五路纬一路口"},{"poiid":"B2094750D56FA4F4439E","title":"沈阳航空航天大学","lon":"121.438339","lat":"31.408559","category":"671","category_name":"高校中心点","address":"N-12"},{"poiid":"B2094757D16FA2F8429D","title":"鑫斐大酒店(月浦店)","lon":"121.43425","lat":"31.4094","category":"76","category_name":"上海菜","address":"宝山区月浦春雷路29号"},{"poiid":"B2094655D26AA3FA4093","title":"吉优大酒店中餐厅","lon":"121.458168054","lat":"31.407760793","category":"76","category_name":"上海菜","address":"宝山区铁力路2491号(近富锦路)"},{"poiid":"B2094757D56EA5FB459B","title":"G1501上海绕城高速月浦收费站","lon":"121.446275000001","lat":"31.4048949999997","category":"267","category_name":"收费站","address":"宝山区G1501上海绕城高速"},{"poiid":"B2094757D569A2FF409F","title":"新月万升家园","lon":"121.434659","lat":"31.412331","category":"47","category_name":"住宅区","address":"上海市宝山区绥化路265弄"},{"poiid":"B2094655D36CA0F8489C","title":"江杨北路富锦路","lon":"121.4393","lat":"31.40564","category":"38","category_name":"公交车站","address":""},{"poiid":"B2094655D36CA0F8489D","title":"江杨北路四元路","lon":"121.43576","lat":"31.41426","category":"38","category_name":"公交车站","address":""},{"poiid":"B2094654DB6AA5FF429E","title":"兴旺饭店","lon":"121.43564","lat":"31.40676","category":"71","category_name":"四川菜","address":"宝山区月浦绥化路79号(近春雷路)"},{"poiid":"B2094655D26BA4FD4593","title":"A30公路收费站","lon":"121.44629","lat":"31.40481","category":"267","category_name":"收费站","address":""},{"poiid":"B2094757D16CAAFF4698","title":"上行线(江杨北路店)","lon":"121.43928589","lat":"31.407214069","category":"125","category_name":"书店","address":"上海地铁三号线江杨北路站"},{"poiid":"B2094654DB69A6F9469F","title":"金悦生活广场","lon":"121.427829","lat":"31.406021","category":"46","category_name":"楼宇","address":"宝山区月浦镇绥化路288号"},{"poiid":"B2094654D46AA3FE4398","title":"申达美食","lon":"121.43512","lat":"31.40682","category":"71","category_name":"四川菜","address":"宝山区月浦镇绥化路87号(近江杨北路)"},{"poiid":"B2094757D569A2FD4699","title":"新月时代家园","lon":"121.433","lat":"31.4121","category":"47","category_name":"住宅区","address":"上海市宝山区德都路28弄1-23号"},{"poiid":"B2094757D06AA5FB429D","title":"月浦单宿","lon":"121.4306692","lat":"31.4169697","category":"500","category_name":"未知分类","address":"上海市宝山区龙镇路7号"},{"poiid":"B2094654D46AA3FE4298","title":"良友金伴便利连锁NO.607","lon":"121.4363","lat":"31.40705","category":"117","category_name":"便民商店/便利店","address":"月浦镇"}]