[{"poiid":"B2094757D069A3FA499A","title":"奉城","lon":"121.646088","lat":"30.91623","category":"260","category_name":"其他","address":"上海奉贤区奉城镇"},{"poiid":"B2094757D16CA1F5459A","title":"奉城人民医院","lon":"121.64342435","lat":"30.908169271","category":"162","category_name":"医院","address":"近郊奉贤县川南奉公路9983号(川南奉公路奉城邮电路)"},{"poiid":"B2094654DB68A2FB469D","title":"奉城汽车站","lon":"121.66079","lat":"30.91625","category":"35","category_name":"长途汽车站","address":"奉城镇"},{"poiid":"B2094654DB6AA1FA499B","title":"上海市奉贤区曙光中学","lon":"121.65175","lat":"30.91225","category":"55","category_name":"中学","address":"奉贤区奉城镇川南奉公路9915号"},{"poiid":"B2094655D36CA6F8419A","title":"奉城镇","lon":"121.64017","lat":"30.91165","category":"38","category_name":"公交车站","address":""},{"poiid":"B2094655D265ABF8459B","title":"奉城商都","lon":"121.65384689236","lat":"30.912977582729","category":"47","category_name":"住宅区","address":"上海市奉贤区奉城镇城大路181弄"},{"poiid":"B2094654DB68ABFF429F","title":"奉贤区奉城高级中学","lon":"121.65472","lat":"30.91075","category":"55","category_name":"中学","address":""},{"poiid":"B2094757D16BA0FA429C","title":"万佛阁","lon":"121.66061226","lat":"30.91180403","category":"500","category_name":"未知分类","address":"上海奉城镇"},{"poiid":"B2094757D569A2FE459E","title":"国网手机连锁(奉城店)","lon":"121.65516","lat":"30.911867","category":"138","category_name":"家电电子卖场","address":"近郊奉贤奉城镇南街镇海新村4幢"},{"poiid":"B2094655D36CA6F84199","title":"奉城养老院","lon":"121.65215","lat":"30.91267","category":"38","category_name":"公交车站","address":""},{"poiid":"B2094757D169A7FC419D","title":"克莉丝汀(奉城店)","lon":"121.64925","lat":"30.91562","category":"112","category_name":"糕饼店","address":"近郊奉贤区奉城镇川南奉公路9963-1号(近来伊份)"},{"poiid":"B2094655D26BA2FE4698","title":"万佛阁","lon":"121.64574","lat":"30.91765","category":"38","category_name":"公交车站","address":"近郊奉贤奉城镇北门189号"},{"poiid":"B2094757D064A5F5489D","title":"碧海金沙","lon":"121.64730815","lat":"30.917027692","category":"500","category_name":"未知分类","address":"上海海湾旅游区"},{"poiid":"B2094654DB68A2F44399","title":"滨海百货商场","lon":"121.64831","lat":"30.91592","category":"119","category_name":"商场","address":""},{"poiid":"B2094654DB68ABFE419B","title":"申丰新村","lon":"121.64992","lat":"30.911297","category":"47","category_name":"住宅区","address":"申丰新村"},{"poiid":"B2094655D26EA0FB459A","title":"奉城第一中心小学","lon":"121.64864","lat":"30.91744","category":"56","category_name":"小学","address":"近郊奉贤区奉城镇奉粮路70号"},{"poiid":"B2094757D16EA6F4479C","title":"世纪联华(城大路店)","lon":"121.64677","lat":"30.90744","category":"117","category_name":"便民商店/便利店","address":"近郊奉贤区城大路115号"},{"poiid":"B2094654DB68A2F4439C","title":"奉城一小","lon":"121.64947","lat":"30.9185","category":"56","category_name":"小学","address":""},{"poiid":"B2094757D66FA2FE4198","title":"法德大酒店","lon":"121.64041042","lat":"30.915574086","category":"76","category_name":"上海菜","address":"近郊奉贤区奉城镇新奉公路7138号(近奉柘公路)"},{"poiid":"B2094654DB68ABFE4092","title":"奉城镇汽车站","lon":"121.64601","lat":"30.91042","category":"35","category_name":"长途汽车站","address":""},{"poiid":"B2094654DB68ABFE4098","title":"爱民新村","lon":"121.65008","lat":"30.908382","category":"47","category_name":"住宅区","address":"爱民新村"},{"poiid":"B2094654DB68ABFE419F","title":"竹园新村奉贤","lon":"121.648","lat":"30.918","category":"47","category_name":"住宅区","address":"奉城镇竹园新村"},{"poiid":"B2094654DB68ABFE4099","title":"车站新村","lon":"121.64309","lat":"30.908033","category":"47","category_name":"住宅区","address":"上海市奉贤区车站新村路50弄"},{"poiid":"B2094757D56EA0FB439C","title":"大李烧烤","lon":"121.646719","lat":"30.91586676","category":"247","category_name":"餐饮美食","address":"近郊奉贤区奉城镇(近农业银行)"},{"poiid":"B2094655D26DA5FD4699","title":"城南丽景新苑","lon":"121.64294","lat":"30.91033","category":"47","category_name":"住宅区","address":"川南奉路9965弄"},{"poiid":"B2094655D36CA6F8419E","title":"奉城老车站","lon":"121.64449","lat":"30.91122","category":"38","category_name":"公交车站","address":""},{"poiid":"B2094654DB68ABFE419E","title":"镇南新村","lon":"121.6468","lat":"30.911242","category":"47","category_name":"住宅区","address":"镇南路4-13号"},{"poiid":"B2094654DB68ABFE4298","title":"中国农业银行奉贤区奉城支行","lon":"121.64726","lat":"30.91111","category":"150","category_name":"银行","address":"近郊奉城镇川南奉公路9728号(城大路川南奉公路)"},{"poiid":"B2094757D568A0FA449B","title":"上海交通大学医院附属第九人民医院奉城医院","lon":"121.64164524","lat":"30.91119249","category":"162","category_name":"医院","address":"川南奉公路9983"},{"poiid":"B2094757DA6EABFA489F","title":"奉贤区人民法院奉城法庭","lon":"121.649126999998","lat":"30.9112620000001","category":"248","category_name":"生活娱乐","address":"奉贤区奉城镇政苑路100号"},{"poiid":"B2094654DB64A6FF449D","title":"中国移动奉城营业厅","lon":"121.64614","lat":"30.90978","category":"151","category_name":"电讯营业厅","address":"奉贤区奉城镇成大路28号"},{"poiid":"B2094750D66CAAFB4399","title":"欢歌天天量贩KTV","lon":"121.64785","lat":"30.91146","category":"248","category_name":"生活娱乐","address":"川南奉公路9718号"},{"poiid":"B2094654DB69A7F9449E","title":"中国建设银行奉城支行","lon":"121.64652","lat":"30.91115","category":"150","category_name":"银行","address":"浦东新区川南奉公路9756号(城大路川南奉公路)"},{"poiid":"B2094654DB65A4F4479B","title":"农工商超市(奉城店)","lon":"121.64534","lat":"30.9112","category":"118","category_name":"超级市场","address":"奉城镇"},{"poiid":"B2094757D568A6FF4399","title":"上海晟丰商厦服装大卖场","lon":"121.64616645","lat":"30.91095378","category":"141","category_name":"服装鞋帽皮具店","address":"中国上海市奉贤区城大路"},{"poiid":"B2094654DB68ABFE409E","title":"城大新村","lon":"121.6458","lat":"30.909021","category":"47","category_name":"住宅区","address":"城大新村"},{"poiid":"B2094654DB68A2F44398","title":"医院新村","lon":"121.64402","lat":"30.91449","category":"47","category_name":"住宅区","address":""},{"poiid":"B2094757D56EA4FB489B","title":"奕婷(奉城店)","lon":"121.6462989","lat":"30.9130056","category":"249","category_name":"购物服务","address":"奉贤区奉城南街116"},{"poiid":"B2094654DB68ABFE4198","title":"曙光新村","lon":"121.64643","lat":"30.90572","category":"47","category_name":"住宅区","address":""},{"poiid":"B2094654DB6AA1FA499E","title":"奉贤区奉城第二中学","lon":"121.64087","lat":"30.9133","category":"55","category_name":"中学","address":"奉贤区奉城镇状元路"},{"poiid":"B2094757D568AAFC449E","title":"龙达新苑","lon":"121.64574","lat":"30.905027","category":"47","category_name":"住宅区","address":"上海市奉贤区兰博路2919弄"},{"poiid":"B2094655D36CA6F8419B","title":"奉城医院","lon":"121.64188","lat":"30.91145","category":"162","category_name":"医院","address":""},{"poiid":"B2094757D569A0F54393","title":"乐乐宝都","lon":"121.646042","lat":"30.905767","category":"47","category_name":"住宅区","address":"奉贤兰博路2896-2910号(双)等"},{"poiid":"B2094654DB68A2FB4399","title":"上海众星洗涤机械制造有限公司(二)车间","lon":"121.67048","lat":"30.92084","category":"263","category_name":"公司","address":""},{"poiid":"B2094757D16AA3F5459D","title":"中国工商银行(奉贤支行)","lon":"121.64387","lat":"30.91089","category":"150","category_name":"银行","address":"近郊奉贤川南奉公路9955(川南奉公路曙宏路)"},{"poiid":"B2094654DB69A6FC459D","title":"中国银行奉城支行","lon":"121.64329","lat":"30.91142","category":"150","category_name":"银行","address":"浦东新区川南奉公路9876号"},{"poiid":"B2094654DB64AAFD4492","title":"奉馨园","lon":"121.64344","lat":"30.923151","category":"47","category_name":"住宅区","address":"新奉公路6215弄"},{"poiid":"B2094654DB68ABFE4199","title":"邮电新村(邮电路)","lon":"121.63979","lat":"30.9094","category":"47","category_name":"住宅区","address":""},{"poiid":"B2094757D568A4F54498","title":"迪信通(奉城店)","lon":"121.64277317","lat":"30.91102295","category":"138","category_name":"家电电子卖场","address":"川南奉公路9963-1号"},{"poiid":"B2094654DB68ABFF419E","title":"中国联通奉城营业厅","lon":"121.64047","lat":"30.91133","category":"151","category_name":"电讯营业厅","address":"南奉公路9993号"},{"poiid":"B2094757D069A3FA499A","title":"奉城","lon":"121.646088","lat":"30.91623","category":"260","category_name":"其他","address":"上海奉贤区奉城镇"},{"poiid":"B2094757D16CA1F5459A","title":"奉城人民医院","lon":"121.64342435","lat":"30.908169271","category":"162","category_name":"医院","address":"近郊奉贤县川南奉公路9983号(川南奉公路奉城邮电路)"},{"poiid":"B2094654DB68A2FB469D","title":"奉城汽车站","lon":"121.66079","lat":"30.91625","category":"35","category_name":"长途汽车站","address":"奉城镇"},{"poiid":"B2094654DB6AA1FA499B","title":"上海市奉贤区曙光中学","lon":"121.65175","lat":"30.91225","category":"55","category_name":"中学","address":"奉贤区奉城镇川南奉公路9915号"},{"poiid":"B2094655D36CA6F8419A","title":"奉城镇","lon":"121.64017","lat":"30.91165","category":"38","category_name":"公交车站","address":""},{"poiid":"B2094655D265ABF8459B","title":"奉城商都","lon":"121.65384689236","lat":"30.912977582729","category":"47","category_name":"住宅区","address":"上海市奉贤区奉城镇城大路181弄"},{"poiid":"B2094654DB68ABFF429F","title":"奉贤区奉城高级中学","lon":"121.65472","lat":"30.91075","category":"55","category_name":"中学","address":""},{"poiid":"B2094757D16BA0FA429C","title":"万佛阁","lon":"121.66061226","lat":"30.91180403","category":"500","category_name":"未知分类","address":"上海奉城镇"},{"poiid":"B2094757D569A2FE459E","title":"国网手机连锁(奉城店)","lon":"121.65516","lat":"30.911867","category":"138","category_name":"家电电子卖场","address":"近郊奉贤奉城镇南街镇海新村4幢"},{"poiid":"B2094655D36CA6F84199","title":"奉城养老院","lon":"121.65215","lat":"30.91267","category":"38","category_name":"公交车站","address":""},{"poiid":"B2094757D169A7FC419D","title":"克莉丝汀(奉城店)","lon":"121.64925","lat":"30.91562","category":"112","category_name":"糕饼店","address":"近郊奉贤区奉城镇川南奉公路9963-1号(近来伊份)"},{"poiid":"B2094655D26BA2FE4698","title":"万佛阁","lon":"121.64574","lat":"30.91765","category":"38","category_name":"公交车站","address":"近郊奉贤奉城镇北门189号"},{"poiid":"B2094757D064A5F5489D","title":"碧海金沙","lon":"121.64730815","lat":"30.917027692","category":"500","category_name":"未知分类","address":"上海海湾旅游区"},{"poiid":"B2094654DB68A2F44399","title":"滨海百货商场","lon":"121.64831","lat":"30.91592","category":"119","category_name":"商场","address":""},{"poiid":"B2094654DB68ABFE419B","title":"申丰新村","lon":"121.64992","lat":"30.911297","category":"47","category_name":"住宅区","address":"申丰新村"},{"poiid":"B2094655D26EA0FB459A","title":"奉城第一中心小学","lon":"121.64864","lat":"30.91744","category":"56","category_name":"小学","address":"近郊奉贤区奉城镇奉粮路70号"},{"poiid":"B2094757D16EA6F4479C","title":"世纪联华(城大路店)","lon":"121.64677","lat":"30.90744","category":"117","category_name":"便民商店/便利店","address":"近郊奉贤区城大路115号"},{"poiid":"B2094654DB68A2F4439C","title":"奉城一小","lon":"121.64947","lat":"30.9185","category":"56","category_name":"小学","address":""},{"poiid":"B2094757D66FA2FE4198","title":"法德大酒店","lon":"121.64041042","lat":"30.915574086","category":"76","category_name":"上海菜","address":"近郊奉贤区奉城镇新奉公路7138号(近奉柘公路)"},{"poiid":"B2094654DB68ABFE4092","title":"奉城镇汽车站","lon":"121.64601","lat":"30.91042","category":"35","category_name":"长途汽车站","address":""},{"poiid":"B2094654DB68ABFE4098","title":"爱民新村","lon":"121.65008","lat":"30.908382","category":"47","category_name":"住宅区","address":"爱民新村"},{"poiid":"B2094654DB68ABFE419F","title":"竹园新村奉贤","lon":"121.648","lat":"30.918","category":"47","category_name":"住宅区","address":"奉城镇竹园新村"},{"poiid":"B2094654DB68ABFE4099","title":"车站新村","lon":"121.64309","lat":"30.908033","category":"47","category_name":"住宅区","address":"上海市奉贤区车站新村路50弄"},{"poiid":"B2094757D56EA0FB439C","title":"大李烧烤","lon":"121.646719","lat":"30.91586676","category":"247","category_name":"餐饮美食","address":"近郊奉贤区奉城镇(近农业银行)"},{"poiid":"B2094655D26DA5FD4699","title":"城南丽景新苑","lon":"121.64294","lat":"30.91033","category":"47","category_name":"住宅区","address":"川南奉路9965弄"},{"poiid":"B2094655D36CA6F8419E","title":"奉城老车站","lon":"121.64449","lat":"30.91122","category":"38","category_name":"公交车站","address":""},{"poiid":"B2094654DB68ABFE419E","title":"镇南新村","lon":"121.6468","lat":"30.911242","category":"47","category_name":"住宅区","address":"镇南路4-13号"},{"poiid":"B2094654DB68ABFE4298","title":"中国农业银行奉贤区奉城支行","lon":"121.64726","lat":"30.91111","category":"150","category_name":"银行","address":"近郊奉城镇川南奉公路9728号(城大路川南奉公路)"},{"poiid":"B2094757D568A0FA449B","title":"上海交通大学医院附属第九人民医院奉城医院","lon":"121.64164524","lat":"30.91119249","category":"162","category_name":"医院","address":"川南奉公路9983"},{"poiid":"B2094757DA6EABFA489F","title":"奉贤区人民法院奉城法庭","lon":"121.649126999998","lat":"30.9112620000001","category":"248","category_name":"生活娱乐","address":"奉贤区奉城镇政苑路100号"},{"poiid":"B2094654DB64A6FF449D","title":"中国移动奉城营业厅","lon":"121.64614","lat":"30.90978","category":"151","category_name":"电讯营业厅","address":"奉贤区奉城镇成大路28号"},{"poiid":"B2094750D66CAAFB4399","title":"欢歌天天量贩KTV","lon":"121.64785","lat":"30.91146","category":"248","category_name":"生活娱乐","address":"川南奉公路9718号"},{"poiid":"B2094654DB69A7F9449E","title":"中国建设银行奉城支行","lon":"121.64652","lat":"30.91115","category":"150","category_name":"银行","address":"浦东新区川南奉公路9756号(城大路川南奉公路)"},{"poiid":"B2094654DB65A4F4479B","title":"农工商超市(奉城店)","lon":"121.64534","lat":"30.9112","category":"118","category_name":"超级市场","address":"奉城镇"},{"poiid":"B2094757D568A6FF4399","title":"上海晟丰商厦服装大卖场","lon":"121.64616645","lat":"30.91095378","category":"141","category_name":"服装鞋帽皮具店","address":"中国上海市奉贤区城大路"},{"poiid":"B2094654DB68ABFE409E","title":"城大新村","lon":"121.6458","lat":"30.909021","category":"47","category_name":"住宅区","address":"城大新村"},{"poiid":"B2094654DB68A2F44398","title":"医院新村","lon":"121.64402","lat":"30.91449","category":"47","category_name":"住宅区","address":""},{"poiid":"B2094757D56EA4FB489B","title":"奕婷(奉城店)","lon":"121.6462989","lat":"30.9130056","category":"249","category_name":"购物服务","address":"奉贤区奉城南街116"},{"poiid":"B2094654DB68ABFE4198","title":"曙光新村","lon":"121.64643","lat":"30.90572","category":"47","category_name":"住宅区","address":""},{"poiid":"B2094654DB6AA1FA499E","title":"奉贤区奉城第二中学","lon":"121.64087","lat":"30.9133","category":"55","category_name":"中学","address":"奉贤区奉城镇状元路"},{"poiid":"B2094757D568AAFC449E","title":"龙达新苑","lon":"121.64574","lat":"30.905027","category":"47","category_name":"住宅区","address":"上海市奉贤区兰博路2919弄"},{"poiid":"B2094655D36CA6F8419B","title":"奉城医院","lon":"121.64188","lat":"30.91145","category":"162","category_name":"医院","address":""},{"poiid":"B2094757D569A0F54393","title":"乐乐宝都","lon":"121.646042","lat":"30.905767","category":"47","category_name":"住宅区","address":"奉贤兰博路2896-2910号(双)等"},{"poiid":"B2094654DB68A2FB4399","title":"上海众星洗涤机械制造有限公司(二)车间","lon":"121.67048","lat":"30.92084","category":"263","category_name":"公司","address":""},{"poiid":"B2094757D16AA3F5459D","title":"中国工商银行(奉贤支行)","lon":"121.64387","lat":"30.91089","category":"150","category_name":"银行","address":"近郊奉贤川南奉公路9955(川南奉公路曙宏路)"},{"poiid":"B2094654DB69A6FC459D","title":"中国银行奉城支行","lon":"121.64329","lat":"30.91142","category":"150","category_name":"银行","address":"浦东新区川南奉公路9876号"},{"poiid":"B2094654DB64AAFD4492","title":"奉馨园","lon":"121.64344","lat":"30.923151","category":"47","category_name":"住宅区","address":"新奉公路6215弄"},{"poiid":"B2094654DB68ABFE4199","title":"邮电新村(邮电路)","lon":"121.63979","lat":"30.9094","category":"47","category_name":"住宅区","address":""},{"poiid":"B2094757D568A4F54498","title":"迪信通(奉城店)","lon":"121.64277317","lat":"30.91102295","category":"138","category_name":"家电电子卖场","address":"川南奉公路9963-1号"},{"poiid":"B2094654DB68ABFF419E","title":"中国联通奉城营业厅","lon":"121.64047","lat":"30.91133","category":"151","category_name":"电讯营业厅","address":"南奉公路9993号"}]