[{"poiid":"B2094655D36DA6FF499F","title":"海上国际影城(南桥百联店)","lon":"121.48177","lat":"30.91604","category":"178","category_name":"电影院","address":"近郊奉贤区南桥镇百齐路588号百联南桥购物中心4楼(近南桥汽车站)"},{"poiid":"B2094757D06FA3F8469D","title":"南桥汽车站","lon":"121.47966003","lat":"30.915561676","category":"35","category_name":"长途汽车站","address":"上海市奉贤区南奉公路(近沪金高速)"},{"poiid":"B2094757D068A1F4499D","title":"顺风大酒店(南桥店)","lon":"121.4838563","lat":"30.9150002","category":"75","category_name":"浙江菜","address":"近郊奉贤区南桥镇百齐路588号百联南桥购物中心2期4楼(近南桥汽车站)"},{"poiid":"B2094757D068A3FF4099","title":"避风塘(奉贤店)","lon":"121.48395274","lat":"30.915436548","category":"72","category_name":"广东菜","address":"近郊奉贤区南桥镇百齐路588号百联南桥购物中心内(近南桥汽车站)"},{"poiid":"B2094757D068AAF9439F","title":"奉贤图书馆","lon":"121.475452781","lat":"30.9170988553","category":"181","category_name":"图书馆","address":"上海奉贤区解放东路889号"},{"poiid":"B2094757D069A0F9449A","title":"必胜客(百齐路店)","lon":"121.48385724","lat":"30.912406941","category":"94","category_name":"西餐厅","address":"近郊奉贤区南桥镇南奉公路8515号南方国际购物中心1-2楼"},{"poiid":"B2094750DA6EA5FF4092","title":"源泰东南亚风味餐厅","lon":"121.486236","lat":"30.915634","category":"247","category_name":"餐饮美食","address":"近郊奉贤南奉公路8509弄28号南方国际C幢3楼"},{"poiid":"B2094655D26BA1F8419F","title":"南方国际广场","lon":"121.48474","lat":"30.91689","category":"38","category_name":"公交车站","address":"奉贤百兴路78弄"},{"poiid":"B2094757DA6AABFE4598","title":"好乐迪","lon":"121.479519","lat":"30.917919","category":"248","category_name":"生活娱乐","address":"南桥镇百齐路558号4F"},{"poiid":"B2094757D06BA3F94592","title":"正阳世纪星城","lon":"121.47933291","lat":"30.911579855","category":"47","category_name":"住宅区","address":"奉贤区南桥南奉公路8889号"},{"poiid":"B2094757D06AA6FC409D","title":"釜山料理","lon":"121.48421291","lat":"30.914152914","category":"247","category_name":"餐饮美食","address":"上海市奉贤区南桥镇百齐路588号 百联三期3F"},{"poiid":"B2094757D164A4FA4992","title":"南方国际","lon":"121.481894516","lat":"30.9144391209","category":"47","category_name":"住宅区","address":"上海奉贤南奉公路"},{"poiid":"B2094757D069A1FA4093","title":"卜蜂莲花(南桥店)","lon":"121.47638","lat":"30.9145","category":"118","category_name":"超级市场","address":"近郊奉贤区南桥镇南奉公路8891号"},{"poiid":"B2094757D064A5FE459D","title":"翡翠国际广场","lon":"121.474159","lat":"30.918167","category":"500","category_name":"未知分类","address":"上海奉贤区解放东路1088号"},{"poiid":"B2094757D468AAFE4098","title":"蜀府 奉贤百联店","lon":"121.4834690094","lat":"30.915259263997","category":"71","category_name":"四川菜","address":"近郊奉贤区南桥镇百齐路588号百联南桥购物中心3楼"},{"poiid":"B2094757DA6EA4F94999","title":"自由港量贩式KTV(南桥百联店)","lon":"121.483965999997","lat":"30.915239","category":"170","category_name":"KTV","address":"奉贤区南奉公路8509弄2栋3F"},{"poiid":"B2094757D06AA2FF4699","title":"奉贤区会议中心","lon":"121.474132","lat":"30.918472","category":"500","category_name":"未知分类","address":"上海奉贤区南桥镇解放东路928号"},{"poiid":"B2094757D66BA4FB429C","title":"南桥百联店 Starbucks Cafe","lon":"121.48385","lat":"30.915","category":"65","category_name":"咖啡厅","address":"百齐路588号百联南桥购物中心近南奉公路"},{"poiid":"B2094757D065AAF84193","title":"斗牛士","lon":"121.48427391","lat":"30.914887931","category":"500","category_name":"未知分类","address":"奉贤区南桥镇百齐路588号百联南郊购物中心近百顺路"},{"poiid":"B2094750DB65A1FF449B","title":"韩果汗蒸","lon":"121.478309","lat":"30.911874","category":"148","category_name":"美容美发店","address":null},{"poiid":"B2094757D06AA5F94192","title":"许留山（百联）","lon":"121.48467461","lat":"30.914308984","category":"67","category_name":"甜品店","address":"近郊奉贤区南桥镇百齐路588号百联南桥购物中心内(近南桥汽车站)"},{"poiid":"B2094757D76BA1FA439D","title":"爱茜茜里 南郊百联店 ICEASON","lon":"121.473639054","lat":"30.914233793","category":"67","category_name":"甜品店","address":"近郊奉贤区南桥镇百齐路588号百联南郊购物中心1楼"},{"poiid":"B2094751DA6FA0FF469B","title":"星巴克","lon":"121.48062","lat":"30.916847","category":"247","category_name":"餐饮美食","address":"南桥百联内"},{"poiid":"B2094757D465A4FA479D","title":"韩林炭烤 （百联南桥店）","lon":"121.473706","lat":"30.914175","category":"247","category_name":"餐饮美食","address":"百齐路288号百联南桥购物中心二期4楼近南奉公路"},{"poiid":"B2094757D16FA5FF4792","title":"陌生人火锅餐厅","lon":"121.483640916","lat":"30.9186950181","category":"500","category_name":"未知分类","address":"近郊奉贤区南桥镇百齐路288号百联南桥购物中心2楼"},{"poiid":"B2094654DB6FAAF4499B","title":"南桥车站","lon":"121.47953","lat":"30.91489","category":"35","category_name":"长途汽车站","address":"南奉公路"},{"poiid":"B2094757D469A7F54892","title":"郭记小厨","lon":"121.47767","lat":"30.91726","category":"76","category_name":"上海菜","address":"近郊奉贤区南桥镇南奉公路8889弄61-75号(近易初莲花)"},{"poiid":"B2094750D568A3FA4492","title":"肯德基(南奉公路店)","lon":"121.476","lat":"30.9147","category":"68","category_name":"快餐厅","address":"近郊奉贤区南奉公路8889号"},{"poiid":"B2094757D66BA4FA409B","title":"斗牛士 南桥百联店","lon":"121.485151","lat":"30.912734","category":"94","category_name":"西餐厅","address":"近郊奉贤区南桥镇百齐路588号百联南桥购物中心内(近南桥汽车站)"},{"poiid":"B2094757D765A4FC409E","title":"肯德基 南桥百联店 KFC","lon":"121.48385","lat":"30.915","category":"68","category_name":"快餐厅","address":"近郊奉贤区南桥镇百齐路588号百联南桥购物中心内(近南桥汽车站)"},{"poiid":"B2094757D065AAFA4999","title":"甜蜜蜜(南桥二店)","lon":"121.47451476","lat":"30.91413988","category":"67","category_name":"甜品店","address":"近郊南奉公路8891号(近易初莲花)"},{"poiid":"B2094757D464ABF9459C","title":"棒约翰比萨 南桥百联店 Papa John's Pizza","lon":"121.48385","lat":"30.915","category":"94","category_name":"西餐厅","address":"近郊奉贤区南桥镇百齐路588号百联南郊购物中心4楼"},{"poiid":"B2094757D664A7F94992","title":"DQ冰雪皇后 南桥百联店 Dairy Queen","lon":"121.484","lat":"30.91554","category":"113","category_name":"冷饮店","address":"近郊奉贤区南桥镇百齐路588号百联南郊购物中心第一食品店1楼"},{"poiid":"B2094757D16CA1FA489F","title":"奉贤广播电视台","lon":"121.47657775","lat":"30.918563842","category":"59","category_name":"电视台","address":"上海奉贤区解放东路666号"},{"poiid":"B2094757D46EABF84092","title":"PANKOO釜山料理 奉贤南桥店","lon":"121.484456","lat":"30.916669","category":"96","category_name":"韩国料理","address":"近郊奉贤区南奉公路8509弄2幢38号3楼"},{"poiid":"B2094654DB6FAAF5429D","title":"塘外卫生院南桥门诊部","lon":"121.47971","lat":"30.91608","category":"162","category_name":"医院","address":"南奉公路8648-8650"},{"poiid":"B2094757D568A5FD4499","title":"东方商厦","lon":"121.48381944","lat":"30.91576253","category":"46","category_name":"楼宇","address":"近郊奉贤区南桥镇百齐路588号(南桥汽车站东侧)"},{"poiid":"B2094750D76FA0F94198","title":"澳门豆捞","lon":"121.481","lat":"30.9161","category":"86","category_name":"火锅店","address":"近郊南奉公路8580号百联购物广场内"},{"poiid":"B2094655D26DA6FD479A","title":"华龙公寓(解放东路)","lon":"121.47874","lat":"30.91744","category":"47","category_name":"住宅区","address":"解放东路9号"},{"poiid":"B2094757D164A0F5479D","title":"巴贝拉","lon":"121.483856","lat":"30.915","category":"500","category_name":"未知分类","address":"近郊奉贤区南桥镇百齐路588号百联南桥购物中心三期1楼(近南桥汽车站)"},{"poiid":"B2094757DA69A2FF4293","title":"添麗私房菜","lon":"121.47259456398","lat":"30.917800115575","category":"95","category_name":"日本料理","address":"近郊奉贤解放东路1018弄绿地翡翠国际广场2号楼19号(近翡翠公馆)"},{"poiid":"B2094654DB64A6F5449D","title":"集集小镇(奉贤二店)","lon":"121.4761","lat":"30.91481","category":"87","category_name":"特色／地方风味餐厅","address":"近郊奉贤区南奉公路8891号卜蜂莲花(近克莉丝汀)"},{"poiid":"B2094757D16CA7F94299","title":"宜芝多(南桥百联店)","lon":"121.478864916","lat":"30.9151739376","category":"500","category_name":"未知分类","address":"近郊奉贤区南桥镇百齐路588号百联南桥购物中心二期1楼(近南桥汽车站)"},{"poiid":"B2094654DB68A7FA449E","title":"永琪美容美发(南奉公路)","lon":"121.47742","lat":"30.91419","category":"148","category_name":"美容美发店","address":"南奉公路8889弄33-47"},{"poiid":"B2094750D56FAAFF4492","title":"PANKOO釜山料理(百联南桥店)","lon":"121.484","lat":"30.9155","category":"96","category_name":"韩国料理","address":"近郊奉贤南桥镇百齐路588号百联南桥购物中心"},{"poiid":"B2094757D16EA6F5449C","title":"利都新概念桌球","lon":"121.481499216","lat":"30.9185366145","category":"500","category_name":"未知分类","address":"上海南桥好乐迪旁"},{"poiid":"B2094757D66BA4FD4599","title":"小杨生煎 南桥百联店","lon":"121.483804","lat":"30.915796","category":"68","category_name":"快餐厅","address":"近郊奉贤区南桥镇百齐路588号百联南桥购物中心内(近南奉公路)"},{"poiid":"B2094757D665A2F4419F","title":"重庆临江门老火锅 百联南桥店","lon":"121.484647","lat":"30.916607","category":"86","category_name":"火锅店","address":"近郊南奉公路8509号百联南桥购物中心南方国际2期广场(避风塘广场对面)"},{"poiid":"B2094655D26EAAFD4492","title":"上海梅丽亚晶商务酒店","lon":"121.48593","lat":"30.91632","category":"250","category_name":"公园户外","address":"近郊奉贤区南桥镇南奉公路8505号"},{"poiid":"B2094757D56DA0F8459E","title":"南方百联营业厅","lon":"121.483198","lat":"30.912063","category":"151","category_name":"电讯营业厅","address":"奉贤区莘奉公路1985号"},{"poiid":"B2094655D36DA6FF499F","title":"海上国际影城(南桥百联店)","lon":"121.48177","lat":"30.91604","category":"178","category_name":"电影院","address":"近郊奉贤区南桥镇百齐路588号百联南桥购物中心4楼(近南桥汽车站)"},{"poiid":"B2094757D06FA3F8469D","title":"南桥汽车站","lon":"121.47966003","lat":"30.915561676","category":"35","category_name":"长途汽车站","address":"上海市奉贤区南奉公路(近沪金高速)"},{"poiid":"B2094757D068A1F4499D","title":"顺风大酒店(南桥店)","lon":"121.4838563","lat":"30.9150002","category":"75","category_name":"浙江菜","address":"近郊奉贤区南桥镇百齐路588号百联南桥购物中心2期4楼(近南桥汽车站)"},{"poiid":"B2094757D068A3FF4099","title":"避风塘(奉贤店)","lon":"121.48395274","lat":"30.915436548","category":"72","category_name":"广东菜","address":"近郊奉贤区南桥镇百齐路588号百联南桥购物中心内(近南桥汽车站)"},{"poiid":"B2094757D068AAF9439F","title":"奉贤图书馆","lon":"121.475452781","lat":"30.9170988553","category":"181","category_name":"图书馆","address":"上海奉贤区解放东路889号"},{"poiid":"B2094757D069A0F9449A","title":"必胜客(百齐路店)","lon":"121.48385724","lat":"30.912406941","category":"94","category_name":"西餐厅","address":"近郊奉贤区南桥镇南奉公路8515号南方国际购物中心1-2楼"},{"poiid":"B2094750DA6EA5FF4092","title":"源泰东南亚风味餐厅","lon":"121.486236","lat":"30.915634","category":"247","category_name":"餐饮美食","address":"近郊奉贤南奉公路8509弄28号南方国际C幢3楼"},{"poiid":"B2094655D26BA1F8419F","title":"南方国际广场","lon":"121.48474","lat":"30.91689","category":"38","category_name":"公交车站","address":"奉贤百兴路78弄"},{"poiid":"B2094757DA6AABFE4598","title":"好乐迪","lon":"121.479519","lat":"30.917919","category":"248","category_name":"生活娱乐","address":"南桥镇百齐路558号4F"},{"poiid":"B2094757D06BA3F94592","title":"正阳世纪星城","lon":"121.47933291","lat":"30.911579855","category":"47","category_name":"住宅区","address":"奉贤区南桥南奉公路8889号"},{"poiid":"B2094757D06AA6FC409D","title":"釜山料理","lon":"121.48421291","lat":"30.914152914","category":"247","category_name":"餐饮美食","address":"上海市奉贤区南桥镇百齐路588号 百联三期3F"},{"poiid":"B2094757D164A4FA4992","title":"南方国际","lon":"121.481894516","lat":"30.9144391209","category":"47","category_name":"住宅区","address":"上海奉贤南奉公路"},{"poiid":"B2094757D069A1FA4093","title":"卜蜂莲花(南桥店)","lon":"121.47638","lat":"30.9145","category":"118","category_name":"超级市场","address":"近郊奉贤区南桥镇南奉公路8891号"},{"poiid":"B2094757D064A5FE459D","title":"翡翠国际广场","lon":"121.474159","lat":"30.918167","category":"500","category_name":"未知分类","address":"上海奉贤区解放东路1088号"},{"poiid":"B2094757D468AAFE4098","title":"蜀府 奉贤百联店","lon":"121.4834690094","lat":"30.915259263997","category":"71","category_name":"四川菜","address":"近郊奉贤区南桥镇百齐路588号百联南桥购物中心3楼"},{"poiid":"B2094757DA6EA4F94999","title":"自由港量贩式KTV(南桥百联店)","lon":"121.483965999997","lat":"30.915239","category":"170","category_name":"KTV","address":"奉贤区南奉公路8509弄2栋3F"},{"poiid":"B2094757D06AA2FF4699","title":"奉贤区会议中心","lon":"121.474132","lat":"30.918472","category":"500","category_name":"未知分类","address":"上海奉贤区南桥镇解放东路928号"},{"poiid":"B2094757D66BA4FB429C","title":"南桥百联店 Starbucks Cafe","lon":"121.48385","lat":"30.915","category":"65","category_name":"咖啡厅","address":"百齐路588号百联南桥购物中心近南奉公路"},{"poiid":"B2094757D065AAF84193","title":"斗牛士","lon":"121.48427391","lat":"30.914887931","category":"500","category_name":"未知分类","address":"奉贤区南桥镇百齐路588号百联南郊购物中心近百顺路"},{"poiid":"B2094750DB65A1FF449B","title":"韩果汗蒸","lon":"121.478309","lat":"30.911874","category":"148","category_name":"美容美发店","address":null},{"poiid":"B2094757D06AA5F94192","title":"许留山（百联）","lon":"121.48467461","lat":"30.914308984","category":"67","category_name":"甜品店","address":"近郊奉贤区南桥镇百齐路588号百联南桥购物中心内(近南桥汽车站)"},{"poiid":"B2094757D76BA1FA439D","title":"爱茜茜里 南郊百联店 ICEASON","lon":"121.473639054","lat":"30.914233793","category":"67","category_name":"甜品店","address":"近郊奉贤区南桥镇百齐路588号百联南郊购物中心1楼"},{"poiid":"B2094751DA6FA0FF469B","title":"星巴克","lon":"121.48062","lat":"30.916847","category":"247","category_name":"餐饮美食","address":"南桥百联内"},{"poiid":"B2094757D465A4FA479D","title":"韩林炭烤 （百联南桥店）","lon":"121.473706","lat":"30.914175","category":"247","category_name":"餐饮美食","address":"百齐路288号百联南桥购物中心二期4楼近南奉公路"},{"poiid":"B2094757D16FA5FF4792","title":"陌生人火锅餐厅","lon":"121.483640916","lat":"30.9186950181","category":"500","category_name":"未知分类","address":"近郊奉贤区南桥镇百齐路288号百联南桥购物中心2楼"},{"poiid":"B2094654DB6FAAF4499B","title":"南桥车站","lon":"121.47953","lat":"30.91489","category":"35","category_name":"长途汽车站","address":"南奉公路"},{"poiid":"B2094757D469A7F54892","title":"郭记小厨","lon":"121.47767","lat":"30.91726","category":"76","category_name":"上海菜","address":"近郊奉贤区南桥镇南奉公路8889弄61-75号(近易初莲花)"},{"poiid":"B2094750D568A3FA4492","title":"肯德基(南奉公路店)","lon":"121.476","lat":"30.9147","category":"68","category_name":"快餐厅","address":"近郊奉贤区南奉公路8889号"},{"poiid":"B2094757D66BA4FA409B","title":"斗牛士 南桥百联店","lon":"121.485151","lat":"30.912734","category":"94","category_name":"西餐厅","address":"近郊奉贤区南桥镇百齐路588号百联南桥购物中心内(近南桥汽车站)"},{"poiid":"B2094757D765A4FC409E","title":"肯德基 南桥百联店 KFC","lon":"121.48385","lat":"30.915","category":"68","category_name":"快餐厅","address":"近郊奉贤区南桥镇百齐路588号百联南桥购物中心内(近南桥汽车站)"},{"poiid":"B2094757D065AAFA4999","title":"甜蜜蜜(南桥二店)","lon":"121.47451476","lat":"30.91413988","category":"67","category_name":"甜品店","address":"近郊南奉公路8891号(近易初莲花)"},{"poiid":"B2094757D464ABF9459C","title":"棒约翰比萨 南桥百联店 Papa John's Pizza","lon":"121.48385","lat":"30.915","category":"94","category_name":"西餐厅","address":"近郊奉贤区南桥镇百齐路588号百联南郊购物中心4楼"},{"poiid":"B2094757D664A7F94992","title":"DQ冰雪皇后 南桥百联店 Dairy Queen","lon":"121.484","lat":"30.91554","category":"113","category_name":"冷饮店","address":"近郊奉贤区南桥镇百齐路588号百联南郊购物中心第一食品店1楼"},{"poiid":"B2094757D16CA1FA489F","title":"奉贤广播电视台","lon":"121.47657775","lat":"30.918563842","category":"59","category_name":"电视台","address":"上海奉贤区解放东路666号"},{"poiid":"B2094757D46EABF84092","title":"PANKOO釜山料理 奉贤南桥店","lon":"121.484456","lat":"30.916669","category":"96","category_name":"韩国料理","address":"近郊奉贤区南奉公路8509弄2幢38号3楼"},{"poiid":"B2094654DB6FAAF5429D","title":"塘外卫生院南桥门诊部","lon":"121.47971","lat":"30.91608","category":"162","category_name":"医院","address":"南奉公路8648-8650"},{"poiid":"B2094757D568A5FD4499","title":"东方商厦","lon":"121.48381944","lat":"30.91576253","category":"46","category_name":"楼宇","address":"近郊奉贤区南桥镇百齐路588号(南桥汽车站东侧)"},{"poiid":"B2094750D76FA0F94198","title":"澳门豆捞","lon":"121.481","lat":"30.9161","category":"86","category_name":"火锅店","address":"近郊南奉公路8580号百联购物广场内"},{"poiid":"B2094655D26DA6FD479A","title":"华龙公寓(解放东路)","lon":"121.47874","lat":"30.91744","category":"47","category_name":"住宅区","address":"解放东路9号"},{"poiid":"B2094757D164A0F5479D","title":"巴贝拉","lon":"121.483856","lat":"30.915","category":"500","category_name":"未知分类","address":"近郊奉贤区南桥镇百齐路588号百联南桥购物中心三期1楼(近南桥汽车站)"},{"poiid":"B2094757DA69A2FF4293","title":"添麗私房菜","lon":"121.47259456398","lat":"30.917800115575","category":"95","category_name":"日本料理","address":"近郊奉贤解放东路1018弄绿地翡翠国际广场2号楼19号(近翡翠公馆)"},{"poiid":"B2094654DB64A6F5449D","title":"集集小镇(奉贤二店)","lon":"121.4761","lat":"30.91481","category":"87","category_name":"特色／地方风味餐厅","address":"近郊奉贤区南奉公路8891号卜蜂莲花(近克莉丝汀)"},{"poiid":"B2094757D16CA7F94299","title":"宜芝多(南桥百联店)","lon":"121.478864916","lat":"30.9151739376","category":"500","category_name":"未知分类","address":"近郊奉贤区南桥镇百齐路588号百联南桥购物中心二期1楼(近南桥汽车站)"},{"poiid":"B2094654DB68A7FA449E","title":"永琪美容美发(南奉公路)","lon":"121.47742","lat":"30.91419","category":"148","category_name":"美容美发店","address":"南奉公路8889弄33-47"},{"poiid":"B2094750D56FAAFF4492","title":"PANKOO釜山料理(百联南桥店)","lon":"121.484","lat":"30.9155","category":"96","category_name":"韩国料理","address":"近郊奉贤南桥镇百齐路588号百联南桥购物中心"},{"poiid":"B2094757D16EA6F5449C","title":"利都新概念桌球","lon":"121.481499216","lat":"30.9185366145","category":"500","category_name":"未知分类","address":"上海南桥好乐迪旁"},{"poiid":"B2094757D66BA4FD4599","title":"小杨生煎 南桥百联店","lon":"121.483804","lat":"30.915796","category":"68","category_name":"快餐厅","address":"近郊奉贤区南桥镇百齐路588号百联南桥购物中心内(近南奉公路)"},{"poiid":"B2094757D665A2F4419F","title":"重庆临江门老火锅 百联南桥店","lon":"121.484647","lat":"30.916607","category":"86","category_name":"火锅店","address":"近郊南奉公路8509号百联南桥购物中心南方国际2期广场(避风塘广场对面)"},{"poiid":"B2094655D26EAAFD4492","title":"上海梅丽亚晶商务酒店","lon":"121.48593","lat":"30.91632","category":"250","category_name":"公园户外","address":"近郊奉贤区南桥镇南奉公路8505号"},{"poiid":"B2094757D56DA0F8459E","title":"南方百联营业厅","lon":"121.483198","lat":"30.912063","category":"151","category_name":"电讯营业厅","address":"奉贤区莘奉公路1985号"},{"poiid":"B2094655D36DA6FF499F","title":"海上国际影城(南桥百联店)","lon":"121.48177","lat":"30.91604","category":"178","category_name":"电影院","address":"近郊奉贤区南桥镇百齐路588号百联南桥购物中心4楼(近南桥汽车站)"},{"poiid":"B2094757D06FA3F8469D","title":"南桥汽车站","lon":"121.47966003","lat":"30.915561676","category":"35","category_name":"长途汽车站","address":"上海市奉贤区南奉公路(近沪金高速)"},{"poiid":"B2094757D068A1F4499D","title":"顺风大酒店(南桥店)","lon":"121.4838563","lat":"30.9150002","category":"75","category_name":"浙江菜","address":"近郊奉贤区南桥镇百齐路588号百联南桥购物中心2期4楼(近南桥汽车站)"},{"poiid":"B2094757D068A3FF4099","title":"避风塘(奉贤店)","lon":"121.48395274","lat":"30.915436548","category":"72","category_name":"广东菜","address":"近郊奉贤区南桥镇百齐路588号百联南桥购物中心内(近南桥汽车站)"},{"poiid":"B2094757D068AAF9439F","title":"奉贤图书馆","lon":"121.475452781","lat":"30.9170988553","category":"181","category_name":"图书馆","address":"上海奉贤区解放东路889号"},{"poiid":"B2094757D069A0F9449A","title":"必胜客(百齐路店)","lon":"121.48385724","lat":"30.912406941","category":"94","category_name":"西餐厅","address":"近郊奉贤区南桥镇南奉公路8515号南方国际购物中心1-2楼"},{"poiid":"B2094750DA6EA5FF4092","title":"源泰东南亚风味餐厅","lon":"121.486236","lat":"30.915634","category":"247","category_name":"餐饮美食","address":"近郊奉贤南奉公路8509弄28号南方国际C幢3楼"},{"poiid":"B2094655D26BA1F8419F","title":"南方国际广场","lon":"121.48474","lat":"30.91689","category":"38","category_name":"公交车站","address":"奉贤百兴路78弄"},{"poiid":"B2094757DA6AABFE4598","title":"好乐迪","lon":"121.479519","lat":"30.917919","category":"248","category_name":"生活娱乐","address":"南桥镇百齐路558号4F"},{"poiid":"B2094757D06BA3F94592","title":"正阳世纪星城","lon":"121.47933291","lat":"30.911579855","category":"47","category_name":"住宅区","address":"奉贤区南桥南奉公路8889号"},{"poiid":"B2094757D06AA6FC409D","title":"釜山料理","lon":"121.48421291","lat":"30.914152914","category":"247","category_name":"餐饮美食","address":"上海市奉贤区南桥镇百齐路588号 百联三期3F"},{"poiid":"B2094757D164A4FA4992","title":"南方国际","lon":"121.481894516","lat":"30.9144391209","category":"47","category_name":"住宅区","address":"上海奉贤南奉公路"},{"poiid":"B2094757D069A1FA4093","title":"卜蜂莲花(南桥店)","lon":"121.47638","lat":"30.9145","category":"118","category_name":"超级市场","address":"近郊奉贤区南桥镇南奉公路8891号"},{"poiid":"B2094757D064A5FE459D","title":"翡翠国际广场","lon":"121.474159","lat":"30.918167","category":"500","category_name":"未知分类","address":"上海奉贤区解放东路1088号"},{"poiid":"B2094757D468AAFE4098","title":"蜀府 奉贤百联店","lon":"121.4834690094","lat":"30.915259263997","category":"71","category_name":"四川菜","address":"近郊奉贤区南桥镇百齐路588号百联南桥购物中心3楼"},{"poiid":"B2094757DA6EA4F94999","title":"自由港量贩式KTV(南桥百联店)","lon":"121.483965999997","lat":"30.915239","category":"170","category_name":"KTV","address":"奉贤区南奉公路8509弄2栋3F"},{"poiid":"B2094757D06AA2FF4699","title":"奉贤区会议中心","lon":"121.474132","lat":"30.918472","category":"500","category_name":"未知分类","address":"上海奉贤区南桥镇解放东路928号"},{"poiid":"B2094757D66BA4FB429C","title":"南桥百联店 Starbucks Cafe","lon":"121.48385","lat":"30.915","category":"65","category_name":"咖啡厅","address":"百齐路588号百联南桥购物中心近南奉公路"},{"poiid":"B2094757D065AAF84193","title":"斗牛士","lon":"121.48427391","lat":"30.914887931","category":"500","category_name":"未知分类","address":"奉贤区南桥镇百齐路588号百联南郊购物中心近百顺路"},{"poiid":"B2094750DB65A1FF449B","title":"韩果汗蒸","lon":"121.478309","lat":"30.911874","category":"148","category_name":"美容美发店","address":null},{"poiid":"B2094757D06AA5F94192","title":"许留山（百联）","lon":"121.48467461","lat":"30.914308984","category":"67","category_name":"甜品店","address":"近郊奉贤区南桥镇百齐路588号百联南桥购物中心内(近南桥汽车站)"},{"poiid":"B2094757D76BA1FA439D","title":"爱茜茜里 南郊百联店 ICEASON","lon":"121.473639054","lat":"30.914233793","category":"67","category_name":"甜品店","address":"近郊奉贤区南桥镇百齐路588号百联南郊购物中心1楼"},{"poiid":"B2094751DA6FA0FF469B","title":"星巴克","lon":"121.48062","lat":"30.916847","category":"247","category_name":"餐饮美食","address":"南桥百联内"},{"poiid":"B2094757D465A4FA479D","title":"韩林炭烤 （百联南桥店）","lon":"121.473706","lat":"30.914175","category":"247","category_name":"餐饮美食","address":"百齐路288号百联南桥购物中心二期4楼近南奉公路"},{"poiid":"B2094757D16FA5FF4792","title":"陌生人火锅餐厅","lon":"121.483640916","lat":"30.9186950181","category":"500","category_name":"未知分类","address":"近郊奉贤区南桥镇百齐路288号百联南桥购物中心2楼"},{"poiid":"B2094654DB6FAAF4499B","title":"南桥车站","lon":"121.47953","lat":"30.91489","category":"35","category_name":"长途汽车站","address":"南奉公路"},{"poiid":"B2094757D469A7F54892","title":"郭记小厨","lon":"121.47767","lat":"30.91726","category":"76","category_name":"上海菜","address":"近郊奉贤区南桥镇南奉公路8889弄61-75号(近易初莲花)"},{"poiid":"B2094750D568A3FA4492","title":"肯德基(南奉公路店)","lon":"121.476","lat":"30.9147","category":"68","category_name":"快餐厅","address":"近郊奉贤区南奉公路8889号"},{"poiid":"B2094757D66BA4FA409B","title":"斗牛士 南桥百联店","lon":"121.485151","lat":"30.912734","category":"94","category_name":"西餐厅","address":"近郊奉贤区南桥镇百齐路588号百联南桥购物中心内(近南桥汽车站)"},{"poiid":"B2094757D765A4FC409E","title":"肯德基 南桥百联店 KFC","lon":"121.48385","lat":"30.915","category":"68","category_name":"快餐厅","address":"近郊奉贤区南桥镇百齐路588号百联南桥购物中心内(近南桥汽车站)"},{"poiid":"B2094757D065AAFA4999","title":"甜蜜蜜(南桥二店)","lon":"121.47451476","lat":"30.91413988","category":"67","category_name":"甜品店","address":"近郊南奉公路8891号(近易初莲花)"},{"poiid":"B2094757D464ABF9459C","title":"棒约翰比萨 南桥百联店 Papa John's Pizza","lon":"121.48385","lat":"30.915","category":"94","category_name":"西餐厅","address":"近郊奉贤区南桥镇百齐路588号百联南郊购物中心4楼"},{"poiid":"B2094757D664A7F94992","title":"DQ冰雪皇后 南桥百联店 Dairy Queen","lon":"121.484","lat":"30.91554","category":"113","category_name":"冷饮店","address":"近郊奉贤区南桥镇百齐路588号百联南郊购物中心第一食品店1楼"},{"poiid":"B2094757D16CA1FA489F","title":"奉贤广播电视台","lon":"121.47657775","lat":"30.918563842","category":"59","category_name":"电视台","address":"上海奉贤区解放东路666号"},{"poiid":"B2094757D46EABF84092","title":"PANKOO釜山料理 奉贤南桥店","lon":"121.484456","lat":"30.916669","category":"96","category_name":"韩国料理","address":"近郊奉贤区南奉公路8509弄2幢38号3楼"},{"poiid":"B2094654DB6FAAF5429D","title":"塘外卫生院南桥门诊部","lon":"121.47971","lat":"30.91608","category":"162","category_name":"医院","address":"南奉公路8648-8650"},{"poiid":"B2094757D568A5FD4499","title":"东方商厦","lon":"121.48381944","lat":"30.91576253","category":"46","category_name":"楼宇","address":"近郊奉贤区南桥镇百齐路588号(南桥汽车站东侧)"},{"poiid":"B2094750D76FA0F94198","title":"澳门豆捞","lon":"121.481","lat":"30.9161","category":"86","category_name":"火锅店","address":"近郊南奉公路8580号百联购物广场内"},{"poiid":"B2094655D26DA6FD479A","title":"华龙公寓(解放东路)","lon":"121.47874","lat":"30.91744","category":"47","category_name":"住宅区","address":"解放东路9号"},{"poiid":"B2094757D164A0F5479D","title":"巴贝拉","lon":"121.483856","lat":"30.915","category":"500","category_name":"未知分类","address":"近郊奉贤区南桥镇百齐路588号百联南桥购物中心三期1楼(近南桥汽车站)"},{"poiid":"B2094757DA69A2FF4293","title":"添麗私房菜","lon":"121.47259456398","lat":"30.917800115575","category":"95","category_name":"日本料理","address":"近郊奉贤解放东路1018弄绿地翡翠国际广场2号楼19号(近翡翠公馆)"},{"poiid":"B2094654DB64A6F5449D","title":"集集小镇(奉贤二店)","lon":"121.4761","lat":"30.91481","category":"87","category_name":"特色／地方风味餐厅","address":"近郊奉贤区南奉公路8891号卜蜂莲花(近克莉丝汀)"},{"poiid":"B2094757D16CA7F94299","title":"宜芝多(南桥百联店)","lon":"121.478864916","lat":"30.9151739376","category":"500","category_name":"未知分类","address":"近郊奉贤区南桥镇百齐路588号百联南桥购物中心二期1楼(近南桥汽车站)"},{"poiid":"B2094654DB68A7FA449E","title":"永琪美容美发(南奉公路)","lon":"121.47742","lat":"30.91419","category":"148","category_name":"美容美发店","address":"南奉公路8889弄33-47"},{"poiid":"B2094750D56FAAFF4492","title":"PANKOO釜山料理(百联南桥店)","lon":"121.484","lat":"30.9155","category":"96","category_name":"韩国料理","address":"近郊奉贤南桥镇百齐路588号百联南桥购物中心"},{"poiid":"B2094757D16EA6F5449C","title":"利都新概念桌球","lon":"121.481499216","lat":"30.9185366145","category":"500","category_name":"未知分类","address":"上海南桥好乐迪旁"},{"poiid":"B2094757D66BA4FD4599","title":"小杨生煎 南桥百联店","lon":"121.483804","lat":"30.915796","category":"68","category_name":"快餐厅","address":"近郊奉贤区南桥镇百齐路588号百联南桥购物中心内(近南奉公路)"},{"poiid":"B2094757D665A2F4419F","title":"重庆临江门老火锅 百联南桥店","lon":"121.484647","lat":"30.916607","category":"86","category_name":"火锅店","address":"近郊南奉公路8509号百联南桥购物中心南方国际2期广场(避风塘广场对面)"},{"poiid":"B2094655D26EAAFD4492","title":"上海梅丽亚晶商务酒店","lon":"121.48593","lat":"30.91632","category":"250","category_name":"公园户外","address":"近郊奉贤区南桥镇南奉公路8505号"},{"poiid":"B2094757D56DA0F8459E","title":"南方百联营业厅","lon":"121.483198","lat":"30.912063","category":"151","category_name":"电讯营业厅","address":"奉贤区莘奉公路1985号"},{"poiid":"B2094655D36DA6FF499F","title":"海上国际影城(南桥百联店)","lon":"121.48177","lat":"30.91604","category":"178","category_name":"电影院","address":"近郊奉贤区南桥镇百齐路588号百联南桥购物中心4楼(近南桥汽车站)"},{"poiid":"B2094757D06FA3F8469D","title":"南桥汽车站","lon":"121.47966003","lat":"30.915561676","category":"35","category_name":"长途汽车站","address":"上海市奉贤区南奉公路(近沪金高速)"},{"poiid":"B2094757D068A1F4499D","title":"顺风大酒店(南桥店)","lon":"121.4838563","lat":"30.9150002","category":"75","category_name":"浙江菜","address":"近郊奉贤区南桥镇百齐路588号百联南桥购物中心2期4楼(近南桥汽车站)"},{"poiid":"B2094757D068A3FF4099","title":"避风塘(奉贤店)","lon":"121.48395274","lat":"30.915436548","category":"72","category_name":"广东菜","address":"近郊奉贤区南桥镇百齐路588号百联南桥购物中心内(近南桥汽车站)"},{"poiid":"B2094757D068AAF9439F","title":"奉贤图书馆","lon":"121.475452781","lat":"30.9170988553","category":"181","category_name":"图书馆","address":"上海奉贤区解放东路889号"},{"poiid":"B2094757D069A0F9449A","title":"必胜客(百齐路店)","lon":"121.48385724","lat":"30.912406941","category":"94","category_name":"西餐厅","address":"近郊奉贤区南桥镇南奉公路8515号南方国际购物中心1-2楼"},{"poiid":"B2094750DA6EA5FF4092","title":"源泰东南亚风味餐厅","lon":"121.486236","lat":"30.915634","category":"247","category_name":"餐饮美食","address":"近郊奉贤南奉公路8509弄28号南方国际C幢3楼"},{"poiid":"B2094655D26BA1F8419F","title":"南方国际广场","lon":"121.48474","lat":"30.91689","category":"38","category_name":"公交车站","address":"奉贤百兴路78弄"},{"poiid":"B2094757DA6AABFE4598","title":"好乐迪","lon":"121.479519","lat":"30.917919","category":"248","category_name":"生活娱乐","address":"南桥镇百齐路558号4F"},{"poiid":"B2094757D06BA3F94592","title":"正阳世纪星城","lon":"121.47933291","lat":"30.911579855","category":"47","category_name":"住宅区","address":"奉贤区南桥南奉公路8889号"},{"poiid":"B2094757D06AA6FC409D","title":"釜山料理","lon":"121.48421291","lat":"30.914152914","category":"247","category_name":"餐饮美食","address":"上海市奉贤区南桥镇百齐路588号 百联三期3F"},{"poiid":"B2094757D164A4FA4992","title":"南方国际","lon":"121.481894516","lat":"30.9144391209","category":"47","category_name":"住宅区","address":"上海奉贤南奉公路"},{"poiid":"B2094757D069A1FA4093","title":"卜蜂莲花(南桥店)","lon":"121.47638","lat":"30.9145","category":"118","category_name":"超级市场","address":"近郊奉贤区南桥镇南奉公路8891号"},{"poiid":"B2094757D064A5FE459D","title":"翡翠国际广场","lon":"121.474159","lat":"30.918167","category":"500","category_name":"未知分类","address":"上海奉贤区解放东路1088号"},{"poiid":"B2094757D468AAFE4098","title":"蜀府 奉贤百联店","lon":"121.4834690094","lat":"30.915259263997","category":"71","category_name":"四川菜","address":"近郊奉贤区南桥镇百齐路588号百联南桥购物中心3楼"},{"poiid":"B2094757DA6EA4F94999","title":"自由港量贩式KTV(南桥百联店)","lon":"121.483965999997","lat":"30.915239","category":"170","category_name":"KTV","address":"奉贤区南奉公路8509弄2栋3F"},{"poiid":"B2094757D06AA2FF4699","title":"奉贤区会议中心","lon":"121.474132","lat":"30.918472","category":"500","category_name":"未知分类","address":"上海奉贤区南桥镇解放东路928号"},{"poiid":"B2094757D66BA4FB429C","title":"南桥百联店 Starbucks Cafe","lon":"121.48385","lat":"30.915","category":"65","category_name":"咖啡厅","address":"百齐路588号百联南桥购物中心近南奉公路"},{"poiid":"B2094757D065AAF84193","title":"斗牛士","lon":"121.48427391","lat":"30.914887931","category":"500","category_name":"未知分类","address":"奉贤区南桥镇百齐路588号百联南郊购物中心近百顺路"},{"poiid":"B2094750DB65A1FF449B","title":"韩果汗蒸","lon":"121.478309","lat":"30.911874","category":"148","category_name":"美容美发店","address":null},{"poiid":"B2094757D06AA5F94192","title":"许留山（百联）","lon":"121.48467461","lat":"30.914308984","category":"67","category_name":"甜品店","address":"近郊奉贤区南桥镇百齐路588号百联南桥购物中心内(近南桥汽车站)"},{"poiid":"B2094757D76BA1FA439D","title":"爱茜茜里 南郊百联店 ICEASON","lon":"121.473639054","lat":"30.914233793","category":"67","category_name":"甜品店","address":"近郊奉贤区南桥镇百齐路588号百联南郊购物中心1楼"},{"poiid":"B2094751DA6FA0FF469B","title":"星巴克","lon":"121.48062","lat":"30.916847","category":"247","category_name":"餐饮美食","address":"南桥百联内"},{"poiid":"B2094757D465A4FA479D","title":"韩林炭烤 （百联南桥店）","lon":"121.473706","lat":"30.914175","category":"247","category_name":"餐饮美食","address":"百齐路288号百联南桥购物中心二期4楼近南奉公路"},{"poiid":"B2094757D16FA5FF4792","title":"陌生人火锅餐厅","lon":"121.483640916","lat":"30.9186950181","category":"500","category_name":"未知分类","address":"近郊奉贤区南桥镇百齐路288号百联南桥购物中心2楼"},{"poiid":"B2094654DB6FAAF4499B","title":"南桥车站","lon":"121.47953","lat":"30.91489","category":"35","category_name":"长途汽车站","address":"南奉公路"},{"poiid":"B2094757D469A7F54892","title":"郭记小厨","lon":"121.47767","lat":"30.91726","category":"76","category_name":"上海菜","address":"近郊奉贤区南桥镇南奉公路8889弄61-75号(近易初莲花)"},{"poiid":"B2094750D568A3FA4492","title":"肯德基(南奉公路店)","lon":"121.476","lat":"30.9147","category":"68","category_name":"快餐厅","address":"近郊奉贤区南奉公路8889号"},{"poiid":"B2094757D66BA4FA409B","title":"斗牛士 南桥百联店","lon":"121.485151","lat":"30.912734","category":"94","category_name":"西餐厅","address":"近郊奉贤区南桥镇百齐路588号百联南桥购物中心内(近南桥汽车站)"},{"poiid":"B2094757D765A4FC409E","title":"肯德基 南桥百联店 KFC","lon":"121.48385","lat":"30.915","category":"68","category_name":"快餐厅","address":"近郊奉贤区南桥镇百齐路588号百联南桥购物中心内(近南桥汽车站)"},{"poiid":"B2094757D065AAFA4999","title":"甜蜜蜜(南桥二店)","lon":"121.47451476","lat":"30.91413988","category":"67","category_name":"甜品店","address":"近郊南奉公路8891号(近易初莲花)"},{"poiid":"B2094757D464ABF9459C","title":"棒约翰比萨 南桥百联店 Papa John's Pizza","lon":"121.48385","lat":"30.915","category":"94","category_name":"西餐厅","address":"近郊奉贤区南桥镇百齐路588号百联南郊购物中心4楼"},{"poiid":"B2094757D664A7F94992","title":"DQ冰雪皇后 南桥百联店 Dairy Queen","lon":"121.484","lat":"30.91554","category":"113","category_name":"冷饮店","address":"近郊奉贤区南桥镇百齐路588号百联南郊购物中心第一食品店1楼"},{"poiid":"B2094757D16CA1FA489F","title":"奉贤广播电视台","lon":"121.47657775","lat":"30.918563842","category":"59","category_name":"电视台","address":"上海奉贤区解放东路666号"},{"poiid":"B2094757D46EABF84092","title":"PANKOO釜山料理 奉贤南桥店","lon":"121.484456","lat":"30.916669","category":"96","category_name":"韩国料理","address":"近郊奉贤区南奉公路8509弄2幢38号3楼"},{"poiid":"B2094654DB6FAAF5429D","title":"塘外卫生院南桥门诊部","lon":"121.47971","lat":"30.91608","category":"162","category_name":"医院","address":"南奉公路8648-8650"},{"poiid":"B2094757D568A5FD4499","title":"东方商厦","lon":"121.48381944","lat":"30.91576253","category":"46","category_name":"楼宇","address":"近郊奉贤区南桥镇百齐路588号(南桥汽车站东侧)"},{"poiid":"B2094750D76FA0F94198","title":"澳门豆捞","lon":"121.481","lat":"30.9161","category":"86","category_name":"火锅店","address":"近郊南奉公路8580号百联购物广场内"},{"poiid":"B2094655D26DA6FD479A","title":"华龙公寓(解放东路)","lon":"121.47874","lat":"30.91744","category":"47","category_name":"住宅区","address":"解放东路9号"},{"poiid":"B2094757D164A0F5479D","title":"巴贝拉","lon":"121.483856","lat":"30.915","category":"500","category_name":"未知分类","address":"近郊奉贤区南桥镇百齐路588号百联南桥购物中心三期1楼(近南桥汽车站)"},{"poiid":"B2094757DA69A2FF4293","title":"添麗私房菜","lon":"121.47259456398","lat":"30.917800115575","category":"95","category_name":"日本料理","address":"近郊奉贤解放东路1018弄绿地翡翠国际广场2号楼19号(近翡翠公馆)"},{"poiid":"B2094654DB64A6F5449D","title":"集集小镇(奉贤二店)","lon":"121.4761","lat":"30.91481","category":"87","category_name":"特色／地方风味餐厅","address":"近郊奉贤区南奉公路8891号卜蜂莲花(近克莉丝汀)"},{"poiid":"B2094757D16CA7F94299","title":"宜芝多(南桥百联店)","lon":"121.478864916","lat":"30.9151739376","category":"500","category_name":"未知分类","address":"近郊奉贤区南桥镇百齐路588号百联南桥购物中心二期1楼(近南桥汽车站)"},{"poiid":"B2094654DB68A7FA449E","title":"永琪美容美发(南奉公路)","lon":"121.47742","lat":"30.91419","category":"148","category_name":"美容美发店","address":"南奉公路8889弄33-47"},{"poiid":"B2094750D56FAAFF4492","title":"PANKOO釜山料理(百联南桥店)","lon":"121.484","lat":"30.9155","category":"96","category_name":"韩国料理","address":"近郊奉贤南桥镇百齐路588号百联南桥购物中心"},{"poiid":"B2094757D16EA6F5449C","title":"利都新概念桌球","lon":"121.481499216","lat":"30.9185366145","category":"500","category_name":"未知分类","address":"上海南桥好乐迪旁"},{"poiid":"B2094757D66BA4FD4599","title":"小杨生煎 南桥百联店","lon":"121.483804","lat":"30.915796","category":"68","category_name":"快餐厅","address":"近郊奉贤区南桥镇百齐路588号百联南桥购物中心内(近南奉公路)"},{"poiid":"B2094757D665A2F4419F","title":"重庆临江门老火锅 百联南桥店","lon":"121.484647","lat":"30.916607","category":"86","category_name":"火锅店","address":"近郊南奉公路8509号百联南桥购物中心南方国际2期广场(避风塘广场对面)"},{"poiid":"B2094655D26EAAFD4492","title":"上海梅丽亚晶商务酒店","lon":"121.48593","lat":"30.91632","category":"250","category_name":"公园户外","address":"近郊奉贤区南桥镇南奉公路8505号"},{"poiid":"B2094757D56DA0F8459E","title":"南方百联营业厅","lon":"121.483198","lat":"30.912063","category":"151","category_name":"电讯营业厅","address":"奉贤区莘奉公路1985号"}]