[{"poiid":"B2094757D16AAAFD4598","title":"上海工會管理學院","lon":"121.41554676","lat":"30.908086069","category":"52","category_name":"高等院校","address":"上海奉贤区南亭公路2080號"},{"poiid":"B2094655D36DA6FF4899","title":"上海工会管理职业学院","lon":"121.40674","lat":"30.90347","category":"671","category_name":"高校中心点","address":"上海市奉贤区南亭公路2080,号"},{"poiid":"B2094757D064A3FA449C","title":"庄行镇","lon":"121.39798076","lat":"30.905409012","category":"500","category_name":"未知分类","address":"上海市奉贤区庄行镇"},{"poiid":"B2094757D169A0FC4698","title":"上海交通大学","lon":"121.428832764","lat":"30.9100091098","category":"671","category_name":"高校中心点","address":"上海市闵行区经一路"},{"poiid":"B2094757D06BAAFA4999","title":"上海工会管理职业学院教学南楼","lon":"121.415501","lat":"30.903157","category":"253","category_name":"校园生活","address":"上海市奉贤区南亭公路2080号"},{"poiid":"B2094654DB68A0FA489B","title":"工会学院","lon":"121.41654","lat":"30.90586","category":"52","category_name":"高等院校","address":"奉贤区浦卫公路"},{"poiid":"B2094757D164A2F54699","title":"上海工会管理职业学院2号宿舍楼","lon":"121.415679","lat":"30.904792","category":"52","category_name":"高等院校","address":"上海奉贤区南亭公路2080号"},{"poiid":"B2094757D66EA2F84893","title":"工会学院4号楼","lon":"121.41487076","lat":"30.907927065","category":"500","category_name":"未知分类","address":"上海市奉贤区4号楼"},{"poiid":"B2094654DB68A7FC469C","title":"上海市工业综合开发区庄行工业园","lon":"121.41579","lat":"30.90936","category":"45","category_name":"产业园区","address":"上海市奉贤区工业综合开发区庄行工业园"},{"poiid":"B2094757D169A2F84698","title":"麦当劳","lon":"121.41316876","lat":"30.907604059","category":"500","category_name":"未知分类","address":"上海市奉贤区庄行路"},{"poiid":"B2094757D168A3F5499B","title":"工会学院北教学楼","lon":"121.416543","lat":"30.905866","category":"253","category_name":"校园生活","address":"上海工会管理职业学院"},{"poiid":"B2094655D36CA2FD419D","title":"联华超市庄行店","lon":"121.41206","lat":"30.90322","category":"118","category_name":"超级市场","address":"近郊奉贤庄行镇南亭公路1030号"},{"poiid":"B2094655D36CA6FD4793","title":"工会管理职业学校(招呼站)","lon":"121.41458","lat":"30.90319","category":"38","category_name":"公交车站","address":""},{"poiid":"B2094655D36DA7FB419A","title":"庄行","lon":"121.39896","lat":"30.90351","category":"38","category_name":"公交车站","address":""},{"poiid":"B2094757D16AA2F5429D","title":"十号楼617","lon":"121.41468186","lat":"30.906596637","category":"500","category_name":"未知分类","address":null},{"poiid":"B2094655D26FA1FD4198","title":"第一住宅区","lon":"121.40376","lat":"30.91315","category":"47","category_name":"住宅区","address":""},{"poiid":"B2094757D568ABFF439C","title":"易捷便利店","lon":"121.41725749","lat":"30.9028201","category":"117","category_name":"便民商店/便利店","address":"庄行镇"},{"poiid":"B2094655D265A7F4409F","title":"庄行正兴羊肉馆","lon":"121.40078","lat":"30.90057","category":"257","category_name":"中餐厅","address":""},{"poiid":"B2094757D069A3FA499C","title":"二媛の631","lon":"121.40133893","lat":"30.903856633","category":"253","category_name":"校园生活","address":"上海奉贤区南亭公路2080号5号楼"},{"poiid":"B2094654DB69ABF8429B","title":"农工商超市(庄行店)","lon":"121.39856","lat":"30.90377","category":"118","category_name":"超级市场","address":"奉贤区庄行镇南亭公路2951号"},{"poiid":"B2094655D264A7FF489A","title":"庄行茗苑","lon":"121.39936","lat":"30.898825","category":"47","category_name":"住宅区","address":"步韵路68弄"},{"poiid":"B2094654DB68A7FE449D","title":"庄行饭店","lon":"121.39718","lat":"30.90668","category":"76","category_name":"上海菜","address":"近郊奉贤区庄行镇一新路153号"},{"poiid":"B2094654DB68A0F94993","title":"上海国际电器城","lon":"121.42083","lat":"30.90649","category":"138","category_name":"家电电子卖场","address":""},{"poiid":"B2094654DB68A7FF409B","title":"兰州正宗牛肉拉面(一新路)","lon":"121.3973","lat":"30.90398","category":"90","category_name":"清真餐馆","address":""},{"poiid":"B2094654DB68A4F4409C","title":"奉贤区庄行学校","lon":"121.39854","lat":"30.90418","category":"253","category_name":"校园生活","address":""},{"poiid":"B2094654DB68A7FE459E","title":"庄家人菜馆","lon":"121.39717","lat":"30.90298","category":"257","category_name":"中餐厅","address":""},{"poiid":"B2094654DB68A7FC479B","title":"上海百棵药业有限公司","lon":"121.41761","lat":"30.91465","category":"263","category_name":"公司","address":""},{"poiid":"B2094654DB68A7FE449B","title":"庄行派出所(一新路)","lon":"121.39767","lat":"30.90421","category":"248","category_name":"生活娱乐","address":"一新路37号"},{"poiid":"B2094654DB68A0F9469A","title":"奉贤区庄行镇卫生院","lon":"121.39442","lat":"30.90277","category":"162","category_name":"医院","address":""},{"poiid":"B2094654DB68A7FE459A","title":"奉贤区庄行镇社区卫生服务中心","lon":"121.39414","lat":"30.90272","category":"162","category_name":"医院","address":""},{"poiid":"B2094752D169ABFC4098","title":"浦东国际机场","lon":"121.409368","lat":"30.9198","category":"500","category_name":"未知分类","address":null},{"poiid":"B2094654DB68A7FC479D","title":"艺海剧场","lon":"121.39694","lat":"30.89548","category":"180","category_name":"剧场","address":"庄良公路"},{"poiid":"B2094654DB68A0FA499F","title":"庄行新苑","lon":"121.39131636958","lat":"30.900149315483","category":"47","category_name":"住宅区","address":"庄良路218弄"},{"poiid":"B2094655D265AAF54392","title":"G1501浦卫公路收费站","lon":"121.42272","lat":"30.89567","category":"267","category_name":"收费站","address":""},{"poiid":"B2094757D065A5F9409D","title":"happy lemon 江川店","lon":"121.428956764","lat":"30.9096121014","category":"500","category_name":"未知分类","address":"上海江川路"},{"poiid":"B2094757D164A6FF439B","title":"上海沪华国际大酒店","lon":"121.42895676","lat":"30.909612101","category":"500","category_name":"未知分类","address":"上海闵行区鹤庆路300号"},{"poiid":"B2094655D36CA3FD459F","title":"上海九炫汽车销售服务有限公司","lon":"121.42834","lat":"30.90269","category":"159","category_name":"汽车维修","address":"南亭公路1269号1-2"},{"poiid":"B2094750D26FAAFB489A","title":"阿真休閒莊園","lon":"121.394088","lat":"30.895769","category":"500","category_name":"未知分类","address":"奉賢區南庄路3669號"}]