[{"poiid":"B2094757D06FA2F9499C","title":"百联南桥购物中心","lon":"121.490521","lat":"30.921125","category":"119","category_name":"商场","address":"近郊奉贤南桥镇百齐路588号"},{"poiid":"B2094655D36DA6FF499F","title":"海上国际影城(南桥百联店)","lon":"121.48177","lat":"30.91604","category":"178","category_name":"电影院","address":"近郊奉贤区南桥镇百齐路588号百联南桥购物中心4楼(近南桥汽车站)"},{"poiid":"B2094654DB64A4FD409E","title":"南郊宾馆","lon":"121.48276","lat":"30.92526","category":"213","category_name":"五星级宾馆","address":"近郊奉贤区望园路8号(近团南公路)"},{"poiid":"B2094757D06FA3F8469D","title":"南桥汽车站","lon":"121.47966003","lat":"30.915561676","category":"35","category_name":"长途汽车站","address":"上海市奉贤区南奉公路(近沪金高速)"},{"poiid":"B2094757D068A1F4499D","title":"顺风大酒店(南桥店)","lon":"121.4838563","lat":"30.9150002","category":"75","category_name":"浙江菜","address":"近郊奉贤区南桥镇百齐路588号百联南桥购物中心2期4楼(近南桥汽车站)"},{"poiid":"B2094757D068A3FF4099","title":"避风塘(奉贤店)","lon":"121.48395274","lat":"30.915436548","category":"72","category_name":"广东菜","address":"近郊奉贤区南桥镇百齐路588号百联南桥购物中心内(近南桥汽车站)"},{"poiid":"B2094750DA6EA5FF4092","title":"源泰东南亚风味餐厅","lon":"121.486236","lat":"30.915634","category":"247","category_name":"餐饮美食","address":"近郊奉贤南奉公路8509弄28号南方国际C幢3楼"},{"poiid":"B2094655D26BA1F8419F","title":"南方国际广场","lon":"121.48474","lat":"30.91689","category":"38","category_name":"公交车站","address":"奉贤百兴路78弄"},{"poiid":"B2094757D069A0F9449A","title":"必胜客(百齐路店)","lon":"121.48385724","lat":"30.912406941","category":"94","category_name":"西餐厅","address":"近郊奉贤区南桥镇南奉公路8515号南方国际购物中心1-2楼"},{"poiid":"B2094757D068AAF9439F","title":"奉贤图书馆","lon":"121.475452781","lat":"30.9170988553","category":"181","category_name":"图书馆","address":"上海奉贤区解放东路889号"},{"poiid":"B2094757DA6AABFE4598","title":"好乐迪","lon":"121.479519","lat":"30.917919","category":"248","category_name":"生活娱乐","address":"南桥镇百齐路558号4F"},{"poiid":"B2094757D06AA6FC409D","title":"釜山料理","lon":"121.48421291","lat":"30.914152914","category":"247","category_name":"餐饮美食","address":"上海市奉贤区南桥镇百齐路588号 百联三期3F"},{"poiid":"B2094757D164A4FA4992","title":"南方国际","lon":"121.481894516","lat":"30.9144391209","category":"47","category_name":"住宅区","address":"上海奉贤南奉公路"},{"poiid":"B2094757DA6EA4F94999","title":"自由港量贩式KTV(南桥百联店)","lon":"121.483965999997","lat":"30.915239","category":"170","category_name":"KTV","address":"奉贤区南奉公路8509弄2栋3F"},{"poiid":"B2094757D468AAFE4098","title":"蜀府 奉贤百联店","lon":"121.4834690094","lat":"30.915259263997","category":"71","category_name":"四川菜","address":"近郊奉贤区南桥镇百齐路588号百联南桥购物中心3楼"},{"poiid":"B2094757D06BA3F94592","title":"正阳世纪星城","lon":"121.47933291","lat":"30.911579855","category":"47","category_name":"住宅区","address":"奉贤区南桥南奉公路8889号"},{"poiid":"B2094757D66BA4FB429C","title":"南桥百联店 Starbucks Cafe","lon":"121.48385","lat":"30.915","category":"65","category_name":"咖啡厅","address":"百齐路588号百联南桥购物中心近南奉公路"},{"poiid":"B2094757D064A5FE459D","title":"翡翠国际广场","lon":"121.474159","lat":"30.918167","category":"500","category_name":"未知分类","address":"上海奉贤区解放东路1088号"},{"poiid":"B2094757D065AAF84193","title":"斗牛士","lon":"121.48427391","lat":"30.914887931","category":"500","category_name":"未知分类","address":"奉贤区南桥镇百齐路588号百联南郊购物中心近百顺路"},{"poiid":"B2094757D069A1FA4093","title":"卜蜂莲花(南桥店)","lon":"121.47638","lat":"30.9145","category":"118","category_name":"超级市场","address":"近郊奉贤区南桥镇南奉公路8891号"},{"poiid":"B2094757D16FA5FF4792","title":"陌生人火锅餐厅","lon":"121.483640916","lat":"30.9186950181","category":"500","category_name":"未知分类","address":"近郊奉贤区南桥镇百齐路288号百联南桥购物中心2楼"},{"poiid":"B2094757D06AA2FF4699","title":"奉贤区会议中心","lon":"121.474132","lat":"30.918472","category":"500","category_name":"未知分类","address":"上海奉贤区南桥镇解放东路928号"},{"poiid":"B2094757D06AA6F5409A","title":"上海工商奉贤分局","lon":"121.48812446","lat":"30.921109373","category":"500","category_name":"未知分类","address":"上海奉贤区解放东路58号"},{"poiid":"B2094654DB6FAAF9459C","title":"上海市奉贤中学(南奉公路)","lon":"121.49721","lat":"30.91976","category":"55","category_name":"中学","address":"近郊奉贤区南桥镇南奉公路7058号(近金海路)"},{"poiid":"B2094757D06AA5F94192","title":"许留山（百联）","lon":"121.48467461","lat":"30.914308984","category":"67","category_name":"甜品店","address":"近郊奉贤区南桥镇百齐路588号百联南桥购物中心内(近南桥汽车站)"},{"poiid":"B2094757D168A5FA419D","title":"聚润广场","lon":"121.48834891","lat":"30.923655131","category":"119","category_name":"商场","address":"近郊奉贤望园路(近南郊宾馆)"},{"poiid":"B2094757D46EABF84092","title":"PANKOO釜山料理 奉贤南桥店","lon":"121.484456","lat":"30.916669","category":"96","category_name":"韩国料理","address":"近郊奉贤区南奉公路8509弄2幢38号3楼"},{"poiid":"B2094655D26EAAFD4492","title":"上海梅丽亚晶商务酒店","lon":"121.48593","lat":"30.91632","category":"250","category_name":"公园户外","address":"近郊奉贤区南桥镇南奉公路8505号"},{"poiid":"B2094757D765A4FC409E","title":"肯德基 南桥百联店 KFC","lon":"121.48385","lat":"30.915","category":"68","category_name":"快餐厅","address":"近郊奉贤区南桥镇百齐路588号百联南桥购物中心内(近南桥汽车站)"},{"poiid":"B2094757D665A2F4419F","title":"重庆临江门老火锅 百联南桥店","lon":"121.484647","lat":"30.916607","category":"86","category_name":"火锅店","address":"近郊南奉公路8509号百联南桥购物中心南方国际2期广场(避风塘广场对面)"},{"poiid":"B2094757D66BA4FA409B","title":"斗牛士 南桥百联店","lon":"121.485151","lat":"30.912734","category":"94","category_name":"西餐厅","address":"近郊奉贤区南桥镇百齐路588号百联南桥购物中心内(近南桥汽车站)"},{"poiid":"B209475CDB6BA6FF4198","title":"Zoo Coffee","lon":"121.487068","lat":"30.915929","category":"500","category_name":"未知分类","address":"上海市 南奉公路8509弄28号1楼C101室C103市南方国际广场(美人鱼休闲街(海豚喷泉旁边)"},{"poiid":"B2094751DA6FA0FF469B","title":"星巴克","lon":"121.48062","lat":"30.916847","category":"247","category_name":"餐饮美食","address":"南桥百联内"},{"poiid":"B2094757D568A5FD4499","title":"东方商厦","lon":"121.48381944","lat":"30.91576253","category":"46","category_name":"楼宇","address":"近郊奉贤区南桥镇百齐路588号(南桥汽车站东侧)"},{"poiid":"B2094752D46AA2F5499F","title":"奉贤第一加油站","lon":"121.487954","lat":"30.922007","category":"153","category_name":"加油站","address":"上海市奉贤区南桥镇南奉公路8512号"},{"poiid":"B2094757D464ABF9459C","title":"棒约翰比萨 南桥百联店 Papa John's Pizza","lon":"121.48385","lat":"30.915","category":"94","category_name":"西餐厅","address":"近郊奉贤区南桥镇百齐路588号百联南郊购物中心4楼"},{"poiid":"B2094750DB65A1FF449B","title":"韩果汗蒸","lon":"121.478309","lat":"30.911874","category":"148","category_name":"美容美发店","address":null},{"poiid":"B2094757D66AA7FF469C","title":"七欣天迷宗蟹 奉贤店","lon":"121.482215","lat":"30.919061","category":"86","category_name":"火锅店","address":"近郊奉贤区南桥解放中路51号(古华园路解放中路)"},{"poiid":"B2094757D16EA6F5449C","title":"利都新概念桌球","lon":"121.481499216","lat":"30.9185366145","category":"500","category_name":"未知分类","address":"上海南桥好乐迪旁"},{"poiid":"B2094757D664A7F94992","title":"DQ冰雪皇后 南桥百联店 Dairy Queen","lon":"121.484","lat":"30.91554","category":"113","category_name":"冷饮店","address":"近郊奉贤区南桥镇百齐路588号百联南郊购物中心第一食品店1楼"},{"poiid":"B2094757D16EA3FF459E","title":"花袭人红楼干锅","lon":"121.48499991","lat":"30.915576946","category":"71","category_name":"四川菜","address":"近郊奉贤区南桥镇百齐路288号3楼"},{"poiid":"B2094750D56FAAFF4492","title":"PANKOO釜山料理(百联南桥店)","lon":"121.484","lat":"30.9155","category":"96","category_name":"韩国料理","address":"近郊奉贤南桥镇百齐路588号百联南桥购物中心"},{"poiid":"B2094751D36EA3FC4192","title":"秦镇(南桥店)","lon":"121.48418","lat":"30.91672","category":"84","category_name":"西北菜","address":"近郊奉贤南奉公路8509弄38号B105室(近百齐路)"},{"poiid":"B2094757D064A5FE439F","title":"上海Ak147台球俱乐部","lon":"121.48534076","lat":"30.91661128","category":"171","category_name":"台球厅","address":"上海奉贤区百联购物中心三楼"},{"poiid":"B2094757D568A1F9489D","title":"南郊宾馆中餐厅","lon":"121.482765","lat":"30.92526","category":"247","category_name":"餐饮美食","address":"近郊奉贤区望园路8号(近团南公路)"},{"poiid":"B2094757D164A0F5479D","title":"巴贝拉","lon":"121.483856","lat":"30.915","category":"500","category_name":"未知分类","address":"近郊奉贤区南桥镇百齐路588号百联南桥购物中心三期1楼(近南桥汽车站)"},{"poiid":"B2094757D16EAAFD459D","title":"百联影城","lon":"121.48364091","lat":"30.916522968","category":"178","category_name":"电影院","address":"上海市奉贤区百齐路"},{"poiid":"B2094757D66BA4FD4599","title":"小杨生煎 南桥百联店","lon":"121.483804","lat":"30.915796","category":"68","category_name":"快餐厅","address":"近郊奉贤区南桥镇百齐路588号百联南桥购物中心内(近南奉公路)"},{"poiid":"B2094654DB68A3F5499D","title":"蓝天苑","lon":"121.484","lat":"30.9253","category":"47","category_name":"住宅区","address":"远东路2749弄"},{"poiid":"B2094757D16EA1FC409B","title":"重庆临江门老火锅","lon":"121.481834046","lat":"30.9204051472","category":"247","category_name":"餐饮美食","address":"上海百联南桥购物中心"},{"poiid":"B2094757D06FA2F9499C","title":"百联南桥购物中心","lon":"121.490521","lat":"30.921125","category":"119","category_name":"商场","address":"近郊奉贤南桥镇百齐路588号"},{"poiid":"B2094655D36DA6FF499F","title":"海上国际影城(南桥百联店)","lon":"121.48177","lat":"30.91604","category":"178","category_name":"电影院","address":"近郊奉贤区南桥镇百齐路588号百联南桥购物中心4楼(近南桥汽车站)"},{"poiid":"B2094654DB64A4FD409E","title":"南郊宾馆","lon":"121.48276","lat":"30.92526","category":"213","category_name":"五星级宾馆","address":"近郊奉贤区望园路8号(近团南公路)"},{"poiid":"B2094757D06FA3F8469D","title":"南桥汽车站","lon":"121.47966003","lat":"30.915561676","category":"35","category_name":"长途汽车站","address":"上海市奉贤区南奉公路(近沪金高速)"},{"poiid":"B2094757D068A1F4499D","title":"顺风大酒店(南桥店)","lon":"121.4838563","lat":"30.9150002","category":"75","category_name":"浙江菜","address":"近郊奉贤区南桥镇百齐路588号百联南桥购物中心2期4楼(近南桥汽车站)"},{"poiid":"B2094757D068A3FF4099","title":"避风塘(奉贤店)","lon":"121.48395274","lat":"30.915436548","category":"72","category_name":"广东菜","address":"近郊奉贤区南桥镇百齐路588号百联南桥购物中心内(近南桥汽车站)"},{"poiid":"B2094750DA6EA5FF4092","title":"源泰东南亚风味餐厅","lon":"121.486236","lat":"30.915634","category":"247","category_name":"餐饮美食","address":"近郊奉贤南奉公路8509弄28号南方国际C幢3楼"},{"poiid":"B2094655D26BA1F8419F","title":"南方国际广场","lon":"121.48474","lat":"30.91689","category":"38","category_name":"公交车站","address":"奉贤百兴路78弄"},{"poiid":"B2094757D069A0F9449A","title":"必胜客(百齐路店)","lon":"121.48385724","lat":"30.912406941","category":"94","category_name":"西餐厅","address":"近郊奉贤区南桥镇南奉公路8515号南方国际购物中心1-2楼"},{"poiid":"B2094757D068AAF9439F","title":"奉贤图书馆","lon":"121.475452781","lat":"30.9170988553","category":"181","category_name":"图书馆","address":"上海奉贤区解放东路889号"},{"poiid":"B2094757DA6AABFE4598","title":"好乐迪","lon":"121.479519","lat":"30.917919","category":"248","category_name":"生活娱乐","address":"南桥镇百齐路558号4F"},{"poiid":"B2094757D06AA6FC409D","title":"釜山料理","lon":"121.48421291","lat":"30.914152914","category":"247","category_name":"餐饮美食","address":"上海市奉贤区南桥镇百齐路588号 百联三期3F"},{"poiid":"B2094757D164A4FA4992","title":"南方国际","lon":"121.481894516","lat":"30.9144391209","category":"47","category_name":"住宅区","address":"上海奉贤南奉公路"},{"poiid":"B2094757DA6EA4F94999","title":"自由港量贩式KTV(南桥百联店)","lon":"121.483965999997","lat":"30.915239","category":"170","category_name":"KTV","address":"奉贤区南奉公路8509弄2栋3F"},{"poiid":"B2094757D468AAFE4098","title":"蜀府 奉贤百联店","lon":"121.4834690094","lat":"30.915259263997","category":"71","category_name":"四川菜","address":"近郊奉贤区南桥镇百齐路588号百联南桥购物中心3楼"},{"poiid":"B2094757D06BA3F94592","title":"正阳世纪星城","lon":"121.47933291","lat":"30.911579855","category":"47","category_name":"住宅区","address":"奉贤区南桥南奉公路8889号"},{"poiid":"B2094757D66BA4FB429C","title":"南桥百联店 Starbucks Cafe","lon":"121.48385","lat":"30.915","category":"65","category_name":"咖啡厅","address":"百齐路588号百联南桥购物中心近南奉公路"},{"poiid":"B2094757D064A5FE459D","title":"翡翠国际广场","lon":"121.474159","lat":"30.918167","category":"500","category_name":"未知分类","address":"上海奉贤区解放东路1088号"},{"poiid":"B2094757D065AAF84193","title":"斗牛士","lon":"121.48427391","lat":"30.914887931","category":"500","category_name":"未知分类","address":"奉贤区南桥镇百齐路588号百联南郊购物中心近百顺路"},{"poiid":"B2094757D069A1FA4093","title":"卜蜂莲花(南桥店)","lon":"121.47638","lat":"30.9145","category":"118","category_name":"超级市场","address":"近郊奉贤区南桥镇南奉公路8891号"},{"poiid":"B2094757D16FA5FF4792","title":"陌生人火锅餐厅","lon":"121.483640916","lat":"30.9186950181","category":"500","category_name":"未知分类","address":"近郊奉贤区南桥镇百齐路288号百联南桥购物中心2楼"},{"poiid":"B2094757D06AA2FF4699","title":"奉贤区会议中心","lon":"121.474132","lat":"30.918472","category":"500","category_name":"未知分类","address":"上海奉贤区南桥镇解放东路928号"},{"poiid":"B2094757D06AA6F5409A","title":"上海工商奉贤分局","lon":"121.48812446","lat":"30.921109373","category":"500","category_name":"未知分类","address":"上海奉贤区解放东路58号"},{"poiid":"B2094654DB6FAAF9459C","title":"上海市奉贤中学(南奉公路)","lon":"121.49721","lat":"30.91976","category":"55","category_name":"中学","address":"近郊奉贤区南桥镇南奉公路7058号(近金海路)"},{"poiid":"B2094757D06AA5F94192","title":"许留山（百联）","lon":"121.48467461","lat":"30.914308984","category":"67","category_name":"甜品店","address":"近郊奉贤区南桥镇百齐路588号百联南桥购物中心内(近南桥汽车站)"},{"poiid":"B2094757D168A5FA419D","title":"聚润广场","lon":"121.48834891","lat":"30.923655131","category":"119","category_name":"商场","address":"近郊奉贤望园路(近南郊宾馆)"},{"poiid":"B2094757D46EABF84092","title":"PANKOO釜山料理 奉贤南桥店","lon":"121.484456","lat":"30.916669","category":"96","category_name":"韩国料理","address":"近郊奉贤区南奉公路8509弄2幢38号3楼"},{"poiid":"B2094655D26EAAFD4492","title":"上海梅丽亚晶商务酒店","lon":"121.48593","lat":"30.91632","category":"250","category_name":"公园户外","address":"近郊奉贤区南桥镇南奉公路8505号"},{"poiid":"B2094757D765A4FC409E","title":"肯德基 南桥百联店 KFC","lon":"121.48385","lat":"30.915","category":"68","category_name":"快餐厅","address":"近郊奉贤区南桥镇百齐路588号百联南桥购物中心内(近南桥汽车站)"},{"poiid":"B2094757D665A2F4419F","title":"重庆临江门老火锅 百联南桥店","lon":"121.484647","lat":"30.916607","category":"86","category_name":"火锅店","address":"近郊南奉公路8509号百联南桥购物中心南方国际2期广场(避风塘广场对面)"},{"poiid":"B2094757D66BA4FA409B","title":"斗牛士 南桥百联店","lon":"121.485151","lat":"30.912734","category":"94","category_name":"西餐厅","address":"近郊奉贤区南桥镇百齐路588号百联南桥购物中心内(近南桥汽车站)"},{"poiid":"B209475CDB6BA6FF4198","title":"Zoo Coffee","lon":"121.487068","lat":"30.915929","category":"500","category_name":"未知分类","address":"上海市 南奉公路8509弄28号1楼C101室C103市南方国际广场(美人鱼休闲街(海豚喷泉旁边)"},{"poiid":"B2094751DA6FA0FF469B","title":"星巴克","lon":"121.48062","lat":"30.916847","category":"247","category_name":"餐饮美食","address":"南桥百联内"},{"poiid":"B2094757D568A5FD4499","title":"东方商厦","lon":"121.48381944","lat":"30.91576253","category":"46","category_name":"楼宇","address":"近郊奉贤区南桥镇百齐路588号(南桥汽车站东侧)"},{"poiid":"B2094752D46AA2F5499F","title":"奉贤第一加油站","lon":"121.487954","lat":"30.922007","category":"153","category_name":"加油站","address":"上海市奉贤区南桥镇南奉公路8512号"},{"poiid":"B2094757D464ABF9459C","title":"棒约翰比萨 南桥百联店 Papa John's Pizza","lon":"121.48385","lat":"30.915","category":"94","category_name":"西餐厅","address":"近郊奉贤区南桥镇百齐路588号百联南郊购物中心4楼"},{"poiid":"B2094750DB65A1FF449B","title":"韩果汗蒸","lon":"121.478309","lat":"30.911874","category":"148","category_name":"美容美发店","address":null},{"poiid":"B2094757D66AA7FF469C","title":"七欣天迷宗蟹 奉贤店","lon":"121.482215","lat":"30.919061","category":"86","category_name":"火锅店","address":"近郊奉贤区南桥解放中路51号(古华园路解放中路)"},{"poiid":"B2094757D16EA6F5449C","title":"利都新概念桌球","lon":"121.481499216","lat":"30.9185366145","category":"500","category_name":"未知分类","address":"上海南桥好乐迪旁"},{"poiid":"B2094757D664A7F94992","title":"DQ冰雪皇后 南桥百联店 Dairy Queen","lon":"121.484","lat":"30.91554","category":"113","category_name":"冷饮店","address":"近郊奉贤区南桥镇百齐路588号百联南郊购物中心第一食品店1楼"},{"poiid":"B2094757D16EA3FF459E","title":"花袭人红楼干锅","lon":"121.48499991","lat":"30.915576946","category":"71","category_name":"四川菜","address":"近郊奉贤区南桥镇百齐路288号3楼"},{"poiid":"B2094750D56FAAFF4492","title":"PANKOO釜山料理(百联南桥店)","lon":"121.484","lat":"30.9155","category":"96","category_name":"韩国料理","address":"近郊奉贤南桥镇百齐路588号百联南桥购物中心"},{"poiid":"B2094751D36EA3FC4192","title":"秦镇(南桥店)","lon":"121.48418","lat":"30.91672","category":"84","category_name":"西北菜","address":"近郊奉贤南奉公路8509弄38号B105室(近百齐路)"},{"poiid":"B2094757D064A5FE439F","title":"上海Ak147台球俱乐部","lon":"121.48534076","lat":"30.91661128","category":"171","category_name":"台球厅","address":"上海奉贤区百联购物中心三楼"},{"poiid":"B2094757D568A1F9489D","title":"南郊宾馆中餐厅","lon":"121.482765","lat":"30.92526","category":"247","category_name":"餐饮美食","address":"近郊奉贤区望园路8号(近团南公路)"},{"poiid":"B2094757D164A0F5479D","title":"巴贝拉","lon":"121.483856","lat":"30.915","category":"500","category_name":"未知分类","address":"近郊奉贤区南桥镇百齐路588号百联南桥购物中心三期1楼(近南桥汽车站)"},{"poiid":"B2094757D16EAAFD459D","title":"百联影城","lon":"121.48364091","lat":"30.916522968","category":"178","category_name":"电影院","address":"上海市奉贤区百齐路"},{"poiid":"B2094757D66BA4FD4599","title":"小杨生煎 南桥百联店","lon":"121.483804","lat":"30.915796","category":"68","category_name":"快餐厅","address":"近郊奉贤区南桥镇百齐路588号百联南桥购物中心内(近南奉公路)"},{"poiid":"B2094654DB68A3F5499D","title":"蓝天苑","lon":"121.484","lat":"30.9253","category":"47","category_name":"住宅区","address":"远东路2749弄"},{"poiid":"B2094757D16EA1FC409B","title":"重庆临江门老火锅","lon":"121.481834046","lat":"30.9204051472","category":"247","category_name":"餐饮美食","address":"上海百联南桥购物中心"},{"poiid":"B2094757D06FA2F9499C","title":"百联南桥购物中心","lon":"121.490521","lat":"30.921125","category":"119","category_name":"商场","address":"近郊奉贤南桥镇百齐路588号"},{"poiid":"B2094655D36DA6FF499F","title":"海上国际影城(南桥百联店)","lon":"121.48177","lat":"30.91604","category":"178","category_name":"电影院","address":"近郊奉贤区南桥镇百齐路588号百联南桥购物中心4楼(近南桥汽车站)"},{"poiid":"B2094654DB64A4FD409E","title":"南郊宾馆","lon":"121.48276","lat":"30.92526","category":"213","category_name":"五星级宾馆","address":"近郊奉贤区望园路8号(近团南公路)"},{"poiid":"B2094757D06FA3F8469D","title":"南桥汽车站","lon":"121.47966003","lat":"30.915561676","category":"35","category_name":"长途汽车站","address":"上海市奉贤区南奉公路(近沪金高速)"},{"poiid":"B2094757D068A1F4499D","title":"顺风大酒店(南桥店)","lon":"121.4838563","lat":"30.9150002","category":"75","category_name":"浙江菜","address":"近郊奉贤区南桥镇百齐路588号百联南桥购物中心2期4楼(近南桥汽车站)"},{"poiid":"B2094757D068A3FF4099","title":"避风塘(奉贤店)","lon":"121.48395274","lat":"30.915436548","category":"72","category_name":"广东菜","address":"近郊奉贤区南桥镇百齐路588号百联南桥购物中心内(近南桥汽车站)"},{"poiid":"B2094750DA6EA5FF4092","title":"源泰东南亚风味餐厅","lon":"121.486236","lat":"30.915634","category":"247","category_name":"餐饮美食","address":"近郊奉贤南奉公路8509弄28号南方国际C幢3楼"},{"poiid":"B2094655D26BA1F8419F","title":"南方国际广场","lon":"121.48474","lat":"30.91689","category":"38","category_name":"公交车站","address":"奉贤百兴路78弄"},{"poiid":"B2094757D069A0F9449A","title":"必胜客(百齐路店)","lon":"121.48385724","lat":"30.912406941","category":"94","category_name":"西餐厅","address":"近郊奉贤区南桥镇南奉公路8515号南方国际购物中心1-2楼"},{"poiid":"B2094757D068AAF9439F","title":"奉贤图书馆","lon":"121.475452781","lat":"30.9170988553","category":"181","category_name":"图书馆","address":"上海奉贤区解放东路889号"},{"poiid":"B2094757DA6AABFE4598","title":"好乐迪","lon":"121.479519","lat":"30.917919","category":"248","category_name":"生活娱乐","address":"南桥镇百齐路558号4F"},{"poiid":"B2094757D06AA6FC409D","title":"釜山料理","lon":"121.48421291","lat":"30.914152914","category":"247","category_name":"餐饮美食","address":"上海市奉贤区南桥镇百齐路588号 百联三期3F"},{"poiid":"B2094757D164A4FA4992","title":"南方国际","lon":"121.481894516","lat":"30.9144391209","category":"47","category_name":"住宅区","address":"上海奉贤南奉公路"},{"poiid":"B2094757DA6EA4F94999","title":"自由港量贩式KTV(南桥百联店)","lon":"121.483965999997","lat":"30.915239","category":"170","category_name":"KTV","address":"奉贤区南奉公路8509弄2栋3F"},{"poiid":"B2094757D468AAFE4098","title":"蜀府 奉贤百联店","lon":"121.4834690094","lat":"30.915259263997","category":"71","category_name":"四川菜","address":"近郊奉贤区南桥镇百齐路588号百联南桥购物中心3楼"},{"poiid":"B2094757D06BA3F94592","title":"正阳世纪星城","lon":"121.47933291","lat":"30.911579855","category":"47","category_name":"住宅区","address":"奉贤区南桥南奉公路8889号"},{"poiid":"B2094757D66BA4FB429C","title":"南桥百联店 Starbucks Cafe","lon":"121.48385","lat":"30.915","category":"65","category_name":"咖啡厅","address":"百齐路588号百联南桥购物中心近南奉公路"},{"poiid":"B2094757D064A5FE459D","title":"翡翠国际广场","lon":"121.474159","lat":"30.918167","category":"500","category_name":"未知分类","address":"上海奉贤区解放东路1088号"},{"poiid":"B2094757D065AAF84193","title":"斗牛士","lon":"121.48427391","lat":"30.914887931","category":"500","category_name":"未知分类","address":"奉贤区南桥镇百齐路588号百联南郊购物中心近百顺路"},{"poiid":"B2094757D069A1FA4093","title":"卜蜂莲花(南桥店)","lon":"121.47638","lat":"30.9145","category":"118","category_name":"超级市场","address":"近郊奉贤区南桥镇南奉公路8891号"},{"poiid":"B2094757D16FA5FF4792","title":"陌生人火锅餐厅","lon":"121.483640916","lat":"30.9186950181","category":"500","category_name":"未知分类","address":"近郊奉贤区南桥镇百齐路288号百联南桥购物中心2楼"},{"poiid":"B2094757D06AA2FF4699","title":"奉贤区会议中心","lon":"121.474132","lat":"30.918472","category":"500","category_name":"未知分类","address":"上海奉贤区南桥镇解放东路928号"},{"poiid":"B2094757D06AA6F5409A","title":"上海工商奉贤分局","lon":"121.48812446","lat":"30.921109373","category":"500","category_name":"未知分类","address":"上海奉贤区解放东路58号"},{"poiid":"B2094654DB6FAAF9459C","title":"上海市奉贤中学(南奉公路)","lon":"121.49721","lat":"30.91976","category":"55","category_name":"中学","address":"近郊奉贤区南桥镇南奉公路7058号(近金海路)"},{"poiid":"B2094757D06AA5F94192","title":"许留山（百联）","lon":"121.48467461","lat":"30.914308984","category":"67","category_name":"甜品店","address":"近郊奉贤区南桥镇百齐路588号百联南桥购物中心内(近南桥汽车站)"},{"poiid":"B2094757D168A5FA419D","title":"聚润广场","lon":"121.48834891","lat":"30.923655131","category":"119","category_name":"商场","address":"近郊奉贤望园路(近南郊宾馆)"},{"poiid":"B2094757D46EABF84092","title":"PANKOO釜山料理 奉贤南桥店","lon":"121.484456","lat":"30.916669","category":"96","category_name":"韩国料理","address":"近郊奉贤区南奉公路8509弄2幢38号3楼"},{"poiid":"B2094655D26EAAFD4492","title":"上海梅丽亚晶商务酒店","lon":"121.48593","lat":"30.91632","category":"250","category_name":"公园户外","address":"近郊奉贤区南桥镇南奉公路8505号"},{"poiid":"B2094757D765A4FC409E","title":"肯德基 南桥百联店 KFC","lon":"121.48385","lat":"30.915","category":"68","category_name":"快餐厅","address":"近郊奉贤区南桥镇百齐路588号百联南桥购物中心内(近南桥汽车站)"},{"poiid":"B2094757D665A2F4419F","title":"重庆临江门老火锅 百联南桥店","lon":"121.484647","lat":"30.916607","category":"86","category_name":"火锅店","address":"近郊南奉公路8509号百联南桥购物中心南方国际2期广场(避风塘广场对面)"},{"poiid":"B2094757D66BA4FA409B","title":"斗牛士 南桥百联店","lon":"121.485151","lat":"30.912734","category":"94","category_name":"西餐厅","address":"近郊奉贤区南桥镇百齐路588号百联南桥购物中心内(近南桥汽车站)"},{"poiid":"B209475CDB6BA6FF4198","title":"Zoo Coffee","lon":"121.487068","lat":"30.915929","category":"500","category_name":"未知分类","address":"上海市 南奉公路8509弄28号1楼C101室C103市南方国际广场(美人鱼休闲街(海豚喷泉旁边)"},{"poiid":"B2094751DA6FA0FF469B","title":"星巴克","lon":"121.48062","lat":"30.916847","category":"247","category_name":"餐饮美食","address":"南桥百联内"},{"poiid":"B2094757D568A5FD4499","title":"东方商厦","lon":"121.48381944","lat":"30.91576253","category":"46","category_name":"楼宇","address":"近郊奉贤区南桥镇百齐路588号(南桥汽车站东侧)"},{"poiid":"B2094752D46AA2F5499F","title":"奉贤第一加油站","lon":"121.487954","lat":"30.922007","category":"153","category_name":"加油站","address":"上海市奉贤区南桥镇南奉公路8512号"},{"poiid":"B2094757D464ABF9459C","title":"棒约翰比萨 南桥百联店 Papa John's Pizza","lon":"121.48385","lat":"30.915","category":"94","category_name":"西餐厅","address":"近郊奉贤区南桥镇百齐路588号百联南郊购物中心4楼"},{"poiid":"B2094750DB65A1FF449B","title":"韩果汗蒸","lon":"121.478309","lat":"30.911874","category":"148","category_name":"美容美发店","address":null},{"poiid":"B2094757D66AA7FF469C","title":"七欣天迷宗蟹 奉贤店","lon":"121.482215","lat":"30.919061","category":"86","category_name":"火锅店","address":"近郊奉贤区南桥解放中路51号(古华园路解放中路)"},{"poiid":"B2094757D16EA6F5449C","title":"利都新概念桌球","lon":"121.481499216","lat":"30.9185366145","category":"500","category_name":"未知分类","address":"上海南桥好乐迪旁"},{"poiid":"B2094757D664A7F94992","title":"DQ冰雪皇后 南桥百联店 Dairy Queen","lon":"121.484","lat":"30.91554","category":"113","category_name":"冷饮店","address":"近郊奉贤区南桥镇百齐路588号百联南郊购物中心第一食品店1楼"},{"poiid":"B2094757D16EA3FF459E","title":"花袭人红楼干锅","lon":"121.48499991","lat":"30.915576946","category":"71","category_name":"四川菜","address":"近郊奉贤区南桥镇百齐路288号3楼"},{"poiid":"B2094750D56FAAFF4492","title":"PANKOO釜山料理(百联南桥店)","lon":"121.484","lat":"30.9155","category":"96","category_name":"韩国料理","address":"近郊奉贤南桥镇百齐路588号百联南桥购物中心"},{"poiid":"B2094751D36EA3FC4192","title":"秦镇(南桥店)","lon":"121.48418","lat":"30.91672","category":"84","category_name":"西北菜","address":"近郊奉贤南奉公路8509弄38号B105室(近百齐路)"},{"poiid":"B2094757D064A5FE439F","title":"上海Ak147台球俱乐部","lon":"121.48534076","lat":"30.91661128","category":"171","category_name":"台球厅","address":"上海奉贤区百联购物中心三楼"},{"poiid":"B2094757D568A1F9489D","title":"南郊宾馆中餐厅","lon":"121.482765","lat":"30.92526","category":"247","category_name":"餐饮美食","address":"近郊奉贤区望园路8号(近团南公路)"},{"poiid":"B2094757D164A0F5479D","title":"巴贝拉","lon":"121.483856","lat":"30.915","category":"500","category_name":"未知分类","address":"近郊奉贤区南桥镇百齐路588号百联南桥购物中心三期1楼(近南桥汽车站)"},{"poiid":"B2094757D16EAAFD459D","title":"百联影城","lon":"121.48364091","lat":"30.916522968","category":"178","category_name":"电影院","address":"上海市奉贤区百齐路"},{"poiid":"B2094757D66BA4FD4599","title":"小杨生煎 南桥百联店","lon":"121.483804","lat":"30.915796","category":"68","category_name":"快餐厅","address":"近郊奉贤区南桥镇百齐路588号百联南桥购物中心内(近南奉公路)"},{"poiid":"B2094654DB68A3F5499D","title":"蓝天苑","lon":"121.484","lat":"30.9253","category":"47","category_name":"住宅区","address":"远东路2749弄"},{"poiid":"B2094757D16EA1FC409B","title":"重庆临江门老火锅","lon":"121.481834046","lat":"30.9204051472","category":"247","category_name":"餐饮美食","address":"上海百联南桥购物中心"},{"poiid":"B2094757D06FA2F9499C","title":"百联南桥购物中心","lon":"121.490521","lat":"30.921125","category":"119","category_name":"商场","address":"近郊奉贤南桥镇百齐路588号"},{"poiid":"B2094655D36DA6FF499F","title":"海上国际影城(南桥百联店)","lon":"121.48177","lat":"30.91604","category":"178","category_name":"电影院","address":"近郊奉贤区南桥镇百齐路588号百联南桥购物中心4楼(近南桥汽车站)"},{"poiid":"B2094654DB64A4FD409E","title":"南郊宾馆","lon":"121.48276","lat":"30.92526","category":"213","category_name":"五星级宾馆","address":"近郊奉贤区望园路8号(近团南公路)"},{"poiid":"B2094757D06FA3F8469D","title":"南桥汽车站","lon":"121.47966003","lat":"30.915561676","category":"35","category_name":"长途汽车站","address":"上海市奉贤区南奉公路(近沪金高速)"},{"poiid":"B2094757D068A1F4499D","title":"顺风大酒店(南桥店)","lon":"121.4838563","lat":"30.9150002","category":"75","category_name":"浙江菜","address":"近郊奉贤区南桥镇百齐路588号百联南桥购物中心2期4楼(近南桥汽车站)"},{"poiid":"B2094757D068A3FF4099","title":"避风塘(奉贤店)","lon":"121.48395274","lat":"30.915436548","category":"72","category_name":"广东菜","address":"近郊奉贤区南桥镇百齐路588号百联南桥购物中心内(近南桥汽车站)"},{"poiid":"B2094750DA6EA5FF4092","title":"源泰东南亚风味餐厅","lon":"121.486236","lat":"30.915634","category":"247","category_name":"餐饮美食","address":"近郊奉贤南奉公路8509弄28号南方国际C幢3楼"},{"poiid":"B2094655D26BA1F8419F","title":"南方国际广场","lon":"121.48474","lat":"30.91689","category":"38","category_name":"公交车站","address":"奉贤百兴路78弄"},{"poiid":"B2094757D069A0F9449A","title":"必胜客(百齐路店)","lon":"121.48385724","lat":"30.912406941","category":"94","category_name":"西餐厅","address":"近郊奉贤区南桥镇南奉公路8515号南方国际购物中心1-2楼"},{"poiid":"B2094757D068AAF9439F","title":"奉贤图书馆","lon":"121.475452781","lat":"30.9170988553","category":"181","category_name":"图书馆","address":"上海奉贤区解放东路889号"},{"poiid":"B2094757DA6AABFE4598","title":"好乐迪","lon":"121.479519","lat":"30.917919","category":"248","category_name":"生活娱乐","address":"南桥镇百齐路558号4F"},{"poiid":"B2094757D06AA6FC409D","title":"釜山料理","lon":"121.48421291","lat":"30.914152914","category":"247","category_name":"餐饮美食","address":"上海市奉贤区南桥镇百齐路588号 百联三期3F"},{"poiid":"B2094757D164A4FA4992","title":"南方国际","lon":"121.481894516","lat":"30.9144391209","category":"47","category_name":"住宅区","address":"上海奉贤南奉公路"},{"poiid":"B2094757DA6EA4F94999","title":"自由港量贩式KTV(南桥百联店)","lon":"121.483965999997","lat":"30.915239","category":"170","category_name":"KTV","address":"奉贤区南奉公路8509弄2栋3F"},{"poiid":"B2094757D468AAFE4098","title":"蜀府 奉贤百联店","lon":"121.4834690094","lat":"30.915259263997","category":"71","category_name":"四川菜","address":"近郊奉贤区南桥镇百齐路588号百联南桥购物中心3楼"},{"poiid":"B2094757D06BA3F94592","title":"正阳世纪星城","lon":"121.47933291","lat":"30.911579855","category":"47","category_name":"住宅区","address":"奉贤区南桥南奉公路8889号"},{"poiid":"B2094757D66BA4FB429C","title":"南桥百联店 Starbucks Cafe","lon":"121.48385","lat":"30.915","category":"65","category_name":"咖啡厅","address":"百齐路588号百联南桥购物中心近南奉公路"},{"poiid":"B2094757D064A5FE459D","title":"翡翠国际广场","lon":"121.474159","lat":"30.918167","category":"500","category_name":"未知分类","address":"上海奉贤区解放东路1088号"},{"poiid":"B2094757D065AAF84193","title":"斗牛士","lon":"121.48427391","lat":"30.914887931","category":"500","category_name":"未知分类","address":"奉贤区南桥镇百齐路588号百联南郊购物中心近百顺路"},{"poiid":"B2094757D069A1FA4093","title":"卜蜂莲花(南桥店)","lon":"121.47638","lat":"30.9145","category":"118","category_name":"超级市场","address":"近郊奉贤区南桥镇南奉公路8891号"},{"poiid":"B2094757D16FA5FF4792","title":"陌生人火锅餐厅","lon":"121.483640916","lat":"30.9186950181","category":"500","category_name":"未知分类","address":"近郊奉贤区南桥镇百齐路288号百联南桥购物中心2楼"},{"poiid":"B2094757D06AA2FF4699","title":"奉贤区会议中心","lon":"121.474132","lat":"30.918472","category":"500","category_name":"未知分类","address":"上海奉贤区南桥镇解放东路928号"},{"poiid":"B2094757D06AA6F5409A","title":"上海工商奉贤分局","lon":"121.48812446","lat":"30.921109373","category":"500","category_name":"未知分类","address":"上海奉贤区解放东路58号"},{"poiid":"B2094654DB6FAAF9459C","title":"上海市奉贤中学(南奉公路)","lon":"121.49721","lat":"30.91976","category":"55","category_name":"中学","address":"近郊奉贤区南桥镇南奉公路7058号(近金海路)"},{"poiid":"B2094757D06AA5F94192","title":"许留山（百联）","lon":"121.48467461","lat":"30.914308984","category":"67","category_name":"甜品店","address":"近郊奉贤区南桥镇百齐路588号百联南桥购物中心内(近南桥汽车站)"},{"poiid":"B2094757D168A5FA419D","title":"聚润广场","lon":"121.48834891","lat":"30.923655131","category":"119","category_name":"商场","address":"近郊奉贤望园路(近南郊宾馆)"},{"poiid":"B2094757D46EABF84092","title":"PANKOO釜山料理 奉贤南桥店","lon":"121.484456","lat":"30.916669","category":"96","category_name":"韩国料理","address":"近郊奉贤区南奉公路8509弄2幢38号3楼"},{"poiid":"B2094655D26EAAFD4492","title":"上海梅丽亚晶商务酒店","lon":"121.48593","lat":"30.91632","category":"250","category_name":"公园户外","address":"近郊奉贤区南桥镇南奉公路8505号"},{"poiid":"B2094757D765A4FC409E","title":"肯德基 南桥百联店 KFC","lon":"121.48385","lat":"30.915","category":"68","category_name":"快餐厅","address":"近郊奉贤区南桥镇百齐路588号百联南桥购物中心内(近南桥汽车站)"},{"poiid":"B2094757D665A2F4419F","title":"重庆临江门老火锅 百联南桥店","lon":"121.484647","lat":"30.916607","category":"86","category_name":"火锅店","address":"近郊南奉公路8509号百联南桥购物中心南方国际2期广场(避风塘广场对面)"},{"poiid":"B2094757D66BA4FA409B","title":"斗牛士 南桥百联店","lon":"121.485151","lat":"30.912734","category":"94","category_name":"西餐厅","address":"近郊奉贤区南桥镇百齐路588号百联南桥购物中心内(近南桥汽车站)"},{"poiid":"B209475CDB6BA6FF4198","title":"Zoo Coffee","lon":"121.487068","lat":"30.915929","category":"500","category_name":"未知分类","address":"上海市 南奉公路8509弄28号1楼C101室C103市南方国际广场(美人鱼休闲街(海豚喷泉旁边)"},{"poiid":"B2094751DA6FA0FF469B","title":"星巴克","lon":"121.48062","lat":"30.916847","category":"247","category_name":"餐饮美食","address":"南桥百联内"},{"poiid":"B2094757D568A5FD4499","title":"东方商厦","lon":"121.48381944","lat":"30.91576253","category":"46","category_name":"楼宇","address":"近郊奉贤区南桥镇百齐路588号(南桥汽车站东侧)"},{"poiid":"B2094752D46AA2F5499F","title":"奉贤第一加油站","lon":"121.487954","lat":"30.922007","category":"153","category_name":"加油站","address":"上海市奉贤区南桥镇南奉公路8512号"},{"poiid":"B2094757D464ABF9459C","title":"棒约翰比萨 南桥百联店 Papa John's Pizza","lon":"121.48385","lat":"30.915","category":"94","category_name":"西餐厅","address":"近郊奉贤区南桥镇百齐路588号百联南郊购物中心4楼"},{"poiid":"B2094750DB65A1FF449B","title":"韩果汗蒸","lon":"121.478309","lat":"30.911874","category":"148","category_name":"美容美发店","address":null},{"poiid":"B2094757D66AA7FF469C","title":"七欣天迷宗蟹 奉贤店","lon":"121.482215","lat":"30.919061","category":"86","category_name":"火锅店","address":"近郊奉贤区南桥解放中路51号(古华园路解放中路)"},{"poiid":"B2094757D16EA6F5449C","title":"利都新概念桌球","lon":"121.481499216","lat":"30.9185366145","category":"500","category_name":"未知分类","address":"上海南桥好乐迪旁"},{"poiid":"B2094757D664A7F94992","title":"DQ冰雪皇后 南桥百联店 Dairy Queen","lon":"121.484","lat":"30.91554","category":"113","category_name":"冷饮店","address":"近郊奉贤区南桥镇百齐路588号百联南郊购物中心第一食品店1楼"},{"poiid":"B2094757D16EA3FF459E","title":"花袭人红楼干锅","lon":"121.48499991","lat":"30.915576946","category":"71","category_name":"四川菜","address":"近郊奉贤区南桥镇百齐路288号3楼"},{"poiid":"B2094750D56FAAFF4492","title":"PANKOO釜山料理(百联南桥店)","lon":"121.484","lat":"30.9155","category":"96","category_name":"韩国料理","address":"近郊奉贤南桥镇百齐路588号百联南桥购物中心"},{"poiid":"B2094751D36EA3FC4192","title":"秦镇(南桥店)","lon":"121.48418","lat":"30.91672","category":"84","category_name":"西北菜","address":"近郊奉贤南奉公路8509弄38号B105室(近百齐路)"},{"poiid":"B2094757D064A5FE439F","title":"上海Ak147台球俱乐部","lon":"121.48534076","lat":"30.91661128","category":"171","category_name":"台球厅","address":"上海奉贤区百联购物中心三楼"},{"poiid":"B2094757D568A1F9489D","title":"南郊宾馆中餐厅","lon":"121.482765","lat":"30.92526","category":"247","category_name":"餐饮美食","address":"近郊奉贤区望园路8号(近团南公路)"},{"poiid":"B2094757D164A0F5479D","title":"巴贝拉","lon":"121.483856","lat":"30.915","category":"500","category_name":"未知分类","address":"近郊奉贤区南桥镇百齐路588号百联南桥购物中心三期1楼(近南桥汽车站)"},{"poiid":"B2094757D16EAAFD459D","title":"百联影城","lon":"121.48364091","lat":"30.916522968","category":"178","category_name":"电影院","address":"上海市奉贤区百齐路"},{"poiid":"B2094757D66BA4FD4599","title":"小杨生煎 南桥百联店","lon":"121.483804","lat":"30.915796","category":"68","category_name":"快餐厅","address":"近郊奉贤区南桥镇百齐路588号百联南桥购物中心内(近南奉公路)"},{"poiid":"B2094654DB68A3F5499D","title":"蓝天苑","lon":"121.484","lat":"30.9253","category":"47","category_name":"住宅区","address":"远东路2749弄"},{"poiid":"B2094757D16EA1FC409B","title":"重庆临江门老火锅","lon":"121.481834046","lat":"30.9204051472","category":"247","category_name":"餐饮美食","address":"上海百联南桥购物中心"}]