[{"poiid":"B2094757D06FA2F9499C","title":"百联南桥购物中心","lon":"121.490521","lat":"30.921125","category":"119","category_name":"商场","address":"近郊奉贤南桥镇百齐路588号"},{"poiid":"B2094654DB64A4FD409E","title":"南郊宾馆","lon":"121.48276","lat":"30.92526","category":"213","category_name":"五星级宾馆","address":"近郊奉贤区望园路8号(近团南公路)"},{"poiid":"B2094654DB68A2F9499B","title":"老街绿地南桥新苑","lon":"121.47113","lat":"30.92874","category":"47","category_name":"住宅区","address":"上海市奉贤区环城东路885弄"},{"poiid":"B2094757D064A7FA409A","title":"奉浦四季生态园","lon":"121.47242491","lat":"30.935544403","category":"500","category_name":"未知分类","address":"近郊奉贤航南公路(近韩谊路)"},{"poiid":"B2094655D26BABFF459E","title":"恒盛湖畔豪庭","lon":"121.498","lat":"30.934","category":"47","category_name":"住宅区","address":"奉贤南桥新城泽丰路89弄(金海路德丰路口)"},{"poiid":"B2094757D064A6FB419E","title":"南郊林农家乐","lon":"121.4798496","lat":"30.931089797","category":"260","category_name":"其他","address":"近郊奉贤区南航公路北侧(望园路口)"},{"poiid":"B2094757D06AA0FB4592","title":"金水新苑","lon":"121.49424779","lat":"30.9561026126","category":"47","category_name":"住宅区","address":"上海奉贤区金齐路348弄"},{"poiid":"B2094750D665A0FF4498","title":"舍得坊私房酒家","lon":"121.475","lat":"30.9365","category":"76","category_name":"上海菜","address":"近郊奉贤航南公路5000号生态园四季广场1-2楼"},{"poiid":"B2094757D16EA0F44092","title":"百合苑","lon":"121.470248929","lat":"30.9390231194","category":"500","category_name":"未知分类","address":"上海八字桥路158号"},{"poiid":"B2094757D568A4F5419C","title":"南桥新城","lon":"121.4788278","lat":"30.94887056","category":"47","category_name":"住宅区","address":"上海市奉贤区奉浦大道11弄"},{"poiid":"B2094757D568A1F8449C","title":"绿地智尊","lon":"121.471085129","lat":"30.929179517027","category":"46","category_name":"楼宇","address":"上海市奉贤区环城东路455,465弄"},{"poiid":"B2094655D26BA2FE4098","title":"望园路","lon":"121.48169","lat":"30.93184","category":"38","category_name":"公交车站","address":""},{"poiid":"B2094750D76DA1FC4792","title":"蒋记海鲜坊","lon":"121.475","lat":"30.9365","category":"260","category_name":"其他","address":"近郊奉贤区航南公路5000号生态园四季广场内"},{"poiid":"B2094757D568A7F44199","title":"金水苑","lon":"121.49821398","lat":"30.95552246","category":"47","category_name":"住宅区","address":"奉浦大道1-119"},{"poiid":"B2094655D265A6FA449D","title":"S4南桥收费站","lon":"121.47964","lat":"30.93006","category":"267","category_name":"收费站","address":""},{"poiid":"B2094752D26BA5FB449C","title":"恒盛毓美幼儿园","lon":"121.487625","lat":"30.929291","category":"57","category_name":"幼儿园","address":"泽丰路楚园路197号"},{"poiid":"B2094757DB68A0FC4393","title":"南郊美墅","lon":"121.485399","lat":"30.928094","category":"47","category_name":"住宅区","address":"南郊美墅"},{"poiid":"B2094757D06AA6F5409A","title":"上海工商奉贤分局","lon":"121.48812446","lat":"30.921109373","category":"500","category_name":"未知分类","address":"上海奉贤区解放东路58号"},{"poiid":"B2094757D165A3FC409E","title":"沈坚强健身俱乐部(奉贤店)","lon":"121.47096001","lat":"30.929098255","category":"148","category_name":"美容美发店","address":"近郊奉贤区南桥镇环城东路885弄270号(近航南公路)"},{"poiid":"B2094655D26BA0FD479E","title":"恒盛·湖畔豪庭(北门)","lon":"121.49155","lat":"30.92962","category":"48","category_name":"楼宇大门","address":""},{"poiid":"B2094757D568A1F9489D","title":"南郊宾馆中餐厅","lon":"121.482765","lat":"30.92526","category":"247","category_name":"餐饮美食","address":"近郊奉贤区望园路8号(近团南公路)"},{"poiid":"B2094757D064A4FC4699","title":"奉贤区人民法院","lon":"121.48103356","lat":"30.9254841","category":"608","category_name":"法院","address":"上海市奉贤区解放东路199号"},{"poiid":"B2094757D168A5FA419D","title":"聚润广场","lon":"121.48834891","lat":"30.923655131","category":"119","category_name":"商场","address":"近郊奉贤望园路(近南郊宾馆)"},{"poiid":"B2094757D16FAAF4449A","title":"沪金高速南桥出口","lon":"121.475308","lat":"30.931361","category":"500","category_name":"未知分类","address":"上海沪金高速南桥出口"},{"poiid":"B2094655D268ABF9479D","title":"Ａ４航南公路收费站","lon":"121.47953","lat":"30.92993","category":"267","category_name":"收费站","address":""},{"poiid":"B2094654DB68A3F5499D","title":"蓝天苑","lon":"121.484","lat":"30.9253","category":"47","category_name":"住宅区","address":"远东路2749弄"},{"poiid":"B2094655D36CA2FC4298","title":"南郊名墅","lon":"121.478","lat":"30.925","category":"47","category_name":"住宅区","address":"奉贤展园路300弄"},{"poiid":"B2094654DB69A7FB409A","title":"华龙别墅","lon":"121.4707","lat":"30.9321","category":"47","category_name":"住宅区","address":"奉贤区江海镇"},{"poiid":"B209475CD76CA2F94998","title":"17.5影城（南桥四季广场店）","lon":"121.47112","lat":"30.932581","category":"178","category_name":"电影院","address":"上海市奉贤区航南公路5000号1幢1-3号"},{"poiid":"B2094655D36CA2FE4899","title":"齐贤","lon":"121.50542","lat":"30.94621","category":"38","category_name":"公交车站","address":""},{"poiid":"B2094752D665A2FD439F","title":"罗曼园高级婚礼会所","lon":"121.470501","lat":"30.933207","category":"247","category_name":"餐饮美食","address":null},{"poiid":"B209475CD26BA5FD479A","title":"海上歌友","lon":"121.471023","lat":"30.931718","category":"170","category_name":"KTV","address":"上海市 环城东路630号"},{"poiid":"B2094654DB68A2FC4593","title":"良友古华区","lon":"121.475","lat":"30.9246","category":"47","category_name":"住宅区","address":"南桥环城东路"},{"poiid":"B2094654DB68A2F94899","title":"上海平川展示展销中心","lon":"121.47129","lat":"30.95191","category":"185","category_name":"会展中心","address":"汇丰西路"},{"poiid":"B2094655D36CA0FF4699","title":"金海路解放东路","lon":"121.4923","lat":"30.92155","category":"38","category_name":"公交车站","address":""},{"poiid":"B2094757DB69A1FB449C","title":"嘎嘎酒吧","lon":"121.47149562836","lat":"30.931954896883","category":"260","category_name":"其他","address":"近郊奉贤区航南公路5000号生态园四季广场内(近绿庭汇广场)"},{"poiid":"B2094757D16BA2FC4099","title":"雅香莱杏福林中华养生基地","lon":"121.46967791","lat":"30.946300789","category":"500","category_name":"未知分类","address":"上海市奉贤区南桥新城汇丰西路188号"},{"poiid":"B2094757D16AA6FC479D","title":"南桥2路","lon":"121.505243916","lat":"30.9456966354","category":"500","category_name":"未知分类","address":"上海奉贤南桥汽车站"},{"poiid":"B2094757D165A1FB419F","title":"工商行政管理","lon":"121.491114916","lat":"30.9219560926","category":"500","category_name":"未知分类","address":"上海市奉贤区望园南路"},{"poiid":"B2094752D46AA2F5499F","title":"奉贤第一加油站","lon":"121.487954","lat":"30.922007","category":"153","category_name":"加油站","address":"上海市奉贤区南桥镇南奉公路8512号"}]