[{"poiid":"B2094654DB6AA5F5489D","title":"同济大学(嘉定校区)","lon":"121.21611","lat":"31.28277","category":"671","category_name":"高校中心点","address":"嘉定区曹安公路4800号(近嘉松北路)"},{"poiid":"B2094757D06FA2FF429C","title":"同济大学图书馆(嘉定校区)","lon":"121.211915493","lat":"31.2864324993","category":"253","category_name":"校园生活","address":"上海嘉定区曹安公路4800号同济大学嘉定校区内"},{"poiid":"B2094757D16FA4F4499F","title":"黄渡镇","lon":"121.21343328","lat":"31.269848505","category":"500","category_name":"未知分类","address":"上海市嘉定区黄渡·绿苑路"},{"poiid":"B2094757D068A1FC439B","title":"同济大学嘉定校区A楼","lon":"121.213692","lat":"31.285959","category":"500","category_name":"未知分类","address":"上海曹安公路4800号同济大学嘉定校区内"},{"poiid":"B2094757D068A6FE489B","title":"天上人间〔同济大学嘉定校区店〕","lon":"121.216110229","lat":"31.2827682495","category":"149","category_name":"洗浴推拿场所","address":"上海曹安公路 同济大学嘉定校区附近"},{"poiid":"B2094757D168A5F44099","title":"同济大学电信学院","lon":"121.212649863","lat":"31.2874653623","category":"52","category_name":"高等院校","address":"上海曹安公路4800号"},{"poiid":"B2094757D66FA3FA479D","title":"莱英国际","lon":"121.2177178373","lat":"31.283711752928","category":"47","category_name":"住宅区","address":"嘉定区真南路4500号(紧邻11号线南翔站)"},{"poiid":"B2094654D46BA2F94499","title":"同济大学新能源汽车工程中心","lon":"121.21411","lat":"31.28955","category":"52","category_name":"高等院校","address":""},{"poiid":"B2094757D068A1F9479D","title":"嘉宝•同济新天地","lon":"121.22280078","lat":"31.287134581","category":"260","category_name":"其他","address":"上海嘉定区曹安公路4800号同济大学内"},{"poiid":"B2094757D06FA4F54792","title":"同济大学嘉定校区七号楼","lon":"121.21774578","lat":"31.285800308","category":"500","category_name":"未知分类","address":"上海曹安公路4800号内"},{"poiid":"B2094654D46BA2F84498","title":"协通大酒店","lon":"121.21784","lat":"31.27638","category":"215","category_name":"三星级宾馆","address":"嘉定区曹安路4671号(近嘉松北路)"},{"poiid":"B2094750D26CA3F9409E","title":"黄渡理工大学","lon":"121.212158","lat":"31.283172","category":"52","category_name":"高等院校","address":"嘉定区曹安公路4800号"},{"poiid":"B2094757D169ABFA409C","title":"同济大学嘉定校区B楼","lon":"121.213862389","lat":"31.2863247444","category":"500","category_name":"未知分类","address":"上海曹安公路4800号同济大学内"},{"poiid":"B2094757D168A2F94999","title":"同济大学马桶楼","lon":"121.214845857","lat":"31.2853813557","category":"253","category_name":"校园生活","address":"上海曹安公路4800号"},{"poiid":"B2094757D064A4F44092","title":"同济大学汽车学院","lon":"121.210655212","lat":"31.2863349915","category":"253","category_name":"校园生活","address":"上海嘉定区曹安公路4800号"},{"poiid":"B2094757D069A7FC489D","title":"同济大学嘉定校区国际会议中心","lon":"121.21631","lat":"31.282811","category":"249","category_name":"购物服务","address":"上海同济大学嘉定校区内"},{"poiid":"B2094757D06FA5FF489C","title":"同济大学嘉定校区20号楼","lon":"121.22017935","lat":"31.290498444","category":"253","category_name":"校园生活","address":"上海市嘉定区曹安公路4800号同济大学嘉定校区内"},{"poiid":"B2094757D06BA5F5419C","title":"吉姆丽德乡村西餐厅(嘉定店)","lon":"121.21625368","lat":"31.28777874","category":"500","category_name":"未知分类","address":"嘉定区嘉松北路6128号同济大学新天地商业街商铺S145(春归路嘉松北路)"},{"poiid":"B2094750D26EA0FA4198","title":"秦韵人家","lon":"121.217","lat":"31.2866","category":"76","category_name":"上海菜","address":"嘉定区曹安公路4800号同济大学新天地商业街2楼(近堡盛中西餐)"},{"poiid":"B2094757D06AA2FB449B","title":"同济大学嘉定校区F楼","lon":"121.21611022","lat":"31.282768249","category":"500","category_name":"未知分类","address":"上海曹安公路4800号同济大学嘉定校区内"},{"poiid":"B2094757D568A0FB419E","title":"莱英郡(莱茵小镇)","lon":"121.21108588","lat":"31.27667833","category":"47","category_name":"住宅区","address":"黄渡镇绿苑路388号"},{"poiid":"B2094654D46BA1FB439A","title":"蕾枫大酒店","lon":"121.213608054","lat":"31.272270793","category":"76","category_name":"上海菜","address":"嘉定区黄渡镇绿苑路300号(嘉松北路口)"},{"poiid":"B2094757D16CA7FA429E","title":"游子口福居","lon":"121.21662","lat":"31.28672","category":"68","category_name":"快餐厅","address":"嘉定区曹安公路4800号同济大学新天地商业街"},{"poiid":"B2094757D66BA7FD479B","title":"小朵颐","lon":"121.217309","lat":"31.279839","category":"71","category_name":"四川菜","address":"嘉定区曹安公路4800号同济大学新天地内(近嘉松北路)"},{"poiid":"B2094757D66CAAFC419B","title":"同济大学嘉定校区马桶楼","lon":"121.21471495","lat":"31.285606809","category":"500","category_name":"未知分类","address":null},{"poiid":"B2094757D069ABFD459F","title":"昌吉东路地铁站","lon":"121.20069803","lat":"31.294058225","category":"36","category_name":"地铁站","address":"上海轨道交通 十一号线 轨交昌吉东路站 11"},{"poiid":"B2094757D16DA2FB4398","title":"同济大学嘉定校区2号楼","lon":"121.217749858","lat":"31.285707347","category":"253","category_name":"校园生活","address":"上海曹安公路4800号"},{"poiid":"B2094757D165A1F84898","title":"同济大学嘉定校区嘉实接待中心","lon":"121.21625148","lat":"31.289325316","category":"500","category_name":"未知分类","address":"上海曹安路4800"},{"poiid":"B2094757D16FABF4449D","title":"果麦(同济店)","lon":"121.21879698","lat":"31.287399066","category":"247","category_name":"餐饮美食","address":"上海嘉定区曹安公路4800号"},{"poiid":"B2094752DA6AA7FB459E","title":"上海奥迪国际赛车场","lon":"121.218553","lat":"31.287481","category":"500","category_name":"未知分类","address":"上海市 上海市嘉定区伊宁路2000号"},{"poiid":"B2094752DB6CA7F84099","title":"同济大学嘉定校区九号楼","lon":"121.216182","lat":"31.288107","category":"500","category_name":"未知分类","address":"上海市 曹安公路4800号"},{"poiid":"B2094757D064A1F9439E","title":"同济大学嘉定校区19号楼","lon":"121.22007804","lat":"31.289718734","category":"500","category_name":"未知分类","address":"上海曹安公路4800号"},{"poiid":"B2094757D66FA1F4459E","title":"黄渡理工大学8号楼","lon":"121.21841285","lat":"31.285392345","category":"500","category_name":"未知分类","address":"上海曹安公路4800号8号楼"},{"poiid":"B2094750DA6EAAF94098","title":"同济大学交通运输工程学院","lon":"121.214195","lat":"31.288471","category":"252","category_name":"楼宇机构","address":"同济大学交通学院楼"},{"poiid":"B2094757D065A5FB4698","title":"同济大学嘉定校区学生食堂三楼","lon":"121.21837519","lat":"31.286268493","category":"500","category_name":"未知分类","address":"上海曹安路4800"},{"poiid":"B2094757D164ABFC4593","title":"吉祥如意馄饨店","lon":"121.21761528","lat":"31.286981857","category":"500","category_name":"未知分类","address":"上海市嘉定区曹安公路4800号"},{"poiid":"B209475DD168A7F9489D","title":"嘉实广场•横店电影城","lon":"121.220962","lat":"31.288467","category":"178","category_name":"电影院","address":"上海市 上海市嘉定区谢春路"},{"poiid":"B2094757D66CA3FB4099","title":"Sur la mer, voir les fleurs","lon":"121.21866498","lat":"31.287402766","category":"500","category_name":"未知分类","address":"上海目击众神死亡的草原上野花一片，远在远方的风比远方更远。"},{"poiid":"B2094752DA69ABFF439D","title":"依然坚不可摧的同济大学","lon":"121.218788","lat":"31.285946","category":"500","category_name":"未知分类","address":"上海市 坚不可摧"},{"poiid":"B2094655D36CA1F4429D","title":"老宅","lon":"121.22309","lat":"31.28978","category":"38","category_name":"公交车站","address":""},{"poiid":"B2094757D66DAAFD499D","title":"旺比双皮灌汤包","lon":"121.22003173","lat":"31.287996292","category":"247","category_name":"餐饮美食","address":"上海曹安公路4800号同济大学新天地"},{"poiid":"B2094757D16AABF9479C","title":"同济大学嘉定校区7号楼461","lon":"121.21725428","lat":"31.285400825","category":"500","category_name":"未知分类","address":"上海市嘉定区曹安公路"},{"poiid":"B2094655D26BA7F44792","title":"大众春盛苑","lon":"121.20785","lat":"31.271196","category":"47","category_name":"住宅区","address":"上海市嘉松北路7222弄"},{"poiid":"B2094757D16BA1F8499D","title":"同濟大學嘉定校區B101","lon":"121.214385489","lat":"31.285482027","category":"500","category_name":"未知分类","address":null},{"poiid":"B2094654D46BA2F9449E","title":"嘉实同济接待中心","lon":"121.21714","lat":"31.28838","category":"253","category_name":"校园生活","address":""},{"poiid":"B2094757D16DA3FE479D","title":"同济大学嘉定校区体育场","lon":"121.22010438","lat":"31.287808274","category":"500","category_name":"未知分类","address":"上海曹安路4800号同济大学内"},{"poiid":"B2094757D16AA4FB419A","title":"同济大学嘉定校区15号楼116室","lon":"121.217517292","lat":"31.2891593366","category":"500","category_name":"未知分类","address":null},{"poiid":"B209475DD568A7F84893","title":"同济大学星巴克","lon":"121.219879","lat":"31.287475","category":"253","category_name":"校园生活","address":"上海市 同济大学嘉定校区"},{"poiid":"B2094757D06AA4FA4898","title":"同济大学嘉定校区汽展中心","lon":"121.21276569","lat":"31.283947516","category":"500","category_name":"未知分类","address":"上海曹安公路4800号"},{"poiid":"B2094757D16AAAFD409A","title":"同济大学嘉定校区大学生活动中心茶水吧","lon":"121.214111","lat":"31.289544","category":"500","category_name":"未知分类","address":"上海嘉定区曹安公路4800号同济大学汽展中心一楼"},{"poiid":"B2094654DB6AA5F5489D","title":"同济大学(嘉定校区)","lon":"121.21611","lat":"31.28277","category":"671","category_name":"高校中心点","address":"嘉定区曹安公路4800号(近嘉松北路)"},{"poiid":"B2094757D06FA2FF429C","title":"同济大学图书馆(嘉定校区)","lon":"121.211915493","lat":"31.2864324993","category":"253","category_name":"校园生活","address":"上海嘉定区曹安公路4800号同济大学嘉定校区内"},{"poiid":"B2094757D16FA4F4499F","title":"黄渡镇","lon":"121.21343328","lat":"31.269848505","category":"500","category_name":"未知分类","address":"上海市嘉定区黄渡·绿苑路"},{"poiid":"B2094757D068A1FC439B","title":"同济大学嘉定校区A楼","lon":"121.213692","lat":"31.285959","category":"500","category_name":"未知分类","address":"上海曹安公路4800号同济大学嘉定校区内"},{"poiid":"B2094757D068A6FE489B","title":"天上人间〔同济大学嘉定校区店〕","lon":"121.216110229","lat":"31.2827682495","category":"149","category_name":"洗浴推拿场所","address":"上海曹安公路 同济大学嘉定校区附近"},{"poiid":"B2094757D168A5F44099","title":"同济大学电信学院","lon":"121.212649863","lat":"31.2874653623","category":"52","category_name":"高等院校","address":"上海曹安公路4800号"},{"poiid":"B2094757D66FA3FA479D","title":"莱英国际","lon":"121.2177178373","lat":"31.283711752928","category":"47","category_name":"住宅区","address":"嘉定区真南路4500号(紧邻11号线南翔站)"},{"poiid":"B2094654D46BA2F94499","title":"同济大学新能源汽车工程中心","lon":"121.21411","lat":"31.28955","category":"52","category_name":"高等院校","address":""},{"poiid":"B2094757D068A1F9479D","title":"嘉宝•同济新天地","lon":"121.22280078","lat":"31.287134581","category":"260","category_name":"其他","address":"上海嘉定区曹安公路4800号同济大学内"},{"poiid":"B2094757D06FA4F54792","title":"同济大学嘉定校区七号楼","lon":"121.21774578","lat":"31.285800308","category":"500","category_name":"未知分类","address":"上海曹安公路4800号内"},{"poiid":"B2094654D46BA2F84498","title":"协通大酒店","lon":"121.21784","lat":"31.27638","category":"215","category_name":"三星级宾馆","address":"嘉定区曹安路4671号(近嘉松北路)"},{"poiid":"B2094750D26CA3F9409E","title":"黄渡理工大学","lon":"121.212158","lat":"31.283172","category":"52","category_name":"高等院校","address":"嘉定区曹安公路4800号"},{"poiid":"B2094757D169ABFA409C","title":"同济大学嘉定校区B楼","lon":"121.213862389","lat":"31.2863247444","category":"500","category_name":"未知分类","address":"上海曹安公路4800号同济大学内"},{"poiid":"B2094757D168A2F94999","title":"同济大学马桶楼","lon":"121.214845857","lat":"31.2853813557","category":"253","category_name":"校园生活","address":"上海曹安公路4800号"},{"poiid":"B2094757D064A4F44092","title":"同济大学汽车学院","lon":"121.210655212","lat":"31.2863349915","category":"253","category_name":"校园生活","address":"上海嘉定区曹安公路4800号"},{"poiid":"B2094757D069A7FC489D","title":"同济大学嘉定校区国际会议中心","lon":"121.21631","lat":"31.282811","category":"249","category_name":"购物服务","address":"上海同济大学嘉定校区内"},{"poiid":"B2094757D06FA5FF489C","title":"同济大学嘉定校区20号楼","lon":"121.22017935","lat":"31.290498444","category":"253","category_name":"校园生活","address":"上海市嘉定区曹安公路4800号同济大学嘉定校区内"},{"poiid":"B2094757D06BA5F5419C","title":"吉姆丽德乡村西餐厅(嘉定店)","lon":"121.21625368","lat":"31.28777874","category":"500","category_name":"未知分类","address":"嘉定区嘉松北路6128号同济大学新天地商业街商铺S145(春归路嘉松北路)"},{"poiid":"B2094750D26EA0FA4198","title":"秦韵人家","lon":"121.217","lat":"31.2866","category":"76","category_name":"上海菜","address":"嘉定区曹安公路4800号同济大学新天地商业街2楼(近堡盛中西餐)"},{"poiid":"B2094757D06AA2FB449B","title":"同济大学嘉定校区F楼","lon":"121.21611022","lat":"31.282768249","category":"500","category_name":"未知分类","address":"上海曹安公路4800号同济大学嘉定校区内"},{"poiid":"B2094757D568A0FB419E","title":"莱英郡(莱茵小镇)","lon":"121.21108588","lat":"31.27667833","category":"47","category_name":"住宅区","address":"黄渡镇绿苑路388号"},{"poiid":"B2094654D46BA1FB439A","title":"蕾枫大酒店","lon":"121.213608054","lat":"31.272270793","category":"76","category_name":"上海菜","address":"嘉定区黄渡镇绿苑路300号(嘉松北路口)"},{"poiid":"B2094757D16CA7FA429E","title":"游子口福居","lon":"121.21662","lat":"31.28672","category":"68","category_name":"快餐厅","address":"嘉定区曹安公路4800号同济大学新天地商业街"},{"poiid":"B2094757D66BA7FD479B","title":"小朵颐","lon":"121.217309","lat":"31.279839","category":"71","category_name":"四川菜","address":"嘉定区曹安公路4800号同济大学新天地内(近嘉松北路)"},{"poiid":"B2094757D66CAAFC419B","title":"同济大学嘉定校区马桶楼","lon":"121.21471495","lat":"31.285606809","category":"500","category_name":"未知分类","address":null},{"poiid":"B2094757D069ABFD459F","title":"昌吉东路地铁站","lon":"121.20069803","lat":"31.294058225","category":"36","category_name":"地铁站","address":"上海轨道交通 十一号线 轨交昌吉东路站 11"},{"poiid":"B2094757D16DA2FB4398","title":"同济大学嘉定校区2号楼","lon":"121.217749858","lat":"31.285707347","category":"253","category_name":"校园生活","address":"上海曹安公路4800号"},{"poiid":"B2094757D165A1F84898","title":"同济大学嘉定校区嘉实接待中心","lon":"121.21625148","lat":"31.289325316","category":"500","category_name":"未知分类","address":"上海曹安路4800"},{"poiid":"B2094757D16FABF4449D","title":"果麦(同济店)","lon":"121.21879698","lat":"31.287399066","category":"247","category_name":"餐饮美食","address":"上海嘉定区曹安公路4800号"},{"poiid":"B2094752DA6AA7FB459E","title":"上海奥迪国际赛车场","lon":"121.218553","lat":"31.287481","category":"500","category_name":"未知分类","address":"上海市 上海市嘉定区伊宁路2000号"},{"poiid":"B2094752DB6CA7F84099","title":"同济大学嘉定校区九号楼","lon":"121.216182","lat":"31.288107","category":"500","category_name":"未知分类","address":"上海市 曹安公路4800号"},{"poiid":"B2094757D064A1F9439E","title":"同济大学嘉定校区19号楼","lon":"121.22007804","lat":"31.289718734","category":"500","category_name":"未知分类","address":"上海曹安公路4800号"},{"poiid":"B2094757D66FA1F4459E","title":"黄渡理工大学8号楼","lon":"121.21841285","lat":"31.285392345","category":"500","category_name":"未知分类","address":"上海曹安公路4800号8号楼"},{"poiid":"B2094750DA6EAAF94098","title":"同济大学交通运输工程学院","lon":"121.214195","lat":"31.288471","category":"252","category_name":"楼宇机构","address":"同济大学交通学院楼"},{"poiid":"B2094757D065A5FB4698","title":"同济大学嘉定校区学生食堂三楼","lon":"121.21837519","lat":"31.286268493","category":"500","category_name":"未知分类","address":"上海曹安路4800"},{"poiid":"B2094757D164ABFC4593","title":"吉祥如意馄饨店","lon":"121.21761528","lat":"31.286981857","category":"500","category_name":"未知分类","address":"上海市嘉定区曹安公路4800号"},{"poiid":"B209475DD168A7F9489D","title":"嘉实广场•横店电影城","lon":"121.220962","lat":"31.288467","category":"178","category_name":"电影院","address":"上海市 上海市嘉定区谢春路"},{"poiid":"B2094757D66CA3FB4099","title":"Sur la mer, voir les fleurs","lon":"121.21866498","lat":"31.287402766","category":"500","category_name":"未知分类","address":"上海目击众神死亡的草原上野花一片，远在远方的风比远方更远。"},{"poiid":"B2094752DA69ABFF439D","title":"依然坚不可摧的同济大学","lon":"121.218788","lat":"31.285946","category":"500","category_name":"未知分类","address":"上海市 坚不可摧"},{"poiid":"B2094655D36CA1F4429D","title":"老宅","lon":"121.22309","lat":"31.28978","category":"38","category_name":"公交车站","address":""},{"poiid":"B2094757D66DAAFD499D","title":"旺比双皮灌汤包","lon":"121.22003173","lat":"31.287996292","category":"247","category_name":"餐饮美食","address":"上海曹安公路4800号同济大学新天地"},{"poiid":"B2094757D16AABF9479C","title":"同济大学嘉定校区7号楼461","lon":"121.21725428","lat":"31.285400825","category":"500","category_name":"未知分类","address":"上海市嘉定区曹安公路"},{"poiid":"B2094655D26BA7F44792","title":"大众春盛苑","lon":"121.20785","lat":"31.271196","category":"47","category_name":"住宅区","address":"上海市嘉松北路7222弄"},{"poiid":"B2094757D16BA1F8499D","title":"同濟大學嘉定校區B101","lon":"121.214385489","lat":"31.285482027","category":"500","category_name":"未知分类","address":null},{"poiid":"B2094654D46BA2F9449E","title":"嘉实同济接待中心","lon":"121.21714","lat":"31.28838","category":"253","category_name":"校园生活","address":""},{"poiid":"B2094757D16DA3FE479D","title":"同济大学嘉定校区体育场","lon":"121.22010438","lat":"31.287808274","category":"500","category_name":"未知分类","address":"上海曹安路4800号同济大学内"},{"poiid":"B2094757D16AA4FB419A","title":"同济大学嘉定校区15号楼116室","lon":"121.217517292","lat":"31.2891593366","category":"500","category_name":"未知分类","address":null},{"poiid":"B209475DD568A7F84893","title":"同济大学星巴克","lon":"121.219879","lat":"31.287475","category":"253","category_name":"校园生活","address":"上海市 同济大学嘉定校区"},{"poiid":"B2094757D06AA4FA4898","title":"同济大学嘉定校区汽展中心","lon":"121.21276569","lat":"31.283947516","category":"500","category_name":"未知分类","address":"上海曹安公路4800号"},{"poiid":"B2094757D16AAAFD409A","title":"同济大学嘉定校区大学生活动中心茶水吧","lon":"121.214111","lat":"31.289544","category":"500","category_name":"未知分类","address":"上海嘉定区曹安公路4800号同济大学汽展中心一楼"},{"poiid":"B2094654DB6AA5F5489D","title":"同济大学(嘉定校区)","lon":"121.21611","lat":"31.28277","category":"671","category_name":"高校中心点","address":"嘉定区曹安公路4800号(近嘉松北路)"},{"poiid":"B2094757D06FA2FF429C","title":"同济大学图书馆(嘉定校区)","lon":"121.211915493","lat":"31.2864324993","category":"253","category_name":"校园生活","address":"上海嘉定区曹安公路4800号同济大学嘉定校区内"},{"poiid":"B2094757D16FA4F4499F","title":"黄渡镇","lon":"121.21343328","lat":"31.269848505","category":"500","category_name":"未知分类","address":"上海市嘉定区黄渡·绿苑路"},{"poiid":"B2094757D068A1FC439B","title":"同济大学嘉定校区A楼","lon":"121.213692","lat":"31.285959","category":"500","category_name":"未知分类","address":"上海曹安公路4800号同济大学嘉定校区内"},{"poiid":"B2094757D068A6FE489B","title":"天上人间〔同济大学嘉定校区店〕","lon":"121.216110229","lat":"31.2827682495","category":"149","category_name":"洗浴推拿场所","address":"上海曹安公路 同济大学嘉定校区附近"},{"poiid":"B2094757D168A5F44099","title":"同济大学电信学院","lon":"121.212649863","lat":"31.2874653623","category":"52","category_name":"高等院校","address":"上海曹安公路4800号"},{"poiid":"B2094757D66FA3FA479D","title":"莱英国际","lon":"121.2177178373","lat":"31.283711752928","category":"47","category_name":"住宅区","address":"嘉定区真南路4500号(紧邻11号线南翔站)"},{"poiid":"B2094654D46BA2F94499","title":"同济大学新能源汽车工程中心","lon":"121.21411","lat":"31.28955","category":"52","category_name":"高等院校","address":""},{"poiid":"B2094757D068A1F9479D","title":"嘉宝•同济新天地","lon":"121.22280078","lat":"31.287134581","category":"260","category_name":"其他","address":"上海嘉定区曹安公路4800号同济大学内"},{"poiid":"B2094757D06FA4F54792","title":"同济大学嘉定校区七号楼","lon":"121.21774578","lat":"31.285800308","category":"500","category_name":"未知分类","address":"上海曹安公路4800号内"},{"poiid":"B2094654D46BA2F84498","title":"协通大酒店","lon":"121.21784","lat":"31.27638","category":"215","category_name":"三星级宾馆","address":"嘉定区曹安路4671号(近嘉松北路)"},{"poiid":"B2094750D26CA3F9409E","title":"黄渡理工大学","lon":"121.212158","lat":"31.283172","category":"52","category_name":"高等院校","address":"嘉定区曹安公路4800号"},{"poiid":"B2094757D169ABFA409C","title":"同济大学嘉定校区B楼","lon":"121.213862389","lat":"31.2863247444","category":"500","category_name":"未知分类","address":"上海曹安公路4800号同济大学内"},{"poiid":"B2094757D168A2F94999","title":"同济大学马桶楼","lon":"121.214845857","lat":"31.2853813557","category":"253","category_name":"校园生活","address":"上海曹安公路4800号"},{"poiid":"B2094757D064A4F44092","title":"同济大学汽车学院","lon":"121.210655212","lat":"31.2863349915","category":"253","category_name":"校园生活","address":"上海嘉定区曹安公路4800号"},{"poiid":"B2094757D069A7FC489D","title":"同济大学嘉定校区国际会议中心","lon":"121.21631","lat":"31.282811","category":"249","category_name":"购物服务","address":"上海同济大学嘉定校区内"},{"poiid":"B2094757D06FA5FF489C","title":"同济大学嘉定校区20号楼","lon":"121.22017935","lat":"31.290498444","category":"253","category_name":"校园生活","address":"上海市嘉定区曹安公路4800号同济大学嘉定校区内"},{"poiid":"B2094757D06BA5F5419C","title":"吉姆丽德乡村西餐厅(嘉定店)","lon":"121.21625368","lat":"31.28777874","category":"500","category_name":"未知分类","address":"嘉定区嘉松北路6128号同济大学新天地商业街商铺S145(春归路嘉松北路)"},{"poiid":"B2094750D26EA0FA4198","title":"秦韵人家","lon":"121.217","lat":"31.2866","category":"76","category_name":"上海菜","address":"嘉定区曹安公路4800号同济大学新天地商业街2楼(近堡盛中西餐)"},{"poiid":"B2094757D06AA2FB449B","title":"同济大学嘉定校区F楼","lon":"121.21611022","lat":"31.282768249","category":"500","category_name":"未知分类","address":"上海曹安公路4800号同济大学嘉定校区内"},{"poiid":"B2094757D568A0FB419E","title":"莱英郡(莱茵小镇)","lon":"121.21108588","lat":"31.27667833","category":"47","category_name":"住宅区","address":"黄渡镇绿苑路388号"},{"poiid":"B2094654D46BA1FB439A","title":"蕾枫大酒店","lon":"121.213608054","lat":"31.272270793","category":"76","category_name":"上海菜","address":"嘉定区黄渡镇绿苑路300号(嘉松北路口)"},{"poiid":"B2094757D16CA7FA429E","title":"游子口福居","lon":"121.21662","lat":"31.28672","category":"68","category_name":"快餐厅","address":"嘉定区曹安公路4800号同济大学新天地商业街"},{"poiid":"B2094757D66BA7FD479B","title":"小朵颐","lon":"121.217309","lat":"31.279839","category":"71","category_name":"四川菜","address":"嘉定区曹安公路4800号同济大学新天地内(近嘉松北路)"},{"poiid":"B2094757D66CAAFC419B","title":"同济大学嘉定校区马桶楼","lon":"121.21471495","lat":"31.285606809","category":"500","category_name":"未知分类","address":null},{"poiid":"B2094757D069ABFD459F","title":"昌吉东路地铁站","lon":"121.20069803","lat":"31.294058225","category":"36","category_name":"地铁站","address":"上海轨道交通 十一号线 轨交昌吉东路站 11"},{"poiid":"B2094757D16DA2FB4398","title":"同济大学嘉定校区2号楼","lon":"121.217749858","lat":"31.285707347","category":"253","category_name":"校园生活","address":"上海曹安公路4800号"},{"poiid":"B2094757D165A1F84898","title":"同济大学嘉定校区嘉实接待中心","lon":"121.21625148","lat":"31.289325316","category":"500","category_name":"未知分类","address":"上海曹安路4800"},{"poiid":"B2094757D16FABF4449D","title":"果麦(同济店)","lon":"121.21879698","lat":"31.287399066","category":"247","category_name":"餐饮美食","address":"上海嘉定区曹安公路4800号"},{"poiid":"B2094752DA6AA7FB459E","title":"上海奥迪国际赛车场","lon":"121.218553","lat":"31.287481","category":"500","category_name":"未知分类","address":"上海市 上海市嘉定区伊宁路2000号"},{"poiid":"B2094752DB6CA7F84099","title":"同济大学嘉定校区九号楼","lon":"121.216182","lat":"31.288107","category":"500","category_name":"未知分类","address":"上海市 曹安公路4800号"},{"poiid":"B2094757D064A1F9439E","title":"同济大学嘉定校区19号楼","lon":"121.22007804","lat":"31.289718734","category":"500","category_name":"未知分类","address":"上海曹安公路4800号"},{"poiid":"B2094757D66FA1F4459E","title":"黄渡理工大学8号楼","lon":"121.21841285","lat":"31.285392345","category":"500","category_name":"未知分类","address":"上海曹安公路4800号8号楼"},{"poiid":"B2094750DA6EAAF94098","title":"同济大学交通运输工程学院","lon":"121.214195","lat":"31.288471","category":"252","category_name":"楼宇机构","address":"同济大学交通学院楼"},{"poiid":"B2094757D065A5FB4698","title":"同济大学嘉定校区学生食堂三楼","lon":"121.21837519","lat":"31.286268493","category":"500","category_name":"未知分类","address":"上海曹安路4800"},{"poiid":"B2094757D164ABFC4593","title":"吉祥如意馄饨店","lon":"121.21761528","lat":"31.286981857","category":"500","category_name":"未知分类","address":"上海市嘉定区曹安公路4800号"},{"poiid":"B209475DD168A7F9489D","title":"嘉实广场•横店电影城","lon":"121.220962","lat":"31.288467","category":"178","category_name":"电影院","address":"上海市 上海市嘉定区谢春路"},{"poiid":"B2094757D66CA3FB4099","title":"Sur la mer, voir les fleurs","lon":"121.21866498","lat":"31.287402766","category":"500","category_name":"未知分类","address":"上海目击众神死亡的草原上野花一片，远在远方的风比远方更远。"},{"poiid":"B2094752DA69ABFF439D","title":"依然坚不可摧的同济大学","lon":"121.218788","lat":"31.285946","category":"500","category_name":"未知分类","address":"上海市 坚不可摧"},{"poiid":"B2094655D36CA1F4429D","title":"老宅","lon":"121.22309","lat":"31.28978","category":"38","category_name":"公交车站","address":""},{"poiid":"B2094757D66DAAFD499D","title":"旺比双皮灌汤包","lon":"121.22003173","lat":"31.287996292","category":"247","category_name":"餐饮美食","address":"上海曹安公路4800号同济大学新天地"},{"poiid":"B2094757D16AABF9479C","title":"同济大学嘉定校区7号楼461","lon":"121.21725428","lat":"31.285400825","category":"500","category_name":"未知分类","address":"上海市嘉定区曹安公路"},{"poiid":"B2094655D26BA7F44792","title":"大众春盛苑","lon":"121.20785","lat":"31.271196","category":"47","category_name":"住宅区","address":"上海市嘉松北路7222弄"},{"poiid":"B2094757D16BA1F8499D","title":"同濟大學嘉定校區B101","lon":"121.214385489","lat":"31.285482027","category":"500","category_name":"未知分类","address":null},{"poiid":"B2094654D46BA2F9449E","title":"嘉实同济接待中心","lon":"121.21714","lat":"31.28838","category":"253","category_name":"校园生活","address":""},{"poiid":"B2094757D16DA3FE479D","title":"同济大学嘉定校区体育场","lon":"121.22010438","lat":"31.287808274","category":"500","category_name":"未知分类","address":"上海曹安路4800号同济大学内"},{"poiid":"B2094757D16AA4FB419A","title":"同济大学嘉定校区15号楼116室","lon":"121.217517292","lat":"31.2891593366","category":"500","category_name":"未知分类","address":null},{"poiid":"B209475DD568A7F84893","title":"同济大学星巴克","lon":"121.219879","lat":"31.287475","category":"253","category_name":"校园生活","address":"上海市 同济大学嘉定校区"},{"poiid":"B2094757D06AA4FA4898","title":"同济大学嘉定校区汽展中心","lon":"121.21276569","lat":"31.283947516","category":"500","category_name":"未知分类","address":"上海曹安公路4800号"},{"poiid":"B2094757D16AAAFD409A","title":"同济大学嘉定校区大学生活动中心茶水吧","lon":"121.214111","lat":"31.289544","category":"500","category_name":"未知分类","address":"上海嘉定区曹安公路4800号同济大学汽展中心一楼"}]