[{"poiid":"B2094654DB69A0FA4998","title":"鹿港小镇(新天地店)","lon":"121.47697","lat":"31.22197","category":"91","category_name":"台湾菜","address":"卢湾区太仓路68号(近嵩山路)"},{"poiid":"B2094654DB6BA4FA4899","title":"好乐迪量贩KTV","lon":"121.47646","lat":"31.22161","category":"170","category_name":"KTV","address":"顺昌路2"},{"poiid":"B2094655D26AA0F84799","title":"上海中医药大学附属曙光医院","lon":"121.47867","lat":"31.22293","category":"162","category_name":"医院","address":"卢湾区普安路185号(近淮海公园)"},{"poiid":"B2094753D76FAAFA449C","title":"上海滩国泰旗舰店","lon":"121.466011","lat":"31.216125","category":"249","category_name":"购物服务","address":"淮海中路868号"},{"poiid":"B209475CD564A7F84292","title":"上海滩新天地店","lon":"121.47463","lat":"31.22164","category":"119","category_name":"商场","address":"\"太仓路181弄新天地北里15号\r\n\""},{"poiid":"B209475CD564A7F8439E","title":"上海滩中信泰富店","lon":"121.45602","lat":"31.22851","category":"119","category_name":"商场","address":"\"南京西路1168号中信泰富广场，店铺号221.\r\n\""},{"poiid":"B209475CD564A7F84392","title":"上海滩浦东香格里拉店","lon":"121.50058","lat":"31.23634","category":"119","category_name":"商场","address":"浦东富成路33号香格里拉酒店内大堂层"},{"poiid":"B2094750D26EABF8459A","title":"上海虹桥机场","lon":"121.48","lat":"31.22","category":"21","category_name":"飞机场","address":"上海长宁区虹桥路2550号"},{"poiid":"B2094757D06FA3F84399","title":"枣子树(淮海店)","lon":"121.47648","lat":"31.22225","category":"89","category_name":"中式素餐馆","address":"卢湾区嵩山路77号上海皇宫内(近淮海中路)"},{"poiid":"B2094654DA6EABF5459F","title":"企业天地","lon":"121.47592","lat":"31.22109","category":"46","category_name":"楼宇","address":"上海市平凉路1398号"},{"poiid":"B2094757D16AA5F94593","title":"好乐迪","lon":"121.47968292","lat":"31.220613479","category":"500","category_name":"未知分类","address":"上海卢湾区顺昌路2号"},{"poiid":"B2094757D06FA5FF499D","title":"新天地太平桥人工湖","lon":"121.479294","lat":"31.222233","category":"196","category_name":"公园","address":"上海济南路"},{"poiid":"B2094757D06FA2FE429B","title":"企业天地1号楼","lon":"121.476076722","lat":"31.2208862618","category":"46","category_name":"楼宇","address":"上海市卢湾区湖滨路222号"},{"poiid":"B2094757D06FA2F44599","title":"蝶园(太仓路店)","lon":"121.47718","lat":"31.22167","category":"76","category_name":"上海菜","address":"卢湾区太仓路70号(近嵩山路)"},{"poiid":"B2094757D06FA2FA4292","title":"普华永道中心","lon":"121.47667706","lat":"31.2208910235","category":"46","category_name":"楼宇","address":"上海卢湾区湖滨路202号"},{"poiid":"B2094753D768A7FE489D","title":"甜品工房","lon":"121.477027","lat":"31.22192","category":"247","category_name":"餐饮美食","address":"上海市 济南路9号103商铺(近太仓路)"},{"poiid":"B2094654DB6BA4FB4493","title":"天家 太仓路店","lon":"121.47643526081","lat":"31.221847695273","category":"95","category_name":"日本料理","address":"卢湾区太仓路68号(近嵩山路)"},{"poiid":"B2094757D06FA1F84593","title":"Enoterra红酒吧(太仓路店)","lon":"121.477109909","lat":"31.2219337278","category":"260","category_name":"其他","address":"卢湾区太仓路58号(近济南路)"},{"poiid":"B2094757D06FA1F8489D","title":"淮海公园","lon":"121.47755186","lat":"31.222709558","category":"196","category_name":"公园","address":"卢湾区淮海中路177号(近普安路)"},{"poiid":"B2094655D26EA5FE469C","title":"y+瑜伽馆(新天地店)","lon":"121.47625","lat":"31.22076","category":"148","category_name":"美容美发店","address":"黄浦区湖滨路202号企业天地2号2楼(新天地会所)"},{"poiid":"B2094654DA6EAAFC429C","title":"曙光大厦","lon":"121.47886","lat":"31.22255","category":"46","category_name":"楼宇","address":"静安区西康路946号"},{"poiid":"B2094757D064A3FC4299","title":"POST餐厅","lon":"121.47842","lat":"31.21808","category":"94","category_name":"西餐厅","address":"卢湾区顺昌路168弄翠湖天地10号会所2楼(自忠路)"},{"poiid":"B2094757D66BA3F94698","title":"伊莎贝尔 Trattoria Isabelle","lon":"121.479601054","lat":"31.221654793","category":"98","category_name":"意式菜品餐厅","address":"卢湾区吉安路11号(湖滨路崇德路间)"},{"poiid":"B2094654DA6EAAFC469E","title":"上海时光整形外科医院","lon":"121.47886","lat":"31.22255","category":"162","category_name":"医院","address":"卢湾区普安路189号曙光大厦2楼(近淮海公园)"},{"poiid":"B2094757D06FA4F44093","title":"富民面馆","lon":"121.47687790213","lat":"31.221657822044","category":"68","category_name":"快餐厅","address":"卢湾区太仓路78号(顺昌路口)"},{"poiid":"B2094757D568A4FA4692","title":"Green Massage新天地店","lon":"121.4773631","lat":"31.22202611","category":"149","category_name":"洗浴推拿场所","address":"太仓路58号"},{"poiid":"B2094757D06BA7F54899","title":"瑞尔齿科(新天地店)","lon":"121.47636","lat":"31.2209","category":"162","category_name":"医院","address":"上海卢湾区湖滨路202号企业天地商业中心2号2楼(近济南路)  "},{"poiid":"B2094654DA6EABFB499B","title":"上海市比乐中学","lon":"121.47971","lat":"31.22154","category":"55","category_name":"中学","address":"卢湾区崇德路43号(近顺昌路)"},{"poiid":"B2094654DA6EABF5449A","title":"太平桥公园","lon":"121.47679","lat":"31.2197","category":"196","category_name":"公园","address":"淮海中路"},{"poiid":"B2094753D76CA2F44598","title":"上海朗庭酒店","lon":"121.479156","lat":"31.22248","category":"500","category_name":"未知分类","address":"上海市 卢湾区马当路"},{"poiid":"B2094751D36BA5FF469F","title":"上海南站","lon":"121.48","lat":"31.22","category":"195","category_name":"游乐场","address":"上海徐家汇"},{"poiid":"B2094757D66DA0FC409C","title":"舒适堡","lon":"121.476330738","lat":"31.2202470874","category":"500","category_name":"未知分类","address":"卢湾区淮海中路1号(近西藏南路)"},{"poiid":"B2094654DA6EABF54498","title":"翠湖天地","lon":"121.47864","lat":"31.21832","category":"47","category_name":"住宅区","address":"长宁区镇宁路111号"},{"poiid":"B2094654DB65A7F5499E","title":"Y+瑜伽生活馆(新天地店)","lon":"121.4761","lat":"31.22175","category":"220","category_name":"运动场所","address":"卢湾区湖滨路202号企业天地2号楼2楼单元17-20室(近济南路)"},{"poiid":"B2094757D16FA1FB469F","title":"太平湖绿地","lon":"121.47711773","lat":"31.219893079","category":"500","category_name":"未知分类","address":"上海ShanghaiLuwanHubin Rd"},{"poiid":"B2094752D66FA1FC449C","title":"洋房火锅","lon":"121.475798","lat":"31.220111","category":"247","category_name":"餐饮美食","address":"新天地黄陂南路378号"},{"poiid":"B2094753DA6AA3F44599","title":"甜品工房","lon":"121.477249","lat":"31.221738","category":"247","category_name":"餐饮美食","address":"上海市 新天地济南路近太仓路"},{"poiid":"B2094753DA68A3FC469F","title":"甜品工坊","lon":"121.477355","lat":"31.221826","category":"500","category_name":"未知分类","address":"上海市 太仓路"},{"poiid":"B2094757DB69A7FA4993","title":"李向阳葱油饼","lon":"121.47865","lat":"31.22204","category":"68","category_name":"快餐厅","address":"卢湾区普安路185号(近上海中医大学附属曙光医院)"},{"poiid":"B2094654DB6AA7FB4199","title":"新元素(Y+瑜伽中心店)","lon":"121.47664","lat":"31.22081","category":"247","category_name":"餐饮美食","address":"卢湾区湖滨路202号企业天地商业中心2号楼2楼17号店铺(近黄陂南路)"},{"poiid":"B2094655D26BA3FE4392","title":"立欧桌球概念馆","lon":"121.47886","lat":"31.22255","category":"171","category_name":"台球厅","address":"卢湾区普安路189号曙光大厦10楼(近淮海公园)"},{"poiid":"B2094757D065A0F5429C","title":"榄香","lon":"121.47851996","lat":"31.218682691","category":"247","category_name":"餐饮美食","address":"上海中环广场二楼"},{"poiid":"B2094757DB6EA6FE479A","title":"上海Casa Serena巴越风酒店","lon":"121.4771524","lat":"31.2219883","category":"213","category_name":"五星级宾馆","address":"上海市卢湾区太仓路68号(近顺昌路)"},{"poiid":"B2094757D06BA6FD4992","title":"上海中医药大学附属曙光医院名中医诊疗中心","lon":"121.478672","lat":"31.222935","category":"162","category_name":"医院","address":"上海市卢湾区普安路185号(近淮海公园)"},{"poiid":"B2094750DA69A0FA449F","title":"新天地喜娜餐厅","lon":"121.475769","lat":"31.220209","category":"247","category_name":"餐饮美食","address":"黄陂南路373号"},{"poiid":"B2094654DA6EAAFE4192","title":"崇尚麻辣烫","lon":"121.47941","lat":"31.22203","category":"68","category_name":"快餐厅","address":"卢湾区崇德路46号(近柳林路)"},{"poiid":"B2094654DA6EAAFB479B","title":"顺太饮食店","lon":"121.47675","lat":"31.2219","category":"76","category_name":"上海菜","address":"卢湾区顺昌路(近太仓路)"},{"poiid":"B2094757D465A7FF499B","title":"新新美食林","lon":"121.48006393688","lat":"31.219839547289","category":"68","category_name":"快餐厅","address":"卢湾区自忠路75号(近吉安路)"},{"poiid":"B2094757D06BA3FE459C","title":"时光整形医院","lon":"121.47886","lat":"31.22229","category":"162","category_name":"医院","address":"上海卢湾区普安路189号曙光大厦6楼(近淮海公园)  "},{"poiid":"B2094757D16EA5FB4192","title":"821p1桌球俱乐部旗舰馆","lon":"121.47633728","lat":"31.221589116","category":"500","category_name":"未知分类","address":"上海淮海路一号柳林路口柳林大厦"},{"poiid":"B2094654DB69A0FA4998","title":"鹿港小镇(新天地店)","lon":"121.47697","lat":"31.22197","category":"91","category_name":"台湾菜","address":"卢湾区太仓路68号(近嵩山路)"},{"poiid":"B2094654DB6BA4FA4899","title":"好乐迪量贩KTV","lon":"121.47646","lat":"31.22161","category":"170","category_name":"KTV","address":"顺昌路2"},{"poiid":"B2094655D26AA0F84799","title":"上海中医药大学附属曙光医院","lon":"121.47867","lat":"31.22293","category":"162","category_name":"医院","address":"卢湾区普安路185号(近淮海公园)"},{"poiid":"B2094753D76FAAFA449C","title":"上海滩国泰旗舰店","lon":"121.466011","lat":"31.216125","category":"249","category_name":"购物服务","address":"淮海中路868号"},{"poiid":"B209475CD564A7F84292","title":"上海滩新天地店","lon":"121.47463","lat":"31.22164","category":"119","category_name":"商场","address":"\"太仓路181弄新天地北里15号\r\n\""},{"poiid":"B209475CD564A7F8439E","title":"上海滩中信泰富店","lon":"121.45602","lat":"31.22851","category":"119","category_name":"商场","address":"\"南京西路1168号中信泰富广场，店铺号221.\r\n\""},{"poiid":"B209475CD564A7F84392","title":"上海滩浦东香格里拉店","lon":"121.50058","lat":"31.23634","category":"119","category_name":"商场","address":"浦东富成路33号香格里拉酒店内大堂层"},{"poiid":"B2094750D26EABF8459A","title":"上海虹桥机场","lon":"121.48","lat":"31.22","category":"21","category_name":"飞机场","address":"上海长宁区虹桥路2550号"},{"poiid":"B2094757D06FA3F84399","title":"枣子树(淮海店)","lon":"121.47648","lat":"31.22225","category":"89","category_name":"中式素餐馆","address":"卢湾区嵩山路77号上海皇宫内(近淮海中路)"},{"poiid":"B2094654DA6EABF5459F","title":"企业天地","lon":"121.47592","lat":"31.22109","category":"46","category_name":"楼宇","address":"上海市平凉路1398号"},{"poiid":"B2094757D16AA5F94593","title":"好乐迪","lon":"121.47968292","lat":"31.220613479","category":"500","category_name":"未知分类","address":"上海卢湾区顺昌路2号"},{"poiid":"B2094757D06FA5FF499D","title":"新天地太平桥人工湖","lon":"121.479294","lat":"31.222233","category":"196","category_name":"公园","address":"上海济南路"},{"poiid":"B2094757D06FA2FE429B","title":"企业天地1号楼","lon":"121.476076722","lat":"31.2208862618","category":"46","category_name":"楼宇","address":"上海市卢湾区湖滨路222号"},{"poiid":"B2094757D06FA2F44599","title":"蝶园(太仓路店)","lon":"121.47718","lat":"31.22167","category":"76","category_name":"上海菜","address":"卢湾区太仓路70号(近嵩山路)"},{"poiid":"B2094757D06FA2FA4292","title":"普华永道中心","lon":"121.47667706","lat":"31.2208910235","category":"46","category_name":"楼宇","address":"上海卢湾区湖滨路202号"},{"poiid":"B2094753D768A7FE489D","title":"甜品工房","lon":"121.477027","lat":"31.22192","category":"247","category_name":"餐饮美食","address":"上海市 济南路9号103商铺(近太仓路)"},{"poiid":"B2094654DB6BA4FB4493","title":"天家 太仓路店","lon":"121.47643526081","lat":"31.221847695273","category":"95","category_name":"日本料理","address":"卢湾区太仓路68号(近嵩山路)"},{"poiid":"B2094757D06FA1F84593","title":"Enoterra红酒吧(太仓路店)","lon":"121.477109909","lat":"31.2219337278","category":"260","category_name":"其他","address":"卢湾区太仓路58号(近济南路)"},{"poiid":"B2094757D06FA1F8489D","title":"淮海公园","lon":"121.47755186","lat":"31.222709558","category":"196","category_name":"公园","address":"卢湾区淮海中路177号(近普安路)"},{"poiid":"B2094655D26EA5FE469C","title":"y+瑜伽馆(新天地店)","lon":"121.47625","lat":"31.22076","category":"148","category_name":"美容美发店","address":"黄浦区湖滨路202号企业天地2号2楼(新天地会所)"},{"poiid":"B2094654DA6EAAFC429C","title":"曙光大厦","lon":"121.47886","lat":"31.22255","category":"46","category_name":"楼宇","address":"静安区西康路946号"},{"poiid":"B2094757D064A3FC4299","title":"POST餐厅","lon":"121.47842","lat":"31.21808","category":"94","category_name":"西餐厅","address":"卢湾区顺昌路168弄翠湖天地10号会所2楼(自忠路)"},{"poiid":"B2094757D66BA3F94698","title":"伊莎贝尔 Trattoria Isabelle","lon":"121.479601054","lat":"31.221654793","category":"98","category_name":"意式菜品餐厅","address":"卢湾区吉安路11号(湖滨路崇德路间)"},{"poiid":"B2094654DA6EAAFC469E","title":"上海时光整形外科医院","lon":"121.47886","lat":"31.22255","category":"162","category_name":"医院","address":"卢湾区普安路189号曙光大厦2楼(近淮海公园)"},{"poiid":"B2094757D06FA4F44093","title":"富民面馆","lon":"121.47687790213","lat":"31.221657822044","category":"68","category_name":"快餐厅","address":"卢湾区太仓路78号(顺昌路口)"},{"poiid":"B2094757D568A4FA4692","title":"Green Massage新天地店","lon":"121.4773631","lat":"31.22202611","category":"149","category_name":"洗浴推拿场所","address":"太仓路58号"},{"poiid":"B2094757D06BA7F54899","title":"瑞尔齿科(新天地店)","lon":"121.47636","lat":"31.2209","category":"162","category_name":"医院","address":"上海卢湾区湖滨路202号企业天地商业中心2号2楼(近济南路)  "},{"poiid":"B2094654DA6EABFB499B","title":"上海市比乐中学","lon":"121.47971","lat":"31.22154","category":"55","category_name":"中学","address":"卢湾区崇德路43号(近顺昌路)"},{"poiid":"B2094654DA6EABF5449A","title":"太平桥公园","lon":"121.47679","lat":"31.2197","category":"196","category_name":"公园","address":"淮海中路"},{"poiid":"B2094753D76CA2F44598","title":"上海朗庭酒店","lon":"121.479156","lat":"31.22248","category":"500","category_name":"未知分类","address":"上海市 卢湾区马当路"},{"poiid":"B2094751D36BA5FF469F","title":"上海南站","lon":"121.48","lat":"31.22","category":"195","category_name":"游乐场","address":"上海徐家汇"},{"poiid":"B2094757D66DA0FC409C","title":"舒适堡","lon":"121.476330738","lat":"31.2202470874","category":"500","category_name":"未知分类","address":"卢湾区淮海中路1号(近西藏南路)"},{"poiid":"B2094654DA6EABF54498","title":"翠湖天地","lon":"121.47864","lat":"31.21832","category":"47","category_name":"住宅区","address":"长宁区镇宁路111号"},{"poiid":"B2094654DB65A7F5499E","title":"Y+瑜伽生活馆(新天地店)","lon":"121.4761","lat":"31.22175","category":"220","category_name":"运动场所","address":"卢湾区湖滨路202号企业天地2号楼2楼单元17-20室(近济南路)"},{"poiid":"B2094757D16FA1FB469F","title":"太平湖绿地","lon":"121.47711773","lat":"31.219893079","category":"500","category_name":"未知分类","address":"上海ShanghaiLuwanHubin Rd"},{"poiid":"B2094752D66FA1FC449C","title":"洋房火锅","lon":"121.475798","lat":"31.220111","category":"247","category_name":"餐饮美食","address":"新天地黄陂南路378号"},{"poiid":"B2094753DA6AA3F44599","title":"甜品工房","lon":"121.477249","lat":"31.221738","category":"247","category_name":"餐饮美食","address":"上海市 新天地济南路近太仓路"},{"poiid":"B2094753DA68A3FC469F","title":"甜品工坊","lon":"121.477355","lat":"31.221826","category":"500","category_name":"未知分类","address":"上海市 太仓路"},{"poiid":"B2094757DB69A7FA4993","title":"李向阳葱油饼","lon":"121.47865","lat":"31.22204","category":"68","category_name":"快餐厅","address":"卢湾区普安路185号(近上海中医大学附属曙光医院)"},{"poiid":"B2094654DB6AA7FB4199","title":"新元素(Y+瑜伽中心店)","lon":"121.47664","lat":"31.22081","category":"247","category_name":"餐饮美食","address":"卢湾区湖滨路202号企业天地商业中心2号楼2楼17号店铺(近黄陂南路)"},{"poiid":"B2094655D26BA3FE4392","title":"立欧桌球概念馆","lon":"121.47886","lat":"31.22255","category":"171","category_name":"台球厅","address":"卢湾区普安路189号曙光大厦10楼(近淮海公园)"},{"poiid":"B2094757D065A0F5429C","title":"榄香","lon":"121.47851996","lat":"31.218682691","category":"247","category_name":"餐饮美食","address":"上海中环广场二楼"},{"poiid":"B2094757DB6EA6FE479A","title":"上海Casa Serena巴越风酒店","lon":"121.4771524","lat":"31.2219883","category":"213","category_name":"五星级宾馆","address":"上海市卢湾区太仓路68号(近顺昌路)"},{"poiid":"B2094757D06BA6FD4992","title":"上海中医药大学附属曙光医院名中医诊疗中心","lon":"121.478672","lat":"31.222935","category":"162","category_name":"医院","address":"上海市卢湾区普安路185号(近淮海公园)"},{"poiid":"B2094750DA69A0FA449F","title":"新天地喜娜餐厅","lon":"121.475769","lat":"31.220209","category":"247","category_name":"餐饮美食","address":"黄陂南路373号"},{"poiid":"B2094654DA6EAAFE4192","title":"崇尚麻辣烫","lon":"121.47941","lat":"31.22203","category":"68","category_name":"快餐厅","address":"卢湾区崇德路46号(近柳林路)"},{"poiid":"B2094654DA6EAAFB479B","title":"顺太饮食店","lon":"121.47675","lat":"31.2219","category":"76","category_name":"上海菜","address":"卢湾区顺昌路(近太仓路)"},{"poiid":"B2094757D465A7FF499B","title":"新新美食林","lon":"121.48006393688","lat":"31.219839547289","category":"68","category_name":"快餐厅","address":"卢湾区自忠路75号(近吉安路)"},{"poiid":"B2094757D06BA3FE459C","title":"时光整形医院","lon":"121.47886","lat":"31.22229","category":"162","category_name":"医院","address":"上海卢湾区普安路189号曙光大厦6楼(近淮海公园)  "},{"poiid":"B2094757D16EA5FB4192","title":"821p1桌球俱乐部旗舰馆","lon":"121.47633728","lat":"31.221589116","category":"500","category_name":"未知分类","address":"上海淮海路一号柳林路口柳林大厦"},{"poiid":"B2094654DB69A0FA4998","title":"鹿港小镇(新天地店)","lon":"121.47697","lat":"31.22197","category":"91","category_name":"台湾菜","address":"卢湾区太仓路68号(近嵩山路)"},{"poiid":"B2094654DB6BA4FA4899","title":"好乐迪量贩KTV","lon":"121.47646","lat":"31.22161","category":"170","category_name":"KTV","address":"顺昌路2"},{"poiid":"B2094655D26AA0F84799","title":"上海中医药大学附属曙光医院","lon":"121.47867","lat":"31.22293","category":"162","category_name":"医院","address":"卢湾区普安路185号(近淮海公园)"},{"poiid":"B2094753D76FAAFA449C","title":"上海滩国泰旗舰店","lon":"121.466011","lat":"31.216125","category":"249","category_name":"购物服务","address":"淮海中路868号"},{"poiid":"B209475CD564A7F84292","title":"上海滩新天地店","lon":"121.47463","lat":"31.22164","category":"119","category_name":"商场","address":"\"太仓路181弄新天地北里15号\r\n\""},{"poiid":"B209475CD564A7F8439E","title":"上海滩中信泰富店","lon":"121.45602","lat":"31.22851","category":"119","category_name":"商场","address":"\"南京西路1168号中信泰富广场，店铺号221.\r\n\""},{"poiid":"B209475CD564A7F84392","title":"上海滩浦东香格里拉店","lon":"121.50058","lat":"31.23634","category":"119","category_name":"商场","address":"浦东富成路33号香格里拉酒店内大堂层"},{"poiid":"B2094750D26EABF8459A","title":"上海虹桥机场","lon":"121.48","lat":"31.22","category":"21","category_name":"飞机场","address":"上海长宁区虹桥路2550号"},{"poiid":"B2094757D06FA3F84399","title":"枣子树(淮海店)","lon":"121.47648","lat":"31.22225","category":"89","category_name":"中式素餐馆","address":"卢湾区嵩山路77号上海皇宫内(近淮海中路)"},{"poiid":"B2094654DA6EABF5459F","title":"企业天地","lon":"121.47592","lat":"31.22109","category":"46","category_name":"楼宇","address":"上海市平凉路1398号"},{"poiid":"B2094757D16AA5F94593","title":"好乐迪","lon":"121.47968292","lat":"31.220613479","category":"500","category_name":"未知分类","address":"上海卢湾区顺昌路2号"},{"poiid":"B2094757D06FA5FF499D","title":"新天地太平桥人工湖","lon":"121.479294","lat":"31.222233","category":"196","category_name":"公园","address":"上海济南路"},{"poiid":"B2094757D06FA2FE429B","title":"企业天地1号楼","lon":"121.476076722","lat":"31.2208862618","category":"46","category_name":"楼宇","address":"上海市卢湾区湖滨路222号"},{"poiid":"B2094757D06FA2F44599","title":"蝶园(太仓路店)","lon":"121.47718","lat":"31.22167","category":"76","category_name":"上海菜","address":"卢湾区太仓路70号(近嵩山路)"},{"poiid":"B2094757D06FA2FA4292","title":"普华永道中心","lon":"121.47667706","lat":"31.2208910235","category":"46","category_name":"楼宇","address":"上海卢湾区湖滨路202号"},{"poiid":"B2094753D768A7FE489D","title":"甜品工房","lon":"121.477027","lat":"31.22192","category":"247","category_name":"餐饮美食","address":"上海市 济南路9号103商铺(近太仓路)"},{"poiid":"B2094654DB6BA4FB4493","title":"天家 太仓路店","lon":"121.47643526081","lat":"31.221847695273","category":"95","category_name":"日本料理","address":"卢湾区太仓路68号(近嵩山路)"},{"poiid":"B2094757D06FA1F84593","title":"Enoterra红酒吧(太仓路店)","lon":"121.477109909","lat":"31.2219337278","category":"260","category_name":"其他","address":"卢湾区太仓路58号(近济南路)"},{"poiid":"B2094757D06FA1F8489D","title":"淮海公园","lon":"121.47755186","lat":"31.222709558","category":"196","category_name":"公园","address":"卢湾区淮海中路177号(近普安路)"},{"poiid":"B2094655D26EA5FE469C","title":"y+瑜伽馆(新天地店)","lon":"121.47625","lat":"31.22076","category":"148","category_name":"美容美发店","address":"黄浦区湖滨路202号企业天地2号2楼(新天地会所)"},{"poiid":"B2094654DA6EAAFC429C","title":"曙光大厦","lon":"121.47886","lat":"31.22255","category":"46","category_name":"楼宇","address":"静安区西康路946号"},{"poiid":"B2094757D064A3FC4299","title":"POST餐厅","lon":"121.47842","lat":"31.21808","category":"94","category_name":"西餐厅","address":"卢湾区顺昌路168弄翠湖天地10号会所2楼(自忠路)"},{"poiid":"B2094757D66BA3F94698","title":"伊莎贝尔 Trattoria Isabelle","lon":"121.479601054","lat":"31.221654793","category":"98","category_name":"意式菜品餐厅","address":"卢湾区吉安路11号(湖滨路崇德路间)"},{"poiid":"B2094654DA6EAAFC469E","title":"上海时光整形外科医院","lon":"121.47886","lat":"31.22255","category":"162","category_name":"医院","address":"卢湾区普安路189号曙光大厦2楼(近淮海公园)"},{"poiid":"B2094757D06FA4F44093","title":"富民面馆","lon":"121.47687790213","lat":"31.221657822044","category":"68","category_name":"快餐厅","address":"卢湾区太仓路78号(顺昌路口)"},{"poiid":"B2094757D568A4FA4692","title":"Green Massage新天地店","lon":"121.4773631","lat":"31.22202611","category":"149","category_name":"洗浴推拿场所","address":"太仓路58号"},{"poiid":"B2094757D06BA7F54899","title":"瑞尔齿科(新天地店)","lon":"121.47636","lat":"31.2209","category":"162","category_name":"医院","address":"上海卢湾区湖滨路202号企业天地商业中心2号2楼(近济南路)  "},{"poiid":"B2094654DA6EABFB499B","title":"上海市比乐中学","lon":"121.47971","lat":"31.22154","category":"55","category_name":"中学","address":"卢湾区崇德路43号(近顺昌路)"},{"poiid":"B2094654DA6EABF5449A","title":"太平桥公园","lon":"121.47679","lat":"31.2197","category":"196","category_name":"公园","address":"淮海中路"},{"poiid":"B2094753D76CA2F44598","title":"上海朗庭酒店","lon":"121.479156","lat":"31.22248","category":"500","category_name":"未知分类","address":"上海市 卢湾区马当路"},{"poiid":"B2094751D36BA5FF469F","title":"上海南站","lon":"121.48","lat":"31.22","category":"195","category_name":"游乐场","address":"上海徐家汇"},{"poiid":"B2094757D66DA0FC409C","title":"舒适堡","lon":"121.476330738","lat":"31.2202470874","category":"500","category_name":"未知分类","address":"卢湾区淮海中路1号(近西藏南路)"},{"poiid":"B2094654DA6EABF54498","title":"翠湖天地","lon":"121.47864","lat":"31.21832","category":"47","category_name":"住宅区","address":"长宁区镇宁路111号"},{"poiid":"B2094654DB65A7F5499E","title":"Y+瑜伽生活馆(新天地店)","lon":"121.4761","lat":"31.22175","category":"220","category_name":"运动场所","address":"卢湾区湖滨路202号企业天地2号楼2楼单元17-20室(近济南路)"},{"poiid":"B2094757D16FA1FB469F","title":"太平湖绿地","lon":"121.47711773","lat":"31.219893079","category":"500","category_name":"未知分类","address":"上海ShanghaiLuwanHubin Rd"},{"poiid":"B2094752D66FA1FC449C","title":"洋房火锅","lon":"121.475798","lat":"31.220111","category":"247","category_name":"餐饮美食","address":"新天地黄陂南路378号"},{"poiid":"B2094753DA6AA3F44599","title":"甜品工房","lon":"121.477249","lat":"31.221738","category":"247","category_name":"餐饮美食","address":"上海市 新天地济南路近太仓路"},{"poiid":"B2094753DA68A3FC469F","title":"甜品工坊","lon":"121.477355","lat":"31.221826","category":"500","category_name":"未知分类","address":"上海市 太仓路"},{"poiid":"B2094757DB69A7FA4993","title":"李向阳葱油饼","lon":"121.47865","lat":"31.22204","category":"68","category_name":"快餐厅","address":"卢湾区普安路185号(近上海中医大学附属曙光医院)"},{"poiid":"B2094654DB6AA7FB4199","title":"新元素(Y+瑜伽中心店)","lon":"121.47664","lat":"31.22081","category":"247","category_name":"餐饮美食","address":"卢湾区湖滨路202号企业天地商业中心2号楼2楼17号店铺(近黄陂南路)"},{"poiid":"B2094655D26BA3FE4392","title":"立欧桌球概念馆","lon":"121.47886","lat":"31.22255","category":"171","category_name":"台球厅","address":"卢湾区普安路189号曙光大厦10楼(近淮海公园)"},{"poiid":"B2094757D065A0F5429C","title":"榄香","lon":"121.47851996","lat":"31.218682691","category":"247","category_name":"餐饮美食","address":"上海中环广场二楼"},{"poiid":"B2094757DB6EA6FE479A","title":"上海Casa Serena巴越风酒店","lon":"121.4771524","lat":"31.2219883","category":"213","category_name":"五星级宾馆","address":"上海市卢湾区太仓路68号(近顺昌路)"},{"poiid":"B2094757D06BA6FD4992","title":"上海中医药大学附属曙光医院名中医诊疗中心","lon":"121.478672","lat":"31.222935","category":"162","category_name":"医院","address":"上海市卢湾区普安路185号(近淮海公园)"},{"poiid":"B2094750DA69A0FA449F","title":"新天地喜娜餐厅","lon":"121.475769","lat":"31.220209","category":"247","category_name":"餐饮美食","address":"黄陂南路373号"},{"poiid":"B2094654DA6EAAFE4192","title":"崇尚麻辣烫","lon":"121.47941","lat":"31.22203","category":"68","category_name":"快餐厅","address":"卢湾区崇德路46号(近柳林路)"},{"poiid":"B2094654DA6EAAFB479B","title":"顺太饮食店","lon":"121.47675","lat":"31.2219","category":"76","category_name":"上海菜","address":"卢湾区顺昌路(近太仓路)"},{"poiid":"B2094757D465A7FF499B","title":"新新美食林","lon":"121.48006393688","lat":"31.219839547289","category":"68","category_name":"快餐厅","address":"卢湾区自忠路75号(近吉安路)"},{"poiid":"B2094757D06BA3FE459C","title":"时光整形医院","lon":"121.47886","lat":"31.22229","category":"162","category_name":"医院","address":"上海卢湾区普安路189号曙光大厦6楼(近淮海公园)  "},{"poiid":"B2094757D16EA5FB4192","title":"821p1桌球俱乐部旗舰馆","lon":"121.47633728","lat":"31.221589116","category":"500","category_name":"未知分类","address":"上海淮海路一号柳林路口柳林大厦"},{"poiid":"B2094654DB69A0FA4998","title":"鹿港小镇(新天地店)","lon":"121.47697","lat":"31.22197","category":"91","category_name":"台湾菜","address":"卢湾区太仓路68号(近嵩山路)"},{"poiid":"B2094654DB6BA4FA4899","title":"好乐迪量贩KTV","lon":"121.47646","lat":"31.22161","category":"170","category_name":"KTV","address":"顺昌路2"},{"poiid":"B2094655D26AA0F84799","title":"上海中医药大学附属曙光医院","lon":"121.47867","lat":"31.22293","category":"162","category_name":"医院","address":"卢湾区普安路185号(近淮海公园)"},{"poiid":"B2094753D76FAAFA449C","title":"上海滩国泰旗舰店","lon":"121.466011","lat":"31.216125","category":"249","category_name":"购物服务","address":"淮海中路868号"},{"poiid":"B209475CD564A7F84292","title":"上海滩新天地店","lon":"121.47463","lat":"31.22164","category":"119","category_name":"商场","address":"\"太仓路181弄新天地北里15号\r\n\""},{"poiid":"B209475CD564A7F8439E","title":"上海滩中信泰富店","lon":"121.45602","lat":"31.22851","category":"119","category_name":"商场","address":"\"南京西路1168号中信泰富广场，店铺号221.\r\n\""},{"poiid":"B209475CD564A7F84392","title":"上海滩浦东香格里拉店","lon":"121.50058","lat":"31.23634","category":"119","category_name":"商场","address":"浦东富成路33号香格里拉酒店内大堂层"},{"poiid":"B2094750D26EABF8459A","title":"上海虹桥机场","lon":"121.48","lat":"31.22","category":"21","category_name":"飞机场","address":"上海长宁区虹桥路2550号"},{"poiid":"B2094757D06FA3F84399","title":"枣子树(淮海店)","lon":"121.47648","lat":"31.22225","category":"89","category_name":"中式素餐馆","address":"卢湾区嵩山路77号上海皇宫内(近淮海中路)"},{"poiid":"B2094654DA6EABF5459F","title":"企业天地","lon":"121.47592","lat":"31.22109","category":"46","category_name":"楼宇","address":"上海市平凉路1398号"},{"poiid":"B2094757D16AA5F94593","title":"好乐迪","lon":"121.47968292","lat":"31.220613479","category":"500","category_name":"未知分类","address":"上海卢湾区顺昌路2号"},{"poiid":"B2094757D06FA5FF499D","title":"新天地太平桥人工湖","lon":"121.479294","lat":"31.222233","category":"196","category_name":"公园","address":"上海济南路"},{"poiid":"B2094757D06FA2FE429B","title":"企业天地1号楼","lon":"121.476076722","lat":"31.2208862618","category":"46","category_name":"楼宇","address":"上海市卢湾区湖滨路222号"},{"poiid":"B2094757D06FA2F44599","title":"蝶园(太仓路店)","lon":"121.47718","lat":"31.22167","category":"76","category_name":"上海菜","address":"卢湾区太仓路70号(近嵩山路)"},{"poiid":"B2094757D06FA2FA4292","title":"普华永道中心","lon":"121.47667706","lat":"31.2208910235","category":"46","category_name":"楼宇","address":"上海卢湾区湖滨路202号"},{"poiid":"B2094753D768A7FE489D","title":"甜品工房","lon":"121.477027","lat":"31.22192","category":"247","category_name":"餐饮美食","address":"上海市 济南路9号103商铺(近太仓路)"},{"poiid":"B2094654DB6BA4FB4493","title":"天家 太仓路店","lon":"121.47643526081","lat":"31.221847695273","category":"95","category_name":"日本料理","address":"卢湾区太仓路68号(近嵩山路)"},{"poiid":"B2094757D06FA1F84593","title":"Enoterra红酒吧(太仓路店)","lon":"121.477109909","lat":"31.2219337278","category":"260","category_name":"其他","address":"卢湾区太仓路58号(近济南路)"},{"poiid":"B2094757D06FA1F8489D","title":"淮海公园","lon":"121.47755186","lat":"31.222709558","category":"196","category_name":"公园","address":"卢湾区淮海中路177号(近普安路)"},{"poiid":"B2094655D26EA5FE469C","title":"y+瑜伽馆(新天地店)","lon":"121.47625","lat":"31.22076","category":"148","category_name":"美容美发店","address":"黄浦区湖滨路202号企业天地2号2楼(新天地会所)"},{"poiid":"B2094654DA6EAAFC429C","title":"曙光大厦","lon":"121.47886","lat":"31.22255","category":"46","category_name":"楼宇","address":"静安区西康路946号"},{"poiid":"B2094757D064A3FC4299","title":"POST餐厅","lon":"121.47842","lat":"31.21808","category":"94","category_name":"西餐厅","address":"卢湾区顺昌路168弄翠湖天地10号会所2楼(自忠路)"},{"poiid":"B2094757D66BA3F94698","title":"伊莎贝尔 Trattoria Isabelle","lon":"121.479601054","lat":"31.221654793","category":"98","category_name":"意式菜品餐厅","address":"卢湾区吉安路11号(湖滨路崇德路间)"},{"poiid":"B2094654DA6EAAFC469E","title":"上海时光整形外科医院","lon":"121.47886","lat":"31.22255","category":"162","category_name":"医院","address":"卢湾区普安路189号曙光大厦2楼(近淮海公园)"},{"poiid":"B2094757D06FA4F44093","title":"富民面馆","lon":"121.47687790213","lat":"31.221657822044","category":"68","category_name":"快餐厅","address":"卢湾区太仓路78号(顺昌路口)"},{"poiid":"B2094757D568A4FA4692","title":"Green Massage新天地店","lon":"121.4773631","lat":"31.22202611","category":"149","category_name":"洗浴推拿场所","address":"太仓路58号"},{"poiid":"B2094757D06BA7F54899","title":"瑞尔齿科(新天地店)","lon":"121.47636","lat":"31.2209","category":"162","category_name":"医院","address":"上海卢湾区湖滨路202号企业天地商业中心2号2楼(近济南路)  "},{"poiid":"B2094654DA6EABFB499B","title":"上海市比乐中学","lon":"121.47971","lat":"31.22154","category":"55","category_name":"中学","address":"卢湾区崇德路43号(近顺昌路)"},{"poiid":"B2094654DA6EABF5449A","title":"太平桥公园","lon":"121.47679","lat":"31.2197","category":"196","category_name":"公园","address":"淮海中路"},{"poiid":"B2094753D76CA2F44598","title":"上海朗庭酒店","lon":"121.479156","lat":"31.22248","category":"500","category_name":"未知分类","address":"上海市 卢湾区马当路"},{"poiid":"B2094751D36BA5FF469F","title":"上海南站","lon":"121.48","lat":"31.22","category":"195","category_name":"游乐场","address":"上海徐家汇"},{"poiid":"B2094757D66DA0FC409C","title":"舒适堡","lon":"121.476330738","lat":"31.2202470874","category":"500","category_name":"未知分类","address":"卢湾区淮海中路1号(近西藏南路)"},{"poiid":"B2094654DA6EABF54498","title":"翠湖天地","lon":"121.47864","lat":"31.21832","category":"47","category_name":"住宅区","address":"长宁区镇宁路111号"},{"poiid":"B2094654DB65A7F5499E","title":"Y+瑜伽生活馆(新天地店)","lon":"121.4761","lat":"31.22175","category":"220","category_name":"运动场所","address":"卢湾区湖滨路202号企业天地2号楼2楼单元17-20室(近济南路)"},{"poiid":"B2094757D16FA1FB469F","title":"太平湖绿地","lon":"121.47711773","lat":"31.219893079","category":"500","category_name":"未知分类","address":"上海ShanghaiLuwanHubin Rd"},{"poiid":"B2094752D66FA1FC449C","title":"洋房火锅","lon":"121.475798","lat":"31.220111","category":"247","category_name":"餐饮美食","address":"新天地黄陂南路378号"},{"poiid":"B2094753DA6AA3F44599","title":"甜品工房","lon":"121.477249","lat":"31.221738","category":"247","category_name":"餐饮美食","address":"上海市 新天地济南路近太仓路"},{"poiid":"B2094753DA68A3FC469F","title":"甜品工坊","lon":"121.477355","lat":"31.221826","category":"500","category_name":"未知分类","address":"上海市 太仓路"},{"poiid":"B2094757DB69A7FA4993","title":"李向阳葱油饼","lon":"121.47865","lat":"31.22204","category":"68","category_name":"快餐厅","address":"卢湾区普安路185号(近上海中医大学附属曙光医院)"},{"poiid":"B2094654DB6AA7FB4199","title":"新元素(Y+瑜伽中心店)","lon":"121.47664","lat":"31.22081","category":"247","category_name":"餐饮美食","address":"卢湾区湖滨路202号企业天地商业中心2号楼2楼17号店铺(近黄陂南路)"},{"poiid":"B2094655D26BA3FE4392","title":"立欧桌球概念馆","lon":"121.47886","lat":"31.22255","category":"171","category_name":"台球厅","address":"卢湾区普安路189号曙光大厦10楼(近淮海公园)"},{"poiid":"B2094757D065A0F5429C","title":"榄香","lon":"121.47851996","lat":"31.218682691","category":"247","category_name":"餐饮美食","address":"上海中环广场二楼"},{"poiid":"B2094757DB6EA6FE479A","title":"上海Casa Serena巴越风酒店","lon":"121.4771524","lat":"31.2219883","category":"213","category_name":"五星级宾馆","address":"上海市卢湾区太仓路68号(近顺昌路)"},{"poiid":"B2094757D06BA6FD4992","title":"上海中医药大学附属曙光医院名中医诊疗中心","lon":"121.478672","lat":"31.222935","category":"162","category_name":"医院","address":"上海市卢湾区普安路185号(近淮海公园)"},{"poiid":"B2094750DA69A0FA449F","title":"新天地喜娜餐厅","lon":"121.475769","lat":"31.220209","category":"247","category_name":"餐饮美食","address":"黄陂南路373号"},{"poiid":"B2094654DA6EAAFE4192","title":"崇尚麻辣烫","lon":"121.47941","lat":"31.22203","category":"68","category_name":"快餐厅","address":"卢湾区崇德路46号(近柳林路)"},{"poiid":"B2094654DA6EAAFB479B","title":"顺太饮食店","lon":"121.47675","lat":"31.2219","category":"76","category_name":"上海菜","address":"卢湾区顺昌路(近太仓路)"},{"poiid":"B2094757D465A7FF499B","title":"新新美食林","lon":"121.48006393688","lat":"31.219839547289","category":"68","category_name":"快餐厅","address":"卢湾区自忠路75号(近吉安路)"},{"poiid":"B2094757D06BA3FE459C","title":"时光整形医院","lon":"121.47886","lat":"31.22229","category":"162","category_name":"医院","address":"上海卢湾区普安路189号曙光大厦6楼(近淮海公园)  "},{"poiid":"B2094757D16EA5FB4192","title":"821p1桌球俱乐部旗舰馆","lon":"121.47633728","lat":"31.221589116","category":"500","category_name":"未知分类","address":"上海淮海路一号柳林路口柳林大厦"}]