[{"poiid":"B2094757D169A3F5489D","title":"浦东国际机场T1航站楼","lon":"121.637789975","lat":"31.1776968325","category":"21","category_name":"飞机场","address":"上海市浦东新区"},{"poiid":"B2094757DB6FA6F54198","title":"浦东国际机场T2航站楼","lon":"121.6343438046359","lat":"31.1825049223668","category":"500","category_name":"未知分类","address":"浦东国际机场T2航站楼"},{"poiid":"B2094654DA6AA4FE4793","title":"玉兰香苑","lon":"121.63323","lat":"31.200127","category":"47","category_name":"住宅区","address":"上海市浦东新区益江路126弄、益江路286弄"},{"poiid":"B2094655D36DA7FD4493","title":"张江路华夏中路","lon":"121.62987","lat":"31.18766","category":"38","category_name":"公交车站","address":""},{"poiid":"B2094757D069A2FC469B","title":"川杨新苑三期","lon":"121.636383","lat":"31.188532","category":"47","category_name":"住宅区","address":"上海中科路2500弄"},{"poiid":"B2094750D26FA7FB4593","title":"浦东机场T2航站楼","lon":"121.637809","lat":"31.177707","category":"500","category_name":"未知分类","address":null},{"poiid":"B2094757D065A5F8409E","title":"华夏公园","lon":"121.65080441079522","lat":"31.192232339010502","category":"196","category_name":"公园","address":"上海华夏东路185号"},{"poiid":"B2094750DA6DA0FB429E","title":"张江家乐福","lon":"121.638771","lat":"31.203567","category":"249","category_name":"购物服务","address":"浦东新区张江高科中路2860号(近张东路)"},{"poiid":"B2094757D16DA6FC459E","title":"S1高速公路","lon":"121.646461375","lat":"31.1899818195","category":"500","category_name":"未知分类","address":"上海S1高速公路"},{"poiid":"B2094757D46BA5FE4492","title":"妈妈糖休闲咖啡馆 张东路店","lon":"121.6361072","lat":"31.2006146","category":"65","category_name":"咖啡厅","address":"浦东新区张东路1387号集电子社区中心2楼"},{"poiid":"B2094757D16BABF8499A","title":"张衡公园","lon":"121.63056797","lat":"31.195238242","category":"196","category_name":"公园","address":"浦东新区张衡路2380号(近益江路)"},{"poiid":"B2094757D064A5FE489F","title":"浦东新区看守所","lon":"121.639726975","lat":"31.1923481748","category":"500","category_name":"未知分类","address":"上海华益路351号"},{"poiid":"B2094654DB69A6F94799","title":"长城中环别墅","lon":"121.63105","lat":"31.18334","category":"47","category_name":"住宅区","address":"浦东新区高木桥路219弄"},{"poiid":"B2094655D36DA0F54292","title":"玉兰香苑二期A块","lon":"121.63422596141","lat":"31.202460117491","category":"38","category_name":"公交车站","address":"益江路511弄"},{"poiid":"B2094655D26BA2FA4892","title":"孙桥镇","lon":"121.63003","lat":"31.17707","category":"38","category_name":"公交车站","address":"上海孙环路长美路"},{"poiid":"B2094655D36DA7F8409B","title":"中科路孙环路","lon":"121.636","lat":"31.18978","category":"38","category_name":"公交车站","address":""},{"poiid":"B2094757D06FAAFB449D","title":"玉兰香苑一期","lon":"121.633535","lat":"31.200113","category":"47","category_name":"住宅区","address":"上海浦东新区益江路126弄"},{"poiid":"B2094655D26BA2FB4099","title":"孙环路华夏中路","lon":"121.63666","lat":"31.18693","category":"38","category_name":"公交车站","address":""},{"poiid":"B2094757D069A5F9449B","title":"孙桥花鸟市场","lon":"121.63124","lat":"31.17471","category":"249","category_name":"购物服务","address":"上海浦东新区孙桥路600号  "},{"poiid":"B2094757D164AAF54999","title":"肯德基","lon":"121.63701427","lat":"31.203571737","category":"68","category_name":"快餐厅","address":"浦东新区高科中路2860号家乐福(近外环线)"},{"poiid":"B2094757D06BA5FD4499","title":"永和大王(张江家乐福店)","lon":"121.63938","lat":"31.20406","category":"68","category_name":"快餐厅","address":"浦东新区高科中路2860号家乐福2楼"},{"poiid":"B2094654DA6AA4FE409B","title":"孙桥花苑","lon":"121.637","lat":"31.1858","category":"47","category_name":"住宅区","address":"上海孙桥路306弄"},{"poiid":"B2094750D269A2F9449C","title":"川杨新苑四期","lon":"121.638427","lat":"31.189931","category":"47","category_name":"住宅区","address":"中科路2660弄"},{"poiid":"B2094655D36CA1FD429B","title":"十村","lon":"121.63719","lat":"31.18762","category":"38","category_name":"公交车站","address":"上海,上海市,中科路2500弄71号"},{"poiid":"B2094654DA6AA4FE4492","title":"张江镇环西小区","lon":"121.64129","lat":"31.17754","category":"47","category_name":"住宅区","address":"孙环路601弄1-98号临"},{"poiid":"B2094757D064A5F8489C","title":"阿玛达量贩式歌城","lon":"121.63179397","lat":"31.199798349","category":"170","category_name":"KTV","address":"浦东新区盛夏路1053号(近休闲广场)"},{"poiid":"B2094655D36DA0F54293","title":"玉兰香苑二期C块","lon":"121.63363854614","lat":"31.203943272246","category":"38","category_name":"公交车站","address":"益江路396弄"},{"poiid":"B2094654DA6BA2FB419B","title":"浦东新区粮食购销有限公司","lon":"121.64249","lat":"31.18867","category":"263","category_name":"公司","address":"华夏中路2825"},{"poiid":"B2094757D168ABF5489C","title":"黄浦区看守所","lon":"121.63765652","lat":"31.189374505","category":"500","category_name":"未知分类","address":"上海浦东新区华益路333号"},{"poiid":"B2094753D264A4FB419C","title":"川杨新苑六期","lon":"121.641098","lat":"31.192443","category":"47","category_name":"住宅区","address":"上海市 中科路2635弄"},{"poiid":"B2094757D06BA1F9419D","title":"川杨新苑","lon":"121.634","lat":"31.1944","category":"47","category_name":"住宅区","address":"上海市浦东新区中科路2195弄,2166弄,2566弄,2500弄,顺和路60弄,126弄,236弄"},{"poiid":"B2094655D26BA2FE429D","title":"王恒昌桥","lon":"121.64732","lat":"31.18995","category":"38","category_name":"公交车站","address":""},{"poiid":"B2094757D16DA0FB419A","title":"保利金爵","lon":"121.643053616","lat":"31.1873388339","category":"260","category_name":"其他","address":"上海浦东新区创新西路300弄"},{"poiid":"B2094757D06BA3FD409E","title":"瀚盛家园","lon":"121.65532","lat":"31.200581","category":"47","category_name":"住宅区","address":"上海浦东新区创新西路199弄"},{"poiid":"B2094757D16CA3F8409C","title":"川杨二期","lon":"121.625099975","lat":"31.1855870168","category":"500","category_name":"未知分类","address":"上海顺和路126号"},{"poiid":"B2094750D16BA4FD479E","title":"川杨新苑一期","lon":"121.628181","lat":"31.188941","category":"47","category_name":"住宅区","address":"张江路中科路2166弄"},{"poiid":"B2094750D76DAAFC469F","title":"蜀膳传火锅传奇(孙桥路店)","lon":"121.631","lat":"31.1849","category":"86","category_name":"火锅店","address":"浦东新区孙桥路100号"},{"poiid":"B2094654DA6AA4FC4392","title":"浦东新区孙桥交通运输管理站","lon":"121.63622","lat":"31.1876","category":"250","category_name":"公园户外","address":"川北公路十村车站南浜"},{"poiid":"B2094757D069A3FC499C","title":"玉兰香苑2期","lon":"121.628673","lat":"31.199725","category":"47","category_name":"住宅区","address":"上海浦东张江益江路511弄"},{"poiid":"B2094757D66AABFF439F","title":"大家品鱼酒楼","lon":"121.63061","lat":"31.1844","category":"71","category_name":"四川菜","address":"浦东新区孙桥路128号(近华夏西路)"},{"poiid":"B2094655D26BA2FB4098","title":"孙环路三灶路","lon":"121.63973","lat":"31.18001","category":"38","category_name":"公交车站","address":""},{"poiid":"B2094757D164A3FC419D","title":"腾跃球馆","lon":"121.64666597","lat":"31.183144959","category":"220","category_name":"运动场所","address":null},{"poiid":"B2094757D16AABF84199","title":"浦东张江腾越篮球馆","lon":"121.64855867","lat":"31.181599657","category":"220","category_name":"运动场所","address":"上海张江三灶路(三灶浜路)851号院内(靠近孙弘路)"},{"poiid":"B2094654DA6AA6FF4293","title":"玫瑰湾","lon":"121.62824","lat":"31.181089","category":"47","category_name":"住宅区","address":"上海市浦东新区孙桥路202号"},{"poiid":"B2094655D36CA0F5499A","title":"华夏中路孙新路","lon":"121.64965","lat":"31.19079","category":"38","category_name":"公交车站","address":""},{"poiid":"B2094757D169A4F8489E","title":"上岛咖啡 孙桥店 UBC Coffee","lon":"121.630768","lat":"31.182903","category":"260","category_name":"其他","address":"浦东新区孙桥路38号(近高木桥路)"},{"poiid":"B2094757DA6FA3FF4092","title":"环东农庄","lon":"121.654787063599","lat":"31.1825806532364","category":"76","category_name":"上海菜","address":"浦东新区孙建路(近三灶路)"},{"poiid":"B2094655D36DA7FD429B","title":"张东路高科中路","lon":"121.63504","lat":"31.20261","category":"38","category_name":"公交车站","address":""},{"poiid":"B2094757D06BA7F4409C","title":"益江路盛夏路","lon":"121.631069975","lat":"31.1993963396","category":"500","category_name":"未知分类","address":"上海益江路盛夏路615终点站"},{"poiid":"B2094757D16DA0F4419E","title":"陆家大桥","lon":"121.63405609","lat":"31.186544418","category":"500","category_name":"未知分类","address":"上海张江路(华益路)"},{"poiid":"B2094757D169A3F5489D","title":"浦东国际机场T1航站楼","lon":"121.637789975","lat":"31.1776968325","category":"21","category_name":"飞机场","address":"上海市浦东新区"},{"poiid":"B2094757DB6FA6F54198","title":"浦东国际机场T2航站楼","lon":"121.6343438046359","lat":"31.1825049223668","category":"500","category_name":"未知分类","address":"浦东国际机场T2航站楼"},{"poiid":"B2094654DA6AA4FE4793","title":"玉兰香苑","lon":"121.63323","lat":"31.200127","category":"47","category_name":"住宅区","address":"上海市浦东新区益江路126弄、益江路286弄"},{"poiid":"B2094655D36DA7FD4493","title":"张江路华夏中路","lon":"121.62987","lat":"31.18766","category":"38","category_name":"公交车站","address":""},{"poiid":"B2094757D069A2FC469B","title":"川杨新苑三期","lon":"121.636383","lat":"31.188532","category":"47","category_name":"住宅区","address":"上海中科路2500弄"},{"poiid":"B2094750D26FA7FB4593","title":"浦东机场T2航站楼","lon":"121.637809","lat":"31.177707","category":"500","category_name":"未知分类","address":null},{"poiid":"B2094757D065A5F8409E","title":"华夏公园","lon":"121.65080441079522","lat":"31.192232339010502","category":"196","category_name":"公园","address":"上海华夏东路185号"},{"poiid":"B2094750DA6DA0FB429E","title":"张江家乐福","lon":"121.638771","lat":"31.203567","category":"249","category_name":"购物服务","address":"浦东新区张江高科中路2860号(近张东路)"},{"poiid":"B2094757D16DA6FC459E","title":"S1高速公路","lon":"121.646461375","lat":"31.1899818195","category":"500","category_name":"未知分类","address":"上海S1高速公路"},{"poiid":"B2094757D46BA5FE4492","title":"妈妈糖休闲咖啡馆 张东路店","lon":"121.6361072","lat":"31.2006146","category":"65","category_name":"咖啡厅","address":"浦东新区张东路1387号集电子社区中心2楼"},{"poiid":"B2094757D16BABF8499A","title":"张衡公园","lon":"121.63056797","lat":"31.195238242","category":"196","category_name":"公园","address":"浦东新区张衡路2380号(近益江路)"},{"poiid":"B2094757D064A5FE489F","title":"浦东新区看守所","lon":"121.639726975","lat":"31.1923481748","category":"500","category_name":"未知分类","address":"上海华益路351号"},{"poiid":"B2094654DB69A6F94799","title":"长城中环别墅","lon":"121.63105","lat":"31.18334","category":"47","category_name":"住宅区","address":"浦东新区高木桥路219弄"},{"poiid":"B2094655D36DA0F54292","title":"玉兰香苑二期A块","lon":"121.63422596141","lat":"31.202460117491","category":"38","category_name":"公交车站","address":"益江路511弄"},{"poiid":"B2094655D26BA2FA4892","title":"孙桥镇","lon":"121.63003","lat":"31.17707","category":"38","category_name":"公交车站","address":"上海孙环路长美路"},{"poiid":"B2094655D36DA7F8409B","title":"中科路孙环路","lon":"121.636","lat":"31.18978","category":"38","category_name":"公交车站","address":""},{"poiid":"B2094757D06FAAFB449D","title":"玉兰香苑一期","lon":"121.633535","lat":"31.200113","category":"47","category_name":"住宅区","address":"上海浦东新区益江路126弄"},{"poiid":"B2094655D26BA2FB4099","title":"孙环路华夏中路","lon":"121.63666","lat":"31.18693","category":"38","category_name":"公交车站","address":""},{"poiid":"B2094757D069A5F9449B","title":"孙桥花鸟市场","lon":"121.63124","lat":"31.17471","category":"249","category_name":"购物服务","address":"上海浦东新区孙桥路600号  "},{"poiid":"B2094757D164AAF54999","title":"肯德基","lon":"121.63701427","lat":"31.203571737","category":"68","category_name":"快餐厅","address":"浦东新区高科中路2860号家乐福(近外环线)"},{"poiid":"B2094757D06BA5FD4499","title":"永和大王(张江家乐福店)","lon":"121.63938","lat":"31.20406","category":"68","category_name":"快餐厅","address":"浦东新区高科中路2860号家乐福2楼"},{"poiid":"B2094654DA6AA4FE409B","title":"孙桥花苑","lon":"121.637","lat":"31.1858","category":"47","category_name":"住宅区","address":"上海孙桥路306弄"},{"poiid":"B2094750D269A2F9449C","title":"川杨新苑四期","lon":"121.638427","lat":"31.189931","category":"47","category_name":"住宅区","address":"中科路2660弄"},{"poiid":"B2094655D36CA1FD429B","title":"十村","lon":"121.63719","lat":"31.18762","category":"38","category_name":"公交车站","address":"上海,上海市,中科路2500弄71号"},{"poiid":"B2094654DA6AA4FE4492","title":"张江镇环西小区","lon":"121.64129","lat":"31.17754","category":"47","category_name":"住宅区","address":"孙环路601弄1-98号临"},{"poiid":"B2094757D064A5F8489C","title":"阿玛达量贩式歌城","lon":"121.63179397","lat":"31.199798349","category":"170","category_name":"KTV","address":"浦东新区盛夏路1053号(近休闲广场)"},{"poiid":"B2094655D36DA0F54293","title":"玉兰香苑二期C块","lon":"121.63363854614","lat":"31.203943272246","category":"38","category_name":"公交车站","address":"益江路396弄"},{"poiid":"B2094654DA6BA2FB419B","title":"浦东新区粮食购销有限公司","lon":"121.64249","lat":"31.18867","category":"263","category_name":"公司","address":"华夏中路2825"},{"poiid":"B2094757D168ABF5489C","title":"黄浦区看守所","lon":"121.63765652","lat":"31.189374505","category":"500","category_name":"未知分类","address":"上海浦东新区华益路333号"},{"poiid":"B2094753D264A4FB419C","title":"川杨新苑六期","lon":"121.641098","lat":"31.192443","category":"47","category_name":"住宅区","address":"上海市 中科路2635弄"},{"poiid":"B2094757D06BA1F9419D","title":"川杨新苑","lon":"121.634","lat":"31.1944","category":"47","category_name":"住宅区","address":"上海市浦东新区中科路2195弄,2166弄,2566弄,2500弄,顺和路60弄,126弄,236弄"},{"poiid":"B2094655D26BA2FE429D","title":"王恒昌桥","lon":"121.64732","lat":"31.18995","category":"38","category_name":"公交车站","address":""},{"poiid":"B2094757D16DA0FB419A","title":"保利金爵","lon":"121.643053616","lat":"31.1873388339","category":"260","category_name":"其他","address":"上海浦东新区创新西路300弄"},{"poiid":"B2094757D06BA3FD409E","title":"瀚盛家园","lon":"121.65532","lat":"31.200581","category":"47","category_name":"住宅区","address":"上海浦东新区创新西路199弄"},{"poiid":"B2094757D16CA3F8409C","title":"川杨二期","lon":"121.625099975","lat":"31.1855870168","category":"500","category_name":"未知分类","address":"上海顺和路126号"},{"poiid":"B2094750D16BA4FD479E","title":"川杨新苑一期","lon":"121.628181","lat":"31.188941","category":"47","category_name":"住宅区","address":"张江路中科路2166弄"},{"poiid":"B2094750D76DAAFC469F","title":"蜀膳传火锅传奇(孙桥路店)","lon":"121.631","lat":"31.1849","category":"86","category_name":"火锅店","address":"浦东新区孙桥路100号"},{"poiid":"B2094654DA6AA4FC4392","title":"浦东新区孙桥交通运输管理站","lon":"121.63622","lat":"31.1876","category":"250","category_name":"公园户外","address":"川北公路十村车站南浜"},{"poiid":"B2094757D069A3FC499C","title":"玉兰香苑2期","lon":"121.628673","lat":"31.199725","category":"47","category_name":"住宅区","address":"上海浦东张江益江路511弄"},{"poiid":"B2094757D66AABFF439F","title":"大家品鱼酒楼","lon":"121.63061","lat":"31.1844","category":"71","category_name":"四川菜","address":"浦东新区孙桥路128号(近华夏西路)"},{"poiid":"B2094655D26BA2FB4098","title":"孙环路三灶路","lon":"121.63973","lat":"31.18001","category":"38","category_name":"公交车站","address":""},{"poiid":"B2094757D164A3FC419D","title":"腾跃球馆","lon":"121.64666597","lat":"31.183144959","category":"220","category_name":"运动场所","address":null},{"poiid":"B2094757D16AABF84199","title":"浦东张江腾越篮球馆","lon":"121.64855867","lat":"31.181599657","category":"220","category_name":"运动场所","address":"上海张江三灶路(三灶浜路)851号院内(靠近孙弘路)"},{"poiid":"B2094654DA6AA6FF4293","title":"玫瑰湾","lon":"121.62824","lat":"31.181089","category":"47","category_name":"住宅区","address":"上海市浦东新区孙桥路202号"},{"poiid":"B2094655D36CA0F5499A","title":"华夏中路孙新路","lon":"121.64965","lat":"31.19079","category":"38","category_name":"公交车站","address":""},{"poiid":"B2094757D169A4F8489E","title":"上岛咖啡 孙桥店 UBC Coffee","lon":"121.630768","lat":"31.182903","category":"260","category_name":"其他","address":"浦东新区孙桥路38号(近高木桥路)"},{"poiid":"B2094757DA6FA3FF4092","title":"环东农庄","lon":"121.654787063599","lat":"31.1825806532364","category":"76","category_name":"上海菜","address":"浦东新区孙建路(近三灶路)"},{"poiid":"B2094655D36DA7FD429B","title":"张东路高科中路","lon":"121.63504","lat":"31.20261","category":"38","category_name":"公交车站","address":""},{"poiid":"B2094757D06BA7F4409C","title":"益江路盛夏路","lon":"121.631069975","lat":"31.1993963396","category":"500","category_name":"未知分类","address":"上海益江路盛夏路615终点站"},{"poiid":"B2094757D16DA0F4419E","title":"陆家大桥","lon":"121.63405609","lat":"31.186544418","category":"500","category_name":"未知分类","address":"上海张江路(华益路)"},{"poiid":"B2094757D169A3F5489D","title":"浦东国际机场T1航站楼","lon":"121.637789975","lat":"31.1776968325","category":"21","category_name":"飞机场","address":"上海市浦东新区"},{"poiid":"B2094757DB6FA6F54198","title":"浦东国际机场T2航站楼","lon":"121.6343438046359","lat":"31.1825049223668","category":"500","category_name":"未知分类","address":"浦东国际机场T2航站楼"},{"poiid":"B2094654DA6AA4FE4793","title":"玉兰香苑","lon":"121.63323","lat":"31.200127","category":"47","category_name":"住宅区","address":"上海市浦东新区益江路126弄、益江路286弄"},{"poiid":"B2094655D36DA7FD4493","title":"张江路华夏中路","lon":"121.62987","lat":"31.18766","category":"38","category_name":"公交车站","address":""},{"poiid":"B2094757D069A2FC469B","title":"川杨新苑三期","lon":"121.636383","lat":"31.188532","category":"47","category_name":"住宅区","address":"上海中科路2500弄"},{"poiid":"B2094750D26FA7FB4593","title":"浦东机场T2航站楼","lon":"121.637809","lat":"31.177707","category":"500","category_name":"未知分类","address":null},{"poiid":"B2094757D065A5F8409E","title":"华夏公园","lon":"121.65080441079522","lat":"31.192232339010502","category":"196","category_name":"公园","address":"上海华夏东路185号"},{"poiid":"B2094750DA6DA0FB429E","title":"张江家乐福","lon":"121.638771","lat":"31.203567","category":"249","category_name":"购物服务","address":"浦东新区张江高科中路2860号(近张东路)"},{"poiid":"B2094757D16DA6FC459E","title":"S1高速公路","lon":"121.646461375","lat":"31.1899818195","category":"500","category_name":"未知分类","address":"上海S1高速公路"},{"poiid":"B2094757D46BA5FE4492","title":"妈妈糖休闲咖啡馆 张东路店","lon":"121.6361072","lat":"31.2006146","category":"65","category_name":"咖啡厅","address":"浦东新区张东路1387号集电子社区中心2楼"},{"poiid":"B2094757D16BABF8499A","title":"张衡公园","lon":"121.63056797","lat":"31.195238242","category":"196","category_name":"公园","address":"浦东新区张衡路2380号(近益江路)"},{"poiid":"B2094757D064A5FE489F","title":"浦东新区看守所","lon":"121.639726975","lat":"31.1923481748","category":"500","category_name":"未知分类","address":"上海华益路351号"},{"poiid":"B2094654DB69A6F94799","title":"长城中环别墅","lon":"121.63105","lat":"31.18334","category":"47","category_name":"住宅区","address":"浦东新区高木桥路219弄"},{"poiid":"B2094655D36DA0F54292","title":"玉兰香苑二期A块","lon":"121.63422596141","lat":"31.202460117491","category":"38","category_name":"公交车站","address":"益江路511弄"},{"poiid":"B2094655D26BA2FA4892","title":"孙桥镇","lon":"121.63003","lat":"31.17707","category":"38","category_name":"公交车站","address":"上海孙环路长美路"},{"poiid":"B2094655D36DA7F8409B","title":"中科路孙环路","lon":"121.636","lat":"31.18978","category":"38","category_name":"公交车站","address":""},{"poiid":"B2094757D06FAAFB449D","title":"玉兰香苑一期","lon":"121.633535","lat":"31.200113","category":"47","category_name":"住宅区","address":"上海浦东新区益江路126弄"},{"poiid":"B2094655D26BA2FB4099","title":"孙环路华夏中路","lon":"121.63666","lat":"31.18693","category":"38","category_name":"公交车站","address":""},{"poiid":"B2094757D069A5F9449B","title":"孙桥花鸟市场","lon":"121.63124","lat":"31.17471","category":"249","category_name":"购物服务","address":"上海浦东新区孙桥路600号  "},{"poiid":"B2094757D164AAF54999","title":"肯德基","lon":"121.63701427","lat":"31.203571737","category":"68","category_name":"快餐厅","address":"浦东新区高科中路2860号家乐福(近外环线)"},{"poiid":"B2094757D06BA5FD4499","title":"永和大王(张江家乐福店)","lon":"121.63938","lat":"31.20406","category":"68","category_name":"快餐厅","address":"浦东新区高科中路2860号家乐福2楼"},{"poiid":"B2094654DA6AA4FE409B","title":"孙桥花苑","lon":"121.637","lat":"31.1858","category":"47","category_name":"住宅区","address":"上海孙桥路306弄"},{"poiid":"B2094750D269A2F9449C","title":"川杨新苑四期","lon":"121.638427","lat":"31.189931","category":"47","category_name":"住宅区","address":"中科路2660弄"},{"poiid":"B2094655D36CA1FD429B","title":"十村","lon":"121.63719","lat":"31.18762","category":"38","category_name":"公交车站","address":"上海,上海市,中科路2500弄71号"},{"poiid":"B2094654DA6AA4FE4492","title":"张江镇环西小区","lon":"121.64129","lat":"31.17754","category":"47","category_name":"住宅区","address":"孙环路601弄1-98号临"},{"poiid":"B2094757D064A5F8489C","title":"阿玛达量贩式歌城","lon":"121.63179397","lat":"31.199798349","category":"170","category_name":"KTV","address":"浦东新区盛夏路1053号(近休闲广场)"},{"poiid":"B2094655D36DA0F54293","title":"玉兰香苑二期C块","lon":"121.63363854614","lat":"31.203943272246","category":"38","category_name":"公交车站","address":"益江路396弄"},{"poiid":"B2094654DA6BA2FB419B","title":"浦东新区粮食购销有限公司","lon":"121.64249","lat":"31.18867","category":"263","category_name":"公司","address":"华夏中路2825"},{"poiid":"B2094757D168ABF5489C","title":"黄浦区看守所","lon":"121.63765652","lat":"31.189374505","category":"500","category_name":"未知分类","address":"上海浦东新区华益路333号"},{"poiid":"B2094753D264A4FB419C","title":"川杨新苑六期","lon":"121.641098","lat":"31.192443","category":"47","category_name":"住宅区","address":"上海市 中科路2635弄"},{"poiid":"B2094757D06BA1F9419D","title":"川杨新苑","lon":"121.634","lat":"31.1944","category":"47","category_name":"住宅区","address":"上海市浦东新区中科路2195弄,2166弄,2566弄,2500弄,顺和路60弄,126弄,236弄"},{"poiid":"B2094655D26BA2FE429D","title":"王恒昌桥","lon":"121.64732","lat":"31.18995","category":"38","category_name":"公交车站","address":""},{"poiid":"B2094757D16DA0FB419A","title":"保利金爵","lon":"121.643053616","lat":"31.1873388339","category":"260","category_name":"其他","address":"上海浦东新区创新西路300弄"},{"poiid":"B2094757D06BA3FD409E","title":"瀚盛家园","lon":"121.65532","lat":"31.200581","category":"47","category_name":"住宅区","address":"上海浦东新区创新西路199弄"},{"poiid":"B2094757D16CA3F8409C","title":"川杨二期","lon":"121.625099975","lat":"31.1855870168","category":"500","category_name":"未知分类","address":"上海顺和路126号"},{"poiid":"B2094750D16BA4FD479E","title":"川杨新苑一期","lon":"121.628181","lat":"31.188941","category":"47","category_name":"住宅区","address":"张江路中科路2166弄"},{"poiid":"B2094750D76DAAFC469F","title":"蜀膳传火锅传奇(孙桥路店)","lon":"121.631","lat":"31.1849","category":"86","category_name":"火锅店","address":"浦东新区孙桥路100号"},{"poiid":"B2094654DA6AA4FC4392","title":"浦东新区孙桥交通运输管理站","lon":"121.63622","lat":"31.1876","category":"250","category_name":"公园户外","address":"川北公路十村车站南浜"},{"poiid":"B2094757D069A3FC499C","title":"玉兰香苑2期","lon":"121.628673","lat":"31.199725","category":"47","category_name":"住宅区","address":"上海浦东张江益江路511弄"},{"poiid":"B2094757D66AABFF439F","title":"大家品鱼酒楼","lon":"121.63061","lat":"31.1844","category":"71","category_name":"四川菜","address":"浦东新区孙桥路128号(近华夏西路)"},{"poiid":"B2094655D26BA2FB4098","title":"孙环路三灶路","lon":"121.63973","lat":"31.18001","category":"38","category_name":"公交车站","address":""},{"poiid":"B2094757D164A3FC419D","title":"腾跃球馆","lon":"121.64666597","lat":"31.183144959","category":"220","category_name":"运动场所","address":null},{"poiid":"B2094757D16AABF84199","title":"浦东张江腾越篮球馆","lon":"121.64855867","lat":"31.181599657","category":"220","category_name":"运动场所","address":"上海张江三灶路(三灶浜路)851号院内(靠近孙弘路)"},{"poiid":"B2094654DA6AA6FF4293","title":"玫瑰湾","lon":"121.62824","lat":"31.181089","category":"47","category_name":"住宅区","address":"上海市浦东新区孙桥路202号"},{"poiid":"B2094655D36CA0F5499A","title":"华夏中路孙新路","lon":"121.64965","lat":"31.19079","category":"38","category_name":"公交车站","address":""},{"poiid":"B2094757D169A4F8489E","title":"上岛咖啡 孙桥店 UBC Coffee","lon":"121.630768","lat":"31.182903","category":"260","category_name":"其他","address":"浦东新区孙桥路38号(近高木桥路)"},{"poiid":"B2094757DA6FA3FF4092","title":"环东农庄","lon":"121.654787063599","lat":"31.1825806532364","category":"76","category_name":"上海菜","address":"浦东新区孙建路(近三灶路)"},{"poiid":"B2094655D36DA7FD429B","title":"张东路高科中路","lon":"121.63504","lat":"31.20261","category":"38","category_name":"公交车站","address":""},{"poiid":"B2094757D06BA7F4409C","title":"益江路盛夏路","lon":"121.631069975","lat":"31.1993963396","category":"500","category_name":"未知分类","address":"上海益江路盛夏路615终点站"},{"poiid":"B2094757D16DA0F4419E","title":"陆家大桥","lon":"121.63405609","lat":"31.186544418","category":"500","category_name":"未知分类","address":"上海张江路(华益路)"},{"poiid":"B2094757D169A3F5489D","title":"浦东国际机场T1航站楼","lon":"121.637789975","lat":"31.1776968325","category":"21","category_name":"飞机场","address":"上海市浦东新区"},{"poiid":"B2094757DB6FA6F54198","title":"浦东国际机场T2航站楼","lon":"121.6343438046359","lat":"31.1825049223668","category":"500","category_name":"未知分类","address":"浦东国际机场T2航站楼"},{"poiid":"B2094654DA6AA4FE4793","title":"玉兰香苑","lon":"121.63323","lat":"31.200127","category":"47","category_name":"住宅区","address":"上海市浦东新区益江路126弄、益江路286弄"},{"poiid":"B2094655D36DA7FD4493","title":"张江路华夏中路","lon":"121.62987","lat":"31.18766","category":"38","category_name":"公交车站","address":""},{"poiid":"B2094757D069A2FC469B","title":"川杨新苑三期","lon":"121.636383","lat":"31.188532","category":"47","category_name":"住宅区","address":"上海中科路2500弄"},{"poiid":"B2094750D26FA7FB4593","title":"浦东机场T2航站楼","lon":"121.637809","lat":"31.177707","category":"500","category_name":"未知分类","address":null},{"poiid":"B2094757D065A5F8409E","title":"华夏公园","lon":"121.65080441079522","lat":"31.192232339010502","category":"196","category_name":"公园","address":"上海华夏东路185号"},{"poiid":"B2094750DA6DA0FB429E","title":"张江家乐福","lon":"121.638771","lat":"31.203567","category":"249","category_name":"购物服务","address":"浦东新区张江高科中路2860号(近张东路)"},{"poiid":"B2094757D16DA6FC459E","title":"S1高速公路","lon":"121.646461375","lat":"31.1899818195","category":"500","category_name":"未知分类","address":"上海S1高速公路"},{"poiid":"B2094757D46BA5FE4492","title":"妈妈糖休闲咖啡馆 张东路店","lon":"121.6361072","lat":"31.2006146","category":"65","category_name":"咖啡厅","address":"浦东新区张东路1387号集电子社区中心2楼"},{"poiid":"B2094757D16BABF8499A","title":"张衡公园","lon":"121.63056797","lat":"31.195238242","category":"196","category_name":"公园","address":"浦东新区张衡路2380号(近益江路)"},{"poiid":"B2094757D064A5FE489F","title":"浦东新区看守所","lon":"121.639726975","lat":"31.1923481748","category":"500","category_name":"未知分类","address":"上海华益路351号"},{"poiid":"B2094654DB69A6F94799","title":"长城中环别墅","lon":"121.63105","lat":"31.18334","category":"47","category_name":"住宅区","address":"浦东新区高木桥路219弄"},{"poiid":"B2094655D36DA0F54292","title":"玉兰香苑二期A块","lon":"121.63422596141","lat":"31.202460117491","category":"38","category_name":"公交车站","address":"益江路511弄"},{"poiid":"B2094655D26BA2FA4892","title":"孙桥镇","lon":"121.63003","lat":"31.17707","category":"38","category_name":"公交车站","address":"上海孙环路长美路"},{"poiid":"B2094655D36DA7F8409B","title":"中科路孙环路","lon":"121.636","lat":"31.18978","category":"38","category_name":"公交车站","address":""},{"poiid":"B2094757D06FAAFB449D","title":"玉兰香苑一期","lon":"121.633535","lat":"31.200113","category":"47","category_name":"住宅区","address":"上海浦东新区益江路126弄"},{"poiid":"B2094655D26BA2FB4099","title":"孙环路华夏中路","lon":"121.63666","lat":"31.18693","category":"38","category_name":"公交车站","address":""},{"poiid":"B2094757D069A5F9449B","title":"孙桥花鸟市场","lon":"121.63124","lat":"31.17471","category":"249","category_name":"购物服务","address":"上海浦东新区孙桥路600号  "},{"poiid":"B2094757D164AAF54999","title":"肯德基","lon":"121.63701427","lat":"31.203571737","category":"68","category_name":"快餐厅","address":"浦东新区高科中路2860号家乐福(近外环线)"},{"poiid":"B2094757D06BA5FD4499","title":"永和大王(张江家乐福店)","lon":"121.63938","lat":"31.20406","category":"68","category_name":"快餐厅","address":"浦东新区高科中路2860号家乐福2楼"},{"poiid":"B2094654DA6AA4FE409B","title":"孙桥花苑","lon":"121.637","lat":"31.1858","category":"47","category_name":"住宅区","address":"上海孙桥路306弄"},{"poiid":"B2094750D269A2F9449C","title":"川杨新苑四期","lon":"121.638427","lat":"31.189931","category":"47","category_name":"住宅区","address":"中科路2660弄"},{"poiid":"B2094655D36CA1FD429B","title":"十村","lon":"121.63719","lat":"31.18762","category":"38","category_name":"公交车站","address":"上海,上海市,中科路2500弄71号"},{"poiid":"B2094654DA6AA4FE4492","title":"张江镇环西小区","lon":"121.64129","lat":"31.17754","category":"47","category_name":"住宅区","address":"孙环路601弄1-98号临"},{"poiid":"B2094757D064A5F8489C","title":"阿玛达量贩式歌城","lon":"121.63179397","lat":"31.199798349","category":"170","category_name":"KTV","address":"浦东新区盛夏路1053号(近休闲广场)"},{"poiid":"B2094655D36DA0F54293","title":"玉兰香苑二期C块","lon":"121.63363854614","lat":"31.203943272246","category":"38","category_name":"公交车站","address":"益江路396弄"},{"poiid":"B2094654DA6BA2FB419B","title":"浦东新区粮食购销有限公司","lon":"121.64249","lat":"31.18867","category":"263","category_name":"公司","address":"华夏中路2825"},{"poiid":"B2094757D168ABF5489C","title":"黄浦区看守所","lon":"121.63765652","lat":"31.189374505","category":"500","category_name":"未知分类","address":"上海浦东新区华益路333号"},{"poiid":"B2094753D264A4FB419C","title":"川杨新苑六期","lon":"121.641098","lat":"31.192443","category":"47","category_name":"住宅区","address":"上海市 中科路2635弄"},{"poiid":"B2094757D06BA1F9419D","title":"川杨新苑","lon":"121.634","lat":"31.1944","category":"47","category_name":"住宅区","address":"上海市浦东新区中科路2195弄,2166弄,2566弄,2500弄,顺和路60弄,126弄,236弄"},{"poiid":"B2094655D26BA2FE429D","title":"王恒昌桥","lon":"121.64732","lat":"31.18995","category":"38","category_name":"公交车站","address":""},{"poiid":"B2094757D16DA0FB419A","title":"保利金爵","lon":"121.643053616","lat":"31.1873388339","category":"260","category_name":"其他","address":"上海浦东新区创新西路300弄"},{"poiid":"B2094757D06BA3FD409E","title":"瀚盛家园","lon":"121.65532","lat":"31.200581","category":"47","category_name":"住宅区","address":"上海浦东新区创新西路199弄"},{"poiid":"B2094757D16CA3F8409C","title":"川杨二期","lon":"121.625099975","lat":"31.1855870168","category":"500","category_name":"未知分类","address":"上海顺和路126号"},{"poiid":"B2094750D16BA4FD479E","title":"川杨新苑一期","lon":"121.628181","lat":"31.188941","category":"47","category_name":"住宅区","address":"张江路中科路2166弄"},{"poiid":"B2094750D76DAAFC469F","title":"蜀膳传火锅传奇(孙桥路店)","lon":"121.631","lat":"31.1849","category":"86","category_name":"火锅店","address":"浦东新区孙桥路100号"},{"poiid":"B2094654DA6AA4FC4392","title":"浦东新区孙桥交通运输管理站","lon":"121.63622","lat":"31.1876","category":"250","category_name":"公园户外","address":"川北公路十村车站南浜"},{"poiid":"B2094757D069A3FC499C","title":"玉兰香苑2期","lon":"121.628673","lat":"31.199725","category":"47","category_name":"住宅区","address":"上海浦东张江益江路511弄"},{"poiid":"B2094757D66AABFF439F","title":"大家品鱼酒楼","lon":"121.63061","lat":"31.1844","category":"71","category_name":"四川菜","address":"浦东新区孙桥路128号(近华夏西路)"},{"poiid":"B2094655D26BA2FB4098","title":"孙环路三灶路","lon":"121.63973","lat":"31.18001","category":"38","category_name":"公交车站","address":""},{"poiid":"B2094757D164A3FC419D","title":"腾跃球馆","lon":"121.64666597","lat":"31.183144959","category":"220","category_name":"运动场所","address":null},{"poiid":"B2094757D16AABF84199","title":"浦东张江腾越篮球馆","lon":"121.64855867","lat":"31.181599657","category":"220","category_name":"运动场所","address":"上海张江三灶路(三灶浜路)851号院内(靠近孙弘路)"},{"poiid":"B2094654DA6AA6FF4293","title":"玫瑰湾","lon":"121.62824","lat":"31.181089","category":"47","category_name":"住宅区","address":"上海市浦东新区孙桥路202号"},{"poiid":"B2094655D36CA0F5499A","title":"华夏中路孙新路","lon":"121.64965","lat":"31.19079","category":"38","category_name":"公交车站","address":""},{"poiid":"B2094757D169A4F8489E","title":"上岛咖啡 孙桥店 UBC Coffee","lon":"121.630768","lat":"31.182903","category":"260","category_name":"其他","address":"浦东新区孙桥路38号(近高木桥路)"},{"poiid":"B2094757DA6FA3FF4092","title":"环东农庄","lon":"121.654787063599","lat":"31.1825806532364","category":"76","category_name":"上海菜","address":"浦东新区孙建路(近三灶路)"},{"poiid":"B2094655D36DA7FD429B","title":"张东路高科中路","lon":"121.63504","lat":"31.20261","category":"38","category_name":"公交车站","address":""},{"poiid":"B2094757D06BA7F4409C","title":"益江路盛夏路","lon":"121.631069975","lat":"31.1993963396","category":"500","category_name":"未知分类","address":"上海益江路盛夏路615终点站"},{"poiid":"B2094757D16DA0F4419E","title":"陆家大桥","lon":"121.63405609","lat":"31.186544418","category":"500","category_name":"未知分类","address":"上海张江路(华益路)"}]