[{"poiid":"B2094757D169A3F5489D","title":"浦东国际机场T1航站楼","lon":"121.637789975","lat":"31.1776968325","category":"21","category_name":"飞机场","address":"上海市浦东新区"},{"poiid":"B2094757DB6FA6F54198","title":"浦东国际机场T2航站楼","lon":"121.6343438046359","lat":"31.1825049223668","category":"500","category_name":"未知分类","address":"浦东国际机场T2航站楼"},{"poiid":"B2094757D068A6FD419E","title":"孙桥现代农业开发区","lon":"121.63107","lat":"31.17052","category":"260","category_name":"其他","address":"上海浦东新区孙桥沔北路185号  "},{"poiid":"B2094757D06FA7FA439F","title":"美特斯邦威集团","lon":"121.61739265","lat":"31.155516802","category":"46","category_name":"楼宇","address":"上海康桥东路800号"},{"poiid":"B2094750D26FA7FB4593","title":"浦东机场T2航站楼","lon":"121.637809","lat":"31.177707","category":"500","category_name":"未知分类","address":null},{"poiid":"B2094757D069A5F9449B","title":"孙桥花鸟市场","lon":"121.63124","lat":"31.17471","category":"249","category_name":"购物服务","address":"上海浦东新区孙桥路600号  "},{"poiid":"B2094655D26BA2FA4892","title":"孙桥镇","lon":"121.63003","lat":"31.17707","category":"38","category_name":"公交车站","address":"上海孙环路长美路"},{"poiid":"B2094654DB6DA6FD439D","title":"康桥工业区(康桥东路)","lon":"121.63565","lat":"31.16045","category":"45","category_name":"产业园区","address":"康桥东路1365弄1-32号"},{"poiid":"B2094757D16CA2FC4993","title":"利君绿苑酒家","lon":"121.63072","lat":"31.16855","category":"76","category_name":"上海菜","address":"上海浦东新区沔北路185号(近孙桥农业园)  "},{"poiid":"B2094757D069A4FB439F","title":"紫晶苑","lon":"121.62564","lat":"31.176443","category":"252","category_name":"楼宇机构","address":"上海市浦东新区孙农路398弄"},{"poiid":"B2094757D06BA0FE429D","title":"和记小菜(孙桥农业开发区)","lon":"121.618694642","lat":"31.1659332243","category":"75","category_name":"浙江菜","address":"上海孙桥农业开发区"},{"poiid":"B2094654DB69A6F94799","title":"长城中环别墅","lon":"121.63105","lat":"31.18334","category":"47","category_name":"住宅区","address":"浦东新区高木桥路219弄"},{"poiid":"B2094757D064A4FC4198","title":"外环线申江路出口","lon":"121.626492","lat":"31.153867","category":"500","category_name":"未知分类","address":"上海外环线申江路"},{"poiid":"B2094655D26BA2FA4999","title":"孙桥路科农路","lon":"121.6311","lat":"31.17046","category":"38","category_name":"公交车站","address":""},{"poiid":"B2094654DA6AA4FD4792","title":"上海烟草集团牡丹香精香料有限公司","lon":"121.63151","lat":"31.16694","category":"263","category_name":"公司","address":""},{"poiid":"B2094654DB6DA1F44099","title":"高西民营小区","lon":"121.629","lat":"31.1651","category":"47","category_name":"住宅区","address":"康桥东路905弄28号"},{"poiid":"B2094654DA6AA4FD4799","title":"上海市孙桥中学","lon":"121.63123","lat":"31.17281","category":"55","category_name":"中学","address":"浦东新区孙桥镇孙桥路705号"},{"poiid":"B2094655D26BA2FA499A","title":"孙桥农业园区","lon":"121.62261","lat":"31.16351","category":"38","category_name":"公交车站","address":"浦东新区张江镇孙桥沔北路185号。"},{"poiid":"B2094654DA6AA4FC4993","title":"上海市殷浜中学","lon":"121.63242","lat":"31.1726","category":"55","category_name":"中学","address":""},{"poiid":"B2094654DA6AA4FE4492","title":"张江镇环西小区","lon":"121.64129","lat":"31.17754","category":"47","category_name":"住宅区","address":"孙环路601弄1-98号临"},{"poiid":"B2094757D16BA6FA479D","title":"康桥东路","lon":"121.63665797","lat":"31.162679481","category":"500","category_name":"未知分类","address":"上海市浦东新区康桥东路1365弄"},{"poiid":"B2094654DA6AA4FE469B","title":"浦东新区孙桥镇卫生院","lon":"121.63327","lat":"31.17443","category":"162","category_name":"医院","address":"横沔江路274"},{"poiid":"B2094655D26BA2FA499E","title":"孙桥","lon":"121.63094","lat":"31.17845","category":"38","category_name":"公交车站","address":"上海新多路"},{"poiid":"B2094655D265A4FA409E","title":"东郊紫园","lon":"121.62326","lat":"31.179136","category":"47","category_name":"住宅区","address":"浦东新区孙农路200弄"},{"poiid":"B2094654DA6AA6FF4293","title":"玫瑰湾","lon":"121.62824","lat":"31.181089","category":"47","category_name":"住宅区","address":"上海市浦东新区孙桥路202号"},{"poiid":"B2094654DA6AA6FF4292","title":"上海广特水电安装服务有限公司","lon":"121.62659","lat":"31.16568","category":"263","category_name":"公司","address":"沔北路555"},{"poiid":"B2094757D568A6F5489E","title":"上海孙桥农业科技股份有限公司","lon":"121.6308008","lat":"31.17079361","category":"260","category_name":"其他","address":"孙桥沔北路185号"},{"poiid":"B2094654DB6DA1F94298","title":"上海安太祥机械设备有限公司","lon":"121.62684","lat":"31.16351","category":"263","category_name":"公司","address":""},{"poiid":"B2094654DB6DA1F9429F","title":"上海晨龙橡塑线缆厂","lon":"121.62744","lat":"31.16203","category":"263","category_name":"公司","address":"沔北村唐家宅58号"},{"poiid":"B2094654DB6DA6FD4392","title":"金旅客车上海基地","lon":"121.63206","lat":"31.16007","category":"263","category_name":"公司","address":"康桥东路1159弄105"},{"poiid":"B2094654DB6DA6FD4393","title":"上海申龙客车有限公司","lon":"121.63185","lat":"31.16004","category":"263","category_name":"公司","address":"康桥东路1159弄105"},{"poiid":"B2094654DA6AA6FF459B","title":"航空公司华教通用上海基地","lon":"121.62593","lat":"31.17081","category":"263","category_name":"公司","address":"勤政路185"},{"poiid":"B2094757D66CA3F8439D","title":"上海乐来汽车分析测试有限公司","lon":"121.630175","lat":"31.159897","category":"263","category_name":"公司","address":"上海市浦东新区康桥东路1365弄12A"},{"poiid":"B2094757D069A6FA409B","title":"A20","lon":"121.64606797","lat":"31.15749936","category":"500","category_name":"未知分类","address":"上海市浦东新区康桥路"},{"poiid":"B2094654DB6DA6FD4099","title":"上海西美工具进出口有限公司","lon":"121.63589","lat":"31.15974","category":"263","category_name":"公司","address":"康桥东路1369号"},{"poiid":"B2094654DB64A1FB4499","title":"上海浦新砌块厂(横沔江路)","lon":"121.63937","lat":"31.1622","category":"263","category_name":"公司","address":""},{"poiid":"B2094654DB6DA6FD4098","title":"上海汇洋机械制造有限公司","lon":"121.6359","lat":"31.15975","category":"263","category_name":"公司","address":"康桥东路1369号"},{"poiid":"B2094654DB6DA6F5479E","title":"上海江森自控汽车电子有限公司","lon":"121.63281","lat":"31.15745","category":"263","category_name":"公司","address":""},{"poiid":"B2094654DB6DA6FD449B","title":"JOST","lon":"121.63032","lat":"31.15947","category":"248","category_name":"生活娱乐","address":"康桥东路1159-81"},{"poiid":"B2094654DB6DA6FC439B","title":"同济大学耐候实验室","lon":"121.63333","lat":"31.15796","category":"253","category_name":"校园生活","address":"康桥东路1221号"},{"poiid":"B2094654DA6AA6FF4299","title":"上海绿色地带食品有限公司","lon":"121.62493","lat":"31.17214","category":"263","category_name":"公司","address":"勤政路48"},{"poiid":"B2094757D16DABF5449B","title":"哈挺机床(上海)有限公司","lon":"121.63733497","lat":"31.158612386","category":"249","category_name":"购物服务","address":"上海市南汇区康桥东路3880号"},{"poiid":"B2094757D664AAF8489D","title":"茗缘酒楼","lon":"121.63077","lat":"31.18123","category":"76","category_name":"上海菜","address":"浦东新区孙桥路268号(近孙建路)"},{"poiid":"B2094654DA6AA4FC4593","title":"上海市浦东新区孙桥镇广播电视站","lon":"121.63294","lat":"31.17779","category":"59","category_name":"电视台","address":"孙桥镇横沔江路56号"},{"poiid":"B2094654DB6DA6FC4399","title":"上海川湘食品厂","lon":"121.63511","lat":"31.1583","category":"263","category_name":"公司","address":""},{"poiid":"B2094654DA6BA2F9499C","title":"华联超市(孙环路)","lon":"121.64286","lat":"31.17398","category":"118","category_name":"超级市场","address":""},{"poiid":"B2094654DA6BA2F8449F","title":"浦东新区孙桥小学","lon":"121.62964","lat":"31.17781","category":"56","category_name":"小学","address":"军民路158号"},{"poiid":"B2094654DA6AA4FE459C","title":"孙桥幼儿园","lon":"121.6296","lat":"31.17861","category":"57","category_name":"幼儿园","address":""},{"poiid":"B2094654DB6DA7F54993","title":"上海市第二精神病医院","lon":"121.63709","lat":"31.15025","category":"162","category_name":"医院","address":"南汇区川周公路"},{"poiid":"B2094757D165A1F4459D","title":"Michael's home","lon":"121.62503727","lat":"31.17545358","category":"500","category_name":"未知分类","address":null},{"poiid":"B2094757D169A3F5489D","title":"浦东国际机场T1航站楼","lon":"121.637789975","lat":"31.1776968325","category":"21","category_name":"飞机场","address":"上海市浦东新区"},{"poiid":"B2094757DB6FA6F54198","title":"浦东国际机场T2航站楼","lon":"121.6343438046359","lat":"31.1825049223668","category":"500","category_name":"未知分类","address":"浦东国际机场T2航站楼"},{"poiid":"B2094757D068A6FD419E","title":"孙桥现代农业开发区","lon":"121.63107","lat":"31.17052","category":"260","category_name":"其他","address":"上海浦东新区孙桥沔北路185号  "},{"poiid":"B2094757D06FA7FA439F","title":"美特斯邦威集团","lon":"121.61739265","lat":"31.155516802","category":"46","category_name":"楼宇","address":"上海康桥东路800号"},{"poiid":"B2094750D26FA7FB4593","title":"浦东机场T2航站楼","lon":"121.637809","lat":"31.177707","category":"500","category_name":"未知分类","address":null},{"poiid":"B2094757D069A5F9449B","title":"孙桥花鸟市场","lon":"121.63124","lat":"31.17471","category":"249","category_name":"购物服务","address":"上海浦东新区孙桥路600号  "},{"poiid":"B2094655D26BA2FA4892","title":"孙桥镇","lon":"121.63003","lat":"31.17707","category":"38","category_name":"公交车站","address":"上海孙环路长美路"},{"poiid":"B2094654DB6DA6FD439D","title":"康桥工业区(康桥东路)","lon":"121.63565","lat":"31.16045","category":"45","category_name":"产业园区","address":"康桥东路1365弄1-32号"},{"poiid":"B2094757D16CA2FC4993","title":"利君绿苑酒家","lon":"121.63072","lat":"31.16855","category":"76","category_name":"上海菜","address":"上海浦东新区沔北路185号(近孙桥农业园)  "},{"poiid":"B2094757D069A4FB439F","title":"紫晶苑","lon":"121.62564","lat":"31.176443","category":"252","category_name":"楼宇机构","address":"上海市浦东新区孙农路398弄"},{"poiid":"B2094757D06BA0FE429D","title":"和记小菜(孙桥农业开发区)","lon":"121.618694642","lat":"31.1659332243","category":"75","category_name":"浙江菜","address":"上海孙桥农业开发区"},{"poiid":"B2094654DB69A6F94799","title":"长城中环别墅","lon":"121.63105","lat":"31.18334","category":"47","category_name":"住宅区","address":"浦东新区高木桥路219弄"},{"poiid":"B2094757D064A4FC4198","title":"外环线申江路出口","lon":"121.626492","lat":"31.153867","category":"500","category_name":"未知分类","address":"上海外环线申江路"},{"poiid":"B2094655D26BA2FA4999","title":"孙桥路科农路","lon":"121.6311","lat":"31.17046","category":"38","category_name":"公交车站","address":""},{"poiid":"B2094654DA6AA4FD4792","title":"上海烟草集团牡丹香精香料有限公司","lon":"121.63151","lat":"31.16694","category":"263","category_name":"公司","address":""},{"poiid":"B2094654DB6DA1F44099","title":"高西民营小区","lon":"121.629","lat":"31.1651","category":"47","category_name":"住宅区","address":"康桥东路905弄28号"},{"poiid":"B2094654DA6AA4FD4799","title":"上海市孙桥中学","lon":"121.63123","lat":"31.17281","category":"55","category_name":"中学","address":"浦东新区孙桥镇孙桥路705号"},{"poiid":"B2094655D26BA2FA499A","title":"孙桥农业园区","lon":"121.62261","lat":"31.16351","category":"38","category_name":"公交车站","address":"浦东新区张江镇孙桥沔北路185号。"},{"poiid":"B2094654DA6AA4FC4993","title":"上海市殷浜中学","lon":"121.63242","lat":"31.1726","category":"55","category_name":"中学","address":""},{"poiid":"B2094654DA6AA4FE4492","title":"张江镇环西小区","lon":"121.64129","lat":"31.17754","category":"47","category_name":"住宅区","address":"孙环路601弄1-98号临"},{"poiid":"B2094757D16BA6FA479D","title":"康桥东路","lon":"121.63665797","lat":"31.162679481","category":"500","category_name":"未知分类","address":"上海市浦东新区康桥东路1365弄"},{"poiid":"B2094654DA6AA4FE469B","title":"浦东新区孙桥镇卫生院","lon":"121.63327","lat":"31.17443","category":"162","category_name":"医院","address":"横沔江路274"},{"poiid":"B2094655D26BA2FA499E","title":"孙桥","lon":"121.63094","lat":"31.17845","category":"38","category_name":"公交车站","address":"上海新多路"},{"poiid":"B2094655D265A4FA409E","title":"东郊紫园","lon":"121.62326","lat":"31.179136","category":"47","category_name":"住宅区","address":"浦东新区孙农路200弄"},{"poiid":"B2094654DA6AA6FF4293","title":"玫瑰湾","lon":"121.62824","lat":"31.181089","category":"47","category_name":"住宅区","address":"上海市浦东新区孙桥路202号"},{"poiid":"B2094654DA6AA6FF4292","title":"上海广特水电安装服务有限公司","lon":"121.62659","lat":"31.16568","category":"263","category_name":"公司","address":"沔北路555"},{"poiid":"B2094757D568A6F5489E","title":"上海孙桥农业科技股份有限公司","lon":"121.6308008","lat":"31.17079361","category":"260","category_name":"其他","address":"孙桥沔北路185号"},{"poiid":"B2094654DB6DA1F94298","title":"上海安太祥机械设备有限公司","lon":"121.62684","lat":"31.16351","category":"263","category_name":"公司","address":""},{"poiid":"B2094654DB6DA1F9429F","title":"上海晨龙橡塑线缆厂","lon":"121.62744","lat":"31.16203","category":"263","category_name":"公司","address":"沔北村唐家宅58号"},{"poiid":"B2094654DB6DA6FD4392","title":"金旅客车上海基地","lon":"121.63206","lat":"31.16007","category":"263","category_name":"公司","address":"康桥东路1159弄105"},{"poiid":"B2094654DB6DA6FD4393","title":"上海申龙客车有限公司","lon":"121.63185","lat":"31.16004","category":"263","category_name":"公司","address":"康桥东路1159弄105"},{"poiid":"B2094654DA6AA6FF459B","title":"航空公司华教通用上海基地","lon":"121.62593","lat":"31.17081","category":"263","category_name":"公司","address":"勤政路185"},{"poiid":"B2094757D66CA3F8439D","title":"上海乐来汽车分析测试有限公司","lon":"121.630175","lat":"31.159897","category":"263","category_name":"公司","address":"上海市浦东新区康桥东路1365弄12A"},{"poiid":"B2094757D069A6FA409B","title":"A20","lon":"121.64606797","lat":"31.15749936","category":"500","category_name":"未知分类","address":"上海市浦东新区康桥路"},{"poiid":"B2094654DB6DA6FD4099","title":"上海西美工具进出口有限公司","lon":"121.63589","lat":"31.15974","category":"263","category_name":"公司","address":"康桥东路1369号"},{"poiid":"B2094654DB64A1FB4499","title":"上海浦新砌块厂(横沔江路)","lon":"121.63937","lat":"31.1622","category":"263","category_name":"公司","address":""},{"poiid":"B2094654DB6DA6FD4098","title":"上海汇洋机械制造有限公司","lon":"121.6359","lat":"31.15975","category":"263","category_name":"公司","address":"康桥东路1369号"},{"poiid":"B2094654DB6DA6F5479E","title":"上海江森自控汽车电子有限公司","lon":"121.63281","lat":"31.15745","category":"263","category_name":"公司","address":""},{"poiid":"B2094654DB6DA6FD449B","title":"JOST","lon":"121.63032","lat":"31.15947","category":"248","category_name":"生活娱乐","address":"康桥东路1159-81"},{"poiid":"B2094654DB6DA6FC439B","title":"同济大学耐候实验室","lon":"121.63333","lat":"31.15796","category":"253","category_name":"校园生活","address":"康桥东路1221号"},{"poiid":"B2094654DA6AA6FF4299","title":"上海绿色地带食品有限公司","lon":"121.62493","lat":"31.17214","category":"263","category_name":"公司","address":"勤政路48"},{"poiid":"B2094757D16DABF5449B","title":"哈挺机床(上海)有限公司","lon":"121.63733497","lat":"31.158612386","category":"249","category_name":"购物服务","address":"上海市南汇区康桥东路3880号"},{"poiid":"B2094757D664AAF8489D","title":"茗缘酒楼","lon":"121.63077","lat":"31.18123","category":"76","category_name":"上海菜","address":"浦东新区孙桥路268号(近孙建路)"},{"poiid":"B2094654DA6AA4FC4593","title":"上海市浦东新区孙桥镇广播电视站","lon":"121.63294","lat":"31.17779","category":"59","category_name":"电视台","address":"孙桥镇横沔江路56号"},{"poiid":"B2094654DB6DA6FC4399","title":"上海川湘食品厂","lon":"121.63511","lat":"31.1583","category":"263","category_name":"公司","address":""},{"poiid":"B2094654DA6BA2F9499C","title":"华联超市(孙环路)","lon":"121.64286","lat":"31.17398","category":"118","category_name":"超级市场","address":""},{"poiid":"B2094654DA6BA2F8449F","title":"浦东新区孙桥小学","lon":"121.62964","lat":"31.17781","category":"56","category_name":"小学","address":"军民路158号"},{"poiid":"B2094654DA6AA4FE459C","title":"孙桥幼儿园","lon":"121.6296","lat":"31.17861","category":"57","category_name":"幼儿园","address":""},{"poiid":"B2094654DB6DA7F54993","title":"上海市第二精神病医院","lon":"121.63709","lat":"31.15025","category":"162","category_name":"医院","address":"南汇区川周公路"},{"poiid":"B2094757D165A1F4459D","title":"Michael's home","lon":"121.62503727","lat":"31.17545358","category":"500","category_name":"未知分类","address":null},{"poiid":"B2094757D169A3F5489D","title":"浦东国际机场T1航站楼","lon":"121.637789975","lat":"31.1776968325","category":"21","category_name":"飞机场","address":"上海市浦东新区"},{"poiid":"B2094757DB6FA6F54198","title":"浦东国际机场T2航站楼","lon":"121.6343438046359","lat":"31.1825049223668","category":"500","category_name":"未知分类","address":"浦东国际机场T2航站楼"},{"poiid":"B2094757D068A6FD419E","title":"孙桥现代农业开发区","lon":"121.63107","lat":"31.17052","category":"260","category_name":"其他","address":"上海浦东新区孙桥沔北路185号  "},{"poiid":"B2094757D06FA7FA439F","title":"美特斯邦威集团","lon":"121.61739265","lat":"31.155516802","category":"46","category_name":"楼宇","address":"上海康桥东路800号"},{"poiid":"B2094750D26FA7FB4593","title":"浦东机场T2航站楼","lon":"121.637809","lat":"31.177707","category":"500","category_name":"未知分类","address":null},{"poiid":"B2094757D069A5F9449B","title":"孙桥花鸟市场","lon":"121.63124","lat":"31.17471","category":"249","category_name":"购物服务","address":"上海浦东新区孙桥路600号  "},{"poiid":"B2094655D26BA2FA4892","title":"孙桥镇","lon":"121.63003","lat":"31.17707","category":"38","category_name":"公交车站","address":"上海孙环路长美路"},{"poiid":"B2094654DB6DA6FD439D","title":"康桥工业区(康桥东路)","lon":"121.63565","lat":"31.16045","category":"45","category_name":"产业园区","address":"康桥东路1365弄1-32号"},{"poiid":"B2094757D16CA2FC4993","title":"利君绿苑酒家","lon":"121.63072","lat":"31.16855","category":"76","category_name":"上海菜","address":"上海浦东新区沔北路185号(近孙桥农业园)  "},{"poiid":"B2094757D069A4FB439F","title":"紫晶苑","lon":"121.62564","lat":"31.176443","category":"252","category_name":"楼宇机构","address":"上海市浦东新区孙农路398弄"},{"poiid":"B2094757D06BA0FE429D","title":"和记小菜(孙桥农业开发区)","lon":"121.618694642","lat":"31.1659332243","category":"75","category_name":"浙江菜","address":"上海孙桥农业开发区"},{"poiid":"B2094654DB69A6F94799","title":"长城中环别墅","lon":"121.63105","lat":"31.18334","category":"47","category_name":"住宅区","address":"浦东新区高木桥路219弄"},{"poiid":"B2094757D064A4FC4198","title":"外环线申江路出口","lon":"121.626492","lat":"31.153867","category":"500","category_name":"未知分类","address":"上海外环线申江路"},{"poiid":"B2094655D26BA2FA4999","title":"孙桥路科农路","lon":"121.6311","lat":"31.17046","category":"38","category_name":"公交车站","address":""},{"poiid":"B2094654DA6AA4FD4792","title":"上海烟草集团牡丹香精香料有限公司","lon":"121.63151","lat":"31.16694","category":"263","category_name":"公司","address":""},{"poiid":"B2094654DB6DA1F44099","title":"高西民营小区","lon":"121.629","lat":"31.1651","category":"47","category_name":"住宅区","address":"康桥东路905弄28号"},{"poiid":"B2094654DA6AA4FD4799","title":"上海市孙桥中学","lon":"121.63123","lat":"31.17281","category":"55","category_name":"中学","address":"浦东新区孙桥镇孙桥路705号"},{"poiid":"B2094655D26BA2FA499A","title":"孙桥农业园区","lon":"121.62261","lat":"31.16351","category":"38","category_name":"公交车站","address":"浦东新区张江镇孙桥沔北路185号。"},{"poiid":"B2094654DA6AA4FC4993","title":"上海市殷浜中学","lon":"121.63242","lat":"31.1726","category":"55","category_name":"中学","address":""},{"poiid":"B2094654DA6AA4FE4492","title":"张江镇环西小区","lon":"121.64129","lat":"31.17754","category":"47","category_name":"住宅区","address":"孙环路601弄1-98号临"},{"poiid":"B2094757D16BA6FA479D","title":"康桥东路","lon":"121.63665797","lat":"31.162679481","category":"500","category_name":"未知分类","address":"上海市浦东新区康桥东路1365弄"},{"poiid":"B2094654DA6AA4FE469B","title":"浦东新区孙桥镇卫生院","lon":"121.63327","lat":"31.17443","category":"162","category_name":"医院","address":"横沔江路274"},{"poiid":"B2094655D26BA2FA499E","title":"孙桥","lon":"121.63094","lat":"31.17845","category":"38","category_name":"公交车站","address":"上海新多路"},{"poiid":"B2094655D265A4FA409E","title":"东郊紫园","lon":"121.62326","lat":"31.179136","category":"47","category_name":"住宅区","address":"浦东新区孙农路200弄"},{"poiid":"B2094654DA6AA6FF4293","title":"玫瑰湾","lon":"121.62824","lat":"31.181089","category":"47","category_name":"住宅区","address":"上海市浦东新区孙桥路202号"},{"poiid":"B2094654DA6AA6FF4292","title":"上海广特水电安装服务有限公司","lon":"121.62659","lat":"31.16568","category":"263","category_name":"公司","address":"沔北路555"},{"poiid":"B2094757D568A6F5489E","title":"上海孙桥农业科技股份有限公司","lon":"121.6308008","lat":"31.17079361","category":"260","category_name":"其他","address":"孙桥沔北路185号"},{"poiid":"B2094654DB6DA1F94298","title":"上海安太祥机械设备有限公司","lon":"121.62684","lat":"31.16351","category":"263","category_name":"公司","address":""},{"poiid":"B2094654DB6DA1F9429F","title":"上海晨龙橡塑线缆厂","lon":"121.62744","lat":"31.16203","category":"263","category_name":"公司","address":"沔北村唐家宅58号"},{"poiid":"B2094654DB6DA6FD4392","title":"金旅客车上海基地","lon":"121.63206","lat":"31.16007","category":"263","category_name":"公司","address":"康桥东路1159弄105"},{"poiid":"B2094654DB6DA6FD4393","title":"上海申龙客车有限公司","lon":"121.63185","lat":"31.16004","category":"263","category_name":"公司","address":"康桥东路1159弄105"},{"poiid":"B2094654DA6AA6FF459B","title":"航空公司华教通用上海基地","lon":"121.62593","lat":"31.17081","category":"263","category_name":"公司","address":"勤政路185"},{"poiid":"B2094757D66CA3F8439D","title":"上海乐来汽车分析测试有限公司","lon":"121.630175","lat":"31.159897","category":"263","category_name":"公司","address":"上海市浦东新区康桥东路1365弄12A"},{"poiid":"B2094757D069A6FA409B","title":"A20","lon":"121.64606797","lat":"31.15749936","category":"500","category_name":"未知分类","address":"上海市浦东新区康桥路"},{"poiid":"B2094654DB6DA6FD4099","title":"上海西美工具进出口有限公司","lon":"121.63589","lat":"31.15974","category":"263","category_name":"公司","address":"康桥东路1369号"},{"poiid":"B2094654DB64A1FB4499","title":"上海浦新砌块厂(横沔江路)","lon":"121.63937","lat":"31.1622","category":"263","category_name":"公司","address":""},{"poiid":"B2094654DB6DA6FD4098","title":"上海汇洋机械制造有限公司","lon":"121.6359","lat":"31.15975","category":"263","category_name":"公司","address":"康桥东路1369号"},{"poiid":"B2094654DB6DA6F5479E","title":"上海江森自控汽车电子有限公司","lon":"121.63281","lat":"31.15745","category":"263","category_name":"公司","address":""},{"poiid":"B2094654DB6DA6FD449B","title":"JOST","lon":"121.63032","lat":"31.15947","category":"248","category_name":"生活娱乐","address":"康桥东路1159-81"},{"poiid":"B2094654DB6DA6FC439B","title":"同济大学耐候实验室","lon":"121.63333","lat":"31.15796","category":"253","category_name":"校园生活","address":"康桥东路1221号"},{"poiid":"B2094654DA6AA6FF4299","title":"上海绿色地带食品有限公司","lon":"121.62493","lat":"31.17214","category":"263","category_name":"公司","address":"勤政路48"},{"poiid":"B2094757D16DABF5449B","title":"哈挺机床(上海)有限公司","lon":"121.63733497","lat":"31.158612386","category":"249","category_name":"购物服务","address":"上海市南汇区康桥东路3880号"},{"poiid":"B2094757D664AAF8489D","title":"茗缘酒楼","lon":"121.63077","lat":"31.18123","category":"76","category_name":"上海菜","address":"浦东新区孙桥路268号(近孙建路)"},{"poiid":"B2094654DA6AA4FC4593","title":"上海市浦东新区孙桥镇广播电视站","lon":"121.63294","lat":"31.17779","category":"59","category_name":"电视台","address":"孙桥镇横沔江路56号"},{"poiid":"B2094654DB6DA6FC4399","title":"上海川湘食品厂","lon":"121.63511","lat":"31.1583","category":"263","category_name":"公司","address":""},{"poiid":"B2094654DA6BA2F9499C","title":"华联超市(孙环路)","lon":"121.64286","lat":"31.17398","category":"118","category_name":"超级市场","address":""},{"poiid":"B2094654DA6BA2F8449F","title":"浦东新区孙桥小学","lon":"121.62964","lat":"31.17781","category":"56","category_name":"小学","address":"军民路158号"},{"poiid":"B2094654DA6AA4FE459C","title":"孙桥幼儿园","lon":"121.6296","lat":"31.17861","category":"57","category_name":"幼儿园","address":""},{"poiid":"B2094654DB6DA7F54993","title":"上海市第二精神病医院","lon":"121.63709","lat":"31.15025","category":"162","category_name":"医院","address":"南汇区川周公路"},{"poiid":"B2094757D165A1F4459D","title":"Michael's home","lon":"121.62503727","lat":"31.17545358","category":"500","category_name":"未知分类","address":null}]