[{"poiid":"B2094757D06AA4F44193","title":"上海大众汽车一厂","lon":"121.168218289","lat":"31.3003356326","category":"500","category_name":"未知分类","address":"上海嘉定区安亭镇洛浦路63号"},{"poiid":"B2094757D06FA3F4409B","title":"上海大众汽车有限公司","lon":"121.16294097","lat":"31.295793533","category":"46","category_name":"楼宇","address":"上海安亭镇昌吉路188号"},{"poiid":"B2094757D06FA1FA479C","title":"上海大众汽车","lon":"121.167815","lat":"31.299914","category":"500","category_name":"未知分类","address":"徐汇区安亭洛浦路63号"},{"poiid":"B2094757D068A6FE439D","title":"安亭市民广场","lon":"121.16414","lat":"31.29896","category":"250","category_name":"公园户外","address":"嘉定区安亭镇墨玉路(近和静路)"},{"poiid":"B2094654DB65A0F4409F","title":"上海大众汽车二厂","lon":"121.17913","lat":"31.29665","category":"263","category_name":"公司","address":"昌吉路82"},{"poiid":"B2094654D46BA0FF4899","title":"上海国际汽车城大厦","lon":"121.172","lat":"31.2875","category":"46","category_name":"楼宇","address":"上海市嘉定区安亭镇墨玉南路888号"},{"poiid":"B2094757D069A2FE459A","title":"安亭医院","lon":"121.16136195","lat":"31.295944036","category":"162","category_name":"医院","address":"嘉定区安亭镇昌吉路204号(昌吉路墨玉路)"},{"poiid":"B2094757D06BA2F9469C","title":"安亭镇文体活动中心","lon":"121.16436013","lat":"31.30559144","category":"220","category_name":"运动场所","address":"上海嘉定区安亭镇墨玉路621号"},{"poiid":"B2094655D36CA4FD469C","title":"安亭镇","lon":"121.16529","lat":"31.29153","category":"38","category_name":"公交车站","address":""},{"poiid":"B2094757D06AA0FE409E","title":"安亭北站","lon":"121.16539728","lat":"31.311927371","category":"22","category_name":"火车站","address":"上海嘉定区安亭镇新源路宝安公路 沪宁高铁 安亭北站"},{"poiid":"B2094757D065A0F5439E","title":"中泰量贩KTV","lon":"121.16429228","lat":"31.301352153","category":"170","category_name":"KTV","address":"上海市嘉定区和静路"},{"poiid":"B2094757D16FABF8429D","title":"澳门豆捞坊","lon":"121.1636","lat":"31.29124","category":"86","category_name":"火锅店","address":"嘉定区墨玉南路1055号嘉亭荟城市生活广场2A412号铺(近安亭地铁站)"},{"poiid":"B2094757D16CA3F84993","title":"上海大众汽车发动机一厂","lon":"121.188883589","lat":"31.2991148075","category":"500","category_name":"未知分类","address":"上海于田路昌吉路"},{"poiid":"B2094757D069A1FF4599","title":"延锋伟世通汽车饰件系统有限公司","lon":"121.162649","lat":"31.303654","category":"263","category_name":"公司","address":"上海墨玉路540号"},{"poiid":"B2094654D46BA2F8409A","title":"安亭站","lon":"121.17808","lat":"31.30527","category":"22","category_name":"火车站","address":"嘉定区安亭镇"},{"poiid":"B2094655D26FA1FA429A","title":"世康大厦","lon":"121.17091516336","lat":"31.307389888843","category":"46","category_name":"楼宇","address":"松江区工业区鼎源路广富林路路口"},{"poiid":"B2094757D068A4F94299","title":"世纪联华(安亭店)","lon":"121.16378","lat":"31.3058","category":"118","category_name":"超级市场","address":"嘉定区民丰路568号(近墨玉路)"},{"poiid":"B2094654DB6AA5F54492","title":"肯德基 昌吉路店 KFC","lon":"121.164513054","lat":"31.295557793","category":"68","category_name":"快餐厅","address":"嘉定区昌吉路188号(近墨玉路)"},{"poiid":"B2094654D46BA0F8469A","title":"芙蓉新村一街坊","lon":"121.168","lat":"31.2975","category":"47","category_name":"住宅区","address":"泽普路316弄"},{"poiid":"B2094757D064A3F94299","title":"上海大众二厂","lon":"121.181262789","lat":"31.2940439032","category":"500","category_name":"未知分类","address":"上海昌吉路81号"},{"poiid":"B2094654D46BA1F9499E","title":"上海大众众谊金属制品有限公司","lon":"121.17512","lat":"31.30411","category":"263","category_name":"公司","address":"民丰路24"},{"poiid":"B2094654D46BA2F54399","title":"玉兰三村(阜康路)","lon":"121.16023","lat":"31.29872","category":"47","category_name":"住宅区","address":"墨玉路362弄"},{"poiid":"B2094757D06BA3F94992","title":"上海大众联合车身配件有限公司","lon":"121.17832","lat":"31.302069","category":"500","category_name":"未知分类","address":"上海塔山路1355号"},{"poiid":"B2094757D064ABFD4699","title":"迪欧咖啡 安亭店 DIO CAFE","lon":"121.15974841114","lat":"31.302033958359","category":"65","category_name":"咖啡厅","address":"嘉定区安亭镇和静路市民广场(和静路墨玉路)"},{"poiid":"B2094655D264A5FF419C","title":"大众汽车二厂食堂","lon":"121.18029","lat":"31.29506","category":"68","category_name":"快餐厅","address":"嘉定区昌吉路82号上海大众汽车二厂(近塔山路)"},{"poiid":"B2094654D46BA2FF4993","title":"上海同舟焊接厂(塔山路)","lon":"121.17829","lat":"31.30471","category":"263","category_name":"公司","address":"塔山路1385"},{"poiid":"B2094654D46BA2F8419F","title":"安亭大厦","lon":"121.16951379498","lat":"31.300258849613","category":"46","category_name":"楼宇","address":"墨玉路98弄1-2号"},{"poiid":"B2094757D064A7F94798","title":"新鹭大酒店中餐厅","lon":"121.17442","lat":"31.29482","category":"76","category_name":"上海菜","address":"嘉定区安亭镇昌吉路127号(近于田路)"},{"poiid":"B2094654D46BA2FF4992","title":"上海大众联合汽车改装有限公司","lon":"121.17963","lat":"31.30153","category":"263","category_name":"公司","address":"和静路338"},{"poiid":"B2094654D46BA0F8409F","title":"上海大众试车场","lon":"121.17945","lat":"31.31351","category":"158","category_name":"汽车销售","address":"园工路1199"},{"poiid":"B2094757D16FA6F4419A","title":"大众联合工业园","lon":"121.183680289","lat":"31.3113550594","category":"46","category_name":"楼宇","address":"上海市嘉定区安亭镇于塘路999号"},{"poiid":"B2094654DB64AAF84199","title":"安吉速驰物流中心","lon":"121.1772","lat":"31.30792","category":"248","category_name":"生活娱乐","address":"宝安公路5155号"},{"poiid":"B2094757D568ABF9489F","title":"上海国际汽车城创业园","lon":"121.17363498","lat":"31.29556288","category":"45","category_name":"产业园区","address":"中国上海市嘉定区昌吉路"},{"poiid":"B2094654D46BA2FF499E","title":"上海人造板机器厂有限公司","lon":"121.18077","lat":"31.30111","category":"263","category_name":"公司","address":"和静路299"},{"poiid":"B2094655D36CA5FA4298","title":"昌吉路米泉路","lon":"121.17488","lat":"31.29531","category":"38","category_name":"公交车站","address":""},{"poiid":"B2094655D26EA1FF4792","title":"上海大众技术中心","lon":"121.16782","lat":"31.29991","category":"191","category_name":"科研机构","address":"洛浦路58"},{"poiid":"B2094654DB65A2FA469E","title":"顾家宅","lon":"121.18368","lat":"31.30187","category":"47","category_name":"住宅区","address":""},{"poiid":"B2094757D164A0FB459F","title":"安亭 玉兰四村","lon":"121.165731289","lat":"31.2964780532","category":"500","category_name":"未知分类","address":"上海嘉定安亭玉兰四村"},{"poiid":"B2094757D06AABFE479C","title":"大众","lon":"121.168182","lat":"31.303021","category":"500","category_name":"未知分类","address":"上海洛浦路63号"},{"poiid":"B2094757D164A5FB419B","title":"大众汽车一厂北门班车","lon":"121.16726758","lat":"31.307224274","category":"500","category_name":"未知分类","address":"上海民丰路墨玉路"},{"poiid":"B2094655D36CA5FA429B","title":"昌吉路塔山路","lon":"121.17883","lat":"31.29531","category":"38","category_name":"公交车站","address":""},{"poiid":"B2094757D06BA2FC439A","title":"安亭镇党校","lon":"121.18690258","lat":"31.312513172","category":"253","category_name":"校园生活","address":"上海市嘉定区安亭镇于塘路885号"},{"poiid":"B2094757D16BA0FC4993","title":"上海安吉汽车零部件物流网络运输部","lon":"121.18018428","lat":"31.309879329","category":"500","category_name":"未知分类","address":"上海市嘉定区宝安公路"},{"poiid":"B2094654DB6AA5F5469E","title":"上海大众汽车有限公司(北门)","lon":"121.16734","lat":"31.3056","category":"263","category_name":"公司","address":"洛浦路109"},{"poiid":"B2094751D46BA1F84492","title":"上海嘉定安亭西上海安亭名邸小区","lon":"121.1723592","lat":"31.2968609","category":"500","category_name":"未知分类","address":"上海嘉定安亭汽车城"},{"poiid":"B2094655D26FA0FE4798","title":"上海新鹭大酒店","lon":"121.17416","lat":"31.29509","category":"215","category_name":"三星级宾馆","address":"嘉定区安亭镇安亭昌吉路127号"},{"poiid":"B2094757D66FA1F8459C","title":"汉宫姜母鸭馆","lon":"121.177023289","lat":"31.2953350297","category":"247","category_name":"餐饮美食","address":"上海米泉路近昌吉路"},{"poiid":"B2094757D16CA7FB4492","title":"上海大众联合发展有限公司总部","lon":"121.168795","lat":"31.297298","category":"500","category_name":"未知分类","address":"上海洛浦路17号"},{"poiid":"B2094655D26EA1F9429C","title":"鼎越花园酒家","lon":"121.16474","lat":"31.30105","category":"70","category_name":"综合酒楼","address":"安亭市民广场A座"},{"poiid":"B2094654DB64A4F44493","title":"新鹭休闲会所","lon":"121.17452","lat":"31.29507","category":"170","category_name":"KTV","address":"昌吉路127"},{"poiid":"B2094757D16BA5F5449B","title":"上海金泰工程机械有限公司","lon":"121.16791323","lat":"31.300489285","category":"500","category_name":"未知分类","address":"上海洛浦路45号"},{"poiid":"B2094654D46BA0F94692","title":"龙安佳苑","lon":"121.16524","lat":"31.295946","category":"47","category_name":"住宅区","address":"上海市嘉定区昌吉路1682弄"},{"poiid":"B2094757D169A5FE469C","title":"和静路汽车站","lon":"121.165102","lat":"31.301123","category":"35","category_name":"长途汽车站","address":"上海安亭镇和静路"},{"poiid":"B2094654DB6AA5F5459D","title":"上海大众汽车二厂(一号门)","lon":"121.17838","lat":"31.29571","category":"263","category_name":"公司","address":"昌吉路82"},{"poiid":"B2094757D66BA7FD449F","title":"吉阿婆麻辣烫 安亭店","lon":"121.162955054","lat":"31.306447793","category":"76","category_name":"上海菜","address":"嘉定区安亭镇民丰路568号世纪联华底楼(墨玉路口)"},{"poiid":"B2094757D069ABF94192","title":"梅园四区","lon":"121.177470289","lat":"31.3111763557","category":"252","category_name":"楼宇机构","address":"上海宝安公路5350弄"},{"poiid":"B2094654D46BA2FF4793","title":"上海大众汽车有限公司发动机二厂","lon":"121.18029","lat":"31.29507","category":"263","category_name":"公司","address":"昌吉路81"},{"poiid":"B2094757D064A5F84098","title":"上海汽车工业安亭室内库","lon":"121.176942289","lat":"31.3111963561","category":"500","category_name":"未知分类","address":"上海恒裕路517号"},{"poiid":"B2094654D46BA0F94292","title":"泰宸舒庭","lon":"121.16255","lat":"31.299047","category":"47","category_name":"住宅区","address":"上海市嘉定区墨玉路350号"},{"poiid":"B2094654D46BA1FA409A","title":"玉兰四村","lon":"121.16485","lat":"31.297699","category":"47","category_name":"住宅区","address":"阜康西路9弄"},{"poiid":"B2094654D46BA2FF459B","title":"上海圣德曼铸造有限公司(星城酒店西北)","lon":"121.17464","lat":"31.29547","category":"263","category_name":"公司","address":"昌吉路120"},{"poiid":"B2094654DB6AA5F54698","title":"上海安亭汽车配件仓库","lon":"121.16708","lat":"31.30614","category":"263","category_name":"公司","address":"民丰路434"},{"poiid":"B2094751D26BAAF4439F","title":"佛吉亚排气控制技术上海有限公司","lon":"121.180295","lat":"31.310708","category":"263","category_name":"公司","address":"上海市嘉定区安亭镇园工路1099号"},{"poiid":"B2094655D26EA1F84193","title":"安亭镇文体信息传媒中心办公楼","lon":"121.16476","lat":"31.29702","category":"46","category_name":"楼宇","address":"墨玉路155"},{"poiid":"B2094757D06AA3FB449D","title":"墨玉路492号","lon":"121.165065","lat":"31.310509","category":"46","category_name":"楼宇","address":"上海德尔福派克电气系统有限公司墨玉厂"},{"poiid":"B2094654DB69A6F44292","title":"歌顿咖啡 安亭镇店","lon":"121.174036054","lat":"31.295676793","category":"260","category_name":"其他","address":"嘉定区昌吉路127号"},{"poiid":"B2094654DB64A7FB419D","title":"上海安亭建筑工程有限公司","lon":"121.16669","lat":"31.30616","category":"263","category_name":"公司","address":"民丰路448号"},{"poiid":"B2094654D46BA1FA4098","title":"安亭苑大厦","lon":"121.16386","lat":"31.29784","category":"46","category_name":"楼宇","address":"墨玉路185号"},{"poiid":"B2094750D16AA6FC4492","title":"永乐生活电器(安亭店)","lon":"121.163169","lat":"31.299047","category":"119","category_name":"商场","address":"嘉定区墨玉路328号"},{"poiid":"B2094757D164A1FB429F","title":"阿国饭店","lon":"121.175922289","lat":"31.2912679461","category":"257","category_name":"中餐厅","address":"嘉定区安亭镇米泉路(昌吉路米泉路)"},{"poiid":"B2094654D46BA0FB439F","title":"中国移动墨玉路营业厅","lon":"121.16358","lat":"31.29771","category":"151","category_name":"电讯营业厅","address":"墨玉路181"},{"poiid":"B2094757D164A2F8479B","title":"安亭镇文体信息传媒中心","lon":"121.16477","lat":"31.29658","category":"179","category_name":"音乐厅","address":"上海近郊嘉定区墨玉路155号(近市民广场)  "},{"poiid":"B2094654DB64AAFE4899","title":"峰达一库","lon":"121.18476","lat":"31.3011","category":"263","category_name":"公司","address":"和静路75"},{"poiid":"B2094654D46BA2F44892","title":"紫荆四村","lon":"121.16484","lat":"31.29204","category":"47","category_name":"住宅区","address":"墨玉路63弄"},{"poiid":"B2094757D16CA7FC499F","title":"上海大众发动机一厂活动中心","lon":"121.18888132","lat":"31.299106574","category":"500","category_name":"未知分类","address":"上海于田路昌吉路"},{"poiid":"B2094654DB6AA4FD489A","title":"好德No.348","lon":"121.16286","lat":"31.2999","category":"117","category_name":"便民商店/便利店","address":"墨玉路364号"},{"poiid":"B2094655D36CA5FA4299","title":"昌吉路墨玉路","lon":"121.16257","lat":"31.29524","category":"38","category_name":"公交车站","address":""},{"poiid":"B2094654DB6AA4FC479D","title":"阿里巴巴土耳其敦娜烤肉安亭店","lon":"121.16709","lat":"31.29507","category":"94","category_name":"西餐厅","address":"嘉定区安亭镇昌吉路157号(安亭幼儿园对面)"},{"poiid":"B2094654D46BA0F9479C","title":"建华美食厅","lon":"121.16004","lat":"31.29543","category":"68","category_name":"快餐厅","address":"嘉定区安亭镇昌吉路218号(老凤祥对面)"},{"poiid":"B2094654DB65A2F8409B","title":"上海国际汽车城人才培训学院","lon":"121.16438","lat":"31.30146","category":"190","category_name":"培训机构","address":"和静路986号世康大厦5层502"},{"poiid":"B2094654D46BA1FA4192","title":"玉兰饭店","lon":"121.16301","lat":"31.29725","category":"217","category_name":"旅馆招待所","address":"安亭镇墨玉路182号"},{"poiid":"B2094654DB69A7F84492","title":"中国联通上海公司安亭营业厅","lon":"121.16286","lat":"31.30002","category":"151","category_name":"电讯营业厅","address":"嘉定区安亭镇墨玉路370号"},{"poiid":"B2094757D165A6F54593","title":"上海市嘉定区安亭镇镇政府","lon":"121.17084682","lat":"31.2924235148","category":"500","category_name":"未知分类","address":"上海墨玉路79号"},{"poiid":"B2094757D165A4FE409F","title":"大众试车场","lon":"121.163161389","lat":"31.3029872872","category":"163","category_name":"4S店","address":"上海嘉定区安亭镇保安公路"},{"poiid":"B2094757D16EA0FB459F","title":"中国农业银行(安亭支行)","lon":"121.163811389","lat":"31.2949051209","category":"150","category_name":"银行","address":"嘉定区安亭镇昌吉路187号(昌吉路墨玉路)"},{"poiid":"B2094654DB64ABFA469C","title":"悦华物流","lon":"121.18405","lat":"31.2986","category":"248","category_name":"生活娱乐","address":"阜康路100号"},{"poiid":"B2094655D26BA1F94393","title":"民丰路墨玉路","lon":"121.16152","lat":"31.30604","category":"38","category_name":"公交车站","address":""},{"poiid":"B2094654DB69A6FC449E","title":"嘉定区第五税务所(原安亭税务所)","lon":"121.16291","lat":"31.29344","category":"250","category_name":"公园户外","address":"嘉定区安亭镇墨玉路"},{"poiid":"B2094655D264A1F44199","title":"玉兰四村(北一门)","lon":"121.16519","lat":"31.29663","category":"47","category_name":"住宅区","address":""},{"poiid":"B2094654DB64A5FB4899","title":"领迅电线工业(上海)有限公司","lon":"121.16911","lat":"31.29616","category":"263","category_name":"公司","address":"安亭镇洛浦路5弄12号"},{"poiid":"B2094655D26BA1F84799","title":"墨玉北路宝安公路","lon":"121.16617","lat":"31.31382","category":"38","category_name":"公交车站","address":""},{"poiid":"B2094654DB64A6F8419E","title":"华勋假日旅馆安亭店","lon":"121.16359","lat":"31.29724","category":"216","category_name":"经济型连锁酒店","address":"嘉定区墨玉路169号(近安亭地铁站)"},{"poiid":"B2094654D46BA2FF4898","title":"安亭影剧院","lon":"121.1645","lat":"31.29566","category":"178","category_name":"电影院","address":""},{"poiid":"B2094654D46BA0FB439E","title":"名角女士生活馆(墨玉路)","lon":"121.1636","lat":"31.29739","category":"148","category_name":"美容美发店","address":"墨玉路173"},{"poiid":"B2094654DB6AA5F5489E","title":"上海大众汽车有限公司发动机一厂(2号门)","lon":"121.1869","lat":"31.29654","category":"263","category_name":"公司","address":"安亭镇"},{"poiid":"B2094654DB64AAFF499E","title":"佛吉亚(上海)座椅部件有限公司","lon":"121.1865","lat":"31.30983","category":"263","category_name":"公司","address":"园亭路58"},{"poiid":"B2094757D169AAFE4792","title":"安亭派出所","lon":"121.1661509","lat":"31.3137113","category":"609","category_name":"警察局","address":"上海市嘉定区安亭镇墨玉北路211号(近宝安公路)"},{"poiid":"B2094654DB6AA4FC4793","title":"永琪美容美发","lon":"121.1635","lat":"31.29631","category":"148","category_name":"美容美发店","address":"安亭镇"},{"poiid":"B2094757D164A6FA4892","title":"塔山路","lon":"121.181251389","lat":"31.2940459032","category":"500","category_name":"未知分类","address":"上海大众二厂对面"},{"poiid":"B2094757D16CA4FA459A","title":"戴美克斯健身","lon":"121.16296828","lat":"31.306218253","category":"500","category_name":"未知分类","address":"上海市嘉定区墨玉路"},{"poiid":"B2094757D065A1F44399","title":"安亭汽车站","lon":"121.163819873","lat":"31.2907305088","category":"35","category_name":"长途汽车站","address":"上海墨玉路泽浦路"},{"poiid":"B2094655D265A7FF4392","title":"申雅密封件有限公司安亭仓库(2)","lon":"121.18523","lat":"31.29827","category":"263","category_name":"公司","address":""},{"poiid":"B2094757D169A1F8429B","title":"昆山花桥","lon":"121.16220948","lat":"31.304642221","category":"500","category_name":"未知分类","address":"上海麦当劳(易买得店)"},{"poiid":"B2094654D46BA2F44899","title":"紫荆一村","lon":"121.16667","lat":"31.29117","category":"47","category_name":"住宅区","address":"嘉定泽普路99号"},{"poiid":"B2094757D16DA2FC479C","title":"玉兰一村","lon":"121.16216","lat":"31.296793","category":"500","category_name":"未知分类","address":"上海市安亭镇墨玉路164弄"},{"poiid":"B2094654DB6AA4FD4899","title":"快客NO.5042","lon":"121.16301","lat":"31.2968","category":"117","category_name":"便民商店/便利店","address":"墨玉路166"},{"poiid":"B2094654DB6AA4FD489B","title":"文峰美发美容墨玉店","lon":"121.16301","lat":"31.29701","category":"148","category_name":"美容美发店","address":""},{"poiid":"B2094655D26EABF9409D","title":"安吉天地汽车物流有限公司(米泉路)","lon":"121.17559","lat":"31.29319","category":"248","category_name":"生活娱乐","address":"米泉路258"},{"poiid":"B2094654DB64A4FB429C","title":"小阿王美容美发","lon":"121.16361","lat":"31.29709","category":"148","category_name":"美容美发店","address":"墨玉路165"},{"poiid":"B2094655D36DA0F4499D","title":"于塘路宝安公路","lon":"121.18824","lat":"31.31203","category":"38","category_name":"公交车站","address":""},{"poiid":"B2094757D16AA5FE489F","title":"湘村人家","lon":"121.16262817","lat":"31.296991348","category":"247","category_name":"餐饮美食","address":"上海嘉定区安亭镇新源路590号"},{"poiid":"B2094654DB6AA5F5469D","title":"中国电信(安亭营业厅)","lon":"121.16352","lat":"31.295","category":"151","category_name":"电讯营业厅","address":"嘉定区安亭镇墨玉路181号"},{"poiid":"B2094654D46BA0FF4993","title":"上海顶锋金属制品有限公司","lon":"121.18405","lat":"31.31126","category":"263","category_name":"公司","address":"宝安公路5111"},{"poiid":"B2094655D26BA5FE409D","title":"紫荆三村","lon":"121.16631","lat":"31.291779","category":"47","category_name":"住宅区","address":"泽普路108弄1-38号"},{"poiid":"B2094750D268A2F54292","title":"嘉亭荟","lon":"121.163742","lat":"31.296543","category":"627","category_name":"一般地点标志","address":"曹安公路5588号"},{"poiid":"B2094654D46BA0FB4398","title":"安亭镇社区文化活动中心","lon":"121.16475","lat":"31.29702","category":"248","category_name":"生活娱乐","address":"墨玉路155"},{"poiid":"B2094654D46BA0FB4293","title":"中国联通安亭营业厅","lon":"121.16352","lat":"31.29484","category":"151","category_name":"电讯营业厅","address":"嘉定区安亭镇墨玉路83号(近昌吉路)"},{"poiid":"B2094750D164A1FA449A","title":"莫泰168连锁酒店上海安亭店","lon":"121.176073187424","lat":"31.2904958699429","category":"216","category_name":"经济型连锁酒店","address":"上海市嘉定区米泉路111号"},{"poiid":"B2094654DB6AA4FC429D","title":"玉兰一村(阜康路)","lon":"121.15985","lat":"31.29828","category":"47","category_name":"住宅区","address":""},{"poiid":"B2094655D26FA7FF489A","title":"芙蓉新村(东门)","lon":"121.16239","lat":"31.29366","category":"47","category_name":"住宅区","address":""},{"poiid":"B2094757D16BA3FA4693","title":"曼胡默尔","lon":"121.16198358","lat":"31.303473397","category":"500","category_name":"未知分类","address":"上海市嘉定区兴庆路168号"},{"poiid":"B2094655D26BA0FA4592","title":"上海大众汽车有限公司发动机一厂区","lon":"121.1871","lat":"31.29774","category":"263","category_name":"公司","address":"安亭镇"},{"poiid":"B2094757D164ABF54692","title":"上海大众经济城","lon":"121.16356228","lat":"31.297159067","category":"500","category_name":"未知分类","address":"上海市嘉定区墨玉路"},{"poiid":"B2094757D66FA7F9459A","title":"J的公司","lon":"121.18126278","lat":"31.294043903","category":"263","category_name":"公司","address":null},{"poiid":"B2094757D069A2FA429F","title":"圣驰大唐酒店","lon":"121.16487597","lat":"31.297091721","category":"217","category_name":"旅馆招待所","address":"上海闸北区万荣路949号(永和路口)"},{"poiid":"B2094757D16BA1F94792","title":"施乐出租车公司","lon":"121.164368","lat":"31.310582","category":"500","category_name":"未知分类","address":"上海墨玉北路88号"},{"poiid":"B2094757DA64A1F54093","title":"上海沁乐时尚广场","lon":"121.159458","lat":"31.306678","category":"252","category_name":"楼宇机构","address":"嘉定安亭民丰路806号"},{"poiid":"B2094654DB64AAFF4098","title":"上海安亭工业经济发展有限公司","lon":"121.16386","lat":"31.29784","category":"263","category_name":"公司","address":"墨玉路185号安亭苑大厦14层"},{"poiid":"B2094750DB65A1FF429B","title":"老盛昌","lon":"121.164916","lat":"31.292274","category":"247","category_name":"餐饮美食","address":"昌吉路"},{"poiid":"B2094757D568A7FB4098","title":"上海爱车族汽车服务有限公司","lon":"121.17606445","lat":"31.29234918","category":"159","category_name":"汽车维修","address":"米泉路225"},{"poiid":"B2094654D46BA0FA449D","title":"安吉天地汽车物流有限公司(上海汽车铸造总厂西南)","lon":"121.17056","lat":"31.29347","category":"248","category_name":"生活娱乐","address":""},{"poiid":"B2094654D46BA0FA459F","title":"上海大众祥云运输管理有限公司","lon":"121.18423","lat":"31.2951","category":"248","category_name":"生活娱乐","address":"昌吉路21"},{"poiid":"B2094654D46BA2FF489B","title":"安亭文化馆","lon":"121.16443","lat":"31.29567","category":"188","category_name":"文化宫","address":""},{"poiid":"B2094654DB64ABF5469E","title":"上海大众经济城发展中心","lon":"121.16385","lat":"31.29784","category":"263","category_name":"公司","address":"墨玉路185号安亭苑大厦"},{"poiid":"B2094654DB64AAFE459F","title":"安亭人民法庭","lon":"121.1667","lat":"31.31413","category":"252","category_name":"楼宇机构","address":"安亭镇墨玉北路245"},{"poiid":"B2094757D16DA7FE429B","title":"中国建设银行（安亭支行）","lon":"121.16444397","lat":"31.2952861786","category":"150","category_name":"银行","address":"上海市嘉定区安亭镇墨玉路28号"},{"poiid":"B2094654DB65A2FA409E","title":"快客NO.5065","lon":"121.16661","lat":"31.29171","category":"117","category_name":"便民商店/便利店","address":"泽普路108弄2号4室"},{"poiid":"B2094757D66DA2FA4999","title":"老街坊饭店","lon":"121.16256","lat":"31.29529","category":"247","category_name":"餐饮美食","address":"上海近郊嘉定区安亭镇安亭街758号(近新源路)  "},{"poiid":"B2094654D46BA2F44898","title":"紫荆二村","lon":"121.16512","lat":"31.290857","category":"47","category_name":"住宅区","address":"泽普路175弄"},{"poiid":"B2094655D264A7FF409E","title":"鼎中鼎澳门豆捞","lon":"121.16306","lat":"31.29088","category":"86","category_name":"火锅店","address":""},{"poiid":"B2094654D46BA1F94993","title":"上海新申房产建设发展有限公司","lon":"121.16418","lat":"31.2971","category":"263","category_name":"公司","address":"墨玉路157号"},{"poiid":"B2094757D16AA2FD419A","title":"安亭卡雨诗","lon":"121.16161018","lat":"31.299090407","category":"148","category_name":"美容美发店","address":"上海阜康路(近市民广场)"},{"poiid":"B2094654DB6AA4FD479B","title":"好德便利No.280","lon":"121.16174","lat":"31.29504","category":"117","category_name":"便民商店/便利店","address":"昌吉路205号"},{"poiid":"B2094757D66CA3FC4293","title":"深圳发展银行(安亭支行)","lon":"121.16356","lat":"31.29659","category":"150","category_name":"银行","address":"上海近郊嘉定墨玉路159号  "},{"poiid":"B2094757D16AA7F9479F","title":"久斯撞球俱乐部(安亭店)","lon":"121.166977289","lat":"31.2935159923","category":"500","category_name":"未知分类","address":"上海市嘉定区墨玉路80号2楼"},{"poiid":"B2094757D06AA2FE419E","title":"安亭第五税务所","lon":"121.163701","lat":"31.29396","category":"500","category_name":"未知分类","address":"上海安亭镇墨玉路"},{"poiid":"B2094654DB6AA4FD489E","title":"交通银行上海安亭支行","lon":"121.16302","lat":"31.29658","category":"150","category_name":"银行","address":"嘉定区安亭镇新源路818号底楼(和静路新源路)"},{"poiid":"B2094654DB6AA5F5449C","title":"大众宾馆","lon":"121.16291","lat":"31.29571","category":"215","category_name":"三星级宾馆","address":"嘉定区安亭镇昌吉路188号"},{"poiid":"B2094655D26FA7FA419B","title":"紫荆四村(东门)","lon":"121.16619","lat":"31.2917","category":"47","category_name":"住宅区","address":"泽普路108弄"},{"poiid":"B2094655D26FA6FF419B","title":"华联超市(安亭店)","lon":"121.16307","lat":"31.29425","category":"118","category_name":"超级市场","address":"嘉定区安亭镇墨玉路88号(安亭镇政府对面)"},{"poiid":"B2094655D26BA7F9479C","title":"紫荆三村(南门)","lon":"121.1664","lat":"31.2917","category":"47","category_name":"住宅区","address":"泽普路108弄1-38号"},{"poiid":"B2094655D26EA7FB4199","title":"玉兰水仙小区","lon":"121.15965","lat":"31.295731","category":"47","category_name":"住宅区","address":"昌吉路222弄"},{"poiid":"B2094757D16AA3FD4292","title":"上海大学嘉定校区学习中心","lon":"121.15993648","lat":"31.299910023","category":"500","category_name":"未知分类","address":"上海城中路20号校园内文荟广场"},{"poiid":"B2094757D66DABFF4293","title":"紫荆小学","lon":"121.17127048","lat":"31.288591791","category":"56","category_name":"小学","address":"上海市嘉定区安亭镇泽普路"},{"poiid":"B2094757D66DA2F54298","title":"上海银行(安亭支行)","lon":"121.163825289","lat":"31.2947630179","category":"150","category_name":"银行","address":"嘉定区墨玉路161号"},{"poiid":"B2094757D16AA3F9449E","title":"家得利安亭店","lon":"121.16303253","lat":"31.296287536","category":"500","category_name":"未知分类","address":"上海嘉定区安亭镇墨玉路158号"},{"poiid":"B2094757D16CA7FD469D","title":"延锋彼欧汽车外饰系统有限公司","lon":"121.158799789","lat":"31.3041883119","category":"263","category_name":"公司","address":"上海墨玉路540号"},{"poiid":"B2094757D16AA1FB4692","title":"克莉丝汀(墨玉路店)","lon":"121.16384","lat":"31.29516","category":"500","category_name":"未知分类","address":"上海近郊嘉定区安亭镇墨玉路158号(近昌吉路)  "},{"poiid":"B2094655D26FA3FA4292","title":"好德便利No.672","lon":"121.16448","lat":"31.29172","category":"117","category_name":"便民商店/便利店","address":"泽普路200-2号"},{"poiid":"B2094655D26EA1FE4893","title":"闽甜墨玉路店","lon":"121.16357","lat":"31.29266","category":"112","category_name":"糕饼店","address":"嘉定区墨玉路61号(墨玉路泽普路)"},{"poiid":"B2094654D46BA2F5439C","title":"竹轩盲人保健按摩厅","lon":"121.16006","lat":"31.29864","category":"149","category_name":"洗浴推拿场所","address":"阜康西路72"},{"poiid":"B2094757D66EA1FF4398","title":"上海国际汽车城发展有限公司","lon":"121.178594","lat":"31.289554","category":"500","category_name":"未知分类","address":"上海安亭镇安驰路569号"},{"poiid":"B2094757D168A1FC419C","title":"建华面馆","lon":"121.182495289","lat":"31.2896199122","category":"247","category_name":"餐饮美食","address":"上海近郊嘉定区安亭镇昌吉路  "},{"poiid":"B2094655D26BA4F8489D","title":"克莉丝汀","lon":"121.16316","lat":"31.29214","category":"112","category_name":"糕饼店","address":"浦东新区城基路154号(近西门大街)"},{"poiid":"B2094654DB69A7FF449A","title":"嘉定区安亭税务所","lon":"121.16301","lat":"31.29348","category":"250","category_name":"公园户外","address":"嘉定区安亭镇墨玉路"},{"poiid":"B2094654DB6AA4FD4693","title":"永乐生活电器昌吉店","lon":"121.16096","lat":"31.29504","category":"138","category_name":"家电电子卖场","address":""},{"poiid":"B2094654D46BA0FB4199","title":"上海市地方税务局嘉定区分局第五税务所","lon":"121.16313","lat":"31.29315","category":"250","category_name":"公园户外","address":""},{"poiid":"B2094655D26BA5FA4893","title":"紫荆二村(北门)","lon":"121.16512","lat":"31.29128","category":"47","category_name":"住宅区","address":"泽普路175弄5-66号"},{"poiid":"B2094654D46BA2FF489F","title":"新华书店(昌吉路)","lon":"121.1613","lat":"31.29505","category":"125","category_name":"书店","address":""},{"poiid":"B2094654D46BA2F8419D","title":"安亭工商所","lon":"121.1631","lat":"31.29362","category":"250","category_name":"公园户外","address":"墨玉路78"},{"poiid":"B2094655D36DA1FF419E","title":"塔山路桥","lon":"121.17808","lat":"31.28892","category":"250","category_name":"公园户外","address":""},{"poiid":"B2094655D26FA3F9459D","title":"宫宵公寓","lon":"121.16239","lat":"31.292463","category":"47","category_name":"住宅区","address":"泽普路292弄1-6号"},{"poiid":"B2094757D065A7FB499D","title":"大众宾馆食堂","lon":"121.16291809","lat":"31.295400619","category":"217","category_name":"旅馆招待所","address":"上海市嘉定区安亭镇昌吉路188号2号楼2F"},{"poiid":"B2094654D46BA2FF489D","title":"中国农业银行嘉定区安亭支行","lon":"121.16284","lat":"31.29506","category":"150","category_name":"银行","address":"昌吉路185"},{"poiid":"B2094654DB6AA5F5479B","title":"中国工商银行","lon":"121.16308","lat":"31.29391","category":"150","category_name":"银行","address":""},{"poiid":"B2094757D569A7FA4499","title":"夜莺KTV(昌吉路)","lon":"121.16049072","lat":"31.29498481","category":"170","category_name":"KTV","address":"中国上海市嘉定区昌吉路"},{"poiid":"B2094654DB6AA4FD439C","title":"安亭汽车站进口处","lon":"121.16355","lat":"31.29092","category":"35","category_name":"长途汽车站","address":""},{"poiid":"B2094757D66DA7F54599","title":"海伦小区食堂","lon":"121.17920628","lat":"31.288300885","category":"247","category_name":"餐饮美食","address":"上海市嘉定区嘉朱公路汇旺东路"},{"poiid":"B2094654D46BA0FB449E","title":"上海洋杰汽车部件厂","lon":"121.19027","lat":"31.30809","category":"263","category_name":"公司","address":"于塘路688号"},{"poiid":"B2094654D46BA0FB449F","title":"上海弘安汽车配件厂","lon":"121.18949","lat":"31.30977","category":"263","category_name":"公司","address":"于塘路818"},{"poiid":"B2094654DB64ABFE409D","title":"中国建设银行上海安亭支行","lon":"121.16357","lat":"31.29306","category":"150","category_name":"银行","address":"墨玉路65"},{"poiid":"B2094757D66DA2F9479C","title":"卡斯马汽车系统(上海)有限公司","lon":"121.189116","lat":"31.310706","category":"263","category_name":"公司","address":"上海嘉定区百安公路1501号"},{"poiid":"B2094654D46BA2F8419A","title":"安亭邮政支局","lon":"121.16355","lat":"31.2947","category":"248","category_name":"生活娱乐","address":"墨玉路83号"},{"poiid":"B2094655D264A7FB459C","title":"PINKY","lon":"121.16358","lat":"31.29217","category":"141","category_name":"服装鞋帽皮具店","address":""},{"poiid":"B2094757D16CA6FD479C","title":"泽普路墨玉路","lon":"121.164224","lat":"31.291712","category":"500","category_name":"未知分类","address":"上海泽普路墨玉路"},{"poiid":"B2094757D66EABF9419B","title":"玉蘭飯店","lon":"121.163605","lat":"31.290858","category":"247","category_name":"餐饮美食","address":"上海嘉定安亭墨玉路"},{"poiid":"B2094654DB69ABFE4493","title":"农工商超市(安亭店)","lon":"121.16305","lat":"31.29121","category":"118","category_name":"超级市场","address":"嘉定区安亭镇墨玉路50号"},{"poiid":"B2094757D568ABF5419C","title":"宝岛眼镜(昌吉路)","lon":"121.16149848","lat":"31.29506917","category":"132","category_name":"眼镜店","address":"中国上海市嘉定区昌吉路"},{"poiid":"B2094757D569A3F9499B","title":"新华书店安亭店","lon":"121.1601789","lat":"31.29504889","category":"125","category_name":"书店","address":"嘉定区昌吉路225号"},{"poiid":"B2094757D165A0FC459F","title":"陆安专线高速","lon":"121.164552689","lat":"31.291652654","category":"500","category_name":"未知分类","address":"上海市"},{"poiid":"B2094654D46BA0FB449A","title":"上海安吉迅达汽车运输有限公司","lon":"121.18699","lat":"31.31415","category":"248","category_name":"生活娱乐","address":"于塘路899"},{"poiid":"B2094757D06BAAFE419C","title":"沈坚强游泳俱乐部(嘉定店)","lon":"121.16339618","lat":"31.291316547","category":"220","category_name":"运动场所","address":"上海嘉定区新成路118号"},{"poiid":"B2094654D46BA0FF4992","title":"礼恩派(上海)机械技术有限公司","lon":"121.19102","lat":"31.30953","category":"263","category_name":"公司","address":"园业路186"},{"poiid":"B2094655D26FA0F9479D","title":"玉兰一村(南门)","lon":"121.16319","lat":"31.29614","category":"656","category_name":"大门","address":"墨玉路154弄"},{"poiid":"B2094757D568A0F4439E","title":"梅园二区别墅(南一门)","lon":"121.1729069","lat":"31.32093343","category":"47","category_name":"住宅区","address":"中国上海市嘉定区园际路"},{"poiid":"B2094654DB65A2F8499E","title":"玉兰一村(北门)(阜康路)","lon":"121.16119","lat":"31.29833","category":"656","category_name":"大门","address":""},{"poiid":"B209475CDA68A7FD4992","title":"同济大学嘉定校区","lon":"121.167358","lat":"31.288404","category":"500","category_name":"未知分类","address":"上海市 上海市嘉定区曹安公路4800号"},{"poiid":"B2094757D568A5F4439F","title":"晟峰宾馆","lon":"121.16268826","lat":"31.29483371","category":"251","category_name":"出行住宿","address":"中国上海市嘉定区昌吉路"},{"poiid":"B2094654D46BA2FF479E","title":"上海大众汽车安亭销售服务有限公司","lon":"121.16484","lat":"31.28935","category":"159","category_name":"汽车维修","address":"嘉定区安亭曹安路5548号"},{"poiid":"B2094654D46BA0FB4599","title":"上海博泽汽车部件有限公司","lon":"121.17816","lat":"31.2866","category":"263","category_name":"公司","address":"塔山路585"}]