[{"poiid":"B2094655D36CA4FD4792","title":"安亭地铁站","lon":"121.16349","lat":"31.28808","category":"36","category_name":"地铁站","address":""},{"poiid":"B2094757DA68A1F8449F","title":"汉泰东南亚风味餐厅(安亭店)","lon":"121.16259098052979","lat":"31.28860002389548","category":"99","category_name":"泰国／越南菜品餐厅","address":"嘉定区墨玉南路1055号嘉亭荟城市生活广场401-403铺"},{"poiid":"B2094654D46BA0FF4899","title":"上海国际汽车城大厦","lon":"121.172","lat":"31.2875","category":"46","category_name":"楼宇","address":"上海市嘉定区安亭镇墨玉南路888号"},{"poiid":"B2094757D06FA0FD4498","title":"上海大众汽车三厂","lon":"121.18375172","lat":"31.2878409011","category":"46","category_name":"楼宇","address":"上海嘉定区曹安公路5288号"},{"poiid":"B2094757D06FA3F4409B","title":"上海大众汽车有限公司","lon":"121.16294097","lat":"31.295793533","category":"46","category_name":"楼宇","address":"上海安亭镇昌吉路188号"},{"poiid":"B2094655D36DA6FC4898","title":"安亭","lon":"121.16234","lat":"31.28835","category":"38","category_name":"公交车站","address":""},{"poiid":"B2094757D068A2F4479D","title":"新词大酒店","lon":"121.16370824551","lat":"31.291529215577","category":"76","category_name":"上海菜","address":"嘉定区墨玉路29号(近曹安路)"},{"poiid":"B2094757D06AA4F44193","title":"上海大众汽车一厂","lon":"121.168218289","lat":"31.3003356326","category":"500","category_name":"未知分类","address":"上海嘉定区安亭镇洛浦路63号"},{"poiid":"B2094750D26EABF8489E","title":"星巴克 (嘉亭荟店) STARBUCKS COFFEE","lon":"121.1633617","lat":"31.2886961","category":"260","category_name":"其他","address":"嘉定区墨玉南路1055号嘉亭荟生活广场内(近曹安公路)"},{"poiid":"B2094757D06FA1FA479C","title":"上海大众汽车","lon":"121.167815","lat":"31.299914","category":"500","category_name":"未知分类","address":"徐汇区安亭洛浦路63号"},{"poiid":"B2094655D36CA4FD469C","title":"安亭镇","lon":"121.16529","lat":"31.29153","category":"38","category_name":"公交车站","address":""},{"poiid":"B2094654DB65A0F4409F","title":"上海大众汽车二厂","lon":"121.17913","lat":"31.29665","category":"263","category_name":"公司","address":"昌吉路82"},{"poiid":"B2094757D06FA7FF499B","title":"上海汽车城地铁站","lon":"121.18055783","lat":"31.285682395","category":"36","category_name":"地铁站","address":"上海轨道交通 十一号线 轨交上海汽车城站 11"},{"poiid":"B2094750D769A3FB459E","title":"鲜芋仙(嘉亭荟店)","lon":"121.163","lat":"31.2882","category":"67","category_name":"甜品店","address":"嘉定区墨玉南路1055号嘉亭荟城市生活广场2楼"},{"poiid":"B2094757D068A6FE439D","title":"安亭市民广场","lon":"121.16414","lat":"31.29896","category":"250","category_name":"公园户外","address":"嘉定区安亭镇墨玉路(近和静路)"},{"poiid":"B2094757DB68A5F4459A","title":"必胜客(上海嘉葶荟店)","lon":"121.1633834","lat":"31.2886966","category":"94","category_name":"西餐厅","address":"嘉定区墨玉南路1055号嘉亭荟城市生活广场2楼220号铺、223号铺(近地铁11号线安亭站)"},{"poiid":"B2094757D16FABF8429D","title":"澳门豆捞坊","lon":"121.1636","lat":"31.29124","category":"86","category_name":"火锅店","address":"嘉定区墨玉南路1055号嘉亭荟城市生活广场2A412号铺(近安亭地铁站)"},{"poiid":"B2094750D76FAAFC4899","title":"哈根达斯(嘉亭荟店)","lon":"121.163","lat":"31.2882","category":"113","category_name":"冷饮店","address":"嘉定区墨玉南路1055号嘉亭荟城市生活广场1楼"},{"poiid":"B2094751D269A2F44399","title":"CGV国际影城(安亭店)","lon":"121.16231133862311","lat":"31.288998117584235","category":"178","category_name":"电影院","address":"嘉定区墨玉南路1055号嘉亭荟城市生活广场3楼305号(近11号线安亭汽车城站)"},{"poiid":"B2094654DB65A3FE4399","title":"嘉正国际","lon":"121.16289","lat":"31.28977","category":"46","category_name":"楼宇","address":"嘉定区墨玉路28号"},{"poiid":"B2094750D76FA7FA4393","title":"望湘园(安亭店)","lon":"121.163","lat":"31.2882","category":"77","category_name":"湖南菜","address":"嘉定区墨玉南路1055号嘉亭荟广场3楼"},{"poiid":"B2094750D76DA5FB409A","title":"吉旺港式茶餐厅(嘉亭荟店)","lon":"121.163","lat":"31.2882","category":"72","category_name":"广东菜","address":"嘉定区墨玉南路1055号嘉亭荟生活广场2号A区4楼410-411号铺(近11号线安亭汽车城站)"},{"poiid":"B2094757DB68A4F8469C","title":"小南国 嘉亭荟店","lon":"121.1633834","lat":"31.2886966","category":"76","category_name":"上海菜","address":"嘉定区墨玉南路1055号嘉亭荟生活广场2楼(近地铁11号线安亭站)"},{"poiid":"B2094757DA68A1F84499","title":"Costa Coffee(安亭店)","lon":"121.16276264190674","lat":"31.288545013134225","category":"65","category_name":"咖啡厅","address":"嘉定区墨玉南路1055号嘉亭荟城市生活广场2楼202号铺(近11号线安亭汽车城站)"},{"poiid":"B2094750D26CA6FD459F","title":"避风塘 嘉亭荟","lon":"121.1633834","lat":"31.2886966","category":"72","category_name":"广东菜","address":"嘉定区墨玉南路1055弄嘉亭荟生活广场1楼111号铺(近11号线安亭汽车城站)"},{"poiid":"B2094750D76FAAFD4999","title":"PANKOO釜山料理(嘉亭荟店)","lon":"121.163","lat":"31.2882","category":"96","category_name":"韩国料理","address":"嘉定区墨玉南路1055号嘉亭荟生活广场3楼328-329号铺(近11号线安亭汽车城站)"},{"poiid":"B2094750D26CABFF439E","title":"伊秀手握寿司 嘉亭荟店","lon":"121.1633834","lat":"31.2886966","category":"95","category_name":"日本料理","address":"嘉定区墨玉南路1055号嘉亭荟城市生活广场3楼(近安亭地铁站)"},{"poiid":"B2094750DA6FA1FD4698","title":"一茶一坐（安亭店）","lon":"121.16338","lat":"31.28871","category":"91","category_name":"台湾菜","address":"嘉定区墨玉南路1055号嘉亭荟城市生活广场1楼122号铺(近11号线安亭汽车城站)"},{"poiid":"B2094757D064A7F94798","title":"新鹭大酒店中餐厅","lon":"121.17442","lat":"31.29482","category":"76","category_name":"上海菜","address":"嘉定区安亭镇昌吉路127号(近于田路)"},{"poiid":"B2094750D768A1FC419A","title":"赤坂亭(嘉亭荟店)","lon":"121.163","lat":"31.2882","category":"269","category_name":"烧烤","address":"嘉定区墨玉南路1055号嘉亭荟城市生活广场3楼331号铺(近安亭汽车城地铁站)"},{"poiid":"B2094757D164A1FB429F","title":"阿国饭店","lon":"121.175922289","lat":"31.2912679461","category":"257","category_name":"中餐厅","address":"嘉定区安亭镇米泉路(昌吉路米泉路)"},{"poiid":"B2094757D165A6F54593","title":"上海市嘉定区安亭镇镇政府","lon":"121.17084682","lat":"31.2924235148","category":"500","category_name":"未知分类","address":"上海墨玉路79号"},{"poiid":"B2094757D064A3F94299","title":"上海大众二厂","lon":"121.181262789","lat":"31.2940439032","category":"500","category_name":"未知分类","address":"上海昌吉路81号"},{"poiid":"B2094757D06AA4FF4193","title":"上岛咖啡(安亭店)","lon":"121.16403","lat":"31.28938","category":"260","category_name":"其他","address":"嘉定区安亭镇墨玉路29号(近曹安路)"},{"poiid":"B2094757D568ABF9489F","title":"上海国际汽车城创业园","lon":"121.17363498","lat":"31.29556288","category":"45","category_name":"产业园区","address":"中国上海市嘉定区昌吉路"},{"poiid":"B2094655D26FA0FE4798","title":"上海新鹭大酒店","lon":"121.17416","lat":"31.29509","category":"215","category_name":"三星级宾馆","address":"嘉定区安亭镇安亭昌吉路127号"},{"poiid":"B2094655D36CA5FA4298","title":"昌吉路米泉路","lon":"121.17488","lat":"31.29531","category":"38","category_name":"公交车站","address":""},{"poiid":"B2094654DB6AA5F54492","title":"肯德基 昌吉路店 KFC","lon":"121.164513054","lat":"31.295557793","category":"68","category_name":"快餐厅","address":"嘉定区昌吉路188号(近墨玉路)"},{"poiid":"B2094654D46BA0F8469A","title":"芙蓉新村一街坊","lon":"121.168","lat":"31.2975","category":"47","category_name":"住宅区","address":"泽普路316弄"},{"poiid":"B2094654DB64A4F44493","title":"新鹭休闲会所","lon":"121.17452","lat":"31.29507","category":"170","category_name":"KTV","address":"昌吉路127"},{"poiid":"B2094750D164A1FA449A","title":"莫泰168连锁酒店上海安亭店","lon":"121.176073187424","lat":"31.2904958699429","category":"216","category_name":"经济型连锁酒店","address":"上海市嘉定区米泉路111号"},{"poiid":"B2094655D26EABF9409D","title":"安吉天地汽车物流有限公司(米泉路)","lon":"121.17559","lat":"31.29319","category":"248","category_name":"生活娱乐","address":"米泉路258"},{"poiid":"B2094750D26FA6F8469D","title":"旺池 安亭店","lon":"121.1633617","lat":"31.2886961","category":"71","category_name":"四川菜","address":"嘉定区墨玉南路1055号嘉亭荟广场4楼"},{"poiid":"B2094655D264A5FF419C","title":"大众汽车二厂食堂","lon":"121.18029","lat":"31.29506","category":"68","category_name":"快餐厅","address":"嘉定区昌吉路82号上海大众汽车二厂(近塔山路)"},{"poiid":"B2094654DB69A6F44292","title":"歌顿咖啡 安亭镇店","lon":"121.174036054","lat":"31.295676793","category":"260","category_name":"其他","address":"嘉定区昌吉路127号"},{"poiid":"B2094750D76DAAF44998","title":"新石器烤肉(嘉亭荟店)","lon":"121.163","lat":"31.2882","category":"68","category_name":"快餐厅","address":"嘉定区墨玉南路1055号嘉亭荟生活广场1楼142号商铺(近曹安公路)"},{"poiid":"B2094757D568A7FB4098","title":"上海爱车族汽车服务有限公司","lon":"121.17606445","lat":"31.29234918","category":"159","category_name":"汽车维修","address":"米泉路225"},{"poiid":"B2094757D66DABFF4293","title":"紫荆小学","lon":"121.17127048","lat":"31.288591791","category":"56","category_name":"小学","address":"上海市嘉定区安亭镇泽普路"},{"poiid":"B2094750D664A5F44898","title":"大家乐(嘉亭荟店)","lon":"121.163","lat":"31.2887","category":"68","category_name":"快餐厅","address":"嘉定区墨玉南路1055弄嘉亭荟生活广场1楼138-139号商铺(近曹安公路)"},{"poiid":"B2094654D46BA2FF459B","title":"上海圣德曼铸造有限公司(星城酒店西北)","lon":"121.17464","lat":"31.29547","category":"263","category_name":"公司","address":"昌吉路120"},{"poiid":"B2094757D66FA1F8459C","title":"汉宫姜母鸭馆","lon":"121.177023289","lat":"31.2953350297","category":"247","category_name":"餐饮美食","address":"上海米泉路近昌吉路"},{"poiid":"B2094654D46BA0FA449D","title":"安吉天地汽车物流有限公司(上海汽车铸造总厂西南)","lon":"121.17056","lat":"31.29347","category":"248","category_name":"生活娱乐","address":""},{"poiid":"B2094654D46BA2F44899","title":"紫荆一村","lon":"121.16667","lat":"31.29117","category":"47","category_name":"住宅区","address":"嘉定泽普路99号"},{"poiid":"B2094750D768A3FA4092","title":"唐之韵大酒店","lon":"121.163","lat":"31.2902","category":"76","category_name":"上海菜","address":"嘉定区安亭镇墨玉路28号(近11号地铁)"},{"poiid":"B2094655D36CA5FA429B","title":"昌吉路塔山路","lon":"121.17883","lat":"31.29531","category":"38","category_name":"公交车站","address":""},{"poiid":"B2094654D46BA2F44892","title":"紫荆四村","lon":"121.16484","lat":"31.29204","category":"47","category_name":"住宅区","address":"墨玉路63弄"},{"poiid":"B2094751D46BA1F84492","title":"上海嘉定安亭西上海安亭名邸小区","lon":"121.1723592","lat":"31.2968609","category":"500","category_name":"未知分类","address":"上海嘉定安亭汽车城"},{"poiid":"B2094757D069ABFB4893","title":"上海二手车市场","lon":"121.166156","lat":"31.28585","category":"500","category_name":"未知分类","address":"上海墨玉南路1000号"},{"poiid":"B2094750D769A3FC489E","title":"老妈米线(墨玉南路店)","lon":"121.163","lat":"31.2882","category":"86","category_name":"火锅店","address":"嘉定区墨玉南路1055号嘉亭荟城市生活广场2A1楼140室(近大润发超市)"},{"poiid":"B2094655D26BA5FE409D","title":"紫荆三村","lon":"121.16631","lat":"31.291779","category":"47","category_name":"住宅区","address":"泽普路108弄1-38号"},{"poiid":"B2094757D06AA3FF4899","title":"景怡轩中餐厅","lon":"121.17162","lat":"31.283","category":"76","category_name":"上海菜","address":"嘉定区安驰路569号(近国际汽车城)"},{"poiid":"B2094655D36DA6FE449B","title":"上海汽车城","lon":"121.18056","lat":"31.28567","category":"38","category_name":"公交车站","address":""},{"poiid":"B2094757D164A0FB459F","title":"安亭 玉兰四村","lon":"121.165731289","lat":"31.2964780532","category":"500","category_name":"未知分类","address":"上海嘉定安亭玉兰四村"},{"poiid":"B2094654DB65A2FA409E","title":"快客NO.5065","lon":"121.16661","lat":"31.29171","category":"117","category_name":"便民商店/便利店","address":"泽普路108弄2号4室"},{"poiid":"B2094655D36DA1FF419E","title":"塔山路桥","lon":"121.17808","lat":"31.28892","category":"250","category_name":"公园户外","address":""},{"poiid":"B2094757D66EA1FF4398","title":"上海国际汽车城发展有限公司","lon":"121.178594","lat":"31.289554","category":"500","category_name":"未知分类","address":"上海安亭镇安驰路569号"},{"poiid":"B2094654DB6AA5F5459D","title":"上海大众汽车二厂(一号门)","lon":"121.17838","lat":"31.29571","category":"263","category_name":"公司","address":"昌吉路82"},{"poiid":"B2094757D065A1F44399","title":"安亭汽车站","lon":"121.163819873","lat":"31.2907305088","category":"35","category_name":"长途汽车站","address":"上海墨玉路泽浦路"},{"poiid":"B2094750D664A7FC439F","title":"麦当劳(嘉亭荟店)","lon":"121.163","lat":"31.2882","category":"68","category_name":"快餐厅","address":"嘉定区墨玉南路1055号嘉亭荟生活广场1楼141号商铺(近曹安公路)"},{"poiid":"B2094654DB6AA4FC479D","title":"阿里巴巴土耳其敦娜烤肉安亭店","lon":"121.16709","lat":"31.29507","category":"94","category_name":"西餐厅","address":"嘉定区安亭镇昌吉路157号(安亭幼儿园对面)"},{"poiid":"B2094654DB64A5F5499D","title":"三德大楼","lon":"121.16473","lat":"31.28852","category":"46","category_name":"楼宇","address":"松江区工业区鼎源路广富林路路口"},{"poiid":"B2094654D46BA0F94692","title":"龙安佳苑","lon":"121.16524","lat":"31.295946","category":"47","category_name":"住宅区","address":"上海市嘉定区昌吉路1682弄"},{"poiid":"B2094757D16CA7FB4492","title":"上海大众联合发展有限公司总部","lon":"121.168795","lat":"31.297298","category":"500","category_name":"未知分类","address":"上海洛浦路17号"},{"poiid":"B2094655D26FA7FA419B","title":"紫荆四村(东门)","lon":"121.16619","lat":"31.2917","category":"47","category_name":"住宅区","address":"泽普路108弄"},{"poiid":"B2094750D76EA4F9469B","title":"味千拉面(嘉亭荟店)","lon":"121.163","lat":"31.2882","category":"95","category_name":"日本料理","address":"嘉定区墨玉南路1055号嘉亭荟生活广场1楼109号商铺(近地铁11号线安亭站)"},{"poiid":"B2094655D26BA7F9479C","title":"紫荆三村(南门)","lon":"121.1664","lat":"31.2917","category":"47","category_name":"住宅区","address":"泽普路108弄1-38号"},{"poiid":"B2094654D46BA2F44898","title":"紫荆二村","lon":"121.16512","lat":"31.290857","category":"47","category_name":"住宅区","address":"泽普路175弄"},{"poiid":"B2094654D46BA2FF4793","title":"上海大众汽车有限公司发动机二厂","lon":"121.18029","lat":"31.29507","category":"263","category_name":"公司","address":"昌吉路81"},{"poiid":"B2094654DB65A2F4419A","title":"上海国际汽车城","lon":"121.17235","lat":"31.28267","category":"158","category_name":"汽车销售","address":"安驰路569号"},{"poiid":"B2094757D66FA3FB429A","title":"安亭 底特律财富天地","lon":"121.164061289","lat":"31.2884589883","category":"47","category_name":"住宅区","address":"嘉定曹安路5598号(近墨玉路)"},{"poiid":"B2094757D66DA7F54599","title":"海伦小区食堂","lon":"121.17920628","lat":"31.288300885","category":"247","category_name":"餐饮美食","address":"上海市嘉定区嘉朱公路汇旺东路"},{"poiid":"B2094750D76EA6F4489B","title":"西树泡芙(嘉亭荟店)","lon":"121.163","lat":"31.2882","category":"67","category_name":"甜品店","address":"嘉定区墨玉南路1055号嘉亭荟城市生活广场1楼116号铺(近11号线安亭汽车城站)"},{"poiid":"B2094654DB64A5FB4899","title":"领迅电线工业(上海)有限公司","lon":"121.16911","lat":"31.29616","category":"263","category_name":"公司","address":"安亭镇洛浦路5弄12号"},{"poiid":"B2094757D16AA7F9479F","title":"久斯撞球俱乐部(安亭店)","lon":"121.166977289","lat":"31.2935159923","category":"500","category_name":"未知分类","address":"上海市嘉定区墨玉路80号2楼"},{"poiid":"B2094750DB65A1FF429B","title":"老盛昌","lon":"121.164916","lat":"31.292274","category":"247","category_name":"餐饮美食","address":"昌吉路"},{"poiid":"B2094654DB69A6FC449E","title":"嘉定区第五税务所(原安亭税务所)","lon":"121.16291","lat":"31.29344","category":"250","category_name":"公园户外","address":"嘉定区安亭镇墨玉路"},{"poiid":"B2094654DB69A6FC479D","title":"巴黎时光","lon":"121.17556","lat":"31.2858","category":"47","category_name":"住宅区","address":"宝山区凇南路459号"},{"poiid":"B2094757DB69A1F8469B","title":"巴黎贝甜 嘉亭荟店","lon":"121.16308450699","lat":"31.289186803352","category":"67","category_name":"甜品店","address":"嘉定区墨玉南路1055号嘉亭荟城市生活广场1楼118号铺(近11号线安亭汽车城站)"},{"poiid":"B2094655D26BA5FA4893","title":"紫荆二村(北门)","lon":"121.16512","lat":"31.29128","category":"47","category_name":"住宅区","address":"泽普路175弄5-66号"},{"poiid":"B209475CDA68A7FD4992","title":"同济大学嘉定校区","lon":"121.167358","lat":"31.288404","category":"500","category_name":"未知分类","address":"上海市 上海市嘉定区曹安公路4800号"},{"poiid":"B2094655D264A7FF409E","title":"鼎中鼎澳门豆捞","lon":"121.16306","lat":"31.29088","category":"86","category_name":"火锅店","address":""},{"poiid":"B2094750D665ABFB4298","title":"1001原汁牛肉面(嘉亭荟店)","lon":"121.163","lat":"31.2882","category":"68","category_name":"快餐厅","address":"嘉定区墨玉南路1055号嘉亭荟城市生活广场1楼"},{"poiid":"B2094757D16EA0FB459F","title":"中国农业银行(安亭支行)","lon":"121.163811389","lat":"31.2949051209","category":"150","category_name":"银行","address":"嘉定区安亭镇昌吉路187号(昌吉路墨玉路)"},{"poiid":"B2094655D26FA3FA4292","title":"好德便利No.672","lon":"121.16448","lat":"31.29172","category":"117","category_name":"便民商店/便利店","address":"泽普路200-2号"},{"poiid":"B2094654D46BA2F8419F","title":"安亭大厦","lon":"121.16951379498","lat":"31.300258849613","category":"46","category_name":"楼宇","address":"墨玉路98弄1-2号"},{"poiid":"B2094757D164A6FA4892","title":"塔山路","lon":"121.181251389","lat":"31.2940459032","category":"500","category_name":"未知分类","address":"上海大众二厂对面"},{"poiid":"B2094757D56CA6FA469C","title":"芋贵人甜品店 嘉定老街店","lon":"121.1759783","lat":"31.2845251","category":"67","category_name":"甜品店","address":"东大街457号近博乐路"},{"poiid":"B2094757D164A2F8479B","title":"安亭镇文体信息传媒中心","lon":"121.16477","lat":"31.29658","category":"179","category_name":"音乐厅","address":"上海近郊嘉定区墨玉路155号(近市民广场)  "},{"poiid":"B2094654DB6AA4FD4993","title":"金桂新村","lon":"121.16525","lat":"31.28829","category":"47","category_name":"住宅区","address":"曹安公路5550号"},{"poiid":"B2094757DB69A1F8469A","title":"快乐柠檬 嘉亭荟店","lon":"121.16308450699","lat":"31.288545013134","category":"113","category_name":"冷饮店","address":"嘉定区墨玉南路1055号嘉亭荟城市生活广场1楼(近地铁11号线安亭站)"},{"poiid":"B2094750D76DABF4449E","title":"DQ冰雪皇后(嘉亭荟店)","lon":"121.163","lat":"31.2882","category":"113","category_name":"冷饮店","address":"嘉定区墨玉南路1055号嘉亭荟城市生活广场1楼"},{"poiid":"B2094655D26EA1F84193","title":"安亭镇文体信息传媒中心办公楼","lon":"121.16476","lat":"31.29702","category":"46","category_name":"楼宇","address":"墨玉路155"},{"poiid":"B2094654D46BA2FF4898","title":"安亭影剧院","lon":"121.1645","lat":"31.29566","category":"178","category_name":"电影院","address":""},{"poiid":"B2094655D36CA5FA4299","title":"昌吉路墨玉路","lon":"121.16257","lat":"31.29524","category":"38","category_name":"公交车站","address":""},{"poiid":"B2094753D169A1F94598","title":"上海歌城(墨玉南路店)","lon":"121.16332","lat":"31.28815","category":"170","category_name":"KTV","address":"嘉定区墨玉南路1055号嘉亭荟城市生活广场401-402室(近11号线安亭站)"},{"poiid":"B2094654DB6AA4FD439C","title":"安亭汽车站进口处","lon":"121.16355","lat":"31.29092","category":"35","category_name":"长途汽车站","address":""},{"poiid":"B2094757D168A1FC419C","title":"建华面馆","lon":"121.182495289","lat":"31.2896199122","category":"247","category_name":"餐饮美食","address":"上海近郊嘉定区安亭镇昌吉路  "},{"poiid":"B2094654D46BA1FA409A","title":"玉兰四村","lon":"121.16485","lat":"31.297699","category":"47","category_name":"住宅区","address":"阜康西路9弄"},{"poiid":"B2094654DB6AA5F5469D","title":"中国电信(安亭营业厅)","lon":"121.16352","lat":"31.295","category":"151","category_name":"电讯营业厅","address":"嘉定区安亭镇墨玉路181号"},{"poiid":"B2094655D26FA7FF489A","title":"芙蓉新村(东门)","lon":"121.16239","lat":"31.29366","category":"47","category_name":"住宅区","address":""},{"poiid":"B2094750D664AAF9439F","title":"肯德基(嘉亭荟店)","lon":"121.163","lat":"31.2882","category":"68","category_name":"快餐厅","address":"嘉定区墨玉南路1055号嘉亭荟城市生活广场1楼"},{"poiid":"B2094655D264A1F44199","title":"玉兰四村(北一门)","lon":"121.16519","lat":"31.29663","category":"47","category_name":"住宅区","address":""},{"poiid":"B2094757D16CA6FD479C","title":"泽普路墨玉路","lon":"121.164224","lat":"31.291712","category":"500","category_name":"未知分类","address":"上海泽普路墨玉路"},{"poiid":"B2094655D26EA1FE4893","title":"闽甜墨玉路店","lon":"121.16357","lat":"31.29266","category":"112","category_name":"糕饼店","address":"嘉定区墨玉路61号(墨玉路泽普路)"},{"poiid":"B2094654D46BA0FB4293","title":"中国联通安亭营业厅","lon":"121.16352","lat":"31.29484","category":"151","category_name":"电讯营业厅","address":"嘉定区安亭镇墨玉路83号(近昌吉路)"},{"poiid":"B2094757D66FA7F9459A","title":"J的公司","lon":"121.18126278","lat":"31.294043903","category":"263","category_name":"公司","address":null},{"poiid":"B2094655D26BA4F8489D","title":"克莉丝汀","lon":"121.16316","lat":"31.29214","category":"112","category_name":"糕饼店","address":"浦东新区城基路154号(近西门大街)"},{"poiid":"B2094757D165A0FC459F","title":"陆安专线高速","lon":"121.164552689","lat":"31.291652654","category":"500","category_name":"未知分类","address":"上海市"},{"poiid":"B2094757D66EABF9419B","title":"玉蘭飯店","lon":"121.163605","lat":"31.290858","category":"247","category_name":"餐饮美食","address":"上海嘉定安亭墨玉路"},{"poiid":"B2094757D164A3FC499A","title":"新城尚上城","lon":"121.182289889","lat":"31.285235322","category":"47","category_name":"住宅区","address":"上海嘉定安亭安谐路8弄16号"},{"poiid":"B2094757D06AA2FE419E","title":"安亭第五税务所","lon":"121.163701","lat":"31.29396","category":"500","category_name":"未知分类","address":"上海安亭镇墨玉路"},{"poiid":"B2094757D16FA4F9489F","title":"东昌奥迪","lon":"121.17187328","lat":"31.283128778","category":"263","category_name":"公司","address":"上海博园路"},{"poiid":"B2094654D46BA0FB4599","title":"上海博泽汽车部件有限公司","lon":"121.17816","lat":"31.2866","category":"263","category_name":"公司","address":"塔山路585"},{"poiid":"B2094751D46AA7F8479C","title":"卡通尼乐园(嘉亭荟店)","lon":"121.162438","lat":"31.28797","category":"195","category_name":"游乐场","address":"嘉定区墨玉南路1055号嘉亭荟城市生活广场3F"},{"poiid":"B2094655D26EA1FF4792","title":"上海大众技术中心","lon":"121.16782","lat":"31.29991","category":"191","category_name":"科研机构","address":"洛浦路58"},{"poiid":"B2094654D46BA2FF479E","title":"上海大众汽车安亭销售服务有限公司","lon":"121.16484","lat":"31.28935","category":"159","category_name":"汽车维修","address":"嘉定区安亭曹安路5548号"},{"poiid":"B2094655D26BA6FF459E","title":"东派视听歌城","lon":"121.16363","lat":"31.29005","category":"170","category_name":"KTV","address":""},{"poiid":"B2094655D264A7FB459C","title":"PINKY","lon":"121.16358","lat":"31.29217","category":"141","category_name":"服装鞋帽皮具店","address":""},{"poiid":"B2094757D16DA7FE429B","title":"中国建设银行（安亭支行）","lon":"121.16444397","lat":"31.2952861786","category":"150","category_name":"银行","address":"上海市嘉定区安亭镇墨玉路28号"},{"poiid":"B2094654DB6AA4FC4793","title":"永琪美容美发","lon":"121.1635","lat":"31.29631","category":"148","category_name":"美容美发店","address":"安亭镇"},{"poiid":"B2094654D46BA1FA4098","title":"安亭苑大厦","lon":"121.16386","lat":"31.29784","category":"46","category_name":"楼宇","address":"墨玉路185号"},{"poiid":"B2094654D46BA0FB4199","title":"上海市地方税务局嘉定区分局第五税务所","lon":"121.16313","lat":"31.29315","category":"250","category_name":"公园户外","address":""},{"poiid":"B2094654DB69ABFE4493","title":"农工商超市(安亭店)","lon":"121.16305","lat":"31.29121","category":"118","category_name":"超级市场","address":"嘉定区安亭镇墨玉路50号"},{"poiid":"B2094654D46BA0FB439F","title":"中国移动墨玉路营业厅","lon":"121.16358","lat":"31.29771","category":"151","category_name":"电讯营业厅","address":"墨玉路181"},{"poiid":"B2094757D16BA6F5449C","title":"上海协通丰田汽车销售有限公司","lon":"121.17251751","lat":"31.284349652","category":"500","category_name":"未知分类","address":"嘉定区曹安路3908号国际汽车城内(近翔江路)"},{"poiid":"B2094757D06BAAFE419C","title":"沈坚强游泳俱乐部(嘉定店)","lon":"121.16339618","lat":"31.291316547","category":"220","category_name":"运动场所","address":"上海嘉定区新成路118号"},{"poiid":"B2094654D46BA2FF489B","title":"安亭文化馆","lon":"121.16443","lat":"31.29567","category":"188","category_name":"文化宫","address":""},{"poiid":"B2094655D26FA6FF419B","title":"华联超市(安亭店)","lon":"121.16307","lat":"31.29425","category":"118","category_name":"超级市场","address":"嘉定区安亭镇墨玉路88号(安亭镇政府对面)"},{"poiid":"B2094655D26FA3F9459D","title":"宫宵公寓","lon":"121.16239","lat":"31.292463","category":"47","category_name":"住宅区","address":"泽普路292弄1-6号"},{"poiid":"B2094654DB64ABFE409D","title":"中国建设银行上海安亭支行","lon":"121.16357","lat":"31.29306","category":"150","category_name":"银行","address":"墨玉路65"},{"poiid":"B2094757D66FA2F84993","title":"墨玉南路曹安路站(公交安亭1,2,4路,安虹线,陆安线,安菊线)","lon":"121.163372057","lat":"31.2878648856","category":"38","category_name":"公交车站","address":"上海市嘉定区墨玉南路曹安公路"},{"poiid":"B2094654DB69A7FF449A","title":"嘉定区安亭税务所","lon":"121.16301","lat":"31.29348","category":"250","category_name":"公园户外","address":"嘉定区安亭镇墨玉路"},{"poiid":"B2094654DB69A0F44098","title":"中国银行上海市安亭支行","lon":"121.16305","lat":"31.29069","category":"150","category_name":"银行","address":"嘉定区安亭镇墨玉路42号(墨玉路泽普路)"},{"poiid":"B2094654D46BA2F8419D","title":"安亭工商所","lon":"121.1631","lat":"31.29362","category":"250","category_name":"公园户外","address":"墨玉路78"},{"poiid":"B2094757D66FA3F54592","title":"荣威4S店","lon":"121.172514","lat":"31.284362","category":"500","category_name":"未知分类","address":"上海安驰路"},{"poiid":"B2094757D568A1FD4992","title":"上海大众汽车特许销售商","lon":"121.1647613","lat":"31.28929932","category":"158","category_name":"汽车销售","address":"中国上海市嘉定区G312"},{"poiid":"B2094654D46BA1FA4192","title":"玉兰饭店","lon":"121.16301","lat":"31.29725","category":"217","category_name":"旅馆招待所","address":"安亭镇墨玉路182号"},{"poiid":"B2094757D568A4F9449B","title":"上海大众汽车特约维修站","lon":"121.1647702","lat":"31.2892985","category":"159","category_name":"汽车维修","address":"中国上海市嘉定区G312"},{"poiid":"B2094757D66DA2F54298","title":"上海银行(安亭支行)","lon":"121.163825289","lat":"31.2947630179","category":"150","category_name":"银行","address":"嘉定区墨玉路161号"},{"poiid":"B2094757D164ABF4419F","title":"唯德居府Wirthaus","lon":"121.16251228","lat":"31.288507889","category":"47","category_name":"住宅区","address":"上海新源路14号"},{"poiid":"B2094752D26DA4FC419C","title":"永和大王(安亭店)","lon":"121.16259","lat":"31.28844","category":"68","category_name":"快餐厅","address":"嘉定区安亭镇曹安公路5575号(近安亭地铁站)"},{"poiid":"B2094655D26FA1FF439E","title":"福建沙县特色小吃","lon":"121.16502","lat":"31.28631","category":"68","category_name":"快餐厅","address":""},{"poiid":"B2094654DB64A6F8419E","title":"华勋假日旅馆安亭店","lon":"121.16359","lat":"31.29724","category":"216","category_name":"经济型连锁酒店","address":"嘉定区墨玉路169号(近安亭地铁站)"},{"poiid":"B2094750D268A2F54292","title":"嘉亭荟","lon":"121.163742","lat":"31.296543","category":"627","category_name":"一般地点标志","address":"曹安公路5588号"},{"poiid":"B2094753D069A5FE469A","title":"大润发(安亭店)","lon":"121.16332","lat":"31.28815","category":"117","category_name":"便民商店/便利店","address":"嘉定区墨玉南路1055号嘉亭荟城市生活广场2-3楼(近曹安公路)"},{"poiid":"B2094655D26BA1F8479A","title":"墨玉南路曹安公路","lon":"121.16336","lat":"31.28779","category":"38","category_name":"公交车站","address":""},{"poiid":"B2094654D46BA2F94992","title":"上海协通驰骋","lon":"121.17823","lat":"31.28475","category":"159","category_name":"汽车维修","address":"安亭镇安驰路278号"},{"poiid":"B2094757D568A7FD469E","title":"嘉正国际安内吉酒店(东门)","lon":"121.16322076","lat":"31.29024712","category":"48","category_name":"楼宇大门","address":"墨玉路28号"},{"poiid":"B2094654D46BA0FB439E","title":"名角女士生活馆(墨玉路)","lon":"121.1636","lat":"31.29739","category":"148","category_name":"美容美发店","address":"墨玉路173"},{"poiid":"B2094654D46BA0FB4398","title":"安亭镇社区文化活动中心","lon":"121.16475","lat":"31.29702","category":"248","category_name":"生活娱乐","address":"墨玉路155"},{"poiid":"B2094757D16AA1FB4692","title":"克莉丝汀(墨玉路店)","lon":"121.16384","lat":"31.29516","category":"500","category_name":"未知分类","address":"上海近郊嘉定区安亭镇墨玉路158号(近昌吉路)  "},{"poiid":"B2094654DB6AA5F5479B","title":"中国工商银行","lon":"121.16308","lat":"31.29391","category":"150","category_name":"银行","address":""},{"poiid":"B2094654DB6AA4FD4899","title":"快客NO.5042","lon":"121.16301","lat":"31.2968","category":"117","category_name":"便民商店/便利店","address":"墨玉路166"},{"poiid":"B2094757D66DA2FA4999","title":"老街坊饭店","lon":"121.16256","lat":"31.29529","category":"247","category_name":"餐饮美食","address":"上海近郊嘉定区安亭镇安亭街758号(近新源路)  "},{"poiid":"B2094654DB64A4FB429C","title":"小阿王美容美发","lon":"121.16361","lat":"31.29709","category":"148","category_name":"美容美发店","address":"墨玉路165"},{"poiid":"B2094750D76DA3FB489D","title":"摩提工房(嘉亭荟店)","lon":"121.163","lat":"31.2882","category":"67","category_name":"甜品店","address":"嘉定区墨玉南路1055号嘉亭荟城市生活广场1楼116号铺(近11号线安亭汽车城站)"},{"poiid":"B2094654DB6AA4FD489B","title":"文峰美发美容墨玉店","lon":"121.16301","lat":"31.29701","category":"148","category_name":"美容美发店","address":""},{"poiid":"B2094654D46BA2F8409D","title":"中国民生银行上海汽车城支行","lon":"121.16368","lat":"31.28909","category":"150","category_name":"银行","address":"安亭镇"},{"poiid":"B2094757D069A2FA429F","title":"圣驰大唐酒店","lon":"121.16487597","lat":"31.297091721","category":"217","category_name":"旅馆招待所","address":"上海闸北区万荣路949号(永和路口)"},{"poiid":"B2094655D36CA5FB4799","title":"博园路米泉南路","lon":"121.17505","lat":"31.28233","category":"38","category_name":"公交车站","address":""},{"poiid":"B2094757D16FA1FA4592","title":"上海腾众","lon":"121.168992289","lat":"31.281881753","category":"500","category_name":"未知分类","address":"上海嘉定安亭博园路"},{"poiid":"B2094654DB6AA5F5449C","title":"大众宾馆","lon":"121.16291","lat":"31.29571","category":"215","category_name":"三星级宾馆","address":"嘉定区安亭镇昌吉路188号"},{"poiid":"B2094757D16AA5FE489F","title":"湘村人家","lon":"121.16262817","lat":"31.296991348","category":"247","category_name":"餐饮美食","address":"上海嘉定区安亭镇新源路590号"},{"poiid":"B2094757D169A4F8449C","title":"嘉天缘","lon":"121.16317","lat":"31.29003","category":"500","category_name":"未知分类","address":"墨玉路28号嘉正国际安内吉酒店2楼近曹安公路"},{"poiid":"B2094654D46BA2F8419A","title":"安亭邮政支局","lon":"121.16355","lat":"31.2947","category":"248","category_name":"生活娱乐","address":"墨玉路83号"},{"poiid":"B2094757D16BA5F5449B","title":"上海金泰工程机械有限公司","lon":"121.16791323","lat":"31.300489285","category":"500","category_name":"未知分类","address":"上海洛浦路45号"},{"poiid":"B2094757D164ABF54692","title":"上海大众经济城","lon":"121.16356228","lat":"31.297159067","category":"500","category_name":"未知分类","address":"上海市嘉定区墨玉路"},{"poiid":"B2094757D66CA3FC4293","title":"深圳发展银行(安亭支行)","lon":"121.16356","lat":"31.29659","category":"150","category_name":"银行","address":"上海近郊嘉定墨玉路159号  "},{"poiid":"B2094654D46BA2FF489D","title":"中国农业银行嘉定区安亭支行","lon":"121.16284","lat":"31.29506","category":"150","category_name":"银行","address":"昌吉路185"},{"poiid":"B2094654D46BA1F94993","title":"上海新申房产建设发展有限公司","lon":"121.16418","lat":"31.2971","category":"263","category_name":"公司","address":"墨玉路157号"},{"poiid":"B2094654DB6AA4FD489E","title":"交通银行上海安亭支行","lon":"121.16302","lat":"31.29658","category":"150","category_name":"银行","address":"嘉定区安亭镇新源路818号底楼(和静路新源路)"},{"poiid":"B2094757D169AAFA429D","title":"安亭集贸市场","lon":"121.16218228","lat":"31.291239945","category":"249","category_name":"购物服务","address":"上海市嘉定区安亭镇泽普路315号"},{"poiid":"B2094757D065A7FB499D","title":"大众宾馆食堂","lon":"121.16291809","lat":"31.295400619","category":"217","category_name":"旅馆招待所","address":"上海市嘉定区安亭镇昌吉路188号2号楼2F"},{"poiid":"B2094757D16FA3FA449D","title":"世贸汽车销售公司","lon":"121.1815431","lat":"31.28563136","category":"500","category_name":"未知分类","address":"上海安亭安驰路"},{"poiid":"B2094757D569A2F5439F","title":"启宏汽车修理厂","lon":"121.16383952","lat":"31.28767361","category":"159","category_name":"汽车维修","address":"墨玉南路1138"},{"poiid":"B2094757D16AA3F9449E","title":"家得利安亭店","lon":"121.16303253","lat":"31.296287536","category":"500","category_name":"未知分类","address":"上海嘉定区安亭镇墨玉路158号"},{"poiid":"B2094654D46BA2F8449F","title":"上海泰士杰汽车销售有限公司","lon":"121.17946","lat":"31.28459","category":"158","category_name":"汽车销售","address":"嘉定区安驰路266号(近米泉南路)"},{"poiid":"B2094654DB64A6F44299","title":"上海腾众汽车销售服务有限公司(安亭国际汽车城)","lon":"121.16909","lat":"31.28181","category":"158","category_name":"汽车销售","address":"嘉定区安亭国际汽车城核心贸易区步行街401号(近墨玉南路)"},{"poiid":"B2094654DB64AAFF4098","title":"上海安亭工业经济发展有限公司","lon":"121.16386","lat":"31.29784","category":"263","category_name":"公司","address":"墨玉路185号安亭苑大厦14层"},{"poiid":"B2094757DA69A2FB4299","title":"东昌奥迪嘉定店","lon":"121.17373827382","lat":"31.282445109909","category":"639","category_name":"汽车交通类公司","address":"上海市嘉定区安亭镇上海国际汽车城核心贸易区步行街755号"},{"poiid":"B2094654D46BA0FA459F","title":"上海大众祥云运输管理有限公司","lon":"121.18423","lat":"31.2951","category":"248","category_name":"生活娱乐","address":"昌吉路21"},{"poiid":"B2094757D06BA3F94992","title":"上海大众联合车身配件有限公司","lon":"121.17832","lat":"31.302069","category":"500","category_name":"未知分类","address":"上海塔山路1355号"},{"poiid":"B2094654DB64ABF5469E","title":"上海大众经济城发展中心","lon":"121.16385","lat":"31.29784","category":"263","category_name":"公司","address":"墨玉路185号安亭苑大厦"},{"poiid":"B2094654D46BA2FF4992","title":"上海大众联合汽车改装有限公司","lon":"121.17963","lat":"31.30153","category":"263","category_name":"公司","address":"和静路338"},{"poiid":"B2094757D06AABFE479C","title":"大众","lon":"121.168182","lat":"31.303021","category":"500","category_name":"未知分类","address":"上海洛浦路63号"},{"poiid":"B2094757D568A5F4439F","title":"晟峰宾馆","lon":"121.16268826","lat":"31.29483371","category":"251","category_name":"出行住宿","address":"中国上海市嘉定区昌吉路"},{"poiid":"B2094654D46BA2FF499E","title":"上海人造板机器厂有限公司","lon":"121.18077","lat":"31.30111","category":"263","category_name":"公司","address":"和静路299"},{"poiid":"B2094655D26FA0F9479D","title":"玉兰一村(南门)","lon":"121.16319","lat":"31.29614","category":"656","category_name":"大门","address":"墨玉路154弄"},{"poiid":"B2094654D46BA1F9499E","title":"上海大众众谊金属制品有限公司","lon":"121.17512","lat":"31.30411","category":"263","category_name":"公司","address":"民丰路24"},{"poiid":"B2094654D46BA2F8459A","title":"上海永达汽车展示厅","lon":"121.16846","lat":"31.28266","category":"158","category_name":"汽车销售","address":""}]