[{"poiid":"B2094654D568A2FA4299","title":"新江湾城","lon":"121.52291","lat":"31.32975","category":"47","category_name":"住宅区","address":""},{"poiid":"B2094751D46BA4FE4492","title":"博纳国际影城（中原店）","lon":"121.5210125","lat":"31.3176175","category":"178","category_name":"电影院","address":"上海市杨浦区国和路777号中原城市广场2座4楼"},{"poiid":"B2094757D568ABFE479D","title":"江湾湿地公园","lon":"121.5242553","lat":"31.32879889","category":"196","category_name":"公园","address":"杨浦区殷行路880号(近政悦路)"},{"poiid":"B2094757D069A3F9489C","title":"芭堤雅假日酒店","lon":"121.52464866","lat":"31.3263011405","category":"99","category_name":"泰国／越南菜品餐厅","address":"杨浦区闸殷路311号(近世界路)"},{"poiid":"B2094655D36CA7FB4993","title":"国和路世界路","lon":"121.52484","lat":"31.31823","category":"38","category_name":"公交车站","address":""},{"poiid":"B2094757D468ABFB449D","title":"段氏龙虾 国和路店","lon":"121.52494","lat":"31.31808","category":"68","category_name":"快餐厅","address":"杨浦区国和路971号(近世界路)"},{"poiid":"B2094655D265A6FE4299","title":"鼎中鼎澳门豆捞 世界路店","lon":"121.526085054","lat":"31.320105793","category":"86","category_name":"火锅店","address":"杨浦区世界路90号吉买盛超市内(近国和路)"},{"poiid":"B2094757D06FA0F8429E","title":"东方名城","lon":"121.52215","lat":"31.318438","category":"47","category_name":"住宅区","address":"上海国和路888弄"},{"poiid":"B2094757D069A6FC4192","title":"杨浦区中心医院中原分院","lon":"121.5276616","lat":"31.325179934","category":"162","category_name":"医院","address":"上海开鲁路500号"},{"poiid":"B2094757D068A6FB409B","title":"开鲁四村","lon":"121.53042","lat":"31.327255","category":"252","category_name":"楼宇机构","address":"上海市杨浦区开鲁路"},{"poiid":"B2094757D069A5F44692","title":"上海音乐学院实验学校(新江湾城政和路北区)","lon":"121.512098103","lat":"31.3277106205","category":"55","category_name":"中学","address":"上海市杨浦区政和路359号"},{"poiid":"B2094757D069A6FB4998","title":"上海斯柯达4s店","lon":"121.5202671","lat":"31.318351424","category":"500","category_name":"未知分类","address":"杨浦区民庆路208号(近国和路)"},{"poiid":"B2094757D66EA6FF409F","title":"涵碧景苑","lon":"121.52126","lat":"31.325079","category":"500","category_name":"未知分类","address":"上海市杨浦区政悦路88弄"},{"poiid":"B2094757D06FA2FF479A","title":"殷行路","lon":"121.52777099","lat":"31.328643798","category":"260","category_name":"其他","address":"上海杨浦区殷行路"},{"poiid":"B2094757D068A1FC4793","title":"上海英之杰雷克萨斯旗舰店","lon":"121.51934016","lat":"31.317304163","category":"260","category_name":"其他","address":"杨浦区市光路405号(近民庆路)"},{"poiid":"B2094757D06BABF4499B","title":"鑫城大酒店","lon":"121.521021752","lat":"31.3214659403","category":"76","category_name":"上海菜","address":"杨浦区宁城路179号(近民京路)"},{"poiid":"B2094654DB6BA2FF4292","title":"山东特色烧烤王(国和路)","lon":"121.52515","lat":"31.31808","category":"68","category_name":"快餐厅","address":"杨浦区国和路1013号(近世界路)"},{"poiid":"B2094757D569A2F84192","title":"九龙仓玺园","lon":"121.514","lat":"31.3328","category":"47","category_name":"住宅区","address":"上海市杨浦区国晓路500弄(新江湾城)"},{"poiid":"B2094757D06FA5F9459E","title":"华联吉买盛(国和店)","lon":"121.526276882","lat":"31.3185131597","category":"118","category_name":"超级市场","address":"杨浦区国和路1000号(近世界路)"},{"poiid":"B2094757D068A1FF4098","title":"上海梦想雍景苑","lon":"121.5225965","lat":"31.3298326","category":"252","category_name":"楼宇机构","address":"上海政悦路500弄"},{"poiid":"B2094757D06AA4F5499F","title":"上海市中原中学","lon":"121.53044673","lat":"31.327812835","category":"55","category_name":"中学","address":"上海市杨浦区开鲁六村50号"},{"poiid":"B2094757D069A3F8429D","title":"开鲁三村","lon":"121.52871938","lat":"31.32396156","category":"47","category_name":"住宅区","address":"上海杨浦区中原路市光路"},{"poiid":"B2094757D168A1F5429C","title":"东森花园","lon":"121.52278","lat":"31.328093","category":"47","category_name":"住宅区","address":"上海市杨浦区闸殷路300号"},{"poiid":"B2094757D16CA5FF449D","title":"市京一村","lon":"121.53091513697","lat":"31.324837149586","category":"500","category_name":"未知分类","address":"上海市杨浦区世界路国和路"},{"poiid":"B2094757D66DA6FD449D","title":"学校","lon":"121.5270193","lat":"31.321339787","category":"52","category_name":"高等院校","address":"上海开鲁路世界路"},{"poiid":"B2094757D064A4F4459F","title":"中原游泳馆","lon":"121.5265181","lat":"31.325391571","category":"220","category_name":"运动场所","address":"上海市杨浦区开鲁路58号"},{"poiid":"B2094655D264A0FF419B","title":"建德国际公寓","lon":"121.52459","lat":"31.334923","category":"47","category_name":"住宅区","address":"上海市杨浦区政悦路588弄"},{"poiid":"B2094654D56FA1F5469F","title":"开鲁五村","lon":"121.52755","lat":"31.325594","category":"47","category_name":"住宅区","address":"开鲁五村"},{"poiid":"B2094750D56DA5FE429D","title":"本溪路幼儿园（新江湾城）","lon":"121.521621","lat":"31.326496","category":"57","category_name":"幼儿园","address":"政悦路"},{"poiid":"B2094757D068A7FF429B","title":"民庆家园","lon":"121.526","lat":"31.3258","category":"500","category_name":"未知分类","address":"上海民京路世界路"},{"poiid":"B2094655D26BA4F94998","title":"新杭城大酒店","lon":"121.53046","lat":"31.32853","category":"76","category_name":"上海菜","address":"杨浦区殷行路700号(近中原路)"},{"poiid":"B2094757D068A6F5499A","title":"开鲁一村","lon":"121.529580888","lat":"31.3221968701","category":"47","category_name":"住宅区","address":"上海中原路市光路"},{"poiid":"B2094757D46DAAFD499C","title":"85度C 国和路店","lon":"121.526333054","lat":"31.318358793","category":"112","category_name":"糕饼店","address":"杨浦区国和路1000号1楼30-1-G-5室(近世界路)"},{"poiid":"B2094757D66BA0FD489F","title":"象山海鲜溪沿村","lon":"121.5235238","lat":"31.3224554","category":"75","category_name":"浙江菜","address":"杨浦区民京路910号"},{"poiid":"B2094757D06FAAFF4392","title":"盛世豪园","lon":"121.51778","lat":"31.317913","category":"500","category_name":"未知分类","address":"杨浦市光路390弄"},{"poiid":"B2094750DA68A5F54692","title":"乐家渔村舟山海鲜","lon":"121.525634","lat":"31.322433","category":"247","category_name":"餐饮美食","address":"杨浦区民京路(近世界路)"},{"poiid":"B2094757D16EA5F54092","title":"新江湾城生态走廊","lon":"121.51788665","lat":"31.331776455","category":"500","category_name":"未知分类","address":"上海新江湾城"},{"poiid":"B2094751D36FA6FB4593","title":"玲珑海鲜","lon":"121.52449","lat":"31.32264","category":"247","category_name":"餐饮美食","address":"杨浦区民京路932号(近世界路)"},{"poiid":"B2094757D068A1FE459B","title":"世界路闸殷路站(公交124终,910终,870终)","lon":"121.52578138","lat":"31.326173375","category":"38","category_name":"公交车站","address":"上海市杨浦区世界路闸殷路(新江湾城)"},{"poiid":"B2094654DB65AAF44393","title":"盛世新江湾","lon":"121.525503","lat":"31.323732","category":"47","category_name":"住宅区","address":"杨浦区市光路390弄"},{"poiid":"B2094757D16FAAFB499E","title":"中原路红霞火锅城","lon":"121.5270652","lat":"31.321381288","category":"247","category_name":"餐饮美食","address":"上海中原路"},{"poiid":"B2094757D16EA7FA449D","title":"仁恒怡庭","lon":"121.51923278636","lat":"31.333501535868","category":"47","category_name":"住宅区","address":"东至化工路,南至水月街,西至益乐路,北至方家北路"},{"poiid":"B2094655D26EA2FE4598","title":"民京路837弄小区","lon":"121.52289","lat":"31.32161","category":"47","category_name":"住宅区","address":"民京路837弄1-22"},{"poiid":"B2094757DA6FA3FA489D","title":"华润置地橡树湾","lon":"121.51965","lat":"31.335945","category":"47","category_name":"住宅区","address":"国浩路88号，政和路1088号,江湾城路1299弄"},{"poiid":"B2094750D069A4F8469C","title":"中国工商银行杨浦政悦路支行","lon":"121.522","lat":"31.328","category":"150","category_name":"银行","address":"杨浦区殷行路901号(近新江湾城)"},{"poiid":"B2094757D66DA4FA4592","title":"小R格纳库","lon":"121.521211003","lat":"31.3275208165","category":"500","category_name":"未知分类","address":"上海共康六村"},{"poiid":"B2094655D36CA3FB419E","title":"联华超市殷行路店","lon":"121.52426","lat":"31.3288","category":"118","category_name":"超级市场","address":"杨浦区殷行路880号(近政悦路)"},{"poiid":"B2094757D16AA0F84598","title":"124路(殷行路包头路)","lon":"121.524866803","lat":"31.3286568403","category":"38","category_name":"公交车站","address":"上海殷行路包头路"},{"poiid":"B2094654DB69AAF94398","title":"中原体育馆","lon":"121.52608","lat":"31.32509","category":"224","category_name":"综合体育馆","address":"上海市杨浦区开鲁路518号"},{"poiid":"B2094757D165A6F4499D","title":"开鲁新村第二小学","lon":"121.526088103","lat":"31.3265805968","category":"56","category_name":"小学","address":"杨浦区开鲁六村7号(近中原路)"},{"poiid":"B2094655D26CA5FF499B","title":"世佳公寓","lon":"121.52671","lat":"31.32742","category":"47","category_name":"住宅区","address":"开鲁五村61-64"},{"poiid":"B2094757D468A4FE429C","title":"辣酷烤全鱼","lon":"121.526324","lat":"31.318583","category":"71","category_name":"四川菜","address":"杨浦区国和路975号(近世界路)"},{"poiid":"B2094750D569A4F9409C","title":"世晶花苑","lon":"121.52164","lat":"31.322214","category":"47","category_name":"住宅区","address":"上海市杨浦区民京路828号"},{"poiid":"B2094655D36CA1FD4899","title":"世界路民京路","lon":"121.5261","lat":"31.3228","category":"38","category_name":"公交车站","address":""},{"poiid":"B2094757D16AA6F9419B","title":"上海民办杨浦实验学校(旧址)","lon":"121.526494","lat":"31.324373","category":"55","category_name":"中学","address":"上海杨浦区世界路200号"},{"poiid":"B2094655D26CA5FB4392","title":"开鲁五村(西门)","lon":"121.526","lat":"31.32743","category":"47","category_name":"住宅区","address":"闸殷路221识别"},{"poiid":"B2094654D56FA1F44992","title":"上海华佳医院(民京路)","lon":"121.52331","lat":"31.32295","category":"162","category_name":"医院","address":"民京路902、918"},{"poiid":"B2094654D56FA1F44593","title":"民庆家园(后门)","lon":"121.52024","lat":"31.321","category":"47","category_name":"住宅区","address":"民京路658弄1-21"},{"poiid":"B2094655D36DA0FB4099","title":"殷行路江湾城路","lon":"121.51721","lat":"31.32891","category":"38","category_name":"公交车站","address":""},{"poiid":"B2094655D26DA6F9459C","title":"世佳公寓(西门)","lon":"121.526","lat":"31.32743","category":"47","category_name":"住宅区","address":"开鲁五村61-64"},{"poiid":"B2094654D56FA1F4499A","title":"快客No.6703","lon":"121.52267","lat":"31.32237","category":"117","category_name":"便民商店/便利店","address":"民京路844-2"},{"poiid":"B2094654D56FA1F9479B","title":"三门路48弄住宅小区","lon":"121.522","lat":"31.3171","category":"47","category_name":"住宅区","address":"三门路48弄1-23号"},{"poiid":"B2094655D26AA7FB4598","title":"极真空手道开鲁道场","lon":"121.52608","lat":"31.32509","category":"247","category_name":"餐饮美食","address":"杨浦区开鲁路518号3楼(世界路口)"},{"poiid":"B2094655D26AA7FB4599","title":"中原青少年游泳俱乐部","lon":"121.52608","lat":"31.32509","category":"247","category_name":"餐饮美食","address":"杨浦区开鲁路518号(近世界路)"},{"poiid":"B2094654D56FA1F5439C","title":"光明便利连锁No.J-533","lon":"121.52579","lat":"31.324","category":"117","category_name":"便民商店/便利店","address":"世界路153-1识别"},{"poiid":"B2094654D568A2FA429B","title":"时代幼儿园","lon":"121.52571","lat":"31.32994","category":"57","category_name":"幼儿园","address":"上海殷行路850弄"},{"poiid":"B2094757D069A1FF419B","title":"民京路世界路","lon":"121.525579","lat":"31.323053","category":"500","category_name":"未知分类","address":"上海民京路口"},{"poiid":"B2094757D16DA7F5489F","title":"闸殷路181弄","lon":"121.5206785","lat":"31.3237238","category":"500","category_name":"未知分类","address":"上海闸殷路殷行路内包括(195弄,650弄)"},{"poiid":"B2094757D66DA1FF489A","title":"新江湾一号会所","lon":"121.525060103","lat":"31.3290616487","category":"500","category_name":"未知分类","address":"上海市杨浦区殷行路(时代花园对面)"},{"poiid":"B2094757D065A1FE4393","title":"江湾绿地","lon":"121.51844984","lat":"31.320278694","category":"500","category_name":"未知分类","address":"上海闸殷路殷高路"},{"poiid":"B2094654D56FA1FB489E","title":"国和路600弄小区","lon":"121.524","lat":"31.3194","category":"47","category_name":"住宅区","address":"国和路600弄1-27号"},{"poiid":"B2094757DB6DA4FC4899","title":"奥凯（OK）酒店（上海五角场店）","lon":"121.5258962","lat":"31.32290673","category":"216","category_name":"经济型连锁酒店","address":"上海市杨浦区世界路135号(近民京路)"},{"poiid":"B2094750D76DA5FE499A","title":"竹岭风壹号","lon":"121.515","lat":"31.3228","category":"76","category_name":"上海菜","address":"杨浦区江湾城路257号"},{"poiid":"B2094757D065A2FA469E","title":"870终点站","lon":"121.5258956","lat":"31.326941104","category":"500","category_name":"未知分类","address":"上海世界路新江湾城"},{"poiid":"B2094655D26CA7F54999","title":"民京路837弄小区(北门)","lon":"121.52265","lat":"31.32195","category":"47","category_name":"住宅区","address":"民京路837弄1-22"},{"poiid":"B2094757D065A3F44998","title":"民京小区","lon":"121.5214661","lat":"31.322783517","category":"252","category_name":"楼宇机构","address":"上海市杨浦区民京路838弄"},{"poiid":"B2094654DB65AAF8429D","title":"时代花园","lon":"121.52715","lat":"31.32931","category":"47","category_name":"住宅区","address":"时代花园位于杨浦闸殷路300号"},{"poiid":"B2094757D16BA6FB419C","title":"殷行地段医院儿科","lon":"121.52657","lat":"31.32846","category":"162","category_name":"医院","address":"杨浦区殷行路429号(近包头路)"},{"poiid":"B2094655D36CA1F5489D","title":"开鲁新村","lon":"121.52729","lat":"31.323967","category":"38","category_name":"公交车站","address":"开鲁新村"},{"poiid":"B2094757D16EA7FA479C","title":"538殷行路闸殷路站","lon":"121.524864","lat":"31.32865914","category":"500","category_name":"未知分类","address":"上海殷行路闸殷路"},{"poiid":"B2094757D069A1FB459D","title":"开鲁路世界路站(公交817终)","lon":"121.52794","lat":"31.324827","category":"38","category_name":"公交车站","address":"上海市杨浦区开鲁路世界路"},{"poiid":"B2094757D16AAAF54098","title":"Selina's屋企","lon":"121.527110103","lat":"31.327354613","category":"247","category_name":"餐饮美食","address":"上海开鲁五村"},{"poiid":"B2094757D165AAF44899","title":"修身堂美体","lon":"121.52451783","lat":"31.328299442","category":"148","category_name":"美容美发店","address":"杨浦区殷行路821号(近闸殷路)"},{"poiid":"B2094654D56FA1F5409F","title":"蓝夜酒吧","lon":"121.52422","lat":"31.32262","category":"172","category_name":"酒吧","address":""},{"poiid":"B2094757D568AAF84592","title":"老鸭汤早饭摊","lon":"121.5295711","lat":"31.32454389","category":"257","category_name":"中餐厅","address":"杨浦区开鲁路555号开鲁第一小学对面(近菜场)"},{"poiid":"B2094757D16EA7F4459D","title":"切尔西外婆家","lon":"121.5240146","lat":"31.322138403","category":"247","category_name":"餐饮美食","address":null},{"poiid":"B2094757D16EA4FA499F","title":"小笨e｀ω´","lon":"121.5230021","lat":"31.329814664","category":"500","category_name":"未知分类","address":"上海市杨浦区江湾城路"},{"poiid":"B2094757D165A0FE419F","title":"国大药房(民京路店)","lon":"121.52196","lat":"31.32154","category":"162","category_name":"医院","address":"杨浦区民京路818号(民京路宁城路)"},{"poiid":"B2094654D56FA1F54192","title":"伊田酒吧","lon":"121.52477","lat":"31.32264","category":"172","category_name":"酒吧","address":"民京路936"},{"poiid":"B2094655D26EA0FF4092","title":"开鲁新邨北区","lon":"121.52754","lat":"31.32559","category":"47","category_name":"住宅区","address":""},{"poiid":"B2094757D065A1F84493","title":"丸子家","lon":"121.525690103","lat":"31.3280933285","category":"500","category_name":"未知分类","address":null},{"poiid":"B2094757D16EA0FB419E","title":"124终点站","lon":"121.52585259","lat":"31.32706709","category":"500","category_name":"未知分类","address":"上海闸殷路世界路"},{"poiid":"B2094757D069AAFF429F","title":"开鲁六村","lon":"121.52821951","lat":"31.328475576","category":"252","category_name":"楼宇机构","address":"上海殷行路"},{"poiid":"B2094655D36CA3FF459D","title":"上海音乐学院实验学校","lon":"121.51241","lat":"31.32765","category":"52","category_name":"高等院校","address":"政和路359号"},{"poiid":"B2094757D16BA2FC449E","title":"江湾新城","lon":"121.524588","lat":"31.334923","category":"47","category_name":"住宅区","address":"上海政悦路"},{"poiid":"B2094655D26FA6FC479F","title":"开鲁新村(北门)","lon":"121.52729","lat":"31.32455","category":"47","category_name":"住宅区","address":""},{"poiid":"B2094750DA69A5FC429D","title":"新华医院","lon":"121.519546","lat":"31.318161","category":"162","category_name":"医院","address":"控江路1665号"},{"poiid":"B2094654D56FA1F4469C","title":"曙光公寓","lon":"121.52124","lat":"31.320883","category":"47","category_name":"住宅区","address":"民京路801弄"},{"poiid":"B2094655D36DA0FB409D","title":"殷行路闸殷路","lon":"121.5287","lat":"31.32877","category":"38","category_name":"公交车站","address":""},{"poiid":"B2094751D364A7FA439B","title":"新江湾湿地","lon":"121.5183743","lat":"31.3198034","category":"500","category_name":"未知分类","address":"杨浦区新江湾城"},{"poiid":"B2094654DB6BA2FF4093","title":"开鲁二村(西门)","lon":"121.52644","lat":"31.32309","category":"47","category_name":"住宅区","address":"世界路190号"},{"poiid":"B2094655D26AA4FE459B","title":"川夫烤鱼龙虾王开鲁路店","lon":"121.53097","lat":"31.32494","category":"68","category_name":"快餐厅","address":"杨浦区开鲁路450号(近中原路)"},{"poiid":"B2094655D26FA0FF4092","title":"曙光公寓(西门)","lon":"121.52103","lat":"31.32093","category":"47","category_name":"住宅区","address":""},{"poiid":"B2094654DB69A6F9439B","title":"翡翠东森花园(千山家园)","lon":"121.52994","lat":"31.32876","category":"47","category_name":"住宅区","address":"翡翠东森花园(千山家园)位于杨浦殷行路881弄"},{"poiid":"B2094757D06BAAF54493","title":"涵碧锦苑","lon":"121.527572632","lat":"31.3233509064","category":"47","category_name":"住宅区","address":"上海政悦路88弄"},{"poiid":"B2094655D26FA0FB479F","title":"上海市中原体育场","lon":"121.52665","lat":"31.32517","category":"220","category_name":"运动场所","address":"杨浦区淞沪路245号(近政民路)"},{"poiid":"B2094757D16FAAFF419D","title":"梁荣家","lon":"121.526122603","lat":"31.3283198332","category":"500","category_name":"未知分类","address":null},{"poiid":"B2094654D56FA1F44592","title":"五角场工业园区市京二分区","lon":"121.52044","lat":"31.32028","category":"45","category_name":"产业园区","address":"民京路781"},{"poiid":"B2094757D065A1FF4298","title":"江南农庄","lon":"121.529701463","lat":"31.3282210011","category":"260","category_name":"其他","address":"杨浦区殷行路677号(近中原路)"},{"poiid":"B2094655D26BA1FE4293","title":"宁城路国和路","lon":"121.52256","lat":"31.31965","category":"38","category_name":"公交车站","address":""},{"poiid":"B2094757D76EA7F8449C","title":"苹果花园 世界路店 Apple Garden","lon":"121.525981","lat":"31.318543","category":"47","category_name":"住宅区","address":"杨浦区世界路63号-1(国和路口)"},{"poiid":"B2094757D064A6F8419F","title":"61路 国伟路政悦路站 终点站","lon":"121.5226043","lat":"31.331612176","category":"500","category_name":"未知分类","address":"上海国伟路政悦路"},{"poiid":"B2094655D26DABFE479D","title":"东方丽人酒吧","lon":"121.52159","lat":"31.3208","category":"172","category_name":"酒吧","address":"杨浦区宁城路107临"},{"poiid":"B2094757D16CA6F44999","title":"中国农业银行(世界路支行)","lon":"121.52631","lat":"31.32293","category":"150","category_name":"银行","address":"杨浦区世界路137号(民京路世界路)"},{"poiid":"B2094757D16FA6FF4998","title":"中原体育场网球场","lon":"121.52744","lat":"31.32485","category":"220","category_name":"运动场所","address":"杨浦区开鲁路518号(世界路口)"},{"poiid":"B2094654D56FA1F54992","title":"良友金伴No.830","lon":"121.5295","lat":"31.32504","category":"117","category_name":"便民商店/便利店","address":"开鲁路480"},{"poiid":"B2094654D56FA1FB459D","title":"国和路610弄小区","lon":"121.527","lat":"31.3214","category":"47","category_name":"住宅区","address":"国和路610弄1-24号"},{"poiid":"B2094654DB69A5F8429A","title":"文峰美容美发(国和路店)","lon":"121.5257","lat":"31.31801","category":"148","category_name":"美容美发店","address":"杨浦区国和路993号(近世界路)"},{"poiid":"B2094654D56FA1F5439F","title":"长江快修世界路站","lon":"121.52582","lat":"31.32377","category":"159","category_name":"汽车维修","address":"杨浦区世界路149号(近民京路)"},{"poiid":"B2094655D26CA6FF499B","title":"国和大楼","lon":"121.52636","lat":"31.321383","category":"47","category_name":"住宅区","address":"市光路701号"},{"poiid":"B2094655D269AAFF499B","title":"来伊份世界路店","lon":"121.52576","lat":"31.31865","category":"68","category_name":"快餐厅","address":"杨浦区世界路63号(近国和路)"},{"poiid":"B2094757D16AA5FC409C","title":"作小宁家","lon":"121.5239935","lat":"31.322133203","category":"500","category_name":"未知分类","address":null},{"poiid":"B2094654D56FA1F54799","title":"小世界双语幼稚园","lon":"121.53041","lat":"31.32725","category":"57","category_name":"幼儿园","address":"杨浦区开鲁四村90-91号"},{"poiid":"B2094654D56FA0FD419C","title":"市京一村(西门)","lon":"121.52352","lat":"31.31836","category":"47","category_name":"住宅区","address":"五角场镇"},{"poiid":"B2094757D16DA5F8469E","title":"江湾城路殷行路","lon":"121.516340053","lat":"31.328233151","category":"260","category_name":"其他","address":"上海江湾城路殷行路"},{"poiid":"B2094757D66EA2FB4892","title":"观福苏州汤包馆","lon":"121.5259376","lat":"31.3181956","category":"247","category_name":"餐饮美食","address":"上海杨浦区国和路1000号吉买盛1楼(世界路口)"},{"poiid":"B2094757D06BA3F44999","title":"逸景佳苑","lon":"121.51221518732","lat":"31.326903500444","category":"252","category_name":"楼宇机构","address":"上海市宝山区逸仙路1588号"},{"poiid":"B2094655D26EA1FC4192","title":"世界路99弄小区(东门)","lon":"121.52579","lat":"31.32012","category":"47","category_name":"住宅区","address":"世界路99弄1-18号"},{"poiid":"B2094654DB6BA2FF419D","title":"开鲁三村(北二号门)","lon":"121.52914","lat":"31.32458","category":"47","category_name":"住宅区","address":""},{"poiid":"B2094655D26DABFE429E","title":"世界路117弄小区(东门)","lon":"121.52574","lat":"31.32058","category":"47","category_name":"住宅区","address":"世界路117弄1-15号"},{"poiid":"B2094757D06AAAFC469D","title":"民京路658弄","lon":"121.520546415","lat":"31.3207894631","category":"500","category_name":"未知分类","address":"上海民京路658弄"},{"poiid":"B2094757D065AAF54699","title":"中石化加油站","lon":"121.527039","lat":"31.331992","category":"154","category_name":"加油加气站","address":"杨浦区闸殷路167弄11号(国伟路闸殷路)"},{"poiid":"B2094757D064A7FC429D","title":"花生屋","lon":"121.527644103","lat":"31.3288736448","category":"500","category_name":"未知分类","address":null},{"poiid":"B2094757D164A6FC499F","title":"韩舍 韩国料理","lon":"121.5279081","lat":"31.321107482","category":"247","category_name":"餐饮美食","address":"上海西藏中路88号"},{"poiid":"B2094654D56FA0FE4498","title":"百佳购物广场","lon":"121.52631","lat":"31.3185","category":"119","category_name":"商场","address":"殷行"},{"poiid":"B2094655D26BA3FA4592","title":"东方网点世界路店","lon":"121.52597","lat":"31.32223","category":"208","category_name":"休闲场所","address":"杨浦区世界路133号近民京路;;"},{"poiid":"B2094654D56FA0FE4299","title":"中国电信国和路营业厅","lon":"121.52425","lat":"31.31833","category":"151","category_name":"电讯营业厅","address":"杨浦区国和路952号(近世界路)"},{"poiid":"B2094654D56FA1F5489F","title":"家得利超市No.078","lon":"121.53047","lat":"31.32506","category":"118","category_name":"超级市场","address":"开鲁路460"},{"poiid":"B2094654D56FA0FE429A","title":"苹果园(世界路)","lon":"121.52564","lat":"31.31836","category":"112","category_name":"糕饼店","address":"世界路63-1"},{"poiid":"B2094654D56FA1F94992","title":"国和路500弄小区","lon":"121.525","lat":"31.318","category":"47","category_name":"住宅区","address":"国和路500弄1-17号"},{"poiid":"B2094654D56FA1FB439D","title":"欢而乐KTV","lon":"121.52093","lat":"31.31707","category":"170","category_name":"KTV","address":"杨浦区国和路(中原城市广场旁)"},{"poiid":"B2094655D26DABF4419A","title":"国和二村(北二号门)","lon":"121.52802","lat":"31.32135","category":"47","category_name":"住宅区","address":""},{"poiid":"B2094757D06FAAFA409B","title":"国和路民庆路站(公交910,966)","lon":"121.5211838","lat":"31.3171804","category":"38","category_name":"公交车站","address":"上海市杨浦区国和路民庆路"},{"poiid":"B2094757D16EA6FD4099","title":"Milan's Home","lon":"121.5290151","lat":"31.326206589","category":"500","category_name":"未知分类","address":null},{"poiid":"B2094757D66FA7F9409E","title":"江湾体育场网球场","lon":"121.5212492","lat":"31.317172899","category":"220","category_name":"运动场所","address":"上海国和路346号"},{"poiid":"B2094757D16BA2F8469C","title":"开鲁三村24号","lon":"121.530226103","lat":"31.3247593587","category":"47","category_name":"住宅区","address":null},{"poiid":"B2094757D168A7FF4393","title":"叽's HOme","lon":"121.527577103","lat":"31.3232105263","category":"500","category_name":"未知分类","address":null},{"poiid":"B2094654D56FA0FC4592","title":"光明便利No.505","lon":"121.52927","lat":"31.32134","category":"117","category_name":"便民商店/便利店","address":"市光路781临"},{"poiid":"B2094757D16CA7F8409D","title":"市京集贸市场","lon":"121.5242145","lat":"31.322538312","category":"260","category_name":"其他","address":"杨浦区民京路(近世界路)"},{"poiid":"B2094757D66EA6F44899","title":"brainstorming room @JWT, SH","lon":"121.529006103","lat":"31.3278986244","category":"500","category_name":"未知分类","address":"上海长乐路989号25楼"},{"poiid":"B2094654D56FA0FD419E","title":"良友便利","lon":"121.52369","lat":"31.31817","category":"117","category_name":"便民商店/便利店","address":""},{"poiid":"B2094654D56FA0FD409C","title":"好德No.761","lon":"121.52288","lat":"31.31738","category":"117","category_name":"便民商店/便利店","address":"国和路893"},{"poiid":"B2094757D069A1F4489C","title":"开鲁路","lon":"121.529088103","lat":"31.3247915594","category":"260","category_name":"其他","address":"上海市杨浦区开鲁路"},{"poiid":"B2094757D164AAF8409C","title":"芹悦指压","lon":"121.5278711","lat":"31.322784517","category":"148","category_name":"美容美发店","address":"上海开鲁路472号"},{"poiid":"B2094654D56FA0FE419C","title":"良友金伴No.695","lon":"121.52579","lat":"31.31863","category":"117","category_name":"便民商店/便利店","address":"世界路63-6"},{"poiid":"B2094654D56FA0FE429F","title":"源味厨房(世和园东北)","lon":"121.52404","lat":"31.31795","category":"257","category_name":"中餐厅","address":"杨浦区国和路929号(近宁城路)"},{"poiid":"B2094654DB6BA2FF429A","title":"开鲁二村小区(南二号门)","lon":"121.52965","lat":"31.32171","category":"47","category_name":"住宅区","address":""},{"poiid":"B2094654DB65A5F9489E","title":"名角女士生活馆No.0189","lon":"121.52471","lat":"31.31807","category":"148","category_name":"美容美发店","address":"国和路955"},{"poiid":"B2094655D26EA2FE429B","title":"三门路11弄住宅小区","lon":"121.522","lat":"31.3174","category":"47","category_name":"住宅区","address":"三门路11弄1-22号"},{"poiid":"B2094654DB6BA2FF429B","title":"开鲁三村小区(南门)","lon":"121.52964","lat":"31.32171","category":"47","category_name":"住宅区","address":""},{"poiid":"B2094655D26CA6FE4498","title":"世界路91弄小区(东门)","lon":"121.52578","lat":"31.31897","category":"47","category_name":"住宅区","address":"世界路91弄1-38号"},{"poiid":"B2094654D56FA0FE419E","title":"市京一村小区(东门)","lon":"121.52504","lat":"31.31886","category":"47","category_name":"住宅区","address":""},{"poiid":"B2094757D66EA5FA4099","title":"恰恰宠物生活馆","lon":"121.527545103","lat":"31.3319247087","category":"500","category_name":"未知分类","address":"上海国伟路800号"},{"poiid":"B2094654D56FA1F54999","title":"开鲁路邮政储蓄","lon":"121.52975","lat":"31.32504","category":"150","category_name":"银行","address":"开鲁路476"},{"poiid":"B2094757D165A0FF429C","title":"hello kitty(五角场万达店)","lon":"121.5209971","lat":"31.317515407","category":"500","category_name":"未知分类","address":"上海五角场万达地下一楼"},{"poiid":"B2094757D165ABF54298","title":"our home","lon":"121.5304829","lat":"31.32819743","category":"500","category_name":"未知分类","address":null},{"poiid":"B2094757D169A4FA429F","title":"F&amp;M HOME","lon":"121.5261921","lat":"31.320170462","category":"500","category_name":"未知分类","address":null},{"poiid":"B2094752D46FA5FF4798","title":"五角场百联又一城","lon":"121.519652","lat":"31.317323","category":"500","category_name":"未知分类","address":null},{"poiid":"B2094654DB65A4FF489A","title":"上海电力物资有限公司闸殷路仓库","lon":"121.52868","lat":"31.3308","category":"263","category_name":"公司","address":"闸殷路185"},{"poiid":"B2094757D164A6F44199","title":"国和二村幼稚园","lon":"121.528131893","lat":"31.3212610555","category":"500","category_name":"未知分类","address":"杨浦区国和二村153号"},{"poiid":"B2094757D065AAFB4499","title":"537路中原路开鲁路站","lon":"121.5305","lat":"31.324855","category":"500","category_name":"未知分类","address":"上海中原路开鲁路"},{"poiid":"B2094752D16DA0FD459C","title":"博纳国际影城中原城市广场","lon":"121.523352","lat":"31.317916","category":"248","category_name":"生活娱乐","address":"杨浦区国和路777号中原城市广场2号4楼"},{"poiid":"B2094654DB6BA2FF4192","title":"开鲁新邨北区(南门)","lon":"121.52729","lat":"31.325","category":"656","category_name":"大门","address":""},{"poiid":"B2094654D56FA0FD4999","title":"国和二村(西门)","lon":"121.52625","lat":"31.32031","category":"656","category_name":"大门","address":""},{"poiid":"B2094655D26CA0FD409B","title":"上海江湾五角场汽车销售服务有限公司","lon":"121.52045","lat":"31.31748","category":"159","category_name":"汽车维修","address":"民庆路208号"},{"poiid":"B2094757D165AAFF489A","title":"北潞园环一车站","lon":"121.527325003","lat":"31.3201276618","category":"500","category_name":"未知分类","address":"北京北潞园阳光体育场对面"},{"poiid":"B2094757D165A1F5499F","title":"123区间四平路临平北路","lon":"121.5212243","lat":"31.317068397","category":"500","category_name":"未知分类","address":"上海四平路近临平北路"},{"poiid":"B2094757D464A7FD499A","title":"蓝蓝酒家","lon":"121.52405664205","lat":"31.317588870631","category":"260","category_name":"其他","address":"杨浦区国和路867号(近民庆路)"},{"poiid":"B2094757D568AAFF429B","title":"吉买盛超级生活广场(国和店)","lon":"121.52627306","lat":"31.3185159","category":"249","category_name":"购物服务","address":"杨浦区世界路76号(国和路)"},{"poiid":"B2094757D168AAF4449D","title":"国家电网中原路营业网点","lon":"121.524036","lat":"31.318236","category":"500","category_name":"未知分类","address":"上海杨浦区国和路950号"},{"poiid":"B2094654DB6BA2FF419B","title":"开鲁新邨北区(北门)","lon":"121.52796","lat":"31.32843","category":"656","category_name":"大门","address":""},{"poiid":"B2094757D16AA4FD4098","title":"开鲁三村91号","lon":"121.530944103","lat":"31.3245455542","category":"252","category_name":"楼宇机构","address":"上海开鲁三村91号"},{"poiid":"B2094654D56FA1F4449B","title":"长江快修国和路站","lon":"121.52154","lat":"31.31712","category":"159","category_name":"汽车维修","address":"国和路842"},{"poiid":"B2094655D26DAAFE469C","title":"东方名城(东二门)","lon":"121.52239","lat":"31.31964","category":"656","category_name":"大门","address":""},{"poiid":"B2094655D26FA1F5459C","title":"开鲁六村(北二门)","lon":"121.52918","lat":"31.32836","category":"656","category_name":"大门","address":""},{"poiid":"B2094654D56FA0FE4298","title":"民星敬老院","lon":"121.52471","lat":"31.31862","category":"615","category_name":"敬老院","address":"国和路968"},{"poiid":"B2094654D56FA1F5469C","title":"开鲁六村(北门)","lon":"121.53024","lat":"31.32837","category":"656","category_name":"大门","address":"殷行路"},{"poiid":"B2094655D26CA6FF469A","title":"东方名城(北门)","lon":"121.52094","lat":"31.31961","category":"656","category_name":"大门","address":""},{"poiid":"B2094654DB6BA2FF419C","title":"开鲁四村(南门)","lon":"121.53079","lat":"31.32506","category":"656","category_name":"大门","address":"开鲁路456弄"},{"poiid":"B2094655D26CA5FC439B","title":"开鲁三村(北门)","lon":"121.53084","lat":"31.3246","category":"656","category_name":"大门","address":""},{"poiid":"B2094655D26DABF44398","title":"东方名城(东一门)","lon":"121.52252","lat":"31.31755","category":"656","category_name":"大门","address":"国和路888弄"},{"poiid":"B2094654D56FA0FC4498","title":"国和二村(北门)","lon":"121.52945","lat":"31.32135","category":"656","category_name":"大门","address":""},{"poiid":"B2094655D26EA2FB4398","title":"世和园(北门)","lon":"121.52322","lat":"31.31754","category":"656","category_name":"大门","address":"世界路43弄25"}]