[{"poiid":"B2094655D36DA7F44992","title":"泗泾","lon":"121.27429","lat":"31.10866","category":"38","category_name":"公交车站","address":""},{"poiid":"B2094757D068A4FF409A","title":"松江钢材城","lon":"121.28397478","lat":"31.108853042","category":"123","category_name":"家具建材市场","address":"上海松江区泗泾镇泗砖路103号"},{"poiid":"B2094757D16BA2F5459E","title":"泗泾古镇","lon":"121.278487831","lat":"31.1102715986","category":"260","category_name":"其他","address":"上海松江"},{"poiid":"B2094654DA64A6F54592","title":"丽水豪庭","lon":"121.28366","lat":"31.113916","category":"47","category_name":"住宅区","address":"上海市松江区沪松公路2517弄"},{"poiid":"B2094654DA64ABFD4292","title":"云顶别墅","lon":"121.27198","lat":"31.12071","category":"47","category_name":"住宅区","address":"上海市松江区泗泾镇泗陈公路388号"},{"poiid":"B2094654DA64A6F5459F","title":"丽茵别墅","lon":"121.296","lat":"31.1274","category":"47","category_name":"住宅区","address":"上海市松江区泗泾镇泗陈公路2弄358号"},{"poiid":"B2094751D368A3F8429F","title":"湘西部落","lon":"121.28337","lat":"31.11372","category":"77","category_name":"湖南菜","address":"松江区泗泾镇沪松公路2519弄2-6号(近泗泾老街)"},{"poiid":"B2094757D064A2FD4999","title":"长泰西郊别墅","lon":"121.292297","lat":"31.109041","category":"47","category_name":"住宅区","address":"松江区泗砖南路1500号"},{"poiid":"B2094757D464A0F94992","title":"小咸亨","lon":"121.2837139959","lat":"31.117566597902","category":"75","category_name":"浙江菜","address":"松江区泗泾镇鼓浪路58号(沪松公路)"},{"poiid":"B2094757D16FA5F5469D","title":"天雅村酒店(松江店)","lon":"121.27643","lat":"31.11559","category":"76","category_name":"上海菜","address":"松江区泗泾镇文化路227号(鼓浪路口)"},{"poiid":"B2094753D56FA1FB409C","title":"玛雅海滩水公园","lon":"121.284721","lat":"31.116203","category":"500","category_name":"未知分类","address":"上海市 上海市松江区"},{"poiid":"B2094757D16FA4F5429C","title":"啊玺屋企!","lon":"121.284937598","lat":"31.116389664","category":"247","category_name":"餐饮美食","address":"上海鼓浪路"},{"poiid":"B2094750D269A0FC449E","title":"凯德龙之梦（莘庄店）","lon":"121.28688","lat":"31.111957","category":"500","category_name":"未知分类","address":null},{"poiid":"B2094757D064A3FB479F","title":"欢乐谷4D电影院","lon":"121.29806533","lat":"31.116317229","category":"178","category_name":"电影院","address":"欢乐谷上海滩内"},{"poiid":"B2094654DA64A6F94899","title":"快客NO.6283","lon":"121.28316","lat":"31.11687","category":"117","category_name":"便民商店/便利店","address":"泗泾镇"},{"poiid":"B2094654DA64A0F54698","title":"上海沪松海鲜港","lon":"121.28374","lat":"31.11129","category":"88","category_name":"海鲜酒楼","address":"泗泾镇"},{"poiid":"B2094757D66FA1F4499B","title":"泗泾福音堂","lon":"121.283400831","lat":"31.1154507104","category":"500","category_name":"未知分类","address":"上海市松江区泗泾镇开江东路"},{"poiid":"B2094757D16EA3FB4392","title":"上岛咖啡泗泾五金城店","lon":"121.280029","lat":"31.112779","category":"65","category_name":"咖啡厅","address":"松江区沪松公路2517弄泗泾五金城32-33号2楼"},{"poiid":"B2094757D16AA2FF469B","title":"泗泾医院","lon":"121.27336283","lat":"31.112432645","category":"162","category_name":"医院","address":"松江区泗泾镇江川北路108号(近泗泾老街)"},{"poiid":"B2094654DA64A6F9469E","title":"名角女士生活馆(上海邹氏食品有限公司东南)","lon":"121.28115","lat":"31.11644","category":"148","category_name":"美容美发店","address":""},{"poiid":"B2094757D165A1FF429E","title":"松江四中","lon":"121.279143091","lat":"31.1099784023","category":"55","category_name":"中学","address":"松江区泗泾镇开江东路子192弄11号"},{"poiid":"B2094757D168A4F4479C","title":"悦豪大酒店","lon":"121.277993663","lat":"31.1124963374","category":"76","category_name":"上海菜","address":"松江区泗泾镇鼓浪路508号"},{"poiid":"B2094655D36DA0FA4093","title":"叶家公路","lon":"121.29143","lat":"31.12184","category":"38","category_name":"公交车站","address":""},{"poiid":"B2094757D568A4F4499A","title":"新南丽都","lon":"121.2793","lat":"31.109119","category":"47","category_name":"住宅区","address":"上海市松江区沪松公路2749弄"},{"poiid":"B2094757D66EA3F84692","title":"张施小区","lon":"121.29324283","lat":"31.108453559","category":"47","category_name":"住宅区","address":"上海长施公路398弄"},{"poiid":"B209475DD56FA6F9469C","title":"泰晤士小镇","lon":"121.293526","lat":"31.114239","category":"250","category_name":"公园户外","address":"上海市 上海松江大学城"},{"poiid":"B2094757D16EA6FF429C","title":"上海华氏大药房有限公司鼓浪路药房","lon":"121.28195583","lat":"31.11684074","category":"500","category_name":"未知分类","address":"上海市松江区鼓浪路131-133号"},{"poiid":"B2094757D169A6FD419B","title":"泗泾良佳会所","lon":"121.282635831","lat":"31.1212458354","category":"500","category_name":"未知分类","address":"上海泗泾镇鼓浪路88号"},{"poiid":"B2094655D26EAAFE4899","title":"美鹭海鲜大酒楼","lon":"121.28468","lat":"31.10571","category":"260","category_name":"其他","address":"松江区泗泾镇泗砖公路99弄1号A幢"},{"poiid":"B2094757D168A4F8419B","title":"泗泾镇人民政府","lon":"121.27498883","lat":"31.116565734","category":"500","category_name":"未知分类","address":"上海市松江区泗泾镇人民路1号"},{"poiid":"B2094654DA64A6FF4092","title":"新华书店(开江路)","lon":"121.27951","lat":"31.11214","category":"125","category_name":"书店","address":""},{"poiid":"B2094654DA64A7FC4199","title":"流动人口居住中心","lon":"121.2934","lat":"31.111315","category":"47","category_name":"住宅区","address":"长施路116号"},{"poiid":"B2094757D06AA7F4419A","title":"肯德基 KFC (泗泾店)","lon":"121.274235","lat":"31.112659","category":"500","category_name":"未知分类","address":"上海松江泗泾镇江川北路134弄146号"},{"poiid":"B2094654DA64A7FC499B","title":"上海骏源塑胶有限公司","lon":"121.29016","lat":"31.11109","category":"263","category_name":"公司","address":"长施路303号"},{"poiid":"B2094654DA64A6FF409A","title":"泗泾镇文化图书馆","lon":"121.27893","lat":"31.11195","category":"181","category_name":"图书馆","address":""},{"poiid":"B2094654DB69A4FF419D","title":"文峰美容美发(鼓浪路店)","lon":"121.27714","lat":"31.11618","category":"148","category_name":"美容美发店","address":"松江区泗泾镇鼓浪路534号(鼓浪路泗泾江川路)"},{"poiid":"B2094654DA64A6FF479B","title":"泗泾五金商店","lon":"121.28003","lat":"31.11277","category":"123","category_name":"家具建材市场","address":""},{"poiid":"B2094654DA64A6F9489A","title":"会波苑小区","lon":"121.289","lat":"31.1227","category":"47","category_name":"住宅区","address":"鼓浪路57号"},{"poiid":"B2094654DA64A6F94698","title":"松江区人民法院泗泾人民法庭","lon":"121.28068","lat":"31.11633","category":"252","category_name":"楼宇机构","address":"鼓浪路181"},{"poiid":"B2094757D06AABFB409D","title":"同润菲诗艾伦","lon":"121.287","lat":"31.1234","category":"249","category_name":"购物服务","address":"上海松江区古楼公路1198弄"},{"poiid":"B2094654DA64A1F5449C","title":"松江区泗联小学","lon":"121.2801","lat":"31.11033","category":"56","category_name":"小学","address":""},{"poiid":"B2094654DA64A6F8419E","title":"松江区第四中学(边门)","lon":"121.27757","lat":"31.11296","category":"678","category_name":"学校大门","address":""},{"poiid":"B2094757D069A4FA4092","title":"保利十二橡树庄园","lon":"121.296","lat":"31.0993","category":"500","category_name":"未知分类","address":"上海市松江区莘砖公路3118弄"},{"poiid":"B2094654DA64A6F5499A","title":"大漠高档足浴休闲会所","lon":"121.28361","lat":"31.10839","category":"149","category_name":"洗浴推拿场所","address":"泗泾镇"},{"poiid":"B2094654DA64ABFC489F","title":"中国工商银行松江钢材城支行","lon":"121.28408","lat":"31.10889","category":"150","category_name":"银行","address":""},{"poiid":"B2094753D56DABFB4299","title":"泗泾五金城","lon":"121.294044","lat":"31.113128","category":"249","category_name":"购物服务","address":"上海市 。z"},{"poiid":"B2094757D66EA5FE4898","title":"上海市未成年犯管教所","lon":"121.28093813","lat":"31.105691099","category":"500","category_name":"未知分类","address":"上海地址不明"},{"poiid":"B2094757D164A7FF459F","title":"上海松江四泾绿波景园","lon":"121.274582","lat":"31.109719","category":"500","category_name":"未知分类","address":"上海松江区四泾镇江川南路"},{"poiid":"B2094654DA64A1F54498","title":"润和苑","lon":"121.26771","lat":"31.113291","category":"47","category_name":"住宅区","address":"上海市松江区四泾镇鼓浪路801号"},{"poiid":"B2094752D16DA3FD499C","title":"飞天量贩KTV","lon":"121.2793885248968","lat":"31.11116609943708","category":"170","category_name":"KTV","address":"上海市松江区沪松公路江川路"},{"poiid":"B2094757D16CA1FC4092","title":"九亭","lon":"121.27549483","lat":"31.119801804","category":"500","category_name":"未知分类","address":"上海市松江区泗陈公路"},{"poiid":"B2094757D16CAAF5499A","title":"天喔食品","lon":"121.28992049","lat":"31.122074853","category":"500","category_name":"未知分类","address":"上海松江区泗泾镇九干路165号"},{"poiid":"B2094654DA64A6F8429E","title":"大名公寓","lon":"121.27621","lat":"31.116224","category":"47","category_name":"住宅区","address":"文化路256弄"},{"poiid":"B2094654DA64A0F54493","title":"靖多苑","lon":"121.28011","lat":"31.108418","category":"47","category_name":"住宅区","address":"钱家公路38号"},{"poiid":"B2094757D16AABFA4699","title":"佘山曼荼园别墅","lon":"121.295249431","lat":"31.1247159103","category":"47","category_name":"住宅区","address":"上海沈砖公路4777号"},{"poiid":"B2094655D26BA5F5469B","title":"碧城大酒店","lon":"121.28424","lat":"31.10257","category":"250","category_name":"公园户外","address":"松江区泗砖路423号(近松江钢材城)"},{"poiid":"B2094757D165AAF54598","title":"浙江泰隆商业银行松江支行","lon":"121.281026631","lat":"31.1084476593","category":"150","category_name":"银行","address":"上海市松江区泗泾镇泗砖公路88号"},{"poiid":"B2094654DA64A5FC4193","title":"佳乐超市(咸丰酒店泗泾店南)","lon":"121.2837","lat":"31.10622","category":"118","category_name":"超级市场","address":"泗砖路226号"},{"poiid":"B2094654DA64ABFD499A","title":"广利粽子店","lon":"121.27375","lat":"31.11282","category":"68","category_name":"快餐厅","address":"松江区松江泗泾镇江川北路155号"},{"poiid":"B2094654DA64ABFD429D","title":"小桥流水 松江店","lon":"121.26726","lat":"31.11963","category":"47","category_name":"住宅区","address":"松江区泗泾镇泗陈公路388号(近文化路)"},{"poiid":"B2094757D66FA0F84092","title":"沈家宅","lon":"121.283647","lat":"31.1079","category":"500","category_name":"未知分类","address":"上海浦三路沈家宅195弄"},{"poiid":"B2094757D06AA7F9429F","title":"老邻居饭香","lon":"121.271109","lat":"31.11452","category":"249","category_name":"购物服务","address":"上海松江区泗泾镇鼓浪路639号"},{"poiid":"B2094655D265A6F5469A","title":"泗泾颐景园","lon":"121.28695530166","lat":"31.126735800072","category":"47","category_name":"住宅区","address":"泗陈公路518弄"},{"poiid":"B2094654DB64A2FE4898","title":"永琪美容美发(泗泾·江川路)","lon":"121.27423","lat":"31.11267","category":"148","category_name":"美容美发店","address":"松江区松江泗泾镇江川北路148号"},{"poiid":"B2094757D568ABF9469B","title":"上海东跃茶业有限公司","lon":"121.28369086","lat":"31.10714952","category":"255","category_name":"专卖店","address":"松江区泗砖路146号"},{"poiid":"B2094654DA64A6FA4899","title":"川金龙骨头王","lon":"121.27423","lat":"31.1154","category":"70","category_name":"综合酒楼","address":""},{"poiid":"B2094654DA64ABFD469F","title":"西南名苑","lon":"121.26776","lat":"31.116817","category":"47","category_name":"住宅区","address":"上海市松江区泗陈公路501弄"},{"poiid":"B2094757D164A1FC479D","title":"国际食品城","lon":"121.29677","lat":"31.12469","category":"500","category_name":"未知分类","address":"松江区沪松公路2101号(望东北路口)"},{"poiid":"B2094654DA64ABFD4198","title":"上海市地方税务局松江分局第八税务所","lon":"121.27388","lat":"31.11394","category":"250","category_name":"公园户外","address":"泗泾江川北路208"},{"poiid":"B2094654DA64ABF94499","title":"快客(上海亿思科技实业有限公司西)","lon":"121.27616","lat":"31.10931","category":"117","category_name":"便民商店/便利店","address":""},{"poiid":"B2094654DA64ABFD429C","title":"南村小区","lon":"121.27428","lat":"31.117962","category":"47","category_name":"住宅区","address":"文化路321弄"},{"poiid":"B2094655D26AA6F44299","title":"美味情缘烧烤吧","lon":"121.27084","lat":"31.11428","category":"68","category_name":"快餐厅","address":"松江区泗泾镇鼓浪路649号(近江川路)"},{"poiid":"B2094654DA64A6FB409E","title":"江川二村","lon":"121.26999","lat":"31.114859","category":"47","category_name":"住宅区","address":"鼓浪路700号"},{"poiid":"B2094654DB64A2FE499F","title":"快客NO.6292","lon":"121.27385","lat":"31.11245","category":"117","category_name":"便民商店/便利店","address":""},{"poiid":"B2094757D169A6FE489D","title":"上海大造气雾剂有限公司","lon":"121.29123383","lat":"31.122574864","category":"263","category_name":"公司","address":"上海市松江区泗泾东部工业区望东中路135号"},{"poiid":"B2094654DB64A2FE499E","title":"好德","lon":"121.27384","lat":"31.11252","category":"117","category_name":"便民商店/便利店","address":""},{"poiid":"B2094757D568A7FE479B","title":"维也纳会所","lon":"121.28370117","lat":"31.10657145","category":"248","category_name":"生活娱乐","address":"中国上海市松江区高技公路"},{"poiid":"B2094654DA64ABFE419E","title":"江川一村","lon":"121.27206","lat":"31.112606","category":"47","category_name":"住宅区","address":"开江二路78弄"},{"poiid":"B2094654DB64A2FF4099","title":"永乐生活电器","lon":"121.27543","lat":"31.10911","category":"138","category_name":"家电电子卖场","address":""},{"poiid":"B2094654DA64A6FE469A","title":"安方塔","lon":"121.27536","lat":"31.11098","category":"250","category_name":"公园户外","address":"松江区泗泾镇开江中路"},{"poiid":"B2094654DA64A6FA479F","title":"泗泾邮政储蓄","lon":"121.27529","lat":"31.11563","category":"150","category_name":"银行","address":""},{"poiid":"B2094757D66CA7FA479C","title":"味道江湖","lon":"121.26904383","lat":"31.114292585","category":"71","category_name":"四川菜","address":"松江区鼓浪路693-697号(近西安路)"},{"poiid":"B2094655D36DA7F44993","title":"泗泾镇","lon":"121.27394","lat":"31.10864","category":"38","category_name":"公交车站","address":""},{"poiid":"B2094757D66FA1F4429E","title":"车亮汽车专业美容","lon":"121.277088","lat":"31.109551","category":"500","category_name":"未知分类","address":"上海虹梅南路465号(近上中西路)"},{"poiid":"B2094655D265A0F8469E","title":"三湘商业广场","lon":"121.27165","lat":"31.11765","category":"47","category_name":"住宅区","address":"松江区横港公路37-45号(近泗陈公路)"},{"poiid":"B2094654DA64A6FE459C","title":"古镇泗泾","lon":"121.27477","lat":"31.11087","category":"248","category_name":"生活娱乐","address":"泗泾镇"},{"poiid":"B2094654DA64A6FA4792","title":"松江电信局泗泾分局","lon":"121.27473","lat":"31.1155","category":"263","category_name":"公司","address":"鼓浪路"},{"poiid":"B2094654DB64A2FE439B","title":"颐景园(朝辉公路)","lon":"121.26741","lat":"31.11967","category":"47","category_name":"住宅区","address":""},{"poiid":"B2094757D66AABFC409A","title":"宋记香辣蟹 泗泾镇店","lon":"121.26931","lat":"31.11425","category":"71","category_name":"四川菜","address":"松江区泗泾镇鼓浪路727号(鼓浪路泗泾西安路)"},{"poiid":"B2094654DA64A6F84992","title":"泗泾酒家","lon":"121.26969","lat":"31.11413","category":"70","category_name":"综合酒楼","address":"松江区泗泾镇古浪路719号(近西安路)"},{"poiid":"B2094654DA64ABFE429D","title":"中国建设银行上海泗泾支行","lon":"121.27419","lat":"31.1112","category":"150","category_name":"银行","address":"松江区泗泾镇开江西路448号"},{"poiid":"B2094757D568A6FC459C","title":"泊兰花苑","lon":"121.28016954","lat":"31.10308187","category":"47","category_name":"住宅区","address":"张泾路1339弄"},{"poiid":"B2094654DB64A2FE479C","title":"红虹木业","lon":"121.28424","lat":"31.10437","category":"263","category_name":"公司","address":"泗砖路6号"},{"poiid":"B2094654DA64A6F94192","title":"弘泰酒家","lon":"121.27117","lat":"31.11434","category":"70","category_name":"综合酒楼","address":""},{"poiid":"B2094654DB69A7F9499C","title":"中国工商银行泗泾支行","lon":"121.27308","lat":"31.11525","category":"150","category_name":"银行","address":"杨浦区文化路412号鼓浪路口(鼓浪路松江文化路)"},{"poiid":"B2094757D568A5F94593","title":"金港河滨华城","lon":"121.269","lat":"31.1175","category":"47","category_name":"住宅区","address":"上海市松江区镇横港路633号"},{"poiid":"B2094654DA64A6F44799","title":"俊爵假日酒店泗泾店(保利华宾馆西)","lon":"121.29388","lat":"31.12586","category":"250","category_name":"公园户外","address":""},{"poiid":"B2094757D568A6F44699","title":"飞扬幼儿园","lon":"121.28096544","lat":"31.10259576","category":"57","category_name":"幼儿园","address":"中国上海市松江区"},{"poiid":"B2094654DA64A2FE449F","title":"泉都宾馆","lon":"121.27137","lat":"31.1054","category":"250","category_name":"公园户外","address":"上海市松江区沪松公路3023号"},{"poiid":"B2094654DB64A6F8409A","title":"中国移动泗泾营业厅","lon":"121.27019","lat":"31.11434","category":"151","category_name":"电讯营业厅","address":"松江区泗泾镇古浪路685号"},{"poiid":"B2094654DA64ABFD469D","title":"松江区泗泾小学","lon":"121.26981","lat":"31.11612","category":"56","category_name":"小学","address":"赵非泾路75弄50"},{"poiid":"B2094757D165ABFA4292","title":"都可茶饮CoCo(横港公路店)","lon":"121.27022973","lat":"31.114223983","category":"247","category_name":"餐饮美食","address":"上海松江区泗泾镇横港公路18弄63号"},{"poiid":"B2094757D568A6FE459F","title":"泊兰花苑(南门)","lon":"121.28025553","lat":"31.10258545","category":"47","category_name":"住宅区","address":"张泾路1339弄"},{"poiid":"B2094654DA64A5FC4592","title":"上海冠达纺织制造有限公司","lon":"121.30035","lat":"31.11642","category":"263","category_name":"公司","address":""},{"poiid":"B2094757D568A5FF4698","title":"上海市建瓯钢铁协会","lon":"121.28379584","lat":"31.10311388","category":"252","category_name":"楼宇机构","address":"金山钢材城综合大楼"},{"poiid":"B2094654DA64A6F8439C","title":"东方教具工业园","lon":"121.27437","lat":"31.12601","category":"45","category_name":"产业园区","address":""},{"poiid":"B2094655D264A0F9419A","title":"绿波景园","lon":"121.2715","lat":"31.108234","category":"47","category_name":"住宅区","address":"沪松公路2972弄"},{"poiid":"B2094654DA64A6F5409B","title":"小区(九干路)","lon":"121.29232","lat":"31.12888","category":"47","category_name":"住宅区","address":"九干路100弄98"},{"poiid":"B2094654DA64ABFD469C","title":"松江区泗泾幼儿园","lon":"121.26954","lat":"31.11751","category":"57","category_name":"幼儿园","address":"松江区泗泾镇赵非公路175弄50号"},{"poiid":"B2094757D568A5F8419E","title":"上海砖圆汽车维修服务有限公司","lon":"121.28381917","lat":"31.10227892","category":"159","category_name":"汽车维修","address":"中国上海市松江区高技公路"},{"poiid":"B2094654DA64A6F9429F","title":"鼎丰丰","lon":"121.27164","lat":"31.11443","category":"248","category_name":"生活娱乐","address":"鼓浪路611-613"},{"poiid":"B2094757D165ABFB469C","title":"宋记香辣蟹","lon":"121.269011831","lat":"31.1143796873","category":"247","category_name":"餐饮美食","address":"上海市松江区横港公路"},{"poiid":"B2094757D568AAFD409E","title":"齐鲁车行(张泾路店)","lon":"121.28102349","lat":"31.10259549","category":"133","category_name":"自行车专卖店","address":"洞泾镇张泾路1339弄58号-3"},{"poiid":"B2094654DA64A0FC4599","title":"江南重工股份有限公司金属结构件车间","lon":"121.29527","lat":"31.12609","category":"263","category_name":"公司","address":"九干路50"},{"poiid":"B2094654DA64ABFD459E","title":"横河工业园","lon":"121.27864","lat":"31.12875","category":"45","category_name":"产业园区","address":""},{"poiid":"B2094654DA64A5FC459E","title":"上海上虹实业公司工业小区","lon":"121.30091","lat":"31.11941","category":"263","category_name":"公司","address":"得心路69号"},{"poiid":"B2094654DB64A2FD409A","title":"罗森","lon":"121.27142","lat":"31.1055","category":"117","category_name":"便民商店/便利店","address":""},{"poiid":"B2094654DA64A6F8439E","title":"打铁桥村社区之家","lon":"121.27471","lat":"31.12392","category":"248","category_name":"生活娱乐","address":""},{"poiid":"B2094757D568A6FC449D","title":"润和欣苑","lon":"121.26702","lat":"31.114988","category":"47","category_name":"住宅区","address":"上海市松江区鼓浪路828弄、790弄"},{"poiid":"B2094757D66EA5F9499C","title":"威乐","lon":"121.30422448","lat":"31.114377437","category":"500","category_name":"未知分类","address":"上海松江久富经济区"},{"poiid":"B2094757D568ABFF439E","title":"上海漕河泾开发区松江高科技园一期","lon":"121.2859206","lat":"31.09557167","category":"46","category_name":"楼宇","address":"松江区新桥镇莘砖公路1188号"},{"poiid":"B2094752D66BA1FA419D","title":"上海辰山植物园","lon":"121.275964","lat":"31.100207","category":"250","category_name":"公园户外","address":"辰花公路"},{"poiid":"B2094654DA64A5FC469D","title":"上海松申水环境净化有限公司","lon":"121.302","lat":"31.12019","category":"263","category_name":"公司","address":""},{"poiid":"B2094757D66EA3FB459A","title":"泗泾小学体育馆","lon":"121.26841083","lat":"31.116050723","category":"500","category_name":"未知分类","address":"上海市松江区泗陈公路"},{"poiid":"B2094654DA64A6F8479B","title":"上海三联百货商场","lon":"121.27341","lat":"31.12981","category":"119","category_name":"商场","address":"方泗路177-179"},{"poiid":"B2094654DA64A2FF4099","title":"凯传物资有限公司","lon":"121.27229","lat":"31.10535","category":"255","category_name":"专卖店","address":"沪松公路3009号砖桥钢材市场配送中心3幢13号"},{"poiid":"B2094654DA64ABFD4592","title":"上海冠驰汽车安全技术有限公司","lon":"121.27703","lat":"31.12799","category":"263","category_name":"公司","address":""},{"poiid":"B2094757D568A4FD499C","title":"上海天青工业小区","lon":"121.29228841","lat":"31.13195801","category":"47","category_name":"住宅区","address":"中国上海市松江区涞寅路"},{"poiid":"B2094654DA64A3F54698","title":"上海誉振公司","lon":"121.27425","lat":"31.10364","category":"248","category_name":"生活娱乐","address":"砖桥钢材市场东楼34号"},{"poiid":"B2094757D568A7FC499B","title":"上海天青工业小区(西南门)","lon":"121.29190701","lat":"31.1322168","category":"47","category_name":"住宅区","address":"中国上海市松江区涞寅路"},{"poiid":"B2094654DA64A1F54692","title":"上海维仪塑胶制品有限公司","lon":"121.30622","lat":"31.11464","category":"263","category_name":"公司","address":"连富路769"},{"poiid":"B2094757D569A0FC419E","title":"长安福特马自达培训中心","lon":"121.29398872","lat":"31.13280463","category":"190","category_name":"培训机构","address":"寅西路111"},{"poiid":"B2094757D66FA0F9419B","title":"上海宝康婴童用品有限公司","lon":"121.297386941","lat":"31.1316439599","category":"500","category_name":"未知分类","address":"上海九亭镇涞寅路1881号15栋5层"},{"poiid":"B2094654DA64A4FD4993","title":"DHL物流","lon":"121.29452","lat":"31.13251","category":"248","category_name":"生活娱乐","address":"寅西路1-99"},{"poiid":"B2094654DA64A1F54193","title":"泰永企业(上海)有限公司","lon":"121.27584","lat":"31.1311","category":"263","category_name":"公司","address":"九干路368"},{"poiid":"B2094654DA64ABFD449F","title":"良榕搅拌","lon":"121.28005","lat":"31.13254","category":"263","category_name":"公司","address":""}]