[{"poiid":"B2094655D26AABFF429D","title":"食道园","lon":"121.453704054","lat":"31.218146793","category":"95","category_name":"日本料理","address":"卢湾区长乐路433号(近襄阳北路)"},{"poiid":"B2094753DA6FA7FE4292","title":"赵小姐不等位","lon":"121.454994","lat":"31.219198","category":"500","category_name":"未知分类","address":"上海市 长乐路628号"},{"poiid":"B2094757D068A6FD499D","title":"Bistro Burger","lon":"121.45293","lat":"31.21705","category":"94","category_name":"西餐厅","address":"静安区富民路291号悟锦世纪大厦1楼(长乐路口)"},{"poiid":"B2094753D76FAAFA449C","title":"上海滩国泰旗舰店","lon":"121.466011","lat":"31.216125","category":"249","category_name":"购物服务","address":"淮海中路868号"},{"poiid":"B209475CD564A7F84292","title":"上海滩新天地店","lon":"121.47463","lat":"31.22164","category":"119","category_name":"商场","address":"\"太仓路181弄新天地北里15号\r\n\""},{"poiid":"B209475CD564A7F8439E","title":"上海滩中信泰富店","lon":"121.45602","lat":"31.22851","category":"119","category_name":"商场","address":"\"南京西路1168号中信泰富广场，店铺号221.\r\n\""},{"poiid":"B2094750D56EA5FF4299","title":"新斗记","lon":"121.454566","lat":"31.21754","category":"72","category_name":"广东菜","address":"徐汇区新乐路47号(近襄阳北路)"},{"poiid":"B2094757D06FA1F94598","title":"大江户","lon":"121.454611586","lat":"31.2162261571","category":"95","category_name":"日本料理","address":"徐汇区东湖路30号(近淮海中路)"},{"poiid":"B2094757D06FA3FF489F","title":"白木屋居酒屋(东湖店)","lon":"121.45498","lat":"31.21597","category":"95","category_name":"日本料理","address":"徐汇区东湖路30号甲(近淮海中路)"},{"poiid":"B2094655D26AA1F5419C","title":"首席公馆","lon":"121.45526","lat":"31.21793","category":"247","category_name":"餐饮美食","address":"徐汇区新乐路82号(近襄阳北路)"},{"poiid":"B2094757D06FA1FC429C","title":"Wagas沃歌斯(东湖路店)","lon":"121.454116374","lat":"31.2161574382","category":"94","category_name":"西餐厅","address":"徐汇区东湖路7号(近淮海中路)"},{"poiid":"B2094757D06FAAF94298","title":"Le Saleya","lon":"121.4557","lat":"31.21946","category":"94","category_name":"西餐厅","address":"徐汇区长乐路570弄1号(近襄阳北路)"},{"poiid":"B2094757D06FA0FB409F","title":"海之幸(新乐店)","lon":"121.45378","lat":"31.2167","category":"95","category_name":"日本料理","address":"徐汇区新乐路169号(近东湖路)"},{"poiid":"B2094752D06CA0FE4793","title":"海面馆","lon":"121.4565","lat":"31.219706","category":"247","category_name":"餐饮美食","address":"长乐路333号"},{"poiid":"B2094757D06FA4FB449E","title":"新花城鲍鱼海鲜火锅","lon":"121.4546","lat":"31.2161","category":"86","category_name":"火锅店","address":"徐汇区东湖路58号(近淮海中路)"},{"poiid":"B2094654DB65A4FD469F","title":"上海东湖宾馆","lon":"121.4535","lat":"31.21684","category":"214","category_name":"四星级宾馆","address":"上海市徐汇区东湖路70号(主楼)，东湖路7号(副楼)(近新乐路)"},{"poiid":"B2094757D068A7FD4393","title":"Dakota","lon":"121.45416831","lat":"31.216473312","category":"94","category_name":"西餐厅","address":"徐汇区东湖路38号(近淮海中路)"},{"poiid":"B2094757D06FA1F44198","title":"博多新记(新乐路店)","lon":"121.45502","lat":"31.21728","category":"72","category_name":"广东菜","address":"徐汇区新乐路90号(近襄阳北路)"},{"poiid":"B2094654DA6EA2FB459A","title":"爱美高大厦","lon":"121.456","lat":"31.2186","category":"46","category_name":"楼宇","address":"越秀区广州沿江中路298号"},{"poiid":"B2094757D068A2FD479B","title":"邮电医院","lon":"121.453616","lat":"31.218576733","category":"162","category_name":"医院","address":"上海徐汇区长乐路666号(近襄阳路)"},{"poiid":"B2094757D16BA7FB459C","title":"无敌呷拉面","lon":"121.454262793","lat":"31.2160521684","category":"95","category_name":"日本料理","address":"徐汇区东湖路7号东湖宾馆右侧(近淮海中路)"},{"poiid":"B2094757D06EABF5449F","title":"FOSSETTE 酒窝","lon":"121.45537031","lat":"31.218434844","category":"94","category_name":"西餐厅","address":"徐汇区襄阳北路93号-3(近新乐路)"},{"poiid":"B2094757D068A2FE439E","title":"红壮铁板烧","lon":"121.45338","lat":"31.21656","category":"269","category_name":"烧烤","address":"徐汇区东湖路70号(近淮海中路)"},{"poiid":"B2094757D06FA4FF459C","title":"南角亭热气涮羊肉","lon":"121.453073994","lat":"31.2180353639","category":"86","category_name":"火锅店","address":"徐汇区长乐路688号(近富民路)"},{"poiid":"B2094654D564ABF54893","title":"葡萄园(新乐路)","lon":"121.45533","lat":"31.21751","category":"76","category_name":"上海菜","address":"徐汇区新乐路55号(近襄阳北路)"},{"poiid":"B2094655D264A0F5439F","title":"上海市第一妇婴保健院贵宾门诊","lon":"121.45587","lat":"31.21997","category":"162","category_name":"医院","address":"长乐路560"},{"poiid":"B2094757D56CA4FA429E","title":"星巴克 东方巴黎店 Starbucks Cafe","lon":"121.46096356062","lat":"31.215774641273","category":"247","category_name":"餐饮美食","address":"南昌路559号"},{"poiid":"B2094655D26EA6FD4293","title":"笑笑 SHIROKIYA & WARAWARA","lon":"121.45487043308","lat":"31.21617261741","category":"95","category_name":"日本料理","address":"徐汇区东湖路30号乙(近淮海中路)"},{"poiid":"B2094757D065AAF54292","title":"上海东方大班","lon":"121.454256086","lat":"31.2164013272","category":"500","category_name":"未知分类","address":"徐汇区东湖路39号(近淮海中路)"},{"poiid":"B2094757D06FAAF84498","title":"The Monkey Lounge","lon":"121.454697132","lat":"31.2162284851","category":"172","category_name":"酒吧","address":"徐汇区东湖路56弄22号(近新乐路)"},{"poiid":"B2094757D068A6FC4398","title":"永隆港式茶餐厅","lon":"121.45623","lat":"31.21676","category":"72","category_name":"广东菜","address":"徐汇区襄阳北路100号(近襄阳公园)"},{"poiid":"B2094757D16BA1FF4199","title":"绝口老弄堂爆鱼面馆","lon":"121.45657973","lat":"31.219079062","category":"68","category_name":"快餐厅","address":"卢湾区陕西南路63弄1号(近淮海路)"},{"poiid":"B2094757D568AAFF4199","title":"Southern Belle","lon":"121.454345","lat":"31.21859111","category":"260","category_name":"其他","address":"卢湾区长乐路433号(近襄阳北路)"},{"poiid":"B2094655D36DA1F4479C","title":"襄阳北路长乐路","lon":"121.45542","lat":"31.21831","category":"38","category_name":"公交车站","address":""},{"poiid":"B2094757D069A6F8499A","title":"酒池星座(新乐路店)","lon":"121.45520224","lat":"31.217771601","category":"260","category_name":"其他","address":"徐汇区新乐路86号(近襄阳北路)"},{"poiid":"B2094654DA6DAAFA469A","title":"启华大厦","lon":"121.455","lat":"31.2171","category":"46","category_name":"楼宇","address":"闸北区江场西路38号(近共和新路)"},{"poiid":"B2094757D06FABF5419C","title":"韬奋西文书局","lon":"121.45547361","lat":"31.219961281","category":"125","category_name":"书店","address":"上海卢湾区长乐路325号(近陕西南路)"},{"poiid":"B2094757D068ABFC4192","title":"Wine &amp; Tapas","lon":"121.456431081","lat":"31.2197908079","category":"94","category_name":"西餐厅","address":"上海徐汇区长乐路333号(近陕西南路)"},{"poiid":"B2094654DA6DAAFB4298","title":"云海大厦","lon":"121.456","lat":"31.2181","category":"46","category_name":"楼宇","address":"浦东新区金湘路225弄"},{"poiid":"B2094757D16DA2F4469F","title":"莹七","lon":"121.454920738","lat":"31.2175930308","category":"247","category_name":"餐饮美食","address":"上海市静安区巨鹿路"},{"poiid":"B2094655D36CA3FA429D","title":"3.Top Restaurant & Bar","lon":"121.45618","lat":"31.2178","category":"260","category_name":"其他","address":"徐汇区新乐路47号(近襄阳路)"},{"poiid":"B2094757D16DA6FF4498","title":"ICC环茂广场","lon":"121.455246738","lat":"31.2172880243","category":"500","category_name":"未知分类","address":"上海淮海中路999号"},{"poiid":"B2094654D564ABFD419D","title":"悠庭保健会所(东湖路)","lon":"121.45477","lat":"31.21615","category":"149","category_name":"洗浴推拿场所","address":"东湖路20"},{"poiid":"B2094757D06FA4FD4599","title":"94路终点站","lon":"121.45541827","lat":"31.218314632","category":"38","category_name":"公交车站","address":"上海襄阳北路(近新乐路)"},{"poiid":"B2094757D569A1FA499F","title":"白木屋居乐屋","lon":"121.4542556","lat":"31.21634277","category":"95","category_name":"日本料理","address":"东湖路30-2号2层"},{"poiid":"B2094757D469A0FB4398","title":"大山鮨 Oyama Sushi","lon":"121.455186054","lat":"31.215974793","category":"247","category_name":"餐饮美食","address":"徐汇区东湖路20号邸雅居2楼(近淮海中路)"},{"poiid":"B2094757D568A4FA469A","title":"光头热烩涮羊肉","lon":"121.4530769","lat":"31.21807639","category":"86","category_name":"火锅店","address":"长乐路688号"},{"poiid":"B2094757D068AAF4439C","title":"承承","lon":"121.45421","lat":"31.21703","category":"68","category_name":"快餐厅","address":"徐汇区新乐路145号(东湖路新乐路)"},{"poiid":"B2094757D068AAFB469B","title":"武当功夫牛肉面","lon":"121.45644273","lat":"31.218805056","category":"257","category_name":"中餐厅","address":"徐汇区襄阳北路100号(淮海路新乐路间)"},{"poiid":"B2094757D665A2F44198","title":"穗寿司","lon":"121.455256","lat":"31.219569","category":"95","category_name":"日本料理","address":"徐汇区长乐路427号(近襄阳北路)"},{"poiid":"B2094757D064A0FF4292","title":"Bar. Constellation NO.1","lon":"121.45455058","lat":"31.21742718","category":"172","category_name":"酒吧","address":"上海徐汇区新乐路86号"},{"poiid":"B2094757D069A5F5459C","title":"艾维庭美容身心会馆(襄北店)","lon":"121.454983383","lat":"31.2194469938","category":"148","category_name":"美容美发店","address":"上海静安区襄阳北路55号1-4楼(近长乐路)"},{"poiid":"B2094654D564AAFC4198","title":"德丽滋 新乐路店 Des Lys De France","lon":"121.45279812188","lat":"31.216902636161","category":"94","category_name":"西餐厅","address":"徐汇区新乐路178号(近东湖路)"},{"poiid":"B2094751D46BA3FB429F","title":"质馆咖啡茂名路店","lon":"121.456627","lat":"31.219475","category":"247","category_name":"餐饮美食","address":"上海市茂名南路131弄1号乙"},{"poiid":"B2094757D06BA3FB499A","title":"康骏会馆(巨鹿路店)","lon":"121.45502471","lat":"31.218477249","category":"149","category_name":"洗浴推拿场所","address":"静安区巨鹿路768号巨富大厦2楼(近富民路)"},{"poiid":"B2094757D168A0FB459D","title":"東方大班東湖店","lon":"121.45430158","lat":"31.21638416","category":"500","category_name":"未知分类","address":"上海徐匯區東湖路39號"},{"poiid":"B2094751D264A3FC4193","title":"上海音乐学院贺绿汀厅","lon":"121.455307","lat":"31.216476","category":"500","category_name":"未知分类","address":null},{"poiid":"B2094757D06BA5F94293","title":"首席公馆酒店","lon":"121.45557","lat":"31.2176","category":"217","category_name":"旅馆招待所","address":"上海徐汇区新乐路82号(近襄阳北路)  "},{"poiid":"B2094757D169A0F54492","title":"OysterLia","lon":"121.454504586","lat":"31.2184502006","category":"247","category_name":"餐饮美食","address":"进贤路226号"},{"poiid":"B2094752D26FAAFE419A","title":"吴记老锅底麻辣火锅","lon":"121.454252","lat":"31.217778","category":"247","category_name":"餐饮美食","address":"陕西南路141-1号2楼"},{"poiid":"B2094654DB6BA6FC449E","title":"大大旺特色馄饨 长乐路","lon":"121.45457953245","lat":"31.218611440753","category":"68","category_name":"快餐厅","address":"卢湾区长乐路409号(近襄阳北路)"},{"poiid":"B2094751D364AAFC4992","title":"七七花园","lon":"121.455673","lat":"31.218063","category":"94","category_name":"西餐厅","address":"徐汇区新乐路70弄7号(近襄阳北路)"},{"poiid":"B2094757D16EA6F8469E","title":"龙刺堂纹身工作室","lon":"121.45646929","lat":"31.218197152","category":"260","category_name":"其他","address":"徐汇区新乐路44弄13号(陕西南路口)"},{"poiid":"B2094757D06AAAF4459C","title":"东正教堂","lon":"121.4555153","lat":"31.217547944","category":"245","category_name":"教堂","address":"徐汇区新乐路55号(近襄阳北路)"},{"poiid":"B209475DDA6EAAF54293","title":"Lark Hill","lon":"121.45581","lat":"31.220241","category":"247","category_name":"餐饮美食","address":"上海市 巨鹿路"},{"poiid":"B2094654DB6BA6FC4499","title":"上海厚诚口腔医院","lon":"121.45362","lat":"31.2185","category":"162","category_name":"医院","address":"徐汇区长乐路666号(近襄阳路)"},{"poiid":"B2094757D06AA4FD4898","title":"多乐星 Donut King","lon":"121.45196","lat":"31.21759","category":"67","category_name":"甜品店","address":"徐汇区东湖路7号4幢101室(近淮海中路)"},{"poiid":"B2094751D464A2FA459D","title":"八五医院","lon":"121.4544573","lat":"31.2182567","category":"162","category_name":"医院","address":"上海市華山路1382號"},{"poiid":"B2094757D065ABFF409A","title":"东湖宾馆宴会厅","lon":"121.45375","lat":"31.21665","category":"217","category_name":"旅馆招待所","address":"徐汇区东湖路7号东湖宾馆内(近淮海中路)查看地图"},{"poiid":"B2094655D26FA3FF419A","title":"Mansion Veranda","lon":"121.4551436071","lat":"31.217712658214","category":"257","category_name":"中餐厅","address":"徐汇区新乐路82号5楼(近襄阳北路)"},{"poiid":"B2094654D564ABF54699","title":"上海市长乐学校","lon":"121.45397","lat":"31.21813","category":"55","category_name":"中学","address":"卢湾区长乐路455号"},{"poiid":"B2094757D46DABF9479D","title":"豪大大台湾大鸡排 长乐路店","lon":"121.454709","lat":"31.219128","category":"68","category_name":"快餐厅","address":"徐汇区长乐路616号(近襄阳北路)"},{"poiid":"B2094654D564ABF5439C","title":"美新饮食店","lon":"121.45483","lat":"31.21928","category":"68","category_name":"快餐厅","address":"徐汇区襄阳北路54号"},{"poiid":"B2094654D564ABFD4193","title":"组合发型新文化","lon":"121.45491","lat":"31.21614","category":"148","category_name":"美容美发店","address":"湖路20号上海大班商务中心1-2层101-203"},{"poiid":"B2094655D268A2FE429B","title":"东正教圣母大堂","lon":"121.45549","lat":"31.21754","category":"244","category_name":"寺庙道观","address":"新乐路55号"},{"poiid":"B2094655D269A4F9489D","title":"ElWilly","lon":"121.45491","lat":"31.21615","category":"247","category_name":"餐饮美食","address":"徐汇区东湖路20号(近淮海中路)"},{"poiid":"B2094757D16CA5FC429B","title":"上海市园林设计院","lon":"121.45525073","lat":"31.217515029","category":"46","category_name":"楼宇","address":"上海市静安区新乐路45号"},{"poiid":"B2094654DB69A4F44993","title":"九龙冰室(长乐店)","lon":"121.45636","lat":"31.21986","category":"111","category_name":"休闲餐饮场所","address":"长乐路336号近瑞金一路"},{"poiid":"B209475CD76EA5FD4398","title":"赵小姐不等位","lon":"121.453544","lat":"31.219552","category":"500","category_name":"未知分类","address":"上海市 卢湾区长乐路628号"},{"poiid":"B2094752DA6AAAF8409A","title":"花园饭店","lon":"121.453559","lat":"31.219595","category":"247","category_name":"餐饮美食","address":"上海市 茂名南路58号"},{"poiid":"B2094757D16FA6FA4493","title":"很牛","lon":"121.45269695","lat":"31.217652913","category":"500","category_name":"未知分类","address":"上海长乐路708号对面"},{"poiid":"B2094757DA6FA2F9429B","title":"Doll Nail Lounge","lon":"121.45561695098877","lat":"31.218802254791754","category":"248","category_name":"生活娱乐","address":"上海 上海市 长乐路401弄14号"},{"poiid":"B2094757D068ABFB4193","title":"90度炭烧咖啡小站","lon":"121.453979784","lat":"31.2187466899","category":"65","category_name":"咖啡厅","address":"卢湾区长乐路646号"},{"poiid":"B209475CD36CA3FA419B","title":"大江户日本料理  OOEDO","lon":"121.454135054","lat":"31.216625793","category":"95","category_name":"日本料理","address":"东湖路30号1楼近淮海中路"},{"poiid":"B2094753D76CA3FA469B","title":"上海市华山医院","lon":"121.455635","lat":"31.218479","category":"162","category_name":"医院","address":"上海市 静安区乌鲁木齐北路"},{"poiid":"B2094753D66EA7FF429F","title":"旺荣茶餐厅","lon":"121.455427","lat":"31.216604","category":"500","category_name":"未知分类","address":"上海市 陕西南路南昌路"},{"poiid":"B2094655D265A6FD4493","title":"美之美汁咖啡酒吧 Southern Belle","lon":"121.453872","lat":"31.218243","category":"260","category_name":"其他","address":"卢湾区边长乐路433号(近食道园)"},{"poiid":"B2094655D26EA6FE4598","title":"东湖茶室","lon":"121.4542","lat":"31.21606","category":"66","category_name":"茶艺馆","address":"徐汇区东湖路7号"},{"poiid":"B2094751D365A3FF459A","title":"成都大学","lon":"121.4542832","lat":"31.2198207","category":"671","category_name":"高校中心点","address":null},{"poiid":"B2094753DB65A6FC489C","title":"稻香","lon":"121.454063","lat":"31.218402","category":"247","category_name":"餐饮美食","address":"上海市 环贸广场APM商场"},{"poiid":"B2094655D26EA4F54492","title":"爱琴海希腊餐厅","lon":"121.45645","lat":"31.21975","category":"256","category_name":"外国餐厅","address":"卢湾区长乐路333号"},{"poiid":"B2094752D06CA5F9409A","title":"project wine","lon":"121.454649","lat":"31.219973","category":"247","category_name":"餐饮美食","address":"襄阳北路17-1"},{"poiid":"B2094752D76DA5FF4093","title":"好面道","lon":"121.454984","lat":"31.217749","category":"247","category_name":"餐饮美食","address":"陕西南路83弄1号"},{"poiid":"B2094753D46AA7F4419C","title":"元 生蠔鸡尾酒吧","lon":"121.456062","lat":"31.219348","category":"247","category_name":"餐饮美食","address":"上海市 上海静安区襄阳北路17-2"},{"poiid":"B2094654D564ABF54592","title":"上海人民美术出版社","lon":"121.45326","lat":"31.21833","category":"63","category_name":"出版社","address":"长乐路672弄1-34号"},{"poiid":"B2094757D16DA3FB4392","title":"studio 307","lon":"121.454817","lat":"31.218978","category":"500","category_name":"未知分类","address":"上海长乐路411号2楼"},{"poiid":"B2094654D564AAFC449B","title":"怡德保健中心","lon":"121.45297","lat":"31.21703","category":"149","category_name":"洗浴推拿场所","address":"徐汇区新乐路204号2楼(近东湖路)"},{"poiid":"B2094750D66CA6F9409E","title":"龙门阵","lon":"121.454483","lat":"31.216157","category":"247","category_name":"餐饮美食","address":"东湖路"},{"poiid":"B2094757D168A1FE4392","title":"燃犀馆","lon":"121.456347738","lat":"31.2177570343","category":"247","category_name":"餐饮美食","address":"上海市静安区新乐路58弄巷底3号1楼"},{"poiid":"B209475CD16CA6F44999","title":"Saleya 长乐路店 Bistro Le Saleya","lon":"121.45581","lat":"31.21973","category":"97","category_name":"法式菜品餐厅","address":"长乐路570弄1号(近襄阳北路)"},{"poiid":"B2094654DB6AA7FB4799","title":"吉祥特色馄饨(长乐店)","lon":"121.45641","lat":"31.21987","category":"247","category_name":"餐饮美食","address":"卢湾区长乐路300号(近瑞金一路)"},{"poiid":"B2094757D065A2F94493","title":"珍奶会所 长乐店","lon":"121.452795054","lat":"31.217920793","category":"113","category_name":"冷饮店","address":"长乐路688号近富民路"},{"poiid":"B2094752D66CAAFF4592","title":"表叔茶餐厅","lon":"121.456055","lat":"31.219891","category":"247","category_name":"餐饮美食","address":"长宁区汇川路456号"},{"poiid":"B2094753D76AA0FD489A","title":"海面馆","lon":"121.45652","lat":"31.21978","category":"68","category_name":"快餐厅","address":"上海市卢湾区长乐路333号(近陕西南路)"},{"poiid":"B2094654D564ABFB479F","title":"永琪美容美发(襄阳北路)","lon":"121.4548","lat":"31.21994","category":"148","category_name":"美容美发店","address":"徐汇区襄阳北路17-1号(近巨鹿路)"},{"poiid":"B2094757DB69ABFB469F","title":"淮海路巴黎春天","lon":"121.453921","lat":"31.219367","category":"500","category_name":"未知分类","address":null},{"poiid":"B2094655D26AA0FC409A","title":"百万城火车模型旗舰店","lon":"121.45582","lat":"31.21712","category":"247","category_name":"餐饮美食","address":"徐汇区襄阳北路100号(近新乐路)"},{"poiid":"B2094757D16EA1F44992","title":"dragonfly","lon":"121.45428639","lat":"31.217834648","category":"500","category_name":"未知分类","address":"上海新乐路206号"},{"poiid":"B2094757D66DA0FC4498","title":"Tao Hair 涛美发沙龙","lon":"121.455117738","lat":"31.2184900499","category":"148","category_name":"美容美发店","address":"上海市徐汇区襄阳北路93号-2"},{"poiid":"B2094654DB65A2FE4299","title":"良友No.182","lon":"121.45449","lat":"31.21899","category":"117","category_name":"便民商店/便利店","address":"长乐路634-636"},{"poiid":"B2094757D664ABFD4599","title":"金洋酒吧 JENNY'S BLUE BAR","lon":"121.45398742437","lat":"31.216143751877","category":"172","category_name":"酒吧","address":"徐汇区东湖路7号东湖宾馆内(近淮海中路)"},{"poiid":"B2094654D564AAFC409B","title":"source","lon":"121.45393","lat":"31.21734","category":"141","category_name":"服装鞋帽皮具店","address":"徐汇区新乐路158号(东湖路新乐路)"},{"poiid":"B2094757D164A4FA499C","title":"富民新村","lon":"121.45574188","lat":"31.217567443","category":"47","category_name":"住宅区","address":"上海静安区富民路148弄-164弄"},{"poiid":"B2094654D564ABF5429E","title":"上海市产前诊断中心","lon":"121.45626","lat":"31.21999","category":"162","category_name":"医院","address":"长乐路536"},{"poiid":"B2094655D26FA6FF4592","title":"蒲园","lon":"121.45545","lat":"31.21999","category":"47","category_name":"住宅区","address":"长乐路570弄1-9号"},{"poiid":"B2094655D268A1FC459C","title":"东湖路56弄小区","lon":"121.45427","lat":"31.21666","category":"47","category_name":"住宅区","address":"东湖路56弄15-60号"},{"poiid":"B2094655D268A6F5449F","title":"Fly street wear","lon":"121.45269","lat":"31.21788","category":"141","category_name":"服装鞋帽皮具店","address":"长乐路702-704"},{"poiid":"B2094655D268A2FE419E","title":"留苑","lon":"121.45306","lat":"31.21877","category":"47","category_name":"住宅区","address":"长乐路672弄1-34号"},{"poiid":"B2094655D26FABF5479E","title":"东湖路56弄小区(西门)","lon":"121.45392","lat":"31.21643","category":"47","category_name":"住宅区","address":"东湖路56弄15-60号"},{"poiid":"B2094655D26FA6F44299","title":"东湖公寓","lon":"121.45399","lat":"31.217455","category":"47","category_name":"住宅区","address":"新乐路158号"},{"poiid":"B2094757D16CA5F94599","title":"frangipani","lon":"121.4534","lat":"31.21667","category":"122","category_name":"个人用品/化妆品店","address":"徐汇区新乐路204号(东湖路新乐路)"},{"poiid":"B2094753D26FA6F54898","title":"上海电影博物馆","lon":"121.453435","lat":"31.21841","category":"500","category_name":"未知分类","address":"上海市 上海市漕溪路595号"},{"poiid":"B2094654DB6BA6FC449C","title":"东湖公寓南门新乐路","lon":"121.45433","lat":"31.21745","category":"47","category_name":"住宅区","address":"新乐路158号"},{"poiid":"B2094654D564ABF44999","title":"极度空间网吧","lon":"121.45525","lat":"31.21921","category":"176","category_name":"网吧","address":"卢湾区长乐路672号(近农工商超市)"},{"poiid":"B2094753D56AAAFF4392","title":"藏乐坊","lon":"121.456649","lat":"31.219507","category":"500","category_name":"未知分类","address":"上海市 上海 长乐路"},{"poiid":"B2094757D168A4FE4499","title":"Helene Nail Project Labo 美甲工作室","lon":"121.456375655","lat":"31.2179876312","category":"148","category_name":"美容美发店","address":"上海市徐汇区新乐路58弄巷底3号底楼"},{"poiid":"B2094654D564ABFD419B","title":"嘉丽苑(南门)","lon":"121.45522","lat":"31.21602","category":"47","category_name":"住宅区","address":"淮海中路1068号"},{"poiid":"B2094655D268A6F5449C","title":"留苑(南门)","lon":"121.45333","lat":"31.21827","category":"47","category_name":"住宅区","address":"长乐路672弄1-34号"},{"poiid":"B2094757D06BAAFE4898","title":"hair house","lon":"121.45616573","lat":"31.218006039","category":"500","category_name":"未知分类","address":"上海市徐汇区新乐路56弄1号甲"},{"poiid":"B2094654D564ABF54898","title":"逸乐轩(北门)","lon":"121.45428","lat":"31.21855","category":"47","category_name":"住宅区","address":"长乐路435号"},{"poiid":"B2094654DB65ABF8469D","title":"永福第一小区(南门)","lon":"121.45472","lat":"31.2175","category":"47","category_name":"住宅区","address":"新乐路100弄1-36号"},{"poiid":"B209475CDB65A0FF419F","title":"X158","lon":"121.454383","lat":"31.217382","category":"500","category_name":"未知分类","address":"上海市 卢湾区新乐路158号"},{"poiid":"B2094654DB64A4F84393","title":"永福第一小区","lon":"121.45452","lat":"31.21807","category":"47","category_name":"住宅区","address":"新乐路100弄1-36号"},{"poiid":"B2094757D66EA2FF459C","title":"酒沙龙","lon":"121.454813","lat":"31.215927","category":"500","category_name":"未知分类","address":"上海市徐汇区东湖路3号"},{"poiid":"B2094757D064A6FF439A","title":"Browhaus","lon":"121.453639","lat":"31.217752","category":"500","category_name":"未知分类","address":"徐汇区新乐路158号(东湖路襄阳路间)"},{"poiid":"B2094655D26FABF84098","title":"东湖公寓南门(东湖公寓西南)","lon":"121.45371","lat":"31.2172","category":"47","category_name":"住宅区","address":""},{"poiid":"B2094654D564ABFD429A","title":"悠庭保健俱乐部有限公司","lon":"121.45491","lat":"31.21614","category":"221","category_name":"健身中心","address":"东湖路20号上海大班商务中心1-2层102-202"},{"poiid":"B2094757D06BA2FE459D","title":"HIP HAIR CULTURE","lon":"121.45342","lat":"31.21677","category":"260","category_name":"其他","address":"上海徐汇区新乐路208号1-4楼(近东湖路)  "},{"poiid":"B2094654D564ABF5499A","title":"flow","lon":"121.45515","lat":"31.21768","category":"148","category_name":"美容美发店","address":"徐汇区五原路89号(近长乐路)"},{"poiid":"B2094654D564AAFC409F","title":"CHOCO europe","lon":"121.4533","lat":"31.21708","category":"141","category_name":"服装鞋帽皮具店","address":""},{"poiid":"B2094757D064A7FF459A","title":"Big Movie","lon":"121.45336151","lat":"31.216953277","category":"138","category_name":"家电电子卖场","address":"上海新乐路158-3临"},{"poiid":"B209475CD16AABFD409E","title":"上海音乐学院","lon":"121.454643","lat":"31.216217","category":"500","category_name":"未知分类","address":"上海市 徐汇区汾阳路20号"},{"poiid":"B2094753D165A1F9409A","title":"Prada APM","lon":"121.453891","lat":"31.218277","category":"500","category_name":"未知分类","address":"上海市 上海市淮海中路陕西南路路口"},{"poiid":"B2094757D16CAAF94293","title":"世界戏剧之窗 STAGE CAFE","lon":"121.45557139","lat":"31.218810876","category":"249","category_name":"购物服务","address":"静安区华山路630号(上海戏剧学院正门侧)"},{"poiid":"B2094757D06BAAFF4293","title":"九源保健会所","lon":"121.45461","lat":"31.21605","category":"500","category_name":"未知分类","address":"徐汇区东湖路30号(近淮海中路)"},{"poiid":"B2094654D564ABF4409A","title":"since","lon":"121.45655","lat":"31.21796","category":"141","category_name":"服装鞋帽皮具店","address":"泰康路240号"},{"poiid":"B2094654D564ABF4449F","title":"罂粟花","lon":"121.45567","lat":"31.21795","category":"141","category_name":"服装鞋帽皮具店","address":"新乐路80号2层"},{"poiid":"B2094654D564ABF5499C","title":"CAT","lon":"121.45487","lat":"31.21758","category":"141","category_name":"服装鞋帽皮具店","address":""},{"poiid":"B2094655D268A1FD439B","title":"DGVI","lon":"121.45712","lat":"31.21814","category":"141","category_name":"服装鞋帽皮具店","address":"新乐路25识别"},{"poiid":"B2094654D564ABFB4892","title":"百变虫(新乐路)","lon":"121.45578","lat":"31.21793","category":"141","category_name":"服装鞋帽皮具店","address":"徐汇区新乐路76号(襄阳北路新乐路)"},{"poiid":"B2094757D16FA5FC409E","title":"嘉丽苑","lon":"121.45542","lat":"31.216459","category":"500","category_name":"未知分类","address":"上海淮海中路1068号"},{"poiid":"B2094753DB65A3FF419B","title":"海面屋","lon":"121.456588","lat":"31.21969","category":"500","category_name":"未知分类","address":"上海市 长乐路333号"},{"poiid":"B2094752D36CA5F5459A","title":"元坊","lon":"121.454637","lat":"31.21997","category":"500","category_name":"未知分类","address":"襄阳北路17号-2(近长乐路)"},{"poiid":"B2094757D16AAAFC4899","title":"Deslis 178","lon":"121.45450158","lat":"31.217506182","category":"500","category_name":"未知分类","address":"上海新乐路178号"},{"poiid":"B2094757D064A3FF479B","title":"极限之家(长乐路店)","lon":"121.4528","lat":"31.21752","category":"140","category_name":"体育用品店","address":"徐汇区长乐路718号(近富民路)"},{"poiid":"B2094757D06FA1F84998","title":"VANS(长乐路店)","lon":"121.452666094","lat":"31.2179107723","category":"140","category_name":"体育用品店","address":"徐汇区长乐路706号(近富民路)"},{"poiid":"B2094654D564AAFC419D","title":"居乐屋","lon":"121.45434","lat":"31.21629","category":"172","category_name":"酒吧","address":"东湖路30号乙"},{"poiid":"B2094757DB6FA6FC419F","title":"咪瑜伽","lon":"121.4530962438949","lat":"31.21785754693948","category":"220","category_name":"运动场所","address":"襄阳南路100弄2号"},{"poiid":"B2094757D168A6F5419F","title":"cat@log","lon":"121.45633671","lat":"31.219710077","category":"141","category_name":"服装鞋帽皮具店","address":"上海长乐路339弄10号"},{"poiid":"B2094750D069A4F54892","title":"中国工商银行徐汇淮海中路第二支行","lon":"121.455","lat":"31.216","category":"150","category_name":"银行","address":"上海市淮海中路1028号"},{"poiid":"B209475CD76DA0FD449A","title":"维度发型顾问","lon":"121.454216","lat":"31.21626","category":"148","category_name":"美容美发店","address":"上海市 东湖路7号"},{"poiid":"B2094753D469ABFD419B","title":"大江户日本料理","lon":"121.454673","lat":"31.220256","category":"500","category_name":"未知分类","address":"上海市 东湖路"},{"poiid":"B2094753D76DA4FF459A","title":"上海音乐学院图书馆","lon":"121.455772","lat":"31.21622","category":"500","category_name":"未知分类","address":"上海市 汾阳路20号"},{"poiid":"B209475CD26BA6FD469A","title":"Slices pizzeria","lon":"121.455009","lat":"31.218713","category":"500","category_name":"未知分类","address":"上海市 徐汇区襄阳北路97号（近长乐路）"},{"poiid":"B209475CD66EA7F54193","title":"保罗","lon":"121.453552","lat":"31.21676","category":"249","category_name":"购物服务","address":"上海市 富民路"},{"poiid":"B2094757D16AA0FF489E","title":"新乐路100弄","lon":"121.455764","lat":"31.217917","category":"500","category_name":"未知分类","address":"上海市徐汇区新乐路100弄"},{"poiid":"B2094753D269AAF5469A","title":"In. Cafe","lon":"121.456347","lat":"31.218314","category":"500","category_name":"未知分类","address":"上海市 上海徐汇区襄阳北路131弄"},{"poiid":"B2094757D164ABF9479F","title":"克丽缇娜(长乐路店)","lon":"121.45309","lat":"31.21774","category":"148","category_name":"美容美发店","address":"徐汇区长乐路681号(近襄阳路)"},{"poiid":"B2094757D064A7FE489E","title":"鹿鹿冲印","lon":"121.45625","lat":"31.21766","category":"611","category_name":"照相馆","address":"徐汇区新乐路70弄3号(近襄阳北路)"},{"poiid":"B2094757D06FA4FD409A","title":"taxi","lon":"121.455448","lat":"31.218483","category":"500","category_name":"未知分类","address":"上海出租车"},{"poiid":"B2094757D16AA0FD489F","title":"D.S CASTLE(长乐路店)","lon":"121.45314","lat":"31.21777","category":"500","category_name":"未知分类","address":"上海徐汇区长乐路646号(近襄阳路)  "},{"poiid":"B2094757D66EA2F9449B","title":"马达思班建筑设计事务所MADA S.P.a.m.","lon":"121.45474045","lat":"31.217438961","category":"500","category_name":"未知分类","address":"上海徐汇区新乐路134弄2号"},{"poiid":"B2094654D564ABFB4799","title":"东方网点襄阳店","lon":"121.45477","lat":"31.22001","category":"176","category_name":"网吧","address":"卢湾区襄阳南路(近南昌路)"},{"poiid":"B2094757D66DA4FE439A","title":"洛城攻略","lon":"121.45458897","lat":"31.220025881","category":"500","category_name":"未知分类","address":"上海襄阳路巨鹿路"},{"poiid":"B2094757D568AAFE4698","title":"FLY长乐路店","lon":"121.4527281","lat":"31.21791611","category":"249","category_name":"购物服务","address":"卢湾区长乐路278号(近陕西南路)"},{"poiid":"B2094654D564ABF54593","title":"上海市静安区南阳学校","lon":"121.45288","lat":"31.21923","category":"253","category_name":"校园生活","address":"静安区长乐路672弄"},{"poiid":"B2094654D564AAFC409D","title":"徐汇区启慧学前教育培训中心","lon":"121.45342","lat":"31.21714","category":"190","category_name":"培训机构","address":"新乐路182"},{"poiid":"B2094757D66EA1F84698","title":"翡翠主义","lon":"121.45649753","lat":"31.219023861","category":"500","category_name":"未知分类","address":"徐汇区新乐路55号丙301室查看地图"},{"poiid":"B2094654D564ABF54792","title":"尝能茶行","lon":"121.45471","lat":"31.21893","category":"255","category_name":"专卖店","address":"长乐路411-3识别"},{"poiid":"B2094757D66CA6FF409A","title":"大山","lon":"121.455212","lat":"31.2163","category":"500","category_name":"未知分类","address":"上海东湖路20号"},{"poiid":"B2094757D164A4FC479E","title":"3top","lon":"121.45622373","lat":"31.217341025","category":"500","category_name":"未知分类","address":"上海市静安区富民路"},{"poiid":"B2094757D16DABF44592","title":"失乐园","lon":"121.456545","lat":"31.218125","category":"500","category_name":"未知分类","address":"上海inner heart"},{"poiid":"B2094757D16AA4FC4792","title":"差头","lon":"121.455444336","lat":"31.2184829712","category":"500","category_name":"未知分类","address":"上海的出租车"},{"poiid":"B2094757D064A7F5419F","title":"kris's home","lon":"121.45519173","lat":"31.218218044","category":"500","category_name":"未知分类","address":null},{"poiid":"B2094757D16AA0F9469F","title":"Tao涛Hair","lon":"121.45504573","lat":"31.21853205","category":"500","category_name":"未知分类","address":"上海襄阳北路93号"},{"poiid":"B2094757D66AA0F4499F","title":"春天咖啡 Spring coffee","lon":"121.453755054","lat":"31.217217793","category":"260","category_name":"其他","address":"徐汇区新乐路136号(近襄阳北路)"},{"poiid":"B2094655D26AAAFD429D","title":"牛心","lon":"121.45491","lat":"31.21615","category":"130","category_name":"礼品饰品店","address":"徐汇区东湖路20号1楼(近淮海中路)"},{"poiid":"B2094757D66FA2FF479C","title":"百变虫鞋店","lon":"121.45670043","lat":"31.218240284","category":"249","category_name":"购物服务","address":"上海新乐路76号(襄阳北路新乐路)"},{"poiid":"B2094757D568A7FB459D","title":"HyStreetWear","lon":"121.4528558","lat":"31.21795111","category":"249","category_name":"购物服务","address":"长乐路702-704号"},{"poiid":"B2094757D66FA0F8469F","title":"大屁股影像店dvd","lon":"121.454928738","lat":"31.2171480213","category":"249","category_name":"购物服务","address":"上海静安区巨鹿路"},{"poiid":"B2094654D564ABF4479D","title":"China Homes","lon":"121.45581","lat":"31.21857","category":"263","category_name":"公司","address":"襄阳北路97、97-1识别襄阳大楼6层"},{"poiid":"B2094757D164A6FB409C","title":"Lounge 92","lon":"121.45683011","lat":"31.218141604","category":"260","category_name":"其他","address":"徐汇区新乐路92号(近襄阳北路)"},{"poiid":"B2094654D564AAFC409C","title":"徐汇区育儿指导服务中心","lon":"121.45342","lat":"31.21713","category":"248","category_name":"生活娱乐","address":"徐汇区新乐路182号(东湖路新乐路)"},{"poiid":"B2094655D26BA4FD419E","title":"春在中国新乐路店","lon":"121.45394","lat":"31.21734","category":"248","category_name":"生活娱乐","address":"卢湾区泰康路210弄9号2楼"},{"poiid":"B2094655D264A2F94993","title":"柏林站","lon":"121.45681","lat":"31.21831","category":"248","category_name":"生活娱乐","address":"新乐路30号2层"},{"poiid":"B2094751DA6AA5FA499C","title":"花園飯店","lon":"121.456877","lat":"31.217119","category":"251","category_name":"出行住宿","address":null},{"poiid":"B2094752D16DA6FB4993","title":"玛雅酒吧","lon":"121.453425","lat":"31.217255","category":"248","category_name":"生活娱乐","address":"淮海中路"},{"poiid":"B2094757D065A0FE459A","title":"余韵美甲沙龙","lon":"121.45624","lat":"31.21758","category":"260","category_name":"其他","address":"静安区江宁路580号(近康定路)"},{"poiid":"B2094752D365A4F8459E","title":"季风书店","lon":"121.454416","lat":"31.219301","category":"249","category_name":"购物服务","address":"陕西南路地铁站"},{"poiid":"B2094757D16EA4FC469A","title":"epicvre","lon":"121.45488526","lat":"31.217360559","category":"260","category_name":"其他","address":"上海新乐路98号"},{"poiid":"B2094757D16BA7FA479A","title":"橙茶饮","lon":"121.454709","lat":"31.219128","category":"260","category_name":"其他","address":"上海市卢湾区长乐路616号"},{"poiid":"B2094654DB65AAF9409B","title":"东湖宾馆(西南门)","lon":"121.45375","lat":"31.21649","category":"656","category_name":"大门","address":"东湖路70"},{"poiid":"B2094654D564ABF54293","title":"蒲园(南门)","lon":"121.45561","lat":"31.21975","category":"656","category_name":"大门","address":"长乐路570弄1-9号"}]