[{"poiid":"B2094757D06EAAFA419E","title":"Mo-Mo牧场 Mo-Mo-Paradise","lon":"121.4577","lat":"31.22077","category":"268","category_name":"自助","address":"卢湾区陕西南路35号红房子2楼(近长乐路)"},{"poiid":"B2094654D564AAFD4699","title":"花园饭店","lon":"121.45981","lat":"31.21981","category":"213","category_name":"五星级宾馆","address":"卢湾区茂名南路58号(近淮海中路)"},{"poiid":"B2094655D268A6FF469C","title":"Pier 39","lon":"121.45905","lat":"31.22151","category":"94","category_name":"西餐厅","address":"卢湾区进贤路172号(近陕西南路)"},{"poiid":"B2094753D76FAAFA449C","title":"上海滩国泰旗舰店","lon":"121.466011","lat":"31.216125","category":"249","category_name":"购物服务","address":"淮海中路868号"},{"poiid":"B209475CD564A7F84292","title":"上海滩新天地店","lon":"121.47463","lat":"31.22164","category":"119","category_name":"商场","address":"\"太仓路181弄新天地北里15号\r\n\""},{"poiid":"B209475CD564A7F8439E","title":"上海滩中信泰富店","lon":"121.45602","lat":"31.22851","category":"119","category_name":"商场","address":"\"南京西路1168号中信泰富广场，店铺号221.\r\n\""},{"poiid":"B2094654D564AAF9439B","title":"兰心大戏院","lon":"121.46051","lat":"31.2209","category":"180","category_name":"剧场","address":"卢湾区茂名南路57(近长乐路口)"},{"poiid":"B2094655D26EAAFB499B","title":"CITIZEN CAFE & BAR","lon":"121.45869704223","lat":"31.220626397075","category":"247","category_name":"餐饮美食","address":"卢湾区进贤路222号(近陕西南路)"},{"poiid":"B2094757D06FA2F9469A","title":"兰心餐厅","lon":"121.45978","lat":"31.22135","category":"76","category_name":"上海菜","address":"卢湾区进贤路130号(近茂名南路)"},{"poiid":"B2094757D465A4F9439F","title":"PIER39号码头","lon":"121.458225054","lat":"31.220526793","category":"247","category_name":"餐饮美食","address":"进贤路172号近陕西南路"},{"poiid":"B2094757DB68AAFF4792","title":"丽江驿 MONSOON","lon":"121.460094","lat":"31.221228","category":"99","category_name":"泰国／越南菜品餐厅","address":"卢湾区茂名南路56号56食尚谷内(近长乐路)"},{"poiid":"B2094757D464A7FE459F","title":"唐宫1号 锦江迪生店","lon":"121.459768054","lat":"31.220746793","category":"247","category_name":"餐饮美食","address":"卢湾区长乐路400号锦江迪生3-4楼(近茂名南路)"},{"poiid":"B2094655D26AA1FF429C","title":"避风塘长乐店","lon":"121.46154","lat":"31.22081","category":"66","category_name":"茶艺馆","address":"卢湾区长乐路175号(近茂名南路)"},{"poiid":"B2094757D06FA4FC4292","title":"HARA海纳创作怀石料理","lon":"121.45766785","lat":"31.22077119","category":"95","category_name":"日本料理","address":"卢湾区陕西南路35号雅克红房子5楼(近进贤路)"},{"poiid":"B2094757D06FA6FE489E","title":"王品台塑牛排(长乐店)","lon":"121.45989","lat":"31.22049","category":"94","category_name":"西餐厅","address":"卢湾区长乐路400号锦江迪生商厦2楼(近茂名南路)"},{"poiid":"B2094757D06FA1F9419F","title":"滴水洞(茂名南路店)","lon":"121.4601","lat":"31.22061","category":"77","category_name":"湖南菜","address":"卢湾区茂名南路56号2楼(近长乐路)"},{"poiid":"B2094757D06FA2F5499C","title":"玲珑餐厅","lon":"121.45882","lat":"31.21798","category":"76","category_name":"上海菜","address":"卢湾区陕西南路57号(新乐路口)"},{"poiid":"B2094757D06FA7F44099","title":"锦江小礼堂","lon":"121.46134988","lat":"31.220052989","category":"217","category_name":"旅馆招待所","address":"卢湾区茂名南路59号"},{"poiid":"B2094757D069A0F9479A","title":"天都里印度餐厅","lon":"121.461","lat":"31.22016","category":"102","category_name":"印度风味","address":"卢湾区茂名南路59号锦江饭店南楼大堂(近长乐路)"},{"poiid":"B2094757D06FA6F94492","title":"Osteria","lon":"121.45836","lat":"31.22104","category":"94","category_name":"西餐厅","address":"卢湾区进贤路226号(近陕西南路)"},{"poiid":"B2094757D16EA3FC459B","title":"Bellissimo","lon":"121.458933538","lat":"31.2205624941","category":"94","category_name":"西餐厅","address":"卢湾区长乐路434弄7号1-3楼"},{"poiid":"B2094757D06FA0FC439E","title":"锦江迪生商厦","lon":"121.45968873","lat":"31.221020103","category":"119","category_name":"商场","address":"卢湾区长乐路400号(近茂名南路)"},{"poiid":"B2094655D26AABFB439F","title":"天鹅申阁西菜社","lon":"121.45926","lat":"31.22131","category":"247","category_name":"餐饮美食","address":"进贤路169号"},{"poiid":"B2094757D06FABF8459F","title":"Maison Pourcel","lon":"121.458155","lat":"31.220484","category":"94","category_name":"西餐厅","address":"卢湾区陕西南路35号6,8楼(近长乐路)"},{"poiid":"B2094757D06FA0F9419F","title":"清迈天堂","lon":"121.46022","lat":"31.2212","category":"99","category_name":"泰国／越南菜品餐厅","address":"卢湾区进贤路145号(近茂名南路)"},{"poiid":"B2094750D66CABFE4592","title":"兰心大剧院","lon":"121.45774","lat":"31.219259","category":"248","category_name":"生活娱乐","address":"茂名南路57号"},{"poiid":"B2094750D068A2FA449C","title":"Tikka","lon":"121.46011","lat":"31.22115","category":"102","category_name":"印度风味","address":"卢湾区茂名南路56号(近长乐路)"},{"poiid":"B2094757D06FABFE439B","title":"粋寿司","lon":"121.46058308","lat":"31.220771748","category":"95","category_name":"日本料理","address":"卢湾区长乐路175-2号(近茂名南路)"},{"poiid":"B2094654DB64A5F54099","title":"松阪烤肉","lon":"121.46118","lat":"31.21912","category":"87","category_name":"特色／地方风味餐厅","address":"卢湾区茂名南路59号锦江宾馆美食街(近长乐路)"},{"poiid":"B2094757D068A7F8459F","title":"净心轩","lon":"121.46047","lat":"31.22114","category":"89","category_name":"中式素餐馆","address":"卢湾区茂名南路56号56食尚谷D区1号(近长乐路)"},{"poiid":"B2094655D26EABFF449F","title":"红房子法国餐厅","lon":"121.45700161625","lat":"31.220376111781","category":"97","category_name":"法式菜品餐厅","address":"陕西南路35号红房子楼房6-8楼近长乐路"},{"poiid":"B2094757D068A0FF4893","title":"锦庐 The Chinoise Story","lon":"121.46073413098","lat":"31.220246592787","category":"247","category_name":"餐饮美食","address":"卢湾区茂名南路59号锦江饭店锦北楼(近长乐路)"},{"poiid":"B2094757D46CA7FB4799","title":"茂隆餐厅","lon":"121.45990991619","lat":"31.221918570819","category":"76","category_name":"上海菜","address":"卢湾区进贤路134号(近茂名南路)"},{"poiid":"B2094654DB64A6FC469F","title":"老夜上海","lon":"121.46046","lat":"31.22045","category":"76","category_name":"上海菜","address":"卢湾区茂名南路59号老锦江饭店北楼11-12楼(近长乐路)"},{"poiid":"B2094757DA69A3F4419B","title":"福得德","lon":"121.46017423652","lat":"31.221155993403","category":"76","category_name":"上海菜","address":"卢湾区茂名南路56号B区1楼(近进贤路)"},{"poiid":"B209475DDA68A2FA429E","title":"万岛日本料理铁板烧（锦江迪生店）","lon":"121.460075","lat":"31.220945","category":"247","category_name":"餐饮美食","address":"上海市 长乐路400号(近茂名南路)"},{"poiid":"B2094757D068A0FC409C","title":"梅园村锦梅食府","lon":"121.460920662","lat":"31.2202856175","category":"74","category_name":"江苏菜","address":"卢湾区茂名南路59号老锦江食街内(近长乐路)"},{"poiid":"B2094654D564AAFF459C","title":"春餐厅","lon":"121.46014540629","lat":"31.22205986488","category":"76","category_name":"上海菜","address":"卢湾区进贤路124号(茂名南路口)"},{"poiid":"B2094757D069ABFC479C","title":"进贤路","lon":"121.459985","lat":"31.221497","category":"500","category_name":"未知分类","address":"上海市静安区延安中路"},{"poiid":"B209475DD669A2FA499B","title":"馆子House198","lon":"121.458572","lat":"31.221391","category":"247","category_name":"餐饮美食","address":"上海市 卢湾区进贤路198号"},{"poiid":"B2094750DB6BA0F8489D","title":"徐小猫的店","lon":"121.458412","lat":"31.218978","category":"260","category_name":"其他","address":"卢湾区陕西南路39弄81号1楼(近新乐路)"},{"poiid":"B2094757D16AABFF449E","title":"陕西南路","lon":"121.46115673","lat":"31.221008103","category":"500","category_name":"未知分类","address":"上海市静安区陕西南路"},{"poiid":"B2094655D265AAFB459F","title":"锦江北楼","lon":"121.46145","lat":"31.22079","category":"46","category_name":"楼宇","address":"长乐路175"},{"poiid":"B2094757D06FA4F44099","title":"台湾小吃鲁肉饭(长乐店)","lon":"121.45939","lat":"31.22003","category":"68","category_name":"快餐厅","address":"卢湾区长乐路203号(近茂名南路)"},{"poiid":"B2094757D168A6F9449A","title":"屋企汤馆","lon":"121.460766738","lat":"31.2209171016","category":"72","category_name":"广东菜","address":"卢湾区长乐路175号(近兰心大戏院)"},{"poiid":"B2094757DB6FA6FC4693","title":"EL CAMINO","lon":"121.4614093391706","lat":"31.22114830377862","category":"500","category_name":"未知分类","address":"卢湾区成都南路105号(近淮海路)"},{"poiid":"B2094757D16EA0FB4498","title":"花园饭店33楼欧陆法式餐厅","lon":"121.460312738","lat":"31.2179050375","category":"500","category_name":"未知分类","address":"上海市静安区茂名南路58号"},{"poiid":"B2094654DB64A7F9479B","title":"山里","lon":"121.459704054","lat":"31.220028793","category":"95","category_name":"日本料理","address":"卢湾区茂名南路58号花园饭店2楼(近淮海中路)"},{"poiid":"B2094750D76DABFD499A","title":"DEREFTER比利时餐厅啤酒吧","lon":"121.459","lat":"31.2214","category":"269","category_name":"烧烤","address":"进贤路181号(近茂名南路)"},{"poiid":"B2094655D26BA0FA4192","title":"LOMOGRAPHY","lon":"121.46004","lat":"31.22172","category":"255","category_name":"专卖店","address":"卢湾区进贤路126号(近茂名南路)"},{"poiid":"B2094654DB65A2FD409A","title":"玫瑰咖啡厅","lon":"121.459704054","lat":"31.220028793","category":"268","category_name":"自助","address":"卢湾区茂名南路58号花园饭店1楼(近淮海中路)"},{"poiid":"B2094655D26EA5F44193","title":"阿毛饭店(富民店)","lon":"121.45826","lat":"31.21851","category":"76","category_name":"上海菜","address":"卢湾区陕西南路53号(近长乐路)"},{"poiid":"B2094757D06BA0FE499E","title":"一家人餐厅","lon":"121.459923","lat":"31.221674","category":"76","category_name":"上海菜","address":"卢湾区进贤路128号(近茂名南路)"},{"poiid":"B2094757D068A6FB429E","title":"康骏会馆(长乐店)","lon":"121.459905","lat":"31.220958","category":"500","category_name":"未知分类","address":"卢湾区长乐路400号3楼(长乐路茂名南路)"},{"poiid":"B2094757D069A3FF419C","title":"210 Coffee","lon":"121.45804573","lat":"31.22132311","category":"65","category_name":"咖啡厅","address":"卢湾区进贤路210号1-3楼(近陕西南路)"},{"poiid":"B2094751DA64A3FC4392","title":"DAISO大创生活馆","lon":"121.459449","lat":"31.219421","category":"249","category_name":"购物服务","address":"上海市淮海中路900号B1"},{"poiid":"B2094757D168A0F94993","title":"一龙居酒屋","lon":"121.458361038","lat":"31.2203407894","category":"95","category_name":"日本料理","address":"卢湾区长乐路207号"},{"poiid":"B2094757D66DA1F8479F","title":"锦梅食府","lon":"121.461082738","lat":"31.2191440639","category":"247","category_name":"餐饮美食","address":"上海市静安区陕西南路"},{"poiid":"B2094757D06AA7FD429C","title":"FC日式造型(锦江迪生店)","lon":"121.459907","lat":"31.220695","category":"260","category_name":"其他","address":"上海卢湾区长乐路400号锦江迪生3楼(近茂名南路)"},{"poiid":"B2094757D06FAAFA4098","title":"乐太郎","lon":"121.45997","lat":"31.22049","category":"95","category_name":"日本料理","address":"卢湾区长乐路398号1楼B1(近茂名南路)"},{"poiid":"B2094654DB64A5F54093","title":"山茶花铁板烧","lon":"121.459704054","lat":"31.220028793","category":"269","category_name":"烧烤","address":"卢湾区茂名南路58号花园饭店33楼(近淮海中路)"},{"poiid":"B2094655D26EA2F84192","title":"福烤锦花","lon":"121.45827","lat":"31.22018","category":"269","category_name":"烧烤","address":"卢湾区长乐路223号(近陕西南路)"},{"poiid":"B2094757D069A3F5459E","title":"进贤阁","lon":"121.46044","lat":"31.22152","category":"76","category_name":"上海菜","address":"上海卢湾区进贤路120号(近茂名路)  "},{"poiid":"B2094655D268A6FF469F","title":"南蛮子","lon":"121.45924","lat":"31.22137","category":"83","category_name":"云贵菜","address":"卢湾区进贤路169号56食尚谷E区2楼(近茂名南路)"},{"poiid":"B2094757D66EA2FD489D","title":"松板烤肉","lon":"121.460966738","lat":"31.2190270614","category":"247","category_name":"餐饮美食","address":"上海茂名南路"},{"poiid":"B2094757D064A6FD4692","title":"淮海路长乐路","lon":"121.459489738","lat":"31.2210051035","category":"500","category_name":"未知分类","address":"上海淮海路长乐路"},{"poiid":"B2094757D168ABFF489B","title":"老锦江饭店  11楼","lon":"121.46026143","lat":"31.22039759","category":"500","category_name":"未知分类","address":"上海茂名路 花园饭店对面"},{"poiid":"B2094757D164A4FE409C","title":"花园饭店茉莉厅","lon":"121.45997323","lat":"31.220143685","category":"247","category_name":"餐饮美食","address":"上海茂名南路58号"},{"poiid":"B2094757D06BA6FB479B","title":"陕西南路进贤路口","lon":"121.457899","lat":"31.221038","category":"500","category_name":"未知分类","address":"上海陕西南路进贤路口"},{"poiid":"B2094757D069A1FB459C","title":"苍龙纹身","lon":"121.458770752","lat":"31.2206745148","category":"255","category_name":"专卖店","address":"卢湾区长乐路434-1号(近茂名南路)"},{"poiid":"B2094757DA69A1F44692","title":"Lomography上海店","lon":"121.45992485809","lat":"31.221755879302","category":"119","category_name":"商场","address":"进贤路126号"},{"poiid":"B2094655D26AA4F4459D","title":"锦福会","lon":"121.46073413098","lat":"31.220246592787","category":"247","category_name":"餐饮美食","address":"卢湾区茂名南路59号锦江饭店锦北楼14楼(近长乐路)"},{"poiid":"B2094655D26EA5F4469F","title":"百事丽","lon":"121.46046","lat":"31.22045","category":"247","category_name":"餐饮美食","address":"卢湾区茂名南路59号锦江饭店南楼1楼(近淮海中路)"},{"poiid":"B2094655D36CA5F9429D","title":"长乐路陕西南路","lon":"121.45855","lat":"31.22041","category":"38","category_name":"公交车站","address":""},{"poiid":"B2094654D564AAFE499B","title":"上海锦江旅游有限公司(长乐路)","lon":"121.45996","lat":"31.22045","category":"248","category_name":"生活娱乐","address":"卢湾区长乐路191号(近茂名南路)"},{"poiid":"B2094757D464A0F84398","title":"空中酒廊 Sky Bar","lon":"121.459704054","lat":"31.220028793","category":"172","category_name":"酒吧","address":"茂名南路58号花园饭店33楼近淮海路"},{"poiid":"B2094654DB64A6FC4892","title":"欧陆餐厅","lon":"121.459704054","lat":"31.220028793","category":"94","category_name":"西餐厅","address":"卢湾区茂名南路58号花园饭店33楼(近淮海中路)"},{"poiid":"B2094654D564AAFE489E","title":"长乐邨","lon":"121.4584","lat":"31.21878","category":"47","category_name":"住宅区","address":"陕西南路39弄1-118号"},{"poiid":"B2094753D36EA2F94299","title":"厚味香辣馆(长乐路店)","lon":"121.46148","lat":"31.220848","category":"71","category_name":"四川菜","address":"长乐路175号"},{"poiid":"B2094750DB6CA0F44192","title":"food fusion","lon":"121.459236","lat":"31.217855","category":"247","category_name":"餐饮美食","address":null},{"poiid":"B2094757DB6CA4FE499A","title":"Side Bar","lon":"121.460128","lat":"31.221353","category":"260","category_name":"其他","address":"卢湾区茂名南路56号甲56食尚谷d-2号商铺(近长乐路)"},{"poiid":"B2094757D165A0FB449A","title":"淮海1号","lon":"121.460930738","lat":"31.2208090993","category":"252","category_name":"楼宇机构","address":"上海准海路柳林路"},{"poiid":"B2094757D06AA5FA429B","title":"埃洛美甲","lon":"121.45865375","lat":"31.218163088","category":"148","category_name":"美容美发店","address":"徐汇区新乐路9号甲(近陕西南路)"},{"poiid":"B2094757D069AAFA4492","title":"Franck Provost(陕西南路店)","lon":"121.45797","lat":"31.22047","category":"500","category_name":"未知分类","address":"上海卢湾区陕西南路35号红房子1楼商铺(近长乐路)  "},{"poiid":"B2094757DB6EABFB459F","title":"pasha","lon":"121.459113","lat":"31.219337","category":"247","category_name":"餐饮美食","address":"南昌路"},{"poiid":"B2094753D76AA6FB449A","title":"悦创作料理","lon":"121.460617","lat":"31.221004","category":"95","category_name":"日本料理","address":"上海市卢湾区长乐路398号B1楼(锦江饭店对面)"},{"poiid":"B2094757D56EA7F5419F","title":"上理工餐厅","lon":"121.4581704","lat":"31.21944452","category":"247","category_name":"餐饮美食","address":"卢湾区陕西南路上海理工后门(近复兴中路)"},{"poiid":"B2094757D064A0FB419D","title":"IDEA(茂名南路店)","lon":"121.46027","lat":"31.21946","category":"500","category_name":"未知分类","address":"卢湾区茂名南路58号花园饭店3楼(近淮海中路)"},{"poiid":"B209475CD368A6F9479D","title":"吉米记车仔面","lon":"121.45771","lat":"31.22016","category":"72","category_name":"广东菜","address":"陕西南路148号(近长乐路)"},{"poiid":"B2094654DB6BA6FC4793","title":"瑞福园酒家","lon":"121.45790180807","lat":"31.221212186982","category":"70","category_name":"综合酒楼","address":"进贤路221号近陕西南路"},{"poiid":"B2094753DB6AA6F44992","title":"海上国际影城","lon":"121.461692","lat":"31.219562","category":"178","category_name":"电影院","address":"上海市 中山北路3300号月星环球港4楼"},{"poiid":"B2094757D064A0FA499C","title":"阿丽家常菜","lon":"121.46089747","lat":"31.219728195","category":"75","category_name":"浙江菜","address":"静安区巨鹿路502号(近陕西南路)"},{"poiid":"B209475DD669A4FA469A","title":"绯鹤馆居酒屋","lon":"121.458557","lat":"31.218591","category":"247","category_name":"餐饮美食","address":"上海市 长乐路398号"},{"poiid":"B2094750DB65AAF9499A","title":"Le frites cafe&bistro","lon":"121.457847","lat":"31.219402","category":"94","category_name":"西餐厅","address":"徐汇区陕西南路186弄(近长乐路)"},{"poiid":"B2094757D06AAAFB429C","title":"Sky Bar","lon":"121.46088","lat":"31.21985","category":"260","category_name":"其他","address":"卢湾区茂名南路58号花园饭店33楼(近淮海中路)"},{"poiid":"B209475DD76FAAF8489E","title":"筑地青空三代目（马勒别墅店）","lon":"121.46125","lat":"31.220983","category":"247","category_name":"餐饮美食","address":"上海市 陕西南路30号马勒别墅内"},{"poiid":"B2094757DB64A2F44398","title":"艺林（锦江迪生商厦店）","lon":"121.46","lat":"31.2209","category":"162","category_name":"医院","address":"上海卢湾区长乐路400号(近茂名南路) 锦江迪生商厦二层"},{"poiid":"B2094750D76FA2FE4592","title":"LeVin","lon":"121.458","lat":"31.2213","category":"269","category_name":"烧烤","address":"进贤路224号"},{"poiid":"B2094752D664A3FD489E","title":"禧粹创作料理","lon":"121.461369","lat":"31.221041","category":"247","category_name":"餐饮美食","address":"上海市长乐路，茂名南路"},{"poiid":"B2094751D564A7F4459A","title":"蜀公馆成都麻辣老火锅","lon":"121.458583","lat":"31.221016","category":"247","category_name":"餐饮美食","address":null},{"poiid":"B2094655D268A7F84099","title":"印度餐厅(茂名南路)","lon":"121.46144","lat":"31.21868","category":"102","category_name":"印度风味","address":""},{"poiid":"B2094753D568A1FF499E","title":"Gold Wheel","lon":"121.460327","lat":"31.221229","category":"500","category_name":"未知分类","address":"上海市 茂名南路56号"},{"poiid":"B2094753D768ABFF459C","title":"Royal Orchid蘭 泰式按摩","lon":"121.458084","lat":"31.221227","category":"148","category_name":"美容美发店","address":"上海市 上海市黄浦区进贤路216号"},{"poiid":"B2094750DB6BA3F84998","title":"元YUAN","lon":"121.45919","lat":"31.218095","category":"248","category_name":"生活娱乐","address":"襄阳北路17号"},{"poiid":"B2094655D26BABFB449F","title":"兰馨公寓","lon":"121.46089","lat":"31.221548","category":"47","category_name":"住宅区","address":"上海市卢湾区茂名南路53号"},{"poiid":"B2094752DA6FA6F9479B","title":"Here Cafe","lon":"121.458195","lat":"31.219761","category":"500","category_name":"未知分类","address":"上海市 陕西南路39弄27号"},{"poiid":"B2094757D06BA6F4449C","title":"公交26路(长乐路陕西南路)","lon":"121.458793","lat":"31.22044","category":"38","category_name":"公交车站","address":"上海长乐路近陕西南路"},{"poiid":"B2094757D16AA7F5469D","title":"一龍","lon":"121.45858773","lat":"31.220186086","category":"249","category_name":"购物服务","address":"上海一龍日本料理"},{"poiid":"B2094757DA6EA5F8459E","title":"福ちゃん","lon":"121.458357499997","lat":"31.2200581999998","category":"247","category_name":"餐饮美食","address":"静安区长乐路223号"},{"poiid":"B2094753D36CA4FB459F","title":"松阪烧烤","lon":"121.4603","lat":"31.2205","category":"95","category_name":"日本料理","address":"茂名南路59号锦江饭店美食街"},{"poiid":"B2094753D66BA1F8489E","title":"藏乐坊","lon":"121.458007","lat":"31.219202","category":"500","category_name":"未知分类","address":"上海市 长乐路333号"},{"poiid":"B2094655D26AA3F8469E","title":"FIRSTCLASS","lon":"121.45974","lat":"31.22086","category":"247","category_name":"餐饮美食","address":"黄浦区复兴东路716号近河南南路(复兴东路望云路)"},{"poiid":"B2094654DB69ABF4419A","title":"思妍丽(锦江迪生店)","lon":"121.45952","lat":"31.2208","category":"255","category_name":"专卖店","address":"卢湾区长乐路400号锦江迪生商厦3楼(近茂名南路)"},{"poiid":"B2094654DB64A5F44193","title":"三越商场","lon":"121.45981","lat":"31.21981","category":"119","category_name":"商场","address":"茂名南路58号花园饭店1层"},{"poiid":"B2094757D165AAFD499B","title":"母婴促进中心","lon":"121.45799073","lat":"31.221269109","category":"500","category_name":"未知分类","address":"上海陕西南路122号4楼"},{"poiid":"B2094757D16AA3F9429C","title":"citizen bar","lon":"121.457889738","lat":"31.2211081057","category":"500","category_name":"未知分类","address":"上海进贤路"},{"poiid":"B2094757DB69AAFA449A","title":"福德得","lon":"121.460094","lat":"31.221228","category":"76","category_name":"上海菜","address":"茂名南路56号B区1楼近进贤路"},{"poiid":"B2094654D564ABF84893","title":"上海国际文化学院","lon":"121.45806","lat":"31.21861","category":"52","category_name":"高等院校","address":"徐汇区陕西南路202"},{"poiid":"B2094655D264AAFC419C","title":"56食尚谷","lon":"121.46009","lat":"31.2212","category":"247","category_name":"餐饮美食","address":"茂名南路56号"},{"poiid":"B2094750D76DA1FD409C","title":"CITIZENCAFÉ&BAR","lon":"121.458","lat":"31.2213","category":"269","category_name":"烧烤","address":"进贤路222号(近陕西南路)"},{"poiid":"B2094757D06AA6FC4793","title":"绝品甜点","lon":"121.457648054","lat":"31.219601793","category":"67","category_name":"甜品店","address":"陕西南路186弄甲近长乐路"},{"poiid":"B2094750D768A7F5499A","title":"Sidebar@Shanghai","lon":"121.46","lat":"31.2213","category":"269","category_name":"烧烤","address":"茂名南路56号(近长乐路)"},{"poiid":"B2094655D26AA1FF459A","title":"味藏 长乐路店 AJIKURA","lon":"121.45990148746","lat":"31.220510273538","category":"247","category_name":"餐饮美食","address":"长乐路191号近茂名南路口"},{"poiid":"B2094654D564AAFD459F","title":"屋企茶餐厅锦江长乐店","lon":"121.46096","lat":"31.22073","category":"68","category_name":"快餐厅","address":"长乐路179"},{"poiid":"B2094757D164A2FC4998","title":"天鹅阁西餐厅","lon":"121.4591017","lat":"31.221209311","category":"500","category_name":"未知分类","address":"上海进贤路"},{"poiid":"B2094752DB6CA3FE469F","title":"De Refter","lon":"121.459131","lat":"31.2214","category":"500","category_name":"未知分类","address":"上海市 进贤路181号"},{"poiid":"B2094757D165A3FB449B","title":"红房子西点(陕西路店)","lon":"121.45798","lat":"31.22031","category":"247","category_name":"餐饮美食","address":"上海卢湾区陕西南路35号(近长乐路)  "},{"poiid":"B2094757D16AA4FE489A","title":"恒佳口腔门诊部","lon":"121.4599","lat":"31.22048","category":"162","category_name":"医院","address":"上海卢湾区长乐路400号锦江迪生商厦306(近茂名南路)  "},{"poiid":"B2094654D564AAFE489F","title":"长乐邨(北门)","lon":"121.45896","lat":"31.22032","category":"47","category_name":"住宅区","address":"长乐路197"},{"poiid":"B2094654D564AAFF4192","title":"FRANCK PROVOST PARIS","lon":"121.45777","lat":"31.22065","category":"148","category_name":"美容美发店","address":"陕西南路35-4"},{"poiid":"B2094757DA6AABFF419B","title":"Lancel","lon":"121.46126008","lat":"31.21871936","category":"249","category_name":"购物服务","address":"淮海中路758号（瑞金路路口）"},{"poiid":"B2094757D465A3F8469D","title":"锦江拉丁 茂名店 Latina","lon":"121.46073413098","lat":"31.220246592787","category":"268","category_name":"自助","address":"茂名南路59号（老锦江饭店锦北楼1楼）近长乐路"},{"poiid":"B2094655D26EA4FB479C","title":"izzue(陕西南路)","lon":"121.45772","lat":"31.22074","category":"94","category_name":"西餐厅","address":"卢湾区陕西南路35 红房子商务楼"},{"poiid":"B2094655D26EA2FF479F","title":"发力无边(长乐路店)","lon":"121.45952","lat":"31.2208","category":"148","category_name":"美容美发店","address":"卢湾区长乐路400号"},{"poiid":"B2094757D664A1FC4492","title":"山城烤鱼 山西南路店","lon":"121.45797","lat":"31.21929","category":"269","category_name":"烧烤","address":"山西南路186号近天津路"},{"poiid":"B2094654D564AAFD459D","title":"金锅咖啡馆","lon":"121.4608","lat":"31.22093","category":"65","category_name":"咖啡厅","address":"徐汇区长乐路398号"},{"poiid":"B2094655D264A6FE4999","title":"贵宾楼西部公寓","lon":"121.46163","lat":"31.21952","category":"47","category_name":"住宅区","address":""},{"poiid":"B2094655D264A7F8459B","title":"陕西南路186弄小区(东门)","lon":"121.45784","lat":"31.2193","category":"47","category_name":"住宅区","address":"陕西南路186弄1-20号"},{"poiid":"B2094757D168A0FF499E","title":"華亭賓館","lon":"121.46140458","lat":"31.219495971","category":"217","category_name":"旅馆招待所","address":"上海漕溪北路"},{"poiid":"B2094757DB68ABF8479D","title":"Mc Cafe麦咖啡","lon":"121.460099018328","lat":"31.21968393316773","category":"500","category_name":"未知分类","address":"淮海中路777号"},{"poiid":"B2094757D165A0FC4792","title":"CLOSLESS","lon":"121.459441738","lat":"31.2212861095","category":"260","category_name":"其他","address":"卢湾区进贤路169号"},{"poiid":"B2094655D26AAAF54593","title":"FranckProvost陕西南路店","lon":"121.45772","lat":"31.22074","category":"148","category_name":"美容美发店","address":"卢湾区陕西南路35号红房子1楼商铺近长乐路;;"},{"poiid":"B2094655D268A3F9489D","title":"永嘉第一小区(西门)","lon":"121.45843","lat":"31.21826","category":"47","category_name":"住宅区","address":"陕西南路63弄1-16号"},{"poiid":"B2094655D26FABF8479D","title":"永嘉第一小区","lon":"121.4588","lat":"31.21827","category":"47","category_name":"住宅区","address":"陕西南路63弄1-16号"},{"poiid":"B2094757D569A6FF4892","title":"文艺俱乐部KTV","lon":"121.4608069","lat":"31.22093306","category":"170","category_name":"KTV","address":"卢湾区长乐路398号3楼(近茂名南路)"},{"poiid":"B2094654D564AAFF419C","title":"延中社区","lon":"121.45868","lat":"31.22052","category":"47","category_name":"住宅区","address":"长乐路434弄1-29号"},{"poiid":"B2094757D66DA0FA4092","title":"和谐宿舍","lon":"121.461207","lat":"31.220791","category":"47","category_name":"住宅区","address":"上海长乐路"},{"poiid":"B2094757D16CAAF5489C","title":"全家便利店（陕西南路二店）","lon":"121.46056366","lat":"31.2194957733","category":"117","category_name":"便民商店/便利店","address":"上海陕西南路72号"},{"poiid":"B2094654D564AAFF429C","title":"b+ab","lon":"121.45769","lat":"31.22081","category":"141","category_name":"服装鞋帽皮具店","address":"陕西南路35-3"},{"poiid":"B2094757D169A2FD429F","title":"39号码头","lon":"121.459049","lat":"31.221515","category":"500","category_name":"未知分类","address":"上海进贤路172号"},{"poiid":"B2094757D16BABF5459C","title":"上海教育评估院","lon":"121.458032","lat":"31.2188","category":"500","category_name":"未知分类","address":"上海陕西南路202号"},{"poiid":"B2094757D66DABF44898","title":"静心轩","lon":"121.45884873","lat":"31.220933102","category":"500","category_name":"未知分类","address":"上海市卢湾区延安东路立交桥"},{"poiid":"B2094751D46BA7F44398","title":"上海汉刺青","lon":"121.458029","lat":"31.220428","category":"148","category_name":"美容美发店","address":"卢湾区瑞金一路148弄1号,近淮海中路"},{"poiid":"B2094757D164A1F84793","title":"桂由美(Yumi Katsura)","lon":"121.459776","lat":"31.219953","category":"141","category_name":"服装鞋帽皮具店","address":"卢湾区茂名南路58号花园饭店3楼(近淮海中路)查看地图"},{"poiid":"B2094757D06FA5FA439E","title":"BLiSS cafe lounge","lon":"121.45904","lat":"31.22121","category":"172","category_name":"酒吧","address":"上海卢湾区进贤路181号(近茂名路)"},{"poiid":"B2094757D06EAAFF439F","title":"1288书吧","lon":"121.457586","lat":"31.219807","category":"125","category_name":"书店","address":"上海徐汇区淮海中路1288号(近常熟路地铁站)"},{"poiid":"B2094757D165A1FC4698","title":"丽古龙(长乐路店)","lon":"121.46067","lat":"31.22066","category":"141","category_name":"服装鞋帽皮具店","address":"卢湾区长乐路205号(近茂名南路)"},{"poiid":"B2094655D26BABFB459F","title":"大富仔台球","lon":"121.45928","lat":"31.22137","category":"171","category_name":"台球厅","address":"进贤路169-2号2层"},{"poiid":"B2094654D564AAFE4992","title":"CALLISTO","lon":"121.46071","lat":"31.21977","category":"141","category_name":"服装鞋帽皮具店","address":""},{"poiid":"B2094654D564AAF94293","title":"56生活艺术空间(茂名南路)","lon":"121.46008","lat":"31.22107","category":"141","category_name":"服装鞋帽皮具店","address":"卢湾区茂名南路56号(近长乐路)"},{"poiid":"B2094757D66FA7FF4392","title":"mao2","lon":"121.45810573","lat":"31.220549093","category":"141","category_name":"服装鞋帽皮具店","address":"卢湾区进贤路183号(近茂名路)"},{"poiid":"B2094654D564AAFE4793","title":"上海卿卿服饰","lon":"121.45865","lat":"31.22026","category":"141","category_name":"服装鞋帽皮具店","address":"长乐路209"},{"poiid":"B2094757DB64A2FB429E","title":"RALPH LAUREN（锦江迪生商厦店）","lon":"121.46","lat":"31.2209","category":"141","category_name":"服装鞋帽皮具店","address":"上海卢湾区长乐路400号(近茂名南路) 锦江迪生商厦一层"},{"poiid":"B2094654D564AAFF4498","title":"MOMO衣品","lon":"121.45954","lat":"31.22142","category":"141","category_name":"服装鞋帽皮具店","address":"进贤路159"},{"poiid":"B2094757D66EA0FC4099","title":"THREE SOCIETY","lon":"121.459732056","lat":"31.221452713","category":"141","category_name":"服装鞋帽皮具店","address":"进贤路157号B"},{"poiid":"B2094752D664A5FF4699","title":"上海瑞金洲际酒店","lon":"121.460797","lat":"31.218272","category":"251","category_name":"出行住宿","address":"上海市瑞金二路118号"},{"poiid":"B2094654DB65A1FA459B","title":"蝶蝶","lon":"121.45861","lat":"31.22025","category":"141","category_name":"服装鞋帽皮具店","address":"长乐路211"},{"poiid":"B2094752D269A4F5489C","title":"MACY进贤店","lon":"121.45813","lat":"31.221191","category":"249","category_name":"购物服务","address":"上海进贤路214号"},{"poiid":"B2094757D568ABF94593","title":"古巴(进贤路)","lon":"121.45796875","lat":"31.22109131","category":"141","category_name":"服装鞋帽皮具店","address":"中国上海市黄浦区进贤路195"},{"poiid":"B2094753DB64A6F94092","title":"赵小姐不等位","lon":"121.458755","lat":"31.220579","category":"500","category_name":"未知分类","address":"上海市 长乐路"},{"poiid":"B2094757D16EA6F9469B","title":"大班廊","lon":"121.46073073","lat":"31.219127063","category":"500","category_name":"未知分类","address":"上海市静安区茂名南路59号"},{"poiid":"B2094757D16DA6FA4399","title":"cup of tea 喝茶","lon":"121.45765296","lat":"31.220394588","category":"500","category_name":"未知分类","address":"上海茂名北路80号"},{"poiid":"B2094757D16FA2FA439E","title":"进贤210会所","lon":"121.45866","lat":"31.22113","category":"500","category_name":"未知分类","address":"上海卢湾区进贤路210号(近陕西南路)  "},{"poiid":"B2094750DB6EA7F5469A","title":"上海九院","lon":"121.461029","lat":"31.21947","category":"627","category_name":"一般地点标志","address":null},{"poiid":"B2094757D66DA3F8469C","title":"中国石化(长乐路398号)","lon":"121.46135373","lat":"31.221099105","category":"154","category_name":"加油加气站","address":"上海市静安区陕西南路"},{"poiid":"B2094757D16CA4F5469F","title":"水秀坊(长乐店)","lon":"121.4583","lat":"31.22012","category":"149","category_name":"洗浴推拿场所","address":"上海徐汇区长乐路462号(近茂名南路)"},{"poiid":"B2094757D168A4F44692","title":"刺龙纹身","lon":"121.46151029","lat":"31.219966654","category":"148","category_name":"美容美发店","address":"上海卢湾区巨鹿路374弄2号"},{"poiid":"B2094757D16FA0F54898","title":"安垦Anken","lon":"121.459314","lat":"31.221381","category":"500","category_name":"未知分类","address":"上海进贤路169号"},{"poiid":"B2094757D568A0FF4999","title":"Bottega Veneta(锦江迪生店)","lon":"121.4595261","lat":"31.22080806","category":"249","category_name":"购物服务","address":"长乐路400号锦江迪生商厦"},{"poiid":"B2094757D16FA0FB449D","title":"蜂玩 玩具礼品店（拆）","lon":"121.457852769","lat":"31.2201695699","category":"128","category_name":"儿童用品店","address":"长乐路245号"},{"poiid":"B2094757D069A0FF4593","title":"集芙美甲","lon":"121.457927","lat":"31.218965","category":"148","category_name":"美容美发店","address":"上海陕西南路39弄81号"},{"poiid":"B2094757DA6FA3FE4392","title":"Lomography上海大使馆","lon":"121.459963000001","lat":"31.2216799999998","category":"249","category_name":"购物服务","address":"卢湾区进贤路126号(近茂名南路口)"},{"poiid":"B2094757D16CA4F4469C","title":"锦疆礼仪服务","lon":"121.46095","lat":"31.22012","category":"500","category_name":"未知分类","address":"卢湾区茂名南路59号锦江饭店西楼3331室(近长乐路)查看地图"},{"poiid":"B2094757D168A4FD419C","title":"维络城华狮广场体验站","lon":"121.46175963","lat":"31.219930452","category":"500","category_name":"未知分类","address":"上海卢湾区淮海中路688号华狮广场"},{"poiid":"B2094757D16FA5FB4398","title":"QUEENAIL","lon":"121.45840715","lat":"31.221203502","category":"500","category_name":"未知分类","address":"上海进贤路211号"},{"poiid":"B2094654D564AAFF449D","title":"西泉小高扦脚店","lon":"121.45981","lat":"31.22146","category":"149","category_name":"洗浴推拿场所","address":"进贤路151"},{"poiid":"B2094757D068ABF8499D","title":"去哪网，上海office","lon":"121.459139338","lat":"31.2210362042","category":"500","category_name":"未知分类","address":"上海卢湾区进贤路169号(近茂名南路)"},{"poiid":"B2094753D56BA6F44198","title":"Royal Orchid 蘭 泰式古法按摩","lon":"121.458149","lat":"31.221261","category":"248","category_name":"生活娱乐","address":"进贤路216号"},{"poiid":"B2094757D66DA1FB469A","title":"夜来香","lon":"121.46057","lat":"31.22025","category":"260","category_name":"其他","address":"卢湾区茂名南路58号花园饭店3楼(近淮海中路)"},{"poiid":"B2094654DB65A3F8499E","title":"绿洲大堂酒吧","lon":"121.46022","lat":"31.21961","category":"260","category_name":"其他","address":"卢湾区茂名南路58号花园饭店1楼(近淮海中路)"},{"poiid":"B2094654D564AAFF469E","title":"老周(进贤路)","lon":"121.45942","lat":"31.22159","category":"131","category_name":"珠宝首饰工艺品","address":"进贤路152-154"},{"poiid":"B2094757D569A0FB449B","title":"Iomogrophy","lon":"121.4599788","lat":"31.22169217","category":"130","category_name":"礼品饰品店","address":"进贤路126"},{"poiid":"B2094757DA6FA3FC4699","title":"艺林美发沙龙","lon":"121.459844112398","lat":"31.2208207857248","category":"248","category_name":"生活娱乐","address":"静安区长乐路400号锦江迪生2楼206商铺"},{"poiid":"B2094757D568ABFD489A","title":"NOSILVER陕西南路店","lon":"121.4577722","lat":"31.21952194","category":"249","category_name":"购物服务","address":"卢湾区陕西南路182-1号(近长乐路)"},{"poiid":"B2094654DB69ABFB4792","title":"锦江国际旅游(长乐路店)","lon":"121.45997","lat":"31.22045","category":"248","category_name":"生活娱乐","address":"上海市卢湾区长乐路191号"},{"poiid":"B2094655D26BA7F9429B","title":"拉格斐锦江迪生店","lon":"121.45953","lat":"31.22081","category":"248","category_name":"生活娱乐","address":"长乐路400号锦江迪生商厦"},{"poiid":"B2094654D564AAFE499A","title":"上海华亭海外旅游有限公司","lon":"121.45997","lat":"31.22046","category":"248","category_name":"生活娱乐","address":"长乐路191号甲"},{"poiid":"B2094655D264A6F84798","title":"大富仔棋牌","lon":"121.45928","lat":"31.22137","category":"175","category_name":"棋牌室","address":"进贤路169-2号2层"},{"poiid":"B2094757DA68A6F9449D","title":"宗家源吉兆庵（花园饭店一楼）","lon":"121.4601981639862","lat":"31.220508833760036","category":"643","category_name":"食品饮料类公司","address":"上海市黄浦区 茂名南路58号花园饭店1楼（玫瑰咖啡厅旁边）(靠近长乐路)"},{"poiid":"B2094655D26BA5FA4493","title":"兰馨公寓(北门)","lon":"121.46086","lat":"31.22172","category":"48","category_name":"楼宇大门","address":"茂名南路53号"},{"poiid":"B2094750D26DA1F94499","title":"home","lon":"121.4579903744604","lat":"31.21980717744555","category":"251","category_name":"出行住宿","address":"淮海中路833弄"},{"poiid":"B2094752D065A5FB4893","title":"网鱼网咖","lon":"121.460218","lat":"31.221184","category":"248","category_name":"生活娱乐","address":"淮海路"},{"poiid":"B2094655D268A0F54492","title":"进贤小区(南门)","lon":"121.45843","lat":"31.22138","category":"656","category_name":"大门","address":"进贤路202弄1-18号"}]