[{"poiid":"B2094655D26CA4F94298","title":"尚街Loft","lon":"121.45912","lat":"31.20524","category":"116","category_name":"特色商业街","address":"中央商务区CBD22号"},{"poiid":"B2094757D06FA7FF459C","title":"旭日屋 襄阳南路","lon":"121.45815664124","lat":"31.204645031668","category":"95","category_name":"日本料理","address":"徐汇区襄阳南路533号(近肇嘉浜路)"},{"poiid":"B2094757D06FA6F9479B","title":"张生记(徐汇店)","lon":"121.45598","lat":"31.20142","category":"75","category_name":"浙江菜","address":"徐汇区肇嘉浜路446号伊泰利大厦2-3楼(近太原路)"},{"poiid":"B2094753D76FAAFA449C","title":"上海滩国泰旗舰店","lon":"121.466011","lat":"31.216125","category":"249","category_name":"购物服务","address":"淮海中路868号"},{"poiid":"B209475CD564A7F84292","title":"上海滩新天地店","lon":"121.47463","lat":"31.22164","category":"119","category_name":"商场","address":"\"太仓路181弄新天地北里15号\r\n\""},{"poiid":"B209475CD564A7F8439E","title":"上海滩中信泰富店","lon":"121.45602","lat":"31.22851","category":"119","category_name":"商场","address":"\"南京西路1168号中信泰富广场，店铺号221.\r\n\""},{"poiid":"B2094655D26BA0FA479B","title":"新苑私房菜","lon":"121.4603","lat":"31.20464","category":"76","category_name":"上海菜","address":"徐汇区嘉善路508号尚街1号楼102室(肇嘉浜路建国西路间)"},{"poiid":"B2094757D06FA0F9439A","title":"木村日本料理(肇嘉浜路店)","lon":"121.460549838","lat":"31.2040251418","category":"95","category_name":"日本料理","address":"徐汇区嘉善路524号(近肇嘉浜路)"},{"poiid":"B2094757D068A7FD4799","title":"上海市高级人民法院","lon":"121.45943123","lat":"31.203331163","category":"608","category_name":"法院","address":"上海市徐汇区肇嘉浜路308号"},{"poiid":"B2094757D069A7F5479F","title":"襄阳会馆","lon":"121.45852","lat":"31.20484","category":"76","category_name":"上海菜","address":"徐汇区建国西路296号(近襄阳南路)"},{"poiid":"B2094757D06FA0FF419B","title":"沃歌斯 建国西路店 wagas","lon":"121.46050136399","lat":"31.206048786127","category":"94","category_name":"西餐厅","address":"徐汇区建国西路283号尚街LOFT1104-1105室(近嘉善路)"},{"poiid":"B2094757D06FA1F94199","title":"x-club镭战主题酒吧","lon":"121.4580286","lat":"31.202248626","category":"260","category_name":"其他","address":"徐汇区肇嘉浜路366号裕华大厦B1楼(襄阳南路口)"},{"poiid":"B2094655D36CA0F94999","title":"建国西路","lon":"121.45565","lat":"31.20408","category":"38","category_name":"公交车站","address":"建国西路354弄"},{"poiid":"B2094655D264A5FA469F","title":"尚街创意园","lon":"121.4603","lat":"31.20464","category":"45","category_name":"产业园区","address":"嘉善路508号"},{"poiid":"B2094750D664A3F54598","title":"鸿公馆","lon":"121.458","lat":"31.2034","category":"72","category_name":"广东菜","address":"徐汇区襄阳南路578号乙(近肇嘉浜路)"},{"poiid":"B2094757D068A0FF409A","title":"襄阳南路","lon":"121.45744273","lat":"31.201941697","category":"34","category_name":"港口码头","address":"上海卢湾区襄阳南路"},{"poiid":"B2094654DA6DABFD4199","title":"伊泰利大厦","lon":"121.4552612","lat":"31.20184326","category":"46","category_name":"楼宇","address":"伊泰利大厦位于徐汇肇嘉浜路446弄"},{"poiid":"B2094751DA6FA3FC469F","title":"捞王猪肚鸡","lon":"121.45716","lat":"31.20452","category":"86","category_name":"火锅店","address":"徐汇区肇嘉浜路268号2楼(近嘉善路地铁站2号出口)"},{"poiid":"B2094757D06FAAF54998","title":"亚太企业大厦","lon":"121.460398738","lat":"31.2025817111","category":"46","category_name":"楼宇","address":"丰台学城海鹰路1号，3号"},{"poiid":"B2094757D568A0F5429B","title":"阿婆葱油饼","lon":"121.4582589","lat":"31.20335306","category":"68","category_name":"快餐厅","address":"徐汇区襄阳南路578弄口(近肇嘉浜路)"},{"poiid":"B2094750D76CAAF54698","title":"可颂坊(肇嘉浜路店)","lon":"121.458","lat":"31.2024","category":"112","category_name":"糕饼店","address":"徐汇区肇嘉浜路376号(近襄阳南路)"},{"poiid":"B2094654DB64A6FC469A","title":"西湘记","lon":"121.45824","lat":"31.20174","category":"77","category_name":"湖南菜","address":"徐汇区肇嘉浜路407号(近襄阳南路)"},{"poiid":"B2094655D36DA1F44792","title":"襄阳南路建国西路","lon":"121.45804","lat":"31.20557","category":"38","category_name":"公交车站","address":"上海襄阳南路建国西路"},{"poiid":"B2094757D068A6FA4299","title":"巴黎时韵","lon":"121.45768","lat":"31.205799","category":"46","category_name":"楼宇","address":"巴黎时韵位于卢湾襄阳南路500号建国西路口"},{"poiid":"B2094654DB69A7FD439F","title":"秋萍茶宴馆","lon":"121.4576585804","lat":"31.205616427492","category":"75","category_name":"浙江菜","address":"徐汇区襄阳南路500号(近建国西路)"},{"poiid":"B2094654DA6DA6FB409A","title":"襄阳公寓","lon":"121.45782","lat":"31.203655","category":"47","category_name":"住宅区","address":"上海市徐汇区襄阳南路550号"},{"poiid":"B2094757D165AAFE4392","title":"QUEEN'S PALACE婚纱礼服馆","lon":"121.458569738","lat":"31.2023247056","category":"260","category_name":"其他","address":"卢湾区徐家汇路618号日月光中心广场B2楼台湾馆口(近瑞金二路)"},{"poiid":"B2094750D165A2F54499","title":"韩国首尔SUM STUDIO","lon":"121.454948","lat":"31.203849","category":"248","category_name":"生活娱乐","address":"徐汇区建国西路379号(近岳阳路)"},{"poiid":"B2094757D069A5F44799","title":"Lola Club","lon":"121.455173279","lat":"31.2044100305","category":"500","category_name":"未知分类","address":"上海永嘉路570号"},{"poiid":"B2094750DA6AAAFC479F","title":"奈良本寿司","lon":"121.45543","lat":"31.20401","category":"95","category_name":"日本料理","address":"徐汇区永嘉路557号"},{"poiid":"B2094752D469A3FB4292","title":"平壤饭店","lon":"121.459587","lat":"31.202561","category":"247","category_name":"餐饮美食","address":"上海肇家浜路359号二楼"},{"poiid":"B2094750D164A3FA419F","title":"汉庭快捷上海襄阳路店","lon":"121.458224058151","lat":"31.2031296485384","category":"216","category_name":"经济型连锁酒店","address":"上海市徐汇区襄阳南路578号"},{"poiid":"B2094757D469A7FE459E","title":"吾饮良品 襄阳南路店","lon":"121.457903","lat":"31.204461","category":"113","category_name":"冷饮店","address":"徐汇区襄阳南路514号(近建国西路)"},{"poiid":"B2094655D268A4FC4092","title":"金环大厦(西一门)","lon":"121.45829","lat":"31.20403","category":"46","category_name":"楼宇","address":"襄阳南路485、489"},{"poiid":"B2094757D06FA0FB469D","title":"菲尚量贩KTV","lon":"121.45647073","lat":"31.202704633","category":"170","category_name":"KTV","address":"上海四川北路1915号时装商厦7楼"},{"poiid":"B2094654DA6DA6FA429A","title":"重庆麻辣烫(建国西路)","lon":"121.45778","lat":"31.20489","category":"68","category_name":"快餐厅","address":"徐汇区建国西路295号(近襄阳南路)"},{"poiid":"B2094757D468AAF94898","title":"GRUB&GROOVE","lon":"121.4586568","lat":"31.2052323","category":"94","category_name":"西餐厅","address":"徐汇区建国西路283号2号楼附楼B单元(嘉善路口)"},{"poiid":"B209475DDA69A5FF469A","title":"人和馆","lon":"121.458038","lat":"31.201763","category":"247","category_name":"餐饮美食","address":"上海市 肇加浜路407弄"},{"poiid":"B2094757D66FA3FE4493","title":"招商证券上海肇家浜路营业部","lon":"121.45739773","lat":"31.203280726","category":"500","category_name":"未知分类","address":"上海市徐汇区肇家浜路366号裕华大厦2楼"},{"poiid":"B2094654DA6EA2FF489F","title":"中国科学院上海分院研究生公寓","lon":"121.45835","lat":"31.20177","category":"47","category_name":"住宅区","address":"肇嘉浜路407"},{"poiid":"B2094753DB6CA4F4409C","title":"建国328小馆","lon":"121.457283","lat":"31.204849","category":"247","category_name":"餐饮美食","address":"建国西路328号"},{"poiid":"B2094757D16CA6FE4499","title":"Venus Spring Massage","lon":"121.460971","lat":"31.207268","category":"500","category_name":"未知分类","address":"上海市,陕西南路550弄37号嘉善坊E栋(近绍兴路)"},{"poiid":"B2094757D069A3F54592","title":"万年粮仓","lon":"121.45736","lat":"31.20109","category":"76","category_name":"上海菜","address":"徐汇区肇嘉浜路567号(近枫林路)"},{"poiid":"B2094750D76EA1F44392","title":"无名生煎","lon":"121.456","lat":"31.204","category":"68","category_name":"快餐厅","address":"徐汇区太原路236号(近建国西路)"},{"poiid":"B2094655D26FAAF9459A","title":"喜来公社Cafe","lon":"121.45763","lat":"31.2023","category":"65","category_name":"咖啡厅","address":"上海徐汇区肇嘉浜路376号(近襄阳南路)  "},{"poiid":"B2094757D56DA4FC479F","title":"萨菲国际会所","lon":"121.45764","lat":"31.2045","category":"248","category_name":"生活娱乐","address":"肇加浜路陕西路"},{"poiid":"B2094654DA6DA6FA4599","title":"光明便利No.465","lon":"121.45756","lat":"31.20241","category":"117","category_name":"便民商店/便利店","address":"徐汇区肇嘉浜路376号(襄阳南路肇嘉浜路)"},{"poiid":"B2094757D568ABFC409D","title":"中科院营养所食堂","lon":"121.455795","lat":"31.20277889","category":"68","category_name":"快餐厅","address":"徐汇区太原路294号(肇嘉浜路口)"},{"poiid":"B2094750D464AAF44992","title":"溪林涵社","lon":"121.457999","lat":"31.204534","category":"248","category_name":"生活娱乐","address":"徐汇区襄阳南路514号"},{"poiid":"B2094757D164A6F9469F","title":"吉祥馄饨(茶陵路店)","lon":"121.457239738","lat":"31.2017036924","category":"247","category_name":"餐饮美食","address":"徐汇区茶陵路335号(近零陵北路)"},{"poiid":"B2094655D26CA4F94298","title":"尚街Loft","lon":"121.45912","lat":"31.20524","category":"116","category_name":"特色商业街","address":"中央商务区CBD22号"},{"poiid":"B2094757D06FA7FF459C","title":"旭日屋 襄阳南路","lon":"121.45815664124","lat":"31.204645031668","category":"95","category_name":"日本料理","address":"徐汇区襄阳南路533号(近肇嘉浜路)"},{"poiid":"B2094757D06FA6F9479B","title":"张生记(徐汇店)","lon":"121.45598","lat":"31.20142","category":"75","category_name":"浙江菜","address":"徐汇区肇嘉浜路446号伊泰利大厦2-3楼(近太原路)"},{"poiid":"B2094753D76FAAFA449C","title":"上海滩国泰旗舰店","lon":"121.466011","lat":"31.216125","category":"249","category_name":"购物服务","address":"淮海中路868号"},{"poiid":"B209475CD564A7F84292","title":"上海滩新天地店","lon":"121.47463","lat":"31.22164","category":"119","category_name":"商场","address":"\"太仓路181弄新天地北里15号\r\n\""},{"poiid":"B209475CD564A7F8439E","title":"上海滩中信泰富店","lon":"121.45602","lat":"31.22851","category":"119","category_name":"商场","address":"\"南京西路1168号中信泰富广场，店铺号221.\r\n\""},{"poiid":"B2094655D26BA0FA479B","title":"新苑私房菜","lon":"121.4603","lat":"31.20464","category":"76","category_name":"上海菜","address":"徐汇区嘉善路508号尚街1号楼102室(肇嘉浜路建国西路间)"},{"poiid":"B2094757D06FA0F9439A","title":"木村日本料理(肇嘉浜路店)","lon":"121.460549838","lat":"31.2040251418","category":"95","category_name":"日本料理","address":"徐汇区嘉善路524号(近肇嘉浜路)"},{"poiid":"B2094757D068A7FD4799","title":"上海市高级人民法院","lon":"121.45943123","lat":"31.203331163","category":"608","category_name":"法院","address":"上海市徐汇区肇嘉浜路308号"},{"poiid":"B2094757D069A7F5479F","title":"襄阳会馆","lon":"121.45852","lat":"31.20484","category":"76","category_name":"上海菜","address":"徐汇区建国西路296号(近襄阳南路)"},{"poiid":"B2094757D06FA0FF419B","title":"沃歌斯 建国西路店 wagas","lon":"121.46050136399","lat":"31.206048786127","category":"94","category_name":"西餐厅","address":"徐汇区建国西路283号尚街LOFT1104-1105室(近嘉善路)"},{"poiid":"B2094757D06FA1F94199","title":"x-club镭战主题酒吧","lon":"121.4580286","lat":"31.202248626","category":"260","category_name":"其他","address":"徐汇区肇嘉浜路366号裕华大厦B1楼(襄阳南路口)"},{"poiid":"B2094655D36CA0F94999","title":"建国西路","lon":"121.45565","lat":"31.20408","category":"38","category_name":"公交车站","address":"建国西路354弄"},{"poiid":"B2094655D264A5FA469F","title":"尚街创意园","lon":"121.4603","lat":"31.20464","category":"45","category_name":"产业园区","address":"嘉善路508号"},{"poiid":"B2094750D664A3F54598","title":"鸿公馆","lon":"121.458","lat":"31.2034","category":"72","category_name":"广东菜","address":"徐汇区襄阳南路578号乙(近肇嘉浜路)"},{"poiid":"B2094757D068A0FF409A","title":"襄阳南路","lon":"121.45744273","lat":"31.201941697","category":"34","category_name":"港口码头","address":"上海卢湾区襄阳南路"},{"poiid":"B2094654DA6DABFD4199","title":"伊泰利大厦","lon":"121.4552612","lat":"31.20184326","category":"46","category_name":"楼宇","address":"伊泰利大厦位于徐汇肇嘉浜路446弄"},{"poiid":"B2094751DA6FA3FC469F","title":"捞王猪肚鸡","lon":"121.45716","lat":"31.20452","category":"86","category_name":"火锅店","address":"徐汇区肇嘉浜路268号2楼(近嘉善路地铁站2号出口)"},{"poiid":"B2094757D06FAAF54998","title":"亚太企业大厦","lon":"121.460398738","lat":"31.2025817111","category":"46","category_name":"楼宇","address":"丰台学城海鹰路1号，3号"},{"poiid":"B2094757D568A0F5429B","title":"阿婆葱油饼","lon":"121.4582589","lat":"31.20335306","category":"68","category_name":"快餐厅","address":"徐汇区襄阳南路578弄口(近肇嘉浜路)"},{"poiid":"B2094750D76CAAF54698","title":"可颂坊(肇嘉浜路店)","lon":"121.458","lat":"31.2024","category":"112","category_name":"糕饼店","address":"徐汇区肇嘉浜路376号(近襄阳南路)"},{"poiid":"B2094654DB64A6FC469A","title":"西湘记","lon":"121.45824","lat":"31.20174","category":"77","category_name":"湖南菜","address":"徐汇区肇嘉浜路407号(近襄阳南路)"},{"poiid":"B2094655D36DA1F44792","title":"襄阳南路建国西路","lon":"121.45804","lat":"31.20557","category":"38","category_name":"公交车站","address":"上海襄阳南路建国西路"},{"poiid":"B2094757D068A6FA4299","title":"巴黎时韵","lon":"121.45768","lat":"31.205799","category":"46","category_name":"楼宇","address":"巴黎时韵位于卢湾襄阳南路500号建国西路口"},{"poiid":"B2094654DB69A7FD439F","title":"秋萍茶宴馆","lon":"121.4576585804","lat":"31.205616427492","category":"75","category_name":"浙江菜","address":"徐汇区襄阳南路500号(近建国西路)"},{"poiid":"B2094654DA6DA6FB409A","title":"襄阳公寓","lon":"121.45782","lat":"31.203655","category":"47","category_name":"住宅区","address":"上海市徐汇区襄阳南路550号"},{"poiid":"B2094757D165AAFE4392","title":"QUEEN'S PALACE婚纱礼服馆","lon":"121.458569738","lat":"31.2023247056","category":"260","category_name":"其他","address":"卢湾区徐家汇路618号日月光中心广场B2楼台湾馆口(近瑞金二路)"},{"poiid":"B2094750D165A2F54499","title":"韩国首尔SUM STUDIO","lon":"121.454948","lat":"31.203849","category":"248","category_name":"生活娱乐","address":"徐汇区建国西路379号(近岳阳路)"},{"poiid":"B2094757D069A5F44799","title":"Lola Club","lon":"121.455173279","lat":"31.2044100305","category":"500","category_name":"未知分类","address":"上海永嘉路570号"},{"poiid":"B2094750DA6AAAFC479F","title":"奈良本寿司","lon":"121.45543","lat":"31.20401","category":"95","category_name":"日本料理","address":"徐汇区永嘉路557号"},{"poiid":"B2094752D469A3FB4292","title":"平壤饭店","lon":"121.459587","lat":"31.202561","category":"247","category_name":"餐饮美食","address":"上海肇家浜路359号二楼"},{"poiid":"B2094750D164A3FA419F","title":"汉庭快捷上海襄阳路店","lon":"121.458224058151","lat":"31.2031296485384","category":"216","category_name":"经济型连锁酒店","address":"上海市徐汇区襄阳南路578号"},{"poiid":"B2094757D469A7FE459E","title":"吾饮良品 襄阳南路店","lon":"121.457903","lat":"31.204461","category":"113","category_name":"冷饮店","address":"徐汇区襄阳南路514号(近建国西路)"},{"poiid":"B2094655D268A4FC4092","title":"金环大厦(西一门)","lon":"121.45829","lat":"31.20403","category":"46","category_name":"楼宇","address":"襄阳南路485、489"},{"poiid":"B2094757D06FA0FB469D","title":"菲尚量贩KTV","lon":"121.45647073","lat":"31.202704633","category":"170","category_name":"KTV","address":"上海四川北路1915号时装商厦7楼"},{"poiid":"B2094654DA6DA6FA429A","title":"重庆麻辣烫(建国西路)","lon":"121.45778","lat":"31.20489","category":"68","category_name":"快餐厅","address":"徐汇区建国西路295号(近襄阳南路)"},{"poiid":"B2094757D468AAF94898","title":"GRUB&GROOVE","lon":"121.4586568","lat":"31.2052323","category":"94","category_name":"西餐厅","address":"徐汇区建国西路283号2号楼附楼B单元(嘉善路口)"},{"poiid":"B209475DDA69A5FF469A","title":"人和馆","lon":"121.458038","lat":"31.201763","category":"247","category_name":"餐饮美食","address":"上海市 肇加浜路407弄"},{"poiid":"B2094757D66FA3FE4493","title":"招商证券上海肇家浜路营业部","lon":"121.45739773","lat":"31.203280726","category":"500","category_name":"未知分类","address":"上海市徐汇区肇家浜路366号裕华大厦2楼"},{"poiid":"B2094654DA6EA2FF489F","title":"中国科学院上海分院研究生公寓","lon":"121.45835","lat":"31.20177","category":"47","category_name":"住宅区","address":"肇嘉浜路407"},{"poiid":"B2094753DB6CA4F4409C","title":"建国328小馆","lon":"121.457283","lat":"31.204849","category":"247","category_name":"餐饮美食","address":"建国西路328号"},{"poiid":"B2094757D16CA6FE4499","title":"Venus Spring Massage","lon":"121.460971","lat":"31.207268","category":"500","category_name":"未知分类","address":"上海市,陕西南路550弄37号嘉善坊E栋(近绍兴路)"},{"poiid":"B2094757D069A3F54592","title":"万年粮仓","lon":"121.45736","lat":"31.20109","category":"76","category_name":"上海菜","address":"徐汇区肇嘉浜路567号(近枫林路)"},{"poiid":"B2094750D76EA1F44392","title":"无名生煎","lon":"121.456","lat":"31.204","category":"68","category_name":"快餐厅","address":"徐汇区太原路236号(近建国西路)"},{"poiid":"B2094655D26FAAF9459A","title":"喜来公社Cafe","lon":"121.45763","lat":"31.2023","category":"65","category_name":"咖啡厅","address":"上海徐汇区肇嘉浜路376号(近襄阳南路)  "},{"poiid":"B2094757D56DA4FC479F","title":"萨菲国际会所","lon":"121.45764","lat":"31.2045","category":"248","category_name":"生活娱乐","address":"肇加浜路陕西路"},{"poiid":"B2094654DA6DA6FA4599","title":"光明便利No.465","lon":"121.45756","lat":"31.20241","category":"117","category_name":"便民商店/便利店","address":"徐汇区肇嘉浜路376号(襄阳南路肇嘉浜路)"},{"poiid":"B2094757D568ABFC409D","title":"中科院营养所食堂","lon":"121.455795","lat":"31.20277889","category":"68","category_name":"快餐厅","address":"徐汇区太原路294号(肇嘉浜路口)"},{"poiid":"B2094750D464AAF44992","title":"溪林涵社","lon":"121.457999","lat":"31.204534","category":"248","category_name":"生活娱乐","address":"徐汇区襄阳南路514号"},{"poiid":"B2094757D164A6F9469F","title":"吉祥馄饨(茶陵路店)","lon":"121.457239738","lat":"31.2017036924","category":"247","category_name":"餐饮美食","address":"徐汇区茶陵路335号(近零陵北路)"},{"poiid":"B2094655D26CA4F94298","title":"尚街Loft","lon":"121.45912","lat":"31.20524","category":"116","category_name":"特色商业街","address":"中央商务区CBD22号"},{"poiid":"B2094757D06FA7FF459C","title":"旭日屋 襄阳南路","lon":"121.45815664124","lat":"31.204645031668","category":"95","category_name":"日本料理","address":"徐汇区襄阳南路533号(近肇嘉浜路)"},{"poiid":"B2094757D06FA6F9479B","title":"张生记(徐汇店)","lon":"121.45598","lat":"31.20142","category":"75","category_name":"浙江菜","address":"徐汇区肇嘉浜路446号伊泰利大厦2-3楼(近太原路)"},{"poiid":"B2094753D76FAAFA449C","title":"上海滩国泰旗舰店","lon":"121.466011","lat":"31.216125","category":"249","category_name":"购物服务","address":"淮海中路868号"},{"poiid":"B209475CD564A7F84292","title":"上海滩新天地店","lon":"121.47463","lat":"31.22164","category":"119","category_name":"商场","address":"\"太仓路181弄新天地北里15号\r\n\""},{"poiid":"B209475CD564A7F8439E","title":"上海滩中信泰富店","lon":"121.45602","lat":"31.22851","category":"119","category_name":"商场","address":"\"南京西路1168号中信泰富广场，店铺号221.\r\n\""},{"poiid":"B2094655D26BA0FA479B","title":"新苑私房菜","lon":"121.4603","lat":"31.20464","category":"76","category_name":"上海菜","address":"徐汇区嘉善路508号尚街1号楼102室(肇嘉浜路建国西路间)"},{"poiid":"B2094757D06FA0F9439A","title":"木村日本料理(肇嘉浜路店)","lon":"121.460549838","lat":"31.2040251418","category":"95","category_name":"日本料理","address":"徐汇区嘉善路524号(近肇嘉浜路)"},{"poiid":"B2094757D068A7FD4799","title":"上海市高级人民法院","lon":"121.45943123","lat":"31.203331163","category":"608","category_name":"法院","address":"上海市徐汇区肇嘉浜路308号"},{"poiid":"B2094757D069A7F5479F","title":"襄阳会馆","lon":"121.45852","lat":"31.20484","category":"76","category_name":"上海菜","address":"徐汇区建国西路296号(近襄阳南路)"},{"poiid":"B2094757D06FA0FF419B","title":"沃歌斯 建国西路店 wagas","lon":"121.46050136399","lat":"31.206048786127","category":"94","category_name":"西餐厅","address":"徐汇区建国西路283号尚街LOFT1104-1105室(近嘉善路)"},{"poiid":"B2094757D06FA1F94199","title":"x-club镭战主题酒吧","lon":"121.4580286","lat":"31.202248626","category":"260","category_name":"其他","address":"徐汇区肇嘉浜路366号裕华大厦B1楼(襄阳南路口)"},{"poiid":"B2094655D36CA0F94999","title":"建国西路","lon":"121.45565","lat":"31.20408","category":"38","category_name":"公交车站","address":"建国西路354弄"},{"poiid":"B2094655D264A5FA469F","title":"尚街创意园","lon":"121.4603","lat":"31.20464","category":"45","category_name":"产业园区","address":"嘉善路508号"},{"poiid":"B2094750D664A3F54598","title":"鸿公馆","lon":"121.458","lat":"31.2034","category":"72","category_name":"广东菜","address":"徐汇区襄阳南路578号乙(近肇嘉浜路)"},{"poiid":"B2094757D068A0FF409A","title":"襄阳南路","lon":"121.45744273","lat":"31.201941697","category":"34","category_name":"港口码头","address":"上海卢湾区襄阳南路"},{"poiid":"B2094654DA6DABFD4199","title":"伊泰利大厦","lon":"121.4552612","lat":"31.20184326","category":"46","category_name":"楼宇","address":"伊泰利大厦位于徐汇肇嘉浜路446弄"},{"poiid":"B2094751DA6FA3FC469F","title":"捞王猪肚鸡","lon":"121.45716","lat":"31.20452","category":"86","category_name":"火锅店","address":"徐汇区肇嘉浜路268号2楼(近嘉善路地铁站2号出口)"},{"poiid":"B2094757D06FAAF54998","title":"亚太企业大厦","lon":"121.460398738","lat":"31.2025817111","category":"46","category_name":"楼宇","address":"丰台学城海鹰路1号，3号"},{"poiid":"B2094757D568A0F5429B","title":"阿婆葱油饼","lon":"121.4582589","lat":"31.20335306","category":"68","category_name":"快餐厅","address":"徐汇区襄阳南路578弄口(近肇嘉浜路)"},{"poiid":"B2094750D76CAAF54698","title":"可颂坊(肇嘉浜路店)","lon":"121.458","lat":"31.2024","category":"112","category_name":"糕饼店","address":"徐汇区肇嘉浜路376号(近襄阳南路)"},{"poiid":"B2094654DB64A6FC469A","title":"西湘记","lon":"121.45824","lat":"31.20174","category":"77","category_name":"湖南菜","address":"徐汇区肇嘉浜路407号(近襄阳南路)"},{"poiid":"B2094655D36DA1F44792","title":"襄阳南路建国西路","lon":"121.45804","lat":"31.20557","category":"38","category_name":"公交车站","address":"上海襄阳南路建国西路"},{"poiid":"B2094757D068A6FA4299","title":"巴黎时韵","lon":"121.45768","lat":"31.205799","category":"46","category_name":"楼宇","address":"巴黎时韵位于卢湾襄阳南路500号建国西路口"},{"poiid":"B2094654DB69A7FD439F","title":"秋萍茶宴馆","lon":"121.4576585804","lat":"31.205616427492","category":"75","category_name":"浙江菜","address":"徐汇区襄阳南路500号(近建国西路)"},{"poiid":"B2094654DA6DA6FB409A","title":"襄阳公寓","lon":"121.45782","lat":"31.203655","category":"47","category_name":"住宅区","address":"上海市徐汇区襄阳南路550号"},{"poiid":"B2094757D165AAFE4392","title":"QUEEN'S PALACE婚纱礼服馆","lon":"121.458569738","lat":"31.2023247056","category":"260","category_name":"其他","address":"卢湾区徐家汇路618号日月光中心广场B2楼台湾馆口(近瑞金二路)"},{"poiid":"B2094750D165A2F54499","title":"韩国首尔SUM STUDIO","lon":"121.454948","lat":"31.203849","category":"248","category_name":"生活娱乐","address":"徐汇区建国西路379号(近岳阳路)"},{"poiid":"B2094757D069A5F44799","title":"Lola Club","lon":"121.455173279","lat":"31.2044100305","category":"500","category_name":"未知分类","address":"上海永嘉路570号"},{"poiid":"B2094750DA6AAAFC479F","title":"奈良本寿司","lon":"121.45543","lat":"31.20401","category":"95","category_name":"日本料理","address":"徐汇区永嘉路557号"},{"poiid":"B2094752D469A3FB4292","title":"平壤饭店","lon":"121.459587","lat":"31.202561","category":"247","category_name":"餐饮美食","address":"上海肇家浜路359号二楼"},{"poiid":"B2094750D164A3FA419F","title":"汉庭快捷上海襄阳路店","lon":"121.458224058151","lat":"31.2031296485384","category":"216","category_name":"经济型连锁酒店","address":"上海市徐汇区襄阳南路578号"},{"poiid":"B2094757D469A7FE459E","title":"吾饮良品 襄阳南路店","lon":"121.457903","lat":"31.204461","category":"113","category_name":"冷饮店","address":"徐汇区襄阳南路514号(近建国西路)"},{"poiid":"B2094655D268A4FC4092","title":"金环大厦(西一门)","lon":"121.45829","lat":"31.20403","category":"46","category_name":"楼宇","address":"襄阳南路485、489"},{"poiid":"B2094757D06FA0FB469D","title":"菲尚量贩KTV","lon":"121.45647073","lat":"31.202704633","category":"170","category_name":"KTV","address":"上海四川北路1915号时装商厦7楼"},{"poiid":"B2094654DA6DA6FA429A","title":"重庆麻辣烫(建国西路)","lon":"121.45778","lat":"31.20489","category":"68","category_name":"快餐厅","address":"徐汇区建国西路295号(近襄阳南路)"},{"poiid":"B2094757D468AAF94898","title":"GRUB&GROOVE","lon":"121.4586568","lat":"31.2052323","category":"94","category_name":"西餐厅","address":"徐汇区建国西路283号2号楼附楼B单元(嘉善路口)"},{"poiid":"B209475DDA69A5FF469A","title":"人和馆","lon":"121.458038","lat":"31.201763","category":"247","category_name":"餐饮美食","address":"上海市 肇加浜路407弄"},{"poiid":"B2094757D66FA3FE4493","title":"招商证券上海肇家浜路营业部","lon":"121.45739773","lat":"31.203280726","category":"500","category_name":"未知分类","address":"上海市徐汇区肇家浜路366号裕华大厦2楼"},{"poiid":"B2094654DA6EA2FF489F","title":"中国科学院上海分院研究生公寓","lon":"121.45835","lat":"31.20177","category":"47","category_name":"住宅区","address":"肇嘉浜路407"},{"poiid":"B2094753DB6CA4F4409C","title":"建国328小馆","lon":"121.457283","lat":"31.204849","category":"247","category_name":"餐饮美食","address":"建国西路328号"},{"poiid":"B2094757D16CA6FE4499","title":"Venus Spring Massage","lon":"121.460971","lat":"31.207268","category":"500","category_name":"未知分类","address":"上海市,陕西南路550弄37号嘉善坊E栋(近绍兴路)"},{"poiid":"B2094757D069A3F54592","title":"万年粮仓","lon":"121.45736","lat":"31.20109","category":"76","category_name":"上海菜","address":"徐汇区肇嘉浜路567号(近枫林路)"},{"poiid":"B2094750D76EA1F44392","title":"无名生煎","lon":"121.456","lat":"31.204","category":"68","category_name":"快餐厅","address":"徐汇区太原路236号(近建国西路)"},{"poiid":"B2094655D26FAAF9459A","title":"喜来公社Cafe","lon":"121.45763","lat":"31.2023","category":"65","category_name":"咖啡厅","address":"上海徐汇区肇嘉浜路376号(近襄阳南路)  "},{"poiid":"B2094757D56DA4FC479F","title":"萨菲国际会所","lon":"121.45764","lat":"31.2045","category":"248","category_name":"生活娱乐","address":"肇加浜路陕西路"},{"poiid":"B2094654DA6DA6FA4599","title":"光明便利No.465","lon":"121.45756","lat":"31.20241","category":"117","category_name":"便民商店/便利店","address":"徐汇区肇嘉浜路376号(襄阳南路肇嘉浜路)"},{"poiid":"B2094757D568ABFC409D","title":"中科院营养所食堂","lon":"121.455795","lat":"31.20277889","category":"68","category_name":"快餐厅","address":"徐汇区太原路294号(肇嘉浜路口)"},{"poiid":"B2094750D464AAF44992","title":"溪林涵社","lon":"121.457999","lat":"31.204534","category":"248","category_name":"生活娱乐","address":"徐汇区襄阳南路514号"},{"poiid":"B2094757D164A6F9469F","title":"吉祥馄饨(茶陵路店)","lon":"121.457239738","lat":"31.2017036924","category":"247","category_name":"餐饮美食","address":"徐汇区茶陵路335号(近零陵北路)"},{"poiid":"B2094655D26CA4F94298","title":"尚街Loft","lon":"121.45912","lat":"31.20524","category":"116","category_name":"特色商业街","address":"中央商务区CBD22号"},{"poiid":"B2094757D06FA7FF459C","title":"旭日屋 襄阳南路","lon":"121.45815664124","lat":"31.204645031668","category":"95","category_name":"日本料理","address":"徐汇区襄阳南路533号(近肇嘉浜路)"},{"poiid":"B2094757D06FA6F9479B","title":"张生记(徐汇店)","lon":"121.45598","lat":"31.20142","category":"75","category_name":"浙江菜","address":"徐汇区肇嘉浜路446号伊泰利大厦2-3楼(近太原路)"},{"poiid":"B2094753D76FAAFA449C","title":"上海滩国泰旗舰店","lon":"121.466011","lat":"31.216125","category":"249","category_name":"购物服务","address":"淮海中路868号"},{"poiid":"B209475CD564A7F84292","title":"上海滩新天地店","lon":"121.47463","lat":"31.22164","category":"119","category_name":"商场","address":"\"太仓路181弄新天地北里15号\r\n\""},{"poiid":"B209475CD564A7F8439E","title":"上海滩中信泰富店","lon":"121.45602","lat":"31.22851","category":"119","category_name":"商场","address":"\"南京西路1168号中信泰富广场，店铺号221.\r\n\""},{"poiid":"B2094655D26BA0FA479B","title":"新苑私房菜","lon":"121.4603","lat":"31.20464","category":"76","category_name":"上海菜","address":"徐汇区嘉善路508号尚街1号楼102室(肇嘉浜路建国西路间)"},{"poiid":"B2094757D06FA0F9439A","title":"木村日本料理(肇嘉浜路店)","lon":"121.460549838","lat":"31.2040251418","category":"95","category_name":"日本料理","address":"徐汇区嘉善路524号(近肇嘉浜路)"},{"poiid":"B2094757D068A7FD4799","title":"上海市高级人民法院","lon":"121.45943123","lat":"31.203331163","category":"608","category_name":"法院","address":"上海市徐汇区肇嘉浜路308号"},{"poiid":"B2094757D069A7F5479F","title":"襄阳会馆","lon":"121.45852","lat":"31.20484","category":"76","category_name":"上海菜","address":"徐汇区建国西路296号(近襄阳南路)"},{"poiid":"B2094757D06FA0FF419B","title":"沃歌斯 建国西路店 wagas","lon":"121.46050136399","lat":"31.206048786127","category":"94","category_name":"西餐厅","address":"徐汇区建国西路283号尚街LOFT1104-1105室(近嘉善路)"},{"poiid":"B2094757D06FA1F94199","title":"x-club镭战主题酒吧","lon":"121.4580286","lat":"31.202248626","category":"260","category_name":"其他","address":"徐汇区肇嘉浜路366号裕华大厦B1楼(襄阳南路口)"},{"poiid":"B2094655D36CA0F94999","title":"建国西路","lon":"121.45565","lat":"31.20408","category":"38","category_name":"公交车站","address":"建国西路354弄"},{"poiid":"B2094655D264A5FA469F","title":"尚街创意园","lon":"121.4603","lat":"31.20464","category":"45","category_name":"产业园区","address":"嘉善路508号"},{"poiid":"B2094750D664A3F54598","title":"鸿公馆","lon":"121.458","lat":"31.2034","category":"72","category_name":"广东菜","address":"徐汇区襄阳南路578号乙(近肇嘉浜路)"},{"poiid":"B2094757D068A0FF409A","title":"襄阳南路","lon":"121.45744273","lat":"31.201941697","category":"34","category_name":"港口码头","address":"上海卢湾区襄阳南路"},{"poiid":"B2094654DA6DABFD4199","title":"伊泰利大厦","lon":"121.4552612","lat":"31.20184326","category":"46","category_name":"楼宇","address":"伊泰利大厦位于徐汇肇嘉浜路446弄"},{"poiid":"B2094751DA6FA3FC469F","title":"捞王猪肚鸡","lon":"121.45716","lat":"31.20452","category":"86","category_name":"火锅店","address":"徐汇区肇嘉浜路268号2楼(近嘉善路地铁站2号出口)"},{"poiid":"B2094757D06FAAF54998","title":"亚太企业大厦","lon":"121.460398738","lat":"31.2025817111","category":"46","category_name":"楼宇","address":"丰台学城海鹰路1号，3号"},{"poiid":"B2094757D568A0F5429B","title":"阿婆葱油饼","lon":"121.4582589","lat":"31.20335306","category":"68","category_name":"快餐厅","address":"徐汇区襄阳南路578弄口(近肇嘉浜路)"},{"poiid":"B2094750D76CAAF54698","title":"可颂坊(肇嘉浜路店)","lon":"121.458","lat":"31.2024","category":"112","category_name":"糕饼店","address":"徐汇区肇嘉浜路376号(近襄阳南路)"},{"poiid":"B2094654DB64A6FC469A","title":"西湘记","lon":"121.45824","lat":"31.20174","category":"77","category_name":"湖南菜","address":"徐汇区肇嘉浜路407号(近襄阳南路)"},{"poiid":"B2094655D36DA1F44792","title":"襄阳南路建国西路","lon":"121.45804","lat":"31.20557","category":"38","category_name":"公交车站","address":"上海襄阳南路建国西路"},{"poiid":"B2094757D068A6FA4299","title":"巴黎时韵","lon":"121.45768","lat":"31.205799","category":"46","category_name":"楼宇","address":"巴黎时韵位于卢湾襄阳南路500号建国西路口"},{"poiid":"B2094654DB69A7FD439F","title":"秋萍茶宴馆","lon":"121.4576585804","lat":"31.205616427492","category":"75","category_name":"浙江菜","address":"徐汇区襄阳南路500号(近建国西路)"},{"poiid":"B2094654DA6DA6FB409A","title":"襄阳公寓","lon":"121.45782","lat":"31.203655","category":"47","category_name":"住宅区","address":"上海市徐汇区襄阳南路550号"},{"poiid":"B2094757D165AAFE4392","title":"QUEEN'S PALACE婚纱礼服馆","lon":"121.458569738","lat":"31.2023247056","category":"260","category_name":"其他","address":"卢湾区徐家汇路618号日月光中心广场B2楼台湾馆口(近瑞金二路)"},{"poiid":"B2094750D165A2F54499","title":"韩国首尔SUM STUDIO","lon":"121.454948","lat":"31.203849","category":"248","category_name":"生活娱乐","address":"徐汇区建国西路379号(近岳阳路)"},{"poiid":"B2094757D069A5F44799","title":"Lola Club","lon":"121.455173279","lat":"31.2044100305","category":"500","category_name":"未知分类","address":"上海永嘉路570号"},{"poiid":"B2094750DA6AAAFC479F","title":"奈良本寿司","lon":"121.45543","lat":"31.20401","category":"95","category_name":"日本料理","address":"徐汇区永嘉路557号"},{"poiid":"B2094752D469A3FB4292","title":"平壤饭店","lon":"121.459587","lat":"31.202561","category":"247","category_name":"餐饮美食","address":"上海肇家浜路359号二楼"},{"poiid":"B2094750D164A3FA419F","title":"汉庭快捷上海襄阳路店","lon":"121.458224058151","lat":"31.2031296485384","category":"216","category_name":"经济型连锁酒店","address":"上海市徐汇区襄阳南路578号"},{"poiid":"B2094757D469A7FE459E","title":"吾饮良品 襄阳南路店","lon":"121.457903","lat":"31.204461","category":"113","category_name":"冷饮店","address":"徐汇区襄阳南路514号(近建国西路)"},{"poiid":"B2094655D268A4FC4092","title":"金环大厦(西一门)","lon":"121.45829","lat":"31.20403","category":"46","category_name":"楼宇","address":"襄阳南路485、489"},{"poiid":"B2094757D06FA0FB469D","title":"菲尚量贩KTV","lon":"121.45647073","lat":"31.202704633","category":"170","category_name":"KTV","address":"上海四川北路1915号时装商厦7楼"},{"poiid":"B2094654DA6DA6FA429A","title":"重庆麻辣烫(建国西路)","lon":"121.45778","lat":"31.20489","category":"68","category_name":"快餐厅","address":"徐汇区建国西路295号(近襄阳南路)"},{"poiid":"B2094757D468AAF94898","title":"GRUB&GROOVE","lon":"121.4586568","lat":"31.2052323","category":"94","category_name":"西餐厅","address":"徐汇区建国西路283号2号楼附楼B单元(嘉善路口)"},{"poiid":"B209475DDA69A5FF469A","title":"人和馆","lon":"121.458038","lat":"31.201763","category":"247","category_name":"餐饮美食","address":"上海市 肇加浜路407弄"},{"poiid":"B2094757D66FA3FE4493","title":"招商证券上海肇家浜路营业部","lon":"121.45739773","lat":"31.203280726","category":"500","category_name":"未知分类","address":"上海市徐汇区肇家浜路366号裕华大厦2楼"},{"poiid":"B2094654DA6EA2FF489F","title":"中国科学院上海分院研究生公寓","lon":"121.45835","lat":"31.20177","category":"47","category_name":"住宅区","address":"肇嘉浜路407"},{"poiid":"B2094753DB6CA4F4409C","title":"建国328小馆","lon":"121.457283","lat":"31.204849","category":"247","category_name":"餐饮美食","address":"建国西路328号"},{"poiid":"B2094757D16CA6FE4499","title":"Venus Spring Massage","lon":"121.460971","lat":"31.207268","category":"500","category_name":"未知分类","address":"上海市,陕西南路550弄37号嘉善坊E栋(近绍兴路)"},{"poiid":"B2094757D069A3F54592","title":"万年粮仓","lon":"121.45736","lat":"31.20109","category":"76","category_name":"上海菜","address":"徐汇区肇嘉浜路567号(近枫林路)"},{"poiid":"B2094750D76EA1F44392","title":"无名生煎","lon":"121.456","lat":"31.204","category":"68","category_name":"快餐厅","address":"徐汇区太原路236号(近建国西路)"},{"poiid":"B2094655D26FAAF9459A","title":"喜来公社Cafe","lon":"121.45763","lat":"31.2023","category":"65","category_name":"咖啡厅","address":"上海徐汇区肇嘉浜路376号(近襄阳南路)  "},{"poiid":"B2094757D56DA4FC479F","title":"萨菲国际会所","lon":"121.45764","lat":"31.2045","category":"248","category_name":"生活娱乐","address":"肇加浜路陕西路"},{"poiid":"B2094654DA6DA6FA4599","title":"光明便利No.465","lon":"121.45756","lat":"31.20241","category":"117","category_name":"便民商店/便利店","address":"徐汇区肇嘉浜路376号(襄阳南路肇嘉浜路)"},{"poiid":"B2094757D568ABFC409D","title":"中科院营养所食堂","lon":"121.455795","lat":"31.20277889","category":"68","category_name":"快餐厅","address":"徐汇区太原路294号(肇嘉浜路口)"},{"poiid":"B2094750D464AAF44992","title":"溪林涵社","lon":"121.457999","lat":"31.204534","category":"248","category_name":"生活娱乐","address":"徐汇区襄阳南路514号"},{"poiid":"B2094757D164A6F9469F","title":"吉祥馄饨(茶陵路店)","lon":"121.457239738","lat":"31.2017036924","category":"247","category_name":"餐饮美食","address":"徐汇区茶陵路335号(近零陵北路)"}]