[{"poiid":"B2094757D06FA3FD4598","title":"衡山路","lon":"121.44432","lat":"31.20163","category":"260","category_name":"其他","address":"徐汇区衡山路(衡山路吴兴路)"},{"poiid":"B2094757D06FA3F54592","title":"Glo London","lon":"121.44812058","lat":"31.209113018","category":"94","category_name":"西餐厅","address":"徐汇区乌鲁木齐南路1号甲(近东平路)"},{"poiid":"B2094757D06FA2FA4999","title":"Colabo(衡山店)","lon":"121.451678867","lat":"31.2094187393","category":"94","category_name":"西餐厅","address":"徐汇区汾阳路156号(近桃江路)"},{"poiid":"B2094753D76FAAFA449C","title":"上海滩国泰旗舰店","lon":"121.466011","lat":"31.216125","category":"249","category_name":"购物服务","address":"淮海中路868号"},{"poiid":"B209475CD564A7F84292","title":"上海滩新天地店","lon":"121.47463","lat":"31.22164","category":"119","category_name":"商场","address":"\"太仓路181弄新天地北里15号\r\n\""},{"poiid":"B209475CD564A7F8439E","title":"上海滩中信泰富店","lon":"121.45602","lat":"31.22851","category":"119","category_name":"商场","address":"\"南京西路1168号中信泰富广场，店铺号221.\r\n\""},{"poiid":"B2094654DA6DA4FB4299","title":"藏珑坊(东平路)","lon":"121.44979","lat":"31.20854","category":"94","category_name":"西餐厅","address":"徐汇区东平路9号(近衡山路9月1日左右重新开业)"},{"poiid":"B2094757D068A7F4469E","title":"希腊餐厅(岳阳路店)","lon":"121.44949658","lat":"31.20925002","category":"94","category_name":"西餐厅","address":"上海市徐汇区岳阳路1号(近东平路)"},{"poiid":"B2094757D06EAAFB4593","title":"老麦咖啡馆","lon":"121.450176054","lat":"31.209116793","category":"260","category_name":"其他","address":"徐汇区桃江路25号甲(桃江路宝庆路路口,近衡山路)"},{"poiid":"B2094757D06FA2FE409D","title":"Sasha's","lon":"121.44970893","lat":"31.208426092","category":"172","category_name":"酒吧","address":"徐汇区东平路11号(近衡山路)"},{"poiid":"B2094750D768A7F9479D","title":"ShanghaiBrewery","lon":"121.449","lat":"31.2086","category":"269","category_name":"烧烤","address":"东平路15号(近衡山路)"},{"poiid":"B2094757D06FA4FD499F","title":"La Creperie","lon":"121.4518","lat":"31.20849","category":"94","category_name":"西餐厅","address":"徐汇区桃江路1号(近东平路)"},{"poiid":"B2094757D664A4FA469F","title":"The Camel Bar","lon":"121.451739","lat":"31.20861","category":"172","category_name":"酒吧","address":"徐汇区岳阳路1号(近东平路)"},{"poiid":"B2094757D06FA3F94499","title":"欧玛莉餐厅(O'Malley's Irish Pub)","lon":"121.44824981","lat":"31.209594726","category":"260","category_name":"其他","address":"徐汇区桃江路42号(近乌鲁木齐南路)"},{"poiid":"B2094654DA6DABFD4292","title":"千秋膳房(宝庆路)","lon":"121.45014","lat":"31.21041","category":"91","category_name":"台湾菜","address":"徐汇区宝庆路15号(复兴中路口)"},{"poiid":"B2094757D06FA0FE4099","title":"Haiku by Hatsune(徐汇店)","lon":"121.44932","lat":"31.20926","category":"95","category_name":"日本料理","address":"徐汇区桃江路28号-乙(近衡山路)"},{"poiid":"B2094757D069A1FB499E","title":"ZAPATA'S","lon":"121.44930898","lat":"31.208128978","category":"500","category_name":"未知分类","address":"上海衡山路5号近东平路"},{"poiid":"B2094757D06FA2FC479F","title":"香樟花园时尚厨房","lon":"121.44792","lat":"31.20661","category":"72","category_name":"广东菜","address":"徐汇区衡山路2号甲(近桃江路)"},{"poiid":"B2094757D16DA7FF479A","title":"宝莱纳","lon":"121.45173458","lat":"31.208893013","category":"249","category_name":"购物服务","address":"上海汾阳路138号"},{"poiid":"B2094757D068A1FE449D","title":"复旦大学附属眼耳鼻喉科医院(宝庆路分院)","lon":"121.450369913","lat":"31.2102095153","category":"162","category_name":"医院","address":"徐汇区宝庆路19号(近淮海中路)"},{"poiid":"B2094655D26EA5FA4999","title":"上海教育会堂","lon":"121.45212","lat":"31.20841","category":"68","category_name":"快餐厅","address":"徐汇区岳阳路1号(近东平路)"},{"poiid":"B2094757D06FA0FD449C","title":"Abbey Road","lon":"121.45199149","lat":"31.208174879","category":"94","category_name":"西餐厅","address":"徐汇区岳阳路45号(近永嘉路)"},{"poiid":"B2094750DA6AA2FD4798","title":"Green & Safe","lon":"121.450263","lat":"31.208555","category":"94","category_name":"西餐厅","address":"徐汇区东平路6号(近衡山路)"},{"poiid":"B2094757D06FA0FF4399","title":"欧登保龄球馆","lon":"121.44951","lat":"31.20788","category":"171","category_name":"台球厅","address":"徐汇区衡山路10号甲欧登大厦3楼(近乌鲁木齐南路)"},{"poiid":"B2094750D268A4FE499B","title":"momo牧场","lon":"121.448776","lat":"31.208055","category":"500","category_name":"未知分类","address":null},{"poiid":"B2094753D164A6FF459A","title":"鼎王无老养生锅","lon":"121.449942","lat":"31.20931","category":"500","category_name":"未知分类","address":"上海市 衡山路2号甲香樟花园内"},{"poiid":"B2094757D068A2F8429B","title":"PHO REAL(复兴中路店)","lon":"121.44892958","lat":"31.210494045","category":"99","category_name":"泰国／越南菜品餐厅","address":"徐汇区复兴中路1465号(近宝庆路)"},{"poiid":"B2094654DA6DA4FB429C","title":"上海音乐学院附中","lon":"121.45015","lat":"31.20837","category":"55","category_name":"中学","address":"徐汇区汾阳路20号上海音乐学院内(近复兴中路)"},{"poiid":"B2094654DB69A7FD439B","title":"席家花园(徐汇总店)","lon":"121.45147","lat":"31.20833","category":"47","category_name":"住宅区","address":"徐汇区东平路1号(近衡山路)"},{"poiid":"B2094757D068A3FD4392","title":"俏江南(徐汇店)","lon":"121.44857","lat":"31.20908","category":"71","category_name":"四川菜","address":"徐汇区桃江路28号-1(近衡山路)"},{"poiid":"B2094757D064A0FC4799","title":"拉妃酒吧","lon":"121.448665586","lat":"31.2074949864","category":"179","category_name":"音乐厅","address":"上海衡山路10号"},{"poiid":"B2094654DB69A7FD439E","title":"品川","lon":"121.44807","lat":"31.20909","category":"71","category_name":"四川菜","address":"徐汇区桃江路47号(近乌鲁木齐南路)"},{"poiid":"B2094757DB68AAFE4898","title":"洋房火锅 Hot Pot Sun","lon":"121.45186","lat":"31.2083","category":"88","category_name":"海鲜酒楼","address":"徐汇区岳阳路1号(近汾阳路)"},{"poiid":"B2094757D068A4F44393","title":"Madison","lon":"121.448763528","lat":"31.2088393742","category":"94","category_name":"西餐厅","address":"徐汇区汾阳路3号2号楼1楼(近淮海中路)"},{"poiid":"B2094757D06AAAF84399","title":"Greek Taverna","lon":"121.451924586","lat":"31.2083350028","category":"500","category_name":"未知分类","address":"上海市徐汇区岳阳路1号近东平路"},{"poiid":"B2094654DA6DA4FB419E","title":"和平官邸","lon":"121.45141","lat":"31.20936","category":"76","category_name":"上海菜","address":"徐汇区汾阳路158号(近桃江路)"},{"poiid":"B2094654DA6DA4FB439A","title":"滴水洞湘菜馆(东平路)","lon":"121.45098","lat":"31.20836","category":"77","category_name":"湖南菜","address":"徐汇区东平路5号B座(近岳阳路)"},{"poiid":"B2094757D06AA2F5409D","title":"鲜芋仙(岳阳店)","lon":"121.451889586","lat":"31.2088120122","category":"67","category_name":"甜品店","address":"徐汇区岳阳路1号(近桃江路东平路)"},{"poiid":"B2094750D269A2F8419A","title":"天泰餐厅 东平店 Simply Thai","lon":"121.450011054","lat":"31.208268783","category":"247","category_name":"餐饮美食","address":"徐汇区东平路5号C座(近岳阳路)"},{"poiid":"B2094757D06BA7F9439B","title":"Bella mia","lon":"121.450006","lat":"31.210957","category":"94","category_name":"西餐厅","address":"徐汇区宝庆路10号(复兴中路口)"},{"poiid":"B2094757D465A3FA4399","title":"隐泉源铁板烧 Kagen Teppanyaki","lon":"121.448960054","lat":"31.209266793","category":"247","category_name":"餐饮美食","address":"徐汇区桃江路28号丁(近衡山路)"},{"poiid":"B2094757D068A2F5499B","title":"复兴汇","lon":"121.44854","lat":"31.21006","category":"76","category_name":"上海菜","address":"徐汇区复兴中路1479号(近淮海中路)"},{"poiid":"B2094757D064A2FF4098","title":"桃江路","lon":"121.448433629","lat":"31.209268655","category":"172","category_name":"酒吧","address":"上海桃江路"},{"poiid":"B2094757D064A5F54999","title":"五官科医院宝庆分部","lon":"121.45008622","lat":"31.210351972","category":"162","category_name":"医院","address":"上海宝庆路"},{"poiid":"B2094757D068A0F4409A","title":"Azul Tapas lounge","lon":"121.44865","lat":"31.20865","category":"94","category_name":"西餐厅","address":"徐汇区东平路18-2号(近衡山路)"},{"poiid":"B2094757D069A1F54799","title":"南蛮亭","lon":"121.45185","lat":"31.20829","category":"95","category_name":"日本料理","address":"徐汇区岳阳路1号(近汾阳路)"},{"poiid":"B2094757D06BAAF44598","title":"尔苑咖啡厅 Anna Maya Vegetarian Cafe","lon":"121.450652054","lat":"31.208991793","category":"89","category_name":"中式素餐馆","address":"徐汇区桃江路3号(近宝庆路)"},{"poiid":"B2094757D069A0F44998","title":"Bulldog Shanghai(英国斗牛犬)","lon":"121.44805362","lat":"31.208418656","category":"172","category_name":"酒吧","address":"徐汇区乌鲁木齐南路1号(衡山路美领馆对面)"},{"poiid":"B2094757D069A4FD4892","title":"东篱文艺沙龙","lon":"121.45067","lat":"31.2104","category":"179","category_name":"音乐厅","address":"徐汇区复兴中路1363弄1号104室(近宝庆路)"},{"poiid":"B2094757D66BABF9479C","title":"Goga","lon":"121.45167517625","lat":"31.208671976401","category":"94","category_name":"西餐厅","address":"徐汇区岳阳路1号(近东平路)"},{"poiid":"B2094757D06FA3FD4598","title":"衡山路","lon":"121.44432","lat":"31.20163","category":"260","category_name":"其他","address":"徐汇区衡山路(衡山路吴兴路)"},{"poiid":"B2094757D06FA3F54592","title":"Glo London","lon":"121.44812058","lat":"31.209113018","category":"94","category_name":"西餐厅","address":"徐汇区乌鲁木齐南路1号甲(近东平路)"},{"poiid":"B2094757D06FA2FA4999","title":"Colabo(衡山店)","lon":"121.451678867","lat":"31.2094187393","category":"94","category_name":"西餐厅","address":"徐汇区汾阳路156号(近桃江路)"},{"poiid":"B2094753D76FAAFA449C","title":"上海滩国泰旗舰店","lon":"121.466011","lat":"31.216125","category":"249","category_name":"购物服务","address":"淮海中路868号"},{"poiid":"B209475CD564A7F84292","title":"上海滩新天地店","lon":"121.47463","lat":"31.22164","category":"119","category_name":"商场","address":"\"太仓路181弄新天地北里15号\r\n\""},{"poiid":"B209475CD564A7F8439E","title":"上海滩中信泰富店","lon":"121.45602","lat":"31.22851","category":"119","category_name":"商场","address":"\"南京西路1168号中信泰富广场，店铺号221.\r\n\""},{"poiid":"B2094654DA6DA4FB4299","title":"藏珑坊(东平路)","lon":"121.44979","lat":"31.20854","category":"94","category_name":"西餐厅","address":"徐汇区东平路9号(近衡山路9月1日左右重新开业)"},{"poiid":"B2094757D068A7F4469E","title":"希腊餐厅(岳阳路店)","lon":"121.44949658","lat":"31.20925002","category":"94","category_name":"西餐厅","address":"上海市徐汇区岳阳路1号(近东平路)"},{"poiid":"B2094757D06EAAFB4593","title":"老麦咖啡馆","lon":"121.450176054","lat":"31.209116793","category":"260","category_name":"其他","address":"徐汇区桃江路25号甲(桃江路宝庆路路口,近衡山路)"},{"poiid":"B2094757D06FA2FE409D","title":"Sasha's","lon":"121.44970893","lat":"31.208426092","category":"172","category_name":"酒吧","address":"徐汇区东平路11号(近衡山路)"},{"poiid":"B2094750D768A7F9479D","title":"ShanghaiBrewery","lon":"121.449","lat":"31.2086","category":"269","category_name":"烧烤","address":"东平路15号(近衡山路)"},{"poiid":"B2094757D06FA4FD499F","title":"La Creperie","lon":"121.4518","lat":"31.20849","category":"94","category_name":"西餐厅","address":"徐汇区桃江路1号(近东平路)"},{"poiid":"B2094757D664A4FA469F","title":"The Camel Bar","lon":"121.451739","lat":"31.20861","category":"172","category_name":"酒吧","address":"徐汇区岳阳路1号(近东平路)"},{"poiid":"B2094757D06FA3F94499","title":"欧玛莉餐厅(O'Malley's Irish Pub)","lon":"121.44824981","lat":"31.209594726","category":"260","category_name":"其他","address":"徐汇区桃江路42号(近乌鲁木齐南路)"},{"poiid":"B2094654DA6DABFD4292","title":"千秋膳房(宝庆路)","lon":"121.45014","lat":"31.21041","category":"91","category_name":"台湾菜","address":"徐汇区宝庆路15号(复兴中路口)"},{"poiid":"B2094757D06FA0FE4099","title":"Haiku by Hatsune(徐汇店)","lon":"121.44932","lat":"31.20926","category":"95","category_name":"日本料理","address":"徐汇区桃江路28号-乙(近衡山路)"},{"poiid":"B2094757D069A1FB499E","title":"ZAPATA'S","lon":"121.44930898","lat":"31.208128978","category":"500","category_name":"未知分类","address":"上海衡山路5号近东平路"},{"poiid":"B2094757D06FA2FC479F","title":"香樟花园时尚厨房","lon":"121.44792","lat":"31.20661","category":"72","category_name":"广东菜","address":"徐汇区衡山路2号甲(近桃江路)"},{"poiid":"B2094757D16DA7FF479A","title":"宝莱纳","lon":"121.45173458","lat":"31.208893013","category":"249","category_name":"购物服务","address":"上海汾阳路138号"},{"poiid":"B2094757D068A1FE449D","title":"复旦大学附属眼耳鼻喉科医院(宝庆路分院)","lon":"121.450369913","lat":"31.2102095153","category":"162","category_name":"医院","address":"徐汇区宝庆路19号(近淮海中路)"},{"poiid":"B2094655D26EA5FA4999","title":"上海教育会堂","lon":"121.45212","lat":"31.20841","category":"68","category_name":"快餐厅","address":"徐汇区岳阳路1号(近东平路)"},{"poiid":"B2094757D06FA0FD449C","title":"Abbey Road","lon":"121.45199149","lat":"31.208174879","category":"94","category_name":"西餐厅","address":"徐汇区岳阳路45号(近永嘉路)"},{"poiid":"B2094750DA6AA2FD4798","title":"Green & Safe","lon":"121.450263","lat":"31.208555","category":"94","category_name":"西餐厅","address":"徐汇区东平路6号(近衡山路)"},{"poiid":"B2094757D06FA0FF4399","title":"欧登保龄球馆","lon":"121.44951","lat":"31.20788","category":"171","category_name":"台球厅","address":"徐汇区衡山路10号甲欧登大厦3楼(近乌鲁木齐南路)"},{"poiid":"B2094750D268A4FE499B","title":"momo牧场","lon":"121.448776","lat":"31.208055","category":"500","category_name":"未知分类","address":null},{"poiid":"B2094753D164A6FF459A","title":"鼎王无老养生锅","lon":"121.449942","lat":"31.20931","category":"500","category_name":"未知分类","address":"上海市 衡山路2号甲香樟花园内"},{"poiid":"B2094757D068A2F8429B","title":"PHO REAL(复兴中路店)","lon":"121.44892958","lat":"31.210494045","category":"99","category_name":"泰国／越南菜品餐厅","address":"徐汇区复兴中路1465号(近宝庆路)"},{"poiid":"B2094654DA6DA4FB429C","title":"上海音乐学院附中","lon":"121.45015","lat":"31.20837","category":"55","category_name":"中学","address":"徐汇区汾阳路20号上海音乐学院内(近复兴中路)"},{"poiid":"B2094654DB69A7FD439B","title":"席家花园(徐汇总店)","lon":"121.45147","lat":"31.20833","category":"47","category_name":"住宅区","address":"徐汇区东平路1号(近衡山路)"},{"poiid":"B2094757D068A3FD4392","title":"俏江南(徐汇店)","lon":"121.44857","lat":"31.20908","category":"71","category_name":"四川菜","address":"徐汇区桃江路28号-1(近衡山路)"},{"poiid":"B2094757D064A0FC4799","title":"拉妃酒吧","lon":"121.448665586","lat":"31.2074949864","category":"179","category_name":"音乐厅","address":"上海衡山路10号"},{"poiid":"B2094654DB69A7FD439E","title":"品川","lon":"121.44807","lat":"31.20909","category":"71","category_name":"四川菜","address":"徐汇区桃江路47号(近乌鲁木齐南路)"},{"poiid":"B2094757DB68AAFE4898","title":"洋房火锅 Hot Pot Sun","lon":"121.45186","lat":"31.2083","category":"88","category_name":"海鲜酒楼","address":"徐汇区岳阳路1号(近汾阳路)"},{"poiid":"B2094757D068A4F44393","title":"Madison","lon":"121.448763528","lat":"31.2088393742","category":"94","category_name":"西餐厅","address":"徐汇区汾阳路3号2号楼1楼(近淮海中路)"},{"poiid":"B2094757D06AAAF84399","title":"Greek Taverna","lon":"121.451924586","lat":"31.2083350028","category":"500","category_name":"未知分类","address":"上海市徐汇区岳阳路1号近东平路"},{"poiid":"B2094654DA6DA4FB419E","title":"和平官邸","lon":"121.45141","lat":"31.20936","category":"76","category_name":"上海菜","address":"徐汇区汾阳路158号(近桃江路)"},{"poiid":"B2094654DA6DA4FB439A","title":"滴水洞湘菜馆(东平路)","lon":"121.45098","lat":"31.20836","category":"77","category_name":"湖南菜","address":"徐汇区东平路5号B座(近岳阳路)"},{"poiid":"B2094757D06AA2F5409D","title":"鲜芋仙(岳阳店)","lon":"121.451889586","lat":"31.2088120122","category":"67","category_name":"甜品店","address":"徐汇区岳阳路1号(近桃江路东平路)"},{"poiid":"B2094750D269A2F8419A","title":"天泰餐厅 东平店 Simply Thai","lon":"121.450011054","lat":"31.208268783","category":"247","category_name":"餐饮美食","address":"徐汇区东平路5号C座(近岳阳路)"},{"poiid":"B2094757D06BA7F9439B","title":"Bella mia","lon":"121.450006","lat":"31.210957","category":"94","category_name":"西餐厅","address":"徐汇区宝庆路10号(复兴中路口)"},{"poiid":"B2094757D465A3FA4399","title":"隐泉源铁板烧 Kagen Teppanyaki","lon":"121.448960054","lat":"31.209266793","category":"247","category_name":"餐饮美食","address":"徐汇区桃江路28号丁(近衡山路)"},{"poiid":"B2094757D068A2F5499B","title":"复兴汇","lon":"121.44854","lat":"31.21006","category":"76","category_name":"上海菜","address":"徐汇区复兴中路1479号(近淮海中路)"},{"poiid":"B2094757D064A2FF4098","title":"桃江路","lon":"121.448433629","lat":"31.209268655","category":"172","category_name":"酒吧","address":"上海桃江路"},{"poiid":"B2094757D064A5F54999","title":"五官科医院宝庆分部","lon":"121.45008622","lat":"31.210351972","category":"162","category_name":"医院","address":"上海宝庆路"},{"poiid":"B2094757D068A0F4409A","title":"Azul Tapas lounge","lon":"121.44865","lat":"31.20865","category":"94","category_name":"西餐厅","address":"徐汇区东平路18-2号(近衡山路)"},{"poiid":"B2094757D069A1F54799","title":"南蛮亭","lon":"121.45185","lat":"31.20829","category":"95","category_name":"日本料理","address":"徐汇区岳阳路1号(近汾阳路)"},{"poiid":"B2094757D06BAAF44598","title":"尔苑咖啡厅 Anna Maya Vegetarian Cafe","lon":"121.450652054","lat":"31.208991793","category":"89","category_name":"中式素餐馆","address":"徐汇区桃江路3号(近宝庆路)"},{"poiid":"B2094757D069A0F44998","title":"Bulldog Shanghai(英国斗牛犬)","lon":"121.44805362","lat":"31.208418656","category":"172","category_name":"酒吧","address":"徐汇区乌鲁木齐南路1号(衡山路美领馆对面)"},{"poiid":"B2094757D069A4FD4892","title":"东篱文艺沙龙","lon":"121.45067","lat":"31.2104","category":"179","category_name":"音乐厅","address":"徐汇区复兴中路1363弄1号104室(近宝庆路)"},{"poiid":"B2094757D66BABF9479C","title":"Goga","lon":"121.45167517625","lat":"31.208671976401","category":"94","category_name":"西餐厅","address":"徐汇区岳阳路1号(近东平路)"},{"poiid":"B2094757D06FA3FD4598","title":"衡山路","lon":"121.44432","lat":"31.20163","category":"260","category_name":"其他","address":"徐汇区衡山路(衡山路吴兴路)"},{"poiid":"B2094757D06FA3F54592","title":"Glo London","lon":"121.44812058","lat":"31.209113018","category":"94","category_name":"西餐厅","address":"徐汇区乌鲁木齐南路1号甲(近东平路)"},{"poiid":"B2094757D06FA2FA4999","title":"Colabo(衡山店)","lon":"121.451678867","lat":"31.2094187393","category":"94","category_name":"西餐厅","address":"徐汇区汾阳路156号(近桃江路)"},{"poiid":"B2094753D76FAAFA449C","title":"上海滩国泰旗舰店","lon":"121.466011","lat":"31.216125","category":"249","category_name":"购物服务","address":"淮海中路868号"},{"poiid":"B209475CD564A7F84292","title":"上海滩新天地店","lon":"121.47463","lat":"31.22164","category":"119","category_name":"商场","address":"\"太仓路181弄新天地北里15号\r\n\""},{"poiid":"B209475CD564A7F8439E","title":"上海滩中信泰富店","lon":"121.45602","lat":"31.22851","category":"119","category_name":"商场","address":"\"南京西路1168号中信泰富广场，店铺号221.\r\n\""},{"poiid":"B2094654DA6DA4FB4299","title":"藏珑坊(东平路)","lon":"121.44979","lat":"31.20854","category":"94","category_name":"西餐厅","address":"徐汇区东平路9号(近衡山路9月1日左右重新开业)"},{"poiid":"B2094757D068A7F4469E","title":"希腊餐厅(岳阳路店)","lon":"121.44949658","lat":"31.20925002","category":"94","category_name":"西餐厅","address":"上海市徐汇区岳阳路1号(近东平路)"},{"poiid":"B2094757D06EAAFB4593","title":"老麦咖啡馆","lon":"121.450176054","lat":"31.209116793","category":"260","category_name":"其他","address":"徐汇区桃江路25号甲(桃江路宝庆路路口,近衡山路)"},{"poiid":"B2094757D06FA2FE409D","title":"Sasha's","lon":"121.44970893","lat":"31.208426092","category":"172","category_name":"酒吧","address":"徐汇区东平路11号(近衡山路)"},{"poiid":"B2094750D768A7F9479D","title":"ShanghaiBrewery","lon":"121.449","lat":"31.2086","category":"269","category_name":"烧烤","address":"东平路15号(近衡山路)"},{"poiid":"B2094757D06FA4FD499F","title":"La Creperie","lon":"121.4518","lat":"31.20849","category":"94","category_name":"西餐厅","address":"徐汇区桃江路1号(近东平路)"},{"poiid":"B2094757D664A4FA469F","title":"The Camel Bar","lon":"121.451739","lat":"31.20861","category":"172","category_name":"酒吧","address":"徐汇区岳阳路1号(近东平路)"},{"poiid":"B2094757D06FA3F94499","title":"欧玛莉餐厅(O'Malley's Irish Pub)","lon":"121.44824981","lat":"31.209594726","category":"260","category_name":"其他","address":"徐汇区桃江路42号(近乌鲁木齐南路)"},{"poiid":"B2094654DA6DABFD4292","title":"千秋膳房(宝庆路)","lon":"121.45014","lat":"31.21041","category":"91","category_name":"台湾菜","address":"徐汇区宝庆路15号(复兴中路口)"},{"poiid":"B2094757D06FA0FE4099","title":"Haiku by Hatsune(徐汇店)","lon":"121.44932","lat":"31.20926","category":"95","category_name":"日本料理","address":"徐汇区桃江路28号-乙(近衡山路)"},{"poiid":"B2094757D069A1FB499E","title":"ZAPATA'S","lon":"121.44930898","lat":"31.208128978","category":"500","category_name":"未知分类","address":"上海衡山路5号近东平路"},{"poiid":"B2094757D06FA2FC479F","title":"香樟花园时尚厨房","lon":"121.44792","lat":"31.20661","category":"72","category_name":"广东菜","address":"徐汇区衡山路2号甲(近桃江路)"},{"poiid":"B2094757D16DA7FF479A","title":"宝莱纳","lon":"121.45173458","lat":"31.208893013","category":"249","category_name":"购物服务","address":"上海汾阳路138号"},{"poiid":"B2094757D068A1FE449D","title":"复旦大学附属眼耳鼻喉科医院(宝庆路分院)","lon":"121.450369913","lat":"31.2102095153","category":"162","category_name":"医院","address":"徐汇区宝庆路19号(近淮海中路)"},{"poiid":"B2094655D26EA5FA4999","title":"上海教育会堂","lon":"121.45212","lat":"31.20841","category":"68","category_name":"快餐厅","address":"徐汇区岳阳路1号(近东平路)"},{"poiid":"B2094757D06FA0FD449C","title":"Abbey Road","lon":"121.45199149","lat":"31.208174879","category":"94","category_name":"西餐厅","address":"徐汇区岳阳路45号(近永嘉路)"},{"poiid":"B2094750DA6AA2FD4798","title":"Green & Safe","lon":"121.450263","lat":"31.208555","category":"94","category_name":"西餐厅","address":"徐汇区东平路6号(近衡山路)"},{"poiid":"B2094757D06FA0FF4399","title":"欧登保龄球馆","lon":"121.44951","lat":"31.20788","category":"171","category_name":"台球厅","address":"徐汇区衡山路10号甲欧登大厦3楼(近乌鲁木齐南路)"},{"poiid":"B2094750D268A4FE499B","title":"momo牧场","lon":"121.448776","lat":"31.208055","category":"500","category_name":"未知分类","address":null},{"poiid":"B2094753D164A6FF459A","title":"鼎王无老养生锅","lon":"121.449942","lat":"31.20931","category":"500","category_name":"未知分类","address":"上海市 衡山路2号甲香樟花园内"},{"poiid":"B2094757D068A2F8429B","title":"PHO REAL(复兴中路店)","lon":"121.44892958","lat":"31.210494045","category":"99","category_name":"泰国／越南菜品餐厅","address":"徐汇区复兴中路1465号(近宝庆路)"},{"poiid":"B2094654DA6DA4FB429C","title":"上海音乐学院附中","lon":"121.45015","lat":"31.20837","category":"55","category_name":"中学","address":"徐汇区汾阳路20号上海音乐学院内(近复兴中路)"},{"poiid":"B2094654DB69A7FD439B","title":"席家花园(徐汇总店)","lon":"121.45147","lat":"31.20833","category":"47","category_name":"住宅区","address":"徐汇区东平路1号(近衡山路)"},{"poiid":"B2094757D068A3FD4392","title":"俏江南(徐汇店)","lon":"121.44857","lat":"31.20908","category":"71","category_name":"四川菜","address":"徐汇区桃江路28号-1(近衡山路)"},{"poiid":"B2094757D064A0FC4799","title":"拉妃酒吧","lon":"121.448665586","lat":"31.2074949864","category":"179","category_name":"音乐厅","address":"上海衡山路10号"},{"poiid":"B2094654DB69A7FD439E","title":"品川","lon":"121.44807","lat":"31.20909","category":"71","category_name":"四川菜","address":"徐汇区桃江路47号(近乌鲁木齐南路)"},{"poiid":"B2094757DB68AAFE4898","title":"洋房火锅 Hot Pot Sun","lon":"121.45186","lat":"31.2083","category":"88","category_name":"海鲜酒楼","address":"徐汇区岳阳路1号(近汾阳路)"},{"poiid":"B2094757D068A4F44393","title":"Madison","lon":"121.448763528","lat":"31.2088393742","category":"94","category_name":"西餐厅","address":"徐汇区汾阳路3号2号楼1楼(近淮海中路)"},{"poiid":"B2094757D06AAAF84399","title":"Greek Taverna","lon":"121.451924586","lat":"31.2083350028","category":"500","category_name":"未知分类","address":"上海市徐汇区岳阳路1号近东平路"},{"poiid":"B2094654DA6DA4FB419E","title":"和平官邸","lon":"121.45141","lat":"31.20936","category":"76","category_name":"上海菜","address":"徐汇区汾阳路158号(近桃江路)"},{"poiid":"B2094654DA6DA4FB439A","title":"滴水洞湘菜馆(东平路)","lon":"121.45098","lat":"31.20836","category":"77","category_name":"湖南菜","address":"徐汇区东平路5号B座(近岳阳路)"},{"poiid":"B2094757D06AA2F5409D","title":"鲜芋仙(岳阳店)","lon":"121.451889586","lat":"31.2088120122","category":"67","category_name":"甜品店","address":"徐汇区岳阳路1号(近桃江路东平路)"},{"poiid":"B2094750D269A2F8419A","title":"天泰餐厅 东平店 Simply Thai","lon":"121.450011054","lat":"31.208268783","category":"247","category_name":"餐饮美食","address":"徐汇区东平路5号C座(近岳阳路)"},{"poiid":"B2094757D06BA7F9439B","title":"Bella mia","lon":"121.450006","lat":"31.210957","category":"94","category_name":"西餐厅","address":"徐汇区宝庆路10号(复兴中路口)"},{"poiid":"B2094757D465A3FA4399","title":"隐泉源铁板烧 Kagen Teppanyaki","lon":"121.448960054","lat":"31.209266793","category":"247","category_name":"餐饮美食","address":"徐汇区桃江路28号丁(近衡山路)"},{"poiid":"B2094757D068A2F5499B","title":"复兴汇","lon":"121.44854","lat":"31.21006","category":"76","category_name":"上海菜","address":"徐汇区复兴中路1479号(近淮海中路)"},{"poiid":"B2094757D064A2FF4098","title":"桃江路","lon":"121.448433629","lat":"31.209268655","category":"172","category_name":"酒吧","address":"上海桃江路"},{"poiid":"B2094757D064A5F54999","title":"五官科医院宝庆分部","lon":"121.45008622","lat":"31.210351972","category":"162","category_name":"医院","address":"上海宝庆路"},{"poiid":"B2094757D068A0F4409A","title":"Azul Tapas lounge","lon":"121.44865","lat":"31.20865","category":"94","category_name":"西餐厅","address":"徐汇区东平路18-2号(近衡山路)"},{"poiid":"B2094757D069A1F54799","title":"南蛮亭","lon":"121.45185","lat":"31.20829","category":"95","category_name":"日本料理","address":"徐汇区岳阳路1号(近汾阳路)"},{"poiid":"B2094757D06BAAF44598","title":"尔苑咖啡厅 Anna Maya Vegetarian Cafe","lon":"121.450652054","lat":"31.208991793","category":"89","category_name":"中式素餐馆","address":"徐汇区桃江路3号(近宝庆路)"},{"poiid":"B2094757D069A0F44998","title":"Bulldog Shanghai(英国斗牛犬)","lon":"121.44805362","lat":"31.208418656","category":"172","category_name":"酒吧","address":"徐汇区乌鲁木齐南路1号(衡山路美领馆对面)"},{"poiid":"B2094757D069A4FD4892","title":"东篱文艺沙龙","lon":"121.45067","lat":"31.2104","category":"179","category_name":"音乐厅","address":"徐汇区复兴中路1363弄1号104室(近宝庆路)"},{"poiid":"B2094757D66BABF9479C","title":"Goga","lon":"121.45167517625","lat":"31.208671976401","category":"94","category_name":"西餐厅","address":"徐汇区岳阳路1号(近东平路)"},{"poiid":"B2094757D06FA3FD4598","title":"衡山路","lon":"121.44432","lat":"31.20163","category":"260","category_name":"其他","address":"徐汇区衡山路(衡山路吴兴路)"},{"poiid":"B2094757D06FA3F54592","title":"Glo London","lon":"121.44812058","lat":"31.209113018","category":"94","category_name":"西餐厅","address":"徐汇区乌鲁木齐南路1号甲(近东平路)"},{"poiid":"B2094757D06FA2FA4999","title":"Colabo(衡山店)","lon":"121.451678867","lat":"31.2094187393","category":"94","category_name":"西餐厅","address":"徐汇区汾阳路156号(近桃江路)"},{"poiid":"B2094753D76FAAFA449C","title":"上海滩国泰旗舰店","lon":"121.466011","lat":"31.216125","category":"249","category_name":"购物服务","address":"淮海中路868号"},{"poiid":"B209475CD564A7F84292","title":"上海滩新天地店","lon":"121.47463","lat":"31.22164","category":"119","category_name":"商场","address":"\"太仓路181弄新天地北里15号\r\n\""},{"poiid":"B209475CD564A7F8439E","title":"上海滩中信泰富店","lon":"121.45602","lat":"31.22851","category":"119","category_name":"商场","address":"\"南京西路1168号中信泰富广场，店铺号221.\r\n\""},{"poiid":"B2094654DA6DA4FB4299","title":"藏珑坊(东平路)","lon":"121.44979","lat":"31.20854","category":"94","category_name":"西餐厅","address":"徐汇区东平路9号(近衡山路9月1日左右重新开业)"},{"poiid":"B2094757D068A7F4469E","title":"希腊餐厅(岳阳路店)","lon":"121.44949658","lat":"31.20925002","category":"94","category_name":"西餐厅","address":"上海市徐汇区岳阳路1号(近东平路)"},{"poiid":"B2094757D06EAAFB4593","title":"老麦咖啡馆","lon":"121.450176054","lat":"31.209116793","category":"260","category_name":"其他","address":"徐汇区桃江路25号甲(桃江路宝庆路路口,近衡山路)"},{"poiid":"B2094757D06FA2FE409D","title":"Sasha's","lon":"121.44970893","lat":"31.208426092","category":"172","category_name":"酒吧","address":"徐汇区东平路11号(近衡山路)"},{"poiid":"B2094750D768A7F9479D","title":"ShanghaiBrewery","lon":"121.449","lat":"31.2086","category":"269","category_name":"烧烤","address":"东平路15号(近衡山路)"},{"poiid":"B2094757D06FA4FD499F","title":"La Creperie","lon":"121.4518","lat":"31.20849","category":"94","category_name":"西餐厅","address":"徐汇区桃江路1号(近东平路)"},{"poiid":"B2094757D664A4FA469F","title":"The Camel Bar","lon":"121.451739","lat":"31.20861","category":"172","category_name":"酒吧","address":"徐汇区岳阳路1号(近东平路)"},{"poiid":"B2094757D06FA3F94499","title":"欧玛莉餐厅(O'Malley's Irish Pub)","lon":"121.44824981","lat":"31.209594726","category":"260","category_name":"其他","address":"徐汇区桃江路42号(近乌鲁木齐南路)"},{"poiid":"B2094654DA6DABFD4292","title":"千秋膳房(宝庆路)","lon":"121.45014","lat":"31.21041","category":"91","category_name":"台湾菜","address":"徐汇区宝庆路15号(复兴中路口)"},{"poiid":"B2094757D06FA0FE4099","title":"Haiku by Hatsune(徐汇店)","lon":"121.44932","lat":"31.20926","category":"95","category_name":"日本料理","address":"徐汇区桃江路28号-乙(近衡山路)"},{"poiid":"B2094757D069A1FB499E","title":"ZAPATA'S","lon":"121.44930898","lat":"31.208128978","category":"500","category_name":"未知分类","address":"上海衡山路5号近东平路"},{"poiid":"B2094757D06FA2FC479F","title":"香樟花园时尚厨房","lon":"121.44792","lat":"31.20661","category":"72","category_name":"广东菜","address":"徐汇区衡山路2号甲(近桃江路)"},{"poiid":"B2094757D16DA7FF479A","title":"宝莱纳","lon":"121.45173458","lat":"31.208893013","category":"249","category_name":"购物服务","address":"上海汾阳路138号"},{"poiid":"B2094757D068A1FE449D","title":"复旦大学附属眼耳鼻喉科医院(宝庆路分院)","lon":"121.450369913","lat":"31.2102095153","category":"162","category_name":"医院","address":"徐汇区宝庆路19号(近淮海中路)"},{"poiid":"B2094655D26EA5FA4999","title":"上海教育会堂","lon":"121.45212","lat":"31.20841","category":"68","category_name":"快餐厅","address":"徐汇区岳阳路1号(近东平路)"},{"poiid":"B2094757D06FA0FD449C","title":"Abbey Road","lon":"121.45199149","lat":"31.208174879","category":"94","category_name":"西餐厅","address":"徐汇区岳阳路45号(近永嘉路)"},{"poiid":"B2094750DA6AA2FD4798","title":"Green & Safe","lon":"121.450263","lat":"31.208555","category":"94","category_name":"西餐厅","address":"徐汇区东平路6号(近衡山路)"},{"poiid":"B2094757D06FA0FF4399","title":"欧登保龄球馆","lon":"121.44951","lat":"31.20788","category":"171","category_name":"台球厅","address":"徐汇区衡山路10号甲欧登大厦3楼(近乌鲁木齐南路)"},{"poiid":"B2094750D268A4FE499B","title":"momo牧场","lon":"121.448776","lat":"31.208055","category":"500","category_name":"未知分类","address":null},{"poiid":"B2094753D164A6FF459A","title":"鼎王无老养生锅","lon":"121.449942","lat":"31.20931","category":"500","category_name":"未知分类","address":"上海市 衡山路2号甲香樟花园内"},{"poiid":"B2094757D068A2F8429B","title":"PHO REAL(复兴中路店)","lon":"121.44892958","lat":"31.210494045","category":"99","category_name":"泰国／越南菜品餐厅","address":"徐汇区复兴中路1465号(近宝庆路)"},{"poiid":"B2094654DA6DA4FB429C","title":"上海音乐学院附中","lon":"121.45015","lat":"31.20837","category":"55","category_name":"中学","address":"徐汇区汾阳路20号上海音乐学院内(近复兴中路)"},{"poiid":"B2094654DB69A7FD439B","title":"席家花园(徐汇总店)","lon":"121.45147","lat":"31.20833","category":"47","category_name":"住宅区","address":"徐汇区东平路1号(近衡山路)"},{"poiid":"B2094757D068A3FD4392","title":"俏江南(徐汇店)","lon":"121.44857","lat":"31.20908","category":"71","category_name":"四川菜","address":"徐汇区桃江路28号-1(近衡山路)"},{"poiid":"B2094757D064A0FC4799","title":"拉妃酒吧","lon":"121.448665586","lat":"31.2074949864","category":"179","category_name":"音乐厅","address":"上海衡山路10号"},{"poiid":"B2094654DB69A7FD439E","title":"品川","lon":"121.44807","lat":"31.20909","category":"71","category_name":"四川菜","address":"徐汇区桃江路47号(近乌鲁木齐南路)"},{"poiid":"B2094757DB68AAFE4898","title":"洋房火锅 Hot Pot Sun","lon":"121.45186","lat":"31.2083","category":"88","category_name":"海鲜酒楼","address":"徐汇区岳阳路1号(近汾阳路)"},{"poiid":"B2094757D068A4F44393","title":"Madison","lon":"121.448763528","lat":"31.2088393742","category":"94","category_name":"西餐厅","address":"徐汇区汾阳路3号2号楼1楼(近淮海中路)"},{"poiid":"B2094757D06AAAF84399","title":"Greek Taverna","lon":"121.451924586","lat":"31.2083350028","category":"500","category_name":"未知分类","address":"上海市徐汇区岳阳路1号近东平路"},{"poiid":"B2094654DA6DA4FB419E","title":"和平官邸","lon":"121.45141","lat":"31.20936","category":"76","category_name":"上海菜","address":"徐汇区汾阳路158号(近桃江路)"},{"poiid":"B2094654DA6DA4FB439A","title":"滴水洞湘菜馆(东平路)","lon":"121.45098","lat":"31.20836","category":"77","category_name":"湖南菜","address":"徐汇区东平路5号B座(近岳阳路)"},{"poiid":"B2094757D06AA2F5409D","title":"鲜芋仙(岳阳店)","lon":"121.451889586","lat":"31.2088120122","category":"67","category_name":"甜品店","address":"徐汇区岳阳路1号(近桃江路东平路)"},{"poiid":"B2094750D269A2F8419A","title":"天泰餐厅 东平店 Simply Thai","lon":"121.450011054","lat":"31.208268783","category":"247","category_name":"餐饮美食","address":"徐汇区东平路5号C座(近岳阳路)"},{"poiid":"B2094757D06BA7F9439B","title":"Bella mia","lon":"121.450006","lat":"31.210957","category":"94","category_name":"西餐厅","address":"徐汇区宝庆路10号(复兴中路口)"},{"poiid":"B2094757D465A3FA4399","title":"隐泉源铁板烧 Kagen Teppanyaki","lon":"121.448960054","lat":"31.209266793","category":"247","category_name":"餐饮美食","address":"徐汇区桃江路28号丁(近衡山路)"},{"poiid":"B2094757D068A2F5499B","title":"复兴汇","lon":"121.44854","lat":"31.21006","category":"76","category_name":"上海菜","address":"徐汇区复兴中路1479号(近淮海中路)"},{"poiid":"B2094757D064A2FF4098","title":"桃江路","lon":"121.448433629","lat":"31.209268655","category":"172","category_name":"酒吧","address":"上海桃江路"},{"poiid":"B2094757D064A5F54999","title":"五官科医院宝庆分部","lon":"121.45008622","lat":"31.210351972","category":"162","category_name":"医院","address":"上海宝庆路"},{"poiid":"B2094757D068A0F4409A","title":"Azul Tapas lounge","lon":"121.44865","lat":"31.20865","category":"94","category_name":"西餐厅","address":"徐汇区东平路18-2号(近衡山路)"},{"poiid":"B2094757D069A1F54799","title":"南蛮亭","lon":"121.45185","lat":"31.20829","category":"95","category_name":"日本料理","address":"徐汇区岳阳路1号(近汾阳路)"},{"poiid":"B2094757D06BAAF44598","title":"尔苑咖啡厅 Anna Maya Vegetarian Cafe","lon":"121.450652054","lat":"31.208991793","category":"89","category_name":"中式素餐馆","address":"徐汇区桃江路3号(近宝庆路)"},{"poiid":"B2094757D069A0F44998","title":"Bulldog Shanghai(英国斗牛犬)","lon":"121.44805362","lat":"31.208418656","category":"172","category_name":"酒吧","address":"徐汇区乌鲁木齐南路1号(衡山路美领馆对面)"},{"poiid":"B2094757D069A4FD4892","title":"东篱文艺沙龙","lon":"121.45067","lat":"31.2104","category":"179","category_name":"音乐厅","address":"徐汇区复兴中路1363弄1号104室(近宝庆路)"},{"poiid":"B2094757D66BABF9479C","title":"Goga","lon":"121.45167517625","lat":"31.208671976401","category":"94","category_name":"西餐厅","address":"徐汇区岳阳路1号(近东平路)"},{"poiid":"B2094757D06FA3FD4598","title":"衡山路","lon":"121.44432","lat":"31.20163","category":"260","category_name":"其他","address":"徐汇区衡山路(衡山路吴兴路)"},{"poiid":"B2094757D06FA3F54592","title":"Glo London","lon":"121.44812058","lat":"31.209113018","category":"94","category_name":"西餐厅","address":"徐汇区乌鲁木齐南路1号甲(近东平路)"},{"poiid":"B2094757D06FA2FA4999","title":"Colabo(衡山店)","lon":"121.451678867","lat":"31.2094187393","category":"94","category_name":"西餐厅","address":"徐汇区汾阳路156号(近桃江路)"},{"poiid":"B2094753D76FAAFA449C","title":"上海滩国泰旗舰店","lon":"121.466011","lat":"31.216125","category":"249","category_name":"购物服务","address":"淮海中路868号"},{"poiid":"B209475CD564A7F84292","title":"上海滩新天地店","lon":"121.47463","lat":"31.22164","category":"119","category_name":"商场","address":"\"太仓路181弄新天地北里15号\r\n\""},{"poiid":"B209475CD564A7F8439E","title":"上海滩中信泰富店","lon":"121.45602","lat":"31.22851","category":"119","category_name":"商场","address":"\"南京西路1168号中信泰富广场，店铺号221.\r\n\""},{"poiid":"B2094654DA6DA4FB4299","title":"藏珑坊(东平路)","lon":"121.44979","lat":"31.20854","category":"94","category_name":"西餐厅","address":"徐汇区东平路9号(近衡山路9月1日左右重新开业)"},{"poiid":"B2094757D068A7F4469E","title":"希腊餐厅(岳阳路店)","lon":"121.44949658","lat":"31.20925002","category":"94","category_name":"西餐厅","address":"上海市徐汇区岳阳路1号(近东平路)"},{"poiid":"B2094757D06EAAFB4593","title":"老麦咖啡馆","lon":"121.450176054","lat":"31.209116793","category":"260","category_name":"其他","address":"徐汇区桃江路25号甲(桃江路宝庆路路口,近衡山路)"},{"poiid":"B2094757D06FA2FE409D","title":"Sasha's","lon":"121.44970893","lat":"31.208426092","category":"172","category_name":"酒吧","address":"徐汇区东平路11号(近衡山路)"},{"poiid":"B2094750D768A7F9479D","title":"ShanghaiBrewery","lon":"121.449","lat":"31.2086","category":"269","category_name":"烧烤","address":"东平路15号(近衡山路)"},{"poiid":"B2094757D06FA4FD499F","title":"La Creperie","lon":"121.4518","lat":"31.20849","category":"94","category_name":"西餐厅","address":"徐汇区桃江路1号(近东平路)"},{"poiid":"B2094757D664A4FA469F","title":"The Camel Bar","lon":"121.451739","lat":"31.20861","category":"172","category_name":"酒吧","address":"徐汇区岳阳路1号(近东平路)"},{"poiid":"B2094757D06FA3F94499","title":"欧玛莉餐厅(O'Malley's Irish Pub)","lon":"121.44824981","lat":"31.209594726","category":"260","category_name":"其他","address":"徐汇区桃江路42号(近乌鲁木齐南路)"},{"poiid":"B2094654DA6DABFD4292","title":"千秋膳房(宝庆路)","lon":"121.45014","lat":"31.21041","category":"91","category_name":"台湾菜","address":"徐汇区宝庆路15号(复兴中路口)"},{"poiid":"B2094757D06FA0FE4099","title":"Haiku by Hatsune(徐汇店)","lon":"121.44932","lat":"31.20926","category":"95","category_name":"日本料理","address":"徐汇区桃江路28号-乙(近衡山路)"},{"poiid":"B2094757D069A1FB499E","title":"ZAPATA'S","lon":"121.44930898","lat":"31.208128978","category":"500","category_name":"未知分类","address":"上海衡山路5号近东平路"},{"poiid":"B2094757D06FA2FC479F","title":"香樟花园时尚厨房","lon":"121.44792","lat":"31.20661","category":"72","category_name":"广东菜","address":"徐汇区衡山路2号甲(近桃江路)"},{"poiid":"B2094757D16DA7FF479A","title":"宝莱纳","lon":"121.45173458","lat":"31.208893013","category":"249","category_name":"购物服务","address":"上海汾阳路138号"},{"poiid":"B2094757D068A1FE449D","title":"复旦大学附属眼耳鼻喉科医院(宝庆路分院)","lon":"121.450369913","lat":"31.2102095153","category":"162","category_name":"医院","address":"徐汇区宝庆路19号(近淮海中路)"},{"poiid":"B2094655D26EA5FA4999","title":"上海教育会堂","lon":"121.45212","lat":"31.20841","category":"68","category_name":"快餐厅","address":"徐汇区岳阳路1号(近东平路)"},{"poiid":"B2094757D06FA0FD449C","title":"Abbey Road","lon":"121.45199149","lat":"31.208174879","category":"94","category_name":"西餐厅","address":"徐汇区岳阳路45号(近永嘉路)"},{"poiid":"B2094750DA6AA2FD4798","title":"Green & Safe","lon":"121.450263","lat":"31.208555","category":"94","category_name":"西餐厅","address":"徐汇区东平路6号(近衡山路)"},{"poiid":"B2094757D06FA0FF4399","title":"欧登保龄球馆","lon":"121.44951","lat":"31.20788","category":"171","category_name":"台球厅","address":"徐汇区衡山路10号甲欧登大厦3楼(近乌鲁木齐南路)"},{"poiid":"B2094750D268A4FE499B","title":"momo牧场","lon":"121.448776","lat":"31.208055","category":"500","category_name":"未知分类","address":null},{"poiid":"B2094753D164A6FF459A","title":"鼎王无老养生锅","lon":"121.449942","lat":"31.20931","category":"500","category_name":"未知分类","address":"上海市 衡山路2号甲香樟花园内"},{"poiid":"B2094757D068A2F8429B","title":"PHO REAL(复兴中路店)","lon":"121.44892958","lat":"31.210494045","category":"99","category_name":"泰国／越南菜品餐厅","address":"徐汇区复兴中路1465号(近宝庆路)"},{"poiid":"B2094654DA6DA4FB429C","title":"上海音乐学院附中","lon":"121.45015","lat":"31.20837","category":"55","category_name":"中学","address":"徐汇区汾阳路20号上海音乐学院内(近复兴中路)"},{"poiid":"B2094654DB69A7FD439B","title":"席家花园(徐汇总店)","lon":"121.45147","lat":"31.20833","category":"47","category_name":"住宅区","address":"徐汇区东平路1号(近衡山路)"},{"poiid":"B2094757D068A3FD4392","title":"俏江南(徐汇店)","lon":"121.44857","lat":"31.20908","category":"71","category_name":"四川菜","address":"徐汇区桃江路28号-1(近衡山路)"},{"poiid":"B2094757D064A0FC4799","title":"拉妃酒吧","lon":"121.448665586","lat":"31.2074949864","category":"179","category_name":"音乐厅","address":"上海衡山路10号"},{"poiid":"B2094654DB69A7FD439E","title":"品川","lon":"121.44807","lat":"31.20909","category":"71","category_name":"四川菜","address":"徐汇区桃江路47号(近乌鲁木齐南路)"},{"poiid":"B2094757DB68AAFE4898","title":"洋房火锅 Hot Pot Sun","lon":"121.45186","lat":"31.2083","category":"88","category_name":"海鲜酒楼","address":"徐汇区岳阳路1号(近汾阳路)"},{"poiid":"B2094757D068A4F44393","title":"Madison","lon":"121.448763528","lat":"31.2088393742","category":"94","category_name":"西餐厅","address":"徐汇区汾阳路3号2号楼1楼(近淮海中路)"},{"poiid":"B2094757D06AAAF84399","title":"Greek Taverna","lon":"121.451924586","lat":"31.2083350028","category":"500","category_name":"未知分类","address":"上海市徐汇区岳阳路1号近东平路"},{"poiid":"B2094654DA6DA4FB419E","title":"和平官邸","lon":"121.45141","lat":"31.20936","category":"76","category_name":"上海菜","address":"徐汇区汾阳路158号(近桃江路)"},{"poiid":"B2094654DA6DA4FB439A","title":"滴水洞湘菜馆(东平路)","lon":"121.45098","lat":"31.20836","category":"77","category_name":"湖南菜","address":"徐汇区东平路5号B座(近岳阳路)"},{"poiid":"B2094757D06AA2F5409D","title":"鲜芋仙(岳阳店)","lon":"121.451889586","lat":"31.2088120122","category":"67","category_name":"甜品店","address":"徐汇区岳阳路1号(近桃江路东平路)"},{"poiid":"B2094750D269A2F8419A","title":"天泰餐厅 东平店 Simply Thai","lon":"121.450011054","lat":"31.208268783","category":"247","category_name":"餐饮美食","address":"徐汇区东平路5号C座(近岳阳路)"},{"poiid":"B2094757D06BA7F9439B","title":"Bella mia","lon":"121.450006","lat":"31.210957","category":"94","category_name":"西餐厅","address":"徐汇区宝庆路10号(复兴中路口)"},{"poiid":"B2094757D465A3FA4399","title":"隐泉源铁板烧 Kagen Teppanyaki","lon":"121.448960054","lat":"31.209266793","category":"247","category_name":"餐饮美食","address":"徐汇区桃江路28号丁(近衡山路)"},{"poiid":"B2094757D068A2F5499B","title":"复兴汇","lon":"121.44854","lat":"31.21006","category":"76","category_name":"上海菜","address":"徐汇区复兴中路1479号(近淮海中路)"},{"poiid":"B2094757D064A2FF4098","title":"桃江路","lon":"121.448433629","lat":"31.209268655","category":"172","category_name":"酒吧","address":"上海桃江路"},{"poiid":"B2094757D064A5F54999","title":"五官科医院宝庆分部","lon":"121.45008622","lat":"31.210351972","category":"162","category_name":"医院","address":"上海宝庆路"},{"poiid":"B2094757D068A0F4409A","title":"Azul Tapas lounge","lon":"121.44865","lat":"31.20865","category":"94","category_name":"西餐厅","address":"徐汇区东平路18-2号(近衡山路)"},{"poiid":"B2094757D069A1F54799","title":"南蛮亭","lon":"121.45185","lat":"31.20829","category":"95","category_name":"日本料理","address":"徐汇区岳阳路1号(近汾阳路)"},{"poiid":"B2094757D06BAAF44598","title":"尔苑咖啡厅 Anna Maya Vegetarian Cafe","lon":"121.450652054","lat":"31.208991793","category":"89","category_name":"中式素餐馆","address":"徐汇区桃江路3号(近宝庆路)"},{"poiid":"B2094757D069A0F44998","title":"Bulldog Shanghai(英国斗牛犬)","lon":"121.44805362","lat":"31.208418656","category":"172","category_name":"酒吧","address":"徐汇区乌鲁木齐南路1号(衡山路美领馆对面)"},{"poiid":"B2094757D069A4FD4892","title":"东篱文艺沙龙","lon":"121.45067","lat":"31.2104","category":"179","category_name":"音乐厅","address":"徐汇区复兴中路1363弄1号104室(近宝庆路)"},{"poiid":"B2094757D66BABF9479C","title":"Goga","lon":"121.45167517625","lat":"31.208671976401","category":"94","category_name":"西餐厅","address":"徐汇区岳阳路1号(近东平路)"}]