[{"poiid":"B2094757D06FA2FD429F","title":"名仕街创意园","lon":"121.44784073","lat":"31.262980206","category":"46","category_name":"楼宇","address":"上海闸北区洛川中路1158号(近沪太路)"},{"poiid":"B2094757D06FA2F5449A","title":"芝麻餐馆(延长店)","lon":"121.450878542","lat":"31.2694693466","category":"76","category_name":"上海菜","address":"闸北区延长中路558号(近万荣路)"},{"poiid":"B2094757DA64A0FC4898","title":"盛源生活广场","lon":"121.45686","lat":"31.264786","category":"252","category_name":"楼宇机构","address":"闸北区柳营路777号"},{"poiid":"B2094750D16BA6F9489D","title":"良置保龄球馆","lon":"121.455909","lat":"31.26452","category":"220","category_name":"运动场所","address":"闸北区柳营路777号盛源生活广场5楼(近共和新路)"},{"poiid":"B2094757D068A4FE469F","title":"印象徽州","lon":"121.45311","lat":"31.26568","category":"260","category_name":"其他","address":"闸北区洛川中路800号2楼(近共和新路)"},{"poiid":"B2094757D069A1F84993","title":"有骨气川香骨头皇火锅 延长中路店","lon":"121.448752054","lat":"31.268599793","category":"86","category_name":"火锅店","address":"闸北区延长中路581号(近万荣路)"},{"poiid":"B2094757D06FA6FD449C","title":"盛源家豪城","lon":"121.45693","lat":"31.265186","category":"500","category_name":"未知分类","address":"上海市闸北区柳营路645号"},{"poiid":"B2094654D464A0FC4898","title":"新民大酒店","lon":"121.44698","lat":"31.26371","category":"215","category_name":"三星级宾馆","address":"普陀区沪太路701号(近洛川中路)"},{"poiid":"B2094757D06FA4F4459E","title":"农屋里香","lon":"121.45426","lat":"31.26766","category":"87","category_name":"特色／地方风味餐厅","address":"闸北区老沪太路200号(近普善路)"},{"poiid":"B2094757D464A7FE4998","title":"江南粗菜","lon":"121.451807","lat":"31.265399","category":"76","category_name":"上海菜","address":"闸北区洛川中路840号(近普善路)"},{"poiid":"B2094751D36CA1F84899","title":"牛太郎烧烤城(柳营路店)","lon":"121.45583","lat":"31.26347","category":"269","category_name":"烧烤","address":"闸北区柳营路777号盛源生活广场4楼(近共和新路)"},{"poiid":"B2094654D464A4FB449A","title":"赵家花园","lon":"121.447471","lat":"31.265298","category":"47","category_name":"住宅区","address":"华阴路205号"},{"poiid":"B2094654DB64A6FA499A","title":"汉庭快捷(闸北公园店)","lon":"121.45215","lat":"31.26554","category":"216","category_name":"经济型连锁酒店","address":"上海市闸北区洛川中路840号（近共和新路）"},{"poiid":"B2094654D464A1F8459F","title":"新弘国际公寓","lon":"121.4529","lat":"31.26915","category":"47","category_name":"住宅区","address":"上海市闸北区老沪太路201号"},{"poiid":"B2094654D464A1FA4392","title":"上海市工商行政管理局闸北分局企业注册服务大厅","lon":"121.45151","lat":"31.2653","category":"250","category_name":"公园户外","address":"洛川中路880号"},{"poiid":"B2094655D26DA5FC479E","title":"上海名仕街","lon":"121.44784","lat":"31.26298","category":"119","category_name":"商场","address":""},{"poiid":"B2094655D265A1F44493","title":"渔乐鲜风","lon":"121.45432","lat":"31.26819","category":"260","category_name":"其他","address":"闸北区老沪太路195弄(近共和新路)"},{"poiid":"B2094654DB6AA4F4439C","title":"黄山商务楼(洛川中路)","lon":"121.45285","lat":"31.26586","category":"46","category_name":"楼宇","address":"闸北区洛川中路816号"},{"poiid":"B2094757D06AA0FF429F","title":"柳营路","lon":"121.45562735","lat":"31.265743543","category":"500","category_name":"未知分类","address":"上海市闸北区柳营路"},{"poiid":"B2094750D76DA4FF449D","title":"乐lofree(柳营路店)","lon":"121.456","lat":"31.2637","category":"68","category_name":"快餐厅","address":"闸北区柳营路777号"},{"poiid":"B2094654D465A7FA4793","title":"通联大厦","lon":"121.449","lat":"31.2622","category":"46","category_name":"楼宇","address":"上海市浦东新区张杨路500号"},{"poiid":"B2094757D068A4F5429C","title":"金纺小区","lon":"121.454","lat":"31.2679","category":"47","category_name":"住宅区","address":"金纺小区位于闸北沪太路653号"},{"poiid":"B2094751D36CA4FE499B","title":"汉釜宫韩氏烤肉","lon":"121.45583","lat":"31.26347","category":"96","category_name":"韩国料理","address":"闸北区柳营路777号盛源生活广场4楼(近共和新路)"},{"poiid":"B2094655D26FA0FE4792","title":"柳营路1025弄小区(谈家桥路)","lon":"121.45066","lat":"31.26125","category":"47","category_name":"住宅区","address":""},{"poiid":"B2094757D66CA2FA4398","title":"平江小区","lon":"121.45558957471","lat":"31.262609123084","category":"47","category_name":"住宅区","address":"上海市普陀区交通西路108弄"},{"poiid":"B2094655D26AAAFD499E","title":"益桶足道","lon":"121.4538","lat":"31.26662","category":"149","category_name":"洗浴推拿场所","address":"闸北区洛川中路733号(近共和新路)"},{"poiid":"B2094757D06FA7F8469E","title":"洛川中路1100弄","lon":"121.449637","lat":"31.264389","category":"500","category_name":"未知分类","address":"上海洛川中路1100弄"},{"poiid":"B2094655D264A5FE479D","title":"文汇新民大厦","lon":"121.45216","lat":"31.26554","category":"46","category_name":"楼宇","address":"洛川中路840号"},{"poiid":"B2094757D069A6F5429B","title":"泰山一村","lon":"121.453","lat":"31.2674","category":"500","category_name":"未知分类","address":"上海沪太路华阴路口"},{"poiid":"B2094654DB6AA4F4439F","title":"悠和家园(南门)","lon":"121.45298","lat":"31.26634","category":"656","category_name":"大门","address":"洛川中路777弄"},{"poiid":"B2094654D464A4F94993","title":"华经大厦","lon":"121.451","lat":"31.2645","category":"46","category_name":"楼宇","address":"骊山路34弄"},{"poiid":"B2094751D56CA6FB459D","title":"宝燕餐厅(柳营路店)","lon":"121.45583","lat":"31.26347","category":"75","category_name":"浙江菜","address":"闸北区柳营路777号4楼(近普善路)"},{"poiid":"B2094757D168A4FB4499","title":"洛川中路普善路","lon":"121.45349225","lat":"31.26320983","category":"500","category_name":"未知分类","address":"上海洛川中路普善路"},{"poiid":"B2094751D36FA7F8419B","title":"Smiley Peat(柳营路店)","lon":"121.45583","lat":"31.26347","category":"94","category_name":"西餐厅","address":"闸北区柳营路777号盛源生活广场4楼(近共和新路)"},{"poiid":"B2094654D464A1FB4698","title":"上海市工商行政管理局闸北分局","lon":"121.45143","lat":"31.26522","category":"250","category_name":"公园户外","address":"普善路809识别"},{"poiid":"B2094757D06FA5FD4498","title":"凯琅1158会所","lon":"121.447674","lat":"31.26361","category":"72","category_name":"广东菜","address":"闸北区洛川中路1158号(近沪太路)"},{"poiid":"B2094757D06AA4F94398","title":"碧莱仕私人婚礼会馆","lon":"121.448182","lat":"31.263412","category":"500","category_name":"未知分类","address":"洛川中路1158号(近沪太路)"},{"poiid":"B2094757D065ABFB449E","title":"olive des olive(大悅城)","lon":"121.45022145","lat":"31.265053465","category":"500","category_name":"未知分类","address":"上海西藏北路166號"},{"poiid":"B2094757D06BA6FC499C","title":"小马烧烤","lon":"121.45025","lat":"31.26917","category":"68","category_name":"快餐厅","address":"闸北区万荣路55号门前(延长中路)"},{"poiid":"B2094757D468AAFD489C","title":"动力鸡车 普善路店","lon":"121.450549","lat":"31.268037","category":"68","category_name":"快餐厅","address":"闸北区普善路1000号芝麻假日酒店"},{"poiid":"B2094654DB6AA4F4479F","title":"锦佳苑","lon":"121.44957","lat":"31.268114","category":"47","category_name":"住宅区","address":"延长中路600弄"},{"poiid":"B2094654D464A1FA439E","title":"忆星美容美发旗舰店","lon":"121.45121","lat":"31.26565","category":"148","category_name":"美容美发店","address":""},{"poiid":"B2094654D464A0FC4992","title":"好德便利No.757","lon":"121.45059","lat":"31.26553","category":"117","category_name":"便民商店/便利店","address":"洛川中路901弄6号101室"},{"poiid":"B2094654D464A1FA469D","title":"天使宠物诊所闸北店","lon":"121.45583","lat":"31.26705","category":"162","category_name":"医院","address":"洛川中路612"},{"poiid":"B2094757D06BA4FA499C","title":"泰山三村","lon":"121.453","lat":"31.264","category":"252","category_name":"楼宇机构","address":"中山北路1169号"},{"poiid":"B2094757D064A1FC439B","title":"北京人民大会堂","lon":"121.45281711","lat":"31.264611877","category":"248","category_name":"生活娱乐","address":"上海长安街"},{"poiid":"B2094757D66CA6F84593","title":"中国农业银行(普善支行)","lon":"121.45149","lat":"31.26508","category":"150","category_name":"银行","address":"闸北区洛川中路884号(洛川中路普善路)"},{"poiid":"B2094655D26BA0F8489F","title":"启太造型","lon":"121.45264","lat":"31.26615","category":"148","category_name":"美容美发店","address":"闸北区洛川中路797号"},{"poiid":"B2094757D164A0FD4993","title":"95路区间车","lon":"121.4499105","lat":"31.2643096513","category":"38","category_name":"公交车站","address":"上海往呼兰路"},{"poiid":"B2094655D265A7F5409E","title":"良友","lon":"121.45052","lat":"31.26316","category":"117","category_name":"便民商店/便利店","address":"洛川中路1100弄57"},{"poiid":"B2094757D06FA2FD429F","title":"名仕街创意园","lon":"121.44784073","lat":"31.262980206","category":"46","category_name":"楼宇","address":"上海闸北区洛川中路1158号(近沪太路)"},{"poiid":"B2094757D06FA2F5449A","title":"芝麻餐馆(延长店)","lon":"121.450878542","lat":"31.2694693466","category":"76","category_name":"上海菜","address":"闸北区延长中路558号(近万荣路)"},{"poiid":"B2094757DA64A0FC4898","title":"盛源生活广场","lon":"121.45686","lat":"31.264786","category":"252","category_name":"楼宇机构","address":"闸北区柳营路777号"},{"poiid":"B2094750D16BA6F9489D","title":"良置保龄球馆","lon":"121.455909","lat":"31.26452","category":"220","category_name":"运动场所","address":"闸北区柳营路777号盛源生活广场5楼(近共和新路)"},{"poiid":"B2094757D068A4FE469F","title":"印象徽州","lon":"121.45311","lat":"31.26568","category":"260","category_name":"其他","address":"闸北区洛川中路800号2楼(近共和新路)"},{"poiid":"B2094757D069A1F84993","title":"有骨气川香骨头皇火锅 延长中路店","lon":"121.448752054","lat":"31.268599793","category":"86","category_name":"火锅店","address":"闸北区延长中路581号(近万荣路)"},{"poiid":"B2094757D06FA6FD449C","title":"盛源家豪城","lon":"121.45693","lat":"31.265186","category":"500","category_name":"未知分类","address":"上海市闸北区柳营路645号"},{"poiid":"B2094654D464A0FC4898","title":"新民大酒店","lon":"121.44698","lat":"31.26371","category":"215","category_name":"三星级宾馆","address":"普陀区沪太路701号(近洛川中路)"},{"poiid":"B2094757D06FA4F4459E","title":"农屋里香","lon":"121.45426","lat":"31.26766","category":"87","category_name":"特色／地方风味餐厅","address":"闸北区老沪太路200号(近普善路)"},{"poiid":"B2094757D464A7FE4998","title":"江南粗菜","lon":"121.451807","lat":"31.265399","category":"76","category_name":"上海菜","address":"闸北区洛川中路840号(近普善路)"},{"poiid":"B2094751D36CA1F84899","title":"牛太郎烧烤城(柳营路店)","lon":"121.45583","lat":"31.26347","category":"269","category_name":"烧烤","address":"闸北区柳营路777号盛源生活广场4楼(近共和新路)"},{"poiid":"B2094654D464A4FB449A","title":"赵家花园","lon":"121.447471","lat":"31.265298","category":"47","category_name":"住宅区","address":"华阴路205号"},{"poiid":"B2094654DB64A6FA499A","title":"汉庭快捷(闸北公园店)","lon":"121.45215","lat":"31.26554","category":"216","category_name":"经济型连锁酒店","address":"上海市闸北区洛川中路840号（近共和新路）"},{"poiid":"B2094654D464A1F8459F","title":"新弘国际公寓","lon":"121.4529","lat":"31.26915","category":"47","category_name":"住宅区","address":"上海市闸北区老沪太路201号"},{"poiid":"B2094654D464A1FA4392","title":"上海市工商行政管理局闸北分局企业注册服务大厅","lon":"121.45151","lat":"31.2653","category":"250","category_name":"公园户外","address":"洛川中路880号"},{"poiid":"B2094655D26DA5FC479E","title":"上海名仕街","lon":"121.44784","lat":"31.26298","category":"119","category_name":"商场","address":""},{"poiid":"B2094655D265A1F44493","title":"渔乐鲜风","lon":"121.45432","lat":"31.26819","category":"260","category_name":"其他","address":"闸北区老沪太路195弄(近共和新路)"},{"poiid":"B2094654DB6AA4F4439C","title":"黄山商务楼(洛川中路)","lon":"121.45285","lat":"31.26586","category":"46","category_name":"楼宇","address":"闸北区洛川中路816号"},{"poiid":"B2094757D06AA0FF429F","title":"柳营路","lon":"121.45562735","lat":"31.265743543","category":"500","category_name":"未知分类","address":"上海市闸北区柳营路"},{"poiid":"B2094750D76DA4FF449D","title":"乐lofree(柳营路店)","lon":"121.456","lat":"31.2637","category":"68","category_name":"快餐厅","address":"闸北区柳营路777号"},{"poiid":"B2094654D465A7FA4793","title":"通联大厦","lon":"121.449","lat":"31.2622","category":"46","category_name":"楼宇","address":"上海市浦东新区张杨路500号"},{"poiid":"B2094757D068A4F5429C","title":"金纺小区","lon":"121.454","lat":"31.2679","category":"47","category_name":"住宅区","address":"金纺小区位于闸北沪太路653号"},{"poiid":"B2094751D36CA4FE499B","title":"汉釜宫韩氏烤肉","lon":"121.45583","lat":"31.26347","category":"96","category_name":"韩国料理","address":"闸北区柳营路777号盛源生活广场4楼(近共和新路)"},{"poiid":"B2094655D26FA0FE4792","title":"柳营路1025弄小区(谈家桥路)","lon":"121.45066","lat":"31.26125","category":"47","category_name":"住宅区","address":""},{"poiid":"B2094757D66CA2FA4398","title":"平江小区","lon":"121.45558957471","lat":"31.262609123084","category":"47","category_name":"住宅区","address":"上海市普陀区交通西路108弄"},{"poiid":"B2094655D26AAAFD499E","title":"益桶足道","lon":"121.4538","lat":"31.26662","category":"149","category_name":"洗浴推拿场所","address":"闸北区洛川中路733号(近共和新路)"},{"poiid":"B2094757D06FA7F8469E","title":"洛川中路1100弄","lon":"121.449637","lat":"31.264389","category":"500","category_name":"未知分类","address":"上海洛川中路1100弄"},{"poiid":"B2094655D264A5FE479D","title":"文汇新民大厦","lon":"121.45216","lat":"31.26554","category":"46","category_name":"楼宇","address":"洛川中路840号"},{"poiid":"B2094757D069A6F5429B","title":"泰山一村","lon":"121.453","lat":"31.2674","category":"500","category_name":"未知分类","address":"上海沪太路华阴路口"},{"poiid":"B2094654DB6AA4F4439F","title":"悠和家园(南门)","lon":"121.45298","lat":"31.26634","category":"656","category_name":"大门","address":"洛川中路777弄"},{"poiid":"B2094654D464A4F94993","title":"华经大厦","lon":"121.451","lat":"31.2645","category":"46","category_name":"楼宇","address":"骊山路34弄"},{"poiid":"B2094751D56CA6FB459D","title":"宝燕餐厅(柳营路店)","lon":"121.45583","lat":"31.26347","category":"75","category_name":"浙江菜","address":"闸北区柳营路777号4楼(近普善路)"},{"poiid":"B2094757D168A4FB4499","title":"洛川中路普善路","lon":"121.45349225","lat":"31.26320983","category":"500","category_name":"未知分类","address":"上海洛川中路普善路"},{"poiid":"B2094751D36FA7F8419B","title":"Smiley Peat(柳营路店)","lon":"121.45583","lat":"31.26347","category":"94","category_name":"西餐厅","address":"闸北区柳营路777号盛源生活广场4楼(近共和新路)"},{"poiid":"B2094654D464A1FB4698","title":"上海市工商行政管理局闸北分局","lon":"121.45143","lat":"31.26522","category":"250","category_name":"公园户外","address":"普善路809识别"},{"poiid":"B2094757D06FA5FD4498","title":"凯琅1158会所","lon":"121.447674","lat":"31.26361","category":"72","category_name":"广东菜","address":"闸北区洛川中路1158号(近沪太路)"},{"poiid":"B2094757D06AA4F94398","title":"碧莱仕私人婚礼会馆","lon":"121.448182","lat":"31.263412","category":"500","category_name":"未知分类","address":"洛川中路1158号(近沪太路)"},{"poiid":"B2094757D065ABFB449E","title":"olive des olive(大悅城)","lon":"121.45022145","lat":"31.265053465","category":"500","category_name":"未知分类","address":"上海西藏北路166號"},{"poiid":"B2094757D06BA6FC499C","title":"小马烧烤","lon":"121.45025","lat":"31.26917","category":"68","category_name":"快餐厅","address":"闸北区万荣路55号门前(延长中路)"},{"poiid":"B2094757D468AAFD489C","title":"动力鸡车 普善路店","lon":"121.450549","lat":"31.268037","category":"68","category_name":"快餐厅","address":"闸北区普善路1000号芝麻假日酒店"},{"poiid":"B2094654DB6AA4F4479F","title":"锦佳苑","lon":"121.44957","lat":"31.268114","category":"47","category_name":"住宅区","address":"延长中路600弄"},{"poiid":"B2094654D464A1FA439E","title":"忆星美容美发旗舰店","lon":"121.45121","lat":"31.26565","category":"148","category_name":"美容美发店","address":""},{"poiid":"B2094654D464A0FC4992","title":"好德便利No.757","lon":"121.45059","lat":"31.26553","category":"117","category_name":"便民商店/便利店","address":"洛川中路901弄6号101室"},{"poiid":"B2094654D464A1FA469D","title":"天使宠物诊所闸北店","lon":"121.45583","lat":"31.26705","category":"162","category_name":"医院","address":"洛川中路612"},{"poiid":"B2094757D06BA4FA499C","title":"泰山三村","lon":"121.453","lat":"31.264","category":"252","category_name":"楼宇机构","address":"中山北路1169号"},{"poiid":"B2094757D064A1FC439B","title":"北京人民大会堂","lon":"121.45281711","lat":"31.264611877","category":"248","category_name":"生活娱乐","address":"上海长安街"},{"poiid":"B2094757D66CA6F84593","title":"中国农业银行(普善支行)","lon":"121.45149","lat":"31.26508","category":"150","category_name":"银行","address":"闸北区洛川中路884号(洛川中路普善路)"},{"poiid":"B2094655D26BA0F8489F","title":"启太造型","lon":"121.45264","lat":"31.26615","category":"148","category_name":"美容美发店","address":"闸北区洛川中路797号"},{"poiid":"B2094757D164A0FD4993","title":"95路区间车","lon":"121.4499105","lat":"31.2643096513","category":"38","category_name":"公交车站","address":"上海往呼兰路"},{"poiid":"B2094655D265A7F5409E","title":"良友","lon":"121.45052","lat":"31.26316","category":"117","category_name":"便民商店/便利店","address":"洛川中路1100弄57"},{"poiid":"B2094757D06FA2FD429F","title":"名仕街创意园","lon":"121.44784073","lat":"31.262980206","category":"46","category_name":"楼宇","address":"上海闸北区洛川中路1158号(近沪太路)"},{"poiid":"B2094757D06FA2F5449A","title":"芝麻餐馆(延长店)","lon":"121.450878542","lat":"31.2694693466","category":"76","category_name":"上海菜","address":"闸北区延长中路558号(近万荣路)"},{"poiid":"B2094757DA64A0FC4898","title":"盛源生活广场","lon":"121.45686","lat":"31.264786","category":"252","category_name":"楼宇机构","address":"闸北区柳营路777号"},{"poiid":"B2094750D16BA6F9489D","title":"良置保龄球馆","lon":"121.455909","lat":"31.26452","category":"220","category_name":"运动场所","address":"闸北区柳营路777号盛源生活广场5楼(近共和新路)"},{"poiid":"B2094757D068A4FE469F","title":"印象徽州","lon":"121.45311","lat":"31.26568","category":"260","category_name":"其他","address":"闸北区洛川中路800号2楼(近共和新路)"},{"poiid":"B2094757D069A1F84993","title":"有骨气川香骨头皇火锅 延长中路店","lon":"121.448752054","lat":"31.268599793","category":"86","category_name":"火锅店","address":"闸北区延长中路581号(近万荣路)"},{"poiid":"B2094757D06FA6FD449C","title":"盛源家豪城","lon":"121.45693","lat":"31.265186","category":"500","category_name":"未知分类","address":"上海市闸北区柳营路645号"},{"poiid":"B2094654D464A0FC4898","title":"新民大酒店","lon":"121.44698","lat":"31.26371","category":"215","category_name":"三星级宾馆","address":"普陀区沪太路701号(近洛川中路)"},{"poiid":"B2094757D06FA4F4459E","title":"农屋里香","lon":"121.45426","lat":"31.26766","category":"87","category_name":"特色／地方风味餐厅","address":"闸北区老沪太路200号(近普善路)"},{"poiid":"B2094757D464A7FE4998","title":"江南粗菜","lon":"121.451807","lat":"31.265399","category":"76","category_name":"上海菜","address":"闸北区洛川中路840号(近普善路)"},{"poiid":"B2094751D36CA1F84899","title":"牛太郎烧烤城(柳营路店)","lon":"121.45583","lat":"31.26347","category":"269","category_name":"烧烤","address":"闸北区柳营路777号盛源生活广场4楼(近共和新路)"},{"poiid":"B2094654D464A4FB449A","title":"赵家花园","lon":"121.447471","lat":"31.265298","category":"47","category_name":"住宅区","address":"华阴路205号"},{"poiid":"B2094654DB64A6FA499A","title":"汉庭快捷(闸北公园店)","lon":"121.45215","lat":"31.26554","category":"216","category_name":"经济型连锁酒店","address":"上海市闸北区洛川中路840号（近共和新路）"},{"poiid":"B2094654D464A1F8459F","title":"新弘国际公寓","lon":"121.4529","lat":"31.26915","category":"47","category_name":"住宅区","address":"上海市闸北区老沪太路201号"},{"poiid":"B2094654D464A1FA4392","title":"上海市工商行政管理局闸北分局企业注册服务大厅","lon":"121.45151","lat":"31.2653","category":"250","category_name":"公园户外","address":"洛川中路880号"},{"poiid":"B2094655D26DA5FC479E","title":"上海名仕街","lon":"121.44784","lat":"31.26298","category":"119","category_name":"商场","address":""},{"poiid":"B2094655D265A1F44493","title":"渔乐鲜风","lon":"121.45432","lat":"31.26819","category":"260","category_name":"其他","address":"闸北区老沪太路195弄(近共和新路)"},{"poiid":"B2094654DB6AA4F4439C","title":"黄山商务楼(洛川中路)","lon":"121.45285","lat":"31.26586","category":"46","category_name":"楼宇","address":"闸北区洛川中路816号"},{"poiid":"B2094757D06AA0FF429F","title":"柳营路","lon":"121.45562735","lat":"31.265743543","category":"500","category_name":"未知分类","address":"上海市闸北区柳营路"},{"poiid":"B2094750D76DA4FF449D","title":"乐lofree(柳营路店)","lon":"121.456","lat":"31.2637","category":"68","category_name":"快餐厅","address":"闸北区柳营路777号"},{"poiid":"B2094654D465A7FA4793","title":"通联大厦","lon":"121.449","lat":"31.2622","category":"46","category_name":"楼宇","address":"上海市浦东新区张杨路500号"},{"poiid":"B2094757D068A4F5429C","title":"金纺小区","lon":"121.454","lat":"31.2679","category":"47","category_name":"住宅区","address":"金纺小区位于闸北沪太路653号"},{"poiid":"B2094751D36CA4FE499B","title":"汉釜宫韩氏烤肉","lon":"121.45583","lat":"31.26347","category":"96","category_name":"韩国料理","address":"闸北区柳营路777号盛源生活广场4楼(近共和新路)"},{"poiid":"B2094655D26FA0FE4792","title":"柳营路1025弄小区(谈家桥路)","lon":"121.45066","lat":"31.26125","category":"47","category_name":"住宅区","address":""},{"poiid":"B2094757D66CA2FA4398","title":"平江小区","lon":"121.45558957471","lat":"31.262609123084","category":"47","category_name":"住宅区","address":"上海市普陀区交通西路108弄"},{"poiid":"B2094655D26AAAFD499E","title":"益桶足道","lon":"121.4538","lat":"31.26662","category":"149","category_name":"洗浴推拿场所","address":"闸北区洛川中路733号(近共和新路)"},{"poiid":"B2094757D06FA7F8469E","title":"洛川中路1100弄","lon":"121.449637","lat":"31.264389","category":"500","category_name":"未知分类","address":"上海洛川中路1100弄"},{"poiid":"B2094655D264A5FE479D","title":"文汇新民大厦","lon":"121.45216","lat":"31.26554","category":"46","category_name":"楼宇","address":"洛川中路840号"},{"poiid":"B2094757D069A6F5429B","title":"泰山一村","lon":"121.453","lat":"31.2674","category":"500","category_name":"未知分类","address":"上海沪太路华阴路口"},{"poiid":"B2094654DB6AA4F4439F","title":"悠和家园(南门)","lon":"121.45298","lat":"31.26634","category":"656","category_name":"大门","address":"洛川中路777弄"},{"poiid":"B2094654D464A4F94993","title":"华经大厦","lon":"121.451","lat":"31.2645","category":"46","category_name":"楼宇","address":"骊山路34弄"},{"poiid":"B2094751D56CA6FB459D","title":"宝燕餐厅(柳营路店)","lon":"121.45583","lat":"31.26347","category":"75","category_name":"浙江菜","address":"闸北区柳营路777号4楼(近普善路)"},{"poiid":"B2094757D168A4FB4499","title":"洛川中路普善路","lon":"121.45349225","lat":"31.26320983","category":"500","category_name":"未知分类","address":"上海洛川中路普善路"},{"poiid":"B2094751D36FA7F8419B","title":"Smiley Peat(柳营路店)","lon":"121.45583","lat":"31.26347","category":"94","category_name":"西餐厅","address":"闸北区柳营路777号盛源生活广场4楼(近共和新路)"},{"poiid":"B2094654D464A1FB4698","title":"上海市工商行政管理局闸北分局","lon":"121.45143","lat":"31.26522","category":"250","category_name":"公园户外","address":"普善路809识别"},{"poiid":"B2094757D06FA5FD4498","title":"凯琅1158会所","lon":"121.447674","lat":"31.26361","category":"72","category_name":"广东菜","address":"闸北区洛川中路1158号(近沪太路)"},{"poiid":"B2094757D06AA4F94398","title":"碧莱仕私人婚礼会馆","lon":"121.448182","lat":"31.263412","category":"500","category_name":"未知分类","address":"洛川中路1158号(近沪太路)"},{"poiid":"B2094757D065ABFB449E","title":"olive des olive(大悅城)","lon":"121.45022145","lat":"31.265053465","category":"500","category_name":"未知分类","address":"上海西藏北路166號"},{"poiid":"B2094757D06BA6FC499C","title":"小马烧烤","lon":"121.45025","lat":"31.26917","category":"68","category_name":"快餐厅","address":"闸北区万荣路55号门前(延长中路)"},{"poiid":"B2094757D468AAFD489C","title":"动力鸡车 普善路店","lon":"121.450549","lat":"31.268037","category":"68","category_name":"快餐厅","address":"闸北区普善路1000号芝麻假日酒店"},{"poiid":"B2094654DB6AA4F4479F","title":"锦佳苑","lon":"121.44957","lat":"31.268114","category":"47","category_name":"住宅区","address":"延长中路600弄"},{"poiid":"B2094654D464A1FA439E","title":"忆星美容美发旗舰店","lon":"121.45121","lat":"31.26565","category":"148","category_name":"美容美发店","address":""},{"poiid":"B2094654D464A0FC4992","title":"好德便利No.757","lon":"121.45059","lat":"31.26553","category":"117","category_name":"便民商店/便利店","address":"洛川中路901弄6号101室"},{"poiid":"B2094654D464A1FA469D","title":"天使宠物诊所闸北店","lon":"121.45583","lat":"31.26705","category":"162","category_name":"医院","address":"洛川中路612"},{"poiid":"B2094757D06BA4FA499C","title":"泰山三村","lon":"121.453","lat":"31.264","category":"252","category_name":"楼宇机构","address":"中山北路1169号"},{"poiid":"B2094757D064A1FC439B","title":"北京人民大会堂","lon":"121.45281711","lat":"31.264611877","category":"248","category_name":"生活娱乐","address":"上海长安街"},{"poiid":"B2094757D66CA6F84593","title":"中国农业银行(普善支行)","lon":"121.45149","lat":"31.26508","category":"150","category_name":"银行","address":"闸北区洛川中路884号(洛川中路普善路)"},{"poiid":"B2094655D26BA0F8489F","title":"启太造型","lon":"121.45264","lat":"31.26615","category":"148","category_name":"美容美发店","address":"闸北区洛川中路797号"},{"poiid":"B2094757D164A0FD4993","title":"95路区间车","lon":"121.4499105","lat":"31.2643096513","category":"38","category_name":"公交车站","address":"上海往呼兰路"},{"poiid":"B2094655D265A7F5409E","title":"良友","lon":"121.45052","lat":"31.26316","category":"117","category_name":"便民商店/便利店","address":"洛川中路1100弄57"},{"poiid":"B2094757D06FA2FD429F","title":"名仕街创意园","lon":"121.44784073","lat":"31.262980206","category":"46","category_name":"楼宇","address":"上海闸北区洛川中路1158号(近沪太路)"},{"poiid":"B2094757D06FA2F5449A","title":"芝麻餐馆(延长店)","lon":"121.450878542","lat":"31.2694693466","category":"76","category_name":"上海菜","address":"闸北区延长中路558号(近万荣路)"},{"poiid":"B2094757DA64A0FC4898","title":"盛源生活广场","lon":"121.45686","lat":"31.264786","category":"252","category_name":"楼宇机构","address":"闸北区柳营路777号"},{"poiid":"B2094750D16BA6F9489D","title":"良置保龄球馆","lon":"121.455909","lat":"31.26452","category":"220","category_name":"运动场所","address":"闸北区柳营路777号盛源生活广场5楼(近共和新路)"},{"poiid":"B2094757D068A4FE469F","title":"印象徽州","lon":"121.45311","lat":"31.26568","category":"260","category_name":"其他","address":"闸北区洛川中路800号2楼(近共和新路)"},{"poiid":"B2094757D069A1F84993","title":"有骨气川香骨头皇火锅 延长中路店","lon":"121.448752054","lat":"31.268599793","category":"86","category_name":"火锅店","address":"闸北区延长中路581号(近万荣路)"},{"poiid":"B2094757D06FA6FD449C","title":"盛源家豪城","lon":"121.45693","lat":"31.265186","category":"500","category_name":"未知分类","address":"上海市闸北区柳营路645号"},{"poiid":"B2094654D464A0FC4898","title":"新民大酒店","lon":"121.44698","lat":"31.26371","category":"215","category_name":"三星级宾馆","address":"普陀区沪太路701号(近洛川中路)"},{"poiid":"B2094757D06FA4F4459E","title":"农屋里香","lon":"121.45426","lat":"31.26766","category":"87","category_name":"特色／地方风味餐厅","address":"闸北区老沪太路200号(近普善路)"},{"poiid":"B2094757D464A7FE4998","title":"江南粗菜","lon":"121.451807","lat":"31.265399","category":"76","category_name":"上海菜","address":"闸北区洛川中路840号(近普善路)"},{"poiid":"B2094751D36CA1F84899","title":"牛太郎烧烤城(柳营路店)","lon":"121.45583","lat":"31.26347","category":"269","category_name":"烧烤","address":"闸北区柳营路777号盛源生活广场4楼(近共和新路)"},{"poiid":"B2094654D464A4FB449A","title":"赵家花园","lon":"121.447471","lat":"31.265298","category":"47","category_name":"住宅区","address":"华阴路205号"},{"poiid":"B2094654DB64A6FA499A","title":"汉庭快捷(闸北公园店)","lon":"121.45215","lat":"31.26554","category":"216","category_name":"经济型连锁酒店","address":"上海市闸北区洛川中路840号（近共和新路）"},{"poiid":"B2094654D464A1F8459F","title":"新弘国际公寓","lon":"121.4529","lat":"31.26915","category":"47","category_name":"住宅区","address":"上海市闸北区老沪太路201号"},{"poiid":"B2094654D464A1FA4392","title":"上海市工商行政管理局闸北分局企业注册服务大厅","lon":"121.45151","lat":"31.2653","category":"250","category_name":"公园户外","address":"洛川中路880号"},{"poiid":"B2094655D26DA5FC479E","title":"上海名仕街","lon":"121.44784","lat":"31.26298","category":"119","category_name":"商场","address":""},{"poiid":"B2094655D265A1F44493","title":"渔乐鲜风","lon":"121.45432","lat":"31.26819","category":"260","category_name":"其他","address":"闸北区老沪太路195弄(近共和新路)"},{"poiid":"B2094654DB6AA4F4439C","title":"黄山商务楼(洛川中路)","lon":"121.45285","lat":"31.26586","category":"46","category_name":"楼宇","address":"闸北区洛川中路816号"},{"poiid":"B2094757D06AA0FF429F","title":"柳营路","lon":"121.45562735","lat":"31.265743543","category":"500","category_name":"未知分类","address":"上海市闸北区柳营路"},{"poiid":"B2094750D76DA4FF449D","title":"乐lofree(柳营路店)","lon":"121.456","lat":"31.2637","category":"68","category_name":"快餐厅","address":"闸北区柳营路777号"},{"poiid":"B2094654D465A7FA4793","title":"通联大厦","lon":"121.449","lat":"31.2622","category":"46","category_name":"楼宇","address":"上海市浦东新区张杨路500号"},{"poiid":"B2094757D068A4F5429C","title":"金纺小区","lon":"121.454","lat":"31.2679","category":"47","category_name":"住宅区","address":"金纺小区位于闸北沪太路653号"},{"poiid":"B2094751D36CA4FE499B","title":"汉釜宫韩氏烤肉","lon":"121.45583","lat":"31.26347","category":"96","category_name":"韩国料理","address":"闸北区柳营路777号盛源生活广场4楼(近共和新路)"},{"poiid":"B2094655D26FA0FE4792","title":"柳营路1025弄小区(谈家桥路)","lon":"121.45066","lat":"31.26125","category":"47","category_name":"住宅区","address":""},{"poiid":"B2094757D66CA2FA4398","title":"平江小区","lon":"121.45558957471","lat":"31.262609123084","category":"47","category_name":"住宅区","address":"上海市普陀区交通西路108弄"},{"poiid":"B2094655D26AAAFD499E","title":"益桶足道","lon":"121.4538","lat":"31.26662","category":"149","category_name":"洗浴推拿场所","address":"闸北区洛川中路733号(近共和新路)"},{"poiid":"B2094757D06FA7F8469E","title":"洛川中路1100弄","lon":"121.449637","lat":"31.264389","category":"500","category_name":"未知分类","address":"上海洛川中路1100弄"},{"poiid":"B2094655D264A5FE479D","title":"文汇新民大厦","lon":"121.45216","lat":"31.26554","category":"46","category_name":"楼宇","address":"洛川中路840号"},{"poiid":"B2094757D069A6F5429B","title":"泰山一村","lon":"121.453","lat":"31.2674","category":"500","category_name":"未知分类","address":"上海沪太路华阴路口"},{"poiid":"B2094654DB6AA4F4439F","title":"悠和家园(南门)","lon":"121.45298","lat":"31.26634","category":"656","category_name":"大门","address":"洛川中路777弄"},{"poiid":"B2094654D464A4F94993","title":"华经大厦","lon":"121.451","lat":"31.2645","category":"46","category_name":"楼宇","address":"骊山路34弄"},{"poiid":"B2094751D56CA6FB459D","title":"宝燕餐厅(柳营路店)","lon":"121.45583","lat":"31.26347","category":"75","category_name":"浙江菜","address":"闸北区柳营路777号4楼(近普善路)"},{"poiid":"B2094757D168A4FB4499","title":"洛川中路普善路","lon":"121.45349225","lat":"31.26320983","category":"500","category_name":"未知分类","address":"上海洛川中路普善路"},{"poiid":"B2094751D36FA7F8419B","title":"Smiley Peat(柳营路店)","lon":"121.45583","lat":"31.26347","category":"94","category_name":"西餐厅","address":"闸北区柳营路777号盛源生活广场4楼(近共和新路)"},{"poiid":"B2094654D464A1FB4698","title":"上海市工商行政管理局闸北分局","lon":"121.45143","lat":"31.26522","category":"250","category_name":"公园户外","address":"普善路809识别"},{"poiid":"B2094757D06FA5FD4498","title":"凯琅1158会所","lon":"121.447674","lat":"31.26361","category":"72","category_name":"广东菜","address":"闸北区洛川中路1158号(近沪太路)"},{"poiid":"B2094757D06AA4F94398","title":"碧莱仕私人婚礼会馆","lon":"121.448182","lat":"31.263412","category":"500","category_name":"未知分类","address":"洛川中路1158号(近沪太路)"},{"poiid":"B2094757D065ABFB449E","title":"olive des olive(大悅城)","lon":"121.45022145","lat":"31.265053465","category":"500","category_name":"未知分类","address":"上海西藏北路166號"},{"poiid":"B2094757D06BA6FC499C","title":"小马烧烤","lon":"121.45025","lat":"31.26917","category":"68","category_name":"快餐厅","address":"闸北区万荣路55号门前(延长中路)"},{"poiid":"B2094757D468AAFD489C","title":"动力鸡车 普善路店","lon":"121.450549","lat":"31.268037","category":"68","category_name":"快餐厅","address":"闸北区普善路1000号芝麻假日酒店"},{"poiid":"B2094654DB6AA4F4479F","title":"锦佳苑","lon":"121.44957","lat":"31.268114","category":"47","category_name":"住宅区","address":"延长中路600弄"},{"poiid":"B2094654D464A1FA439E","title":"忆星美容美发旗舰店","lon":"121.45121","lat":"31.26565","category":"148","category_name":"美容美发店","address":""},{"poiid":"B2094654D464A0FC4992","title":"好德便利No.757","lon":"121.45059","lat":"31.26553","category":"117","category_name":"便民商店/便利店","address":"洛川中路901弄6号101室"},{"poiid":"B2094654D464A1FA469D","title":"天使宠物诊所闸北店","lon":"121.45583","lat":"31.26705","category":"162","category_name":"医院","address":"洛川中路612"},{"poiid":"B2094757D06BA4FA499C","title":"泰山三村","lon":"121.453","lat":"31.264","category":"252","category_name":"楼宇机构","address":"中山北路1169号"},{"poiid":"B2094757D064A1FC439B","title":"北京人民大会堂","lon":"121.45281711","lat":"31.264611877","category":"248","category_name":"生活娱乐","address":"上海长安街"},{"poiid":"B2094757D66CA6F84593","title":"中国农业银行(普善支行)","lon":"121.45149","lat":"31.26508","category":"150","category_name":"银行","address":"闸北区洛川中路884号(洛川中路普善路)"},{"poiid":"B2094655D26BA0F8489F","title":"启太造型","lon":"121.45264","lat":"31.26615","category":"148","category_name":"美容美发店","address":"闸北区洛川中路797号"},{"poiid":"B2094757D164A0FD4993","title":"95路区间车","lon":"121.4499105","lat":"31.2643096513","category":"38","category_name":"公交车站","address":"上海往呼兰路"},{"poiid":"B2094655D265A7F5409E","title":"良友","lon":"121.45052","lat":"31.26316","category":"117","category_name":"便民商店/便利店","address":"洛川中路1100弄57"}]