[{"poiid":"B2094757D068A3F9439E","title":"自由港量贩式KTV(青浦店)","lon":"121.12195","lat":"31.14887","category":"170","category_name":"KTV","address":"青浦区公园路258号(浦仓路口)"},{"poiid":"B2094655D36CA5FF4392","title":"城中东路保安路","lon":"121.12422","lat":"31.14644","category":"38","category_name":"公交车站","address":""},{"poiid":"B2094757D06BABFF4693","title":"青浦区政府","lon":"121.12415141","lat":"31.15036197","category":"500","category_name":"未知分类","address":"上海公园路100号"},{"poiid":"B2094750D568A0F94392","title":"香港纯Kparyt","lon":"121.126731","lat":"31.146087","category":"170","category_name":"KTV","address":"青浦区青湖路晨兴国际"},{"poiid":"B2094757D165A7F54198","title":"青浦教师进修学院","lon":"121.12072706","lat":"31.148430402","category":"253","category_name":"校园生活","address":"上海青浦"},{"poiid":"B2094757D068A3F8439C","title":"85度C 青浦店","lon":"121.12089","lat":"31.14898","category":"112","category_name":"糕饼店","address":"青浦区公园路300号农工商超市旁(浦仓路公园路)"},{"poiid":"B2094757D06BA4FA499D","title":"青浦区行政服务中心","lon":"121.12342184","lat":"31.152591323","category":"500","category_name":"未知分类","address":"上海近郊青浦区外青松公路6189号"},{"poiid":"B2094654DA6BA6FC469C","title":"农工商超市NO.50","lon":"121.12065","lat":"31.14896","category":"118","category_name":"超级市场","address":"青浦镇"},{"poiid":"B2094654DA6BA5F94393","title":"青浦东方中学","lon":"121.12189","lat":"31.14408","category":"55","category_name":"中学","address":"上海青浦区浦仓路88号"},{"poiid":"B2094757D06BA4FA489B","title":"迪欧咖啡(青浦店)","lon":"121.12578","lat":"31.14938","category":"65","category_name":"咖啡厅","address":"青浦区公园路99号(公园路外青松公路)"},{"poiid":"B2094757D665ABF84599","title":"红宝石 城中东路店 Ruby","lon":"121.12091","lat":"31.14668","category":"67","category_name":"甜品店","address":"青浦区城中东路218号(城中东路浦仓路)"},{"poiid":"B2094654DA6BA5FE449C","title":"友谊酒家","lon":"121.12075433399","lat":"31.149022380998","category":"76","category_name":"上海菜","address":"青浦区公园路197号(近外青松公路)"},{"poiid":"B2094654DA6BA5FD4692","title":"青浦区东门小学","lon":"121.12454","lat":"31.14716","category":"56","category_name":"小学","address":"青浦区城中东路48号"},{"poiid":"B2094654DB69AAF9409B","title":"巷深酒楼","lon":"121.121047054","lat":"31.147857793","category":"76","category_name":"上海菜","address":"青浦区浦仓路250号(城中东路浦仓路)"},{"poiid":"B2094757D66EA5F94999","title":"咔浓咖啡","lon":"121.119855035","lat":"31.1505348737","category":"65","category_name":"咖啡厅","address":"青浦区欧洲街74弄3号"},{"poiid":"B2094757D169AAF8489C","title":"青浦区社保中心","lon":"121.122893","lat":"31.149602","category":"500","category_name":"未知分类","address":"上海公园路200号"},{"poiid":"B2094757D16CA0FB499B","title":"世田造型","lon":"121.120825","lat":"31.150514","category":"148","category_name":"美容美发店","address":"上海浦仓路"},{"poiid":"B2094757D66CA7FF459E","title":"越岭阁(青浦店)","lon":"121.12066","lat":"31.14847","category":"96","category_name":"韩国料理","address":"青浦区公园路209号(近浦仓路)"},{"poiid":"B2094654DA6BA5FE409C","title":"舜浦大厦","lon":"121.12488","lat":"31.14919","category":"46","category_name":"楼宇","address":"上海青浦区公园路99号"},{"poiid":"B2094654DA6BA5FD469F","title":"城东口腔门诊部","lon":"121.12436","lat":"31.14676","category":"162","category_name":"医院","address":"城中东路54号"},{"poiid":"B2094654DA6BA5FD459E","title":"青浦镇城东新邨一邨2号门","lon":"121.12357","lat":"31.14732","category":"47","category_name":"住宅区","address":"城东新邨24号楼"},{"poiid":"B2094655D268A6FB469C","title":"城东一邨","lon":"121.1241","lat":"31.14732","category":"47","category_name":"住宅区","address":""},{"poiid":"B2094654DA6BA5FD4592","title":"上海宏良经济开发区","lon":"121.12387","lat":"31.14671","category":"45","category_name":"产业园区","address":"城中东路66号2层"},{"poiid":"B2094751D56CA1F8419F","title":"Ms Chen's Restaurant & Bar","lon":"121.12579","lat":"31.14401","category":"172","category_name":"酒吧","address":"青浦区外青松公路6666弄16号帕缇欧香小区内"},{"poiid":"B2094655D268A5F54693","title":"公园路营业厅","lon":"121.11843","lat":"31.14888","category":"151","category_name":"电讯营业厅","address":"青浦区公园路406号"},{"poiid":"B2094757D568A0F44699","title":"浦义杂货店","lon":"121.12356744","lat":"31.14687663","category":"117","category_name":"便民商店/便利店","address":"城中东路82"},{"poiid":"B2094655D26FABFA4093","title":"城东新村一区","lon":"121.12278","lat":"31.14821","category":"47","category_name":"住宅区","address":""},{"poiid":"B2094655D36CA2F8419F","title":"青湖路外青松公路","lon":"121.12826","lat":"31.14603","category":"38","category_name":"公交车站","address":""},{"poiid":"B2094654DA6BA5FE469A","title":"城东新村二村2号门","lon":"121.12259","lat":"31.14759","category":"47","category_name":"住宅区","address":"保安路"},{"poiid":"B2094654DA6BA5F94299","title":"青浦夏阳街道青青心理咨询中心","lon":"121.12313","lat":"31.14614","category":"162","category_name":"医院","address":""},{"poiid":"B2094654DA6BA5FD4993","title":"保安新村18-22号楼(北侧)","lon":"121.1254","lat":"31.1477","category":"47","category_name":"住宅区","address":"淀浦河东路225号"},{"poiid":"B2094753D76DA0FF4293","title":"鹭鹭小馆","lon":"121.120529","lat":"31.146512","category":"247","category_name":"餐饮美食","address":"上海市 青浦区公园路"},{"poiid":"B2094757D16DAAFF419E","title":"青浦热浪游泳健身会所","lon":"121.12440467","lat":"31.141178186","category":"500","category_name":"未知分类","address":"青浦区外青松公路6666号(近沪青平公路)"},{"poiid":"B2094757D66EA3FC449A","title":"盈港缘汗蒸馆","lon":"121.124819671","lat":"31.1476133159","category":"148","category_name":"美容美发店","address":"上海青浦区青龙路7号"},{"poiid":"B2094753D164AAF84198","title":"上井精致料理","lon":"121.126556","lat":"31.146908","category":"247","category_name":"餐饮美食","address":"上海市 青浦店"},{"poiid":"B2094654DA6BA5F94199","title":"保安新村","lon":"121.12564","lat":"31.145197","category":"47","category_name":"住宅区","address":"淀浦河东路225号"},{"poiid":"B2094757D16FA2F94693","title":"欧洲街","lon":"121.125363","lat":"31.150549","category":"500","category_name":"未知分类","address":"上海青浦区公园路"},{"poiid":"B2094655D268A1FD469D","title":"亿路顺典当","lon":"121.12376","lat":"31.1467","category":"249","category_name":"购物服务","address":"城中东路72"},{"poiid":"B2094757D064ABFB489A","title":"城中东路烧烤摊","lon":"121.12155","lat":"31.146325","category":"247","category_name":"餐饮美食","address":"上海浦仓路城中东路"},{"poiid":"B2094654DB64A3F5469B","title":"上海青浦工业园区创业中心","lon":"121.12488","lat":"31.1492","category":"45","category_name":"产业园区","address":"公园路99号11层"},{"poiid":"B2094654DA6BA5FE4299","title":"上海益田经济开发区","lon":"121.12488","lat":"31.1492","category":"45","category_name":"产业园区","address":"公园路99号1层"},{"poiid":"B2094654DB64A3F5459C","title":"中国工商银行城东支行","lon":"121.12391","lat":"31.1467","category":"150","category_name":"银行","address":"青浦区青浦镇城中东路66号保安路加油站对面(保安路城中东路)"},{"poiid":"B2094654DA6BA5FE4692","title":"青浦区职业技术培训学校","lon":"121.12152","lat":"31.14723","category":"54","category_name":"职业技术学校","address":"青浦区浦仓路252号"},{"poiid":"B2094654DA6BA5FE469D","title":"上海市青浦区劳动保障协会","lon":"121.12152","lat":"31.14723","category":"250","category_name":"公园户外","address":"浦仓路252号"},{"poiid":"B2094655D36CA5FF439C","title":"城中东路浦仓路","lon":"121.12033","lat":"31.14653","category":"38","category_name":"公交车站","address":""},{"poiid":"B2094655D26FABFF489B","title":"城东新村南门(青浦区夏阳街道人民调解工作室西南)","lon":"121.12203","lat":"31.14665","category":"47","category_name":"住宅区","address":""},{"poiid":"B2094757D16FA0FE4898","title":"青浦区桂花苑","lon":"121.127376171","lat":"31.1456536766","category":"252","category_name":"楼宇机构","address":"上海青浦区青湖路1070弄"},{"poiid":"B2094757D465A5F4419E","title":"永和大王 青浦店","lon":"121.12046813965","lat":"31.148950576782","category":"68","category_name":"快餐厅","address":"青浦区公园路544号稻香村商业广场1楼(近青安路)"},{"poiid":"B2094655D26FABFA419B","title":"城东新邨一邨(北门)","lon":"121.12279","lat":"31.14898","category":"47","category_name":"住宅区","address":""},{"poiid":"B2094655D26BA1FC4092","title":"浦仓路","lon":"121.12089","lat":"31.14887","category":"38","category_name":"公交车站","address":"城东新村123号"},{"poiid":"B2094654DA6BA0F8429F","title":"晨兴公寓","lon":"121.1284","lat":"31.145359","category":"47","category_name":"住宅区","address":"青湖路997弄"},{"poiid":"B2094654DA6BA5FD4799","title":"中国邮政储蓄(城中东路)","lon":"121.12485","lat":"31.14678","category":"150","category_name":"银行","address":"城中东路42"},{"poiid":"B2094757D568A7F44299","title":"章浜新村(六号门)","lon":"121.1205412","lat":"31.14629693","category":"47","category_name":"住宅区","address":"城中东路245"},{"poiid":"B2094757D064AAF9419F","title":"城东新村","lon":"121.12563357","lat":"31.143727738","category":"500","category_name":"未知分类","address":"上海市青浦区"},{"poiid":"B2094654DA6BA5F9469B","title":"城东新村二区","lon":"121.12197","lat":"31.14501","category":"47","category_name":"住宅区","address":""},{"poiid":"B2094654DA6BA6FD419B","title":"上海市青浦区科技文化活动中心","lon":"121.12564","lat":"31.15055","category":"248","category_name":"生活娱乐","address":"公园路78-80"},{"poiid":"B2094655D268A1FD479D","title":"川福火锅(浦仓路)","lon":"121.12075","lat":"31.14982","category":"86","category_name":"火锅店","address":""},{"poiid":"B2094654DA6BA1F4449F","title":"美代口腔专科门诊部","lon":"121.12827","lat":"31.14581","category":"162","category_name":"医院","address":"青湖路1001"},{"poiid":"B2094654DA6BA5FF419C","title":"教苑新村","lon":"121.12027","lat":"31.14705","category":"47","category_name":"住宅区","address":"城中东路248弄"},{"poiid":"B2094654DA6BA5F9469F","title":"良友金伴便利连锁NO.524","lon":"121.12158","lat":"31.14558","category":"117","category_name":"便民商店/便利店","address":"浦仓路166"},{"poiid":"B2094654DA6BA6FE419A","title":"莱欧美容美发艺术沙龙","lon":"121.11914","lat":"31.14942","category":"148","category_name":"美容美发店","address":""},{"poiid":"B2094757D66DA3F4419E","title":"青浦海关","lon":"121.12633543","lat":"31.149019544","category":"500","category_name":"未知分类","address":"上海青浦区公园路55号"},{"poiid":"B2094654DA6BA7FB4798","title":"蔡师傅面馆","lon":"121.12157","lat":"31.15144","category":"87","category_name":"特色／地方风味餐厅","address":"青浦区体育场路(近浦仓路)"},{"poiid":"B2094654DA6BA6FC4592","title":"晨兴花园","lon":"121.12223","lat":"31.1503","category":"47","category_name":"住宅区","address":"青浦镇"},{"poiid":"B2094750D364A0F8419E","title":"德邦物流","lon":"121.12439","lat":"31.14976","category":"629","category_name":"快递","address":"明珠路1018号"},{"poiid":"B2094654DB69A4F8469F","title":"永和豆浆(青浦店)","lon":"121.12034","lat":"31.14854","category":"68","category_name":"快餐厅","address":"公园路700号东方商厦C区05-06"},{"poiid":"B2094654DA6BA5F94898","title":"好德便利NO.219","lon":"121.12059","lat":"31.14629","category":"117","category_name":"便民商店/便利店","address":"城中东路243"},{"poiid":"B2094750DA65A6F4409B","title":"朱家角镇","lon":"121.121879","lat":"31.151987","category":"500","category_name":"未知分类","address":null},{"poiid":"B2094654DB69A4FF419E","title":"文峰美容美发(城中东路店)","lon":"121.12012","lat":"31.14641","category":"148","category_name":"美容美发店","address":"青浦区城中东路259-267号(城中东路浦仓路)"},{"poiid":"B2094752D264A7FE4799","title":"艾杩咖啡","lon":"121.126394","lat":"31.146749","category":"500","category_name":"未知分类","address":"青浦区青浦青湖路(近华青南路)"},{"poiid":"B2094655D268A5FE439C","title":"青浦区教师进修学院(北门)","lon":"121.12047","lat":"31.14854","category":"678","category_name":"学校大门","address":""},{"poiid":"B2094752D165A2FB469D","title":"艾玛咖啡","lon":"121.127899","lat":"31.147671","category":"247","category_name":"餐饮美食","address":"青湖路"},{"poiid":"B2094757D664A6F5489F","title":"克莉丝汀 章浜路店","lon":"121.118443054","lat":"31.147018793","category":"112","category_name":"糕饼店","address":"青浦区章浜路2号(城中东路口)"},{"poiid":"B2094654DA6BA5F9429B","title":"夏阳街道党员服务中心","lon":"121.12313","lat":"31.14615","category":"248","category_name":"生活娱乐","address":"青浦区保安路103号城东新村第二综合楼"},{"poiid":"B2094655D268A1FD469C","title":"车之翼青浦新亚店","lon":"121.12602","lat":"31.14718","category":"159","category_name":"汽车维修","address":"淀浦河东路205-209"},{"poiid":"B2094654DA6BA5F9499F","title":"城东菜市场","lon":"121.12113","lat":"31.1459","category":"117","category_name":"便民商店/便利店","address":""},{"poiid":"B2094654DA6BA5FA409F","title":"城东三区5号门","lon":"121.12114","lat":"31.14542","category":"47","category_name":"住宅区","address":""},{"poiid":"B2094654DA6BA5FD4992","title":"汽车装潢(青浦区人民政府夏阳街道办事处南)","lon":"121.12603","lat":"31.14764","category":"159","category_name":"汽车维修","address":"淀浦河东路225"},{"poiid":"B2094757D16AA5F84299","title":"莱欧发形","lon":"121.120867035","lat":"31.149010844","category":"148","category_name":"美容美发店","address":"上海市青浦区公园路351号"},{"poiid":"B2094654DA6BA5FA429F","title":"城东新村三区4号门","lon":"121.12131","lat":"31.14438","category":"47","category_name":"住宅区","address":"青浦镇"},{"poiid":"B2094751DA6FA6F9469D","title":"巴黎纯K","lon":"121.126987","lat":"31.148431","category":"500","category_name":"未知分类","address":"青湖路"},{"poiid":"B2094655D268A6FC419E","title":"青浦区文化馆影视厅","lon":"121.125635","lat":"31.150531","category":"178","category_name":"电影院","address":""},{"poiid":"B2094757D06BA1FB4092","title":"鑫洋桌球俱乐部","lon":"121.118713035","lat":"31.150653876","category":"171","category_name":"台球厅","address":"上海青浦区体育场路"},{"poiid":"B2094655D265A6FA469F","title":"飞利浦国美上海朱泾店","lon":"121.12029","lat":"31.14898","category":"138","category_name":"家电电子卖场","address":"朱泾镇公园路288号"},{"poiid":"B2094655D26BA1FE4093","title":"农工商","lon":"121.11966","lat":"31.14865","category":"38","category_name":"公交车站","address":""},{"poiid":"B2094654DA6BA6FC449C","title":"青浦商城二区","lon":"121.12082","lat":"31.15036","category":"46","category_name":"楼宇","address":""},{"poiid":"B2094654DA6BA6FD4192","title":"上海职业介绍青浦分中心","lon":"121.12289","lat":"31.1496","category":"252","category_name":"楼宇机构","address":"公园路200号"},{"poiid":"B2094655D36DA7FD419C","title":"章浜新村","lon":"121.11996","lat":"31.14571","category":"47","category_name":"住宅区","address":"章浜路1弄"},{"poiid":"B2094757D164A5FF489B","title":"寻梦缘","lon":"121.123924","lat":"31.149684","category":"500","category_name":"未知分类","address":"上海金山公园路…"},{"poiid":"B2094757D16BA3FA4399","title":"农业银行环城支行","lon":"121.120359571","lat":"31.1465433945","category":"150","category_name":"银行","address":"上海市青浦区城中东路222-244号(双号)"},{"poiid":"B2094654DA6BA6FD419E","title":"上海市青浦区科学技术协会","lon":"121.12536","lat":"31.15055","category":"250","category_name":"公园户外","address":"公园路78-80"},{"poiid":"B2094757D164A5F4419A","title":"交通银行","lon":"121.12112203","lat":"31.149092845","category":"150","category_name":"银行","address":"上海市青浦区公园路"},{"poiid":"B2094655D26FAAFF449F","title":"青浦科技园商务中心","lon":"121.11917","lat":"31.14907","category":"46","category_name":"楼宇","address":"公园路348"},{"poiid":"B2094654DA6BA6FD4198","title":"上海市青浦区文化馆","lon":"121.12535","lat":"31.15032","category":"188","category_name":"文化宫","address":"公园路78-80"},{"poiid":"B2094655D36CA6FD4293","title":"公园路农工商","lon":"121.11958","lat":"31.14863","category":"38","category_name":"公交车站","address":""},{"poiid":"B2094655D268A5F84693","title":"斧韵绿地","lon":"121.11988","lat":"31.14892","category":"196","category_name":"公园","address":""},{"poiid":"B2094757D56EA6FD449D","title":"达芙妮-青浦东方商厦店","lon":"121.123924","lat":"31.149684","category":"249","category_name":"购物服务","address":"公园路700号"},{"poiid":"B2094757D165A2FC489A","title":"阿玛尼美容美发中心","lon":"121.119777935","lat":"31.1485261345","category":"500","category_name":"未知分类","address":"上海青浦区城中东路"},{"poiid":"B2094655D268A6FC4092","title":"通天大厦","lon":"121.11988","lat":"31.14965","category":"46","category_name":"楼宇","address":""},{"poiid":"B2094655D26FABFA409E","title":"保安新村(西门)","lon":"121.1246","lat":"31.14688","category":"656","category_name":"大门","address":""},{"poiid":"B2094655D36CA5FF439E","title":"城中东路章浜路","lon":"121.118","lat":"31.14647","category":"38","category_name":"公交车站","address":""},{"poiid":"B2094654DA6BA5F84093","title":"浦东鸡美食城青浦店","lon":"121.11799","lat":"31.14681","category":"68","category_name":"快餐厅","address":"青浦区救护大队路15号(城中东路章浜路)"},{"poiid":"B2094654DA6BA5FE479A","title":"青浦区就业培训技术指导中心","lon":"121.12152","lat":"31.14723","category":"248","category_name":"生活娱乐","address":"浦仓路252号"},{"poiid":"B2094654DA6BA6FD4092","title":"中国农业银行上海市青浦支行","lon":"121.12611","lat":"31.15078","category":"150","category_name":"银行","address":"青浦镇"},{"poiid":"B2094655D36CA2F8419A","title":"青湖路晨兴公寓","lon":"121.12874","lat":"31.14599","category":"38","category_name":"公交车站","address":""},{"poiid":"B2094753D764AAF8459E","title":"鹭鹭小馆","lon":"121.120201","lat":"31.143415","category":"247","category_name":"餐饮美食","address":"上海市 公园路544号稻香村1楼"},{"poiid":"B2094757D16EAAF94992","title":"鼎萃食坊(桥梓湾店)","lon":"121.12837","lat":"31.1509","category":"247","category_name":"餐饮美食","address":"青浦区公园路666弄11号桥梓湾购物中心广场外圈(聚星街公园路)"},{"poiid":"B2094757D66CA1FE419C","title":"龙祥商业街","lon":"121.121210435","lat":"31.1487413387","category":"500","category_name":"未知分类","address":"洛阳龙祥街"},{"poiid":"B2094757D569A7FD449D","title":"姚太太(浦仓路)","lon":"121.12137587","lat":"31.14852024","category":"249","category_name":"购物服务","address":"浦仓路332"},{"poiid":"B2094655D268A0F94899","title":"湖燕大楼(东门)","lon":"121.11975","lat":"31.14832","category":"47","category_name":"住宅区","address":"公园路339弄"},{"poiid":"B2094757D164A2FD449A","title":"爱心献血点(公园路)","lon":"121.119472","lat":"31.148716","category":"162","category_name":"医院","address":"上海公园路350号(近欧洲街)"},{"poiid":"B209475CD26BA5F54892","title":"澜隐茶餐厅","lon":"121.125999","lat":"31.144603","category":"500","category_name":"未知分类","address":"上海市 青浦区外青松公路青湖路"},{"poiid":"B2094654DA6BA5FF439E","title":"环城新村","lon":"121.11898","lat":"31.14697","category":"47","category_name":"住宅区","address":"城中东路322"},{"poiid":"B2094654DB64A3F54898","title":"上海青浦区新力量进修学校","lon":"121.12028","lat":"31.14851","category":"53","category_name":"成人教育","address":"公园路309"},{"poiid":"B2094655D268A0F94898","title":"湖燕大楼","lon":"121.11962","lat":"31.14831","category":"47","category_name":"住宅区","address":"公园路339弄"},{"poiid":"B2094655D26FABFF4899","title":"城东三区","lon":"121.12002","lat":"31.14507","category":"47","category_name":"住宅区","address":""},{"poiid":"B2094654DA6BA0FF479E","title":"舜浦世外苑","lon":"121.12706","lat":"31.14439","category":"47","category_name":"住宅区","address":""},{"poiid":"B2094757D16EA5F8489B","title":"民生银行青浦分行","lon":"121.127682381","lat":"31.146018994","category":"150","category_name":"银行","address":"青浦区青湖路1023号(近青松公路)"},{"poiid":"B2094750DA6CABFD439F","title":"仙芋传奇","lon":"121.11814","lat":"31.14702","category":"67","category_name":"甜品店","address":"青浦区救护大队路15号(近城中东路)"},{"poiid":"B2094655D268A4FD469D","title":"大豪公寓(南门)","lon":"121.12429","lat":"31.15223","category":"47","category_name":"住宅区","address":""},{"poiid":"B2094654DA6BA5FF409D","title":"艾克斯诚嘉房产经纪有限公司","lon":"121.12104","lat":"31.14689","category":"248","category_name":"生活娱乐","address":"浦仓路251号"},{"poiid":"B2094654DA6BA5FF4598","title":"桂林米粉店(救护大队路)","lon":"121.11843","lat":"31.14692","category":"87","category_name":"特色／地方风味餐厅","address":"救护大队路20"},{"poiid":"B2094655D26FABFF489F","title":"保安新村(东门)","lon":"121.12602","lat":"31.14772","category":"656","category_name":"大门","address":"淀浦河东路225号"},{"poiid":"B2094654DA6BA7FB469D","title":"小食坊龙虾馆","lon":"121.12136","lat":"31.15141","category":"88","category_name":"海鲜酒楼","address":""},{"poiid":"B2094757D064A2F54892","title":"上海新虹桥智选假日酒店 Holiday Inn Express","lon":"121.124178","lat":"31.150681","category":"217","category_name":"旅馆招待所","address":"上海青浦区沪青平路1915号"},{"poiid":"B2094654DA6BA5F8499F","title":"流艺美容美发有限公司连锁机构NO.1","lon":"121.11888","lat":"31.14625","category":"148","category_name":"美容美发店","address":"城中东路337"},{"poiid":"B2094655D268A6FB459F","title":"保安新村(南门)","lon":"121.12548","lat":"31.14679","category":"656","category_name":"大门","address":""},{"poiid":"B2094655D268A4FC4898","title":"界泾港新村(南门)","lon":"121.12215","lat":"31.1519","category":"47","category_name":"住宅区","address":""},{"poiid":"B2094654DA6BA7FB459E","title":"丽婴房(浦仓路)","lon":"121.12126","lat":"31.1506","category":"128","category_name":"儿童用品店","address":"浦仓路474"},{"poiid":"B2094655D268A6FE479B","title":"城东新村二区(东门)","lon":"121.12326","lat":"31.14537","category":"656","category_name":"大门","address":""},{"poiid":"B2094654DA6BA6F8469F","title":"上海申生宠物诊疗有限公司","lon":"121.12347","lat":"31.15211","category":"162","category_name":"医院","address":"青浦区体育场路122-124号"},{"poiid":"B2094654DA6BA6F8469A","title":"好德N0.132","lon":"121.12413","lat":"31.15223","category":"117","category_name":"便民商店/便利店","address":"体育场路90"},{"poiid":"B2094655D26FABFA409F","title":"环城新村(南门)","lon":"121.119","lat":"31.14662","category":"47","category_name":"住宅区","address":"城中东路322"},{"poiid":"B2094655D265A5F8499E","title":"索尼食堂","lon":"121.12344","lat":"31.14277","category":"257","category_name":"中餐厅","address":"卢湾区湖滨路222号企业天地1号楼7楼(近济南路)"},{"poiid":"B2094655D36CA1F4449E","title":"老车站","lon":"121.11853","lat":"31.14853","category":"38","category_name":"公交车站","address":""},{"poiid":"B2094655D26FABFF4099","title":"城东新村(北门)","lon":"121.1221","lat":"31.14634","category":"656","category_name":"大门","address":""},{"poiid":"B2094654DA6BA0F8459B","title":"科普小区","lon":"121.12885","lat":"31.1462","category":"47","category_name":"住宅区","address":""},{"poiid":"B2094654DA6BA5FF479B","title":"上海绿色科技园区(救护大队路)","lon":"121.1183","lat":"31.14744","category":"45","category_name":"产业园区","address":"救护大队路52号"},{"poiid":"B2094654DA6BA6FC4193","title":"青浦游泳馆","lon":"121.12051","lat":"31.15202","category":"231","category_name":"游泳馆","address":"青浦区浦仓路535号(欧洲街体育场路)"},{"poiid":"B2094757D168A0FB439E","title":"新华书店(青浦公园路店)","lon":"121.11815","lat":"31.14848","category":"125","category_name":"书店","address":"青浦区公园路420号(近凯特莉广场)"},{"poiid":"B2094654DA6BA0FF499B","title":"天天过年酒楼","lon":"121.1292","lat":"31.14468","category":"70","category_name":"综合酒楼","address":""},{"poiid":"B2094757D065ABFD4298","title":"河科大第二食堂三楼","lon":"121.119835471","lat":"31.1466060957","category":"500","category_name":"未知分类","address":"洛阳开元大道"},{"poiid":"B2094654DA6BA1F44493","title":"上海市电力公司青浦供电分公司","lon":"121.12709","lat":"31.15271","category":"263","category_name":"公司","address":"外青松公路6155号"},{"poiid":"B2094655D26FABFF4898","title":"保安新村(北门)","lon":"121.12553","lat":"31.14605","category":"656","category_name":"大门","address":""},{"poiid":"B2094654DA6BA5FF489C","title":"晓雪新人美容美发","lon":"121.11767","lat":"31.14737","category":"148","category_name":"美容美发店","address":"车站支一路24"},{"poiid":"B2094654DA6BA5FA4499","title":"城东三区1号门","lon":"121.11874","lat":"31.14561","category":"47","category_name":"住宅区","address":"章浜路"},{"poiid":"B2094655D268A6FB459B","title":"城东新村二区(西一门)","lon":"121.12351","lat":"31.14535","category":"656","category_name":"大门","address":""},{"poiid":"B2094757D06AAAF8419A","title":"体育场路","lon":"121.122568","lat":"31.151982","category":"260","category_name":"其他","address":"上海青浦区体育场路"},{"poiid":"B2094757D66EAAFB4599","title":"清泉会所","lon":"121.12198703","lat":"31.152011902","category":"148","category_name":"美容美发店","address":"上海青浦区体育场路"},{"poiid":"B2094654DA6BA5F84993","title":"竺缘足浴保健中心","lon":"121.11923","lat":"31.14626","category":"149","category_name":"洗浴推拿场所","address":"城中东路319"},{"poiid":"B2094654DA6BA7FB469A","title":"耐克特许零售商(浦仓路)","lon":"121.12124","lat":"31.15091","category":"140","category_name":"体育用品店","address":"青浦区浦仓路488号1楼(浦仓路体育场路)"},{"poiid":"B2094655D26FABFB4199","title":"新青浦花苑华源别墅(南门)","lon":"121.12453","lat":"31.15228","category":"47","category_name":"住宅区","address":"体育场路68弄"},{"poiid":"B2094654DA6BA5FA4898","title":"上海电视大学青浦分校一站式学生支持服务中心","lon":"121.11846","lat":"31.1443","category":"52","category_name":"高等院校","address":""},{"poiid":"B2094654DA6BA6FD4193","title":"巴黎最爱婚纱摄影店","lon":"121.1196","lat":"31.14881","category":"248","category_name":"生活娱乐","address":""},{"poiid":"B2094654DA6BA5F8449A","title":"好德便利NO.134","lon":"121.11759","lat":"31.14711","category":"117","category_name":"便民商店/便利店","address":"车站路"},{"poiid":"B2094654DA6BA5FF429A","title":"和春堂药店","lon":"121.11998","lat":"31.14665","category":"669","category_name":"药店","address":"城中东路262-266"},{"poiid":"B2094654DA6BA5FA4598","title":"三匠美容美发形象会所章浜总店","lon":"121.11815","lat":"31.14614","category":"148","category_name":"美容美发店","address":""},{"poiid":"B2094654DA6BA6FD429A","title":"交通银行上海青浦支行","lon":"121.11897","lat":"31.14894","category":"150","category_name":"银行","address":"青浦区公园路348号(欧洲街公园路)"},{"poiid":"B2094655D268A6FE479A","title":"城东新村二区(北门)","lon":"121.12269","lat":"31.14433","category":"656","category_name":"大门","address":""},{"poiid":"B2094655D268A6FE4798","title":"城东新村二区(西二门)","lon":"121.12162","lat":"31.14525","category":"656","category_name":"大门","address":""},{"poiid":"B2094654DB69A0F4499F","title":"青浦区档案馆","lon":"121.12492","lat":"31.15106","category":"193","category_name":"档案馆","address":"公园路86弄"},{"poiid":"B2094654DA6BA5FB489D","title":"上海农村商业银行青浦支行","lon":"121.11827","lat":"31.14825","category":"150","category_name":"银行","address":"公园路399"},{"poiid":"B2094757D069A0FB409B","title":"DQ(青浦店)","lon":"121.11949974","lat":"31.147549374","category":"260","category_name":"其他","address":"上海近郊青浦区公园路666弄5号"},{"poiid":"B2094757D568A4F9409D","title":"史泰博青湖店","lon":"121.1292728","lat":"31.14599139","category":"139","category_name":"文化用品店","address":"青浦区青湖路1038号"},{"poiid":"B2094654DA6BA6FE419B","title":"青浦海贝业余英语学校","lon":"121.11916","lat":"31.14935","category":"190","category_name":"培训机构","address":"欧洲街21"},{"poiid":"B2094654DA6BA6FC489C","title":"上海京都盲人保健按摩中心","lon":"121.11976","lat":"31.15074","category":"149","category_name":"洗浴推拿场所","address":"青浦区欧洲街74弄13号(欧洲街体育场路)"},{"poiid":"B2094655D26FABF9409C","title":"城东新村(东门)","lon":"121.12093","lat":"31.1485","category":"656","category_name":"大门","address":""},{"poiid":"B2094655D26FABFE499F","title":"城东新村二区(西门)","lon":"121.12376","lat":"31.14455","category":"656","category_name":"大门","address":""},{"poiid":"B2094750DA6FAAF5449A","title":"草帽酒吧","lon":"121.11956","lat":"31.150024","category":"248","category_name":"生活娱乐","address":"青浦区欧洲街"},{"poiid":"B2094654DA6BA5FA489A","title":"金叶便利NO.002","lon":"121.1184","lat":"31.14463","category":"117","category_name":"便民商店/便利店","address":"章浜路88"},{"poiid":"B2094654DA6BA5FA439F","title":"城东三区3号门","lon":"121.11912","lat":"31.14339","category":"47","category_name":"住宅区","address":"章浜新村23号"},{"poiid":"B2094654DA6BA6FD4293","title":"亲亲宝贝专业儿童摄影","lon":"121.11955","lat":"31.14904","category":"248","category_name":"生活娱乐","address":""},{"poiid":"B2094654DA6BA6FC4693","title":"上海市邮政局青浦区局","lon":"121.11988","lat":"31.14965","category":"248","category_name":"生活娱乐","address":"青浦镇"},{"poiid":"B2094757D66EA7FA4592","title":"青浦联通旗舰厅","lon":"121.118366035","lat":"31.1486868377","category":"500","category_name":"未知分类","address":"上海市青浦区公园路406号"},{"poiid":"B2094654DA6BA7FB499E","title":"清泉足浴保健","lon":"121.12203","lat":"31.15189","category":"149","category_name":"洗浴推拿场所","address":"体育场路196"},{"poiid":"B2094655D26FABFA4192","title":"晨兴花园(南门)","lon":"121.12186","lat":"31.14986","category":"656","category_name":"大门","address":""},{"poiid":"B2094655D26FABFA4098","title":"教苑新村(南门)","lon":"121.1203","lat":"31.14668","category":"656","category_name":"大门","address":"城中东路248弄"},{"poiid":"B2094654DA6BA5F8429C","title":"啦啦(车站路)","lon":"121.11763","lat":"31.14668","category":"141","category_name":"服装鞋帽皮具店","address":"车站路8号"},{"poiid":"B2094655D268A5FE4399","title":"教苑新村(北门)","lon":"121.11986","lat":"31.14815","category":"656","category_name":"大门","address":""},{"poiid":"B2094655D26FABFE4998","title":"城东新村(西门)","lon":"121.12413","lat":"31.14401","category":"656","category_name":"大门","address":""},{"poiid":"B2094757D168A6F84892","title":"兴业银行青浦支行","lon":"121.129848","lat":"31.146161","category":"150","category_name":"银行","address":"上海青浦区青湖路1010号"},{"poiid":"B2094757D66EA5FE429B","title":"王保长","lon":"121.12839603","lat":"31.151020883","category":"500","category_name":"未知分类","address":"上海青浦区"},{"poiid":"B2094757D66CA1FE4499","title":"晓雪美容","lon":"121.117601","lat":"31.14698","category":"148","category_name":"美容美发店","address":"上海青浦车站路"},{"poiid":"B2094654DA6BA0FF419C","title":"轻钢龙骨石膏板批发(青浦建材市场内)","lon":"121.12683","lat":"31.14178","category":"123","category_name":"家具建材市场","address":""},{"poiid":"B2094654DA6BA6FD489A","title":"前翔保健按摩","lon":"121.11906","lat":"31.15085","category":"149","category_name":"洗浴推拿场所","address":"欧洲街75号"},{"poiid":"B2094654DA6BA6FC489F","title":"中国东方航空青浦商城路售票处","lon":"121.11979","lat":"31.15056","category":"28","category_name":"飞机票代售点","address":"商城路101"},{"poiid":"B2094655D26FABFA4099","title":"教苑新村(南二门)","lon":"121.11957","lat":"31.14664","category":"656","category_name":"大门","address":""},{"poiid":"B2094654DA6BA6FD4792","title":"上海市海曼文化艺术专修学校青浦教学点","lon":"121.11907","lat":"31.15099","category":"190","category_name":"培训机构","address":""},{"poiid":"B2094655D268A4FC489F","title":"晨兴花园(北门)","lon":"121.12253","lat":"31.15161","category":"656","category_name":"大门","address":"青浦镇"},{"poiid":"B2094655D268A4FC469D","title":"青浦区体育场(东门)","lon":"121.12071","lat":"31.15216","category":"656","category_name":"大门","address":""},{"poiid":"B2094655D268A5F5479C","title":"晨兴花园(西门)","lon":"121.12123","lat":"31.15108","category":"656","category_name":"大门","address":"青浦镇"},{"poiid":"B2094655D268A6FE4693","title":"城东新村(南门)","lon":"121.12455","lat":"31.14298","category":"656","category_name":"大门","address":""},{"poiid":"B2094655D26FABFF409A","title":"帕缇欧香苑(北门)","lon":"121.12357","lat":"31.14135","category":"656","category_name":"大门","address":""},{"poiid":"B2094655D268A6FB4599","title":"大盈公寓(东门)","lon":"121.11824","lat":"31.14551","category":"656","category_name":"大门","address":""},{"poiid":"B2094655D26FABFE4992","title":"帕缇欧香苑东区(西门)","lon":"121.12501","lat":"31.14136","category":"656","category_name":"大门","address":""}]