[{"poiid":"B2094757D06FA4F9449D","title":"海上皇宫大酒店","lon":"121.52394321","lat":"31.264527791","category":"72","category_name":"广东菜","address":"杨浦区长阳路1080号(近江浦路)"},{"poiid":"B2094757D06FA0F8409D","title":"江浦公园","lon":"121.524354472","lat":"31.2657463287","category":"196","category_name":"公园","address":"杨浦区长阳路1111号(江浦路口)"},{"poiid":"B2094655D265A6FE4898","title":"北美广场","lon":"121.519","lat":"31.2658","category":"46","category_name":"楼宇","address":"上海市杨浦区昆明路508号"},{"poiid":"B2094757D068A6FA499A","title":"江浦路","lon":"121.521928","lat":"31.2667454","category":"260","category_name":"其他","address":"上海杨浦区江浦路"},{"poiid":"B2094757D06FA5FB429F","title":"上海烟草集团有限责任公司","lon":"121.51818084","lat":"31.262939453","category":"46","category_name":"楼宇","address":"上海杨浦区长阳路717号"},{"poiid":"B2094655D26CA6FB439C","title":"尚凯商务大厦","lon":"121.52232","lat":"31.26661","category":"46","category_name":"楼宇","address":"浦东新区金湘路345号"},{"poiid":"B2094655D36CA5F8479A","title":"长阳路","lon":"121.52315","lat":"31.26529","category":"38","category_name":"公交车站","address":""},{"poiid":"B2094757D069A6FE439F","title":"控江中学附属民办学校","lon":"121.521292","lat":"31.264753","category":"500","category_name":"未知分类","address":"上海怀德路1000号"},{"poiid":"B2094757D06AA6FD4399","title":"合生高尔夫公寓","lon":"121.51923","lat":"31.266729","category":"500","category_name":"未知分类","address":"杨浦区江浦路1095号(靠近周家嘴路)"},{"poiid":"B2094757D068A7F54798","title":"金上海家园","lon":"121.521124","lat":"31.266825","category":"196","category_name":"公园","address":"上海市杨浦区江浦路1057号"},{"poiid":"B2094757D068A2FC459C","title":"杨浦区社会保险事业管理中心","lon":"121.525407","lat":"31.262155","category":"252","category_name":"楼宇机构","address":"上海杨浦区江浦路736号"},{"poiid":"B2094655D26CA6F4409D","title":"上海国际设计交流中心","lon":"121.52453","lat":"31.26455","category":"263","category_name":"公司","address":"杨浦区长阳路1080号(近江浦路)"},{"poiid":"B2094757D069A3FD4493","title":"婚姻登记处(杨浦区登记处)","lon":"121.52590489","lat":"31.26505761","category":"46","category_name":"楼宇","address":"上海杨浦区齐齐哈尔路828号(近长阳路)"},{"poiid":"B2094757D068A3F5449D","title":"长阳路江浦路","lon":"121.52294158","lat":"31.265565872","category":"500","category_name":"未知分类","address":"上海长阳路江浦路"},{"poiid":"B2094757D068ABFB429B","title":"许昌路霍山路","lon":"121.522648","lat":"31.261791","category":"500","category_name":"未知分类","address":"上海许昌路霍山路"},{"poiid":"B2094655D26BA2F9439A","title":"提蓝桥","lon":"121.52231","lat":"31.2661","category":"260","category_name":"其他","address":"杨浦区江浦路"},{"poiid":"B2094757D068A0FC439B","title":"现代星洲城三期","lon":"121.52221","lat":"31.267971","category":"47","category_name":"住宅区","address":"上海市杨浦区江浦路1100弄"},{"poiid":"B2094757D16DA7FC4899","title":"上海卷烟厂中华专线生产工房","lon":"121.52074903","lat":"31.263605366","category":"46","category_name":"楼宇","address":"上海杨浦区长阳路787号(近怀德路)"},{"poiid":"B2094654D56EA5FC4692","title":"上海卷烟厂","lon":"121.51818","lat":"31.26294","category":"263","category_name":"公司","address":"长阳路733号"},{"poiid":"B2094757D068A2FE4898","title":"明园村小区","lon":"121.52177","lat":"31.262873","category":"252","category_name":"楼宇机构","address":"上海长阳路910弄(近怀德路)"},{"poiid":"B2094654DB69A5F5449C","title":"格林豪泰酒店(大连路站店)","lon":"121.52268","lat":"31.26442","category":"216","category_name":"经济型连锁酒店","address":"杨浦区长阳路999号"},{"poiid":"B2094757D16AA1F84793","title":"小峰酒家(长阳路店)","lon":"121.52321","lat":"31.26409","category":"76","category_name":"上海菜","address":"杨浦区长阳路999号(近江浦路)"},{"poiid":"B2094655D26EA0FD439C","title":"江浦路989弄小区","lon":"121.5223","lat":"31.26557","category":"47","category_name":"住宅区","address":"江浦路989弄"},{"poiid":"B2094655D26FA5F8469E","title":"莫泰168连锁旅店许昌路店","lon":"121.5228","lat":"31.26179","category":"216","category_name":"经济型连锁酒店","address":"上海杨浦区霍山路890号(近大连路隧道浦西出口)  "},{"poiid":"B2094655D265A6FC479B","title":"box商务楼","lon":"121.52223","lat":"31.26469","category":"46","category_name":"楼宇","address":"长阳路999号"},{"poiid":"B2094655D26EA3F9469A","title":"江浦路989弄小区(北门)","lon":"121.52249","lat":"31.26573","category":"47","category_name":"住宅区","address":"江浦路989弄"},{"poiid":"B2094757D069A4FD4999","title":"70路江浦路长阳路站","lon":"121.52312426","lat":"31.265218485","category":"38","category_name":"公交车站","address":"上海市杨浦区江浦路近长阳路北侧"},{"poiid":"B2094655D26FA2F84293","title":"77街坊第一","lon":"121.52252","lat":"31.2658","category":"47","category_name":"住宅区","address":"杨浦区长阳路1021-1039号江浦路989弄1-5号"},{"poiid":"B2094654DB6BA2FC499B","title":"梅邨(北门)","lon":"121.52287","lat":"31.26538","category":"47","category_name":"住宅区","address":"江浦路969弄"},{"poiid":"B2094757D16FABFE429B","title":"教科院附中羽毛球馆","lon":"121.52156","lat":"31.26448","category":"220","category_name":"运动场所","address":"杨浦区怀德路1000号(近长阳路)"},{"poiid":"B2094757D469A7FC4093","title":"静安面包房 长阳店 JING AN BAKERY","lon":"121.525222054","lat":"31.265359793","category":"112","category_name":"糕饼店","address":"杨浦区长阳路1161号(近江浦路)"},{"poiid":"B2094757D169A6F84392","title":"老俞头面馆","lon":"121.5219151","lat":"31.264161291","category":"247","category_name":"餐饮美食","address":"上海市杨浦区霍山路近许昌路"},{"poiid":"B2094655D36CA5F8469D","title":"长阳路怀德路","lon":"121.5224","lat":"31.26401","category":"38","category_name":"公交车站","address":""},{"poiid":"B2094655D26CA7FA489A","title":"上海烟草(集团)公司(许昌路)","lon":"121.51838","lat":"31.26465","category":"263","category_name":"公司","address":"许昌路1061"},{"poiid":"B2094757D16DA2F9439C","title":"长阳路999号商务楼","lon":"121.522457103","lat":"31.2648823065","category":"500","category_name":"未知分类","address":"上海市杨浦区长阳路999号商务楼"},{"poiid":"B2094654D56EABF5499A","title":"阳明新城","lon":"121.5214","lat":"31.269705","category":"47","category_name":"住宅区","address":"阳明新城位于杨浦江浦路1188号"},{"poiid":"B2094655D269AAFB4892","title":"时尚芭莎","lon":"121.52436","lat":"31.26574","category":"247","category_name":"餐饮美食","address":"杨浦区长阳路1111号江浦公园内(近江浦路)"},{"poiid":"B2094757D168AAF9439C","title":"顶好蛙干锅","lon":"121.522278","lat":"31.264044","category":"247","category_name":"餐饮美食","address":"上海杨浦区双阳路店，近长阳路"},{"poiid":"B2094655D26CA6FE429F","title":"霍兰公寓","lon":"121.52663","lat":"31.26543","category":"47","category_name":"住宅区","address":"长阳路1220弄"},{"poiid":"B2094654D56EAAFC479E","title":"上海双钱橡胶有限公司销售经营部","lon":"121.52178","lat":"31.26598","category":"255","category_name":"专卖店","address":"昆明路1100号3层"},{"poiid":"B2094757D66CA4F44392","title":"上海卷烟厂中华专线辅助工房","lon":"121.519415571","lat":"31.2653694026","category":"46","category_name":"楼宇","address":"上海杨浦区昆明路887号(近许昌路)"},{"poiid":"B2094654D56EAAFC469A","title":"杨浦区城市规划展示馆","lon":"121.52434","lat":"31.26516","category":"183","category_name":"展览馆","address":"杨浦区长阳路1111号(近江浦路)"},{"poiid":"B2094757D06BA5FA4492","title":"教科院附中","lon":"121.52129364","lat":"31.264753341","category":"253","category_name":"校园生活","address":"上海杨浦区怀德路1000号"},{"poiid":"B2094655D26FA0FE449A","title":"长阳楼(东门)","lon":"121.52157","lat":"31.26403","category":"47","category_name":"住宅区","address":"长阳路941弄1-3号"},{"poiid":"B2094757D76CA7FB419E","title":"良子烧烤","lon":"121.52563","lat":"31.2651","category":"68","category_name":"快餐厅","address":"杨浦区齐齐哈尔路835号(近长阳路)"},{"poiid":"B2094655D26CA6FB439E","title":"华安坊(北门)","lon":"121.52251","lat":"31.26389","category":"47","category_name":"住宅区","address":"长阳路972"},{"poiid":"B2094757D06AA6FD459D","title":"中国工商银行(长阳支行)","lon":"121.52463","lat":"31.26547","category":"150","category_name":"银行","address":"杨浦区长阳路1140号江浦公园对面(长阳路齐齐哈尔路)"},{"poiid":"B2094757D569A7F4409D","title":"诚品书店长阳路店","lon":"121.5223611","lat":"31.26409111","category":"125","category_name":"书店","address":"长阳路983号"},{"poiid":"B2094757D06BA3FD439D","title":"交通银行风险监督中心","lon":"121.524594103","lat":"31.2643474525","category":"46","category_name":"楼宇","address":"上海长阳路1180号"},{"poiid":"B2094654DB6BA2FC4999","title":"上岛咖啡(长阳店)","lon":"121.52452","lat":"31.26456","category":"260","category_name":"其他","address":"杨浦区长阳路1080号2号楼(近江浦路)"},{"poiid":"B2094655D26EA3F94593","title":"华安坊(长阳路)","lon":"121.5226","lat":"31.26368","category":"47","category_name":"住宅区","address":"浙江北路405"},{"poiid":"B2094654D56EAAFD419D","title":"平盛苑","lon":"121.52336","lat":"31.263367","category":"47","category_name":"住宅区","address":"上海市杨浦区江浦路821号"},{"poiid":"B2094655D26CA6FB4399","title":"成昂里","lon":"121.52363","lat":"31.26416","category":"47","category_name":"住宅区","address":"长阳路1042弄"},{"poiid":"B2094757D66CA4F54993","title":"东方有线网络有限公司(杨浦分公司)","lon":"121.524705403","lat":"31.2645614998","category":"46","category_name":"楼宇","address":"上海杨浦区长阳路1080号(汇星广场)"},{"poiid":"B2094757D069AAFC4198","title":"iC.运动综合馆(通北路站)","lon":"121.522716","lat":"31.260681","category":"220","category_name":"运动场所","address":"上海杨浦区济宁路201号(近许昌路)"},{"poiid":"B2094750D665A0FF4793","title":"齐齐哈尔路烧烤摊","lon":"121.526","lat":"31.2652","category":"68","category_name":"快餐厅","address":"杨浦区齐齐哈尔路(近长阳路)"},{"poiid":"B2094750D76FA1FE419D","title":"潮汕砂煲粥","lon":"121.526","lat":"31.2661","category":"68","category_name":"快餐厅","address":"杨浦区长阳路1183号(长阳欧尚超市对面)"},{"poiid":"B2094757D164A5FF459C","title":"蒋家浜小街","lon":"121.5247951","lat":"31.269289398","category":"47","category_name":"住宅区","address":"上海杨浦区蒋家浜小街"},{"poiid":"B2094750D26BA1F4469B","title":"970烧烤","lon":"121.521614","lat":"31.263284","category":"68","category_name":"快餐厅","address":"杨浦区怀德路970号(近长阳路)"},{"poiid":"B2094655D36CA5F8469B","title":"长阳路许昌路","lon":"121.52036","lat":"31.26308","category":"38","category_name":"公交车站","address":""},{"poiid":"B2094655D26CA6FB439D","title":"江浦公园齐齐哈尔路出口","lon":"121.5251","lat":"31.26591","category":"196","category_name":"公园","address":""},{"poiid":"B2094757D06BA2F54592","title":"加油宝贝婴幼儿游泳馆(江浦店)","lon":"121.52196928","lat":"31.266816718","category":"128","category_name":"儿童用品店","address":"杨浦区江浦路1074号现代新洲城3期(近江浦公园)"},{"poiid":"B2094757D164A4F4479A","title":"许昌路长阳路","lon":"121.522186553","lat":"31.2636943817","category":"500","category_name":"未知分类","address":"上海许昌路长阳路"},{"poiid":"B2094757D66EABFA4092","title":"秋庭小吃","lon":"121.52454","lat":"31.26276","category":"68","category_name":"快餐厅","address":"杨浦区江浦路316号(近龙江路)"},{"poiid":"B2094655D26CA6F9439C","title":"江浦公园公共篮球场","lon":"121.52478","lat":"31.26627","category":"229","category_name":"篮球场馆","address":""},{"poiid":"B2094655D26DA5FE4499","title":"汇星广场","lon":"121.52474","lat":"31.26416","category":"45","category_name":"产业园区","address":"霍山路1083"},{"poiid":"B2094654D56EABF54799","title":"阳明苑","lon":"121.52218","lat":"31.269125","category":"47","category_name":"住宅区","address":"上海市杨浦区江浦路1178弄"},{"poiid":"B2094757D068A6FA489B","title":"小无锡面馆","lon":"121.52208833","lat":"31.261563141","category":"260","category_name":"其他","address":"杨浦区霍山路863号(许昌路口)"},{"poiid":"B2094655D26DA4FF459E","title":"宜嘉生活广场","lon":"121.52613","lat":"31.26615","category":"119","category_name":"商场","address":"长阳路1181"},{"poiid":"B2094752DB68A7FA4898","title":"新华医院","lon":"121.525314","lat":"31.263511","category":"162","category_name":"医院","address":"上海市 中国 上海市 控江路1665"},{"poiid":"B2094655D26FA6F9469E","title":"康阳小区","lon":"121.52511","lat":"31.264534","category":"47","category_name":"住宅区","address":"长阳路1120弄"},{"poiid":"B2094757D66DA2FD4093","title":"东方有线营业厅","lon":"121.524156103","lat":"31.2645202989","category":"150","category_name":"银行","address":"上海江浦路826号"},{"poiid":"B2094655D265A1FC479D","title":"蜀千鸡公煲(杨浦店)","lon":"121.52522","lat":"31.26624","category":"86","category_name":"火锅店","address":"齐齐哈尔路880号(近长阳路)"},{"poiid":"B2094654D56EABF4439C","title":"好德便利No.309","lon":"121.52054","lat":"31.26282","category":"117","category_name":"便民商店/便利店","address":"长阳路870"},{"poiid":"B2094757D06AA6F9469F","title":"乐又靓幼儿园","lon":"121.52606","lat":"31.26441","category":"57","category_name":"幼儿园","address":"杨浦区齐齐哈尔路825号(近长阳路)"},{"poiid":"B2094654D56EA6F5489C","title":"三九商务楼","lon":"121.52036","lat":"31.26152","category":"46","category_name":"楼宇","address":"昌平区回龙观镇国际信息产业基地高新二街"},{"poiid":"B2094655D36CA0F94299","title":"江浦路济宁路","lon":"121.52455","lat":"31.26261","category":"38","category_name":"公交车站","address":""},{"poiid":"B2094655D26FA2FB479E","title":"重庆鸡公煲 许昌店","lon":"121.522161054","lat":"31.261330793","category":"71","category_name":"四川菜","address":"杨浦区许昌路782号4室(近霍山路)"},{"poiid":"B2094757D065A7FD4393","title":"杨浦大桥黄兴路闸口","lon":"121.524628655","lat":"31.2685308252","category":"260","category_name":"其他","address":"上海杨浦大桥黄兴路闸口"},{"poiid":"B2094654DB69A4FC4199","title":"好又多(霍山路店)","lon":"121.52473","lat":"31.26289","category":"118","category_name":"超级市场","address":"杨浦区霍山路(近江浦路)"},{"poiid":"B2094655D265A3F8449E","title":"佐登妮丝美容SPA生活馆江浦路店","lon":"121.52054","lat":"31.26803","category":"148","category_name":"美容美发店","address":"杨浦区江浦路1147号(近周家嘴路)"},{"poiid":"B2094654D56FA2F94593","title":"兰侨大厦","lon":"121.519","lat":"31.2625","category":"46","category_name":"楼宇","address":"兰侨大厦位于虹口上海虹口长阳288号"},{"poiid":"B2094655D36CA0FB439F","title":"济宁路","lon":"121.52458","lat":"31.26251","category":"38","category_name":"公交车站","address":""},{"poiid":"B2094655D26EA1FD459D","title":"江浦公园(南门)","lon":"121.52468","lat":"31.26525","category":"680","category_name":"楼宇机构","address":"长阳路1111"},{"poiid":"B2094757D06FA5F4489A","title":"六艺茶馆(江浦路店)","lon":"121.52067","lat":"31.26832","category":"260","category_name":"其他","address":"杨浦区江浦路1159号(近周家嘴路)"},{"poiid":"B2094757D16EA0F9479F","title":"东北饺子王","lon":"121.52065","lat":"31.27024","category":"82","category_name":"东北菜","address":"杨浦区江浦路1353号(近控江路)"},{"poiid":"B2094757D16AA2F8439B","title":"960路许昌路长阳路站","lon":"121.52072195","lat":"31.262313033","category":"38","category_name":"公交车站","address":"上海许昌路(近长阳路)"},{"poiid":"B2094757D66CA3FE4193","title":"双英婚庆","lon":"121.524105103","lat":"31.2644597977","category":"263","category_name":"公司","address":"杨浦区长阳路1163号-1167号(齐齐哈尔路口)查看地图"},{"poiid":"B2094757D069ABF8459D","title":"江浦公园篮球场","lon":"121.52479365","lat":"31.266286509","category":"220","category_name":"运动场所","address":"齐齐哈儿路920号上海印刷厂对面"},{"poiid":"B2094655D26BA7FB479B","title":"商务印刷创意园","lon":"121.52586","lat":"31.26671","category":"45","category_name":"产业园区","address":""},{"poiid":"B2094757D66CA0F8439E","title":"陆旺台球","lon":"121.5249531","lat":"31.264875306","category":"171","category_name":"台球厅","address":"上海市杨浦区长阳路江浦路口"},{"poiid":"B2094654D56EAAFC479F","title":"金上海家园(南门)","lon":"121.52119","lat":"31.26606","category":"656","category_name":"大门","address":"昆明路1147"},{"poiid":"B2094757D66FA6FF4493","title":"老愈头面馆","lon":"121.522949191","lat":"31.2621492994","category":"247","category_name":"餐饮美食","address":"上海霍山路许昌路"},{"poiid":"B2094654D56FA3F94599","title":"秦家弄小区","lon":"121.52414","lat":"31.261936","category":"47","category_name":"住宅区","address":"江浦路745弄"},{"poiid":"B2094655D26FA0FC479C","title":"阳明新城(三号门)","lon":"121.52201","lat":"31.26985","category":"47","category_name":"住宅区","address":"江浦路1188号"},{"poiid":"B2094757D16BAAF94193","title":"排挡","lon":"121.523957","lat":"31.267575","category":"500","category_name":"未知分类","address":"上海齐齐哈尔路昆明路口"},{"poiid":"B2094757D06BA7FC409A","title":"金桥高点桌球","lon":"121.52508976","lat":"31.265240347","category":"248","category_name":"生活娱乐","address":"上海金桥国际商业广场"},{"poiid":"B2094654D56EA5FC489B","title":"明昌公寓","lon":"121.52024","lat":"31.26232","category":"47","category_name":"住宅区","address":"许昌路899号"},{"poiid":"B2094655D26FA0F4489B","title":"金上海家园(东门)","lon":"121.52111","lat":"31.26683","category":"656","category_name":"大门","address":"江浦路1057弄"},{"poiid":"B2094654D56FA3F94399","title":"万登花苑","lon":"121.52551","lat":"31.262594","category":"47","category_name":"住宅区","address":"江浦路740弄"},{"poiid":"B2094654D56EAAFC4592","title":"时尚芭莎别墅摄影","lon":"121.52468","lat":"31.26542","category":"248","category_name":"生活娱乐","address":""},{"poiid":"B2094757D568A6FF4893","title":"宜嘉商务中心","lon":"121.526595","lat":"31.26705528","category":"46","category_name":"楼宇","address":"闸北区江场西路395号"},{"poiid":"B2094655D265A2F94399","title":"东方有线江浦路营业厅","lon":"121.52441","lat":"31.26373","category":"248","category_name":"生活娱乐","address":"江浦路826号"},{"poiid":"B2094757D06AAAF44393","title":"上海卷烟厂医务行政楼","lon":"121.51949378","lat":"31.262370441","category":"46","category_name":"楼宇","address":"上海杨浦区长阳路783号(近许昌路)"},{"poiid":"B2094654D56EA5FC4898","title":"阿伟宠物美容","lon":"121.5203","lat":"31.26226","category":"162","category_name":"医院","address":"许昌路891号"},{"poiid":"B2094757D065A6FA469A","title":"上海卷烟厂二号门","lon":"121.51909323","lat":"31.262475041","category":"46","category_name":"楼宇","address":"上海长阳路783号"},{"poiid":"B2094654DB64A4FF4199","title":"上海阳浦区贤明外国语专修学校","lon":"121.5235","lat":"31.26203","category":"52","category_name":"高等院校","address":"杨浦区怀德路802"},{"poiid":"B2094655D265A3FF469F","title":"豪极国际商务会所","lon":"121.52482","lat":"31.26427","category":"248","category_name":"生活娱乐","address":"杨浦区长阳路1080号汇星广场内(近江浦路)"},{"poiid":"B2094655D26FA0FC469C","title":"现代星洲城三期(南门)","lon":"121.52199","lat":"31.26696","category":"656","category_name":"大门","address":""},{"poiid":"B2094654D56EABF54893","title":"阳明商务中心","lon":"121.52094","lat":"31.26922","category":"46","category_name":"楼宇","address":"江浦路1188号"},{"poiid":"B2094654D56EA5FC4899","title":"明园坊","lon":"121.5205","lat":"31.26197","category":"47","category_name":"住宅区","address":"上海许昌路881弄(近吉林路口)"},{"poiid":"B2094654D56EABF5479E","title":"上海市杨浦区明园村幼儿园","lon":"121.52227","lat":"31.26945","category":"57","category_name":"幼儿园","address":"杨浦区江浦路1140弄33号"},{"poiid":"B2094655D26BA6F9489C","title":"丝雪女子养生馆","lon":"121.52534","lat":"31.26346","category":"148","category_name":"美容美发店","address":"霍山路1085号-1"},{"poiid":"B2094654DB6BA2FC499E","title":"华联超市(霍山路店)","lon":"121.52571","lat":"31.26371","category":"118","category_name":"超级市场","address":"霍山路1097号"},{"poiid":"B2094654DB6BA2FC4793","title":"自然美","lon":"121.52037","lat":"31.26848","category":"148","category_name":"美容美发店","address":"杨浦区本溪路19号(近凤城路)"},{"poiid":"B2094757D16AA6FD479E","title":"❤❤Sara`s house❤❤","lon":"121.5197211","lat":"31.267037351","category":"500","category_name":"未知分类","address":"上海·˙`˙·．.．·˙·★H o N e Y .︾;佳︱。"},{"poiid":"B2094752D764A6FD4898","title":"兴荣温德姆酒店","lon":"121.520454","lat":"31.262862","category":"500","category_name":"未知分类","address":"宁国路25号"},{"poiid":"B2094752D168A3F8459F","title":"东方明珠","lon":"121.520309","lat":"31.26198","category":"500","category_name":"未知分类","address":"上海东方明珠"},{"poiid":"B2094757D06AA7FB4093","title":"上海职业介绍杨浦分中心","lon":"121.525279","lat":"31.26193","category":"500","category_name":"未知分类","address":"杨浦区江浦路728号(近济宁路)"},{"poiid":"B2094757D16FA7FC439F","title":"陽朙新城","lon":"121.521419103","lat":"31.2691423955","category":"47","category_name":"住宅区","address":"上海市杨浦区江浦路1188号"},{"poiid":"B2094655D26AAAF5449D","title":"克丽缇娜长阳店","lon":"121.52662","lat":"31.26567","category":"148","category_name":"美容美发店","address":"杨浦区长阳路1222号14楼近眉州路;;"},{"poiid":"B2094654D56FA3F9469C","title":"上海市燎原中等专业学校杨浦校区","lon":"121.52349","lat":"31.26204","category":"54","category_name":"职业技术学校","address":"怀德路802"},{"poiid":"B2094655D26FA0FD449D","title":"明园坊(正门)","lon":"121.52064","lat":"31.2621","category":"47","category_name":"住宅区","address":"许昌路881弄"},{"poiid":"B2094654D56EABF5449A","title":"交通银行上海分行风险监督中心","lon":"121.52582","lat":"31.26523","category":"150","category_name":"银行","address":"长阳路1180号"},{"poiid":"B2094757D66EABF9449B","title":"迪亚天天","lon":"121.525105713","lat":"31.2662847558","category":"249","category_name":"购物服务","address":"上海兰州路1112号"},{"poiid":"B2094654DB6BA3F4499C","title":"明阳公寓","lon":"121.51977","lat":"31.262358","category":"47","category_name":"住宅区","address":"长阳路812号"},{"poiid":"B2094757D065A0F8439C","title":"中国建设银行(星洲城支行)","lon":"121.52082","lat":"31.2683","category":"150","category_name":"银行","address":"杨浦区江浦路1177号(江浦路茭白园路)"},{"poiid":"B2094654D56FA3F8489D","title":"紫藤佳苑","lon":"121.52428","lat":"31.261797","category":"47","category_name":"住宅区","address":"杨浦江浦路727号,济宁路口"},{"poiid":"B2094757D16CA0F94999","title":"长阳路许昌路站","lon":"121.519407787","lat":"31.2619554421","category":"38","category_name":"公交车站","address":"上海长阳路(近许昌路)(33路)"},{"poiid":"B2094654D56EABF54792","title":"阳明商务多功能会议室","lon":"121.52095","lat":"31.26922","category":"185","category_name":"会展中心","address":"江浦路1188号阳明商务中心1029"},{"poiid":"B2094654D56EAAFD4498","title":"平盛苑(东门)","lon":"121.52394","lat":"31.26345","category":"48","category_name":"楼宇大门","address":"江浦路821弄"},{"poiid":"B2094752D664AAFC489D","title":"巴黎春天","lon":"121.523984","lat":"31.268512","category":"249","category_name":"购物服务","address":"五角场巴黎春天"},{"poiid":"B2094757D064AAF4419D","title":"窝窝","lon":"121.520677","lat":"31.26164","category":"247","category_name":"餐饮美食","address":"上海市杨浦区平凉路"},{"poiid":"B2094655D26FA7FC409F","title":"现代星洲城一期(南门)","lon":"121.52024","lat":"31.26734","category":"48","category_name":"楼宇大门","address":""},{"poiid":"B2094655D26DAAFC4992","title":"天霞宾馆","lon":"121.52528","lat":"31.26314","category":"250","category_name":"公园户外","address":"霍山路1058号"},{"poiid":"B2094757D16BA3FB489B","title":"伍缘便利(齐齐哈尔路)","lon":"121.52547338","lat":"31.265882244","category":"249","category_name":"购物服务","address":"上海齐齐哈尔路868号"},{"poiid":"B2094654D56EABF5479B","title":"曼姝菲尔女子香芬养生馆茭白园路店","lon":"121.52111","lat":"31.26899","category":"148","category_name":"美容美发店","address":""},{"poiid":"B2094757D16BA5FB419A","title":"70路江浦路济宁路站","lon":"121.524869786","lat":"31.2617634257","category":"38","category_name":"公交车站","address":"上海江浦路(近济宁路)"},{"poiid":"B2094655D26CA6FB4993","title":"品克桌球","lon":"121.52521","lat":"31.26302","category":"171","category_name":"台球厅","address":"杨浦区霍山路1058号(近江浦路)"},{"poiid":"B2094757D168A2F9479E","title":"尕瓷滴窝窝","lon":"121.523114503","lat":"31.2694698024","category":"247","category_name":"餐饮美食","address":null},{"poiid":"B2094654D56EA5FC4799","title":"明圆公寓","lon":"121.51931","lat":"31.262276","category":"47","category_name":"住宅区","address":"长阳路782号"},{"poiid":"B2094655D26CA6F94399","title":"金鹏花园多层住宅","lon":"121.52616","lat":"31.26732","category":"47","category_name":"住宅区","address":"兰州路1151弄"},{"poiid":"B2094654D56EABF54393","title":"绿光教育","lon":"121.5263","lat":"31.26551","category":"190","category_name":"培训机构","address":"长阳路1212-2"},{"poiid":"B2094655D26EA3F9469B","title":"昆明路1268弄小区(东门)","lon":"121.52587","lat":"31.26777","category":"47","category_name":"住宅区","address":"昆明路1268弄"},{"poiid":"B209475CD268A2F5469C","title":"上海市交通大学附属新华医院","lon":"121.522819","lat":"31.269811","category":"162","category_name":"医院","address":"上海市 江浦路"},{"poiid":"B2094655D265A4F9489E","title":"科杨公寓","lon":"121.52528","lat":"31.26193","category":"47","category_name":"住宅区","address":"上海市杨浦区江浦路728号"},{"poiid":"B2094655D26CA6FE449D","title":"江浦社区图书馆","lon":"121.51763","lat":"31.26595","category":"181","category_name":"图书馆","address":""},{"poiid":"B2094655D265A5FA489F","title":"光明新鲜屋霍山路店","lon":"121.52097","lat":"31.261","category":"117","category_name":"便民商店/便利店","address":"霍山路815-1临"},{"poiid":"B2094655D26CA6F9439E","title":"金鹏花园多层住宅(东门)","lon":"121.52637","lat":"31.26715","category":"47","category_name":"住宅区","address":"兰州路1151弄"},{"poiid":"B2094757D06BAAFC419A","title":"和нONεУの小天地","lon":"121.5241091","lat":"31.268301377","category":"500","category_name":"未知分类","address":"上海昆明路齐齐哈尔路 蒋家浜小街××号"},{"poiid":"B2094655D26CA6FD429B","title":"好德No.545","lon":"121.52183","lat":"31.26107","category":"117","category_name":"便民商店/便利店","address":"许昌路781"},{"poiid":"B2094757D66DA6FD409A","title":"怡香阁","lon":"121.521687703","lat":"31.2606890189","category":"500","category_name":"未知分类","address":"上海许昌路霍山路"},{"poiid":"B2094757D064A2FA4393","title":"香蔓缇专业女子养生馆","lon":"121.52639","lat":"31.26587","category":"500","category_name":"未知分类","address":"杨浦区长阳路1195号2楼(长阳路齐齐哈尔路)"},{"poiid":"B209475DD56AAAF8499E","title":"上海奥迪国际赛车场","lon":"121.517929","lat":"31.26703","category":"248","category_name":"生活娱乐","address":"上海市 嘉定"},{"poiid":"B2094654D56EAAFD4499","title":"明园村小区(北门)","lon":"121.52159","lat":"31.26335","category":"656","category_name":"大门","address":"长阳路910弄"},{"poiid":"B2094655D264A0FC409D","title":"皙泉护肤SPA养生会所","lon":"121.51918","lat":"31.26219","category":"148","category_name":"美容美发店","address":"长阳路778"},{"poiid":"B2094757D66EA0FA4893","title":"非诚勿扰 桌游吧","lon":"121.5196951","lat":"31.262714561","category":"500","category_name":"未知分类","address":"杨浦区松花江路333号(近黄兴公园)"},{"poiid":"B2094753D56DAAF84692","title":"浦东八佰伴","lon":"121.517997","lat":"31.267593","category":"500","category_name":"未知分类","address":"上海市 张杨路"},{"poiid":"B2094654D56FA3FA4693","title":"群益公寓","lon":"121.52248","lat":"31.260916","category":"47","category_name":"住宅区","address":"许昌路768弄"},{"poiid":"B2094757D164A2FE4698","title":"来伊份(长阳路三店)","lon":"121.52628","lat":"31.26537","category":"500","category_name":"未知分类","address":"上海杨浦区长阳路2095-3号(近宁武路)  "},{"poiid":"B2094757D16EA6FE4399","title":"上海市杨浦区医疗保险事务中心","lon":"121.526113","lat":"31.267957","category":"500","category_name":"未知分类","address":"上海兰州路1118号"},{"poiid":"B2094757D16DA1F84199","title":"卡洛DIY烘培教室","lon":"121.525969103","lat":"31.2666153427","category":"500","category_name":"未知分类","address":"上海新闸路777弄3号1B"},{"poiid":"B2094757D06AA3FE4399","title":"黄兴路眉州支路","lon":"121.524843603","lat":"31.2683597792","category":"500","category_name":"未知分类","address":"上海黄兴路眉州支路"},{"poiid":"B2094655D26FA0FD4699","title":"群益公寓(西门)","lon":"121.52227","lat":"31.26086","category":"47","category_name":"住宅区","address":"许昌路768弄"},{"poiid":"B2094655D26CA6F94599","title":"名园坊(后门)","lon":"121.51976","lat":"31.26152","category":"47","category_name":"住宅区","address":""},{"poiid":"B2094654D56EA6F54599","title":"俊峰美容美发(霍山路)","lon":"121.52119","lat":"31.26112","category":"148","category_name":"美容美发店","address":"杨浦区霍山路815号(近许昌路)"},{"poiid":"B2094654D56EAAFD4393","title":"康阳小区(北门)","lon":"121.52487","lat":"31.26486","category":"656","category_name":"大门","address":"长阳路1120弄"},{"poiid":"B2094757D064A4FC409D","title":"浦皓园","lon":"121.520628","lat":"31.269756","category":"500","category_name":"未知分类","address":"上海江浦路1200号"},{"poiid":"B2094654D56FA3F94499","title":"星工场第五元素","lon":"121.52462","lat":"31.26152","category":"148","category_name":"美容美发店","address":"杨浦区济宁路279号(近江浦路)"},{"poiid":"B2094654D56FA3F94692","title":"杨浦区职工文化考试办公室","lon":"121.5235","lat":"31.26204","category":"252","category_name":"楼宇机构","address":"怀德路802"},{"poiid":"B2094757D16EA1F8419A","title":"吕泗港渔村","lon":"121.52513","lat":"31.26294","category":"260","category_name":"其他","address":"杨浦区霍山路(霍山路江浦路)"},{"poiid":"B2094757D16EA4F44893","title":"心联发型美容许昌店","lon":"121.5223506","lat":"31.261161228","category":"500","category_name":"未知分类","address":"上海长阳路许昌路口"},{"poiid":"B2094757D06AA1FE4292","title":"小特拉福德","lon":"121.518017103","lat":"31.266580342","category":"500","category_name":"未知分类","address":"上海市杨浦区许昌路1128弄"},{"poiid":"B2094757D16AAAFA459B","title":"柯达冲印店(欧尚长阳店)","lon":"121.52667","lat":"31.26551","category":"611","category_name":"照相馆","address":"杨浦区长阳路1750号欧尚超市内(近临青路)"},{"poiid":"B2094757D168A4FE4498","title":"上海卷烟厂六楼会议室","lon":"121.51846343","lat":"31.262771232","category":"500","category_name":"未知分类","address":"上海长阳路733号"},{"poiid":"B2094654D56EAAFC4293","title":"金鹏花园(西门)","lon":"121.52556","lat":"31.26579","category":"656","category_name":"大门","address":"江浦路"},{"poiid":"B2094757D068A7FF499C","title":"娘家","lon":"121.52110043","lat":"31.269428401","category":"500","category_name":"未知分类","address":"上海许昌路双辽支路"},{"poiid":"B2094757D068A6FC4093","title":"上海卷烟厂食堂","lon":"121.518180847","lat":"31.2629394531","category":"263","category_name":"公司","address":"上海长阳路733号"},{"poiid":"B2094654D56EA6F5459A","title":"俊峰足疗保健","lon":"121.52102","lat":"31.26102","category":"149","category_name":"洗浴推拿场所","address":"霍山路815"},{"poiid":"B2094757D165A1FE4399","title":"通北路长阳路","lon":"121.520307603","lat":"31.26122343","category":"500","category_name":"未知分类","address":"上海通北路长阳路"},{"poiid":"B2094654D56EA6F5459F","title":"圣莉丝酒吧","lon":"121.52146","lat":"31.26123","category":"260","category_name":"其他","address":"杨浦区霍山路817号(近许昌路)"},{"poiid":"B2094757D66DA4FE489F","title":"小猫家","lon":"121.5193141","lat":"31.261943245","category":"500","category_name":"未知分类","address":null},{"poiid":"B2094655D26CA1FC429C","title":"汇星广场(南二门)","lon":"121.52552","lat":"31.26388","category":"656","category_name":"大门","address":""},{"poiid":"B2094757D16FA1FA409D","title":"江浦路社区文化活动中心","lon":"121.517578","lat":"31.266026","category":"260","category_name":"其他","address":"上海许昌路1150号"},{"poiid":"B2094654D56EAAFD409C","title":"康阳小区(南门)","lon":"121.52567","lat":"31.26371","category":"656","category_name":"大门","address":"霍山路1120弄"},{"poiid":"B2094655D26DA5FE419A","title":"汇星广场(南一门)","lon":"121.52509","lat":"31.26333","category":"656","category_name":"大门","address":"霍山路1083"},{"poiid":"B2094655D26CA6FE429E","title":"霍兰公寓(西门)","lon":"121.52595","lat":"31.2649","category":"656","category_name":"大门","address":""},{"poiid":"B2094654D56EABF4449A","title":"明园村小区(西门)","lon":"121.52149","lat":"31.26192","category":"656","category_name":"大门","address":"平凉路"},{"poiid":"B2094654DB6BA2FC489B","title":"现代星洲城三期(北门)","lon":"121.52101","lat":"31.26852","category":"656","category_name":"大门","address":""},{"poiid":"B2094654D56FA3F84892","title":"紫藤佳苑(东门)","lon":"121.52468","lat":"31.26183","category":"48","category_name":"楼宇大门","address":"江浦路727弄"},{"poiid":"B2094757D16CA5FE459D","title":"长阳路五金电子城","lon":"121.5263","lat":"31.26577","category":"260","category_name":"其他","address":"杨浦区长阳路1177号(近齐齐哈尔路)"},{"poiid":"B2094655D26DA4F5449A","title":"阳明苑(西门)","lon":"121.52098","lat":"31.26866","category":"656","category_name":"大门","address":"江浦路1178弄"},{"poiid":"B2094655D26FA0FC4799","title":"金鹏花园(东门)","lon":"121.52664","lat":"31.26662","category":"656","category_name":"大门","address":"兰州路1101弄"},{"poiid":"B2094655D26CA6F44099","title":"秦家弄小区(东门)","lon":"121.52452","lat":"31.26218","category":"656","category_name":"大门","address":"江浦路735弄"},{"poiid":"B2094654D56FA3F9439E","title":"万登花苑(西门)","lon":"121.52483","lat":"31.26244","category":"656","category_name":"大门","address":"江浦路740弄"},{"poiid":"B2094655D26CA6F84193","title":"现代星洲城二期(东门)","lon":"121.52006","lat":"31.26904","category":"656","category_name":"大门","address":"江浦路1199弄"},{"poiid":"B2094655D26CA6F9449A","title":"阳明苑(北门)","lon":"121.52207","lat":"31.26948","category":"656","category_name":"大门","address":""},{"poiid":"B2094654D56EA6F5459B","title":"嘉禄新苑(北门)","lon":"121.52118","lat":"31.26077","category":"656","category_name":"大门","address":"霍山路788弄"},{"poiid":"B2094654D56FA3F9459E","title":"秦家弄小区(西门)","lon":"121.52377","lat":"31.26155","category":"656","category_name":"大门","address":""},{"poiid":"B2094655D26DA4F5439B","title":"金鹏花园(北门)","lon":"121.526","lat":"31.26808","category":"656","category_name":"大门","address":""}]