[{"poiid":"B2094757D06AABF5429E","title":"吴淞口国际邮轮港","lon":"121.50557","lat":"31.404876","category":"500","category_name":"未知分类","address":"上海市宝山区宝杨路１号"},{"poiid":"B2094757D06FA5F44392","title":"宝杨码头","lon":"121.501694","lat":"31.40562","category":"234","category_name":"海滨浴场","address":"上海宝山区宝杨支路18号"},{"poiid":"B2094757D068A7FC4592","title":"行知中学","lon":"121.49784","lat":"31.40544","category":"55","category_name":"中学","address":"宝山区宝林支路99号"},{"poiid":"B2094757D069A3F8459F","title":"炮台湾湿地森林公园","lon":"121.50571413","lat":"31.393478751","category":"500","category_name":"未知分类","address":"上海宝山区塘后路"},{"poiid":"B2094757D06FABFE459A","title":"海江二村","lon":"121.50371","lat":"31.393312","category":"47","category_name":"住宅区","address":"永乐路222弄"},{"poiid":"B2094654D46AA4FE4198","title":"宝山六村","lon":"121.502","lat":"31.397743","category":"47","category_name":"住宅区","address":"上海市宝山区永乐路115弄"},{"poiid":"B2094750D268AAFD4299","title":"鲜芋仙易买得牡丹江路店","lon":"121.495666","lat":"31.397224","category":"247","category_name":"餐饮美食","address":"宝山区牡丹江路1258号易买得内(近安信广场)"},{"poiid":"B2094757D064A1F84793","title":"宝山三村","lon":"121.49794","lat":"31.39304","category":"47","category_name":"住宅区","address":"上海市宝山区永清路双城路"},{"poiid":"B2094654D46AA4FE439C","title":"中艺花园","lon":"121.49869","lat":"31.3999","category":"47","category_name":"住宅区","address":"中艺花园位于宝山海江路9号"},{"poiid":"B2094654D46AA4FD4398","title":"上海交通大学医学附属卫生学校宝山分校","lon":"121.49748","lat":"31.3955","category":"52","category_name":"高等院校","address":"永乐路399"},{"poiid":"B2094750D16BA0F84992","title":"宝山体育中心羽毛球馆","lon":"121.498832","lat":"31.398883","category":"250","category_name":"公园户外","address":"宝山区永清路700号(近海江路)"},{"poiid":"B2094757D068A7F44393","title":"宝山七村","lon":"121.49985","lat":"31.396515","category":"252","category_name":"楼宇机构","address":"上海宝山区海江路永乐路"},{"poiid":"B2094757DA6FA2FC4998","title":"吴淞炮台湾湿地公园(北门)","lon":"121.501836776732","lat":"31.4026964848086","category":"250","category_name":"公园户外","address":"宝山区宝杨路(近宝杨支路)"},{"poiid":"B2094654D46AA4FE4993","title":"宝钢宝山十村(淞宝路)","lon":"121.49414","lat":"31.39959","category":"47","category_name":"住宅区","address":"宝山十村108"},{"poiid":"B2094654D46AA6FA4693","title":"宝杨路码头候船室","lon":"121.50009","lat":"31.40575","category":"34","category_name":"港口码头","address":""},{"poiid":"B2094757D16CA2F5449B","title":"杉松酒家","lon":"121.49534","lat":"31.40153","category":"76","category_name":"上海菜","address":"宝山区东林路17号(近宝杨路)"},{"poiid":"B2094654D46AA4FE419F","title":"海江公寓","lon":"121.5037","lat":"31.399063","category":"47","category_name":"住宅区","address":"塘后路285弄"},{"poiid":"B2094757D164A4FA439B","title":"海滨五村","lon":"121.50103062728","lat":"31.401987993104","category":"46","category_name":"楼宇","address":"上海牡丹江路水产路"},{"poiid":"B2094757D16DA2F8459D","title":"上海市宝山区医疗保险事务中心","lon":"121.499964831","lat":"31.3996001779","category":"500","category_name":"未知分类","address":"上海市宝山区宝东路879号"},{"poiid":"B2094655D36CA4FC429F","title":"宝东路海江路","lon":"121.50067","lat":"31.39725","category":"38","category_name":"公交车站","address":""},{"poiid":"B2094757D16FA5FB489A","title":"宝信软件海江路基地","lon":"121.501192","lat":"31.399475","category":"500","category_name":"未知分类","address":"上海宝山区海江路5号"},{"poiid":"B2094654D46AA4FD449A","title":"乐天川菜馆","lon":"121.497541054","lat":"31.396002793","category":"71","category_name":"四川菜","address":"宝山区淞宝路永乐路路口(淞宝路永乐路)"},{"poiid":"B2094654D46AA4FE459C","title":"上海市基督教吴淞堂","lon":"121.5013","lat":"31.40229","category":"245","category_name":"教堂","address":"宝山区宝杨路74"},{"poiid":"B2094655D268A0F84493","title":"上海市宝山区第一中心小学东部校区","lon":"121.49958","lat":"31.39813","category":"56","category_name":"小学","address":"宝东路580"},{"poiid":"B2094654DB69A5F4419C","title":"重庆鸡公煲 永乐路店","lon":"121.498148054","lat":"31.395452793","category":"71","category_name":"四川菜","address":"宝山区永乐路369号(近淞宝路)"},{"poiid":"B2094757D16FAAF4469D","title":"合宴酒楼","lon":"121.50195","lat":"31.39935","category":"260","category_name":"其他","address":"宝山区海江路5号(海江路塘后路)"},{"poiid":"B2094757D16CAAFB439B","title":"阿良海鲜","lon":"121.501203","lat":"31.393635","category":"247","category_name":"餐饮美食","address":"上海宝山区双城路116号"},{"poiid":"B2094757D66CA0FB469A","title":"718","lon":"121.501457","lat":"31.399552","category":"500","category_name":"未知分类","address":"上海718"},{"poiid":"B2094654D46AA6FB409B","title":"宝钢宝林六村","lon":"121.49604","lat":"31.40335","category":"47","category_name":"住宅区","address":"友谊路"},{"poiid":"B2094654D46AA6FA469B","title":"宝钢宝林九村","lon":"121.49991","lat":"31.40378","category":"47","category_name":"住宅区","address":"友谊路"},{"poiid":"B2094750D669A4FA459A","title":"上海长江河口科技馆","lon":"121.506713","lat":"31.400457","category":"250","category_name":"公园户外","address":"宝山区塘后路206号吴淞炮台湾湿地公园(近国际邮轮码头)"},{"poiid":"B2094654D46AA4FE4398","title":"上海市宝山区民政福利企业公司","lon":"121.50061","lat":"31.39995","category":"263","category_name":"公司","address":"宝东路885"},{"poiid":"B2094757D568ABFF419D","title":"联华超市(塘后路)","lon":"121.50344618","lat":"31.39903754","category":"118","category_name":"超级市场","address":"塘后路381"},{"poiid":"B2094757D464A6F94898","title":"品客休闲屋 淞宝路店","lon":"121.497141054","lat":"31.396650793","category":"68","category_name":"快餐厅","address":"宝山区淞宝路1074号(近区卫生成人中等专业学校)"},{"poiid":"B2094654D46AA4FD479A","title":"上海新世纪药业有限公司","lon":"121.50019","lat":"31.39954","category":"263","category_name":"公司","address":"宝东路879"},{"poiid":"B2094757D465A1F84392","title":"吉田屋日本料理","lon":"121.496661054","lat":"31.394855793","category":"95","category_name":"日本料理","address":"宝山区永乐路747号(近牡丹江路)"},{"poiid":"B2094757DB6FA5FE469A","title":"吴淞古炮台公园","lon":"121.5022320674001","lat":"31.39532357457224","category":"196","category_name":"公园","address":"双城路"},{"poiid":"B2094654D46AA6FA469A","title":"友谊街道社区卫生服务中心","lon":"121.49568","lat":"31.40164","category":"162","category_name":"医院","address":"宝杨路333"},{"poiid":"B2094655D36CA5F54793","title":"宝杨路宝东路","lon":"121.49815","lat":"31.4021","category":"38","category_name":"公交车站","address":""},{"poiid":"B2094757D16BA0FD4598","title":"江边","lon":"121.50009583","lat":"31.394929081","category":"500","category_name":"未知分类","address":"上海盘古路江堤"},{"poiid":"B2094757D568A5FC4293","title":"宝杨路客运码头","lon":"121.5038789","lat":"31.40380139","category":"35","category_name":"长途汽车站","address":"宝杨支路18号宝杨码头"},{"poiid":"B2094654D46AA6FB419A","title":"晓刚面亭","lon":"121.49426744298","lat":"31.404081705949","category":"68","category_name":"快餐厅","address":"宝山区东林路69号(近宝杨路)"},{"poiid":"B2094757D769A4FE469C","title":"双城小吃","lon":"121.5001403","lat":"31.3935328","category":"68","category_name":"快餐厅","address":"宝山区双城路139号(近淞宝路)"},{"poiid":"B2094655D26AA4F5479C","title":"宝山第一中心小学","lon":"121.49613","lat":"31.39515","category":"247","category_name":"餐饮美食","address":"宝山区宝山八村11号"},{"poiid":"B2094654DB6AA5FA4093","title":"可颂坊","lon":"121.49406","lat":"31.39704","category":"112","category_name":"糕饼店","address":"宝山区海江路408号(近永清路)"},{"poiid":"B2094757D66CA3F5469B","title":"宝山九村","lon":"121.49686","lat":"31.398853","category":"252","category_name":"楼宇机构","address":"上海淞宝路宝杨路"},{"poiid":"B2094654D46AA4FD469A","title":"世纪华联NO.718","lon":"121.49703","lat":"31.39829","category":"118","category_name":"超级市场","address":"海江路275"},{"poiid":"B2094655D36DA0F44198","title":"永乐路","lon":"121.49777","lat":"31.39577","category":"38","category_name":"公交车站","address":""},{"poiid":"B2094757D569A6F94399","title":"长五小卖部","lon":"121.50292453","lat":"31.39648899","category":"117","category_name":"便民商店/便利店","address":"永乐路118-120"},{"poiid":"B2094757D16FA6F5489C","title":"宝林四小","lon":"121.50114293","lat":"31.402752243","category":"56","category_name":"小学","address":"上海宝山区宝林七村82号"},{"poiid":"B2094654DB6AA5FA419E","title":"良友金伴","lon":"121.49862","lat":"31.39565","category":"117","category_name":"便民商店/便利店","address":"永乐路359"},{"poiid":"B2094655D36DA0F44399","title":"永清新村","lon":"121.50102","lat":"31.39143","category":"38","category_name":"公交车站","address":"永清新村54幢188号"},{"poiid":"B2094757D065A1FD429E","title":"宝山十村","lon":"121.493826","lat":"31.397192","category":"47","category_name":"住宅区","address":"上海宝山区宝山十村 永清路海江路口"},{"poiid":"B2094655D268A5F4449B","title":"海江公寓(西门)","lon":"121.5048","lat":"31.39653","category":"47","category_name":"住宅区","address":"塘后路285弄1-21号"},{"poiid":"B2094655D268A4FB479D","title":"宝钢宝山九村(西门)","lon":"121.49572","lat":"31.39999","category":"47","category_name":"住宅区","address":""},{"poiid":"B2094757D16AA0FC499F","title":"七色花艺术幼儿园","lon":"121.49398483","lat":"31.395566094","category":"57","category_name":"幼儿园","address":"宝山区宝山八村78号"},{"poiid":"B2094654DB6AA5F8499A","title":"快客","lon":"121.50242","lat":"31.39451","category":"117","category_name":"便民商店/便利店","address":"双城路81"},{"poiid":"B2094655D26FAAF4429B","title":"宝山六村(北门)","lon":"121.5016","lat":"31.39929","category":"656","category_name":"大门","address":""},{"poiid":"B2094757D16CA6FB479D","title":"宝山区第一中心小学","lon":"121.498337","lat":"31.395569","category":"253","category_name":"校园生活","address":"上海永乐路"},{"poiid":"B2094757D064A6F5479B","title":"永清公园","lon":"121.49863","lat":"31.39242","category":"196","category_name":"公园","address":"宝山区双城路234号(双城路淞宝路)"},{"poiid":"B2094757D568A7FA4699","title":"杰隆公司宝垄车业服务(浩睿店)","lon":"121.5029267","lat":"31.39681939","category":"159","category_name":"汽车维修","address":"中国上海市宝山区永乐路"},{"poiid":"B2094757D16AA5FF449E","title":"双凤羊肉馆","lon":"121.493826831","lat":"31.3973031305","category":"247","category_name":"餐饮美食","address":"宝山区密山路258号"},{"poiid":"B2094654D46AA7FB4698","title":"永清路337弄小区","lon":"121.50261513212","lat":"31.394884022499","category":"47","category_name":"住宅区","address":"永清路337弄1-6号"},{"poiid":"B2094654DB6AA5F84893","title":"宝山一村(西门)","lon":"121.50186","lat":"31.39536","category":"656","category_name":"大门","address":"宝东路41号"},{"poiid":"B2094654D46AA4FE479C","title":"宝山派出所","lon":"121.49796","lat":"31.40126","category":"609","category_name":"警察局","address":"宝杨路256号"},{"poiid":"B2094757D16EABFC4198","title":"小主人幼兒園","lon":"121.503705","lat":"31.393312","category":"57","category_name":"幼儿园","address":"上海海江二村"},{"poiid":"B2094655D36CA1FE439E","title":"双城路淞宝路","lon":"121.49974","lat":"31.3934","category":"38","category_name":"公交车站","address":""},{"poiid":"B2094654D46AA4FC4898","title":"一德大药房广馨店","lon":"121.49565","lat":"31.3975","category":"162","category_name":"医院","address":"海江路326"},{"poiid":"B2094654D46AA4FC4792","title":"皮皮家族","lon":"121.49574","lat":"31.39753","category":"162","category_name":"医院","address":"海江路320号"},{"poiid":"B2094655D268A4FB4793","title":"中艺花园(东门)","lon":"121.49962","lat":"31.39998","category":"656","category_name":"大门","address":"宝东路888弄1-34号"},{"poiid":"B2094655D268A4FB4792","title":"上海市基督教吴淞堂(北门)","lon":"121.50147","lat":"31.40249","category":"680","category_name":"楼宇机构","address":""},{"poiid":"B2094655D26FAAF44298","title":"中艺花园(南门)","lon":"121.49912","lat":"31.3989","category":"656","category_name":"大门","address":""},{"poiid":"B2094655D268A1F54392","title":"宝山二村(南门)","lon":"121.50077","lat":"31.39391","category":"47","category_name":"住宅区","address":""},{"poiid":"B2094655D268A0F8409B","title":"宝山三村北块住宅小区(北门)","lon":"121.4964","lat":"31.39443","category":"47","category_name":"住宅区","address":""},{"poiid":"B2094655D268A2F8489C","title":"宝山区卫生成人中等专业学校(南门)","lon":"121.49758","lat":"31.39531","category":"678","category_name":"学校大门","address":"永乐路399"},{"poiid":"B2094654D46AA6FA459E","title":"好德NO.151","lon":"121.49515","lat":"31.40151","category":"117","category_name":"便民商店/便利店","address":"东林路1"},{"poiid":"B2094655D268A1F5449F","title":"宝山六村(西门)","lon":"121.50077","lat":"31.39774","category":"656","category_name":"大门","address":""},{"poiid":"B2094757D568A7F9409D","title":"美国优玛汽车膜特约施工中心","lon":"121.50122152","lat":"31.3957156","category":"159","category_name":"汽车维修","address":"宝东路60"},{"poiid":"B2094655D26FABFA429C","title":"海江二村(一号门)","lon":"121.50415","lat":"31.39466","category":"47","category_name":"住宅区","address":""},{"poiid":"B2094757D568A7F94092","title":"上海东方车友服务社","lon":"121.50120009","lat":"31.39577447","category":"159","category_name":"汽车维修","address":"宝东路62"},{"poiid":"B2094757D16BA2F9479C","title":"小海螺幼儿园","lon":"121.495361831","lat":"31.4003401932","category":"253","category_name":"校园生活","address":"宝山区宝山十村49号"},{"poiid":"B2094752D76EA1FA4298","title":"台崎炭烧","lon":"121.493972","lat":"31.397217","category":"247","category_name":"餐饮美食","address":null},{"poiid":"B2094654D46AA4FC4999","title":"丽源美容美发设计有限公司","lon":"121.49526","lat":"31.39739","category":"148","category_name":"美容美发店","address":"宝山区海江路360号(近永清路)"},{"poiid":"B2094654D46AA7FB4299","title":"宝龙酒家","lon":"121.49949","lat":"31.392","category":"76","category_name":"上海菜","address":"宝山区凇宝路740号(双城路淞宝路)"},{"poiid":"B2094654D46AA4FC449C","title":"快客NO.6990","lon":"121.49448","lat":"31.39754","category":"117","category_name":"便民商店/便利店","address":""},{"poiid":"B2094757D06AA4FF4192","title":"爱西牌山洞","lon":"121.49970638","lat":"31.395416204","category":"607","category_name":"一般景点","address":"上海市宝山区"},{"poiid":"B2094655D36DA0F4429F","title":"永清路","lon":"121.49539","lat":"31.3942","category":"38","category_name":"公交车站","address":""},{"poiid":"B2094655D268A1F9419B","title":"福幸餐厅","lon":"121.50036","lat":"31.40158","category":"260","category_name":"其他","address":"宝山区东林路3号(近宝杨路)"},{"poiid":"B2094654D46AA6FA479A","title":"宝林七村","lon":"121.49573","lat":"31.404539","category":"47","category_name":"住宅区","address":"上海市宝林路子青路"},{"poiid":"B2094654DB69AAF4439D","title":"莉莲蛋挞 宝山店 Lillian Cake Shop","lon":"121.494464054","lat":"31.393645793","category":"247","category_name":"餐饮美食","address":"永乐路426号近永清路"},{"poiid":"B2094654D46AA7F54099","title":"好德NO.076","lon":"121.49654","lat":"31.39448","category":"117","category_name":"便民商店/便利店","address":"宝山镇"},{"poiid":"B2094654D46AA5FC4198","title":"永清路171弄","lon":"121.503","lat":"31.3937","category":"47","category_name":"住宅区","address":"永清路171弄1-12号"},{"poiid":"B2094655D26FABFA4899","title":"双城路2弄小区(西门)","lon":"121.50557","lat":"31.39492","category":"47","category_name":"住宅区","address":"双城路2弄1-22号"},{"poiid":"B2094757D16DA6FE499F","title":"行知中学宿舍楼","lon":"121.50007523","lat":"31.403496958","category":"500","category_name":"未知分类","address":"上海市宝山区宝杨路55号"},{"poiid":"B2094654D46AA4FD4598","title":"紫晶娱乐总汇","lon":"121.49712","lat":"31.39724","category":"248","category_name":"生活娱乐","address":"宝山区淞宝路1185号"},{"poiid":"B2094757D06AA0F8499C","title":"宝山二村","lon":"121.507","lat":"31.4014","category":"260","category_name":"其他","address":"上海市宝山区双城路"},{"poiid":"B2094757D66AA6FC4492","title":"永兴私房菜","lon":"121.500214054","lat":"31.392708793","category":"88","category_name":"海鲜酒楼","address":"宝山区淞宝路618号(近公交90路终点站)"},{"poiid":"B2094654D46AA7F5409C","title":"良友金伴NO.756","lon":"121.49633","lat":"31.3944","category":"117","category_name":"便民商店/便利店","address":"永乐路426"},{"poiid":"B2094750D16BA2FE4598","title":"皇家加勒比游轮","lon":"121.502983","lat":"31.404596","category":"500","category_name":"未知分类","address":null},{"poiid":"B2094654D46AA7F4489A","title":"双城派出所","lon":"121.49882","lat":"31.39435","category":"609","category_name":"警察局","address":"宝山区淞宝路1101号"},{"poiid":"B2094654D46AA4FD429C","title":"快客NO.1265","lon":"121.49573","lat":"31.39455","category":"117","category_name":"便民商店/便利店","address":"永乐路417"},{"poiid":"B2094757D569A3FF489C","title":"昌盛洗衣店","lon":"121.50215196","lat":"31.39458388","category":"610","category_name":"干洗店","address":"宝东路7"},{"poiid":"B2094654D46AA6FB409A","title":"好德NO.617","lon":"121.49456","lat":"31.40326","category":"117","category_name":"便民商店/便利店","address":"东林路135"},{"poiid":"B2094753D468A2FE429A","title":"宝山体育馆","lon":"121.493339","lat":"31.40163","category":"220","category_name":"运动场所","address":"上海市 永清路"},{"poiid":"B2094757D568A7FD4099","title":"灵萍杂货店","lon":"121.49943414","lat":"31.39345974","category":"117","category_name":"便民商店/便利店","address":"中国上海市宝山区凇宝路"},{"poiid":"B2094655D26FABFA439F","title":"宝钢宝林六村(南一门)","lon":"121.49822","lat":"31.4023","category":"656","category_name":"大门","address":""},{"poiid":"B2094655D268A0F8449E","title":"宝山一村(西北门)","lon":"121.50145","lat":"31.39611","category":"656","category_name":"大门","address":"宝东路41号"},{"poiid":"B2094655D268A4FB469C","title":"宝山七村(南门)","lon":"121.49975","lat":"31.39595","category":"656","category_name":"大门","address":""},{"poiid":"B2094655D268A4F54393","title":"宝莲府邸","lon":"121.493","lat":"31.4003","category":"47","category_name":"住宅区","address":"海江路803弄1-38号"},{"poiid":"B2094757D16EA2FD469E","title":"成亿宝盛","lon":"121.495537","lat":"31.401579","category":"500","category_name":"未知分类","address":"上海水产西路858弄"},{"poiid":"B2094757D569A3F84593","title":"意绿王洗衣(宝杨路店)","lon":"121.49541531","lat":"31.40142605","category":"610","category_name":"干洗店","address":"中国上海市宝山区宝杨路"},{"poiid":"B2094654DB6AA3F54798","title":"中国建设银行海江路支行","lon":"121.4948","lat":"31.39725","category":"150","category_name":"银行","address":"宝山区海江路368号"},{"poiid":"B2094757D169AAFB489E","title":"联华超市(双城路店)","lon":"121.4996","lat":"31.39289","category":"117","category_name":"便民商店/便利店","address":"上海宝山区淞宝路双城路口  "},{"poiid":"B2094757D16EA0F44093","title":"爱情公寓 II","lon":"121.497791951","lat":"31.3932318665","category":"500","category_name":"未知分类","address":"上海爱情公寓II"},{"poiid":"B2094654D46BA2FC4498","title":"双城路二弄小区","lon":"121.50777","lat":"31.39484","category":"47","category_name":"住宅区","address":"上海市宝山区双城路塘后路"},{"poiid":"B2094654D46BA2FC4393","title":"快客NO.6985","lon":"121.50638","lat":"31.39348","category":"117","category_name":"便民商店/便利店","address":""},{"poiid":"B2094757D569A3FD429A","title":"樱花洗衣","lon":"121.49911567","lat":"31.39381375","category":"610","category_name":"干洗店","address":"中国上海市宝山区凇宝路"},{"poiid":"B2094654D46AA7F44398","title":"同得快修","lon":"121.49834","lat":"31.39435","category":"159","category_name":"汽车维修","address":"宝山区淞宝路1016号(近双城路)"},{"poiid":"B2094655D268A2F54399","title":"宝山七村(西门)","lon":"121.49747","lat":"31.39646","category":"656","category_name":"大门","address":""},{"poiid":"B2094654D46AA7F44992","title":"雨燕足部保健","lon":"121.49684","lat":"31.3946","category":"149","category_name":"洗浴推拿场所","address":"永乐路412"},{"poiid":"B2094655D268A5F44392","title":"宝钢宝林六村(南门)","lon":"121.49687","lat":"31.4018","category":"656","category_name":"大门","address":""},{"poiid":"B2094757D569A2FE429F","title":"安徽人家酒楼","lon":"121.49514","lat":"31.40156306","category":"260","category_name":"其他","address":"宝山区东林路3号(近宝杨路)"},{"poiid":"B2094757D569A2F84292","title":"鸿丽美发","lon":"121.49989638","lat":"31.39229546","category":"148","category_name":"美容美发店","address":"淞宝路754"},{"poiid":"B2094655D268A2F5439E","title":"宝钢宝山八村(东门)","lon":"121.49702","lat":"31.39625","category":"656","category_name":"大门","address":""},{"poiid":"B2094654D46AA6FA4593","title":"一德大药房宝林药店","lon":"121.49552","lat":"31.40144","category":"669","category_name":"药店","address":"宝杨路335号"},{"poiid":"B2094757D069A7FD4099","title":"上海电视大学(宝山)","lon":"121.496591","lat":"31.394502","category":"253","category_name":"校园生活","address":"上海永乐路737号"},{"poiid":"B2094757D66FA3FF499F","title":"中国黄金宝山店","lon":"121.496805031","lat":"31.4040325694","category":"500","category_name":"未知分类","address":"上海牡丹江路1670号"},{"poiid":"B2094757D568ABF94193","title":"光明便利店(永清新村东)","lon":"121.50109999","lat":"31.3916059","category":"117","category_name":"便民商店/便利店","address":"宝山区永清路331号(淞青路永清路)"},{"poiid":"B2094655D268A0F8409A","title":"宝钢宝林九村(西门)","lon":"121.49914","lat":"31.40348","category":"656","category_name":"大门","address":""},{"poiid":"B2094654D46AA7FB439B","title":"东方网点双城店","lon":"121.49938","lat":"31.39283","category":"176","category_name":"网吧","address":"宝山区双城路204号"},{"poiid":"B2094757D169A4FC409C","title":"宝山区建筑业受理服务中心","lon":"121.50640783","lat":"31.394165065","category":"500","category_name":"未知分类","address":"上海牡丹江路1188号7楼"},{"poiid":"B2094654D46AA7F5419E","title":"雨竹足浴","lon":"121.49582","lat":"31.39419","category":"149","category_name":"洗浴推拿场所","address":"永乐路434号"},{"poiid":"B2094757D16FA4FF469B","title":"719双城路淞宝路站","lon":"121.4981782","lat":"31.392425279","category":"500","category_name":"未知分类","address":"上海双城路淞宝路站"},{"poiid":"B2094655D268A4FB479C","title":"宝钢宝山十村(东门)","lon":"121.49522","lat":"31.40029","category":"656","category_name":"大门","address":""},{"poiid":"B2094757D568A4FB4692","title":"上海泰洁干洗(淞宝路)","lon":"121.50156169","lat":"31.3911358","category":"610","category_name":"干洗店","address":"淞宝路741号"},{"poiid":"B2094655D268A1F5449A","title":"海江二村(北门)","lon":"121.5007","lat":"31.39346","category":"656","category_name":"大门","address":""},{"poiid":"B2094655D268A4F54299","title":"宝钢宝山八村(北门)","lon":"121.49362","lat":"31.39674","category":"656","category_name":"大门","address":""},{"poiid":"B2094655D268A3FA419C","title":"宝钢宝林三村(东门)","lon":"121.49459","lat":"31.40182","category":"656","category_name":"大门","address":""},{"poiid":"B2094655D268A5F4439F","title":"宝钢宝林三村(南门)","lon":"121.49422","lat":"31.40117","category":"656","category_name":"大门","address":""},{"poiid":"B2094655D26FABFA439C","title":"宝钢宝林六村(北门)","lon":"121.49677","lat":"31.40381","category":"656","category_name":"大门","address":""},{"poiid":"B2094655D268A0F84092","title":"宝钢宝林六村(北一门)","lon":"121.49571","lat":"31.40348","category":"656","category_name":"大门","address":""},{"poiid":"B2094655D268A4F5429D","title":"宝钢宝山八村(南门)","lon":"121.49584","lat":"31.39483","category":"656","category_name":"大门","address":""},{"poiid":"B2094655D268A0F84098","title":"宝钢宝林九村(西一门)","lon":"121.49727","lat":"31.40489","category":"656","category_name":"大门","address":""},{"poiid":"B2094655D268A0FF499C","title":"永清新村小区(北门)","lon":"121.49738","lat":"31.39199","category":"656","category_name":"大门","address":""},{"poiid":"B2094655D26FABFA429D","title":"宝山三村(南门)","lon":"121.49807","lat":"31.39281","category":"656","category_name":"大门","address":""},{"poiid":"B2094655D268A3FA419F","title":"宝钢宝林三村(北一门)","lon":"121.49371","lat":"31.40297","category":"656","category_name":"大门","address":"友谊路"},{"poiid":"B2094655D268A1F54498","title":"海江二村(西门)","lon":"121.50128","lat":"31.39142","category":"656","category_name":"大门","address":""}]