[{"poiid":"B2094757D06BA5FD469C","title":"大宁剧院","lon":"121.4566021","lat":"31.283634698","category":"179","category_name":"音乐厅","address":"上海市平型关路1222号"},{"poiid":"B2094655D36DA6FE4393","title":"上海马戏城","lon":"121.45204","lat":"31.27956","category":"38","category_name":"公交车站","address":"闸北区共和新路2266号(近广中西路)"},{"poiid":"B2094655D26AAAF4479C","title":"新南华(广中店)","lon":"121.45265","lat":"31.28075","category":"76","category_name":"上海菜","address":"闸北区共和新路2435-2437号(近广中路)"},{"poiid":"B2094757D068A3FA479B","title":"锦荣国际大酒店","lon":"121.45094522","lat":"31.283530055","category":"76","category_name":"上海菜","address":"共和新路2750号(灵石路口,马戏城附近)"},{"poiid":"B2094655D26CA0FB4792","title":"大宁新天地","lon":"121.45312804662706","lat":"31.280039999999993","category":"116","category_name":"特色商业街","address":"共和新路2395-2445号"},{"poiid":"B2094757D16AA6FB4293","title":"和记小菜精菜坊(大宁店)","lon":"121.456698103","lat":"31.2831746888","category":"76","category_name":"上海菜","address":"闸北区灵石路217号海上文化中心6楼"},{"poiid":"B2094757D06FA5F4469E","title":"珠江创意中心","lon":"121.449512","lat":"31.283984","category":"46","category_name":"楼宇","address":"上海市闸北区灵石路695号"},{"poiid":"B2094757D06FA1F84198","title":"宝华现代城","lon":"121.45346069","lat":"31.280292511","category":"47","category_name":"住宅区","address":"上海市闸北区广中路1001号"},{"poiid":"B2094757D06FABFF4193","title":"中环南北高架","lon":"121.452547","lat":"31.285502","category":"260","category_name":"其他","address":"上海共和新路永和东路"},{"poiid":"B2094757D06FA6FA4898","title":"新梅共和城","lon":"121.44983","lat":"31.281385","category":"47","category_name":"住宅区","address":"上海闸北区广中西路99弄"},{"poiid":"B2094757D06FABFA419B","title":"海上文化中心","lon":"121.4574569","lat":"31.2833081","category":"260","category_name":"其他","address":"闸北区平型关路1222号(近灵石路)"},{"poiid":"B2094757D068A6F94192","title":"闸北网球馆足球中心","lon":"121.455741","lat":"31.278968","category":"220","category_name":"运动场所","address":"上海闸北区广延路417号"},{"poiid":"B2094757D068A0FA4893","title":"上海大学学生公寓","lon":"121.456564069","lat":"31.2800450283","category":"253","category_name":"校园生活","address":"上海闸北区广中路805号"},{"poiid":"B2094757D66BA1FE499D","title":"赤柱港式餐厅","lon":"121.45464","lat":"31.27986","category":"72","category_name":"广东菜","address":"闸北区广中路911号(近广延路)"},{"poiid":"B2094757D068A5FC469C","title":"来因何桌游咖啡馆","lon":"121.453126574","lat":"31.280346553","category":"260","category_name":"其他","address":"闸北区共和新路2395弄大宁新天地61号(近一号线马戏城站)"},{"poiid":"B2094757D06AA1FB4698","title":"慧芝湖花园三期嘉悦天地","lon":"121.45646442327882","lat":"31.283087486077513","category":"47","category_name":"住宅区","address":"上海市闸北区灵石路208号"},{"poiid":"B2094654D56CA3FE469D","title":"泛欧现代大厦","lon":"121.459","lat":"31.2872","category":"46","category_name":"楼宇","address":"越秀区环市东路362-366号"},{"poiid":"B2094757D068A3FF4092","title":"国家电网上海市电力公司市北供电公司","lon":"121.4524465","lat":"31.2821028","category":"46","category_name":"楼宇","address":"上海共和新路2511号"},{"poiid":"B2094757D16DA3FB469F","title":"大宁公园白沙滩","lon":"121.45067895","lat":"31.2865863768","category":"196","category_name":"公园","address":"上海市闸北区广中西路"},{"poiid":"B2094655D26EA3F8469C","title":"创意合金工厂","lon":"121.4495","lat":"31.28398","category":"46","category_name":"楼宇","address":"闸北区灵石路695号(近共和新路)"},{"poiid":"B2094654D464A3F9419A","title":"锦荣国际大酒店商务楼","lon":"121.45107","lat":"31.28381","category":"46","category_name":"楼宇","address":"共和新路2750号"},{"poiid":"B2094654DB6AAAFE439B","title":"真锅咖啡馆","lon":"121.45269","lat":"31.28064","category":"65","category_name":"咖啡厅","address":"闸北区共和新路2431号(近一号线马戏城站)"},{"poiid":"B2094757D06AA4FC469B","title":"南北高架广中西路","lon":"121.451751627","lat":"31.2810158261","category":"500","category_name":"未知分类","address":"上海南北高架广中西路下匝道"},{"poiid":"B2094750D664A4FF419F","title":"彭浦第一炸","lon":"121.452","lat":"31.2807","category":"68","category_name":"快餐厅","address":"闸北区共和新路3804号"},{"poiid":"B2094757D16FAAF94298","title":"共和新路广中路","lon":"121.45150995","lat":"31.2829993083","category":"500","category_name":"未知分类","address":"上海共和新路广中路"},{"poiid":"B2094757D065A1FF439F","title":"上海东方票务有限公司","lon":"121.45801984","lat":"31.282768626","category":"46","category_name":"楼宇","address":"上海平型关路1220号海上文化中心1号楼1层"},{"poiid":"B2094655D36CA6FC499F","title":"共和新路灵石路","lon":"121.4517","lat":"31.28262","category":"38","category_name":"公交车站","address":""},{"poiid":"B2094757D16FA2F84299","title":"第十人民医院产科","lon":"121.45070595","lat":"31.2867403798","category":"162","category_name":"医院","address":"上海延长路"},{"poiid":"B2094654D464A7F44399","title":"大宁公寓","lon":"121.454857","lat":"31.280257","category":"47","category_name":"住宅区","address":"上海市闸北区大宁路503-505弄"},{"poiid":"B2094757D66DA7FA459D","title":"灵石路650号","lon":"121.45304095","lat":"31.2839383262","category":"500","category_name":"未知分类","address":"上海市闸北区灵石路650号"},{"poiid":"B2094655D36CA6FC4998","title":"共和新路彭江路","lon":"121.45188","lat":"31.28437","category":"38","category_name":"公交车站","address":""},{"poiid":"B2094757D66FA7FE4098","title":"大宁派出所","lon":"121.4566881","lat":"31.284390714","category":"609","category_name":"警察局","address":"上海市闸北区彭江路200号1楼"},{"poiid":"B2094655D265A4FA4292","title":"新梅共和城一期","lon":"121.45636","lat":"31.28651","category":"47","category_name":"住宅区","address":"上海市长宁区延安西路1235弄"},{"poiid":"B2094655D26CA0FB479E","title":"悦公馆","lon":"121.45208","lat":"31.287901","category":"47","category_name":"住宅区","address":"闸北区共和新路2989弄"},{"poiid":"B2094752DB6EA2FC4298","title":"慧芝湖花园三期","lon":"121.451729","lat":"31.284458","category":"47","category_name":"住宅区","address":"上海市 闸北区平型关路1088弄"},{"poiid":"B2094753DB69A2FE4993","title":"蒲公英会议中心","lon":"121.447639","lat":"31.287201","category":"263","category_name":"公司","address":"上海市闸北区彭江路602号大宁德必易园e栋2F"},{"poiid":"B2094757D164A4FB419C","title":"如家快捷酒店 上海马戏城店","lon":"121.4572359","lat":"31.2795308","category":"217","category_name":"旅馆招待所","address":"上海市闸北区广中路809号(近平型关路)"},{"poiid":"B2094757D16CA7F84399","title":"邻里人家","lon":"121.45209145","lat":"31.283081809","category":"247","category_name":"餐饮美食","address":"上海长临路999号"},{"poiid":"B2094654DB6AA4FA429D","title":"上海市风华初级中学(共和新路)","lon":"121.45075","lat":"31.28433","category":"55","category_name":"中学","address":"共和新路2800"},{"poiid":"B2094654D56CA3FE469E","title":"雅冠小厨","lon":"121.45234","lat":"31.28157","category":"76","category_name":"上海菜","address":"闸北区共和新路2499号(近灵石路)"},{"poiid":"B2094752D568A1F5449A","title":"coffe bene","lon":"121.452407","lat":"31.281968","category":"247","category_name":"餐饮美食","address":"广中路815号1幢103"},{"poiid":"B2094757D06BA7FB439A","title":"澳门豆捞","lon":"121.45134","lat":"31.28197","category":"86","category_name":"火锅店","address":"闸北区共和新路(近大润发)"},{"poiid":"B2094757D165AAFB4993","title":"共和新路","lon":"121.45291595","lat":"31.288094405","category":"500","category_name":"未知分类","address":"上海市闸北区永和路"},{"poiid":"B2094654DB6AA2FA4693","title":"上海鸿顺合金刀具有限公司","lon":"121.45333","lat":"31.28434","category":"263","category_name":"公司","address":"闸北区共和新路2801号1-102室"},{"poiid":"B2094757D169A2FF4793","title":"爱侣宠物诊所(灵石路店)","lon":"121.45204","lat":"31.28316","category":"162","category_name":"医院","address":"上海闸北区灵石路1539号F1-F14(近新村路)  "},{"poiid":"B2094654D56CA3FE469B","title":"上海市企业联合会","lon":"121.45259","lat":"31.28298","category":"250","category_name":"公园户外","address":"共和新路2623"},{"poiid":"B2094654D56CA3FE459F","title":"上海新中动力机厂国际贸易公司","lon":"121.45332","lat":"31.28434","category":"263","category_name":"公司","address":"共和新路2801"},{"poiid":"B2094654D56CA3FE469A","title":"上海市企业管理进修学院","lon":"121.45258","lat":"31.28298","category":"53","category_name":"成人教育","address":"共和新路2623"},{"poiid":"B2094757D16BA3F84199","title":"大宁路街道社区事务受理中心","lon":"121.4561237","lat":"31.284092708","category":"500","category_name":"未知分类","address":"上海彭江路188号"},{"poiid":"B2094655D26BA1FC469E","title":"平型关路广中路","lon":"121.45822","lat":"31.28089","category":"38","category_name":"公交车站","address":""},{"poiid":"B2094757D069A2FB419B","title":"中国工商银行(马戏城支行)","lon":"121.4523","lat":"31.27914","category":"46","category_name":"楼宇","address":"上海闸北区共和新路2411号广中路口  "},{"poiid":"B2094750D06CA2FB439E","title":"招商银行上海大宁支行","lon":"121.453895","lat":"31.28012","category":"500","category_name":"未知分类","address":"广中路957号"},{"poiid":"B2094654D56CA3FE4592","title":"交通银行上海分行共和新路支行","lon":"121.45229","lat":"31.28303","category":"150","category_name":"银行","address":"共和新路2645"},{"poiid":"B2094753D66EA7FF4892","title":"鼎味串串香","lon":"121.451648","lat":"31.282548","category":"247","category_name":"餐饮美食","address":"上海市 共和新路2562号"},{"poiid":"B2094654D56CA3FE469F","title":"雅冠商务酒店","lon":"121.45236","lat":"31.28151","category":"250","category_name":"公园户外","address":"闸北区共和新路2499号(近一号线马戏城站)"},{"poiid":"B2094757D169A7FB409E","title":"龙之梦影城","lon":"121.455240103","lat":"31.2802326273","category":"178","category_name":"电影院","address":"上海长宁路1018号龙之梦购物中心九楼"},{"poiid":"B2094757D66DA0F84298","title":"南北高架广中路出口","lon":"121.45114895","lat":"31.288058405","category":"500","category_name":"未知分类","address":"上海南北高架广中路出口"},{"poiid":"B2094757D06AA4FA4798","title":"迪士尼英语(大宁中心)","lon":"121.45394383","lat":"31.280852678","category":"253","category_name":"校园生活","address":"闸北区广中路863-867号2楼"},{"poiid":"B2094655D26BA1FC459E","title":"平型关路彭江路","lon":"121.45746","lat":"31.28336","category":"38","category_name":"公交车站","address":""},{"poiid":"B2094757D065A5FA469D","title":"大宁路派出所","lon":"121.456844","lat":"31.284933","category":"609","category_name":"警察局","address":"上海闸北区彭江路200号"},{"poiid":"B2094655D265A3FF4199","title":"全家","lon":"121.45307","lat":"31.27984","category":"117","category_name":"便民商店/便利店","address":"广中路999"},{"poiid":"B2094753D56CA5FD489D","title":"临汾路夜市","lon":"121.450637","lat":"31.28654","category":"247","category_name":"餐饮美食","address":"上海市 临汾路"},{"poiid":"B2094655D265A6FB4898","title":"尚典阁","lon":"121.45489","lat":"31.27964","category":"75","category_name":"浙江菜","address":"闸北区广中路905号(近广延路)"},{"poiid":"B2094757D064A6FB449D","title":"企联大厦","lon":"121.45195835","lat":"31.28233727","category":"252","category_name":"楼宇机构","address":"上海共和新路2623号"},{"poiid":"B2094757D169A2FE419D","title":"大宁路街道","lon":"121.457069","lat":"31.284772","category":"500","category_name":"未知分类","address":"上海彭江路188号"},{"poiid":"B2094752D56AA7F44993","title":"caffe bane","lon":"121.456423","lat":"31.280424","category":"247","category_name":"餐饮美食","address":"广中路宝华现代城"},{"poiid":"B2094757D064A4F5459D","title":"泛欧大厦","lon":"121.45341695","lat":"31.2805412613","category":"252","category_name":"楼宇机构","address":"上海市闸北区共和新路2449号"},{"poiid":"B2094757D06AA0F5419E","title":"灵石路共和新路","lon":"121.451564","lat":"31.281953","category":"500","category_name":"未知分类","address":"上海951,79公交车站"},{"poiid":"B2094752D16BA5FE4599","title":"大宁国际","lon":"121.453415","lat":"31.287465","category":"500","category_name":"未知分类","address":null},{"poiid":"B2094655D265A7FC4998","title":"和源福邸","lon":"121.45166","lat":"31.28846","category":"47","category_name":"住宅区","address":"共和新路2991"},{"poiid":"B2094750D26EA4F5489B","title":"中国联通共和新路营业厅","lon":"121.451301","lat":"31.283065","category":"263","category_name":"公司","address":"共和新路2598号"},{"poiid":"B2094753D76AA7F54499","title":"鼎味串串香","lon":"121.45138","lat":"31.281745","category":"71","category_name":"四川菜","address":"上海市闸北区共和新路2562号(广中西路)"},{"poiid":"B2094752DA6BA6FB4999","title":"caffe bene上海大学店","lon":"121.449869","lat":"31.280548","category":"500","category_name":"未知分类","address":"上海市 上海市广中路805号"},{"poiid":"B2094757D168A7FA4393","title":"上海大学延长校区G3学生公寓1010寝","lon":"121.4569217","lat":"31.284462515","category":"500","category_name":"未知分类","address":"上海市闸北区广中路805号"},{"poiid":"B2094654DB6AA4FA429A","title":"快客(灵石路)","lon":"121.45036","lat":"31.28302","category":"117","category_name":"便民商店/便利店","address":"灵石路522号甲"},{"poiid":"B2094757D06BAAF84298","title":"中国邮政储蓄银行(共和新路邮政储蓄所)","lon":"121.45226287","lat":"31.283023834","category":"252","category_name":"楼宇机构","address":"上海闸北区共和新路3014号"},{"poiid":"B2094654D56CA3FE4693","title":"上海市电力公司电缆输配电公司","lon":"121.45252","lat":"31.2819","category":"263","category_name":"公司","address":"共和新路2501"},{"poiid":"B2094752DB6CAAFC479F","title":"新天地","lon":"121.450631","lat":"31.286538","category":"500","category_name":"未知分类","address":"上海市 马当路"},{"poiid":"B2094654DB6AA4FA4292","title":"中国电信集团上海市电信公司北区电信局","lon":"121.4504","lat":"31.2851","category":"263","category_name":"公司","address":"彭江路500"},{"poiid":"B2094654D464A3F9489E","title":"上海火车站站派出所","lon":"121.45111","lat":"31.28557","category":"609","category_name":"警察局","address":"共和新路2838号"},{"poiid":"B2094655D26CA0FB4799","title":"大宁路派出所(彭江路)","lon":"121.45689","lat":"31.28485","category":"248","category_name":"生活娱乐","address":"彭江路200"},{"poiid":"B2094753D26DA1FC4592","title":"Caffebene","lon":"121.456284","lat":"31.279649","category":"500","category_name":"未知分类","address":"上海市 广中路805号1幢103室(近上海大学)"},{"poiid":"B2094757D568A5FA4499","title":"大宁社区文化活动中心","lon":"121.457015","lat":"31.283647","category":"248","category_name":"生活娱乐","address":"中国上海市闸北区"},{"poiid":"B2094654D56CA3FD419E","title":"中国移动共和新路营业厅","lon":"121.45323","lat":"31.27988","category":"151","category_name":"电讯营业厅","address":"闸北区共和新路2395弄68,70号"},{"poiid":"B2094655D26DA5FB4998","title":"上海市电力公司沪北供电分公司","lon":"121.45259","lat":"31.28216","category":"263","category_name":"公司","address":"共和新路2511"},{"poiid":"B2094757D16DA2FE4599","title":"和源福邸-悦公馆","lon":"121.45377285","lat":"31.280366558","category":"47","category_name":"住宅区","address":"上海闸北区共和新路2989弄"},{"poiid":"B2094757D16AA1FE4292","title":"上海电信通讯设备有限公司","lon":"121.451076","lat":"31.284875","category":"500","category_name":"未知分类","address":"上海共和新路2802号"},{"poiid":"B2094757D66BABFC409B","title":"睢宁小菜","lon":"121.449909","lat":"31.28363","category":"260","category_name":"其他","address":"闸北区灵石路697-3号(共和新路万荣路间)"},{"poiid":"B2094757D16EA3F94592","title":"国家电网上海市电力公司检修公司","lon":"121.4563731","lat":"31.281912662","category":"500","category_name":"未知分类","address":"上海共和新路2501号"},{"poiid":"B2094654DB65A0F4449F","title":"好德No.3049","lon":"121.44965","lat":"31.28305","category":"117","category_name":"便民商店/便利店","address":"灵石路536"},{"poiid":"B2094654D56CA3FD4298","title":"罗森(平型关路)","lon":"121.45816","lat":"31.28207","category":"117","category_name":"便民商店/便利店","address":"闸北区平型关路1105号"},{"poiid":"B2094757D068A4FA459B","title":"上海电信北区局","lon":"121.45016479","lat":"31.285474777","category":"500","category_name":"未知分类","address":"上海彭江路500号"},{"poiid":"B2094757D16EA4FF459E","title":"迪斯尼英语(少儿)","lon":"121.455373103","lat":"31.2801346253","category":"253","category_name":"校园生活","address":"上海广中路857号近广延路口"},{"poiid":"B2094655D36CA3FF4798","title":"上海市电力公司检修公司","lon":"121.45261","lat":"31.28191","category":"263","category_name":"公司","address":""},{"poiid":"B2094655D264A1F54999","title":"秀域美容保健","lon":"121.45307","lat":"31.28013","category":"148","category_name":"美容美发店","address":"闸北区共和新路2395号(近广中路)"},{"poiid":"B2094654D56CA3FD489F","title":"中国石化上海石油分公司友强闸北商店","lon":"121.45185","lat":"31.28657","category":"255","category_name":"专卖店","address":"共和新路2937"},{"poiid":"B2094757D068ABF9459E","title":"宝华二期","lon":"121.4547551","lat":"31.27988162","category":"47","category_name":"住宅区","address":"上海市闸北区广延路555弄"},{"poiid":"B2094757D56EA5FB4099","title":"秀域古方减肥(大宁国际店)","lon":"121.454336","lat":"31.280783","category":"249","category_name":"购物服务","address":"共和新路2395弄宝华现代城85号"},{"poiid":"B2094655D26EA2F94292","title":"慧芝湖花园(北门)","lon":"121.45817","lat":"31.28172","category":"656","category_name":"大门","address":"平型关路1083弄"},{"poiid":"B2094757D16EA6FF4698","title":"罗森便利(平型关路店)","lon":"121.45812","lat":"31.28246","category":"117","category_name":"便民商店/便利店","address":"上海闸北区平型关路1105号  "},{"poiid":"B2094757D168AAF5499E","title":"启稚摇篮早教中心","lon":"121.45379695","lat":"31.280585262","category":"500","category_name":"未知分类","address":"普陀区中潭路100弄中远两湾城21号(近英孚教育)"},{"poiid":"B2094752D068A1FB459F","title":"大宁影城","lon":"121.450643","lat":"31.286548","category":"178","category_name":"电影院","address":"共和新路1878号"},{"poiid":"B2094753D76CA6FA4192","title":"caffe bene","lon":"121.456352","lat":"31.279689","category":"500","category_name":"未知分类","address":"上海市 广中路店"},{"poiid":"B2094757D165A1F8409E","title":"B2 studio","lon":"121.45380495","lat":"31.2811072721","category":"500","category_name":"未知分类","address":"上海市广延路"},{"poiid":"B2094655D36CA7F4499F","title":"广延路大宁路","lon":"121.45434","lat":"31.27937","category":"38","category_name":"公交车站","address":""},{"poiid":"B2094757DA6EA4F5429A","title":"欢唱量贩ktv","lon":"121.452141","lat":"31.289113","category":"170","category_name":"KTV","address":"共和新路4646号"},{"poiid":"B2094757D569A7F84398","title":"自然美","lon":"121.453796","lat":"31.280242","category":"148","category_name":"美容美发店","address":"共和新路2395弄47"},{"poiid":"B2094750DB6FAAFA4398","title":"和源企业广场","lon":"121.453308","lat":"31.287488","category":"263","category_name":"公司","address":"共和新路2993号"},{"poiid":"B2094757D165A6FF409B","title":"肖邦视觉摄影工作室","lon":"121.45318195","lat":"31.281065271","category":"500","category_name":"未知分类","address":"上海广延路555弄3号202室"},{"poiid":"B2094654D464A3F8499E","title":"新梅共和城(北门)","lon":"121.44973","lat":"31.28305","category":"656","category_name":"大门","address":"大宁路"},{"poiid":"B2094757D568ABFC409F","title":"唯伊美(中国)女子专业瘦身大宁店","lon":"121.45317","lat":"31.280109","category":"148","category_name":"美容美发店","address":"共和新路2395弄81"},{"poiid":"B2094757D16BA5F9429D","title":"沪宁租车","lon":"121.45447295","lat":"31.280897268","category":"163","category_name":"4S店","address":"上海共和新路2449号泛欧现代大厦920室"},{"poiid":"B2094750DB64A2FA499A","title":"虹口法院","lon":"121.45732169988","lat":"31.279439177906","category":"608","category_name":"法院","address":"北宝兴路531号"},{"poiid":"B2094750DB68A6FD4693","title":"南北高架","lon":"121.452217","lat":"31.280508","category":"500","category_name":"未知分类","address":null},{"poiid":"B2094757D16EA7FF479D","title":"移动营业厅","lon":"121.453231","lat":"31.279884","category":"150","category_name":"银行","address":"上海广中路971号"},{"poiid":"B2094757DA68A1F84392","title":"养生粥 闸北店","lon":"121.45232","lat":"31.27991","category":"68","category_name":"快餐厅","address":"闸北区共和新路4433号(近保德路)"},{"poiid":"B2094757D16EAAFC479A","title":"荷玛国际体育用品上海有限公司","lon":"121.45143555","lat":"31.281796585","category":"500","category_name":"未知分类","address":"上海灵石路695号珠江创意中心"},{"poiid":"B2094757D064A3F44099","title":"今唐海鲜养生汇","lon":"121.45319895","lat":"31.2884374122","category":"500","category_name":"未知分类","address":"上海广灵四路广粤路"},{"poiid":"B2094757D66CA0F4409F","title":"862路公交车共康路共和新路站","lon":"121.45230885","lat":"31.2797438461","category":"38","category_name":"公交车站","address":"上海共康路近共和新路沁园门口！"},{"poiid":"B2094757D16CABF44793","title":"斧山料理","lon":"121.455440993","lat":"31.279115464","category":"247","category_name":"餐饮美食","address":"上海大宁"},{"poiid":"B2094757D66DA3F9459E","title":"Web Power","lon":"121.44996295","lat":"31.28413733","category":"500","category_name":"未知分类","address":"上海市闸北区灵石路695"},{"poiid":"B2094757D169A4F4469C","title":"迪卡侬","lon":"121.4504156","lat":"31.2881773572","category":"500","category_name":"未知分类","address":"上海汶水路店"},{"poiid":"B2094757D168A6FA4898","title":"DIY烘焙1号店","lon":"121.452682","lat":"31.28089","category":"500","category_name":"未知分类","address":"上海共和新路2449号泛欧大厦1009室"},{"poiid":"B2094654D464A3F9489D","title":"上海鼓风机厂有限公司","lon":"121.44972","lat":"31.28672","category":"263","category_name":"公司","address":"上海闸北区共和新路3000号"},{"poiid":"B2094752DA6FABFA429B","title":"咖啡陪你caffebene","lon":"121.45685","lat":"31.279258","category":"500","category_name":"未知分类","address":"上海市 闸北区广中路805号103室"},{"poiid":"B2094655D265A0FD469C","title":"教育超市广中路店","lon":"121.45663","lat":"31.28006","category":"118","category_name":"超级市场","address":"闸北区广中路805号上海大学学生公寓G2楼底楼(近平型关路)"},{"poiid":"B2094757D569A0FB4999","title":"C & Z桌游休闲主题馆","lon":"121.4543381","lat":"31.28078806","category":"248","category_name":"生活娱乐","address":"共和新路2399号17-1701号"},{"poiid":"B2094752D464A1FA4199","title":"lost密室逃脱","lon":"121.452987","lat":"31.280223","category":"248","category_name":"生活娱乐","address":"共和新路2449号"},{"poiid":"B2094757D164A2FA429A","title":"香啡缤(珠江创意中心店)","lon":"121.44987695","lat":"31.28414433","category":"260","category_name":"其他","address":"闸北区灵石路695号珠江创意中心1楼(近共和新路)"},{"poiid":"B2094654D56CA3FF439B","title":"99广中绿地","lon":"121.45407","lat":"31.2789","category":"201","category_name":"城市广场","address":""},{"poiid":"B2094655D26FA1FB469B","title":"泛欧现代大厦(西门)","lon":"121.45243","lat":"31.28107","category":"48","category_name":"楼宇大门","address":"共和新路2449号"},{"poiid":"B2094655D264AAFB4193","title":"中国农业银行上海闸北马戏城支行","lon":"121.45315","lat":"31.27985","category":"150","category_name":"银行","address":"闸北区广中路977号(广中路广中西路)"},{"poiid":"B2094757D068A3F94798","title":"开心吧桌游俱乐部","lon":"121.45267838","lat":"31.280891557","category":"175","category_name":"棋牌室","address":"上海闸北区共和新路2449号泛欧现代大厦415室(近一号线马戏城站)"},{"poiid":"B2094757D06BA4FE459A","title":"61486部队","lon":"121.455466103","lat":"31.2801466255","category":"500","category_name":"未知分类","address":"上海平型关路2399号"},{"poiid":"B2094654DB6AA4FA4293","title":"梁氏便利店","lon":"121.45066","lat":"31.28815","category":"117","category_name":"便民商店/便利店","address":""},{"poiid":"B2094757D165A3FD489E","title":"中兴路烧烤摊","lon":"121.45217195","lat":"31.279050232","category":"247","category_name":"餐饮美食","address":"上海中兴路1035号"},{"poiid":"B2094655D265A2FA449C","title":"宝华现代城(东二门)","lon":"121.45512","lat":"31.28118","category":"656","category_name":"大门","address":""},{"poiid":"B2094655D26EA2F44498","title":"滴翠苑·明园森林都市(北门)","lon":"121.45317","lat":"31.28933","category":"48","category_name":"楼宇大门","address":"共和新路2999弄"},{"poiid":"B2094757D66DA6F84293","title":"宝妈","lon":"121.45096705","lat":"31.289141125","category":"247","category_name":"餐饮美食","address":"上海泗塘新村"},{"poiid":"B2094757D16EA6FB4593","title":"慧芝湖三期售楼处","lon":"121.4582491","lat":"31.281187647","category":"500","category_name":"未知分类","address":"上海市闸北区共和新路"},{"poiid":"B2094753DA6AA5FE499C","title":"coffee bene","lon":"121.456253","lat":"31.279615","category":"500","category_name":"未知分类","address":"上海市 闸北区广中路"},{"poiid":"B2094655D26BABF9419E","title":"时代联华永和店","lon":"121.45544","lat":"31.28992","category":"118","category_name":"超级市场","address":""},{"poiid":"B2094654DB64A6FB409A","title":"锦荣国际大酒店(南门)","lon":"121.45101","lat":"31.28346","category":"656","category_name":"大门","address":"闸北区共和新路2750号"},{"poiid":"B2094757D16DA4FE4198","title":"仟伯大橱","lon":"121.44910995","lat":"31.282670302","category":"500","category_name":"未知分类","address":"上海市闸北区灵石路"},{"poiid":"B2094757DA6EAAF4489B","title":"中国工商银行共和新路支行","lon":"121.452244100002","lat":"31.2807410999998","category":"248","category_name":"生活娱乐","address":"闸北区共和新路740号"},{"poiid":"B2094757D165A3F84798","title":"琪琪薇婷 婚礼企划","lon":"121.45307195","lat":"31.280353257","category":"263","category_name":"公司","address":"闸北区共和新路2449号宝华现代城1313室(近广中路)查看地图"},{"poiid":"B2094757D569A0F8459E","title":"安睡宝共和新路店","lon":"121.4532161","lat":"31.28011111","category":"249","category_name":"购物服务","address":"闸北区共和新路2449号宝华现代城35号(近广中路)"},{"poiid":"B2094757D06BA4FB469C","title":"上行线(上海马戏城店)","lon":"121.45207466","lat":"31.279553449","category":"125","category_name":"书店","address":"闸北区地铁一号线上海马戏城站"},{"poiid":"B2094757D165AAF4469B","title":"翠乐庭特食汇","lon":"121.45448795","lat":"31.279785246","category":"500","category_name":"未知分类","address":"上海广中路913-915号大宁新天地步行街"},{"poiid":"B2094757DA6AAAFA419B","title":"文荟图书馆","lon":"121.453932","lat":"31.278829","category":"253","category_name":"校园生活","address":"上海市闸北区延长路149号"},{"poiid":"B2094655D265A0FF4698","title":"宝华现代城(东门)","lon":"121.45541","lat":"31.27995","category":"656","category_name":"大门","address":"广延路555弄"},{"poiid":"B2094757D16EA7FB449F","title":"梅陇驾校","lon":"121.45294795","lat":"31.2797652465","category":"253","category_name":"校园生活","address":"上海闵行区曹行镇双柏路1333号"},{"poiid":"B2094757D66EABFD4393","title":"912路共和新路芷江中路","lon":"121.449823","lat":"31.281375","category":"500","category_name":"未知分类","address":"上海共和新路芷江中路"},{"poiid":"B2094654D56CA3FD419B","title":"中国工商银行上海市马戏城支行24小时自助银行","lon":"121.45273","lat":"31.28015","category":"152","category_name":"ATM","address":"共和新路2411号"},{"poiid":"B2094655D265A2F44892","title":"宝华现代城(东三门)","lon":"121.45297","lat":"31.28127","category":"656","category_name":"大门","address":""},{"poiid":"B2094655D265ABF4449C","title":"宝华现代城(西一门)","lon":"121.4549","lat":"31.28111","category":"656","category_name":"大门","address":""},{"poiid":"B2094654DB69A6FD4598","title":"中国邮政(共和新路邮局)","lon":"121.45067","lat":"31.28881","category":"248","category_name":"生活娱乐","address":"共和新路3014号"},{"poiid":"B2094752D16BA2FC499E","title":"EASYBOX STUDIO","lon":"121.456833","lat":"31.279419","category":"221","category_name":"健身中心","address":"平型关路1083弄慧芝湖花园6号楼25楼(近广中路)"},{"poiid":"B2094757D16EA7FE479A","title":"五角场华美达大酒店","lon":"121.45021365","lat":"31.2802755062","category":"217","category_name":"旅馆招待所","address":"上海黄兴路1888号"},{"poiid":"B2094655D26FA0FC439E","title":"锦荣国际大酒店(南二门)","lon":"121.45052","lat":"31.28348","category":"656","category_name":"大门","address":"闸北区共和新路2750号"},{"poiid":"B2094757D164A7FF469A","title":"中石化加油站","lon":"121.45089595","lat":"31.288951422","category":"154","category_name":"加油加气站","address":"上海市闸北区共和新路2941号"},{"poiid":"B2094757D568A0FF489D","title":"上海大学专家公寓","lon":"121.45402","lat":"31.279944","category":"251","category_name":"出行住宿","address":"上海市闸北区广中路809号(在如家快捷酒店(上海马戏城店)内)"},{"poiid":"B2094757D065A3F94199","title":"上海菲特尔莫古轴瓦有限公司","lon":"121.44844195","lat":"31.283832324","category":"263","category_name":"公司","address":"上海闸北区灵石路697号"},{"poiid":"B2094655D265A2FA449D","title":"宝华现代城(东一门)","lon":"121.4552","lat":"31.2805","category":"656","category_name":"大门","address":""},{"poiid":"B2094655D26BAAFC4593","title":"上海浦东发展银行大宁支行24小时自助银行","lon":"121.45488","lat":"31.27962","category":"152","category_name":"ATM","address":"广中路895号"},{"poiid":"B2094654DB6AAAFE4398","title":"宝华现代城(南门)","lon":"121.45287","lat":"31.27999","category":"656","category_name":"大门","address":"共和新路2399弄"},{"poiid":"B2094757D06FA4F54798","title":"薇可陶绘工坊","lon":"121.44909345","lat":"31.286807006","category":"260","category_name":"其他","address":"闸北区共和新路3388号永鼎大厦1206室(近江场路)"},{"poiid":"B2094750D364A7F44392","title":"易居研究院","lon":"121.45669","lat":"31.279725","category":"637","category_name":"房地产类公司","address":"上海市闸北区广延路383号秋实楼10楼"},{"poiid":"B2094655D26DA5FC469A","title":"宝华现代城(西门)","lon":"121.45497","lat":"31.27973","category":"656","category_name":"大门","address":"广延路555弄"},{"poiid":"B2094757D065ABFD4793","title":"潘朵拉舞蹈工作室","lon":"121.45153","lat":"31.27962","category":"260","category_name":"其他","address":"上海闸北区共和新路2488号211室(新梅共和城东门)(近大宁国际;广中西路)  "},{"poiid":"B2094654DB6AA4FA419F","title":"新梅共和城(南一门)","lon":"121.45068","lat":"31.27975","category":"656","category_name":"大门","address":""}]