[{"poiid":"B2094655D36CA6FF449A","title":"复旦大学江湾校区","lon":"121.51079","lat":"31.33611","category":"38","category_name":"公交车站","address":"上海杨浦区淞沪路2005号"},{"poiid":"B2094757D06FA3FC439B","title":"淞发路地铁站","lon":"121.500579","lat":"31.344674","category":"36","category_name":"地铁站","address":"上海轨道交通 三号线 轨交淞发路站 轻轨 3"},{"poiid":"B2094757D065AAFF409C","title":"汽車夢工場","lon":"121.50068383","lat":"31.349958154","category":"500","category_name":"未知分类","address":"上海市寶山區軍工路5169號"},{"poiid":"B2094757D06FA0FD4493","title":"汽车梦工厂","lon":"121.504417419","lat":"31.3494625092","category":"500","category_name":"未知分类","address":"上海宝山区军工路5169"},{"poiid":"B2094757D06FA2F84692","title":"新江湾城SMP滑板公园","lon":"121.51166895","lat":"31.3363108705","category":"196","category_name":"公园","address":"杨浦区淞沪路2100号(近国浩路)"},{"poiid":"B2094757D06FA1FA4492","title":"建配龙家居商城","lon":"121.49426833","lat":"31.339484868","category":"123","category_name":"家具建材市场","address":"宝山区长逸路15号建配龙市场内(近逸仙路)"},{"poiid":"B2094757D06AA2F8489B","title":"合生江湾国际公寓","lon":"121.5153901","lat":"31.340062371","category":"47","category_name":"住宅区","address":"上海政和路999弄"},{"poiid":"B2094757D06AA2F9499C","title":"上海国际港务(集团)股份有限公司军工路分公司","lon":"121.513896","lat":"31.347006","category":"46","category_name":"楼宇","address":"上海宝山区军工路4501号"},{"poiid":"B2094757D06FA6FC439E","title":"华浜新村","lon":"121.49277","lat":"31.350016","category":"47","category_name":"住宅区","address":"上海长江路军工路"},{"poiid":"B2094757D064AAFD4593","title":"华润新江湾九里","lon":"121.52614512144","lat":"31.341748554472","category":"500","category_name":"未知分类","address":"杨浦区国浩路88号"},{"poiid":"B2094757D068A0FA429E","title":"淞南三村","lon":"121.498","lat":"31.3495","category":"47","category_name":"住宅区","address":"淞南路301号"},{"poiid":"B2094757D465A1F84198","title":"豪皇海鲜大酒店","lon":"121.498222","lat":"31.340973","category":"72","category_name":"广东菜","address":"逸仙路3000号近长逸路"},{"poiid":"B2094757D068A4FB4192","title":"复旦大学江湾校区李兆基图书馆","lon":"121.50644591","lat":"31.3361329136","category":"253","category_name":"校园生活","address":"上海杨浦区淞沪路2005号"},{"poiid":"B2094655D36CA1F5499D","title":"军工路逸仙路","lon":"121.50859","lat":"31.34915","category":"38","category_name":"公交车站","address":""},{"poiid":"B2094655D36DA7FD4398","title":"张华浜","lon":"121.50039","lat":"31.35498","category":"38","category_name":"公交车站","address":""},{"poiid":"B2094655D36DA7F5489B","title":"淞南四村","lon":"121.4980655202","lat":"31.35075517499","category":"38","category_name":"公交车站","address":"上海市上海宝山区淞南四村站淞南路长江路"},{"poiid":"B2094757D065A7F84399","title":"逸仙公寓","lon":"121.505","lat":"31.3528","category":"252","category_name":"楼宇机构","address":"上海逸仙路3458弄"},{"poiid":"B2094654D46BA3F5439E","title":"快客NO.6188","lon":"121.51317","lat":"31.34727","category":"117","category_name":"便民商店/便利店","address":"军工路"},{"poiid":"B2094757D16CA3FD479F","title":"上海邮政张华浜培训基地","lon":"121.502416","lat":"31.351685","category":"500","category_name":"未知分类","address":"上海逸仙路3777号"},{"poiid":"B2094654DB64A5FC449E","title":"美格菲健身中心(新江湾店)","lon":"121.51195","lat":"31.3361","category":"221","category_name":"健身中心","address":"杨浦区淞沪路2100号新江湾会所(近国浩路)"},{"poiid":"B2094655D36CA0FC4092","title":"军工路陈家宅","lon":"121.51458","lat":"31.34655","category":"38","category_name":"公交车站","address":""},{"poiid":"B2094757D569A2F84192","title":"九龙仓玺园","lon":"121.514","lat":"31.3328","category":"47","category_name":"住宅区","address":"上海市杨浦区国晓路500弄(新江湾城)"},{"poiid":"B2094757D069A5F44692","title":"上海音乐学院实验学校(新江湾城政和路北区)","lon":"121.512098103","lat":"31.3277106205","category":"55","category_name":"中学","address":"上海市杨浦区政和路359号"},{"poiid":"B2094757D465A1FC489B","title":"逸园味仙阁","lon":"121.50123","lat":"31.34717","category":"76","category_name":"上海菜","address":"宝山区逸仙路3456弄18号(近轻轨三号线淞发路站)"},{"poiid":"B2094750DB68A0F9469E","title":"同济大学第一附属中学","lon":"121.518768","lat":"31.33612","category":"253","category_name":"校园生活","address":"杨浦区国浩路100号(近复旦新校区)"},{"poiid":"B2094655D265A0F8489B","title":"鎏园·中星新城","lon":"121.4983","lat":"31.34419","category":"47","category_name":"住宅区","address":"淞发路25号"},{"poiid":"B2094757D06BA4FE439F","title":"华浜二村","lon":"121.50059","lat":"31.346624","category":"252","category_name":"楼宇机构","address":"逸仙路3400号"},{"poiid":"B2094757D568A6FA4099","title":"尚城汇景园","lon":"121.50172","lat":"31.347908","category":"47","category_name":"住宅区","address":"逸仙路3508弄"},{"poiid":"B2094654D46BA3F84198","title":"上海东亚运输仓储有限公司(集发酒店西北)","lon":"121.51229","lat":"31.34566","category":"263","category_name":"公司","address":""},{"poiid":"B2094757D569A2FF489D","title":"逸兴家园","lon":"121.49973","lat":"31.347683","category":"47","category_name":"住宅区","address":"上海市宝山区逸仙路3456号"},{"poiid":"B2094654DB6AA5F5419D","title":"上海港军工路港务公司","lon":"121.50833","lat":"31.34665","category":"263","category_name":"公司","address":""},{"poiid":"B2094757D06BA2FC479B","title":"逸居苑","lon":"121.49728386","lat":"31.33884357","category":"47","category_name":"住宅区","address":"上海宝山区淞南路111弄"},{"poiid":"B2094654D46BA3F84093","title":"上海港公安局集装箱货场派出所","lon":"121.51341","lat":"31.34473","category":"609","category_name":"警察局","address":"军工路4049号"},{"poiid":"B2094757D06FA6F94099","title":"鎏园","lon":"121.500579834","lat":"31.3446731567","category":"47","category_name":"住宅区","address":"上海市宝山区淞发路25弄"},{"poiid":"B2094654D46BA3F54499","title":"复旦旺溪植物园","lon":"121.50827","lat":"31.34131","category":"198","category_name":"植物园","address":"杨浦区淞沪路2005号复旦大学江湾校区内(近新江湾城公园)"},{"poiid":"B2094654D46BA3FF4292","title":"上海东方海外集装箱货运有限公司","lon":"121.51255","lat":"31.3439","category":"263","category_name":"公司","address":""},{"poiid":"B2094654D46BA3F8409D","title":"中远物流(淞军路)","lon":"121.51188","lat":"31.34458","category":"248","category_name":"生活娱乐","address":""},{"poiid":"B2094654D46BA3F8419A","title":"上海港集装箱综合发展公司","lon":"121.51341","lat":"31.34474","category":"263","category_name":"公司","address":"军工路4049号"},{"poiid":"B2094655D26BA0FA419B","title":"逸兴公寓","lon":"121.507452","lat":"31.352993","category":"47","category_name":"住宅区","address":"上海市宝山区逸仙路3508弄"},{"poiid":"B2094654D469AAFC4798","title":"长宏新苑","lon":"121.49244","lat":"31.342192","category":"47","category_name":"住宅区","address":"上海市普陀区武宁路492号"},{"poiid":"B2094757D16BA7F4459C","title":"吉发大厦","lon":"121.51587642","lat":"31.344690527","category":"252","category_name":"楼宇机构","address":"上海宝山区军工路4049号"},{"poiid":"B2094655D36CA7F4409C","title":"国帆路淞沪路","lon":"121.51377","lat":"31.34041","category":"38","category_name":"公交车站","address":""},{"poiid":"B2094655D36DA0FA4693","title":"逸仙路长江路","lon":"121.50071","lat":"31.35426","category":"38","category_name":"公交车站","address":""},{"poiid":"B2094655D26AA0F9429C","title":"地铁淞发路站","lon":"121.50057","lat":"31.34467","category":"36","category_name":"地铁站","address":""},{"poiid":"B2094757D66CA3FE4393","title":"東京站","lon":"121.501466831","lat":"31.3487941304","category":"500","category_name":"未知分类","address":"JR 東京站 日本"},{"poiid":"B2094655D264A0FF419B","title":"建德国际公寓","lon":"121.52459","lat":"31.334923","category":"47","category_name":"住宅区","address":"上海市杨浦区政悦路588弄"},{"poiid":"B2094655D265A7FE4999","title":"加州水郡","lon":"121.51234","lat":"31.332561","category":"47","category_name":"住宅区","address":"杨浦区国秀路599号"},{"poiid":"B2094757D16CABFC439D","title":"裸婚时代","lon":"121.50835223","lat":"31.352093398","category":"500","category_name":"未知分类","address":"上海电视剧"},{"poiid":"B2094757DA6FA3FA489D","title":"华润置地橡树湾","lon":"121.51965","lat":"31.335945","category":"47","category_name":"住宅区","address":"国浩路88号，政和路1088号,江湾城路1299弄"},{"poiid":"B2094654D469ABF54398","title":"东海航运大厦","lon":"121.50212","lat":"31.35227","category":"46","category_name":"楼宇","address":"上海市宝山区逸仙路3861号"},{"poiid":"B2094655D265A5FC419E","title":"新城御景","lon":"121.51685","lat":"31.336962","category":"47","category_name":"住宅区","address":"杨浦区政和路999弄"},{"poiid":"B2094757D069AAF44399","title":"复旦发育生物学研究所","lon":"121.5103311","lat":"31.340303884","category":"253","category_name":"校园生活","address":"上海市杨浦区淞沪路2205号"},{"poiid":"B2094750D26BABF94598","title":"上海国际工业设计中心","lon":"121.496185","lat":"31.342046","category":"263","category_name":"公司","address":"宝山区逸仙路3000号(近长逸路)"},{"poiid":"B2094757D768AAFF479F","title":"淞发路兰州正宗牛肉拉面","lon":"121.49955","lat":"31.34398","category":"90","category_name":"清真餐馆","address":"宝山区淞发路25弄3号(近逸仙路)"},{"poiid":"B2094757D169A5FC4398","title":"复旦大学江湾生活园区15号楼","lon":"121.498990303","lat":"31.3338126482","category":"500","category_name":"未知分类","address":"上海市国权北路1380弄15号楼"},{"poiid":"B2094757D568A0F44999","title":"新江湾城文化艺术中心","lon":"121.50603","lat":"31.33583","category":"188","category_name":"文化宫","address":"杨浦区国秀路700号"},{"poiid":"B2094655D36DA7FF439D","title":"政和路国帆路","lon":"121.51742","lat":"31.33948","category":"38","category_name":"公交车站","address":""},{"poiid":"B2094757D068A4FB419D","title":"复旦大学江湾校区食堂","lon":"121.50395107","lat":"31.335541562","category":"253","category_name":"校园生活","address":"杨浦区淞沪路2005号复旦大学江湾校区内(三门路淞沪路)"},{"poiid":"B2094655D36DA6FF439C","title":"淞发路","lon":"121.50057","lat":"31.34467","category":"38","category_name":"公交车站","address":""},{"poiid":"B2094757D66FA1F94598","title":"尚尼创意精品酒店","lon":"121.501804411","lat":"31.3509264343","category":"217","category_name":"旅馆招待所","address":"宝山区逸仙路3718号A5(近军工路)"},{"poiid":"B2094654D46BA3F54498","title":"复旦大学发育生物学研究所","lon":"121.51087","lat":"31.34041","category":"191","category_name":"科研机构","address":"淞沪路2205号"},{"poiid":"B2094654D46AA1FF429B","title":"靓肤源宝山店","lon":"121.50066","lat":"31.34732","category":"148","category_name":"美容美发店","address":""},{"poiid":"B2094654D46AA2FA4498","title":"上海中创国际集装箱储运有限公司","lon":"121.50453","lat":"31.35175","category":"263","category_name":"公司","address":""},{"poiid":"B2094654D46AA2FA459D","title":"江南造船(集团)有限责任公司","lon":"121.50159","lat":"31.35492","category":"266","category_name":"三甲医院","address":""},{"poiid":"B2094757D068AAFA4792","title":"复旦软件园","lon":"121.494193","lat":"31.339586","category":"500","category_name":"未知分类","address":"上海宝山区长逸路15号"},{"poiid":"B2094750D76EABFB489C","title":"诺丁山家庭式咖啡馆","lon":"121.517","lat":"31.3395","category":"260","category_name":"其他","address":"杨浦区政和路1119号(近国帆路)"},{"poiid":"B2094654D46AA2FA4499","title":"上海市邮政局培训中心张华浜基地","lon":"121.5023","lat":"31.35193","category":"190","category_name":"培训机构","address":"逸仙路3777"},{"poiid":"B2094757D16EA7FA449D","title":"仁恒怡庭","lon":"121.51923278636","lat":"31.333501535868","category":"47","category_name":"住宅区","address":"东至化工路,南至水月街,西至益乐路,北至方家北路"},{"poiid":"B2094757D06BA3F5459D","title":"宝山区税务局办税大厅","lon":"121.49950923","lat":"31.348764029","category":"500","category_name":"未知分类","address":"上海淞滨路28号3楼"},{"poiid":"B2094757D16AA3FC4492","title":"新江湾城湿地","lon":"121.5239101","lat":"31.337660828","category":"500","category_name":"未知分类","address":"上海政悦路"},{"poiid":"B2094655D36CA7F4409D","title":"国浩路政和路","lon":"121.51571","lat":"31.33565","category":"38","category_name":"公交车站","address":""},{"poiid":"B2094655D36DA0FA479D","title":"逸仙路南张华浜","lon":"121.50052","lat":"31.35513","category":"38","category_name":"公交车站","address":""},{"poiid":"B2094757D66CAAFC4399","title":"复旦大学江湾校区廖凯原法学楼","lon":"121.506788","lat":"31.331659","category":"253","category_name":"校园生活","address":"上海杨浦区淞沪路2005号"},{"poiid":"B2094757D16FA6F54192","title":"上海东昌英菲尼迪品牌体验中心","lon":"121.50033123","lat":"31.351262581","category":"500","category_name":"未知分类","address":"上海市宝山区军工路5169号汽车梦工场C203-C204"},{"poiid":"B2094757D66EA0F54593","title":"好饿","lon":"121.500372103","lat":"31.3465700153","category":"500","category_name":"未知分类","address":"上海回家路上"},{"poiid":"B2094654DB6AA5FF499B","title":"上海华安集装箱储运有限公司(逸仙路)","lon":"121.50172","lat":"31.35065","category":"263","category_name":"公司","address":"逸仙路3718"},{"poiid":"B2094655D26BAAFF4593","title":"宋奇酒瓶陈列室","lon":"121.49906","lat":"31.35265","category":"183","category_name":"展览馆","address":"宝山区长江路48弄23号"},{"poiid":"B2094655D265A7FB4299","title":"淞浦苑","lon":"121.502","lat":"31.3564","category":"47","category_name":"住宅区","address":"上海市宝山区长江路366号"},{"poiid":"B2094654D469ABF5469A","title":"华联超市NO.1532","lon":"121.49973","lat":"31.35243","category":"118","category_name":"超级市场","address":"长江路22"},{"poiid":"B2094654D46AA1FF4199","title":"新逸仙公寓","lon":"121.49521","lat":"31.346046","category":"47","category_name":"住宅区","address":"新逸仙公寓位于宝山逸仙路靠近长江路"},{"poiid":"B2094757D165A2F44293","title":"952路吴淞码头","lon":"121.4993664","lat":"31.34632481","category":"500","category_name":"未知分类","address":"上海吴淞码头站。"},{"poiid":"B2094750D56FA7FC4292","title":"同济一附中","lon":"121.518005","lat":"31.336988","category":"500","category_name":"未知分类","address":"国浩路100号"},{"poiid":"B2094654D46BA3F5449F","title":"体育中心","lon":"121.51196","lat":"31.3361","category":"224","category_name":"综合体育馆","address":"淞沪路2100"},{"poiid":"B2094757D168AAFB4098","title":"上海铁路局北郊站何家湾货运办理中心","lon":"121.500597103","lat":"31.3432537459","category":"500","category_name":"未知分类","address":"上海逸仙路3001号"},{"poiid":"B2094655D265AAF5449F","title":"快客","lon":"121.51652","lat":"31.33613","category":"117","category_name":"便民商店/便利店","address":"政和路931号"},{"poiid":"B2094757D16AA1FB499F","title":"美格菲","lon":"121.51401096","lat":"31.334196016","category":"249","category_name":"购物服务","address":"上海新江湾城"},{"poiid":"B2094654D46AA2F4419F","title":"上海钢管工业技工学校","lon":"121.49887","lat":"31.35223","category":"54","category_name":"职业技术学校","address":""},{"poiid":"B2094757D66DABF94992","title":"华润置地","lon":"121.517082","lat":"31.33948","category":"263","category_name":"公司","address":"上海赤峰路63号创意设计工厂22层"},{"poiid":"B2094757D06AA3F54792","title":"鹏程花苑","lon":"121.495","lat":"31.3436","category":"252","category_name":"楼宇机构","address":"上海长逸路388弄"},{"poiid":"B2094750D56AA0FE499E","title":"公馆1088","lon":"121.50413","lat":"31.335923","category":"47","category_name":"住宅区","address":"杨浦新江湾城国权北路1088号"},{"poiid":"B2094757D16CA4FE4192","title":"依乐新天地幼儿园","lon":"121.49639129","lat":"31.347913653","category":"57","category_name":"幼儿园","address":"上海市宝山区淞南镇华浜二村142号"},{"poiid":"B2094757D16EA5F54092","title":"新江湾城生态走廊","lon":"121.51788665","lat":"31.331776455","category":"500","category_name":"未知分类","address":"上海新江湾城"},{"poiid":"B2094757D66DA2FF489A","title":"吴淞街道社区卫生服务中心","lon":"121.499753957","lat":"31.3510429638","category":"500","category_name":"未知分类","address":"上海同济路313号"},{"poiid":"B2094757D06AA5FD419B","title":"上海炼油厂","lon":"121.513629","lat":"31.357559","category":"500","category_name":"未知分类","address":"上海江心沙路1号"},{"poiid":"B2094654D469ABF54993","title":"何家湾站","lon":"121.4983","lat":"31.34023","category":"22","category_name":"火车站","address":"逸仙路3001号"},{"poiid":"B2094750D66DA1FB4493","title":"新江湾尚景园","lon":"121.497367","lat":"31.338592","category":"47","category_name":"住宅区","address":"国权北路1450弄"},{"poiid":"B2094654D46BA3F5449E","title":"上海城投置地(集团)有限公司","lon":"121.51253","lat":"31.33619","category":"263","category_name":"公司","address":""},{"poiid":"B2094757D064ABF44293","title":"淞南二村","lon":"121.49427845566","lat":"31.349363439088","category":"252","category_name":"楼宇机构","address":"淞良路201弄"},{"poiid":"B2094757D064A2F8419C","title":"淞南中心校","lon":"121.496860003","lat":"31.3464195122","category":"253","category_name":"校园生活","address":"宝山区华浜新村168号"},{"poiid":"B2094750DB6CA3F5439C","title":"新江湾尚景苑","lon":"121.497032","lat":"31.341075","category":"47","category_name":"住宅区","address":"国权北路1450弄"},{"poiid":"B2094654D46AA2FA459C","title":"上海东真船舶工程有限公司","lon":"121.50159","lat":"31.35492","category":"263","category_name":"公司","address":""},{"poiid":"B2094654D469ABFB4098","title":"上港集团张华浜分公司","lon":"121.49897","lat":"31.36068","category":"263","category_name":"公司","address":"逸仙路4177"},{"poiid":"B2094654D46BA3F4489E","title":"华联蔬菜店","lon":"121.50988","lat":"31.36094","category":"117","category_name":"便民商店/便利店","address":""},{"poiid":"B2094757DA64A4FD4492","title":"复旦大学江湾校区智华楼","lon":"121.499382","lat":"31.33769","category":"500","category_name":"未知分类","address":"上海杨浦区淞沪路2205号"},{"poiid":"B2094757D068A4FE409F","title":"逸兴家园,逸仙路","lon":"121.497722","lat":"31.340584","category":"500","category_name":"未知分类","address":"上海逸仙路3456弄"},{"poiid":"B2094757D56CA0FD489D","title":"金华大酒店","lon":"121.50076586312","lat":"31.352629210356","category":"247","category_name":"餐饮美食","address":"逸仙路3808号近长江南路"},{"poiid":"B2094757D16BA2FC449E","title":"江湾新城","lon":"121.524588","lat":"31.334923","category":"47","category_name":"住宅区","address":"上海政悦路"},{"poiid":"B2094757D068A2FE4499","title":"淞南一村","lon":"121.492","lat":"31.3489","category":"252","category_name":"楼宇机构","address":"上海卫生科路"},{"poiid":"B2094757D06AAAFB479A","title":"闸北电厂","lon":"121.526214303","lat":"31.3403075842","category":"500","category_name":"未知分类","address":"上海军工路"},{"poiid":"B2094757D56EA5F5439C","title":"淞发路站1号口(地铁3号线)","lon":"121.4996","lat":"31.343661","category":"251","category_name":"出行住宿","address":"中国上海市宝山区逸仙路"},{"poiid":"B2094757D065A6FB489C","title":"江湾新城文化中心","lon":"121.514041103","lat":"31.3340687536","category":"500","category_name":"未知分类","address":"上海市杨浦区国秀路700号"},{"poiid":"B2094757D16EA1F44498","title":"闸殷路军工路站","lon":"121.529123889","lat":"31.3392284251","category":"35","category_name":"长途汽车站","address":"上海杨浦区闸殷路军工路(公交90,147,522终,726)"},{"poiid":"B2094750D268A1F9499C","title":"中建大公馆","lon":"121.515656","lat":"31.335164","category":"627","category_name":"一般地点标志","address":"上海市杨浦区江湾城路899号"},{"poiid":"B2094750D56BA0FD439B","title":"嘉誉湾","lon":"121.509218","lat":"31.331598","category":"47","category_name":"住宅区","address":"杨浦淞沪路1888弄"},{"poiid":"B2094757D66FA2FD4193","title":"藏蒸堂养生会所","lon":"121.498748103","lat":"31.3405588895","category":"148","category_name":"美容美发店","address":"上海长江南路祥腾生活广场"},{"poiid":"B2094757D16CABFE4992","title":"城投置地文化中心","lon":"121.51184737","lat":"31.334135875","category":"500","category_name":"未知分类","address":"上海国浩路700号"},{"poiid":"B2094757D06AA1FB499E","title":"永琪美容美发(淞南店)","lon":"121.49165","lat":"31.34391","category":"148","category_name":"美容美发店","address":"上海宝山区淞南路(近淞发路)"},{"poiid":"B2094757D16EAAF8439D","title":"临江码头","lon":"121.51977118","lat":"31.338647349","category":"251","category_name":"出行住宿","address":"上海临江路"},{"poiid":"B2094654D46BA3FF4598","title":"上海日清油脂有限公司","lon":"121.52484","lat":"31.35144","category":"263","category_name":"公司","address":"江心沙路2111"},{"poiid":"B2094757D16EA7FE459C","title":"五角场韩林炭烤","lon":"121.511840003","lat":"31.3318152064","category":"247","category_name":"餐饮美食","address":"上海百联又一城七楼"},{"poiid":"B2094655D26BA2FC479A","title":"吴淞船厂","lon":"121.52995","lat":"31.3489","category":"38","category_name":"公交车站","address":""},{"poiid":"B2094654D46AA1FF439B","title":"群海足疗保健中心","lon":"121.49646","lat":"31.34384","category":"149","category_name":"洗浴推拿场所","address":"宝山区淞发路69号"},{"poiid":"B2094654D46AA0F8459D","title":"快客NO.563","lon":"121.49341","lat":"31.35025","category":"117","category_name":"便民商店/便利店","address":"华浜新村41-3"},{"poiid":"B2094655D36DA7FD409D","title":"闸殷路军工路","lon":"121.52912","lat":"31.33923","category":"38","category_name":"公交车站","address":""},{"poiid":"B2094654D46BA3F44792","title":"上海普运国际货运代理有限公司(江心沙路)","lon":"121.51065","lat":"31.3598","category":"248","category_name":"生活娱乐","address":"江心沙路2967号"},{"poiid":"B2094757D065A6F44092","title":"华东电力培训中心","lon":"121.52621","lat":"31.3372","category":"500","category_name":"未知分类","address":"上海杨浦区闸殷路60弄50号  "},{"poiid":"B2094654D46AA0F84599","title":"良友金伴NO.365","lon":"121.49279","lat":"31.35004","category":"117","category_name":"便民商店/便利店","address":"华浜新村57-2"},{"poiid":"B2094655D36CA3FF459D","title":"上海音乐学院实验学校","lon":"121.51241","lat":"31.32765","category":"52","category_name":"高等院校","address":"政和路359号"},{"poiid":"B2094654DB69A4F9419C","title":"永乐电器(淞南店)","lon":"121.49419","lat":"31.33958","category":"138","category_name":"家电电子卖场","address":"上海市宝山区长逸路15号"},{"poiid":"B209475CD66DA4FA429D","title":"复旦大学江湾校区生活园区","lon":"121.500923","lat":"31.333724","category":"500","category_name":"未知分类","address":"上海市 上海市杨浦区国权北路1380弄"},{"poiid":"B2094655D264A4FA429A","title":"淞南电影院","lon":"121.490667","lat":"31.347517","category":"178","category_name":"电影院","address":"长江路440弄23号"},{"poiid":"B2094757D165A6FF4192","title":"海岸城","lon":"121.49413183","lat":"31.34978815","category":"500","category_name":"未知分类","address":"深圳海岸城"},{"poiid":"B2094753D26FABFF409E","title":"复旦大学江湾校区","lon":"121.501666","lat":"31.333553","category":"500","category_name":"未知分类","address":"上海市 淞沪路2005号"},{"poiid":"B2094654D46BA3FA4898","title":"上海浦东竹林学校","lon":"121.52667","lat":"31.35785","category":"55","category_name":"中学","address":""},{"poiid":"B2094654D46BA3F4439D","title":"华东电网电力行业国家职业技能鉴定站","lon":"121.52578","lat":"31.3372","category":"250","category_name":"公园户外","address":""},{"poiid":"B2094757D165AAF8449C","title":"雷妹家","lon":"121.495927703","lat":"31.3408962965","category":"500","category_name":"未知分类","address":null},{"poiid":"B2094757D169ABFF4293","title":"1201路 政悦路国伟路终点站","lon":"121.525197","lat":"31.338978356","category":"500","category_name":"未知分类","address":"上海政悦路国伟路"},{"poiid":"B2094654D46AA1FE429E","title":"上海仕迪百货","lon":"121.49149","lat":"31.34444","category":"119","category_name":"商场","address":""},{"poiid":"B2094654D46AA2F4429C","title":"上海一钢运输公司","lon":"121.49539","lat":"31.35165","category":"248","category_name":"生活娱乐","address":"长江路255号"},{"poiid":"B2094757D66DAAFC4698","title":"林林's 小窩","lon":"121.494140831","lat":"31.3497731505","category":"500","category_name":"未知分类","address":null},{"poiid":"B2094655D36DA7F54692","title":"淞沪路国秀路","lon":"121.50674","lat":"31.33059","category":"38","category_name":"公交车站","address":""},{"poiid":"B2094752D565A3FC499B","title":"上海宝山万达","lon":"121.496526","lat":"31.338177","category":"500","category_name":"未知分类","address":"一二八纪念路共和新路口"},{"poiid":"B2094757D16EA5FF4293","title":"萬臨家苑","lon":"121.4924321","lat":"31.341369906","category":"47","category_name":"住宅区","address":"上海市宝山区淞發生路"},{"poiid":"B2094757D16DA2FD449E","title":"殷行路淞沪路站(公交538终,1201,168)","lon":"121.507432796","lat":"31.3287850096","category":"38","category_name":"公交车站","address":"上海市杨浦区殷行路淞沪路"},{"poiid":"B2094757D069A5F84792","title":"张华浜码头","lon":"121.501156561","lat":"31.3620134837","category":"260","category_name":"其他","address":"上海逸仙路4177号"},{"poiid":"B2094654D46AA1FE4298","title":"宝山社区协作网淞南镇图书馆","lon":"121.49168","lat":"31.34395","category":"181","category_name":"图书馆","address":"淞南路345"},{"poiid":"B2094757D16DA7F94992","title":"上海中外運張華浜儲運有限公司","lon":"121.49795877","lat":"31.360066992","category":"500","category_name":"未知分类","address":"上海逸仙路4188号"},{"poiid":"B2094655D36DA7F54799","title":"淞沪路殷行路","lon":"121.50646","lat":"31.32796","category":"38","category_name":"公交车站","address":""},{"poiid":"B2094654D46BA3F54693","title":"阳光幼稚园","lon":"121.52663","lat":"31.33621","category":"57","category_name":"幼儿园","address":""},{"poiid":"B2094655D36DA0FB4099","title":"殷行路江湾城路","lon":"121.51721","lat":"31.32891","category":"38","category_name":"公交车站","address":""},{"poiid":"B2094757DA64A0FF4192","title":"淞南商城(巴黎时光)","lon":"121.49142","lat":"31.346474","category":"252","category_name":"楼宇机构","address":"宝山区淞南路459号"},{"poiid":"B2094654D469ABFA4899","title":"上海淞南环境卫生服务有限公司","lon":"121.49427","lat":"31.34182","category":"263","category_name":"公司","address":""},{"poiid":"B2094753D66BA0FD4399","title":"新白鹿餐厅","lon":"121.503868","lat":"31.331832","category":"500","category_name":"未知分类","address":"上海市 南京东路800号东方商厦9楼"},{"poiid":"B2094757D66CAAFF429F","title":"guess又一城店","lon":"121.526377503","lat":"31.3364635037","category":"500","category_name":"未知分类","address":"上海邯郸路五角场百联又一城两楼"},{"poiid":"B2094654D46AA2F4409C","title":"中外运上海(集团)上海外运张华浜公司","lon":"121.49751","lat":"31.35887","category":"263","category_name":"公司","address":""},{"poiid":"B2094654D469AAFC479F","title":"上海农村商业银行淞南支行","lon":"121.4914","lat":"31.34533","category":"150","category_name":"银行","address":"淞南路399号"},{"poiid":"B2094757D16DA5FC4492","title":"玺园","lon":"121.506637573","lat":"31.3290576935","category":"500","category_name":"未知分类","address":"上海新江湾城 殷行路1000号"},{"poiid":"B2094654D469AAFC4799","title":"凇南镇文化中心","lon":"121.49168","lat":"31.34392","category":"248","category_name":"生活娱乐","address":"淞南路345"},{"poiid":"B2094757D16BA1F54793","title":"上海音乐学院附属实验学校","lon":"121.5102541","lat":"31.328575638","category":"253","category_name":"校园生活","address":"上海市杨浦区新江湾城"},{"poiid":"B2094655D26BA6FC4392","title":"苏北土菜馆","lon":"121.49168","lat":"31.34393","category":"260","category_name":"其他","address":"宝山区淞南路345号(近淞南四村)"},{"poiid":"B2094654D46AA1FE449D","title":"TWO兔精品饰界","lon":"121.4913","lat":"31.34566","category":"130","category_name":"礼品饰品店","address":""},{"poiid":"B2094757D165ABFB489E","title":"沈海高速射阳服务区","lon":"121.498358103","lat":"31.3338437489","category":"500","category_name":"未知分类","address":"江苏省"},{"poiid":"B2094757D064A6F8419F","title":"61路 国伟路政悦路站 终点站","lon":"121.5226043","lat":"31.331612176","category":"500","category_name":"未知分类","address":"上海国伟路政悦路"},{"poiid":"B2094752D368A7F9499D","title":"江桥万达广场","lon":"121.494377","lat":"31.356107","category":"500","category_name":"未知分类","address":null},{"poiid":"B2094757D16DA1F54598","title":"Kitty♥うえ","lon":"121.5073741","lat":"31.329286653","category":"500","category_name":"未知分类","address":"上海橡胶湾"},{"poiid":"B2094654D469ABF5459C","title":"上海张华浜港务公司","lon":"121.50042","lat":"31.36227","category":"263","category_name":"公司","address":""},{"poiid":"B2094757D16DA5F8469E","title":"江湾城路殷行路","lon":"121.516340053","lat":"31.328233151","category":"260","category_name":"其他","address":"上海江湾城路殷行路"}]