[{"poiid":"B2094757D06FA7FB4798","title":"美兰湖高尔夫俱乐部","lon":"121.3651","lat":"31.40198","category":"220","category_name":"运动场所","address":"海市宝山区沪太路6655号(内美兰湖路9号)"},{"poiid":"B2094654D469ABFE409D","title":"美兰湖皇冠假日酒店","lon":"121.36484","lat":"31.40225","category":"217","category_name":"旅馆招待所","address":"宝山区沪太路6655号(近北欧新镇)"},{"poiid":"B2094757D06EAAF44792","title":"美兰湖","lon":"121.3539524","lat":"31.399131614","category":"234","category_name":"海滨浴场","address":"宝山区罗芬路888号"},{"poiid":"B2094654D469A0F8499E","title":"美兰湖国际会议中心","lon":"121.35453","lat":"31.40151","category":"65","category_name":"咖啡厅","address":"宝山区罗店新镇罗芬路888号"},{"poiid":"B2094757D06EAAFF4092","title":"美兰湖地铁站","lon":"121.35040708","lat":"31.4015480232","category":"36","category_name":"地铁站","address":"上海轨道交通 七号线 轨交美兰湖站 7"},{"poiid":"B2094654D469A7FA469D","title":"美兰湖别墅","lon":"121.36365672951","lat":"31.402259302461","category":"47","category_name":"住宅区","address":"上海市宝山区罗迎路558弄"},{"poiid":"B2094757D069ABF8409F","title":"美兰湖岭域","lon":"121.358414","lat":"31.396351","category":"47","category_name":"住宅区","address":"上海宝山区罗芬路98弄"},{"poiid":"B2094757D06FA0FA449C","title":"罗南新村地铁站","lon":"121.35741494","lat":"31.388478859","category":"36","category_name":"地铁站","address":"上海轨道交通 七号线 轨交罗南新村站 7"},{"poiid":"B2094757D16CAAF9409C","title":"美兰湖琥珀郡园","lon":"121.36056559","lat":"31.391858606","category":"47","category_name":"住宅区","address":"上海美艾路177弄"},{"poiid":"B2094757D06BABFB459E","title":"美兰湖中华园","lon":"121.36041","lat":"31.409433","category":"500","category_name":"未知分类","address":"上海市宝山区抚远路1288弄"},{"poiid":"B2094757D069ABFE4692","title":"鼎中鼎澳门豆捞(罗芬路店)","lon":"121.35685","lat":"31.39889","category":"86","category_name":"火锅店","address":"宝山区罗芬路55号(近美艾路)"},{"poiid":"B2094757D06AA0F5439C","title":"美兰湖颐景园","lon":"121.3582","lat":"31.398161","category":"47","category_name":"住宅区","address":"上海市宝山区美艾路198弄"},{"poiid":"B2094757D068A1F94698","title":"罗南镇","lon":"121.359598","lat":"31.383622","category":"627","category_name":"一般地点标志","address":"上海沪太路东太路"},{"poiid":"B2094655D264A0F9449B","title":"上置香岛原墅","lon":"121.35855","lat":"31.41063","category":"47","category_name":"住宅区","address":"宝山美兰湖美丰路88号(抚远路口)"},{"poiid":"B2094757D06AA3FD4992","title":"伊诺咖啡 美兰湖店","lon":"121.356827054","lat":"31.401091793","category":"65","category_name":"咖啡厅","address":"宝山区沪太路6655号罗店北欧新镇内罗芬路789号"},{"poiid":"B2094757D16BABF9419D","title":"世纪联华 美食广场","lon":"121.350432153","lat":"31.4024306507","category":"257","category_name":"中餐厅","address":"上海美兰湖"},{"poiid":"B2094757D664A2F8459B","title":"品膳房酒楼","lon":"121.35601","lat":"31.40112","category":"76","category_name":"上海菜","address":"宝山区美兰湖罗芬路C区689弄13-14号"},{"poiid":"B2094654D469A0FB4899","title":"顺驰美兰湖","lon":"121.35601","lat":"31.405182","category":"47","category_name":"住宅区","address":"宝山区罗店北欧新镇扶远路美丹路路口"},{"poiid":"B2094750D56AA2FE459C","title":"万科琥珀郡园","lon":"121.36923","lat":"31.398615","category":"47","category_name":"住宅区","address":"宝山美艾路177弄(近罗芬路)"},{"poiid":"B2094757D068A5F84793","title":"美兰湖奥特莱斯","lon":"121.355615709","lat":"31.3961190725","category":"119","category_name":"商场","address":"宝山区沪太路6655号(美兰湖口)"},{"poiid":"B2094757D568A1FD4098","title":"美兰金邸","lon":"121.365","lat":"31.4039","category":"47","category_name":"住宅区","address":"上海市宝山区美兰湖路333弄"},{"poiid":"B2094757D465A3F9489F","title":"董大师金牌稻香蛙 美兰湖店","lon":"121.35815","lat":"31.39774","category":"71","category_name":"四川菜","address":"宝山区美兰湖大道罗芬路689弄北欧风情街16号(近沪太路)"},{"poiid":"B2094654D469A0FB489E","title":"美兰沪高尔夫生活园","lon":"121.37506","lat":"31.40601","category":"206","category_name":"高尔夫相关","address":"宝山区沪太路6655号(内美兰湖路9号)"},{"poiid":"B2094654D469A0F8489E","title":"富丽苑","lon":"121.36516","lat":"31.388815","category":"47","category_name":"住宅区","address":"富南路199弄"},{"poiid":"B2094757D66DA6F54293","title":"万科臻园","lon":"121.366179689","lat":"31.3958907523","category":"47","category_name":"住宅区","address":"上海抚远路"},{"poiid":"B2094654D469A7FA469F","title":"诺贝尔科技公园","lon":"121.3602","lat":"31.4016","category":"196","category_name":"公园","address":""},{"poiid":"B2094655D26BA1FB459A","title":"罗南二村","lon":"121.374","lat":"31.3925","category":"38","category_name":"公交车站","address":"上海市宝山区东太路80弄"},{"poiid":"B2094654DB69A6FE499E","title":"金兰雅别墅","lon":"121.35919","lat":"31.40274","category":"47","category_name":"住宅区","address":"宝山区美兰湖路98弄68号"},{"poiid":"B2094750D56BA0F5419A","title":"远洋博堡","lon":"121.374352","lat":"31.401399","category":"47","category_name":"住宅区","address":"上海市宝山区美兰湖路333弄115号"},{"poiid":"B2094654D469A7FA4692","title":"美兰湖艺术博物馆","lon":"121.35875","lat":"31.39942","category":"182","category_name":"博物馆","address":"罗南镇"},{"poiid":"B2094750D364A7F94893","title":"上置名人天地","lon":"121.36483","lat":"31.40226","category":"637","category_name":"房地产类公司","address":"美兰湖路"},{"poiid":"B2094757D16EA6FB4999","title":"美兰湖金兰雅墅","lon":"121.36069922","lat":"31.397229677","category":"500","category_name":"未知分类","address":"上海美兰湖路"},{"poiid":"B2094655D265A0FD499C","title":"美兰湖皇冠假日酒店西餐厅","lon":"121.35575","lat":"31.39544","category":"94","category_name":"西餐厅","address":"宝山区沪太路6655号皇冠假日酒店(美兰湖路口)"},{"poiid":"B2094654D469A0FB4498","title":"都是客酒店","lon":"121.350095054","lat":"31.409544793","category":"76","category_name":"上海菜","address":"宝山区罗溪路5号(近月罗公路)"},{"poiid":"B2094757D469A0FA449D","title":"美兰湖高尔夫俱乐部会所餐厅 Lake Malaren Golf Resort","lon":"121.35400661812","lat":"31.397773991695","category":"91","category_name":"台湾菜","address":"沪太路6655号美兰湖高尔夫俱乐部会所1楼近美兰湖路"},{"poiid":"B2094757D065AAF4469E","title":"美兰湖朗诗绿岛科技住宅","lon":"121.35753966","lat":"31.403614333","category":"500","category_name":"未知分类","address":"上海市宝山区罗芬路1199弄"},{"poiid":"B2094757D66FA7FB4993","title":"美兰湖畔雅苑","lon":"121.359508679","lat":"31.4047561096","category":"47","category_name":"住宅区","address":"上海罗迎路美丹路"},{"poiid":"B2094655D26AA0F9449F","title":"地铁美兰湖站","lon":"121.35472","lat":"31.3953","category":"36","category_name":"地铁站","address":""},{"poiid":"B2094454D365A6F44193","title":"星巴克美蘭湖店","lon":"121.355567","lat":"31.400953","category":"247","category_name":"餐饮美食","address":"上海市 上海市寶山區羅芬路1088號世紀聯華1樓"},{"poiid":"B2094757D06BA6FD4498","title":"万科琥珀臻园","lon":"121.366708","lat":"31.411943","category":"500","category_name":"未知分类","address":"上海市宝山区美兰湖新镇美艾路与抚远路交汇处"},{"poiid":"B2094654D469A7FA489B","title":"味之都管理学院","lon":"121.35693","lat":"31.39942","category":"52","category_name":"高等院校","address":""},{"poiid":"B2094757D16DA0FF4293","title":"董大师稻香蛙","lon":"121.36029042","lat":"31.393452446","category":"247","category_name":"餐饮美食","address":"上海美兰湖大道"},{"poiid":"B2094654D469A7FA499B","title":"养生馆(味之都管理学院东北)","lon":"121.35752","lat":"31.39971","category":"148","category_name":"美容美发店","address":""},{"poiid":"B2094654D469A7FA4999","title":"美兰坊悠然生活会所","lon":"121.35737","lat":"31.40007","category":"148","category_name":"美容美发店","address":""},{"poiid":"B2094750D56BA5FC4393","title":"远洋7号","lon":"121.3597401665","lat":"31.408080904354","category":"47","category_name":"住宅区","address":"美兰湖板块罗芬路1288弄"},{"poiid":"B2094750D46BAAF5479B","title":"富长苑","lon":"121.366","lat":"31.3939","category":"627","category_name":"一般地点标志","address":"宝山区罗店镇南东路89弄"},{"poiid":"B2094654D469A0F8429D","title":"上海市罗南中学","lon":"121.36489","lat":"31.38799","category":"55","category_name":"中学","address":"上海市宝山区罗南镇东太路31号"},{"poiid":"B2094757D469A6FF429B","title":"美兰湖粗菜馆","lon":"121.35169744492","lat":"31.402659855428","category":"76","category_name":"上海菜","address":"宝山区罗芬路1088号世纪联华4楼(近沪太路)"},{"poiid":"B2094757D16CAAF44793","title":"FLORA in the house","lon":"121.35397865","lat":"31.404620595","category":"500","category_name":"未知分类","address":"上海美兰湖高尔夫别墅"},{"poiid":"B2094655D26BA1FB459B","title":"罗南新村","lon":"121.36467","lat":"31.38929","category":"38","category_name":"公交车站","address":""},{"poiid":"B2094757D16FA4FB4892","title":"品膳房","lon":"121.35624667","lat":"31.399637013","category":"500","category_name":"未知分类","address":"上海市宝山区美丹路"},{"poiid":"B2094757D165A0FC409E","title":"小天鹅幼儿园","lon":"121.3607906","lat":"31.387698657","category":"57","category_name":"幼儿园","address":"上海南东路"},{"poiid":"B2094757D169A5FC469D","title":"HEICO SPORTIV上海办事处","lon":"121.3583473","lat":"31.3964575","category":"500","category_name":"未知分类","address":"上海罗芬路98弄90号102"},{"poiid":"B2094757D66EA5FE4492","title":"金仕堡健身会所(美兰湖店)","lon":"121.363401679","lat":"31.3894778212","category":"220","category_name":"运动场所","address":"宝山区罗芬路888号美兰湖国际会议中心1楼(近美兰湖地铁站)"},{"poiid":"B2094654D469A0F84899","title":"富秀苑","lon":"121.36433","lat":"31.389488","category":"47","category_name":"住宅区","address":"富南路256弄"},{"poiid":"B2094757D069A4F9439D","title":"潘广路地铁站","lon":"121.358123679","lat":"31.3878117898","category":"36","category_name":"地铁站","address":"上海地铁7号线潘广路站"},{"poiid":"B2094655D265A1FF4993","title":"华府美墅","lon":"121.35477","lat":"31.40527","category":"47","category_name":"住宅区","address":""},{"poiid":"B2094757D168ABF9459A","title":"金仕堡健身","lon":"121.355046679","lat":"31.4010760402","category":"220","category_name":"运动场所","address":"上海美兰湖国际会议中心"},{"poiid":"B2094757D165A3F4499B","title":"碧源茶餐厅","lon":"121.35679935","lat":"31.398894949","category":"500","category_name":"未知分类","address":"上海美兰湖罗芬路555弄"},{"poiid":"B2094654DB69A6FD449D","title":"高尔夫酒店","lon":"121.35574","lat":"31.39495","category":"47","category_name":"住宅区","address":"宝山区美兰湖路9号"},{"poiid":"B2094655D36CA7FE4399","title":"沪太路富张路","lon":"121.35465","lat":"31.39541","category":"38","category_name":"公交车站","address":""},{"poiid":"B2094654D469A0F4439F","title":"上海申视汽车新技术有限公司","lon":"121.37158","lat":"31.39173","category":"263","category_name":"公司","address":"杨南路1558弄50"},{"poiid":"B2094655D26BA4F4439E","title":"华府美墅(东南门)","lon":"121.35503","lat":"31.40514","category":"47","category_name":"住宅区","address":""},{"poiid":"B2094757D66DABF8409E","title":"上海震旦职业学院","lon":"121.361549679","lat":"31.4120992483","category":"671","category_name":"高校中心点","address":"宝山区罗店镇市一路88号(近月罗路)"},{"poiid":"B2094654D469A7FF419B","title":"天旺酒楼","lon":"121.36172","lat":"31.3859","category":"70","category_name":"综合酒楼","address":"宝山区罗店镇南东路86号(市一路塘西街)"},{"poiid":"B2094654D469A7FA479A","title":"美兰湖奥兰特招商中心","lon":"121.35623","lat":"31.40151","category":"248","category_name":"生活娱乐","address":""},{"poiid":"B2094654D469A0F4409B","title":"中集职工之家","lon":"121.36177","lat":"31.38909","category":"47","category_name":"住宅区","address":""},{"poiid":"B2094757D16FA1FA469A","title":"上海市宝山区看守所","lon":"121.35733787","lat":"31.41223785","category":"500","category_name":"未知分类","address":"上海月罗路2099号"},{"poiid":"B2094757D66CA0FC4793","title":"市一路200号","lon":"121.356282679","lat":"31.3959669437","category":"252","category_name":"楼宇机构","address":"上海罗店镇市一路200号"},{"poiid":"B2094757D66CA2F9489F","title":"鸡排超人(顾村店)","lon":"121.367036679","lat":"31.3877917894","category":"247","category_name":"餐饮美食","address":"上海泰和西路65号"},{"poiid":"B2094757D469A0FB4899","title":"唐老鸭粉丝汤","lon":"121.3605","lat":"31.3888","category":"68","category_name":"快餐厅","address":"宝山区美兰湖罗芬路1088号枢纽4楼美兰湖美食广场"},{"poiid":"B2094655D26AA0F9449C","title":"地铁罗南新村站","lon":"121.35783","lat":"31.3875","category":"36","category_name":"地铁站","address":""},{"poiid":"B2094757D165A2F54992","title":"粗菜馆","lon":"121.351094353","lat":"31.4022388468","category":"257","category_name":"中餐厅","address":"上海美兰湖"},{"poiid":"B2094757D16DA4FD4893","title":"世纪联华美兰湖","lon":"121.35188965","lat":"31.394287984","category":"500","category_name":"未知分类","address":"上海美兰湖"},{"poiid":"B2094655D36DA7FC449F","title":"月罗公路潘泾路","lon":"121.36669","lat":"31.41587","category":"38","category_name":"公交车站","address":""},{"poiid":"B2094654D469A0F44098","title":"宝山区罗南镇方方杂货店","lon":"121.36074","lat":"31.38867","category":"117","category_name":"便民商店/便利店","address":""},{"poiid":"B2094752D06EABFB449C","title":"Eplay Cafe","lon":"121.353673","lat":"31.401763","category":"247","category_name":"餐饮美食","address":"美兰湖罗芬路"},{"poiid":"B2094654D469A0F4459C","title":"富南苑","lon":"121.36651","lat":"31.384878","category":"47","category_name":"住宅区","address":"南长路111弄1-45号"},{"poiid":"B2094757D169ABFD449E","title":"富辰花苑","lon":"121.36122","lat":"31.386816","category":"252","category_name":"楼宇机构","address":"上海市宝山区南东路108弄1-23号"},{"poiid":"B2094757D164A5FD469D","title":"肯德基(世纪联华美兰湖店)","lon":"121.35505127","lat":"31.405679677","category":"500","category_name":"未知分类","address":"上海沪太路美丹路"},{"poiid":"B2094655D36CA7FE419C","title":"沪太路杨南路","lon":"121.35739","lat":"31.38864","category":"38","category_name":"公交车站","address":""},{"poiid":"B209475CD66EABFE4298","title":"美兰湖","lon":"121.361488","lat":"31.388561","category":"500","category_name":"未知分类","address":"上海市 美兰湖"},{"poiid":"B2094654D469A7FE419D","title":"快客(东太路)","lon":"121.36562","lat":"31.3861","category":"117","category_name":"便民商店/便利店","address":""},{"poiid":"B2094654DB69A7F54598","title":"罗南派出所","lon":"121.36172","lat":"31.38675","category":"609","category_name":"警察局","address":"宝山区南东路107号"},{"poiid":"B2094655D36DA7FC4498","title":"月罗公路抚远路","lon":"121.35931","lat":"31.41389","category":"38","category_name":"公交车站","address":""},{"poiid":"B2094757D16AA5FF489D","title":"世豪帝府","lon":"121.358197679","lat":"31.3834817081","category":"76","category_name":"上海菜","address":"宝山区沪太路6488号(近地铁7号线罗南新村站)"},{"poiid":"B2094757D069A2FC4993","title":"羅南鎮","lon":"121.366511","lat":"31.384878","category":"500","category_name":"未知分类","address":"上海富南路南長路"},{"poiid":"B2094654D469A7FA4099","title":"上海第三十八机动车安全检测站","lon":"121.35023","lat":"31.40105","category":"250","category_name":"公园户外","address":"沪太路6938"},{"poiid":"B2094654D469A0F4429B","title":"罗店社区卫生服务中心","lon":"121.36083","lat":"31.38466","category":"162","category_name":"医院","address":"南卫路"},{"poiid":"B2094654D469A0F44099","title":"上海市宝山区罗南服装二厂","lon":"121.36093","lat":"31.38832","category":"263","category_name":"公司","address":""},{"poiid":"B2094655D264A0F8439A","title":"富泰苑","lon":"121.36031","lat":"31.384794","category":"47","category_name":"住宅区","address":"上海市宝山区南卫路38弄"},{"poiid":"B2094655D36DA1F8439E","title":"锦南路桥","lon":"121.38448","lat":"31.40016","category":"250","category_name":"公园户外","address":""},{"poiid":"B2094654D469A7FF419A","title":"悦来美发造型沙龙","lon":"121.3617","lat":"31.38594","category":"148","category_name":"美容美发店","address":""},{"poiid":"B2094751D568A6FC4193","title":"宝山区第八税务所","lon":"121.352283","lat":"31.39314","category":"263","category_name":"公司","address":"沪太路6600号"},{"poiid":"B2094655D36CA6FF4099","title":"富锦路南东路","lon":"121.3629","lat":"31.38411","category":"38","category_name":"公交车站","address":""},{"poiid":"B2094757D165A7FB499A","title":"鸿起大酒店","lon":"121.370696679","lat":"31.3845287278","category":"217","category_name":"旅馆招待所","address":"上海沪太路6369号"},{"poiid":"B2094654D469A7FA4098","title":"上海中集冷藏箱有限公司","lon":"121.35157","lat":"31.39963","category":"263","category_name":"公司","address":"沪太路6888"},{"poiid":"B2094655D26BA3F5439E","title":"朗诗绿岛","lon":"121.34872","lat":"31.405003","category":"47","category_name":"住宅区","address":"罗店新镇罗芬路555弄38号"},{"poiid":"B2094654D469A7FE409B","title":"侬得利商场","lon":"121.36126","lat":"31.3843","category":"119","category_name":"商场","address":"罗南镇"},{"poiid":"B2094757D16DA7F8409B","title":"东旭大农庄","lon":"121.359362679","lat":"31.3828126955","category":"257","category_name":"中餐厅","address":"宝山区罗南南东路155号"},{"poiid":"B2094757D16EA7FF459E","title":"富锦路","lon":"121.37399292","lat":"31.3860473633","category":"500","category_name":"未知分类","address":"上海北部检测"},{"poiid":"B2094757D164ABFD4799","title":"爱婴室(美兰湖店)","lon":"121.350534653","lat":"31.4023175484","category":"500","category_name":"未知分类","address":"宝山区罗芬路1088号罗店美兰湖交通枢纽广场4楼A410-412"},{"poiid":"B2094757D16AA0FB4893","title":"美丹路招呼站","lon":"121.35041","lat":"31.401546","category":"500","category_name":"未知分类","address":"上海沪太路美丹路　美兰湖地铁站"},{"poiid":"B2094757D16AA0FB479D","title":"品膳房","lon":"121.34981965","lat":"31.401699535","category":"500","category_name":"未知分类","address":"上海宝山区美兰湖"},{"poiid":"B2094654D469A0F4449F","title":"北部汽车检测维修有限公司","lon":"121.37399","lat":"31.38605","category":"159","category_name":"汽车维修","address":"宝山区富锦路5001号"},{"poiid":"B2094655D26BA1F84192","title":"南东路","lon":"121.36232","lat":"31.38324","category":"38","category_name":"公交车站","address":""},{"poiid":"B2094757D168A4F54798","title":"上海老盛昌汤包馆(仓场店)","lon":"121.37037617","lat":"31.416197625","category":"247","category_name":"餐饮美食","address":"上海嘉定仓场路424号"},{"poiid":"B2094654D469A7FA409F","title":"上海罗南经济发展公司","lon":"121.3503","lat":"31.40127","category":"263","category_name":"公司","address":"沪太路6938"},{"poiid":"B2094655D264A0F8429F","title":"金星绿园二期","lon":"121.35949","lat":"31.41623","category":"47","category_name":"住宅区","address":"上海市宝山区东至抚远路,南至练祁河,西至集贤路,北至祁北路"},{"poiid":"B2094757D16EABFD459A","title":"震旦养老院","lon":"121.35701767","lat":"31.412247451","category":"500","category_name":"未知分类","address":"上海看守所对面"},{"poiid":"B2094757D16FA2FC469B","title":"监狱食堂","lon":"121.356987","lat":"31.382986068","category":"247","category_name":"餐饮美食","address":"上海沪太路6178号"},{"poiid":"B2094757D06BA5F4469C","title":"震旦学院南校区","lon":"121.359177","lat":"31.413554","category":"253","category_name":"校园生活","address":"上海市宝山区月罗公路2106号"},{"poiid":"B2094757D16DA3FF4393","title":"宝山区罗南中心校","lon":"121.361691","lat":"31.3852322","category":"500","category_name":"未知分类","address":"上海富锦路5855号(靠近沪太路)"},{"poiid":"B2094757D164ABF94392","title":"宝山区刑事审判法庭","lon":"121.35954667","lat":"31.414126286","category":"500","category_name":"未知分类","address":"上海市宝山区月罗公路2099号"},{"poiid":"B2094654D468A4F44599","title":"上海宝翼制罐有限公司","lon":"121.36486","lat":"31.41518","category":"263","category_name":"公司","address":"月罗公路1888号"},{"poiid":"B2094757D66EA7FC489F","title":"来伊份(东太路店)","lon":"121.35978","lat":"31.38355","category":"648","category_name":"零食","address":"宝山区罗南镇东太路492号(东太路沪太路)"},{"poiid":"B2094757D16DABF5489B","title":"集贤路","lon":"121.35550177","lat":"31.412044147","category":"500","category_name":"未知分类","address":"上海集贤路市一东路"},{"poiid":"B2094757D66DA5FA449C","title":"周家新","lon":"121.383466679","lat":"31.3927578831","category":"500","category_name":"未知分类","address":null},{"poiid":"B2094654D469A0FB439B","title":"中国弹簧厂冷拉分厂","lon":"121.36138","lat":"31.41411","category":"263","category_name":"公司","address":""},{"poiid":"B2094654D469A0FB439E","title":"上海三荣电梯有限公司(月罗公路)","lon":"121.35711","lat":"31.41293","category":"263","category_name":"公司","address":""},{"poiid":"B2094757D16DABFB429F","title":"上海宝通赢(起亚)汽车服务有限公司","lon":"121.37071137","lat":"31.416332128","category":"500","category_name":"未知分类","address":"宝山区罗店镇束里桥月罗公路1563号(近潘泾路)"},{"poiid":"B2094757D568A6FE419A","title":"上海瓦伦西酒店","lon":"121.3591772","lat":"31.41355417","category":"251","category_name":"出行住宿","address":"宝山区月罗路2106号"},{"poiid":"B2094654D469A7FD479A","title":"罗南大酒店","lon":"121.35913","lat":"31.38391","category":"250","category_name":"公园户外","address":"沪太路6397号"},{"poiid":"B2094654D469A0F44193","title":"上海罗南房地产有限公司","lon":"121.36061","lat":"31.38504","category":"263","category_name":"公司","address":"南卫路37号"},{"poiid":"B2094654D468A4F84299","title":"上海中集宝伟工业有限公司","lon":"121.3594","lat":"31.41625","category":"263","category_name":"公司","address":"抚远路1771"}]