[{"poiid":"B2094757D06FA4FD4692","title":"上海震旦学院","lon":"121.35632","lat":"31.41797","category":"500","category_name":"未知分类","address":"上海宝山区罗店镇市一路88号(近月罗路)  "},{"poiid":"B2094655D26BA1FB459C","title":"罗店","lon":"121.34159","lat":"31.41009","category":"38","category_name":"公交车站","address":""},{"poiid":"B2094757D06AA7FD4099","title":"罗店医院","lon":"121.34698","lat":"31.41517","category":"162","category_name":"医院","address":"宝山区罗溪路121号(罗溪路市一路)"},{"poiid":"B2094757D069A1F9419F","title":"宝山净寺","lon":"121.34277498","lat":"31.417038888","category":"246","category_name":"回教寺","address":"宝山区罗店镇罗溪路518号(练祁河旁)"},{"poiid":"B2094757D568A1FF439E","title":"美兰湖高尔夫别墅","lon":"121.347665","lat":"31.40718","category":"47","category_name":"住宅区","address":"上海罗店北欧新镇美丹路8号"},{"poiid":"B2094654D468A4F4429E","title":"震旦学院(市一路)","lon":"121.35604","lat":"31.41824","category":"52","category_name":"高等院校","address":"宝山区市一路88"},{"poiid":"B2094757D068A5F8429B","title":"宝罗瞑园","lon":"121.37416","lat":"31.42456","category":"500","category_name":"未知分类","address":"宝山区罗店苗圃路350号"},{"poiid":"B2094654D468A4FB4892","title":"金星绿苑","lon":"121.35493","lat":"31.423529","category":"47","category_name":"住宅区","address":"集贤路500弄501弄"},{"poiid":"B2094757D06BABFB459E","title":"美兰湖中华园","lon":"121.36041","lat":"31.409433","category":"500","category_name":"未知分类","address":"上海市宝山区抚远路1288弄"},{"poiid":"B2094655D264A0F9449B","title":"上置香岛原墅","lon":"121.35855","lat":"31.41063","category":"47","category_name":"住宅区","address":"宝山美兰湖美丰路88号(抚远路口)"},{"poiid":"B2094757D068A1FE4199","title":"长安驾校","lon":"121.35201662","lat":"31.439815965","category":"190","category_name":"培训机构","address":"宝山区罗泾路"},{"poiid":"B2094655D26BA4F8419E","title":"罗新苑","lon":"121.34994","lat":"31.424318","category":"47","category_name":"住宅区","address":"集贤路800弄"},{"poiid":"B2094655D26BA1FB439D","title":"罗溪路市一路","lon":"121.347","lat":"31.41561","category":"38","category_name":"公交车站","address":""},{"poiid":"B2094654D468A4F5409C","title":"宝山寺","lon":"121.34278","lat":"31.41703","category":"244","category_name":"寺庙道观","address":"罗店镇"},{"poiid":"B2094757D065A4FE4392","title":"罗溪公园","lon":"121.35075","lat":"31.416","category":"196","category_name":"公园","address":"宝山区罗店市一路150号"},{"poiid":"B2094655D36CA0FB4492","title":"集贤路祁北路","lon":"121.35331","lat":"31.42274","category":"38","category_name":"公交车站","address":""},{"poiid":"B2094757D16BA4F9419B","title":"震旦图书馆","lon":"121.35590277","lat":"31.423116256","category":"181","category_name":"图书馆","address":"上海震旦学院"},{"poiid":"B2094757D16AA4FC4299","title":"月罗路2101号","lon":"121.35679067","lat":"31.420241402","category":"47","category_name":"住宅区","address":"上海市宝山区月罗路2101号"},{"poiid":"B2094654D469A0FB4498","title":"都是客酒店","lon":"121.350095054","lat":"31.409544793","category":"76","category_name":"上海菜","address":"宝山区罗溪路5号(近月罗公路)"},{"poiid":"B2094757D065AAFB429B","title":"闻道园","lon":"121.36612","lat":"31.42092","category":"500","category_name":"未知分类","address":"宝山区潘泾路2888号(潘泾路市一东路)"},{"poiid":"B2094654D468A4F54193","title":"罗溪花苑","lon":"121.34593","lat":"31.419167","category":"47","category_name":"住宅区","address":"罗溪路671弄"},{"poiid":"B2094757D66BABF9469E","title":"麦可茶饮 震旦店 Teamac","lon":"121.353465","lat":"31.417553","category":"111","category_name":"休闲餐饮场所","address":"宝山区市一路88号震旦学院内(集贤路市一路)"},{"poiid":"B2094655D36CA2FE499C","title":"祁北路抚远路","lon":"121.35189","lat":"31.42275","category":"38","category_name":"公交车站","address":""},{"poiid":"B2094757D16BABF9419D","title":"世纪联华 美食广场","lon":"121.350432153","lat":"31.4024306507","category":"257","category_name":"中餐厅","address":"上海美兰湖"},{"poiid":"B2094654D468A4F54099","title":"东方文化学院(市一路)","lon":"121.3562","lat":"31.41835","category":"52","category_name":"高等院校","address":""},{"poiid":"B2094750DB6DA5FC409F","title":"罗店中学","lon":"121.343872","lat":"31.422937","category":"55","category_name":"中学","address":"罗新路707号"},{"poiid":"B2094757D66FA3F4499B","title":"震旦学院三号楼","lon":"121.356224679","lat":"31.4247084865","category":"500","category_name":"未知分类","address":"上海市一路88号"},{"poiid":"B2094655D36CA2FE499D","title":"祁北路集贤路","lon":"121.34838","lat":"31.42164","category":"38","category_name":"公交车站","address":""},{"poiid":"B2094757D16AA2FA4193","title":"全世爱婚礼策划中心","lon":"121.35352975","lat":"31.419455898","category":"263","category_name":"公司","address":"宝山区祁北东路225号(近美兰湖罗店新镇)查看地图"},{"poiid":"B2094655D26BA1FB4398","title":"罗新路抚远路","lon":"121.35511","lat":"31.42703","category":"38","category_name":"公交车站","address":""},{"poiid":"B2094654D468A4F5409D","title":"罗溪花园(祁北路)","lon":"121.34674","lat":"31.42082","category":"47","category_name":"住宅区","address":""},{"poiid":"B2094757D16BA0FB479C","title":"震旦409","lon":"121.35604","lat":"31.418247","category":"500","category_name":"未知分类","address":"上海震旦学院"},{"poiid":"B2094757D469A0FC499D","title":"客来多","lon":"121.351097","lat":"31.416477","category":"68","category_name":"快餐厅","address":"宝山区罗店镇祁北路(近市一路)"},{"poiid":"B2094757D168A1F5429F","title":"金星家苑","lon":"121.346708653","lat":"31.421862948","category":"47","category_name":"住宅区","address":"上海市宝山区罗店镇祁北东路361弄金星家苑"},{"poiid":"B2094655D264A0F8429F","title":"金星绿园二期","lon":"121.35949","lat":"31.41623","category":"47","category_name":"住宅区","address":"上海市宝山区东至抚远路,南至练祁河,西至集贤路,北至祁北路"},{"poiid":"B2094654D468A4F4429F","title":"上海罗店经济发展公司","lon":"121.35499","lat":"31.41791","category":"263","category_name":"公司","address":"市一路102"},{"poiid":"B2094654D469A0FB4899","title":"顺驰美兰湖","lon":"121.35601","lat":"31.405182","category":"47","category_name":"住宅区","address":"宝山区罗店北欧新镇扶远路美丹路路口"},{"poiid":"B2094654D468A4F4429C","title":"上海市宝山区罗店中心校","lon":"121.34926","lat":"31.41607","category":"55","category_name":"中学","address":"宝山区罗店镇市一路162号(近罗溪公园)"},{"poiid":"B2094757D464A6FE489A","title":"重庆鸡公煲 罗溪路店","lon":"121.347158054","lat":"31.414862793","category":"247","category_name":"餐饮美食","address":"宝山区罗店镇罗溪路210号(近市一路)"},{"poiid":"B2094654D468A4F4449E","title":"上海冰峰金属材料有限公司","lon":"121.35897","lat":"31.42024","category":"263","category_name":"公司","address":"苗圃路888"},{"poiid":"B2094757D16FA1FA469A","title":"上海市宝山区看守所","lon":"121.35733787","lat":"31.41223785","category":"500","category_name":"未知分类","address":"上海月罗路2099号"},{"poiid":"B2094757D16BA7F8419C","title":"小天地酒家","lon":"121.3441","lat":"31.42","category":"76","category_name":"上海菜","address":"宝山区祁北路51号(罗溪路祁北路)"},{"poiid":"B2094655D26BA1FB4392","title":"罗溪路祁北路","lon":"121.34514","lat":"31.42007","category":"38","category_name":"公交车站","address":""},{"poiid":"B2094655D36DA7FC4498","title":"月罗公路抚远路","lon":"121.35931","lat":"31.41389","category":"38","category_name":"公交车站","address":""},{"poiid":"B2094757D66BA4FC4292","title":"渔翁海鲜 宝山店","lon":"121.347973054","lat":"31.415537793","category":"88","category_name":"海鲜酒楼","address":"罗店市一路182号近罗溪路"},{"poiid":"B2094757D165AAFF4798","title":"渔翁海鲜","lon":"121.347439653","lat":"31.4147068017","category":"247","category_name":"餐饮美食","address":"上海宝山区罗店镇市一路182号"},{"poiid":"B2094654D468A4F44398","title":"古镇苑","lon":"121.34537","lat":"31.415161","category":"47","category_name":"住宅区","address":"市一路220弄"},{"poiid":"B2094655D264A6FC439A","title":"罗店镇图书馆","lon":"121.34752","lat":"31.41514","category":"181","category_name":"图书馆","address":"宝山区市一路199号(罗溪路市一路)"},{"poiid":"B2094757D164A3FA479C","title":"好客煲","lon":"121.346757653","lat":"31.4163158346","category":"247","category_name":"餐饮美食","address":"上海市宝山区塘西街"},{"poiid":"B2094757D66DA4F54293","title":"贵芙妤专业瘦身","lon":"121.34732615","lat":"31.419773805","category":"148","category_name":"美容美发店","address":"上海宝山区祈北东路361弄"},{"poiid":"B2094655D36DA7FC449F","title":"月罗公路潘泾路","lon":"121.36669","lat":"31.41587","category":"38","category_name":"公交车站","address":""},{"poiid":"B2094655D26EA4FE449F","title":"九彩天江河鲜土菜馆 宝山店","lon":"121.34674571077","lat":"31.415515900232","category":"257","category_name":"中餐厅","address":"罗店镇市一路188号罗富大酒店2楼近罗溪路"},{"poiid":"B2094757D16FA2FF4898","title":"怡俪雅美容瑜伽会所","lon":"121.34732055","lat":"31.419734304","category":"500","category_name":"未知分类","address":"上海市宝山区祁北东路361弄"},{"poiid":"B2094654D468A4F8429D","title":"上海宝冶建设有限公司钢构一厂","lon":"121.35436","lat":"31.42803","category":"263","category_name":"公司","address":""},{"poiid":"B2094654D468A4F4439B","title":"罗富大酒店","lon":"121.34748","lat":"31.41551","category":"250","category_name":"公园户外","address":"罗店镇市一路188号"},{"poiid":"B2094654D468A4F84299","title":"上海中集宝伟工业有限公司","lon":"121.3594","lat":"31.41625","category":"263","category_name":"公司","address":"抚远路1771"},{"poiid":"B2094655D26BA1FB439C","title":"罗溪路月罗公路","lon":"121.34818","lat":"31.41298","category":"38","category_name":"公交车站","address":""},{"poiid":"B2094757D66DABF8409E","title":"上海震旦职业学院","lon":"121.361549679","lat":"31.4120992483","category":"671","category_name":"高校中心点","address":"宝山区罗店镇市一路88号(近月罗路)"},{"poiid":"B2094757D165A2F8479A","title":"中国建设银行(罗店支行)","lon":"121.347341653","lat":"31.4152168121","category":"150","category_name":"银行","address":"宝山区罗店镇市一路169号(罗溪路市一路)"},{"poiid":"B2094757D665A4FE4593","title":"沪豫川老面馆","lon":"121.34748","lat":"31.41389","category":"87","category_name":"特色／地方风味餐厅","address":"宝山区罗溪路192号(近亭前街)"},{"poiid":"B2094757D16CA2FC499C","title":"华方大酒店","lon":"121.344705","lat":"31.406938","category":"76","category_name":"上海菜","address":"宝山区沪太路7098号(沪太路月罗公路)"},{"poiid":"B2094654D468A4F5429B","title":"中国建设银行(市一路)","lon":"121.34867","lat":"31.41542","category":"150","category_name":"银行","address":""},{"poiid":"B2094654DB6AA2FC409A","title":"中国邮政(罗店邮政支局)","lon":"121.34912","lat":"31.41584","category":"248","category_name":"生活娱乐","address":"宝山区市一路166号"},{"poiid":"B2094654D468A4F5489B","title":"花神堂","lon":"121.34508","lat":"31.41623","category":"117","category_name":"便民商店/便利店","address":"宝山区赵巷街136号"},{"poiid":"B2094757D06BA6FD4498","title":"万科琥珀臻园","lon":"121.366708","lat":"31.411943","category":"500","category_name":"未知分类","address":"上海市宝山区美兰湖新镇美艾路与抚远路交汇处"},{"poiid":"B2094757D568A5FA479C","title":"意大利餐厅","lon":"121.3654","lat":"31.4263","category":"98","category_name":"意式菜品餐厅","address":"莘朱路168号"},{"poiid":"B2094655D36CA6FF449F","title":"抚远路石太路","lon":"121.35217","lat":"31.43258","category":"38","category_name":"公交车站","address":""},{"poiid":"B2094757D164ABF94392","title":"宝山区刑事审判法庭","lon":"121.35954667","lat":"31.414126286","category":"500","category_name":"未知分类","address":"上海市宝山区月罗公路2099号"},{"poiid":"B2094757D66FA0FF459A","title":"中国移动罗店营业厅","lon":"121.34794045","lat":"31.415086409","category":"150","category_name":"银行","address":"上海宝山区市一路188号"},{"poiid":"B2094654D469A7FE479C","title":"元祖食品(塘西街)","lon":"121.34317","lat":"31.41437","category":"112","category_name":"糕饼店","address":""},{"poiid":"B2094654D469A0FB429A","title":"交通银行上海罗店支行","lon":"121.34775","lat":"31.41457","category":"150","category_name":"银行","address":"罗溪路239"},{"poiid":"B2094757D06BA5F4469C","title":"震旦学院南校区","lon":"121.359177","lat":"31.413554","category":"253","category_name":"校园生活","address":"上海市宝山区月罗公路2106号"},{"poiid":"B2094654D469A0FB439E","title":"上海三荣电梯有限公司(月罗公路)","lon":"121.35711","lat":"31.41293","category":"263","category_name":"公司","address":""},{"poiid":"B2094757D16DABF5489B","title":"集贤路","lon":"121.35550177","lat":"31.412044147","category":"500","category_name":"未知分类","address":"上海集贤路市一东路"},{"poiid":"B2094654D469A7FF429C","title":"一德大药房绿岛店","lon":"121.34428","lat":"31.4146","category":"162","category_name":"医院","address":"罗店镇"},{"poiid":"B2094654D469A0FB4692","title":"上海市罗店中学","lon":"121.33895","lat":"31.4102","category":"55","category_name":"中学","address":"宝山区罗店镇罗新路707号(集贤路罗新路)"},{"poiid":"B2094757D16EABFD459A","title":"震旦养老院","lon":"121.35701767","lat":"31.412247451","category":"500","category_name":"未知分类","address":"上海看守所对面"},{"poiid":"B2094757D064A5FE4693","title":"肯德基 KFC 美兰湖店","lon":"121.34690175","lat":"31.404148685","category":"500","category_name":"未知分类","address":"上海市宝山区美兰湖世纪联华一楼"},{"poiid":"B2094654D468A4F44399","title":"罗店镇社区文化活动中心","lon":"121.34751","lat":"31.41513","category":"248","category_name":"生活娱乐","address":"市一路199"},{"poiid":"B2094757D568A6FE419A","title":"上海瓦伦西酒店","lon":"121.3591772","lat":"31.41355417","category":"251","category_name":"出行住宿","address":"宝山区月罗路2106号"},{"poiid":"B2094654D468A4F4419C","title":"欧罗吧娱乐城","lon":"121.36553","lat":"31.42128","category":"248","category_name":"生活娱乐","address":"罗店镇"},{"poiid":"B2094654D469A0FB439B","title":"中国弹簧厂冷拉分厂","lon":"121.36138","lat":"31.41411","category":"263","category_name":"公司","address":""},{"poiid":"B2094654DB69A7FB429D","title":"华联超市(罗店店)","lon":"121.343","lat":"31.4143","category":"118","category_name":"超级市场","address":"罗店镇塘西街28号"},{"poiid":"B2094654D469A0F8429F","title":"罗店购物中心","lon":"121.34358","lat":"31.41272","category":"119","category_name":"商场","address":"塘西街39"},{"poiid":"B2094654DB65A6FC4799","title":"永琪美容美发(罗店店)","lon":"121.3434","lat":"31.41251","category":"148","category_name":"美容美发店","address":"宝山区塘西街52号(近市一路)"},{"poiid":"B2094757D16EA7F9499F","title":"农工商(市一路店)","lon":"121.34558","lat":"31.41422","category":"500","category_name":"未知分类","address":"宝山区罗店市一路286号(市一路镇东路)"},{"poiid":"B2094654D468A4F44599","title":"上海宝翼制罐有限公司","lon":"121.36486","lat":"31.41518","category":"263","category_name":"公司","address":"月罗公路1888号"},{"poiid":"B2094654D469A0FA439A","title":"罗店镇幼儿园","lon":"121.34122","lat":"31.41461","category":"57","category_name":"幼儿园","address":"宝山区罗店镇东西巷街79弄23号(东西巷街塘西街)"},{"poiid":"B2094654D469A0F84299","title":"中国农业银行罗店支行","lon":"121.34417","lat":"31.41418","category":"150","category_name":"银行","address":"宝山区罗店镇市一路251号(近市二路)"},{"poiid":"B2094750D56BA5FC4393","title":"远洋7号","lon":"121.3597401665","lat":"31.408080904354","category":"47","category_name":"住宅区","address":"美兰湖板块罗芬路1288弄"},{"poiid":"B2094655D36CA7FE4299","title":"沪太路石太路","lon":"121.33709","lat":"31.42823","category":"38","category_name":"公交车站","address":""},{"poiid":"B2094654D469A0FA439B","title":"罗店成人中等学校(蓝天中学)","lon":"121.34122","lat":"31.41461","category":"55","category_name":"中学","address":""},{"poiid":"B2094654D469A0F84898","title":"新华书店(塘西街)","lon":"121.34355","lat":"31.41289","category":"125","category_name":"书店","address":""},{"poiid":"B2094654D469A7FF4399","title":"上海农村商业银行(市一路)","lon":"121.34394","lat":"31.41413","category":"150","category_name":"银行","address":"市一路253"},{"poiid":"B2094654D469A0FA4399","title":"新隆酒家","lon":"121.34098","lat":"31.41412","category":"76","category_name":"上海菜","address":"宝山区东西巷街98号(近市一路)"},{"poiid":"B2094654D469A0F8489B","title":"中国工商银行(东西巷街)","lon":"121.34258","lat":"31.41457","category":"150","category_name":"银行","address":""},{"poiid":"B2094757D169ABFF449C","title":"罗店汽车站","lon":"121.340383853","lat":"31.411493536","category":"35","category_name":"长途汽车站","address":"上海宝山巴士罗店汽车站"},{"poiid":"B2094654D468A4F44093","title":"上海爱普公司","lon":"121.34093","lat":"31.42263","category":"263","category_name":"公司","address":"罗新路111号"},{"poiid":"B2094654D469A0FA439D","title":"安宁百货商场","lon":"121.3401","lat":"31.41385","category":"119","category_name":"商场","address":""},{"poiid":"B2094757D469A6FF429B","title":"美兰湖粗菜馆","lon":"121.35169744492","lat":"31.402659855428","category":"76","category_name":"上海菜","address":"宝山区罗芬路1088号世纪联华4楼(近沪太路)"},{"poiid":"B2094757D06BA4FE409F","title":"祁南二村","lon":"121.37101371307","lat":"31.427084704165","category":"252","category_name":"楼宇机构","address":"上海市宝山区市一路"},{"poiid":"B2094757D169AAF44298","title":"萧萧's home","lon":"121.34023705","lat":"31.425436821","category":"500","category_name":"未知分类","address":null},{"poiid":"B2094757D168A4F54798","title":"上海老盛昌汤包馆(仓场店)","lon":"121.37037617","lat":"31.416197625","category":"247","category_name":"餐饮美食","address":"上海嘉定仓场路424号"},{"poiid":"B2094757D16CAAF44793","title":"FLORA in the house","lon":"121.35397865","lat":"31.404620595","category":"500","category_name":"未知分类","address":"上海美兰湖高尔夫别墅"},{"poiid":"B2094655D265A1FF4993","title":"华府美墅","lon":"121.35477","lat":"31.40527","category":"47","category_name":"住宅区","address":""},{"poiid":"B2094654D469A0FF479E","title":"塘西街邮政所","lon":"121.34296","lat":"31.41357","category":"248","category_name":"生活娱乐","address":"塘西街90"},{"poiid":"B2094757D16DABFB429F","title":"上海宝通赢(起亚)汽车服务有限公司","lon":"121.37071137","lat":"31.416332128","category":"500","category_name":"未知分类","address":"宝山区罗店镇束里桥月罗公路1563号(近潘泾路)"},{"poiid":"B2094751D565A7FD419B","title":"美兰湖花园","lon":"121.345603","lat":"31.407293","category":"47","category_name":"住宅区","address":"宝山区美丹路18弄"},{"poiid":"B2094654DB69A6FE499E","title":"金兰雅别墅","lon":"121.35919","lat":"31.40274","category":"47","category_name":"住宅区","address":"宝山区美兰湖路98弄68号"},{"poiid":"B2094757D169A3F94692","title":"西門子製造工程中心有限公司","lon":"121.363023679","lat":"31.4358936978","category":"500","category_name":"未知分类","address":"上海市宝山区潘泾路"},{"poiid":"B2094654D469A7FE429D","title":"快客(罗太路)","lon":"121.34095","lat":"31.41017","category":"117","category_name":"便民商店/便利店","address":""},{"poiid":"B2094654D468A4F54092","title":"上海沪太经济城(沪太路)","lon":"121.3358","lat":"31.42527","category":"45","category_name":"产业园区","address":""},{"poiid":"B2094655D26BA4F4439E","title":"华府美墅(东南门)","lon":"121.35503","lat":"31.40514","category":"47","category_name":"住宅区","address":""},{"poiid":"B2094757D065AAF4469E","title":"美兰湖朗诗绿岛科技住宅","lon":"121.35753966","lat":"31.403614333","category":"500","category_name":"未知分类","address":"上海市宝山区罗芬路1199弄"},{"poiid":"B2094655D26BA3F5439E","title":"朗诗绿岛","lon":"121.34872","lat":"31.405003","category":"47","category_name":"住宅区","address":"罗店新镇罗芬路555弄38号"},{"poiid":"B2094654D469A7FE449A","title":"罗店派出所","lon":"121.34399","lat":"31.40806","category":"609","category_name":"警察局","address":"宝山区罗太路232"},{"poiid":"B2094757D165ABFB4699","title":"志铭贸易","lon":"121.33841665","lat":"31.418223873","category":"263","category_name":"公司","address":"上海罗太路601号(近祁北路口)"},{"poiid":"B2094757D66FA7FB4993","title":"美兰湖畔雅苑","lon":"121.359508679","lat":"31.4047561096","category":"47","category_name":"住宅区","address":"上海罗迎路美丹路"},{"poiid":"B2094757D165A2F54992","title":"粗菜馆","lon":"121.351094353","lat":"31.4022388468","category":"257","category_name":"中餐厅","address":"上海美兰湖"},{"poiid":"B2094757D164A5FD469D","title":"肯德基(世纪联华美兰湖店)","lon":"121.35505127","lat":"31.405679677","category":"500","category_name":"未知分类","address":"上海沪太路美丹路"},{"poiid":"B2094654D469A7FE4393","title":"宝山区外来流动人口管理罗店服务中心","lon":"121.34387","lat":"31.40815","category":"248","category_name":"生活娱乐","address":""},{"poiid":"B2094757D164A0F9479E","title":"美兰湖站上行司机休息室","lon":"121.346904253","lat":"31.4040346835","category":"500","category_name":"未知分类","address":null},{"poiid":"B2094752D06EABFB449C","title":"Eplay Cafe","lon":"121.353673","lat":"31.401763","category":"247","category_name":"餐饮美食","address":"美兰湖罗芬路"},{"poiid":"B2094757D164ABFD4799","title":"爱婴室(美兰湖店)","lon":"121.350534653","lat":"31.4023175484","category":"500","category_name":"未知分类","address":"宝山区罗芬路1088号罗店美兰湖交通枢纽广场4楼A410-412"},{"poiid":"B2094757D06BA7FA4492","title":"沪太公路","lon":"121.345886307","lat":"31.4051632524","category":"260","category_name":"其他","address":"上海沪太公路"}]