[{"poiid":"B2094757D66FA6FA4698","title":"市北高新技术服务业园区","lon":"121.43696805","lat":"31.2951550841","category":"46","category_name":"楼宇","address":"上海江场西路江场三路"},{"poiid":"B2094757D06FA3FF4999","title":"上海飞机制造有限公司","lon":"121.43297576","lat":"31.304088592","category":"263","category_name":"公司","address":"上海市闸北区场中路3115号"},{"poiid":"B2094757D06FA5F54798","title":"幸福第一公寓","lon":"121.44308","lat":"31.304104","category":"47","category_name":"住宅区","address":"场中路2600弄6号"},{"poiid":"B2094654D464A3FB409D","title":"市北半岛国际中心","lon":"121.43596","lat":"31.29435","category":"46","category_name":"楼宇","address":"闵行区七莘路联明路"},{"poiid":"B2094655D36CA5F94998","title":"场中路三泉路","lon":"121.44289","lat":"31.30531","category":"38","category_name":"公交车站","address":""},{"poiid":"B2094757D068ABFE4299","title":"幸福第二公寓","lon":"121.43835","lat":"31.30356","category":"47","category_name":"住宅区","address":"幸福第二公寓位于闸北场中路2950弄"},{"poiid":"B2094757D06AA6FD4798","title":"大润发总公司","lon":"121.44454155","lat":"31.2980341956","category":"46","category_name":"楼宇","address":"上海市江场西路255号"},{"poiid":"B2094757D568A4F54298","title":"中铁中环时代广场","lon":"121.439695","lat":"31.29509056","category":"46","category_name":"楼宇","address":"闸北江场西路、万荣路"},{"poiid":"B2094757D66CA4F94893","title":"大华阳城","lon":"121.43742","lat":"31.295259","category":"252","category_name":"楼宇机构","address":"上海市宝山区新村路新滬路"},{"poiid":"B2094757D16EA5FD439F","title":"上海市机动车物损交通事故保险理赔服务中心沪仑分中心","lon":"121.44139895","lat":"31.300468642","category":"500","category_name":"未知分类","address":"上海市万荣路1559号"},{"poiid":"B2094757D06AA6FC409F","title":"临汾路1515弄","lon":"121.43730895","lat":"31.307489776","category":"500","category_name":"未知分类","address":"上海市闸北区临汾路"},{"poiid":"B2094757D16BA1FA4492","title":"虹桥机场一号航站楼安检通道","lon":"121.44293825","lat":"31.304116911","category":"21","category_name":"飞机场","address":"上海虹桥机场"},{"poiid":"B2094654DB6AA4FA459F","title":"上海市闸北第八中学(康宁路)","lon":"121.43834","lat":"31.30356","category":"55","category_name":"中学","address":"场中路2950弄"},{"poiid":"B2094757D16EA5F54999","title":"湘村人家","lon":"121.43969695","lat":"31.303860707","category":"77","category_name":"湖南菜","address":"闸北区场中路2866号(近三泉路)"},{"poiid":"B2094757D069A3FB429F","title":"鹿氏骨头王","lon":"121.43425625","lat":"31.301415354","category":"86","category_name":"火锅店","address":"宝山区场中路3155号(近少年村路)"},{"poiid":"B2094654DB6AA4F44992","title":"成亿花园","lon":"121.435844","lat":"31.303744","category":"47","category_name":"住宅区","address":"原平路1028弄"},{"poiid":"B2094654D464A3F54399","title":"永泉公寓","lon":"121.4402","lat":"31.301514","category":"47","category_name":"住宅区","address":"上海市闸北区场中路2850弄"},{"poiid":"B2094757D06FA4FD4492","title":"赛科斯信息技术(上海)有限公司","lon":"121.437567649","lat":"31.2951535267","category":"46","category_name":"楼宇","address":"上海江场三路221号"},{"poiid":"B2094757D068AAF9449B","title":"场中路2800弄","lon":"121.44006667","lat":"31.303621462","category":"260","category_name":"其他","address":"上海场中路2800弄"},{"poiid":"B2094757D66EA5F5449D","title":"上海公安消防总队医院","lon":"121.44097395","lat":"31.302791686","category":"162","category_name":"医院","address":"闸北区三泉路22号(近新泉路)"},{"poiid":"B2094757D069A0FE4792","title":"市北半岛商务会所","lon":"121.436023","lat":"31.294477","category":"260","category_name":"其他","address":"闸北区江场三路258号(近江场西路)"},{"poiid":"B2094757D069AAFA4299","title":"上海市闸北区第八中学新校","lon":"121.437458","lat":"31.303014","category":"500","category_name":"未知分类","address":"虹口区场中路2950弄80号"},{"poiid":"B2094757D068A1F44598","title":"金泉苑","lon":"121.438226","lat":"31.304973","category":"252","category_name":"楼宇机构","address":"场中路2965弄1-46号"},{"poiid":"B2094654D464A3FA469A","title":"上海第十机动车安全检测站","lon":"121.43985","lat":"31.29639","category":"250","category_name":"公园户外","address":"上海万荣路1298号"},{"poiid":"B2094757D16AA5F5459D","title":"上海市机动车物损交通事故保险理赔服务中心(沪仑分中心)","lon":"121.44038995","lat":"31.3008616497","category":"252","category_name":"楼宇机构","address":"上海万荣路1556号"},{"poiid":"B2094654D464A0FB409C","title":"东营房小区","lon":"121.4328","lat":"31.30255","category":"47","category_name":"住宅区","address":"场中路3300弄"},{"poiid":"B2094654D464A3FB409B","title":"市北工业园区","lon":"121.43766","lat":"31.29488","category":"45","category_name":"产业园区","address":"江场三路219"},{"poiid":"B2094757D56CA4FD499A","title":"重庆鸡公煲 场中店","lon":"121.440775054","lat":"31.305194793","category":"71","category_name":"四川菜","address":"闸北区场中路2629号(近三泉路)"},{"poiid":"B2094655D36CA0F9469A","title":"江场西路万荣路","lon":"121.44168","lat":"31.29779","category":"38","category_name":"公交车站","address":""},{"poiid":"B2094757D065A5FF409A","title":"上海移动万荣大楼","lon":"121.440473","lat":"31.297186","category":"46","category_name":"楼宇","address":"上海江场西路355号"},{"poiid":"B2094654D464A3FB4398","title":"市北工业园区创新集聚区","lon":"121.43747","lat":"31.29814","category":"45","category_name":"产业园区","address":"江场西路"},{"poiid":"B2094655D36CA0F94593","title":"江场西路江场三路","lon":"121.43667","lat":"31.29733","category":"38","category_name":"公交车站","address":""},{"poiid":"B2094757D76CA7F5409B","title":"新招鲜本地鸡窝 场中路店","lon":"121.439279","lat":"31.305008","category":"86","category_name":"火锅店","address":"闸北区场中路(共和新路闻喜路)"},{"poiid":"B2094757DA69A1F4479C","title":"上海百联沪北斯柯达4s店","lon":"121.44528954884","lat":"31.30105134476","category":"639","category_name":"汽车交通类公司","address":"上海市闸北区共和新路3550号（百联汽车广场）"},{"poiid":"B2094757D064A5F94598","title":"单曲循环","lon":"121.4394332","lat":"31.298267035","category":"170","category_name":"KTV","address":"上海给所有单曲循环ing的小朋友们"},{"poiid":"B2094757D568AAF8469B","title":"磐石国际大厦","lon":"121.4392539","lat":"31.29706694","category":"46","category_name":"楼宇","address":"闸北区江场西路395号"},{"poiid":"B2094757D168A4F4429D","title":"望源公寓","lon":"121.44036","lat":"31.304247","category":"252","category_name":"楼宇机构","address":"上海市闸北区场中路2828弄"},{"poiid":"B2094655D36CA5F9499B","title":"场中路三号桥","lon":"121.43726","lat":"31.30452","category":"38","category_name":"公交车站","address":""},{"poiid":"B2094757D16FA2FE4893","title":"联储幸福酒店","lon":"121.44257955","lat":"31.30558764","category":"217","category_name":"旅馆招待所","address":"上海市闸北区场中路2250号（近共和新路）"},{"poiid":"B2094757D16CA5F44593","title":"上海彭浦消防队","lon":"121.44077205","lat":"31.2997541285","category":"252","category_name":"楼宇机构","address":"上海三泉路30号"},{"poiid":"B2094655D26FA5F8469C","title":"上海海鹰医院","lon":"121.4391","lat":"31.30454","category":"162","category_name":"医院","address":"场中路2880,2888,2896"},{"poiid":"B2094757D16BA2F94398","title":"上海上勤汽车维修有限公司","lon":"121.44238205","lat":"31.3000035333","category":"500","category_name":"未知分类","address":"上海闸北区万荣一路120号"},{"poiid":"B2094752D068A7FD439D","title":"第十人民医院","lon":"121.43592","lat":"31.303244","category":"162","category_name":"医院","address":"闸北区 延长路"},{"poiid":"B2094757D16EABF4469F","title":"场中路2850弄","lon":"121.44040325","lat":"31.302115393","category":"252","category_name":"楼宇机构","address":"上海场中路2850弄"},{"poiid":"B2094654D464A3FB459C","title":"鑫协都市型工业园区","lon":"121.44245","lat":"31.29825","category":"45","category_name":"产业园区","address":"江场西路300号"},{"poiid":"B2094757D465A1F84799","title":"润天品味轩","lon":"121.436029054","lat":"31.304692793","category":"76","category_name":"上海菜","address":"闸北区场中路3133号(近少年村路)"},{"poiid":"B2094757D06AA4FF499A","title":"幸福小学","lon":"121.43965","lat":"31.3046","category":"56","category_name":"小学","address":"闸北区场中路2992号(近长临路)"},{"poiid":"B2094654D464A6FA4593","title":"北安小区","lon":"121.44406","lat":"31.30615","category":"47","category_name":"住宅区","address":"闸北区场中路2401弄"},{"poiid":"B2094757D165A3F84992","title":"伊诺咖啡","lon":"121.44345925","lat":"31.29726228","category":"260","category_name":"其他","address":"闸北区江场西路188号(近共和新路)"},{"poiid":"B2094654D464A3FB459F","title":"上海市小企业(生产力促进)服务中心都市型工业园区工作站(锦森欧洲大楼西北)","lon":"121.44245","lat":"31.29825","category":"45","category_name":"产业园区","address":"江场西路300号鑫协都市型工业园区"},{"poiid":"B2094757D06BA5FC4899","title":"中国人民解放军海军东海舰队上海场中路干部休养所","lon":"121.43460495","lat":"31.3018786691","category":"500","category_name":"未知分类","address":"上海市宝山区场中路3300弄"},{"poiid":"B2094757D165A0F5469C","title":"万荣路加油站","lon":"121.441653","lat":"31.298957","category":"154","category_name":"加油加气站","address":"上海万荣路1501号"},{"poiid":"B2094757D065A7FF479C","title":"临汾路1513弄","lon":"121.44058095","lat":"31.3067637625","category":"500","category_name":"未知分类","address":"上海临汾路1513弄"},{"poiid":"B2094655D26BA6FA469E","title":"可的超市(场中店)","lon":"121.43706","lat":"31.30462","category":"117","category_name":"便民商店/便利店","address":"场中路2967号-3号"},{"poiid":"B2094757D065AAFC489F","title":"新招鲜","lon":"121.437840435","lat":"31.3040413105","category":"500","category_name":"未知分类","address":"上海闸北区场中路2968号"},{"poiid":"B2094654D464A3FA4792","title":"市北工业园区都市信息园","lon":"121.43799","lat":"31.29608","category":"45","category_name":"产业园区","address":"江场三路305"},{"poiid":"B2094757D66CA7FE4898","title":"凯捷","lon":"121.43900475","lat":"31.2983048008","category":"249","category_name":"购物服务","address":"上海万荣路1558号"},{"poiid":"B2094654D464A6FF4893","title":"良友金伴NO.494","lon":"121.43971","lat":"31.30518","category":"117","category_name":"便民商店/便利店","address":"场中路2619"},{"poiid":"B2094654D465A5F5479F","title":"上飞小厨","lon":"121.433636054","lat":"31.304201793","category":"76","category_name":"上海菜","address":"闸北区场中路3115号(近康宁路)"},{"poiid":"B2094757D064A3FF4199","title":"田仓米粉(江场西路)","lon":"121.44562295","lat":"31.297987594","category":"68","category_name":"快餐厅","address":"闸北区江场西路190号(大润发对面)"},{"poiid":"B2094654D464A3FB449C","title":"上海市电力公司油务中心","lon":"121.43967","lat":"31.29824","category":"263","category_name":"公司","address":"江场西路350"},{"poiid":"B2094654D464A3FB4493","title":"上海电力变压器修试厂","lon":"121.43968","lat":"31.29824","category":"263","category_name":"公司","address":"江场西路350"},{"poiid":"B2094654D464A3F44993","title":"华联超市No.2681","lon":"121.44161","lat":"31.30432","category":"118","category_name":"超级市场","address":"场中路2600弄15号"},{"poiid":"B2094654DB6AABFC429F","title":"家得利(场中店)","lon":"121.43744","lat":"31.30468","category":"118","category_name":"超级市场","address":"闸北区场中路2965弄"},{"poiid":"B2094655D26EA3FB4493","title":"永泉公寓(北门)","lon":"121.44047","lat":"31.30237","category":"656","category_name":"大门","address":""},{"poiid":"B2094757D168A2F94198","title":"和典创意园","lon":"121.44352045","lat":"31.2973300822","category":"500","category_name":"未知分类","address":"上海闸北区江场西路180号7幢"},{"poiid":"B2094750D569A5FD4999","title":"北杰公寓","lon":"121.43954","lat":"31.305996","category":"47","category_name":"住宅区","address":"上海市闸北区场中路2765弄"},{"poiid":"B2094655D26FA0F5459C","title":"金泉苑(南门)","lon":"121.4376","lat":"31.30482","category":"47","category_name":"住宅区","address":"场中路2965弄1-46号"},{"poiid":"B2094654DB6AABFC439A","title":"彭浦新村(南门)","lon":"121.44041","lat":"31.30525","category":"47","category_name":"住宅区","address":"场中路2601弄1-40号"},{"poiid":"B2094757D06AA0FE4592","title":"中石化加油站","lon":"121.44130391","lat":"31.305297676","category":"154","category_name":"加油加气站","address":"闸北区三泉路2521号"},{"poiid":"B2094655D26CA1F5489A","title":"幸福第二公寓(东门)","lon":"121.43916","lat":"31.30218","category":"656","category_name":"大门","address":""},{"poiid":"B2094655D26DA4FF449E","title":"永泉公寓(西门)","lon":"121.43949","lat":"31.30197","category":"656","category_name":"大门","address":""},{"poiid":"B2094654D464A3F5439F","title":"中国工商银行场中分理处","lon":"121.4386","lat":"31.30454","category":"150","category_name":"银行","address":"场中路2928、2922"},{"poiid":"B2094655D26CA1FB449B","title":"海运小区","lon":"121.44229","lat":"31.30449","category":"47","category_name":"住宅区","address":"场中路2600弄6-8号"},{"poiid":"B2094654D464A6FF479E","title":"上海市三泉学校","lon":"121.43766","lat":"31.30754","category":"55","category_name":"中学","address":"临汾路1515弄35号甲"},{"poiid":"B2094654D464A6F8409B","title":"时尚视觉","lon":"121.44036","lat":"31.30525","category":"148","category_name":"美容美发店","address":""},{"poiid":"B2094757D06BA0F4409C","title":"荣威(上勤)","lon":"121.44088695","lat":"31.2975395862","category":"249","category_name":"购物服务","address":"上海万荣一路"},{"poiid":"B2094757D165A6FC449D","title":"徐家汇路555号","lon":"121.43657305","lat":"31.304145012","category":"500","category_name":"未知分类","address":"上海英国签证中心"},{"poiid":"B2094757D569A7FC4899","title":"龙软基地","lon":"121.43568","lat":"31.29541","category":"46","category_name":"楼宇","address":"万荣路1198号"},{"poiid":"B2094655D26FA1FB489C","title":"望源公寓(西三门)","lon":"121.43988","lat":"31.3029","category":"656","category_name":"大门","address":"场中路2868弄"},{"poiid":"B2094752D26BA6FE409D","title":"海棠大厦","lon":"121.442072","lat":"31.297214","category":"252","category_name":"楼宇机构","address":"江场西路299弄49号"},{"poiid":"B2094751DA6EAAFD489E","title":"数据港大厦","lon":"121.439877","lat":"31.297408","category":"263","category_name":"公司","address":"江场西路387号"},{"poiid":"B2094654D465A5F54793","title":"军嫂小吃部","lon":"121.43259","lat":"31.304","category":"68","category_name":"快餐厅","address":"闸北区场中路3117号(近康宁路)"},{"poiid":"B2094757D66FA6FF4292","title":"颐和园　玉澜堂","lon":"121.43659205","lat":"31.3041696129","category":"500","category_name":"未知分类","address":"北京海淀区"},{"poiid":"B2094654D464A3FA4598","title":"锦森欧洲大楼","lon":"121.44405","lat":"31.29705","category":"46","category_name":"楼宇","address":"江场二路19"},{"poiid":"B2094757D069A0FF4693","title":"上勤别克","lon":"121.443467","lat":"31.299176","category":"163","category_name":"4S店","address":"上海闸北区万荣一路120号"},{"poiid":"B2094655D26FA7FD499A","title":"永泉公寓(东门)","lon":"121.441","lat":"31.30143","category":"656","category_name":"大门","address":"场中路2850弄"},{"poiid":"B2094757D169A0FA469B","title":"玲玲餐馆","lon":"121.43495195","lat":"31.2967085703","category":"76","category_name":"上海菜","address":"闸北区江场西路876号(近江场三路)"},{"poiid":"B2094654DB65A6F44293","title":"上海威旭半导体光电有限公司","lon":"121.43842","lat":"31.29706","category":"263","category_name":"公司","address":""},{"poiid":"B2094757D16FABFF459B","title":"健利来绿豆饼","lon":"121.44532595","lat":"31.3001576362","category":"247","category_name":"餐饮美食","address":"上海闸北区共和新路1725弄31号(近延长路地铁2号出口)"},{"poiid":"B2094654D464A3FB4693","title":"新理想工业园","lon":"121.44594","lat":"31.30011","category":"45","category_name":"产业园区","address":"万荣一路20号"},{"poiid":"B2094655D26CA1F54898","title":"幸福第一公寓(北门)","lon":"121.44293","lat":"31.305","category":"47","category_name":"住宅区","address":"场中路2600弄"},{"poiid":"B2094757D569A1F5429C","title":"莫泰168旅店(江场西路店)","lon":"121.44477186","lat":"31.29827338","category":"216","category_name":"经济型连锁酒店","address":"江场西路200"},{"poiid":"B2094654D464A3F44099","title":"人民都市型工业园","lon":"121.44523","lat":"31.29868","category":"45","category_name":"产业园区","address":"江场西路200"},{"poiid":"B2094654D464A3FB469D","title":"上海万隆机动车驾驶员培训中心","lon":"121.44521","lat":"31.30004","category":"192","category_name":"驾校","address":"万隆一路40号"},{"poiid":"B2094757D66DA5FB489F","title":"顾村中国电信","lon":"121.43656305","lat":"31.304134912","category":"500","category_name":"未知分类","address":"上海顾新路2号"},{"poiid":"B2094655D36CA3FF409F","title":"移动公司万荣局","lon":"121.44048","lat":"31.29719","category":"263","category_name":"公司","address":"江场西路355号"},{"poiid":"B2094757D069ABFC409A","title":"绿福公寓","lon":"121.4332","lat":"31.302603","category":"252","category_name":"楼宇机构","address":"上海市闸北区场中路3220弄"},{"poiid":"B2094655D26CA1F4439C","title":"上海上勤","lon":"121.44347","lat":"31.29918","category":"159","category_name":"汽车维修","address":"万荣一路120号"},{"poiid":"B2094757D06AA4F8449E","title":"场中路2601弄","lon":"121.440749","lat":"31.305631","category":"252","category_name":"楼宇机构","address":"上海市闸北区场中路2601弄"},{"poiid":"B2094654D464A3FB4892","title":"增美都市工业园区","lon":"121.44607","lat":"31.29913","category":"45","category_name":"产业园区","address":"万荣一路15号"},{"poiid":"B2094654DB6AA4FA4598","title":"明珠公寓1号楼","lon":"121.44445","lat":"31.30479","category":"47","category_name":"住宅区","address":"上海市闸北区场中路2600弄1号"},{"poiid":"B2094757D169AAFE419C","title":"万隆驾校","lon":"121.4449514","lat":"31.299032664","category":"253","category_name":"校园生活","address":"上海万荣一路40号"},{"poiid":"B2094655D26CA0F8429F","title":"三泉路332弄小区(西门)","lon":"121.44156","lat":"31.30591","category":"47","category_name":"住宅区","address":"三泉路332弄1-16号"},{"poiid":"B2094753D66EA0F54092","title":"大桶大","lon":"121.44426","lat":"31.297729","category":"500","category_name":"未知分类","address":"上海市 江场西路215号"},{"poiid":"B2094757D469A7FD4992","title":"久怡甜品 JOEY","lon":"121.441474054","lat":"31.307112793","category":"67","category_name":"甜品店","address":"三泉路274号近闻喜路"},{"poiid":"B2094655D26CA1F84399","title":"场中路2471弄小区(南门)","lon":"121.44288","lat":"31.30548","category":"47","category_name":"住宅区","address":"场中路2471弄小区1-19号"},{"poiid":"B2094757D06AA7FF4992","title":"三泉路兴泉小区","lon":"121.439797","lat":"31.305093","category":"252","category_name":"楼宇机构","address":"上海821弄"},{"poiid":"B2094752D76DA2FE499A","title":"市北高新园区星巴克","lon":"121.436401","lat":"31.294022","category":"247","category_name":"餐饮美食","address":null},{"poiid":"B2094654DB6AA4FA459E","title":"望源公寓(西二门)","lon":"121.43989","lat":"31.30314","category":"656","category_name":"大门","address":""},{"poiid":"B2094655D264A4FC4692","title":"老五烧烤","lon":"121.434625054","lat":"31.303593793","category":"87","category_name":"特色／地方风味餐厅","address":"场中路3300弄近少年村路"},{"poiid":"B2094757D06AA3FF4793","title":"北京大学哲学楼","lon":"121.44176095","lat":"31.296435065","category":"253","category_name":"校园生活","address":"北京大学图书馆南"},{"poiid":"B2094655D26CA1F54398","title":"锦江之星(市北工业园店)","lon":"121.44588","lat":"31.29839","category":"217","category_name":"旅馆招待所","address":"闸北区江场西路180号2栋(共和新路口)"},{"poiid":"B2094757D16CA4F4409D","title":"上海龙展装饰工程有限公司","lon":"121.43919785","lat":"31.2934342077","category":"46","category_name":"楼宇","address":"上海万荣路1218弄8号4楼(c栋)"},{"poiid":"B2094654D464A3FB4298","title":"企创动力大厦","lon":"121.43663","lat":"31.29422","category":"46","category_name":"楼宇","address":"江场三路228"},{"poiid":"B2094757D16FA5FD469B","title":"临汾路三泉路","lon":"121.43836695","lat":"31.307889184","category":"500","category_name":"未知分类","address":"上海临汾路，三泉路"},{"poiid":"B2094654D464A3FA489E","title":"喜士多便利连锁有限公司","lon":"121.43798","lat":"31.29607","category":"263","category_name":"公司","address":"江场三路305号市北工业园区都市信息园301-5F"},{"poiid":"B2094654D465A5F54792","title":"快客(航鹰小区东)","lon":"121.43262","lat":"31.304","category":"117","category_name":"便民商店/便利店","address":""},{"poiid":"B2094655D26DABFB4992","title":"幸福新苑(北门)","lon":"121.44473","lat":"31.30505","category":"47","category_name":"住宅区","address":"场中路2380弄"},{"poiid":"B2094654DB65A3F84092","title":"东北师范大学华光学院闸北区教学部","lon":"121.43772","lat":"31.3078","category":"52","category_name":"高等院校","address":"临汾路1515弄35号甲501室"},{"poiid":"B2094757D169A4FC439C","title":"东营房","lon":"121.43237095","lat":"31.303046691","category":"500","category_name":"未知分类","address":"上海场中路3300弄"},{"poiid":"B2094757D16AA2FB4392","title":"上海市普瑞眼科医院","lon":"121.44145895","lat":"31.306785762","category":"162","category_name":"医院","address":"上海市长宁区古北路436号"},{"poiid":"B2094757D16DA6F9489F","title":"和园","lon":"121.4369","lat":"31.29395","category":"197","category_name":"动物园","address":"上海闸北区江场三路238号  "},{"poiid":"B2094654D464A3FB429E","title":"上海亨通光电科技有限公司","lon":"121.43654","lat":"31.29658","category":"263","category_name":"公司","address":"江场西路555"},{"poiid":"B2094654D464A3F54093","title":"望源公寓(东门)","lon":"121.44104","lat":"31.30397","category":"656","category_name":"大门","address":"场中路2800弄17-65"},{"poiid":"B2094655D26CA0FF479F","title":"东营房小区(北一门)","lon":"121.43232","lat":"31.30342","category":"47","category_name":"住宅区","address":"场中路3300弄"},{"poiid":"B2094654DB64A5FA4993","title":"彭浦新村第二老年公寓","lon":"121.43846","lat":"31.30795","category":"47","category_name":"住宅区","address":"临汾路1513弄45号"},{"poiid":"B2094655D26CA1FB4498","title":"海运小区(西二门)","lon":"121.44152","lat":"31.3031","category":"656","category_name":"大门","address":""},{"poiid":"B2094757D168A5FF469E","title":"上海晶澳太阳能光伏科技有限公司","lon":"121.437665","lat":"31.294881","category":"500","category_name":"未知分类","address":"上海市闸北区市北工业园区江场三路36号"},{"poiid":"B2094654D464A3FA499B","title":"上海斯伟电脑图文制作有限公司","lon":"121.43799","lat":"31.29607","category":"263","category_name":"公司","address":"江场三路305号市北工业园区都市信息园305-3-5F"},{"poiid":"B2094757D068A5F5479B","title":"罗森便利(半岛国际店)","lon":"121.437358","lat":"31.294407","category":"117","category_name":"便民商店/便利店","address":"闸北区江场三路238号市北半岛国际中心1楼104-105(近汶水东路)"},{"poiid":"B2094757D16EA4F44593","title":"上海海关缉私局","lon":"121.44384002","lat":"31.29673767","category":"500","category_name":"未知分类","address":"上海市闸北区万荣二路19号"},{"poiid":"B2094655D26DA5FA439F","title":"北杰公寓(南门)","lon":"121.43949","lat":"31.30513","category":"656","category_name":"大门","address":"场中路2765弄"},{"poiid":"B2094757D165A6F84493","title":"上海市闵行区平南小学","lon":"121.433510067","lat":"31.303564518","category":"500","category_name":"未知分类","address":"上海古美路平南路"},{"poiid":"B2094757DA69A2FA4699","title":"北京现代上海恒锐4S店","lon":"121.43337","lat":"31.3036","category":"639","category_name":"汽车交通类公司","address":"上海市闸北区江场西路872号（近共和新路）"},{"poiid":"B2094654D464A0FB429A","title":"香篱足浴坊","lon":"121.43376","lat":"31.30365","category":"149","category_name":"洗浴推拿场所","address":"场中路3260"},{"poiid":"B2094655D26CA0FB419A","title":"绿泉公寓(东门)","lon":"121.44126","lat":"31.3064","category":"48","category_name":"楼宇大门","address":"三泉路333弄"},{"poiid":"B2094654D464A3FA459B","title":"上海铁路通信工厂(江场西路)","lon":"121.44499","lat":"31.29769","category":"263","category_name":"公司","address":"江场西路199"},{"poiid":"B2094655D26CA1F5489B","title":"幸福第二公寓(北门)","lon":"121.43817","lat":"31.30447","category":"656","category_name":"大门","address":"场中路2950弄"},{"poiid":"B2094655D26CA1F44799","title":"望源公寓(西一门)","lon":"121.43963","lat":"31.30445","category":"656","category_name":"大门","address":""},{"poiid":"B2094655D26CA1F5499B","title":"安美途二手车展示厅","lon":"121.44554","lat":"31.30094","category":"160","category_name":"二手车交易","address":""},{"poiid":"B2094757D66DA3F94193","title":"165三泉路场中路站","lon":"121.43261305","lat":"31.3037488049","category":"500","category_name":"未知分类","address":"上海三泉路场中路"},{"poiid":"B2094655D26FA1F5499E","title":"中国联通上海分公司江场局","lon":"121.4451","lat":"31.29698","category":"263","category_name":"公司","address":"江场西路199"},{"poiid":"B2094654D464A3F5419A","title":"望源公寓(北门)","lon":"121.44103","lat":"31.30473","category":"656","category_name":"大门","address":"场中路2800弄"},{"poiid":"B2094655D26DA4FE429E","title":"望源公寓(北二门)","lon":"121.44023","lat":"31.30483","category":"656","category_name":"大门","address":"场中路2828弄"},{"poiid":"B2094654D464A0FF479B","title":"上海友联汽车服务有限公司","lon":"121.43321","lat":"31.29726","category":"159","category_name":"汽车维修","address":"闸北区江场西路566号"},{"poiid":"B2094654DB6AABFC4292","title":"北杰公寓(南二门)","lon":"121.43909","lat":"31.30514","category":"656","category_name":"大门","address":""},{"poiid":"B2094654D464A3FB4098","title":"上海倍加福自动化有限公司","lon":"121.43766","lat":"31.29488","category":"263","category_name":"公司","address":"江场三路219号市北工业园区江场三路219号楼4层"},{"poiid":"B2094655D26EA4F9419D","title":"三泉羽毛球俱乐部","lon":"121.43845","lat":"31.30795","category":"220","category_name":"运动场所","address":"闸北区临汾路1515弄35号甲"},{"poiid":"B2094655D26DABFB4799","title":"海运小区(西门)","lon":"121.44172","lat":"31.30463","category":"656","category_name":"大门","address":"场中路2600弄6-8号"},{"poiid":"B2094757D16CA1FF419A","title":"新澳港式茶餐厅(江场三路店)","lon":"121.43728","lat":"31.2945","category":"500","category_name":"未知分类","address":"上海闸北区江场三路76-78号2楼(近江场西路)  "},{"poiid":"B2094757D16FA5FE4198","title":"公交850路临纷路共和新路","lon":"121.44158605","lat":"31.306804363","category":"500","category_name":"未知分类","address":"上海闸北区临纷路共和心路"},{"poiid":"B2094654DB6AA4F54193","title":"绿福公寓(西一门)","lon":"121.43467","lat":"31.30347","category":"656","category_name":"大门","address":"场中路3220弄1-6号"},{"poiid":"B2094654DB6AA4FA4499","title":"环达电脑(上海)有限公司","lon":"121.43846","lat":"31.2944","category":"263","category_name":"公司","address":"市北工业园区都市信息园211号1F-5F、213号1F-5F"},{"poiid":"B2094654D465A5F5479C","title":"上海飞机研究所大场分部","lon":"121.43296","lat":"31.30409","category":"191","category_name":"科研机构","address":"场中路3115"},{"poiid":"B2094654D464A3FA459A","title":"信宜药厂(江场西路)","lon":"121.44573","lat":"31.29767","category":"263","category_name":"公司","address":"江场西路165号"},{"poiid":"B2094654D464A3FB4192","title":"上海品天信息技术服务有限公司","lon":"121.43844","lat":"31.29439","category":"263","category_name":"公司","address":"市北工业园区都市信息园221号1-5F"},{"poiid":"B2094654D464A0FB4198","title":"绿福公寓(北门)","lon":"121.43305","lat":"31.30355","category":"656","category_name":"大门","address":"场中路3278弄"},{"poiid":"B2094757D66EA5FF4592","title":"火车票代售店(江场路店)","lon":"121.44337735","lat":"31.295761352","category":"251","category_name":"出行住宿","address":"上海闸北区江场西路206号"},{"poiid":"B2094655D26FA0F54493","title":"北安小区(南门)","lon":"121.44457","lat":"31.30565","category":"656","category_name":"大门","address":"场中路2401弄"}]