[{"poiid":"B2094757D06FA3F8419F","title":"上海外高桥保税区（五号门）","lon":"121.60565214847952","lat":"31.316174535459073","category":"46","category_name":"楼宇","address":"上海市浦东新区杨高北路2001号"},{"poiid":"B2094757D068A3F8449F","title":"苏浙汇(外高桥店)","lon":"121.60765","lat":"31.32485","category":"76","category_name":"上海菜","address":"浦东新区外高桥保税区富特中路85号F区F20地块"},{"poiid":"B2094654D568A1FD459F","title":"麦当劳 外高桥店 McDonald's","lon":"121.606007465","lat":"31.319296379921","category":"68","category_name":"快餐厅","address":"浦东新区外高桥保税区台北西路200号F幢F1(外高桥五号门)"},{"poiid":"B2094757D06FA3F4469B","title":"上海外高桥保税区海关","lon":"121.605324785","lat":"31.3157962504","category":"46","category_name":"楼宇","address":"上海杨高北路2015号"},{"poiid":"B2094757D06FA2FF419E","title":"航津路地铁站","lon":"121.595313","lat":"31.332977","category":"36","category_name":"地铁站","address":"上海轨道交通 六号线 轨交航津路站 6"},{"poiid":"B2094757D16AA5F8449A","title":"樱花园","lon":"121.616539986","lat":"31.3283641507","category":"500","category_name":"未知分类","address":"上海市浦东新区光耀路"},{"poiid":"B2094655D36CA6FE4498","title":"高东镇","lon":"121.61866","lat":"31.33127","category":"38","category_name":"公交车站","address":"浦东光明路415弄"},{"poiid":"B2094757D16BA3F9459B","title":"外高桥保税区 六号门","lon":"121.607119339","lat":"31.330455148","category":"500","category_name":"未知分类","address":null},{"poiid":"B2094757D06AA5FB4293","title":"上海药明康德新药开发有限公司","lon":"121.608224","lat":"31.323069","category":"263","category_name":"公司","address":"上海浦东外高桥保税区富特中路288号"},{"poiid":"B2094654D568A1FA439F","title":"德尔福(中国)科技研发中心有限公司","lon":"121.6062","lat":"31.32384","category":"263","category_name":"公司","address":"外高桥保税区德林路118号A部位"},{"poiid":"B2094654D568ABF8409D","title":"IBM全球服务执行中心上海新办公楼","lon":"121.60709","lat":"31.31448","category":"46","category_name":"楼宇","address":"上海市浦东新区外高桥保税区台南西路50号"},{"poiid":"B2094757D068A5FA4798","title":"德尔福汽车系统(中国)投资有限公司","lon":"121.60573678","lat":"31.328433691","category":"263","category_name":"公司","address":"上海外高桥保税区德林路118号"},{"poiid":"B2094654D46AAAFF4392","title":"盛世东苑","lon":"121.61275","lat":"31.333025","category":"47","category_name":"住宅区","address":"光泽路120弄1-83号"},{"poiid":"B2094757D06AA3FE439E","title":"MOB(外高桥店)","lon":"121.61085","lat":"31.31977","category":"148","category_name":"美容美发店","address":"浦东新区富特中路85号(近意威路)"},{"poiid":"B2094655D26FA5F94499","title":"三联大厦","lon":"121.613","lat":"31.3268","category":"46","category_name":"楼宇","address":"闸北区江场西路38号(近共和新路)"},{"poiid":"B2094757D16BA3FA4899","title":"DB Schenker 全球国际货运","lon":"121.607605","lat":"31.327669","category":"500","category_name":"未知分类","address":"上海意威路266号"},{"poiid":"B2094655D26AAAF4469C","title":"棒约翰比萨 外高桥店 Papa John's Pizza","lon":"121.610811054","lat":"31.322816793","category":"68","category_name":"快餐厅","address":"浦东新区华京路8号(近荷香路)"},{"poiid":"B2094655D269AAF9499F","title":"肯德基 台中南路店 KFC","lon":"121.607173054","lat":"31.315351793","category":"68","category_name":"快餐厅","address":"浦东新区台中南路2号新贸楼1楼(台南西路台中南路)"},{"poiid":"B2094757D06AA6F8459C","title":"公交971","lon":"121.609765348","lat":"31.3258370507","category":"38","category_name":"公交车站","address":"上海杨园新村园二路～陆家嘴地铁站"},{"poiid":"B2094654D568ABFE449B","title":"嘉里外高桥物流中心","lon":"121.60881","lat":"31.32458","category":"248","category_name":"生活娱乐","address":"德林路268"},{"poiid":"B2094654D568ABFE4498","title":"UPS","lon":"121.60905","lat":"31.32735","category":"248","category_name":"生活娱乐","address":""},{"poiid":"B2094757D064AAF9439A","title":"本家安田屋","lon":"121.60644","lat":"31.32073","category":"95","category_name":"日本料理","address":"浦东新区外高桥保税区华京路8号三联大厦1楼B2座(荷香路华京路)"},{"poiid":"B2094654D568ABFE459E","title":"F20工业小区","lon":"121.61004","lat":"31.32533","category":"45","category_name":"产业园区","address":"德林路368"},{"poiid":"B2094757D66CA1F4449F","title":"英德网络","lon":"121.60865883","lat":"31.326533457","category":"248","category_name":"生活娱乐","address":"上海外高桥保税区富特西一路473号3楼"},{"poiid":"B2094655D36CA7FA449B","title":"航津路富特中路","lon":"121.60447","lat":"31.33128","category":"38","category_name":"公交车站","address":""},{"poiid":"B2094654DB69A4F4449E","title":"上岛咖啡 外高桥店","lon":"121.610905054","lat":"31.322793793","category":"65","category_name":"咖啡厅","address":"浦东新区华京路8号三联大厦裙房底楼D部分(荷香路华京路)"},{"poiid":"B2094654D46AAAFF449A","title":"上海外联发D13工业园区(荷丹路)","lon":"121.60592","lat":"31.33197","category":"45","category_name":"产业园区","address":"荷丹路186-242"},{"poiid":"B2094757D069A1FA4898","title":"午间派对","lon":"121.60668","lat":"31.32114","category":"68","category_name":"快餐厅","address":"上海浦东新区华京路2号三联大厦南楼1-2楼(近荷香路)"},{"poiid":"B2094654D568A1FA449D","title":"F24园区(韩城路)","lon":"121.60247","lat":"31.33002","category":"45","category_name":"产业园区","address":"韩城路101"},{"poiid":"B2094757D16FA0FB449F","title":"新金桥物流","lon":"121.606107","lat":"31.330363","category":"500","category_name":"未知分类","address":"上海韩城路189号"},{"poiid":"B2094654D568A1FA449C","title":"考泰斯(上海)塑料技术有限公司(富特中路)","lon":"121.60444","lat":"31.32856","category":"263","category_name":"公司","address":"富特中路8"},{"poiid":"B2094654D568ABFE4492","title":"F21园区","lon":"121.61273","lat":"31.32653","category":"45","category_name":"产业园区","address":"日樱北路199"},{"poiid":"B2094757D16EA6FD429B","title":"光大证券信息技术部","lon":"121.608739","lat":"31.322681","category":"46","category_name":"楼宇","address":"上海富特中路299号47号楼3楼"},{"poiid":"B2094655D26CA7FA469D","title":"德尔福(中国)科技研发中心有限公司(东北门)","lon":"121.60705","lat":"31.32492","category":"263","category_name":"公司","address":""},{"poiid":"B2094655D26BA2FE499D","title":"外高桥保税区南门","lon":"121.60125","lat":"31.3231","category":"38","category_name":"公交车站","address":""},{"poiid":"B2094655D36CA7FC499F","title":"华京路日樱北路","lon":"121.61394","lat":"31.32365","category":"38","category_name":"公交车站","address":""},{"poiid":"B2094654D568A0FB419F","title":"高东馨苑","lon":"121.61721","lat":"31.329136","category":"47","category_name":"住宅区","address":"光泽路428弄1-92号"},{"poiid":"B2094654DB64AAFF4893","title":"德尔福亚太地区总部","lon":"121.6062","lat":"31.32384","category":"263","category_name":"公司","address":"外高桥保税区德林路118号A-3"},{"poiid":"B2094757D168A0FA4392","title":"耐克森","lon":"121.60678163","lat":"31.332026084","category":"500","category_name":"未知分类","address":"上海富特中路1号"},{"poiid":"B2094654D568ABFE4593","title":"帝凡黎国际贸易(上海)有限公司","lon":"121.61003","lat":"31.32533","category":"263","category_name":"公司","address":"德林路368号F20工业小区"},{"poiid":"B2094655D26AA0FA4499","title":"地铁外高桥保税区南站","lon":"121.60348","lat":"31.31896","category":"36","category_name":"地铁站","address":""},{"poiid":"B2094654D568ABFE449C","title":"上海日东光学","lon":"121.61141","lat":"31.32569","category":"263","category_name":"公司","address":"日樱北路210"},{"poiid":"B2094654D568ABFE449F","title":"经贸山九保税区第二物流中心","lon":"121.611","lat":"31.3268","category":"248","category_name":"生活娱乐","address":""},{"poiid":"B2094654D46AAAF84398","title":"兰宝大厦","lon":"121.60482","lat":"31.33321","category":"46","category_name":"楼宇","address":"外高桥保税区加太路29号"},{"poiid":"B2094757D16EABF54299","title":"罗森","lon":"121.60576933","lat":"31.324423509","category":"249","category_name":"购物服务","address":"上海外高桥德尔福研发中心"},{"poiid":"B2094750D46DA4FE419C","title":"红咖啡","lon":"121.615051","lat":"31.330118","category":"247","category_name":"餐饮美食","address":"高东樱花园"},{"poiid":"B2094757D164A0FC409D","title":"百味楼","lon":"121.61607","lat":"31.32957","category":"71","category_name":"四川菜","address":"浦东新区高东新路24号(近光泽路)"},{"poiid":"B2094654DB64A5FF459D","title":"中国国际商品中心","lon":"121.60033","lat":"31.33562","category":"46","category_name":"楼宇","address":"富特北路456"},{"poiid":"B2094655D36CA4FE4199","title":"爱都路","lon":"121.61299","lat":"31.32089","category":"38","category_name":"公交车站","address":""},{"poiid":"B2094654D568A1FA449A","title":"MOOG","lon":"121.60233","lat":"31.32753","category":"263","category_name":"公司","address":"意威路36号F24园区"},{"poiid":"B2094757D16CABFD4299","title":"ebmpapst China","lon":"121.60597663","lat":"31.323877362","category":"500","category_name":"未知分类","address":"上海华京路418"},{"poiid":"B2094655D26FA6FB4692","title":"菀熠楼","lon":"121.60626","lat":"31.3337","category":"46","category_name":"楼宇","address":"加太路39"},{"poiid":"B2094757D064AAFD419A","title":"博士蛙大厦","lon":"121.59855958","lat":"31.333674722","category":"252","category_name":"楼宇机构","address":"上海浦东新区外高桥保税区泰谷路78号"},{"poiid":"B2094654DB6BA2F5499D","title":"德利多富","lon":"121.60234","lat":"31.32753","category":"263","category_name":"公司","address":"意威路36、96号F24园区"},{"poiid":"B2094654D46BA3FE4799","title":"上海现代制药股份有限公司(建陆路)","lon":"121.61083","lat":"31.33167","category":"263","category_name":"公司","address":"建陆路378"},{"poiid":"B2094655D36CA7FA4499","title":"航津路","lon":"121.6126","lat":"31.33459","category":"38","category_name":"公交车站","address":""},{"poiid":"B2094654D46AAAFF4499","title":"日立化成工业(上海)有限公司","lon":"121.60592","lat":"31.33197","category":"263","category_name":"公司","address":"荷丹路188号上海外联发D13工业园区1层"},{"poiid":"B2094654D46AAAF9429C","title":"鲁能大厦","lon":"121.59668","lat":"31.33256","category":"46","category_name":"楼宇","address":"闸北区江场西路38号(近共和新路)"},{"poiid":"B2094655D26EA1FD459B","title":"莫泰168连锁旅店(外高桥五号门店)","lon":"121.60919","lat":"31.31719","category":"216","category_name":"经济型连锁酒店","address":"浦东新区台北东路200号(近洲海路)"},{"poiid":"B2094654D46AAAFF459C","title":"大西电子(上海)有限公司(荷丹路)","lon":"121.60592","lat":"31.33197","category":"263","category_name":"公司","address":"荷丹路240号上海外联发D13工业园区1层"},{"poiid":"B2094654D46AAAFF479F","title":"上海外联发D12工业园区","lon":"121.60649","lat":"31.33446","category":"45","category_name":"产业园区","address":"泰谷路205-213号"},{"poiid":"B2094654D568AAFF4498","title":"宝莲庵","lon":"121.59643","lat":"31.32363","category":"244","category_name":"寺庙道观","address":"浦东新区井亭东沟镇解放村36号(夏家宅东侧)"},{"poiid":"B2094654D46AAAFF4592","title":"永盛中心","lon":"121.60812","lat":"31.33261","category":"263","category_name":"公司","address":"荷丹路288"},{"poiid":"B2094654DB6BA1F8499F","title":"上海海氏实业有限公司","lon":"121.61084","lat":"31.32445","category":"263","category_name":"公司","address":"德林路269号"},{"poiid":"B2094654D568ABFE4598","title":"上海精裕捷星物流有限公司","lon":"121.6143","lat":"31.32661","category":"611","category_name":"照相馆","address":"日樱北路199号F21园区"},{"poiid":"B2094757D66DA0F5419C","title":"药明康德8号楼","lon":"121.608857","lat":"31.322771","category":"500","category_name":"未知分类","address":"上海富特中路299号"},{"poiid":"B2094654D46AAAF9429F","title":"宝钢浦东国贸大厦","lon":"121.59959","lat":"31.33182","category":"46","category_name":"楼宇","address":"荷丹路88"},{"poiid":"B2094655D26CA5F94098","title":"可的(华京路)","lon":"121.60624","lat":"31.32096","category":"117","category_name":"便民商店/便利店","address":"华京路8号三联大厦"},{"poiid":"B2094655D265A5FC499E","title":"保税区管委会大厦","lon":"121.60635","lat":"31.32056","category":"46","category_name":"楼宇","address":"华京路2号"},{"poiid":"B2094654D568A1FF439D","title":"国际商贸大厦","lon":"121.61008","lat":"31.31731","category":"46","category_name":"楼宇","address":"上海市浦东新区台北西路"},{"poiid":"B2094757D66CA7FB4998","title":"高桥镇小学兰嵩路","lon":"121.599819439","lat":"31.3252308277","category":"56","category_name":"小学","address":"上海兰嵩路330号"},{"poiid":"B2094654D568A1FA439E","title":"药明康德","lon":"121.60761","lat":"31.32254","category":"263","category_name":"公司","address":"富特中路288"},{"poiid":"B2094654D568ABFE469D","title":"安立工业自动化(上海)有限公司","lon":"121.60885","lat":"31.32276","category":"263","category_name":"公司","address":"富特中路299号46号厂房3层A部"},{"poiid":"B2094750D46BABF44592","title":"樱花园红咖啡馆","lon":"121.614959","lat":"31.329833","category":"500","category_name":"未知分类","address":null},{"poiid":"B2094654D568A1FA4398","title":"外高桥保税区医疗保健中心","lon":"121.6071","lat":"31.31806","category":"162","category_name":"医院","address":"浦东新区台北西路205号"},{"poiid":"B2094654D568ABFE4793","title":"森历大厦","lon":"121.61302","lat":"31.32153","category":"46","category_name":"楼宇","address":"美桂北路317"},{"poiid":"B2094654D568A1FA439C","title":"上海太松复合塑料有限公司","lon":"121.60635","lat":"31.32204","category":"263","category_name":"公司","address":"荷香路283"},{"poiid":"B2094757D66EAAFC459A","title":"泰谷路","lon":"121.604639839","lat":"31.3349115506","category":"500","category_name":"未知分类","address":"上海泰谷路185号"},{"poiid":"B2094654D46AAAFE499A","title":"苹果园(光明路)","lon":"121.61777","lat":"31.3318","category":"112","category_name":"糕饼店","address":"浦东新区高东镇光明路"},{"poiid":"B2094757D16FAAF9479B","title":"福益精密模塑(上海)有限公司","lon":"121.614387339","lat":"31.3264855566","category":"263","category_name":"公司","address":"上海市浦東新區日櫻北路199號51廠房"},{"poiid":"B2094757D06FA2FB4493","title":"日立建机(上海)有限公司","lon":"121.59908733","lat":"31.333731723","category":"263","category_name":"公司","address":"上海市外高桥保税区泰谷路65号"},{"poiid":"B2094757D064A2F44593","title":"杨高北路航津路口","lon":"121.598173","lat":"31.328894","category":"500","category_name":"未知分类","address":"上海杨高北路航津路"},{"poiid":"B2094654DB6BA1F8499C","title":"上海丸仓工贸有限公司(华京路)","lon":"121.60953","lat":"31.32206","category":"263","category_name":"公司","address":"富特中路311"},{"poiid":"B2094750D565A2FF4498","title":"浦东外高桥保税区商检报检大厅","lon":"121.601188","lat":"31.330493","category":"627","category_name":"一般地点标志","address":"富特西一路479号"},{"poiid":"B2094654DB65A3FB4399","title":"美信大厦","lon":"121.60007","lat":"31.3334","category":"46","category_name":"楼宇","address":"泰谷路77"},{"poiid":"B2094654D46AAAF84698","title":"天马大楼","lon":"121.60727","lat":"31.33632","category":"46","category_name":"楼宇","address":"外高桥保税区富特东一路438"},{"poiid":"B2094654D46AAAF8439C","title":"易格斯拖链轴承仓储贸易(上海)有限公司(加太路)","lon":"121.60401","lat":"31.33357","category":"263","category_name":"公司","address":"外高桥保税区加太路28号D12C-64号"},{"poiid":"B2094655D36DA0F8469D","title":"杨高北路航津路","lon":"121.59711","lat":"31.33028","category":"38","category_name":"公交车站","address":""},{"poiid":"B209475DD36EA6FD429D","title":"中国（上海）自贸区","lon":"121.597671","lat":"31.324943","category":"500","category_name":"未知分类","address":"上海市 上海市浦东新区外高桥保税区"},{"poiid":"B2094757D16CA6F54498","title":"益海嘉里","lon":"121.617182","lat":"31.331052","category":"500","category_name":"未知分类","address":"上海高东路118号"},{"poiid":"B2094654D46AAAF94498","title":"丰谷大厦","lon":"121.60012","lat":"31.3339","category":"46","category_name":"楼宇","address":"泰谷路88"},{"poiid":"B2094757D16BA3FD449F","title":"高田汽车电子公司","lon":"121.599168306","lat":"31.3257952073","category":"500","category_name":"未知分类","address":"上海外高桥保税区韩城路17号71号厂房A座"},{"poiid":"B2094757D06BA5FD4192","title":"博士蛙(荣臣特卖店)","lon":"121.59944","lat":"31.33314","category":"500","category_name":"未知分类","address":"浦东新区外高桥保税区泰谷路78号荣臣大厦1楼(近3号门)"},{"poiid":"B2094654D46AAAF9419C","title":"凯邦大楼","lon":"121.60118","lat":"31.33602","category":"46","category_name":"楼宇","address":"上海市浦东外高桥保税区富特北路353号"},{"poiid":"B2094655D265A5FC499D","title":"珍鼎餐饮","lon":"121.601876054","lat":"31.335308793","category":"68","category_name":"快餐厅","address":"浦东新区富特北路458号2楼(近美盛路)"},{"poiid":"B2094654D46AAAFF469E","title":"上海外高桥汽车维修服务有限公司","lon":"121.60878","lat":"31.33485","category":"159","category_name":"汽车维修","address":"富特东一路496"},{"poiid":"B2094654D568ABFE499A","title":"ebmpapst","lon":"121.61508","lat":"31.3244","category":"263","category_name":"公司","address":"华京路418"},{"poiid":"B2094655D26CA7FE4793","title":"上海保税商品交易市场第三市场","lon":"121.60557","lat":"31.31811","category":"119","category_name":"商场","address":"圆桶体"},{"poiid":"B2094757D16EA7FD409C","title":"穆格控制系统","lon":"121.606028","lat":"31.321036","category":"263","category_name":"公司","address":"上海外高桥保税区意威路96号-68号厂房"},{"poiid":"B2094654DB6BA2F5499E","title":"阿尔卑斯(中国)有限公司","lon":"121.60623","lat":"31.32096","category":"263","category_name":"公司","address":"华京路8号三联大厦305室"},{"poiid":"B2094654DB6BA1FC4998","title":"欣连佳苑","lon":"121.61835","lat":"31.330544","category":"47","category_name":"住宅区","address":"光泽路429弄1-49号"},{"poiid":"B2094757D164AAF84399","title":"UDK咖啡餐饮","lon":"121.61082","lat":"31.32223","category":"260","category_name":"其他","address":"浦东新区华京路8号"},{"poiid":"B2094654D46AAAF8479D","title":"裕安英展国际贸易大楼","lon":"121.60664","lat":"31.33721","category":"46","category_name":"楼宇","address":"富特东一路418号"},{"poiid":"B2094655D26DA5FF449C","title":"天天水煮鱼","lon":"121.615990054","lat":"31.332773793","category":"257","category_name":"中餐厅","address":"浦东新区高东镇光明路415弄24号(近外环线)"},{"poiid":"B2094654D568ABFE479E","title":"沙伯基础创新塑料(上海)有限公司","lon":"121.6111","lat":"31.32013","category":"263","category_name":"公司","address":"爱都路56-58"},{"poiid":"B2094654D46AAAF9479B","title":"中国国际商品中心(3号门)","lon":"121.59947","lat":"31.3349","category":"49","category_name":"无中心点楼宇大门","address":"富特北路460"},{"poiid":"B2094655D26AA0FA449E","title":"地铁航津路站","lon":"121.59538","lat":"31.33302","category":"36","category_name":"地铁站","address":""},{"poiid":"B2094757D16FABF54893","title":"泰谷路机房","lon":"121.60007","lat":"31.333398","category":"500","category_name":"未知分类","address":"上海泰谷路77号"},{"poiid":"B2094654D46AAAF9419A","title":"国联工业大厦","lon":"121.60023","lat":"31.33754","category":"46","category_name":"楼宇","address":"上海市浦东新区外高桥保税区美盛路168号"},{"poiid":"B2094654DB6AA5F4419C","title":"联华(光明路)","lon":"121.61692","lat":"31.33247","category":"117","category_name":"便民商店/便利店","address":"光明路258"},{"poiid":"B2094757D16AA2FE4498","title":"麦当劳得来速","lon":"121.606623339","lat":"31.3173793469","category":"247","category_name":"餐饮美食","address":"上海市浦东新区杨高北路"},{"poiid":"B2094654D46AAAF94293","title":"上海外联发D8工业园区(泰谷路)","lon":"121.59833","lat":"31.33338","category":"45","category_name":"产业园区","address":"泰谷路48号D8C-67号"},{"poiid":"B2094654D46AAAF84492","title":"奥林巴斯贸易(上海)有限公司","lon":"121.60472","lat":"31.33522","category":"263","category_name":"公司","address":"泰谷路185号D12-15号仓库2层E部位"},{"poiid":"B2094750DA6CA7FA449F","title":"高行绿洲五期","lon":"121.596008","lat":"31.325302","category":"47","category_name":"住宅区","address":null},{"poiid":"B2094757D169A7FC4292","title":"上海市外高桥国际贸易营运中心有限公司","lon":"121.606174339","lat":"31.3182633673","category":"500","category_name":"未知分类","address":"上海市外高桥保税区台北西路168号"},{"poiid":"B2094757D168A5FA4392","title":"TUV南德意志集团","lon":"121.61071833","lat":"31.320343415","category":"500","category_name":"未知分类","address":"上海富特东三路76号"},{"poiid":"B2094654D568A1F94799","title":"Arima Devices Corporation","lon":"121.60904","lat":"31.31966","category":"263","category_name":"公司","address":"爱都路18"},{"poiid":"B2094757D169A6F54992","title":"联办楼","lon":"121.595998","lat":"31.327606","category":"247","category_name":"餐饮美食","address":"上海杨高北路90号"},{"poiid":"B2094654D46AAAFF4193","title":"光明综合商店(光明路)","lon":"121.61746","lat":"31.33235","category":"117","category_name":"便民商店/便利店","address":""},{"poiid":"B2094654D46AAAF9449E","title":"友池电子(上海)有限公司","lon":"121.60076","lat":"31.33356","category":"263","category_name":"公司","address":"外高桥保税区泰谷路85号"},{"poiid":"B2094654D568A1FA439B","title":"上海证券交易所卫星通信地球站","lon":"121.60694","lat":"31.31989","category":"219","category_name":"其他","address":"台中北路8"},{"poiid":"B2094654D46AAAFF419E","title":"小周水果店(光明路)","lon":"121.61765","lat":"31.33222","category":"117","category_name":"便民商店/便利店","address":""},{"poiid":"B2094654D46AAAF84498","title":"马瑞利动力系统(上海)有限公司","lon":"121.60348","lat":"31.33534","category":"263","category_name":"公司","address":"泰谷路168"},{"poiid":"B2094654D46AAAF84792","title":"汇豪大厦","lon":"121.60578","lat":"31.33804","category":"46","category_name":"楼宇","address":"外高桥保税区富特东一路410号"},{"poiid":"B2094655D26DA6FA409F","title":"中国国际商品中心(5号门)","lon":"121.59831","lat":"31.33434","category":"49","category_name":"无中心点楼宇大门","address":"富特西一路477"},{"poiid":"B2094757D16AA2F44499","title":"泰科電子China DC","lon":"121.599984339","lat":"31.333711723","category":"249","category_name":"购物服务","address":"上海WGQ FTZ 泰谷路 82號"},{"poiid":"B2094750D26BA4FA4093","title":"高行绿洲二期","lon":"121.594596","lat":"31.330522","category":"47","category_name":"住宅区","address":"秋岚路251弄"},{"poiid":"B2094757D66DA6F5489B","title":"现代制药","lon":"121.61543933","lat":"31.332568696","category":"263","category_name":"公司","address":"上海浦东新区建陆路378号"},{"poiid":"B2094757D56EA5F54493","title":"外高桥保税区南站1号出口(地铁6号线)","lon":"121.602434","lat":"31.321348","category":"251","category_name":"出行住宿","address":"中国上海市浦东新区杨高北路"},{"poiid":"B2094654D568ABFE4799","title":"迈图有机硅材料(上海)有限公司","lon":"121.6111","lat":"31.32012","category":"263","category_name":"公司","address":"爱都路56-58"},{"poiid":"B2094757D66CA7FE4799","title":"杨俊美容美发","lon":"121.61755","lat":"31.33095","category":"148","category_name":"美容美发店","address":"浦东新区高东新路109号"},{"poiid":"B2094654D46AAAF9449B","title":"上海丰谷实业有限公司","lon":"121.60012","lat":"31.3339","category":"263","category_name":"公司","address":"泰谷路88号丰谷大厦"},{"poiid":"B2094654D46AAAFE489B","title":"高东菜市场","lon":"121.61823","lat":"31.33182","category":"117","category_name":"便民商店/便利店","address":""},{"poiid":"B2094654D46AAAF94398","title":"荣臣博士蛙集团","lon":"121.59893","lat":"31.33349","category":"263","category_name":"公司","address":"浦东新区泰谷路78号(近地铁6号线航津路站)"},{"poiid":"B2094654D46AAAF94799","title":"国际机床展厅","lon":"121.59799","lat":"31.33471","category":"183","category_name":"展览馆","address":"富特西一路475号中国国际商品中心4号门"},{"poiid":"B2094757D66CA4FB4492","title":"阿牛嫂桂林米粉(光明路店)","lon":"121.61862","lat":"31.33148","category":"247","category_name":"餐饮美食","address":"上海浦东新区光明路415弄28号(近高东新路)  "},{"poiid":"B2094655D26FA1FE4198","title":"朋缘阁","lon":"121.61926","lat":"31.33093","category":"257","category_name":"中餐厅","address":"高东镇光明路419-421"},{"poiid":"B2094654D46AAAF94399","title":"泰科电子(上海)有限公司","lon":"121.59955","lat":"31.33381","category":"263","category_name":"公司","address":"泰谷路82号D8C-65号"},{"poiid":"B2094654D46AAAFA4098","title":"华泉综合楼","lon":"121.59911","lat":"31.33632","category":"46","category_name":"楼宇","address":"美盛路111号"},{"poiid":"B2094654D568ABFE499E","title":"ET·N","lon":"121.61666","lat":"31.32254","category":"263","category_name":"公司","address":"爱都路388"},{"poiid":"B2094654DB6BA2F5469E","title":"快客","lon":"121.60878","lat":"31.31714","category":"117","category_name":"便民商店/便利店","address":""},{"poiid":"B2094654D568A1FD459A","title":"中国光大银行外高桥支行","lon":"121.60594","lat":"31.3184","category":"150","category_name":"银行","address":"高东镇"},{"poiid":"B2094655D26FA2F94899","title":"上海信息管理专修学院浦东分院","lon":"121.61991","lat":"31.32966","category":"52","category_name":"高等院校","address":"浦东新区光明路476号"},{"poiid":"B2094757D66EA2FC479E","title":"证券技术大厦","lon":"121.60474463","lat":"31.318012761","category":"252","category_name":"楼宇机构","address":"上海华京路1号"},{"poiid":"B2094655D268A7FF4898","title":"外高桥保税区公安处交通警察大队交通事故处理受理点","lon":"121.61124","lat":"31.31792","category":"250","category_name":"公园户外","address":""},{"poiid":"B2094654D46AAAF9499C","title":"上海外联发D8工业园区(美盛路)","lon":"121.59815","lat":"31.33578","category":"45","category_name":"产业园区","address":"美盛路61-63号"},{"poiid":"B2094655D26FA6FB469D","title":"中航材大厦","lon":"121.59719","lat":"31.33545","category":"46","category_name":"楼宇","address":"美盛路55"},{"poiid":"B2094757D16CABFB419A","title":"高桥草莓基地","lon":"121.61722","lat":"31.33006","category":"260","category_name":"其他","address":"浦东新区外高桥高东镇龙跃路38号(高东新路光泽路)"},{"poiid":"B2094757D16BA4FF479A","title":"高东公寓","lon":"121.618704","lat":"31.3332875","category":"252","category_name":"楼宇机构","address":"上海浦东新区 高东新路 500弄"},{"poiid":"B2094757D16CA4F9429D","title":"Delphi 德尔福(上海)动力推进系统有限公司","lon":"121.616195","lat":"31.319679","category":"500","category_name":"未知分类","address":"上海浦东新区外高桥保税区五号门希雅路150号"},{"poiid":"B2094654D568A1F9479E","title":"小原(上海)有限公司","lon":"121.6096","lat":"31.31863","category":"263","category_name":"公司","address":"爱都路17"},{"poiid":"B2094757D568AAF44293","title":"申客超市","lon":"121.61916802","lat":"31.33113091","category":"117","category_name":"便民商店/便利店","address":"高东镇光明路415弄17"},{"poiid":"B2094654D568A1FD459D","title":"三凯进出口有限公司","lon":"121.60623","lat":"31.31796","category":"263","category_name":"公司","address":"台北西路168"},{"poiid":"B2094654DB64A5FF479F","title":"上海三通报关行(凯邦大楼)","lon":"121.60118","lat":"31.33602","category":"263","category_name":"公司","address":"外高桥保税区富特北路353号凯邦大楼3层"},{"poiid":"B2094655D36CA7FC499E","title":"华京路","lon":"121.61039","lat":"31.31657","category":"38","category_name":"公交车站","address":""},{"poiid":"B2094757D068A2F4429B","title":"全家便利(台南西路店)","lon":"121.60774231","lat":"31.3144874573","category":"117","category_name":"便民商店/便利店","address":"上海台南西路47号(台南西路台中南路)"},{"poiid":"B2094654D46AAAF84393","title":"华源国际大厦","lon":"121.61","lat":"31.3405","category":"46","category_name":"楼宇","address":"泰谷路169号"},{"poiid":"B2094655D26EA7FE459C","title":"上海外高桥保税区开发股份有限公司","lon":"121.5994","lat":"31.3353","category":"263","category_name":"公司","address":"富特北路458号中国国际商品中心2号门"},{"poiid":"B2094757D16DA1F9419E","title":"上海外高桥国际物流有限公司","lon":"121.605784","lat":"31.317842","category":"263","category_name":"公司","address":"上海外高桥5号门台北西路218号"},{"poiid":"B2094750D664A3FB4993","title":"U'FOOD","lon":"121.608","lat":"31.3145","category":"68","category_name":"快餐厅","address":"浦东新区台南西路47号北楼103室(近雅点舫)"},{"poiid":"B2094654D568ABFE479F","title":"上海日矿金属有限公司","lon":"121.61331","lat":"31.3194","category":"263","category_name":"公司","address":"美桂北路378"},{"poiid":"B2094757D06AAAFC409D","title":"工行新灵路支行","lon":"121.609965","lat":"31.317181","category":"150","category_name":"银行","address":"上海新灵路"},{"poiid":"B2094655D26BA1FA409E","title":"美桂北路","lon":"121.61455","lat":"31.31765","category":"38","category_name":"公交车站","address":""},{"poiid":"B2094757D16DAAFA499A","title":"上海出入境检验检疫局外高桥保税区办事处","lon":"121.605287","lat":"31.317298","category":"500","category_name":"未知分类","address":"上海市浦东新区杨高北路2001号"},{"poiid":"B2094654D568ABF8409E","title":"保税区小吃广场","lon":"121.60506","lat":"31.31504","category":"68","category_name":"快餐厅","address":""},{"poiid":"B2094654D568A1FD459C","title":"外高桥国际物流","lon":"121.60624","lat":"31.31796","category":"248","category_name":"生活娱乐","address":"台北西路168"},{"poiid":"B2094757D16FA5FC4699","title":"小原(上海)有限公司","lon":"121.601148339","lat":"31.3192541594","category":"263","category_name":"公司","address":"上海浦东新区外高桥保税区爱都路17号"},{"poiid":"B2094654D568A1FE469E","title":"中国工商银行新灵路支行","lon":"121.61007","lat":"31.31731","category":"150","category_name":"银行","address":"浦东新区新灵路118号(近台北路)"},{"poiid":"B2094757D164A6F44692","title":"奚家大宅","lon":"121.594760339","lat":"31.3260525466","category":"500","category_name":"未知分类","address":null},{"poiid":"B2094654D46BA3F4419E","title":"上海浦东竹园工业中心","lon":"121.6119","lat":"31.34057","category":"45","category_name":"产业园区","address":""},{"poiid":"B2094654DB6AA5F44392","title":"上海外高桥英得网络信息有限公司(西域大厦东南)","lon":"121.5969","lat":"31.33425","category":"263","category_name":"公司","address":"富特西一路473号中国国际商品中心6号门"},{"poiid":"B2094757D168A0F8419A","title":"杨高北路凌河路路口","lon":"121.595589","lat":"31.332512","category":"500","category_name":"未知分类","address":"上海浦东新区杨高北路凌河路路口"},{"poiid":"B2094654D568ABFE4999","title":"enplas hy-cad","lon":"121.61824","lat":"31.3225","category":"263","category_name":"公司","address":"爱都路253号"},{"poiid":"B2094757D065A0F5409E","title":"华夏银行上海外高桥支行","lon":"121.60650162","lat":"31.31668225","category":"500","category_name":"未知分类","address":"上海市外高桥保税区台中南路2号"},{"poiid":"B2094757D06AAAFB4892","title":"上海浦东发展银行(加枫路外高桥保税区支行)","lon":"121.60536193","lat":"31.315715789","category":"500","category_name":"未知分类","address":"上海浦东新区加枫路18号"},{"poiid":"B2094654D568A1F8439C","title":"上海世茂国际贸易有限公司","lon":"121.61006","lat":"31.31731","category":"263","category_name":"公司","address":"新灵路118号国际商贸大厦1016"},{"poiid":"B2094654D568A1FE4793","title":"上海万历报关有限公司","lon":"121.61006","lat":"31.31732","category":"263","category_name":"公司","address":"新灵路118号国际商贸大厦207、1912"},{"poiid":"B2094757D164A4FB499C","title":"天合汽车部件技术服务(上海)有限公司","lon":"121.61749733","lat":"31.320676422","category":"500","category_name":"未知分类","address":"上海外高桥日樱北路353号11号楼C座"},{"poiid":"B2094654D46AAAF84892","title":"上海外联发D11工业园区","lon":"121.60328","lat":"31.33833","category":"263","category_name":"公司","address":"外高桥保税区美盛路225-227号"},{"poiid":"B2094654D568ABFF409C","title":"阿尔卑斯物流(上海)有限公司","lon":"121.61549","lat":"31.31755","category":"248","category_name":"生活娱乐","address":"新灵路258"},{"poiid":"B2094654D568AAFB489D","title":"德尔福上海动力推进系统有限公司","lon":"121.61619","lat":"31.31967","category":"263","category_name":"公司","address":"希雅路150号"},{"poiid":"B2094757D66FA0FB419D","title":"惠普信息技术有限公司","lon":"121.606807","lat":"31.316097","category":"263","category_name":"公司","address":"上海加枫路20号"},{"poiid":"B2094654D46AAAF9409C","title":"精工电子技术(上海)有限公司","lon":"121.60022","lat":"31.33754","category":"263","category_name":"公司","address":"美盛路168号国联工业大厦3层东楼"},{"poiid":"B2094654D568ABF84099","title":"IBM","lon":"121.6061","lat":"31.31445","category":"263","category_name":"公司","address":"加枫路9"},{"poiid":"B2094654D46BA3F4409E","title":"上海隧道股份机械制造分公司","lon":"121.61836","lat":"31.33574","category":"263","category_name":"公司","address":"海徐路957"},{"poiid":"B2094757D16CABFD4092","title":"锁妖塔","lon":"121.60697633","lat":"31.314691285","category":"500","category_name":"未知分类","address":"上海蜀山"},{"poiid":"B2094654D46AAAF9489C","title":"外高桥医药分销中心","lon":"121.59657","lat":"31.33608","category":"263","category_name":"公司","address":"富特西一路439"}]