[{"poiid":"B2094757D06FA1F54092","title":"复旦大学上海视觉艺术学院(松江文翔路校区)","lon":"121.20691781406879","lat":"31.0461274825704","category":"52","category_name":"高等院校","address":"上海松江区文翔路2200号"},{"poiid":"B2094757D06FA0F4479A","title":"松江大学城三期寝室","lon":"121.20460969","lat":"31.050815503","category":"253","category_name":"校园生活","address":"上海文汇路800弄"},{"poiid":"B2094757D06EAAFF439A","title":"松江大学城四期学生公寓","lon":"121.199562277","lat":"31.0495922066","category":"253","category_name":"校园生活","address":"上海松江区松江大学城文汇路1000弄"},{"poiid":"B2094757D06BABFC489B","title":"松江大学城三期","lon":"121.203803149","lat":"31.0493673889","category":"252","category_name":"楼宇机构","address":"上海文汇路800弄"},{"poiid":"B2094757D06FA3FB4499","title":"王小姐的店","lon":"121.20830277","lat":"31.049656643","category":"260","category_name":"其他","address":"松江区松江大学城一期文汇路652弄203室(近龙腾路)"},{"poiid":"B2094757D06FA3FE439F","title":"松江大学城一期学生公寓","lon":"121.208628196","lat":"31.0513171146","category":"253","category_name":"校园生活","address":"松江区文汇路600号(上海对外贸易学院对面)"},{"poiid":"B2094757D068A4F84199","title":"文汇路","lon":"121.202765","lat":"31.049669","category":"260","category_name":"其他","address":"上海市松江区文汇路"},{"poiid":"B2094757D068A7F4459C","title":"RouRou Coffee","lon":"121.208647","lat":"31.049337","category":"260","category_name":"其他","address":"松江区文汇路652弄201室(近龙腾路)"},{"poiid":"B2094757D66EA7F8429C","title":"阁楼上的猫","lon":"121.205550196","lat":"31.0499700858","category":"260","category_name":"其他","address":"松江区文汇路樱花广场3楼"},{"poiid":"B2094757D06FA0F9449C","title":"肯德基 KFC (大学城店)","lon":"121.20284","lat":"31.049604","category":"68","category_name":"快餐厅","address":"松江区文汇路818号(近龙源路)"},{"poiid":"B2094757D068A0F4419D","title":"甜满多","lon":"121.199608396","lat":"31.0500254036","category":"113","category_name":"冷饮店","address":"松江区大学城4期文汇路988弄(尚网旁)"},{"poiid":"B2094757D068A7F5409F","title":"复旦大学上海视觉艺术学院实训楼","lon":"121.20693206","lat":"31.049365997","category":"500","category_name":"未知分类","address":"上海松江区文翔路2200号"},{"poiid":"B2094757D064AAFB429E","title":"华东政法大学明珠楼","lon":"121.2053139","lat":"31.050214021","category":"181","category_name":"图书馆","address":"上海华东政法大学"},{"poiid":"B2094750D56FA3F4459D","title":"花神咖啡馆","lon":"121.203689","lat":"31.049484","category":"260","category_name":"其他","address":"松江区文汇路770号201室(近龙源路)"},{"poiid":"B2094757D068A7FD4098","title":"复旦大学上海视觉艺术学院逸飞楼","lon":"121.207051","lat":"31.046188","category":"253","category_name":"校园生活","address":"上海松江區文翔路2200號"},{"poiid":"B2094757D068A0FC459A","title":"宝寿司(松江大学城店)","lon":"121.20033521","lat":"31.049643199","category":"95","category_name":"日本料理","address":"松江区文汇路928弄102室(龙源路口)"},{"poiid":"B2094655D264A4FC499B","title":"松江大学城800弄","lon":"121.20311","lat":"31.0494","category":"52","category_name":"高等院校","address":"文汇路800弄"},{"poiid":"B2094757D068A6FF459B","title":"樱花广场","lon":"121.209078","lat":"31.049391","category":"119","category_name":"商场","address":"松江区松江大学城文汇路718号(近1期)"},{"poiid":"B2094654DB64A0FC4192","title":"翔仔好味馆","lon":"121.20716","lat":"31.0496","category":"68","category_name":"快餐厅","address":"松江区文汇路686号(近MZONE)"},{"poiid":"B2094757D068A1F54992","title":"Coffee Track(咖啡轨迹)","lon":"121.20586115","lat":"31.0495663827","category":"65","category_name":"咖啡厅","address":"松江区文汇路166弄30号(近上外)"},{"poiid":"B2094757D068A7FF419D","title":"川菜映象(三期店)","lon":"121.20335","lat":"31.04952","category":"71","category_name":"四川菜","address":"上海近郊松江区大学城文汇路838弄101号(近东北一家人店)"},{"poiid":"B2094757D068ABF8429C","title":"COFFEE PLEASE_211","lon":"121.2081509","lat":"31.0494087","category":"65","category_name":"咖啡厅","address":"松江区文汇路652弄211号(近昂立教育)"},{"poiid":"B2094757D069A2FB4992","title":"紫东新苑","lon":"121.20824","lat":"31.043177","category":"47","category_name":"住宅区","address":"中艺花园位于宝山海江路9号"},{"poiid":"B2094751D46BA3F9459A","title":"上海对外经贸大学","lon":"121.2055277","lat":"31.0499415","category":"671","category_name":"高校中心点","address":null},{"poiid":"B2094757D064A5FA469A","title":"上海工程技术大学松江食堂","lon":"121.20362","lat":"31.04913","category":"68","category_name":"快餐厅","address":"松江区松江龙腾路333号上海工程技术大学"},{"poiid":"B2094757D16BA6F9429F","title":"工程大艺术楼","lon":"121.205250196","lat":"31.0538731693","category":"500","category_name":"未知分类","address":"上海市松江区龙源路"},{"poiid":"B2094757D56DA5F84792","title":"MINGS","lon":"121.207947","lat":"31.049933","category":"260","category_name":"其他","address":"松江区文汇路656弄104号(近罗森超市)"},{"poiid":"B2094750D26EA4FE4392","title":"德克士 文汇路店","lon":"121.205041","lat":"31.049611","category":"68","category_name":"快餐厅","address":"松江区文汇路746号大学城三期(工商银行)"},{"poiid":"B2094757D065A5FB459F","title":"华政图书馆综合阅览室","lon":"121.20442739","lat":"31.049050175","category":"181","category_name":"图书馆","address":"上海市松江区龙源路555号"},{"poiid":"B2094750DB65A6FD439E","title":"Mini Park","lon":"121.208183","lat":"31.049587","category":"67","category_name":"甜品店","address":"松江区文汇路652弄207号(近龙腾路)"},{"poiid":"B2094750DB6EA5FC409E","title":"ENOVOS意諾咖啡","lon":"121.203788","lat":"31.04951","category":"247","category_name":"餐饮美食","address":"松江区松江大学城三期文汇路D6桌球楼上(近复旦视觉艺术学院)"},{"poiid":"B2094757D569A1FE489C","title":"复旦上海视觉艺术学院图文楼","lon":"121.2069161","lat":"31.04613306","category":"52","category_name":"高等院校","address":"文翔路2200号"},{"poiid":"B2094654DB65A7F44392","title":"阿康烧烤 松江大学城店","lon":"121.20487","lat":"31.04963","category":"269","category_name":"烧烤","address":"松江区松江大学文汇路746号2楼"},{"poiid":"B2094757D065AAF4409F","title":"重庆鸡公煲(松江大学城3期店)","lon":"121.20435419","lat":"31.049587077","category":"86","category_name":"火锅店","address":"上海近郊松江区大学城三期文汇路746号"},{"poiid":"B2094757D065A5FE409D","title":"上海工程技术大学志宏堂","lon":"121.2001337","lat":"31.051795228","category":"253","category_name":"校园生活","address":"上海工程技术大学图书馆"},{"poiid":"B2094757D16DA5FA469F","title":"复旦视觉一号楼","lon":"121.20268019","lat":"31.04832005","category":"500","category_name":"未知分类","address":"上海松江区文汇路"},{"poiid":"B2094757D16FABFF449A","title":"simply時尚吧檯小火鍋","lon":"121.200606796","lat":"31.0481068459","category":"86","category_name":"火锅店","address":"松江区文汇路818号2楼(近龙源路)"},{"poiid":"B2094757D168A2F5439B","title":"Wayhome书房","lon":"121.20845819","lat":"31.049754081","category":"249","category_name":"购物服务","address":null},{"poiid":"B2094757D66DA6FB469F","title":"川来川去时尚川菜","lon":"121.206438","lat":"31.049597","category":"71","category_name":"四川菜","address":"松江区文汇路704号大学城一期宿舍口(近樱花广场)"},{"poiid":"B2094757D06BA5FD409A","title":"东北一家人","lon":"121.20223","lat":"31.04942","category":"82","category_name":"东北菜","address":"松江区文汇路818号2楼(近三期公寓)"},{"poiid":"B2094757D168A5FF489F","title":"欣尚桂林米粉(松江店)","lon":"121.20478","lat":"31.04953","category":"68","category_name":"快餐厅","address":"松江区大学城文汇路719弄樱花广场内(龙源路龙腾路间)"},{"poiid":"B2094750D26AA5F8449B","title":"85度C 文汇路店","lon":"121.203314","lat":"31.049897","category":"67","category_name":"甜品店","address":"松江区文汇路818号丰翔小吃广场1楼(近龙源路)"},{"poiid":"B2094655D268A6FA499D","title":"澳门莉莲蛋挞(上海视觉艺术学院西北)","lon":"121.20265","lat":"31.04959","category":"67","category_name":"甜品店","address":"松江区文汇路818号(近龙源路)"},{"poiid":"B2094757D66CABFA4099","title":"0068香辣主题餐厅","lon":"121.206711596","lat":"31.0496125781","category":"71","category_name":"四川菜","address":"松江区文汇路樱花广场702号(近视觉艺术学院)"},{"poiid":"B2094750DB64A7FD459E","title":"minipark","lon":"121.208465","lat":"31.049436","category":"65","category_name":"咖啡厅","address":"上海市松江区文汇路652弄207号"},{"poiid":"B2094757D568A0FF409A","title":"复旦上海视觉艺术学院行政楼","lon":"121.2069161","lat":"31.04613306","category":"52","category_name":"高等院校","address":"文翔路2200号"},{"poiid":"B2094655D26FAAFE449C","title":"上海视觉艺术学院(北门)","lon":"121.20679","lat":"31.04924","category":"52","category_name":"高等院校","address":""},{"poiid":"B2094751D36CA2FD429B","title":"芋贵人甜品店(松江大学城店)","lon":"121.20163","lat":"31.0494","category":"67","category_name":"甜品店","address":"松江区文汇路876弄17号(近龙源路)"},{"poiid":"B2094757DB6FA1FB499D","title":"G ＋沙龙","lon":"121.204369","lat":"31.048014","category":"248","category_name":"生活娱乐","address":"松江区龙腾路58弄30号近文汇路"},{"poiid":"B2094757D569A1F9449C","title":"松江大学城800弄18号楼","lon":"121.2031056","lat":"31.04940333","category":"52","category_name":"高等院校","address":"文汇路800弄"},{"poiid":"B2094757D06FA1F54092","title":"复旦大学上海视觉艺术学院(松江文翔路校区)","lon":"121.20691781406879","lat":"31.0461274825704","category":"52","category_name":"高等院校","address":"上海松江区文翔路2200号"},{"poiid":"B2094757D06FA0F4479A","title":"松江大学城三期寝室","lon":"121.20460969","lat":"31.050815503","category":"253","category_name":"校园生活","address":"上海文汇路800弄"},{"poiid":"B2094757D06EAAFF439A","title":"松江大学城四期学生公寓","lon":"121.199562277","lat":"31.0495922066","category":"253","category_name":"校园生活","address":"上海松江区松江大学城文汇路1000弄"},{"poiid":"B2094757D06BABFC489B","title":"松江大学城三期","lon":"121.203803149","lat":"31.0493673889","category":"252","category_name":"楼宇机构","address":"上海文汇路800弄"},{"poiid":"B2094757D06FA3FB4499","title":"王小姐的店","lon":"121.20830277","lat":"31.049656643","category":"260","category_name":"其他","address":"松江区松江大学城一期文汇路652弄203室(近龙腾路)"},{"poiid":"B2094757D06FA3FE439F","title":"松江大学城一期学生公寓","lon":"121.208628196","lat":"31.0513171146","category":"253","category_name":"校园生活","address":"松江区文汇路600号(上海对外贸易学院对面)"},{"poiid":"B2094757D068A4F84199","title":"文汇路","lon":"121.202765","lat":"31.049669","category":"260","category_name":"其他","address":"上海市松江区文汇路"},{"poiid":"B2094757D068A7F4459C","title":"RouRou Coffee","lon":"121.208647","lat":"31.049337","category":"260","category_name":"其他","address":"松江区文汇路652弄201室(近龙腾路)"},{"poiid":"B2094757D66EA7F8429C","title":"阁楼上的猫","lon":"121.205550196","lat":"31.0499700858","category":"260","category_name":"其他","address":"松江区文汇路樱花广场3楼"},{"poiid":"B2094757D06FA0F9449C","title":"肯德基 KFC (大学城店)","lon":"121.20284","lat":"31.049604","category":"68","category_name":"快餐厅","address":"松江区文汇路818号(近龙源路)"},{"poiid":"B2094757D068A0F4419D","title":"甜满多","lon":"121.199608396","lat":"31.0500254036","category":"113","category_name":"冷饮店","address":"松江区大学城4期文汇路988弄(尚网旁)"},{"poiid":"B2094757D068A7F5409F","title":"复旦大学上海视觉艺术学院实训楼","lon":"121.20693206","lat":"31.049365997","category":"500","category_name":"未知分类","address":"上海松江区文翔路2200号"},{"poiid":"B2094757D064AAFB429E","title":"华东政法大学明珠楼","lon":"121.2053139","lat":"31.050214021","category":"181","category_name":"图书馆","address":"上海华东政法大学"},{"poiid":"B2094750D56FA3F4459D","title":"花神咖啡馆","lon":"121.203689","lat":"31.049484","category":"260","category_name":"其他","address":"松江区文汇路770号201室(近龙源路)"},{"poiid":"B2094757D068A7FD4098","title":"复旦大学上海视觉艺术学院逸飞楼","lon":"121.207051","lat":"31.046188","category":"253","category_name":"校园生活","address":"上海松江區文翔路2200號"},{"poiid":"B2094757D068A0FC459A","title":"宝寿司(松江大学城店)","lon":"121.20033521","lat":"31.049643199","category":"95","category_name":"日本料理","address":"松江区文汇路928弄102室(龙源路口)"},{"poiid":"B2094655D264A4FC499B","title":"松江大学城800弄","lon":"121.20311","lat":"31.0494","category":"52","category_name":"高等院校","address":"文汇路800弄"},{"poiid":"B2094757D068A6FF459B","title":"樱花广场","lon":"121.209078","lat":"31.049391","category":"119","category_name":"商场","address":"松江区松江大学城文汇路718号(近1期)"},{"poiid":"B2094654DB64A0FC4192","title":"翔仔好味馆","lon":"121.20716","lat":"31.0496","category":"68","category_name":"快餐厅","address":"松江区文汇路686号(近MZONE)"},{"poiid":"B2094757D068A1F54992","title":"Coffee Track(咖啡轨迹)","lon":"121.20586115","lat":"31.0495663827","category":"65","category_name":"咖啡厅","address":"松江区文汇路166弄30号(近上外)"},{"poiid":"B2094757D068A7FF419D","title":"川菜映象(三期店)","lon":"121.20335","lat":"31.04952","category":"71","category_name":"四川菜","address":"上海近郊松江区大学城文汇路838弄101号(近东北一家人店)"},{"poiid":"B2094757D068ABF8429C","title":"COFFEE PLEASE_211","lon":"121.2081509","lat":"31.0494087","category":"65","category_name":"咖啡厅","address":"松江区文汇路652弄211号(近昂立教育)"},{"poiid":"B2094757D069A2FB4992","title":"紫东新苑","lon":"121.20824","lat":"31.043177","category":"47","category_name":"住宅区","address":"中艺花园位于宝山海江路9号"},{"poiid":"B2094751D46BA3F9459A","title":"上海对外经贸大学","lon":"121.2055277","lat":"31.0499415","category":"671","category_name":"高校中心点","address":null},{"poiid":"B2094757D064A5FA469A","title":"上海工程技术大学松江食堂","lon":"121.20362","lat":"31.04913","category":"68","category_name":"快餐厅","address":"松江区松江龙腾路333号上海工程技术大学"},{"poiid":"B2094757D16BA6F9429F","title":"工程大艺术楼","lon":"121.205250196","lat":"31.0538731693","category":"500","category_name":"未知分类","address":"上海市松江区龙源路"},{"poiid":"B2094757D56DA5F84792","title":"MINGS","lon":"121.207947","lat":"31.049933","category":"260","category_name":"其他","address":"松江区文汇路656弄104号(近罗森超市)"},{"poiid":"B2094750D26EA4FE4392","title":"德克士 文汇路店","lon":"121.205041","lat":"31.049611","category":"68","category_name":"快餐厅","address":"松江区文汇路746号大学城三期(工商银行)"},{"poiid":"B2094757D065A5FB459F","title":"华政图书馆综合阅览室","lon":"121.20442739","lat":"31.049050175","category":"181","category_name":"图书馆","address":"上海市松江区龙源路555号"},{"poiid":"B2094750DB65A6FD439E","title":"Mini Park","lon":"121.208183","lat":"31.049587","category":"67","category_name":"甜品店","address":"松江区文汇路652弄207号(近龙腾路)"},{"poiid":"B2094750DB6EA5FC409E","title":"ENOVOS意諾咖啡","lon":"121.203788","lat":"31.04951","category":"247","category_name":"餐饮美食","address":"松江区松江大学城三期文汇路D6桌球楼上(近复旦视觉艺术学院)"},{"poiid":"B2094757D569A1FE489C","title":"复旦上海视觉艺术学院图文楼","lon":"121.2069161","lat":"31.04613306","category":"52","category_name":"高等院校","address":"文翔路2200号"},{"poiid":"B2094654DB65A7F44392","title":"阿康烧烤 松江大学城店","lon":"121.20487","lat":"31.04963","category":"269","category_name":"烧烤","address":"松江区松江大学文汇路746号2楼"},{"poiid":"B2094757D065AAF4409F","title":"重庆鸡公煲(松江大学城3期店)","lon":"121.20435419","lat":"31.049587077","category":"86","category_name":"火锅店","address":"上海近郊松江区大学城三期文汇路746号"},{"poiid":"B2094757D065A5FE409D","title":"上海工程技术大学志宏堂","lon":"121.2001337","lat":"31.051795228","category":"253","category_name":"校园生活","address":"上海工程技术大学图书馆"},{"poiid":"B2094757D16DA5FA469F","title":"复旦视觉一号楼","lon":"121.20268019","lat":"31.04832005","category":"500","category_name":"未知分类","address":"上海松江区文汇路"},{"poiid":"B2094757D16FABFF449A","title":"simply時尚吧檯小火鍋","lon":"121.200606796","lat":"31.0481068459","category":"86","category_name":"火锅店","address":"松江区文汇路818号2楼(近龙源路)"},{"poiid":"B2094757D168A2F5439B","title":"Wayhome书房","lon":"121.20845819","lat":"31.049754081","category":"249","category_name":"购物服务","address":null},{"poiid":"B2094757D66DA6FB469F","title":"川来川去时尚川菜","lon":"121.206438","lat":"31.049597","category":"71","category_name":"四川菜","address":"松江区文汇路704号大学城一期宿舍口(近樱花广场)"},{"poiid":"B2094757D06BA5FD409A","title":"东北一家人","lon":"121.20223","lat":"31.04942","category":"82","category_name":"东北菜","address":"松江区文汇路818号2楼(近三期公寓)"},{"poiid":"B2094757D168A5FF489F","title":"欣尚桂林米粉(松江店)","lon":"121.20478","lat":"31.04953","category":"68","category_name":"快餐厅","address":"松江区大学城文汇路719弄樱花广场内(龙源路龙腾路间)"},{"poiid":"B2094750D26AA5F8449B","title":"85度C 文汇路店","lon":"121.203314","lat":"31.049897","category":"67","category_name":"甜品店","address":"松江区文汇路818号丰翔小吃广场1楼(近龙源路)"},{"poiid":"B2094655D268A6FA499D","title":"澳门莉莲蛋挞(上海视觉艺术学院西北)","lon":"121.20265","lat":"31.04959","category":"67","category_name":"甜品店","address":"松江区文汇路818号(近龙源路)"},{"poiid":"B2094757D66CABFA4099","title":"0068香辣主题餐厅","lon":"121.206711596","lat":"31.0496125781","category":"71","category_name":"四川菜","address":"松江区文汇路樱花广场702号(近视觉艺术学院)"},{"poiid":"B2094750DB64A7FD459E","title":"minipark","lon":"121.208465","lat":"31.049436","category":"65","category_name":"咖啡厅","address":"上海市松江区文汇路652弄207号"},{"poiid":"B2094757D568A0FF409A","title":"复旦上海视觉艺术学院行政楼","lon":"121.2069161","lat":"31.04613306","category":"52","category_name":"高等院校","address":"文翔路2200号"},{"poiid":"B2094655D26FAAFE449C","title":"上海视觉艺术学院(北门)","lon":"121.20679","lat":"31.04924","category":"52","category_name":"高等院校","address":""},{"poiid":"B2094751D36CA2FD429B","title":"芋贵人甜品店(松江大学城店)","lon":"121.20163","lat":"31.0494","category":"67","category_name":"甜品店","address":"松江区文汇路876弄17号(近龙源路)"},{"poiid":"B2094757DB6FA1FB499D","title":"G ＋沙龙","lon":"121.204369","lat":"31.048014","category":"248","category_name":"生活娱乐","address":"松江区龙腾路58弄30号近文汇路"},{"poiid":"B2094757D569A1F9449C","title":"松江大学城800弄18号楼","lon":"121.2031056","lat":"31.04940333","category":"52","category_name":"高等院校","address":"文汇路800弄"},{"poiid":"B2094757D06FA1F54092","title":"复旦大学上海视觉艺术学院(松江文翔路校区)","lon":"121.20691781406879","lat":"31.0461274825704","category":"52","category_name":"高等院校","address":"上海松江区文翔路2200号"},{"poiid":"B2094757D06FA0F4479A","title":"松江大学城三期寝室","lon":"121.20460969","lat":"31.050815503","category":"253","category_name":"校园生活","address":"上海文汇路800弄"},{"poiid":"B2094757D06EAAFF439A","title":"松江大学城四期学生公寓","lon":"121.199562277","lat":"31.0495922066","category":"253","category_name":"校园生活","address":"上海松江区松江大学城文汇路1000弄"},{"poiid":"B2094757D06BABFC489B","title":"松江大学城三期","lon":"121.203803149","lat":"31.0493673889","category":"252","category_name":"楼宇机构","address":"上海文汇路800弄"},{"poiid":"B2094757D06FA3FB4499","title":"王小姐的店","lon":"121.20830277","lat":"31.049656643","category":"260","category_name":"其他","address":"松江区松江大学城一期文汇路652弄203室(近龙腾路)"},{"poiid":"B2094757D06FA3FE439F","title":"松江大学城一期学生公寓","lon":"121.208628196","lat":"31.0513171146","category":"253","category_name":"校园生活","address":"松江区文汇路600号(上海对外贸易学院对面)"},{"poiid":"B2094757D068A4F84199","title":"文汇路","lon":"121.202765","lat":"31.049669","category":"260","category_name":"其他","address":"上海市松江区文汇路"},{"poiid":"B2094757D068A7F4459C","title":"RouRou Coffee","lon":"121.208647","lat":"31.049337","category":"260","category_name":"其他","address":"松江区文汇路652弄201室(近龙腾路)"},{"poiid":"B2094757D66EA7F8429C","title":"阁楼上的猫","lon":"121.205550196","lat":"31.0499700858","category":"260","category_name":"其他","address":"松江区文汇路樱花广场3楼"},{"poiid":"B2094757D06FA0F9449C","title":"肯德基 KFC (大学城店)","lon":"121.20284","lat":"31.049604","category":"68","category_name":"快餐厅","address":"松江区文汇路818号(近龙源路)"},{"poiid":"B2094757D068A0F4419D","title":"甜满多","lon":"121.199608396","lat":"31.0500254036","category":"113","category_name":"冷饮店","address":"松江区大学城4期文汇路988弄(尚网旁)"},{"poiid":"B2094757D068A7F5409F","title":"复旦大学上海视觉艺术学院实训楼","lon":"121.20693206","lat":"31.049365997","category":"500","category_name":"未知分类","address":"上海松江区文翔路2200号"},{"poiid":"B2094757D064AAFB429E","title":"华东政法大学明珠楼","lon":"121.2053139","lat":"31.050214021","category":"181","category_name":"图书馆","address":"上海华东政法大学"},{"poiid":"B2094750D56FA3F4459D","title":"花神咖啡馆","lon":"121.203689","lat":"31.049484","category":"260","category_name":"其他","address":"松江区文汇路770号201室(近龙源路)"},{"poiid":"B2094757D068A7FD4098","title":"复旦大学上海视觉艺术学院逸飞楼","lon":"121.207051","lat":"31.046188","category":"253","category_name":"校园生活","address":"上海松江區文翔路2200號"},{"poiid":"B2094757D068A0FC459A","title":"宝寿司(松江大学城店)","lon":"121.20033521","lat":"31.049643199","category":"95","category_name":"日本料理","address":"松江区文汇路928弄102室(龙源路口)"},{"poiid":"B2094655D264A4FC499B","title":"松江大学城800弄","lon":"121.20311","lat":"31.0494","category":"52","category_name":"高等院校","address":"文汇路800弄"},{"poiid":"B2094757D068A6FF459B","title":"樱花广场","lon":"121.209078","lat":"31.049391","category":"119","category_name":"商场","address":"松江区松江大学城文汇路718号(近1期)"},{"poiid":"B2094654DB64A0FC4192","title":"翔仔好味馆","lon":"121.20716","lat":"31.0496","category":"68","category_name":"快餐厅","address":"松江区文汇路686号(近MZONE)"},{"poiid":"B2094757D068A1F54992","title":"Coffee Track(咖啡轨迹)","lon":"121.20586115","lat":"31.0495663827","category":"65","category_name":"咖啡厅","address":"松江区文汇路166弄30号(近上外)"},{"poiid":"B2094757D068A7FF419D","title":"川菜映象(三期店)","lon":"121.20335","lat":"31.04952","category":"71","category_name":"四川菜","address":"上海近郊松江区大学城文汇路838弄101号(近东北一家人店)"},{"poiid":"B2094757D068ABF8429C","title":"COFFEE PLEASE_211","lon":"121.2081509","lat":"31.0494087","category":"65","category_name":"咖啡厅","address":"松江区文汇路652弄211号(近昂立教育)"},{"poiid":"B2094757D069A2FB4992","title":"紫东新苑","lon":"121.20824","lat":"31.043177","category":"47","category_name":"住宅区","address":"中艺花园位于宝山海江路9号"},{"poiid":"B2094751D46BA3F9459A","title":"上海对外经贸大学","lon":"121.2055277","lat":"31.0499415","category":"671","category_name":"高校中心点","address":null},{"poiid":"B2094757D064A5FA469A","title":"上海工程技术大学松江食堂","lon":"121.20362","lat":"31.04913","category":"68","category_name":"快餐厅","address":"松江区松江龙腾路333号上海工程技术大学"},{"poiid":"B2094757D16BA6F9429F","title":"工程大艺术楼","lon":"121.205250196","lat":"31.0538731693","category":"500","category_name":"未知分类","address":"上海市松江区龙源路"},{"poiid":"B2094757D56DA5F84792","title":"MINGS","lon":"121.207947","lat":"31.049933","category":"260","category_name":"其他","address":"松江区文汇路656弄104号(近罗森超市)"},{"poiid":"B2094750D26EA4FE4392","title":"德克士 文汇路店","lon":"121.205041","lat":"31.049611","category":"68","category_name":"快餐厅","address":"松江区文汇路746号大学城三期(工商银行)"},{"poiid":"B2094757D065A5FB459F","title":"华政图书馆综合阅览室","lon":"121.20442739","lat":"31.049050175","category":"181","category_name":"图书馆","address":"上海市松江区龙源路555号"},{"poiid":"B2094750DB65A6FD439E","title":"Mini Park","lon":"121.208183","lat":"31.049587","category":"67","category_name":"甜品店","address":"松江区文汇路652弄207号(近龙腾路)"},{"poiid":"B2094750DB6EA5FC409E","title":"ENOVOS意諾咖啡","lon":"121.203788","lat":"31.04951","category":"247","category_name":"餐饮美食","address":"松江区松江大学城三期文汇路D6桌球楼上(近复旦视觉艺术学院)"},{"poiid":"B2094757D569A1FE489C","title":"复旦上海视觉艺术学院图文楼","lon":"121.2069161","lat":"31.04613306","category":"52","category_name":"高等院校","address":"文翔路2200号"},{"poiid":"B2094654DB65A7F44392","title":"阿康烧烤 松江大学城店","lon":"121.20487","lat":"31.04963","category":"269","category_name":"烧烤","address":"松江区松江大学文汇路746号2楼"},{"poiid":"B2094757D065AAF4409F","title":"重庆鸡公煲(松江大学城3期店)","lon":"121.20435419","lat":"31.049587077","category":"86","category_name":"火锅店","address":"上海近郊松江区大学城三期文汇路746号"},{"poiid":"B2094757D065A5FE409D","title":"上海工程技术大学志宏堂","lon":"121.2001337","lat":"31.051795228","category":"253","category_name":"校园生活","address":"上海工程技术大学图书馆"},{"poiid":"B2094757D16DA5FA469F","title":"复旦视觉一号楼","lon":"121.20268019","lat":"31.04832005","category":"500","category_name":"未知分类","address":"上海松江区文汇路"},{"poiid":"B2094757D16FABFF449A","title":"simply時尚吧檯小火鍋","lon":"121.200606796","lat":"31.0481068459","category":"86","category_name":"火锅店","address":"松江区文汇路818号2楼(近龙源路)"},{"poiid":"B2094757D168A2F5439B","title":"Wayhome书房","lon":"121.20845819","lat":"31.049754081","category":"249","category_name":"购物服务","address":null},{"poiid":"B2094757D66DA6FB469F","title":"川来川去时尚川菜","lon":"121.206438","lat":"31.049597","category":"71","category_name":"四川菜","address":"松江区文汇路704号大学城一期宿舍口(近樱花广场)"},{"poiid":"B2094757D06BA5FD409A","title":"东北一家人","lon":"121.20223","lat":"31.04942","category":"82","category_name":"东北菜","address":"松江区文汇路818号2楼(近三期公寓)"},{"poiid":"B2094757D168A5FF489F","title":"欣尚桂林米粉(松江店)","lon":"121.20478","lat":"31.04953","category":"68","category_name":"快餐厅","address":"松江区大学城文汇路719弄樱花广场内(龙源路龙腾路间)"},{"poiid":"B2094750D26AA5F8449B","title":"85度C 文汇路店","lon":"121.203314","lat":"31.049897","category":"67","category_name":"甜品店","address":"松江区文汇路818号丰翔小吃广场1楼(近龙源路)"},{"poiid":"B2094655D268A6FA499D","title":"澳门莉莲蛋挞(上海视觉艺术学院西北)","lon":"121.20265","lat":"31.04959","category":"67","category_name":"甜品店","address":"松江区文汇路818号(近龙源路)"},{"poiid":"B2094757D66CABFA4099","title":"0068香辣主题餐厅","lon":"121.206711596","lat":"31.0496125781","category":"71","category_name":"四川菜","address":"松江区文汇路樱花广场702号(近视觉艺术学院)"},{"poiid":"B2094750DB64A7FD459E","title":"minipark","lon":"121.208465","lat":"31.049436","category":"65","category_name":"咖啡厅","address":"上海市松江区文汇路652弄207号"},{"poiid":"B2094757D568A0FF409A","title":"复旦上海视觉艺术学院行政楼","lon":"121.2069161","lat":"31.04613306","category":"52","category_name":"高等院校","address":"文翔路2200号"},{"poiid":"B2094655D26FAAFE449C","title":"上海视觉艺术学院(北门)","lon":"121.20679","lat":"31.04924","category":"52","category_name":"高等院校","address":""},{"poiid":"B2094751D36CA2FD429B","title":"芋贵人甜品店(松江大学城店)","lon":"121.20163","lat":"31.0494","category":"67","category_name":"甜品店","address":"松江区文汇路876弄17号(近龙源路)"},{"poiid":"B2094757DB6FA1FB499D","title":"G ＋沙龙","lon":"121.204369","lat":"31.048014","category":"248","category_name":"生活娱乐","address":"松江区龙腾路58弄30号近文汇路"},{"poiid":"B2094757D569A1F9449C","title":"松江大学城800弄18号楼","lon":"121.2031056","lat":"31.04940333","category":"52","category_name":"高等院校","address":"文汇路800弄"},{"poiid":"B2094757D06FA1F54092","title":"复旦大学上海视觉艺术学院(松江文翔路校区)","lon":"121.20691781406879","lat":"31.0461274825704","category":"52","category_name":"高等院校","address":"上海松江区文翔路2200号"},{"poiid":"B2094757D06FA0F4479A","title":"松江大学城三期寝室","lon":"121.20460969","lat":"31.050815503","category":"253","category_name":"校园生活","address":"上海文汇路800弄"},{"poiid":"B2094757D06EAAFF439A","title":"松江大学城四期学生公寓","lon":"121.199562277","lat":"31.0495922066","category":"253","category_name":"校园生活","address":"上海松江区松江大学城文汇路1000弄"},{"poiid":"B2094757D06BABFC489B","title":"松江大学城三期","lon":"121.203803149","lat":"31.0493673889","category":"252","category_name":"楼宇机构","address":"上海文汇路800弄"},{"poiid":"B2094757D06FA3FB4499","title":"王小姐的店","lon":"121.20830277","lat":"31.049656643","category":"260","category_name":"其他","address":"松江区松江大学城一期文汇路652弄203室(近龙腾路)"},{"poiid":"B2094757D06FA3FE439F","title":"松江大学城一期学生公寓","lon":"121.208628196","lat":"31.0513171146","category":"253","category_name":"校园生活","address":"松江区文汇路600号(上海对外贸易学院对面)"},{"poiid":"B2094757D068A4F84199","title":"文汇路","lon":"121.202765","lat":"31.049669","category":"260","category_name":"其他","address":"上海市松江区文汇路"},{"poiid":"B2094757D068A7F4459C","title":"RouRou Coffee","lon":"121.208647","lat":"31.049337","category":"260","category_name":"其他","address":"松江区文汇路652弄201室(近龙腾路)"},{"poiid":"B2094757D66EA7F8429C","title":"阁楼上的猫","lon":"121.205550196","lat":"31.0499700858","category":"260","category_name":"其他","address":"松江区文汇路樱花广场3楼"},{"poiid":"B2094757D06FA0F9449C","title":"肯德基 KFC (大学城店)","lon":"121.20284","lat":"31.049604","category":"68","category_name":"快餐厅","address":"松江区文汇路818号(近龙源路)"},{"poiid":"B2094757D068A0F4419D","title":"甜满多","lon":"121.199608396","lat":"31.0500254036","category":"113","category_name":"冷饮店","address":"松江区大学城4期文汇路988弄(尚网旁)"},{"poiid":"B2094757D068A7F5409F","title":"复旦大学上海视觉艺术学院实训楼","lon":"121.20693206","lat":"31.049365997","category":"500","category_name":"未知分类","address":"上海松江区文翔路2200号"},{"poiid":"B2094757D064AAFB429E","title":"华东政法大学明珠楼","lon":"121.2053139","lat":"31.050214021","category":"181","category_name":"图书馆","address":"上海华东政法大学"},{"poiid":"B2094750D56FA3F4459D","title":"花神咖啡馆","lon":"121.203689","lat":"31.049484","category":"260","category_name":"其他","address":"松江区文汇路770号201室(近龙源路)"},{"poiid":"B2094757D068A7FD4098","title":"复旦大学上海视觉艺术学院逸飞楼","lon":"121.207051","lat":"31.046188","category":"253","category_name":"校园生活","address":"上海松江區文翔路2200號"},{"poiid":"B2094757D068A0FC459A","title":"宝寿司(松江大学城店)","lon":"121.20033521","lat":"31.049643199","category":"95","category_name":"日本料理","address":"松江区文汇路928弄102室(龙源路口)"},{"poiid":"B2094655D264A4FC499B","title":"松江大学城800弄","lon":"121.20311","lat":"31.0494","category":"52","category_name":"高等院校","address":"文汇路800弄"},{"poiid":"B2094757D068A6FF459B","title":"樱花广场","lon":"121.209078","lat":"31.049391","category":"119","category_name":"商场","address":"松江区松江大学城文汇路718号(近1期)"},{"poiid":"B2094654DB64A0FC4192","title":"翔仔好味馆","lon":"121.20716","lat":"31.0496","category":"68","category_name":"快餐厅","address":"松江区文汇路686号(近MZONE)"},{"poiid":"B2094757D068A1F54992","title":"Coffee Track(咖啡轨迹)","lon":"121.20586115","lat":"31.0495663827","category":"65","category_name":"咖啡厅","address":"松江区文汇路166弄30号(近上外)"},{"poiid":"B2094757D068A7FF419D","title":"川菜映象(三期店)","lon":"121.20335","lat":"31.04952","category":"71","category_name":"四川菜","address":"上海近郊松江区大学城文汇路838弄101号(近东北一家人店)"},{"poiid":"B2094757D068ABF8429C","title":"COFFEE PLEASE_211","lon":"121.2081509","lat":"31.0494087","category":"65","category_name":"咖啡厅","address":"松江区文汇路652弄211号(近昂立教育)"},{"poiid":"B2094757D069A2FB4992","title":"紫东新苑","lon":"121.20824","lat":"31.043177","category":"47","category_name":"住宅区","address":"中艺花园位于宝山海江路9号"},{"poiid":"B2094751D46BA3F9459A","title":"上海对外经贸大学","lon":"121.2055277","lat":"31.0499415","category":"671","category_name":"高校中心点","address":null},{"poiid":"B2094757D064A5FA469A","title":"上海工程技术大学松江食堂","lon":"121.20362","lat":"31.04913","category":"68","category_name":"快餐厅","address":"松江区松江龙腾路333号上海工程技术大学"},{"poiid":"B2094757D16BA6F9429F","title":"工程大艺术楼","lon":"121.205250196","lat":"31.0538731693","category":"500","category_name":"未知分类","address":"上海市松江区龙源路"},{"poiid":"B2094757D56DA5F84792","title":"MINGS","lon":"121.207947","lat":"31.049933","category":"260","category_name":"其他","address":"松江区文汇路656弄104号(近罗森超市)"},{"poiid":"B2094750D26EA4FE4392","title":"德克士 文汇路店","lon":"121.205041","lat":"31.049611","category":"68","category_name":"快餐厅","address":"松江区文汇路746号大学城三期(工商银行)"},{"poiid":"B2094757D065A5FB459F","title":"华政图书馆综合阅览室","lon":"121.20442739","lat":"31.049050175","category":"181","category_name":"图书馆","address":"上海市松江区龙源路555号"},{"poiid":"B2094750DB65A6FD439E","title":"Mini Park","lon":"121.208183","lat":"31.049587","category":"67","category_name":"甜品店","address":"松江区文汇路652弄207号(近龙腾路)"},{"poiid":"B2094750DB6EA5FC409E","title":"ENOVOS意諾咖啡","lon":"121.203788","lat":"31.04951","category":"247","category_name":"餐饮美食","address":"松江区松江大学城三期文汇路D6桌球楼上(近复旦视觉艺术学院)"},{"poiid":"B2094757D569A1FE489C","title":"复旦上海视觉艺术学院图文楼","lon":"121.2069161","lat":"31.04613306","category":"52","category_name":"高等院校","address":"文翔路2200号"},{"poiid":"B2094654DB65A7F44392","title":"阿康烧烤 松江大学城店","lon":"121.20487","lat":"31.04963","category":"269","category_name":"烧烤","address":"松江区松江大学文汇路746号2楼"},{"poiid":"B2094757D065AAF4409F","title":"重庆鸡公煲(松江大学城3期店)","lon":"121.20435419","lat":"31.049587077","category":"86","category_name":"火锅店","address":"上海近郊松江区大学城三期文汇路746号"},{"poiid":"B2094757D065A5FE409D","title":"上海工程技术大学志宏堂","lon":"121.2001337","lat":"31.051795228","category":"253","category_name":"校园生活","address":"上海工程技术大学图书馆"},{"poiid":"B2094757D16DA5FA469F","title":"复旦视觉一号楼","lon":"121.20268019","lat":"31.04832005","category":"500","category_name":"未知分类","address":"上海松江区文汇路"},{"poiid":"B2094757D16FABFF449A","title":"simply時尚吧檯小火鍋","lon":"121.200606796","lat":"31.0481068459","category":"86","category_name":"火锅店","address":"松江区文汇路818号2楼(近龙源路)"},{"poiid":"B2094757D168A2F5439B","title":"Wayhome书房","lon":"121.20845819","lat":"31.049754081","category":"249","category_name":"购物服务","address":null},{"poiid":"B2094757D66DA6FB469F","title":"川来川去时尚川菜","lon":"121.206438","lat":"31.049597","category":"71","category_name":"四川菜","address":"松江区文汇路704号大学城一期宿舍口(近樱花广场)"},{"poiid":"B2094757D06BA5FD409A","title":"东北一家人","lon":"121.20223","lat":"31.04942","category":"82","category_name":"东北菜","address":"松江区文汇路818号2楼(近三期公寓)"},{"poiid":"B2094757D168A5FF489F","title":"欣尚桂林米粉(松江店)","lon":"121.20478","lat":"31.04953","category":"68","category_name":"快餐厅","address":"松江区大学城文汇路719弄樱花广场内(龙源路龙腾路间)"},{"poiid":"B2094750D26AA5F8449B","title":"85度C 文汇路店","lon":"121.203314","lat":"31.049897","category":"67","category_name":"甜品店","address":"松江区文汇路818号丰翔小吃广场1楼(近龙源路)"},{"poiid":"B2094655D268A6FA499D","title":"澳门莉莲蛋挞(上海视觉艺术学院西北)","lon":"121.20265","lat":"31.04959","category":"67","category_name":"甜品店","address":"松江区文汇路818号(近龙源路)"},{"poiid":"B2094757D66CABFA4099","title":"0068香辣主题餐厅","lon":"121.206711596","lat":"31.0496125781","category":"71","category_name":"四川菜","address":"松江区文汇路樱花广场702号(近视觉艺术学院)"},{"poiid":"B2094750DB64A7FD459E","title":"minipark","lon":"121.208465","lat":"31.049436","category":"65","category_name":"咖啡厅","address":"上海市松江区文汇路652弄207号"},{"poiid":"B2094757D568A0FF409A","title":"复旦上海视觉艺术学院行政楼","lon":"121.2069161","lat":"31.04613306","category":"52","category_name":"高等院校","address":"文翔路2200号"},{"poiid":"B2094655D26FAAFE449C","title":"上海视觉艺术学院(北门)","lon":"121.20679","lat":"31.04924","category":"52","category_name":"高等院校","address":""},{"poiid":"B2094751D36CA2FD429B","title":"芋贵人甜品店(松江大学城店)","lon":"121.20163","lat":"31.0494","category":"67","category_name":"甜品店","address":"松江区文汇路876弄17号(近龙源路)"},{"poiid":"B2094757DB6FA1FB499D","title":"G ＋沙龙","lon":"121.204369","lat":"31.048014","category":"248","category_name":"生活娱乐","address":"松江区龙腾路58弄30号近文汇路"},{"poiid":"B2094757D569A1F9449C","title":"松江大学城800弄18号楼","lon":"121.2031056","lat":"31.04940333","category":"52","category_name":"高等院校","address":"文汇路800弄"}]