[{"poiid":"B2094757D468A4FC4493","title":"洞子张老匠火锅","lon":"121.4882504","lat":"31.367845","category":"86","category_name":"火锅店","address":"宝山区淞兴西路248号1号楼(近1919创意码头)"},{"poiid":"B2094757D568A7FD439F","title":"半岛1919滨江创意园","lon":"121.487815","lat":"31.36750194","category":"248","category_name":"生活娱乐","address":"淞兴西路258号"},{"poiid":"B2094757D068A5FE469D","title":"江杨北路水产批发市场","lon":"121.45541","lat":"31.35853","category":"249","category_name":"购物服务","address":"上海宝山区江杨北路(近泰和路)"},{"poiid":"B2094757D06BA5FF499E","title":"罗曼园高级婚礼会馆","lon":"121.486608031","lat":"31.3664170936","category":"500","category_name":"未知分类","address":"宝山区淞兴西路258号(近淞滨支路)查看地图"},{"poiid":"B209475DD66DA4FF4199","title":"森谷美食公园","lon":"121.469474","lat":"31.36627","category":"247","category_name":"餐饮美食","address":"上海市 宝山区泰和路1088号"},{"poiid":"B2094655D36CA2FB419D","title":"三汀沟","lon":"121.46823","lat":"31.366","category":"38","category_name":"公交车站","address":""},{"poiid":"B2094655D26BA2FA4593","title":"泰和路江杨北路","lon":"121.46172","lat":"31.36384","category":"38","category_name":"公交车站","address":""},{"poiid":"B2094757D064A6F4489D","title":"中铝上铜","lon":"121.472629","lat":"31.366676","category":"500","category_name":"未知分类","address":"上海宝山区泰和路1010号"},{"poiid":"B2094757D16AA3F4489C","title":"上海交运沪北物流发展有限公司","lon":"121.46711578","lat":"31.364349623","category":"263","category_name":"公司","address":"上海市宝山区铁山路38号"},{"poiid":"B2094757D16CABFF409D","title":"一个下着雨的早晨","lon":"121.465363781","lat":"31.3694105553","category":"247","category_name":"餐饮美食","address":"上海的某一天"},{"poiid":"B2094757D16BA2F8439C","title":"交运沪北","lon":"121.467716","lat":"31.362833","category":"500","category_name":"未知分类","address":"上海铁山路38号"},{"poiid":"B2094757DB68A4FC4193","title":"金璞宴 Jean Poyien","lon":"121.48827552795","lat":"31.367635629049","category":"72","category_name":"广东菜","address":"宝山区淞兴西路248号(近1919创意码头)"},{"poiid":"B2094655D36CA1FE469C","title":"水产路铁山路","lon":"121.46445","lat":"31.37388","category":"38","category_name":"公交车站","address":""},{"poiid":"B2094757D16DA3FC409F","title":"江杨农产品批发市场","lon":"121.456358831","lat":"31.3570273","category":"500","category_name":"未知分类","address":"上海市宝山区江杨北路【铁谊路】"},{"poiid":"B2094654D469AAF44098","title":"上海米其林回力轮胎股份有限公司钢丝厂","lon":"121.46609","lat":"31.3677","category":"263","category_name":"公司","address":"铁山路129号"},{"poiid":"B2094757D16EA3F84999","title":"电信牡丹江路营业厅","lon":"121.46410267","lat":"31.363326746","category":"500","category_name":"未知分类","address":"上海宝山区牡丹江路1011号"},{"poiid":"B2094757D168A0FC499E","title":"泰和路铁山路","lon":"121.46144633","lat":"31.363442432","category":"500","category_name":"未知分类","address":"上海泰和路铁山路"},{"poiid":"B2094654D46AA0FA4192","title":"上海宝临电气集团","lon":"121.46976","lat":"31.37119","category":"263","category_name":"公司","address":"铁峰路447"},{"poiid":"B2094654D469ABFB409C","title":"上海宝钢钢铁资源有限公司(铁山路)","lon":"121.46863","lat":"31.35996","category":"263","category_name":"公司","address":"铁山路6号"},{"poiid":"B2094757D06AA2FA4498","title":"淞滨支路泰和路","lon":"121.487009","lat":"31.369878","category":"500","category_name":"未知分类","address":"上海公交711路终点站…公交719路停靠站"},{"poiid":"B2094654D46AA0FA409D","title":"上海神鹰物流有限公司","lon":"121.47325","lat":"31.3705","category":"248","category_name":"生活娱乐","address":"南汀路200"},{"poiid":"B2094757D169A1F94099","title":"外环同济路出口","lon":"121.48193264","lat":"31.369623576","category":"500","category_name":"未知分类","address":"上海外环同济路出口"},{"poiid":"B2094654D46AA2F4489A","title":"淞港码头","lon":"121.46559","lat":"31.35684","category":"34","category_name":"港口码头","address":""},{"poiid":"B2094757D068A6FE449E","title":"宝湾国际物流中心","lon":"121.470803","lat":"31.381641","category":"500","category_name":"未知分类","address":"上海宝山区铁力路388号"},{"poiid":"B2094757D169A1FB4798","title":"秘密花园","lon":"121.48240903","lat":"31.369450756","category":"47","category_name":"住宅区","address":null},{"poiid":"B2094757D06BA6FC499E","title":"8号公馆","lon":"121.48704","lat":"31.36632","category":"76","category_name":"上海菜","address":"宝山区淞兴西路258号6号楼半岛1919创意园(淞滨支路淞兴西路)"},{"poiid":"B2094655D36DA1F8429A","title":"浅弄河桥","lon":"121.46277","lat":"31.37396","category":"250","category_name":"公园户外","address":""},{"poiid":"B2094655D264A0FF4093","title":"万业紫辰苑","lon":"121.45894","lat":"31.35661","category":"47","category_name":"住宅区","address":"江杨北路1568弄1号"},{"poiid":"B2094757D06AA7FB459D","title":"宝钢不锈钢事业部","lon":"121.469065722","lat":"31.3482048173","category":"46","category_name":"楼宇","address":"上海不知"},{"poiid":"B2094757D169AAFD4199","title":"崇明建设镇","lon":"121.463345165","lat":"31.3704395765","category":"260","category_name":"其他","address":"上海富安村"},{"poiid":"B2094654D469AAFC4192","title":"宝钢集团上海第一钢铁有限公司(蕴藻南路)","lon":"121.47003","lat":"31.35593","category":"263","category_name":"公司","address":""},{"poiid":"B2094654D46AA7FC4592","title":"亚东国际物流","lon":"121.45812","lat":"31.36544","category":"248","category_name":"生活娱乐","address":"泰和路1421"},{"poiid":"B2094654D46AA0F94993","title":"上海油汇实业有限公司","lon":"121.48081","lat":"31.36678","category":"263","category_name":"公司","address":"铁力路61号"},{"poiid":"B2094655D36DA1FE459C","title":"江杨北路黄泥塘桥","lon":"121.457","lat":"31.36159","category":"250","category_name":"公园户外","address":""},{"poiid":"B2094757D56CA6FA4893","title":"罗曼园高级婚礼会所 宝山巴黎印象馆","lon":"121.48782","lat":"31.367504","category":"247","category_name":"餐饮美食","address":"宝山区淞兴西路258号（半岛1919园区内）"},{"poiid":"B2094757D66CA1F94899","title":"S20水产路下匝道","lon":"121.45685583","lat":"31.362768018","category":"500","category_name":"未知分类","address":"上海S20水产路下匝道"},{"poiid":"B2094654D469ABF54493","title":"宝钢集团上海钢铁研究所","lon":"121.48138","lat":"31.37004","category":"191","category_name":"科研机构","address":"泰和路1001"},{"poiid":"B2094757D069A7FA4593","title":"CETC23","lon":"121.46291238","lat":"31.374771782","category":"500","category_name":"未知分类","address":"上海铁山路230号"},{"poiid":"B2094757D065A0F9459F","title":"淞滨路","lon":"121.487548831","lat":"31.3690295474","category":"500","category_name":"未知分类","address":"上海宝山区吴淞镇"},{"poiid":"B2094654D46AA7FC4699","title":"上海江杨农产品批发市场经营管理有限公司卫生室","lon":"121.45656","lat":"31.3579","category":"162","category_name":"医院","address":""},{"poiid":"B2094654D46AA2FA4993","title":"泰和路码头","lon":"121.48418","lat":"31.37224","category":"34","category_name":"港口码头","address":""},{"poiid":"B2094654D469AAF4409D","title":"上海中集车辆物流装备园","lon":"121.46748","lat":"31.37659","category":"248","category_name":"生活娱乐","address":""},{"poiid":"B2094654D46AA2FB4192","title":"良友金伴NO.657","lon":"121.48569","lat":"31.36699","category":"117","category_name":"便民商店/便利店","address":""},{"poiid":"B2094654D46AA2FB419D","title":"宝山区泗东小学","lon":"121.4861","lat":"31.36755","category":"56","category_name":"小学","address":""},{"poiid":"B2094757D169A0FD4892","title":"学尔森学院","lon":"121.48245553","lat":"31.369446256","category":"500","category_name":"未知分类","address":"上海普陀区武宁路350号联合大厦588室(近中山北路)  "},{"poiid":"B2094654D46AA2FD459F","title":"海山小吃店","lon":"121.48752","lat":"31.36949","category":"68","category_name":"快餐厅","address":"宝山区淞滨支路(近泰和路)"},{"poiid":"B2094654D46AA2FB429E","title":"快客NO.1287","lon":"121.48601","lat":"31.36707","category":"117","category_name":"便民商店/便利店","address":""},{"poiid":"B2094757D169A2FD4599","title":"制氢站","lon":"121.46485523","lat":"31.354951957","category":"500","category_name":"未知分类","address":"上海蕴藻南路"},{"poiid":"B2094655D26FA4FC479A","title":"宝林春天苑","lon":"121.48923","lat":"31.369724","category":"47","category_name":"住宅区","address":"上海市宝山区淞兴西路176号"},{"poiid":"B2094757D66EA0FD4899","title":"招商局物流集团上海有限公司","lon":"121.470178","lat":"31.378067","category":"500","category_name":"未知分类","address":"上海宝山区铁山路219号"},{"poiid":"B2094757D16BA4F8489D","title":"水产路铁力路","lon":"121.475536","lat":"31.377878","category":"500","category_name":"未知分类","address":"上海水产路2864"},{"poiid":"B2094750D76FA4FC409B","title":"俏阿婆","lon":"121.489","lat":"31.3685","category":"77","category_name":"湖南菜","address":"宝山区淞兴西路210号(近淞滨支路)"},{"poiid":"B2094655D26BA2FA4599","title":"泰和路淞滨支路","lon":"121.48874","lat":"31.37175","category":"38","category_name":"公交车站","address":""},{"poiid":"B2094757D568ABF9479E","title":"二十三所","lon":"121.45496","lat":"31.37782","category":"46","category_name":"楼宇","address":"铁山路260号"},{"poiid":"B2094757D16DA0F44898","title":"淞滨支路","lon":"121.487223331","lat":"31.3693140533","category":"500","category_name":"未知分类","address":"上海泰和路淞滨支路"},{"poiid":"B2094655D26BA0FF489C","title":"江杨北路桥","lon":"121.45996","lat":"31.35437","category":"250","category_name":"公园户外","address":""},{"poiid":"B2094757D165A1FF4099","title":"八号公馆","lon":"121.486050831","lat":"31.3659774845","category":"500","category_name":"未知分类","address":"上海淞滨路258号"},{"poiid":"B2094655D36DA7F5459E","title":"淞滨路淞滨支路","lon":"121.48805","lat":"31.36938","category":"38","category_name":"公交车站","address":""},{"poiid":"B2094757D66DA5FB499B","title":"宁波象山海鲜大排档","lon":"121.48140183","lat":"31.376764706","category":"247","category_name":"餐饮美食","address":"上海宝山区共江路"},{"poiid":"B2094757D16CA0FD469B","title":"耀飞保龄球馆","lon":"121.48738","lat":"31.36635","category":"220","category_name":"运动场所","address":"宝山区班溪路99号沪客隆商场西侧4楼"},{"poiid":"B2094654D46AA2FD4998","title":"东新村小区","lon":"121.48731","lat":"31.36786","category":"47","category_name":"住宅区","address":"吴淞镇"},{"poiid":"B2094654D469AAF44093","title":"上海中集汽车测修理有限公司","lon":"121.4634","lat":"31.37928","category":"159","category_name":"汽车维修","address":"宝山区水产路1699号F栋(近铁山路)"},{"poiid":"B2094654D469ABFB419D","title":"宝水码头","lon":"121.48795","lat":"31.36592","category":"34","category_name":"港口码头","address":""},{"poiid":"B2094654D46AA2FA4792","title":"上海畅源安达商务楼","lon":"121.48757","lat":"31.36075","category":"46","category_name":"楼宇","address":"安达路253号"},{"poiid":"B2094757DA6BABFA4092","title":"半岛1919","lon":"121.48761","lat":"31.367507","category":"252","category_name":"楼宇机构","address":"徐汇钦州北路188号"},{"poiid":"B2094757D16AA4F94892","title":"Shanghai Echo","lon":"121.45618753","lat":"31.372122611","category":"500","category_name":"未知分类","address":"上海铁山路166号"},{"poiid":"B2094654D46AA2FD4093","title":"李金怡心园","lon":"121.48871","lat":"31.369032","category":"47","category_name":"住宅区","address":"淞滨支路15弄"},{"poiid":"B2094757D16DA4FF499C","title":"丸子家","lon":"121.48586083","lat":"31.36867154","category":"500","category_name":"未知分类","address":null},{"poiid":"B2094757D165ABFC4299","title":"水产西路富联路777号","lon":"121.47919083","lat":"31.354393245","category":"500","category_name":"未知分类","address":"上海我家"},{"poiid":"B2094757D164A3F54998","title":"宝山养路费征收站","lon":"121.45493983","lat":"31.359841358","category":"500","category_name":"未知分类","address":"上海市宝山区江杨北路218号"},{"poiid":"B2094654D46AA7FD439C","title":"蔬菜交易区","lon":"121.45597","lat":"31.35593","category":"117","category_name":"便民商店/便利店","address":""},{"poiid":"B2094654D46AA7FD479C","title":"八棉都市工业园","lon":"121.48886","lat":"31.36795","category":"45","category_name":"产业园区","address":""},{"poiid":"B2094757D064A1FC4793","title":"昆山巴城阳澄湖大闸蟹养殖基地","lon":"121.48423983","lat":"31.368777542","category":"260","category_name":"其他","address":"苏州巴城镇阳澄湖  "},{"poiid":"B2094757D169A7FA469B","title":"阿英煲(同泰北路)","lon":"121.481051831","lat":"31.376525702","category":"500","category_name":"未知分类","address":"上海宝山区同泰北路"},{"poiid":"B2094654D46AA7FC4698","title":"上海江杨农产品经营管理有限公司","lon":"121.45656","lat":"31.3579","category":"263","category_name":"公司","address":""},{"poiid":"B2094757D66DA4FD429B","title":"上海申通二部","lon":"121.4719001","lat":"31.346243008","category":"500","category_name":"未知分类","address":"上海上钢一长"},{"poiid":"B2094654D469ABFB449A","title":"上海聚银公司冷冻五厂码头","lon":"121.4894","lat":"31.36504","category":"34","category_name":"港口码头","address":""},{"poiid":"B2094757D16AA5FD4092","title":"宝钢股份不锈钢事业部","lon":"121.48281083","lat":"31.351003175","category":"500","category_name":"未知分类","address":"上海市宝山区钢四路"},{"poiid":"B2094757D469A1F54699","title":"粉红豹酒吧","lon":"121.48782","lat":"31.367504","category":"260","category_name":"其他","address":"宝山区淞兴西路258号上棉八厂厂区内(近半岛1919)"},{"poiid":"B2094654D469ABFB4299","title":"钟海码头","lon":"121.45621","lat":"31.35355","category":"34","category_name":"港口码头","address":""},{"poiid":"B2094654D46AA7FC4693","title":"上海海山水产批发行","lon":"121.45349","lat":"31.35742","category":"117","category_name":"便民商店/便利店","address":"江杨北路98号"},{"poiid":"B2094757D16BA4FE409B","title":"北洋仓储(上海海关第六监管处)","lon":"121.460457831","lat":"31.3795627646","category":"500","category_name":"未知分类","address":"上海铁山路258号"},{"poiid":"B2094757D169A1FE499B","title":"粉红豹娱乐夜总会","lon":"121.484006431","lat":"31.3756171832","category":"500","category_name":"未知分类","address":"上海淞兴西路"},{"poiid":"B2094757D16DA0FF489D","title":"宝钢工业检测公司宝山分公司","lon":"121.47887013","lat":"31.3521926","category":"500","category_name":"未知分类","address":"上海不锈钢事业部/不锈钢大道/检测小白楼/品检部"},{"poiid":"B2094757D465A0FA4598","title":"金元海鲜酒楼","lon":"121.487565","lat":"31.368027","category":"260","category_name":"其他","address":"宝山区淞兴西路218号(淞桥西路淞兴西路)"},{"poiid":"B2094757D66CABFB4399","title":"宝林春天","lon":"121.488821831","lat":"31.3693515541","category":"500","category_name":"未知分类","address":"上海淞滨西路810弄"},{"poiid":"B2094654D46AA2F44898","title":"阿斯特兰(青岛)仓储有限公司上海分公司","lon":"121.46016","lat":"31.35257","category":"263","category_name":"公司","address":"江杨南路2590号"},{"poiid":"B2094757D065ABFA4998","title":"迪亚天天(淞滨路店)","lon":"121.48949","lat":"31.36981","category":"117","category_name":"便民商店/便利店","address":"宝山区淞滨路805-807号"},{"poiid":"B2094654D469AAF4419B","title":"上海外服服饰检整有限公司","lon":"121.4627","lat":"31.37952","category":"263","category_name":"公司","address":"兰岗路9号"},{"poiid":"B2094757D06FA4FF499E","title":"淞滨路803弄","lon":"121.4893281","lat":"31.369367532","category":"500","category_name":"未知分类","address":"上海市宝山区淞滨路803弄"},{"poiid":"B2094757D164A0F84492","title":"kfc马当路店","lon":"121.47436083","lat":"31.350230159","category":"500","category_name":"未知分类","address":"上海九号线马当路地铁站"},{"poiid":"B2094654D46AA7FC469C","title":"杨行派出所治安办公室","lon":"121.45466","lat":"31.35688","category":"248","category_name":"生活娱乐","address":"宝山区杨泰路198号"},{"poiid":"B2094757D169A1FA459D","title":"952B 泰和路站","lon":"121.48667408","lat":"31.376134543","category":"500","category_name":"未知分类","address":"上海同济路204号口"},{"poiid":"B2094654D469AAFB499F","title":"宝钢小额站坯料库","lon":"121.45379","lat":"31.37493","category":"263","category_name":"公司","address":""},{"poiid":"B2094654D469AAFC4399","title":"吴淞邮政支局","lon":"121.48872","lat":"31.36992","category":"248","category_name":"生活娱乐","address":"淞滨西路815号"},{"poiid":"B2094654D46AA2F4479D","title":"宝山钢铁股份有限公司不锈钢分公司六号门","lon":"121.46246","lat":"31.3491","category":"263","category_name":"公司","address":""},{"poiid":"B2094654D469ABFB4298","title":"上海中远化工灌装有限公司","lon":"121.45723","lat":"31.35215","category":"263","category_name":"公司","address":"江杨南路2590号"},{"poiid":"B2094757D06AA7FB459A","title":"冷轧薄板厂生活楼","lon":"121.4622189","lat":"31.3485832","category":"500","category_name":"未知分类","address":"上海宝山区江杨南路呼兰路"}]