[{"poiid":"B2094757D06BA4F8469C","title":"新崇大酒店","lon":"121.428308773","lat":"31.6310526006","category":"217","category_name":"旅馆招待所","address":"上海鼓浪屿路"},{"poiid":"B2094757D068AAF9429A","title":"崇明新城公园","lon":"121.422427178","lat":"31.6203458314","category":"196","category_name":"公园","address":"近郊崇明县崇明大道(近江帆路)"},{"poiid":"B2094757D568AAF9499A","title":"东江羊肉馆","lon":"121.42709","lat":"31.635358","category":"257","category_name":"中餐厅","address":"近郊崇明县团城公路7218号(近南门)"},{"poiid":"B2094757D16BA0F4459C","title":"崇明县新城会议中心","lon":"121.427037473","lat":"31.6246731213","category":"500","category_name":"未知分类","address":"上海翠竹路"},{"poiid":"B2094751D569AAFF459C","title":"崇明图书馆","lon":"121.42865","lat":"31.619141","category":"500","category_name":"未知分类","address":null},{"poiid":"B2094757D16AA4FE439C","title":"海岛星城","lon":"121.437076837","lat":"31.6247984117","category":"47","category_name":"住宅区","address":"上海绿海路500弄"},{"poiid":"B2094757D16FA6FC4892","title":"崇明县行政服务中心","lon":"121.428614423","lat":"31.6327561325","category":"500","category_name":"未知分类","address":"上海,上海市,城桥镇翠竹路1501号"},{"poiid":"B2094757D069AAFE479D","title":"鼓浪屿路","lon":"121.415303","lat":"31.624593","category":"148","category_name":"美容美发店","address":"上海市崇明县城桥镇鼓浪屿路"},{"poiid":"B2094654D468A7F84093","title":"寿安寺","lon":"121.42176","lat":"31.61457","category":"244","category_name":"寺庙道观","address":"崇明县城桥镇鳌山村涛声路1188号"},{"poiid":"B2094750D665ABF94998","title":"恒悦轩精致香港粤菜(崇明店)","lon":"121.428","lat":"31.6226","category":"72","category_name":"广东菜","address":"近郊崇明县江帆路新城公园内"},{"poiid":"B2094757DB68A0FA4199","title":"江海名都","lon":"121.43242524340826","lat":"31.62259839638773","category":"500","category_name":"未知分类","address":"上海市崇明区翠竹路1188弄"},{"poiid":"B2094655D26BAAF54099","title":"鳌山河桥","lon":"121.42781","lat":"31.6215","category":"250","category_name":"公园户外","address":""},{"poiid":"B2094757D168A0F94192","title":"黄炳桥羊肉馆","lon":"121.43609507","lat":"31.631190703","category":"247","category_name":"餐饮美食","address":"上海崇明三江口"},{"poiid":"B2094655D36CA7FF4393","title":"侯家镇","lon":"121.4521","lat":"31.62048","category":"38","category_name":"公交车站","address":""},{"poiid":"B2094655D26BAAF44998","title":"小横河桥","lon":"121.44061","lat":"31.61399","category":"250","category_name":"公园户外","address":""},{"poiid":"B2094655D26BAAF4499C","title":"聚训中心路民生竖河北桥","lon":"121.44393","lat":"31.61789","category":"250","category_name":"公园户外","address":""},{"poiid":"B2094654D468A7F84092","title":"金鳌山公园","lon":"121.4209","lat":"31.61519","category":"196","category_name":"公园","address":"近郊崇明县城桥镇鳌山路东首"},{"poiid":"B2094654D468A7F8419E","title":"鳌山暝园","lon":"121.42449","lat":"31.61169","category":"250","category_name":"公园户外","address":"城桥镇鳌山村"},{"poiid":"B2094654D468A7F8479E","title":"崇明县城东职业技术学校","lon":"121.43683","lat":"31.63039","category":"54","category_name":"职业技术学校","address":""},{"poiid":"B2094752D56CA2F4459C","title":"新城明月苑","lon":"121.4314","lat":"31.631364","category":"47","category_name":"住宅区","address":"崇明县绿海路501弄"},{"poiid":"B2094752D56AA1F54898","title":"恒悦轩岛中岛会所","lon":"121.422763","lat":"31.621097","category":"251","category_name":"出行住宿","address":"上海市崇明县江帆路379号"},{"poiid":"B2094757D66FA3FF4092","title":"老农民羊肉馆","lon":"121.425716673","lat":"31.6308545969","category":"500","category_name":"未知分类","address":"上海近郊崇明县城桥镇团城公路(近东三江口桥西首)  "},{"poiid":"B2094757D169A0FF439F","title":"湄洲新村","lon":"121.415","lat":"31.6267","category":"47","category_name":"住宅区","address":"上海崇明县城桥镇湄洲新村"},{"poiid":"B2094757D16AA1FC499B","title":"崇明县青少年活动中心","lon":"121.415665813","lat":"31.6233728169","category":"500","category_name":"未知分类","address":"近郊崇明城桥镇湄洲路228弄8号"},{"poiid":"B2094655D36CA6FA479C","title":"东三江口","lon":"121.42231","lat":"31.63585","category":"38","category_name":"公交车站","address":""},{"poiid":"B2094757D66CA2FB459E","title":"新民","lon":"121.45024977","lat":"31.613305768","category":"500","category_name":"未知分类","address":"上海崇明县"},{"poiid":"B2094757D16AA2FF469C","title":"新河码头","lon":"121.43030677","lat":"31.635184877","category":"500","category_name":"未知分类","address":"上海近郊崇明新河镇  "},{"poiid":"B2094757D069A2FF429C","title":"前卫生态村","lon":"121.44945276","lat":"31.628074754","category":"260","category_name":"其他","address":"上海近郊崇明县前卫村  "}]