[{"poiid":"B2094757D06FA1FB4498","title":"千秋膳房(古北店)","lon":"121.39549","lat":"31.19448","category":"91","category_name":"台湾菜","address":"上海长宁区水城南路17号"},{"poiid":"B2094654DB64A6FF429C","title":"星巴克(古北店)","lon":"121.394189","lat":"31.193703","category":"260","category_name":"其他","address":"长宁区水城南路20号(黄金城道水城南路)"},{"poiid":"B2094757D068A1FF419B","title":"鹿港老镇","lon":"121.39703258","lat":"31.195483751","category":"500","category_name":"未知分类","address":"上海市长宁区黄金城道778号(古北路)"},{"poiid":"B2094757D06BABFE449C","title":"黄金城道","lon":"121.395090586","lat":"31.1946027344","category":"500","category_name":"未知分类","address":"上海黄金城道水城南路"},{"poiid":"B2094757D06FA2FB419C","title":"麦当劳(古北店)","lon":"121.39396","lat":"31.19584","category":"68","category_name":"快餐厅","address":"长宁区水城南路258号古北家乐福附近(近延安西路)"},{"poiid":"B2094654DB64AAF4419A","title":"华越楼No.1","lon":"121.39712","lat":"31.19486","category":"99","category_name":"泰国／越南菜品餐厅","address":"长宁区黄金城道781号(近古北路)"},{"poiid":"B2094757D069A1FE4093","title":"陵水酒家","lon":"121.39535","lat":"31.19536","category":"96","category_name":"韩国料理","address":"长宁区荣华东道119弄2号巴黎花园B楼107号(近水城南路)"},{"poiid":"B2094757D069ABFA439A","title":"もんじゃ鬼ぴ～","lon":"121.39527","lat":"31.19343","category":"95","category_name":"日本料理","address":"上海长宁区荣华东道19弄3号d室(近水城南路)"},{"poiid":"B2094654DB64A6FA4392","title":"Colabo 万科广场店","lon":"121.39355883409","lat":"31.194660683717","category":"94","category_name":"西餐厅","address":"长宁区水城南路37号万科广场北楼3楼(近黄金城道)"},{"poiid":"B2094757D66AAAFF4598","title":"涟波 SAZANAMI","lon":"121.39484837119","lat":"31.19537499377","category":"95","category_name":"日本料理","address":"长宁区荣华东道121号(近家乐福)"},{"poiid":"B2094757D069A1FE4693","title":"千秋小馆","lon":"121.39568658","lat":"31.192137686","category":"91","category_name":"台湾菜","address":"长宁区黄金城道887号(近水城南路)"},{"poiid":"B2094757D664A1F9459F","title":"万寿亭 古北店","lon":"121.3963","lat":"31.19385","category":"96","category_name":"韩国料理","address":"长宁区荣华东道19弄2号(近水城南路)"},{"poiid":"B2094654D564A2FF4893","title":"万科广场商务楼","lon":"121.39342","lat":"31.19465","category":"46","category_name":"楼宇","address":"河西区土城医院西侧"},{"poiid":"B2094757D06AA5FD4992","title":"里の水","lon":"121.39682","lat":"31.19424","category":"95","category_name":"日本料理","address":"长宁区荣华东道57弄1号102(近古北路)"},{"poiid":"B2094654D564A2F9409E","title":"函极博","lon":"121.39636","lat":"31.19426","category":"96","category_name":"韩国料理","address":"长宁区荣华东道60弄1号里昂花园内(近水城南路)"},{"poiid":"B2094757D06AA6F4469D","title":"名都城俱樂部","lon":"121.39438841","lat":"31.191833847","category":"260","category_name":"其他","address":"长宁区虹许路788号名都城内(近古羊路)"},{"poiid":"B2094757D068ABFC429E","title":"卡布拉蛋糕专卖店(古北店)","lon":"121.39712","lat":"31.19483","category":"67","category_name":"甜品店","address":"长宁区黄金城道818号(近古北路)"},{"poiid":"B2094757D665A1F54599","title":"纹兵卫 古北店","lon":"121.396817","lat":"31.193989","category":"95","category_name":"日本料理","address":"长宁区荣华东道57号里昂花园1号2号(近古北路)"},{"poiid":"B2094757D464A7FF4592","title":"伊豆日本烧肉","lon":"121.39578130603","lat":"31.194834981876","category":"247","category_name":"餐饮美食","address":"长宁区黄金城道856号(水城南路和古北南路之间)"},{"poiid":"B2094757D06BA1F5489B","title":"Dunkin Donuts(荣华西道店)","lon":"121.3936","lat":"31.19449","category":"67","category_name":"甜品店","address":"长宁区荣华西道99弄金马公寓1号101室(近水城南路)"},{"poiid":"B2094757D069AAF44192","title":"青叶台湾料理(长宁店)","lon":"121.39385","lat":"31.19426","category":"91","category_name":"台湾菜","address":"长宁区水城南路37号万科广场北楼2楼(近黄金城道)"},{"poiid":"B2094654D564A2FF499A","title":"和惠日式烧肉","lon":"121.39356","lat":"31.19453","category":"269","category_name":"烧烤","address":"长宁区水城南路37号万科广场1楼(近黄金城道)"},{"poiid":"B2094757D069A0FE4892","title":"巴黎贝甜(古北店)","lon":"121.39491","lat":"31.19273","category":"67","category_name":"甜品店","address":"长宁区水城南路12号(名都城对面)"},{"poiid":"B2094757D665A1FA419E","title":"彩寿司","lon":"121.393653054","lat":"31.194346793","category":"95","category_name":"日本料理","address":"长宁区水城南路17号万科广场2楼(近黄金城道)"},{"poiid":"B2094750D26EA3FF4698","title":"上雅铁板烧 长宁店 Julia Teppanyaki","lon":"121.39577541849","lat":"31.194540619812","category":"269","category_name":"烧烤","address":"长宁区黄金城道851号(近水城南路)"},{"poiid":"B2094757D06BA0F9459C","title":"爱康国宾体检中心(古北店)","lon":"121.39686","lat":"31.19264","category":"162","category_name":"医院","address":"长宁区翠钰路8号东森会馆5楼(近水城路)"},{"poiid":"B2094655D26FA1FE449D","title":"伊藤家(古北店)","lon":"121.39291","lat":"31.1936","category":"95","category_name":"日本料理","address":"长宁区荣华西道19弄金狮花园6号101室(近水城南路)"},{"poiid":"B2094757D46FA0F4439B","title":"二金堂拉面","lon":"121.395927","lat":"31.19513","category":"95","category_name":"日本料理","address":"长宁区黄金城道810号(近古北路)"},{"poiid":"B2094751D56EA3FB439F","title":"魔家Tokyo铁板(古北店)","lon":"121.39607","lat":"31.19414","category":"269","category_name":"烧烤","address":"长宁区荣华东道19弄4号云古酒店店公寓1楼4012-4013室(近水城南路)"},{"poiid":"B2094654D564A2F8469C","title":"香啡缤 黄金城道店 Coffee Bean&Tea Leaf","lon":"121.39444829068","lat":"31.194243094447","category":"247","category_name":"餐饮美食","address":"黄金城道915号近古北路"},{"poiid":"B2094655D26BA5FC4592","title":"芭斯罗缤冰淇淋","lon":"121.39449","lat":"31.19377","category":"113","category_name":"冷饮店","address":"长宁区水城南路18号(近荣华东道)"},{"poiid":"B2094757D665A5F5489C","title":"面包新语 古北店 Bread Talk","lon":"121.39373726464","lat":"31.19568173167","category":"112","category_name":"糕饼店","address":"长宁区水城南路268号家乐福古北购物中心1楼(延安西路口)"},{"poiid":"B2094757D664A3F8449E","title":"猫与爵士 CAT&JAZZ","lon":"121.397601054","lat":"31.194368793","category":"260","category_name":"其他","address":"长宁区荣华东道79弄马赛花园3号301室(近古北路)"},{"poiid":"B2094757D16BAAFC4393","title":"Nini Thai","lon":"121.395335786","lat":"31.1944600316","category":"99","category_name":"泰国／越南菜品餐厅","address":"长宁区水城南路37号3楼(近延安西路)"},{"poiid":"B2094654D564A2F94093","title":"STARBUCKS COFFEE(水城南路)","lon":"121.39446","lat":"31.1938","category":"65","category_name":"咖啡厅","address":"中国上海市長寧區水城南路20号"},{"poiid":"B2094654DB6BA7F9459A","title":"珈露梦咖啡 水城南路店 Carmo Specialty Coffee","lon":"121.393881054","lat":"31.194378793","category":"260","category_name":"其他","address":"长宁区水城南路28号(近黄金城道)"},{"poiid":"B2094655D26BA3FD4192","title":"艺林盲人按摩院古北店","lon":"121.395","lat":"31.19506","category":"149","category_name":"洗浴推拿场所","address":"长宁区荣华东道119弄巴黎花园4号101室(近水城南路)"},{"poiid":"B2094654D564A2F84999","title":"南海活鱼","lon":"121.397218","lat":"31.194359","category":"96","category_name":"韩国料理","address":"上海长宁区荣华东道60弄里昂花园2号(近古北路)  "},{"poiid":"B2094757D065A1FD4492","title":"二金堂","lon":"121.39640758","lat":"31.195499751","category":"500","category_name":"未知分类","address":"上海市长宁区古北新区黄金城道810号"},{"poiid":"B2094757D169A3F84698","title":"北海道扎幌拉面","lon":"121.396815586","lat":"31.1945497334","category":"247","category_name":"餐饮美食","address":"上海黄金城道810号"},{"poiid":"B2094655D265ABFD489B","title":"香港名都庄园","lon":"121.39464","lat":"31.19164","category":"76","category_name":"上海菜","address":"长宁区虹许路788号名都城内(近水城路)"},{"poiid":"B2094750D664AAF94492","title":"一龙居酒屋(古北店)","lon":"121.394","lat":"31.194","category":"95","category_name":"日本料理","address":"长宁区水城南路17号万科广场A37号(近黄金城道)"},{"poiid":"B2094757D76BA1F4489B","title":"八五八五韩式快餐","lon":"121.3940028","lat":"31.1937747","category":"68","category_name":"快餐厅","address":"长宁区水城南路29号(近荣华西道)"},{"poiid":"B2094757D56CABFD489D","title":"欧味多 古北家乐福店","lon":"121.393658054","lat":"31.195692793","category":"68","category_name":"快餐厅","address":"长宁区水城南路268号古北家乐福(近延安西路)"},{"poiid":"B2094757D068A6F4449D","title":"香港喜运来烧腊茶餐厅","lon":"121.39391958","lat":"31.193788718","category":"111","category_name":"休闲餐饮场所","address":"长宁区水城南路17号万科广场内(近古羊路)"},{"poiid":"B2094655D26EA5FD409F","title":"古北食堂","lon":"121.39792891545","lat":"31.193819107271","category":"95","category_name":"日本料理","address":"长宁区荣华东道90号古北太阳广场1楼101、103号(近古北路)"},{"poiid":"B2094654DB6BA7F9459E","title":"友莉米糕","lon":"121.397464054","lat":"31.195914793","category":"96","category_name":"韩国料理","address":"长宁区荣华东道60弄1号里昂花园1号(近古北路)"},{"poiid":"B2094757D169A3FC4993","title":"万贺面包","lon":"121.395789586","lat":"31.1923406902","category":"112","category_name":"糕饼店","address":"长宁区古羊路1050号(近翠钰路)"},{"poiid":"B2094757D66AA6F44792","title":"开心站 COCORU Chichen & ODEN","lon":"121.396395","lat":"31.193877","category":"96","category_name":"韩国料理","address":"长宁区翠钰路17号(近名都城)"},{"poiid":"B2094655D268A4F4469F","title":"维多利亚大厦F幢","lon":"121.39434","lat":"31.19576","category":"46","category_name":"楼宇","address":"荣华东道126-128"},{"poiid":"B2094757D06FA1FB4498","title":"千秋膳房(古北店)","lon":"121.39549","lat":"31.19448","category":"91","category_name":"台湾菜","address":"上海长宁区水城南路17号"},{"poiid":"B2094654DB64A6FF429C","title":"星巴克(古北店)","lon":"121.394189","lat":"31.193703","category":"260","category_name":"其他","address":"长宁区水城南路20号(黄金城道水城南路)"},{"poiid":"B2094757D068A1FF419B","title":"鹿港老镇","lon":"121.39703258","lat":"31.195483751","category":"500","category_name":"未知分类","address":"上海市长宁区黄金城道778号(古北路)"},{"poiid":"B2094757D06BABFE449C","title":"黄金城道","lon":"121.395090586","lat":"31.1946027344","category":"500","category_name":"未知分类","address":"上海黄金城道水城南路"},{"poiid":"B2094757D06FA2FB419C","title":"麦当劳(古北店)","lon":"121.39396","lat":"31.19584","category":"68","category_name":"快餐厅","address":"长宁区水城南路258号古北家乐福附近(近延安西路)"},{"poiid":"B2094654DB64AAF4419A","title":"华越楼No.1","lon":"121.39712","lat":"31.19486","category":"99","category_name":"泰国／越南菜品餐厅","address":"长宁区黄金城道781号(近古北路)"},{"poiid":"B2094757D069A1FE4093","title":"陵水酒家","lon":"121.39535","lat":"31.19536","category":"96","category_name":"韩国料理","address":"长宁区荣华东道119弄2号巴黎花园B楼107号(近水城南路)"},{"poiid":"B2094757D069ABFA439A","title":"もんじゃ鬼ぴ～","lon":"121.39527","lat":"31.19343","category":"95","category_name":"日本料理","address":"上海长宁区荣华东道19弄3号d室(近水城南路)"},{"poiid":"B2094654DB64A6FA4392","title":"Colabo 万科广场店","lon":"121.39355883409","lat":"31.194660683717","category":"94","category_name":"西餐厅","address":"长宁区水城南路37号万科广场北楼3楼(近黄金城道)"},{"poiid":"B2094757D66AAAFF4598","title":"涟波 SAZANAMI","lon":"121.39484837119","lat":"31.19537499377","category":"95","category_name":"日本料理","address":"长宁区荣华东道121号(近家乐福)"},{"poiid":"B2094757D069A1FE4693","title":"千秋小馆","lon":"121.39568658","lat":"31.192137686","category":"91","category_name":"台湾菜","address":"长宁区黄金城道887号(近水城南路)"},{"poiid":"B2094757D664A1F9459F","title":"万寿亭 古北店","lon":"121.3963","lat":"31.19385","category":"96","category_name":"韩国料理","address":"长宁区荣华东道19弄2号(近水城南路)"},{"poiid":"B2094654D564A2FF4893","title":"万科广场商务楼","lon":"121.39342","lat":"31.19465","category":"46","category_name":"楼宇","address":"河西区土城医院西侧"},{"poiid":"B2094757D06AA5FD4992","title":"里の水","lon":"121.39682","lat":"31.19424","category":"95","category_name":"日本料理","address":"长宁区荣华东道57弄1号102(近古北路)"},{"poiid":"B2094654D564A2F9409E","title":"函极博","lon":"121.39636","lat":"31.19426","category":"96","category_name":"韩国料理","address":"长宁区荣华东道60弄1号里昂花园内(近水城南路)"},{"poiid":"B2094757D06AA6F4469D","title":"名都城俱樂部","lon":"121.39438841","lat":"31.191833847","category":"260","category_name":"其他","address":"长宁区虹许路788号名都城内(近古羊路)"},{"poiid":"B2094757D068ABFC429E","title":"卡布拉蛋糕专卖店(古北店)","lon":"121.39712","lat":"31.19483","category":"67","category_name":"甜品店","address":"长宁区黄金城道818号(近古北路)"},{"poiid":"B2094757D665A1F54599","title":"纹兵卫 古北店","lon":"121.396817","lat":"31.193989","category":"95","category_name":"日本料理","address":"长宁区荣华东道57号里昂花园1号2号(近古北路)"},{"poiid":"B2094757D464A7FF4592","title":"伊豆日本烧肉","lon":"121.39578130603","lat":"31.194834981876","category":"247","category_name":"餐饮美食","address":"长宁区黄金城道856号(水城南路和古北南路之间)"},{"poiid":"B2094757D06BA1F5489B","title":"Dunkin Donuts(荣华西道店)","lon":"121.3936","lat":"31.19449","category":"67","category_name":"甜品店","address":"长宁区荣华西道99弄金马公寓1号101室(近水城南路)"},{"poiid":"B2094757D069AAF44192","title":"青叶台湾料理(长宁店)","lon":"121.39385","lat":"31.19426","category":"91","category_name":"台湾菜","address":"长宁区水城南路37号万科广场北楼2楼(近黄金城道)"},{"poiid":"B2094654D564A2FF499A","title":"和惠日式烧肉","lon":"121.39356","lat":"31.19453","category":"269","category_name":"烧烤","address":"长宁区水城南路37号万科广场1楼(近黄金城道)"},{"poiid":"B2094757D069A0FE4892","title":"巴黎贝甜(古北店)","lon":"121.39491","lat":"31.19273","category":"67","category_name":"甜品店","address":"长宁区水城南路12号(名都城对面)"},{"poiid":"B2094757D665A1FA419E","title":"彩寿司","lon":"121.393653054","lat":"31.194346793","category":"95","category_name":"日本料理","address":"长宁区水城南路17号万科广场2楼(近黄金城道)"},{"poiid":"B2094750D26EA3FF4698","title":"上雅铁板烧 长宁店 Julia Teppanyaki","lon":"121.39577541849","lat":"31.194540619812","category":"269","category_name":"烧烤","address":"长宁区黄金城道851号(近水城南路)"},{"poiid":"B2094757D06BA0F9459C","title":"爱康国宾体检中心(古北店)","lon":"121.39686","lat":"31.19264","category":"162","category_name":"医院","address":"长宁区翠钰路8号东森会馆5楼(近水城路)"},{"poiid":"B2094655D26FA1FE449D","title":"伊藤家(古北店)","lon":"121.39291","lat":"31.1936","category":"95","category_name":"日本料理","address":"长宁区荣华西道19弄金狮花园6号101室(近水城南路)"},{"poiid":"B2094757D46FA0F4439B","title":"二金堂拉面","lon":"121.395927","lat":"31.19513","category":"95","category_name":"日本料理","address":"长宁区黄金城道810号(近古北路)"},{"poiid":"B2094751D56EA3FB439F","title":"魔家Tokyo铁板(古北店)","lon":"121.39607","lat":"31.19414","category":"269","category_name":"烧烤","address":"长宁区荣华东道19弄4号云古酒店店公寓1楼4012-4013室(近水城南路)"},{"poiid":"B2094654D564A2F8469C","title":"香啡缤 黄金城道店 Coffee Bean&Tea Leaf","lon":"121.39444829068","lat":"31.194243094447","category":"247","category_name":"餐饮美食","address":"黄金城道915号近古北路"},{"poiid":"B2094655D26BA5FC4592","title":"芭斯罗缤冰淇淋","lon":"121.39449","lat":"31.19377","category":"113","category_name":"冷饮店","address":"长宁区水城南路18号(近荣华东道)"},{"poiid":"B2094757D665A5F5489C","title":"面包新语 古北店 Bread Talk","lon":"121.39373726464","lat":"31.19568173167","category":"112","category_name":"糕饼店","address":"长宁区水城南路268号家乐福古北购物中心1楼(延安西路口)"},{"poiid":"B2094757D664A3F8449E","title":"猫与爵士 CAT&JAZZ","lon":"121.397601054","lat":"31.194368793","category":"260","category_name":"其他","address":"长宁区荣华东道79弄马赛花园3号301室(近古北路)"},{"poiid":"B2094757D16BAAFC4393","title":"Nini Thai","lon":"121.395335786","lat":"31.1944600316","category":"99","category_name":"泰国／越南菜品餐厅","address":"长宁区水城南路37号3楼(近延安西路)"},{"poiid":"B2094654D564A2F94093","title":"STARBUCKS COFFEE(水城南路)","lon":"121.39446","lat":"31.1938","category":"65","category_name":"咖啡厅","address":"中国上海市長寧區水城南路20号"},{"poiid":"B2094654DB6BA7F9459A","title":"珈露梦咖啡 水城南路店 Carmo Specialty Coffee","lon":"121.393881054","lat":"31.194378793","category":"260","category_name":"其他","address":"长宁区水城南路28号(近黄金城道)"},{"poiid":"B2094655D26BA3FD4192","title":"艺林盲人按摩院古北店","lon":"121.395","lat":"31.19506","category":"149","category_name":"洗浴推拿场所","address":"长宁区荣华东道119弄巴黎花园4号101室(近水城南路)"},{"poiid":"B2094654D564A2F84999","title":"南海活鱼","lon":"121.397218","lat":"31.194359","category":"96","category_name":"韩国料理","address":"上海长宁区荣华东道60弄里昂花园2号(近古北路)  "},{"poiid":"B2094757D065A1FD4492","title":"二金堂","lon":"121.39640758","lat":"31.195499751","category":"500","category_name":"未知分类","address":"上海市长宁区古北新区黄金城道810号"},{"poiid":"B2094757D169A3F84698","title":"北海道扎幌拉面","lon":"121.396815586","lat":"31.1945497334","category":"247","category_name":"餐饮美食","address":"上海黄金城道810号"},{"poiid":"B2094655D265ABFD489B","title":"香港名都庄园","lon":"121.39464","lat":"31.19164","category":"76","category_name":"上海菜","address":"长宁区虹许路788号名都城内(近水城路)"},{"poiid":"B2094750D664AAF94492","title":"一龙居酒屋(古北店)","lon":"121.394","lat":"31.194","category":"95","category_name":"日本料理","address":"长宁区水城南路17号万科广场A37号(近黄金城道)"},{"poiid":"B2094757D76BA1F4489B","title":"八五八五韩式快餐","lon":"121.3940028","lat":"31.1937747","category":"68","category_name":"快餐厅","address":"长宁区水城南路29号(近荣华西道)"},{"poiid":"B2094757D56CABFD489D","title":"欧味多 古北家乐福店","lon":"121.393658054","lat":"31.195692793","category":"68","category_name":"快餐厅","address":"长宁区水城南路268号古北家乐福(近延安西路)"},{"poiid":"B2094757D068A6F4449D","title":"香港喜运来烧腊茶餐厅","lon":"121.39391958","lat":"31.193788718","category":"111","category_name":"休闲餐饮场所","address":"长宁区水城南路17号万科广场内(近古羊路)"},{"poiid":"B2094655D26EA5FD409F","title":"古北食堂","lon":"121.39792891545","lat":"31.193819107271","category":"95","category_name":"日本料理","address":"长宁区荣华东道90号古北太阳广场1楼101、103号(近古北路)"},{"poiid":"B2094654DB6BA7F9459E","title":"友莉米糕","lon":"121.397464054","lat":"31.195914793","category":"96","category_name":"韩国料理","address":"长宁区荣华东道60弄1号里昂花园1号(近古北路)"},{"poiid":"B2094757D169A3FC4993","title":"万贺面包","lon":"121.395789586","lat":"31.1923406902","category":"112","category_name":"糕饼店","address":"长宁区古羊路1050号(近翠钰路)"},{"poiid":"B2094757D66AA6F44792","title":"开心站 COCORU Chichen & ODEN","lon":"121.396395","lat":"31.193877","category":"96","category_name":"韩国料理","address":"长宁区翠钰路17号(近名都城)"},{"poiid":"B2094655D268A4F4469F","title":"维多利亚大厦F幢","lon":"121.39434","lat":"31.19576","category":"46","category_name":"楼宇","address":"荣华东道126-128"},{"poiid":"B2094757D06FA1FB4498","title":"千秋膳房(古北店)","lon":"121.39549","lat":"31.19448","category":"91","category_name":"台湾菜","address":"上海长宁区水城南路17号"},{"poiid":"B2094654DB64A6FF429C","title":"星巴克(古北店)","lon":"121.394189","lat":"31.193703","category":"260","category_name":"其他","address":"长宁区水城南路20号(黄金城道水城南路)"},{"poiid":"B2094757D068A1FF419B","title":"鹿港老镇","lon":"121.39703258","lat":"31.195483751","category":"500","category_name":"未知分类","address":"上海市长宁区黄金城道778号(古北路)"},{"poiid":"B2094757D06BABFE449C","title":"黄金城道","lon":"121.395090586","lat":"31.1946027344","category":"500","category_name":"未知分类","address":"上海黄金城道水城南路"},{"poiid":"B2094757D06FA2FB419C","title":"麦当劳(古北店)","lon":"121.39396","lat":"31.19584","category":"68","category_name":"快餐厅","address":"长宁区水城南路258号古北家乐福附近(近延安西路)"},{"poiid":"B2094654DB64AAF4419A","title":"华越楼No.1","lon":"121.39712","lat":"31.19486","category":"99","category_name":"泰国／越南菜品餐厅","address":"长宁区黄金城道781号(近古北路)"},{"poiid":"B2094757D069A1FE4093","title":"陵水酒家","lon":"121.39535","lat":"31.19536","category":"96","category_name":"韩国料理","address":"长宁区荣华东道119弄2号巴黎花园B楼107号(近水城南路)"},{"poiid":"B2094757D069ABFA439A","title":"もんじゃ鬼ぴ～","lon":"121.39527","lat":"31.19343","category":"95","category_name":"日本料理","address":"上海长宁区荣华东道19弄3号d室(近水城南路)"},{"poiid":"B2094654DB64A6FA4392","title":"Colabo 万科广场店","lon":"121.39355883409","lat":"31.194660683717","category":"94","category_name":"西餐厅","address":"长宁区水城南路37号万科广场北楼3楼(近黄金城道)"},{"poiid":"B2094757D66AAAFF4598","title":"涟波 SAZANAMI","lon":"121.39484837119","lat":"31.19537499377","category":"95","category_name":"日本料理","address":"长宁区荣华东道121号(近家乐福)"},{"poiid":"B2094757D069A1FE4693","title":"千秋小馆","lon":"121.39568658","lat":"31.192137686","category":"91","category_name":"台湾菜","address":"长宁区黄金城道887号(近水城南路)"},{"poiid":"B2094757D664A1F9459F","title":"万寿亭 古北店","lon":"121.3963","lat":"31.19385","category":"96","category_name":"韩国料理","address":"长宁区荣华东道19弄2号(近水城南路)"},{"poiid":"B2094654D564A2FF4893","title":"万科广场商务楼","lon":"121.39342","lat":"31.19465","category":"46","category_name":"楼宇","address":"河西区土城医院西侧"},{"poiid":"B2094757D06AA5FD4992","title":"里の水","lon":"121.39682","lat":"31.19424","category":"95","category_name":"日本料理","address":"长宁区荣华东道57弄1号102(近古北路)"},{"poiid":"B2094654D564A2F9409E","title":"函极博","lon":"121.39636","lat":"31.19426","category":"96","category_name":"韩国料理","address":"长宁区荣华东道60弄1号里昂花园内(近水城南路)"},{"poiid":"B2094757D06AA6F4469D","title":"名都城俱樂部","lon":"121.39438841","lat":"31.191833847","category":"260","category_name":"其他","address":"长宁区虹许路788号名都城内(近古羊路)"},{"poiid":"B2094757D068ABFC429E","title":"卡布拉蛋糕专卖店(古北店)","lon":"121.39712","lat":"31.19483","category":"67","category_name":"甜品店","address":"长宁区黄金城道818号(近古北路)"},{"poiid":"B2094757D665A1F54599","title":"纹兵卫 古北店","lon":"121.396817","lat":"31.193989","category":"95","category_name":"日本料理","address":"长宁区荣华东道57号里昂花园1号2号(近古北路)"},{"poiid":"B2094757D464A7FF4592","title":"伊豆日本烧肉","lon":"121.39578130603","lat":"31.194834981876","category":"247","category_name":"餐饮美食","address":"长宁区黄金城道856号(水城南路和古北南路之间)"},{"poiid":"B2094757D06BA1F5489B","title":"Dunkin Donuts(荣华西道店)","lon":"121.3936","lat":"31.19449","category":"67","category_name":"甜品店","address":"长宁区荣华西道99弄金马公寓1号101室(近水城南路)"},{"poiid":"B2094757D069AAF44192","title":"青叶台湾料理(长宁店)","lon":"121.39385","lat":"31.19426","category":"91","category_name":"台湾菜","address":"长宁区水城南路37号万科广场北楼2楼(近黄金城道)"},{"poiid":"B2094654D564A2FF499A","title":"和惠日式烧肉","lon":"121.39356","lat":"31.19453","category":"269","category_name":"烧烤","address":"长宁区水城南路37号万科广场1楼(近黄金城道)"},{"poiid":"B2094757D069A0FE4892","title":"巴黎贝甜(古北店)","lon":"121.39491","lat":"31.19273","category":"67","category_name":"甜品店","address":"长宁区水城南路12号(名都城对面)"},{"poiid":"B2094757D665A1FA419E","title":"彩寿司","lon":"121.393653054","lat":"31.194346793","category":"95","category_name":"日本料理","address":"长宁区水城南路17号万科广场2楼(近黄金城道)"},{"poiid":"B2094750D26EA3FF4698","title":"上雅铁板烧 长宁店 Julia Teppanyaki","lon":"121.39577541849","lat":"31.194540619812","category":"269","category_name":"烧烤","address":"长宁区黄金城道851号(近水城南路)"},{"poiid":"B2094757D06BA0F9459C","title":"爱康国宾体检中心(古北店)","lon":"121.39686","lat":"31.19264","category":"162","category_name":"医院","address":"长宁区翠钰路8号东森会馆5楼(近水城路)"},{"poiid":"B2094655D26FA1FE449D","title":"伊藤家(古北店)","lon":"121.39291","lat":"31.1936","category":"95","category_name":"日本料理","address":"长宁区荣华西道19弄金狮花园6号101室(近水城南路)"},{"poiid":"B2094757D46FA0F4439B","title":"二金堂拉面","lon":"121.395927","lat":"31.19513","category":"95","category_name":"日本料理","address":"长宁区黄金城道810号(近古北路)"},{"poiid":"B2094751D56EA3FB439F","title":"魔家Tokyo铁板(古北店)","lon":"121.39607","lat":"31.19414","category":"269","category_name":"烧烤","address":"长宁区荣华东道19弄4号云古酒店店公寓1楼4012-4013室(近水城南路)"},{"poiid":"B2094654D564A2F8469C","title":"香啡缤 黄金城道店 Coffee Bean&Tea Leaf","lon":"121.39444829068","lat":"31.194243094447","category":"247","category_name":"餐饮美食","address":"黄金城道915号近古北路"},{"poiid":"B2094655D26BA5FC4592","title":"芭斯罗缤冰淇淋","lon":"121.39449","lat":"31.19377","category":"113","category_name":"冷饮店","address":"长宁区水城南路18号(近荣华东道)"},{"poiid":"B2094757D665A5F5489C","title":"面包新语 古北店 Bread Talk","lon":"121.39373726464","lat":"31.19568173167","category":"112","category_name":"糕饼店","address":"长宁区水城南路268号家乐福古北购物中心1楼(延安西路口)"},{"poiid":"B2094757D664A3F8449E","title":"猫与爵士 CAT&JAZZ","lon":"121.397601054","lat":"31.194368793","category":"260","category_name":"其他","address":"长宁区荣华东道79弄马赛花园3号301室(近古北路)"},{"poiid":"B2094757D16BAAFC4393","title":"Nini Thai","lon":"121.395335786","lat":"31.1944600316","category":"99","category_name":"泰国／越南菜品餐厅","address":"长宁区水城南路37号3楼(近延安西路)"},{"poiid":"B2094654D564A2F94093","title":"STARBUCKS COFFEE(水城南路)","lon":"121.39446","lat":"31.1938","category":"65","category_name":"咖啡厅","address":"中国上海市長寧區水城南路20号"},{"poiid":"B2094654DB6BA7F9459A","title":"珈露梦咖啡 水城南路店 Carmo Specialty Coffee","lon":"121.393881054","lat":"31.194378793","category":"260","category_name":"其他","address":"长宁区水城南路28号(近黄金城道)"},{"poiid":"B2094655D26BA3FD4192","title":"艺林盲人按摩院古北店","lon":"121.395","lat":"31.19506","category":"149","category_name":"洗浴推拿场所","address":"长宁区荣华东道119弄巴黎花园4号101室(近水城南路)"},{"poiid":"B2094654D564A2F84999","title":"南海活鱼","lon":"121.397218","lat":"31.194359","category":"96","category_name":"韩国料理","address":"上海长宁区荣华东道60弄里昂花园2号(近古北路)  "},{"poiid":"B2094757D065A1FD4492","title":"二金堂","lon":"121.39640758","lat":"31.195499751","category":"500","category_name":"未知分类","address":"上海市长宁区古北新区黄金城道810号"},{"poiid":"B2094757D169A3F84698","title":"北海道扎幌拉面","lon":"121.396815586","lat":"31.1945497334","category":"247","category_name":"餐饮美食","address":"上海黄金城道810号"},{"poiid":"B2094655D265ABFD489B","title":"香港名都庄园","lon":"121.39464","lat":"31.19164","category":"76","category_name":"上海菜","address":"长宁区虹许路788号名都城内(近水城路)"},{"poiid":"B2094750D664AAF94492","title":"一龙居酒屋(古北店)","lon":"121.394","lat":"31.194","category":"95","category_name":"日本料理","address":"长宁区水城南路17号万科广场A37号(近黄金城道)"},{"poiid":"B2094757D76BA1F4489B","title":"八五八五韩式快餐","lon":"121.3940028","lat":"31.1937747","category":"68","category_name":"快餐厅","address":"长宁区水城南路29号(近荣华西道)"},{"poiid":"B2094757D56CABFD489D","title":"欧味多 古北家乐福店","lon":"121.393658054","lat":"31.195692793","category":"68","category_name":"快餐厅","address":"长宁区水城南路268号古北家乐福(近延安西路)"},{"poiid":"B2094757D068A6F4449D","title":"香港喜运来烧腊茶餐厅","lon":"121.39391958","lat":"31.193788718","category":"111","category_name":"休闲餐饮场所","address":"长宁区水城南路17号万科广场内(近古羊路)"},{"poiid":"B2094655D26EA5FD409F","title":"古北食堂","lon":"121.39792891545","lat":"31.193819107271","category":"95","category_name":"日本料理","address":"长宁区荣华东道90号古北太阳广场1楼101、103号(近古北路)"},{"poiid":"B2094654DB6BA7F9459E","title":"友莉米糕","lon":"121.397464054","lat":"31.195914793","category":"96","category_name":"韩国料理","address":"长宁区荣华东道60弄1号里昂花园1号(近古北路)"},{"poiid":"B2094757D169A3FC4993","title":"万贺面包","lon":"121.395789586","lat":"31.1923406902","category":"112","category_name":"糕饼店","address":"长宁区古羊路1050号(近翠钰路)"},{"poiid":"B2094757D66AA6F44792","title":"开心站 COCORU Chichen & ODEN","lon":"121.396395","lat":"31.193877","category":"96","category_name":"韩国料理","address":"长宁区翠钰路17号(近名都城)"},{"poiid":"B2094655D268A4F4469F","title":"维多利亚大厦F幢","lon":"121.39434","lat":"31.19576","category":"46","category_name":"楼宇","address":"荣华东道126-128"},{"poiid":"B2094757D06FA1FB4498","title":"千秋膳房(古北店)","lon":"121.39549","lat":"31.19448","category":"91","category_name":"台湾菜","address":"上海长宁区水城南路17号"},{"poiid":"B2094654DB64A6FF429C","title":"星巴克(古北店)","lon":"121.394189","lat":"31.193703","category":"260","category_name":"其他","address":"长宁区水城南路20号(黄金城道水城南路)"},{"poiid":"B2094757D068A1FF419B","title":"鹿港老镇","lon":"121.39703258","lat":"31.195483751","category":"500","category_name":"未知分类","address":"上海市长宁区黄金城道778号(古北路)"},{"poiid":"B2094757D06BABFE449C","title":"黄金城道","lon":"121.395090586","lat":"31.1946027344","category":"500","category_name":"未知分类","address":"上海黄金城道水城南路"},{"poiid":"B2094757D06FA2FB419C","title":"麦当劳(古北店)","lon":"121.39396","lat":"31.19584","category":"68","category_name":"快餐厅","address":"长宁区水城南路258号古北家乐福附近(近延安西路)"},{"poiid":"B2094654DB64AAF4419A","title":"华越楼No.1","lon":"121.39712","lat":"31.19486","category":"99","category_name":"泰国／越南菜品餐厅","address":"长宁区黄金城道781号(近古北路)"},{"poiid":"B2094757D069A1FE4093","title":"陵水酒家","lon":"121.39535","lat":"31.19536","category":"96","category_name":"韩国料理","address":"长宁区荣华东道119弄2号巴黎花园B楼107号(近水城南路)"},{"poiid":"B2094757D069ABFA439A","title":"もんじゃ鬼ぴ～","lon":"121.39527","lat":"31.19343","category":"95","category_name":"日本料理","address":"上海长宁区荣华东道19弄3号d室(近水城南路)"},{"poiid":"B2094654DB64A6FA4392","title":"Colabo 万科广场店","lon":"121.39355883409","lat":"31.194660683717","category":"94","category_name":"西餐厅","address":"长宁区水城南路37号万科广场北楼3楼(近黄金城道)"},{"poiid":"B2094757D66AAAFF4598","title":"涟波 SAZANAMI","lon":"121.39484837119","lat":"31.19537499377","category":"95","category_name":"日本料理","address":"长宁区荣华东道121号(近家乐福)"},{"poiid":"B2094757D069A1FE4693","title":"千秋小馆","lon":"121.39568658","lat":"31.192137686","category":"91","category_name":"台湾菜","address":"长宁区黄金城道887号(近水城南路)"},{"poiid":"B2094757D664A1F9459F","title":"万寿亭 古北店","lon":"121.3963","lat":"31.19385","category":"96","category_name":"韩国料理","address":"长宁区荣华东道19弄2号(近水城南路)"},{"poiid":"B2094654D564A2FF4893","title":"万科广场商务楼","lon":"121.39342","lat":"31.19465","category":"46","category_name":"楼宇","address":"河西区土城医院西侧"},{"poiid":"B2094757D06AA5FD4992","title":"里の水","lon":"121.39682","lat":"31.19424","category":"95","category_name":"日本料理","address":"长宁区荣华东道57弄1号102(近古北路)"},{"poiid":"B2094654D564A2F9409E","title":"函极博","lon":"121.39636","lat":"31.19426","category":"96","category_name":"韩国料理","address":"长宁区荣华东道60弄1号里昂花园内(近水城南路)"},{"poiid":"B2094757D06AA6F4469D","title":"名都城俱樂部","lon":"121.39438841","lat":"31.191833847","category":"260","category_name":"其他","address":"长宁区虹许路788号名都城内(近古羊路)"},{"poiid":"B2094757D068ABFC429E","title":"卡布拉蛋糕专卖店(古北店)","lon":"121.39712","lat":"31.19483","category":"67","category_name":"甜品店","address":"长宁区黄金城道818号(近古北路)"},{"poiid":"B2094757D665A1F54599","title":"纹兵卫 古北店","lon":"121.396817","lat":"31.193989","category":"95","category_name":"日本料理","address":"长宁区荣华东道57号里昂花园1号2号(近古北路)"},{"poiid":"B2094757D464A7FF4592","title":"伊豆日本烧肉","lon":"121.39578130603","lat":"31.194834981876","category":"247","category_name":"餐饮美食","address":"长宁区黄金城道856号(水城南路和古北南路之间)"},{"poiid":"B2094757D06BA1F5489B","title":"Dunkin Donuts(荣华西道店)","lon":"121.3936","lat":"31.19449","category":"67","category_name":"甜品店","address":"长宁区荣华西道99弄金马公寓1号101室(近水城南路)"},{"poiid":"B2094757D069AAF44192","title":"青叶台湾料理(长宁店)","lon":"121.39385","lat":"31.19426","category":"91","category_name":"台湾菜","address":"长宁区水城南路37号万科广场北楼2楼(近黄金城道)"},{"poiid":"B2094654D564A2FF499A","title":"和惠日式烧肉","lon":"121.39356","lat":"31.19453","category":"269","category_name":"烧烤","address":"长宁区水城南路37号万科广场1楼(近黄金城道)"},{"poiid":"B2094757D069A0FE4892","title":"巴黎贝甜(古北店)","lon":"121.39491","lat":"31.19273","category":"67","category_name":"甜品店","address":"长宁区水城南路12号(名都城对面)"},{"poiid":"B2094757D665A1FA419E","title":"彩寿司","lon":"121.393653054","lat":"31.194346793","category":"95","category_name":"日本料理","address":"长宁区水城南路17号万科广场2楼(近黄金城道)"},{"poiid":"B2094750D26EA3FF4698","title":"上雅铁板烧 长宁店 Julia Teppanyaki","lon":"121.39577541849","lat":"31.194540619812","category":"269","category_name":"烧烤","address":"长宁区黄金城道851号(近水城南路)"},{"poiid":"B2094757D06BA0F9459C","title":"爱康国宾体检中心(古北店)","lon":"121.39686","lat":"31.19264","category":"162","category_name":"医院","address":"长宁区翠钰路8号东森会馆5楼(近水城路)"},{"poiid":"B2094655D26FA1FE449D","title":"伊藤家(古北店)","lon":"121.39291","lat":"31.1936","category":"95","category_name":"日本料理","address":"长宁区荣华西道19弄金狮花园6号101室(近水城南路)"},{"poiid":"B2094757D46FA0F4439B","title":"二金堂拉面","lon":"121.395927","lat":"31.19513","category":"95","category_name":"日本料理","address":"长宁区黄金城道810号(近古北路)"},{"poiid":"B2094751D56EA3FB439F","title":"魔家Tokyo铁板(古北店)","lon":"121.39607","lat":"31.19414","category":"269","category_name":"烧烤","address":"长宁区荣华东道19弄4号云古酒店店公寓1楼4012-4013室(近水城南路)"},{"poiid":"B2094654D564A2F8469C","title":"香啡缤 黄金城道店 Coffee Bean&Tea Leaf","lon":"121.39444829068","lat":"31.194243094447","category":"247","category_name":"餐饮美食","address":"黄金城道915号近古北路"},{"poiid":"B2094655D26BA5FC4592","title":"芭斯罗缤冰淇淋","lon":"121.39449","lat":"31.19377","category":"113","category_name":"冷饮店","address":"长宁区水城南路18号(近荣华东道)"},{"poiid":"B2094757D665A5F5489C","title":"面包新语 古北店 Bread Talk","lon":"121.39373726464","lat":"31.19568173167","category":"112","category_name":"糕饼店","address":"长宁区水城南路268号家乐福古北购物中心1楼(延安西路口)"},{"poiid":"B2094757D664A3F8449E","title":"猫与爵士 CAT&JAZZ","lon":"121.397601054","lat":"31.194368793","category":"260","category_name":"其他","address":"长宁区荣华东道79弄马赛花园3号301室(近古北路)"},{"poiid":"B2094757D16BAAFC4393","title":"Nini Thai","lon":"121.395335786","lat":"31.1944600316","category":"99","category_name":"泰国／越南菜品餐厅","address":"长宁区水城南路37号3楼(近延安西路)"},{"poiid":"B2094654D564A2F94093","title":"STARBUCKS COFFEE(水城南路)","lon":"121.39446","lat":"31.1938","category":"65","category_name":"咖啡厅","address":"中国上海市長寧區水城南路20号"},{"poiid":"B2094654DB6BA7F9459A","title":"珈露梦咖啡 水城南路店 Carmo Specialty Coffee","lon":"121.393881054","lat":"31.194378793","category":"260","category_name":"其他","address":"长宁区水城南路28号(近黄金城道)"},{"poiid":"B2094655D26BA3FD4192","title":"艺林盲人按摩院古北店","lon":"121.395","lat":"31.19506","category":"149","category_name":"洗浴推拿场所","address":"长宁区荣华东道119弄巴黎花园4号101室(近水城南路)"},{"poiid":"B2094654D564A2F84999","title":"南海活鱼","lon":"121.397218","lat":"31.194359","category":"96","category_name":"韩国料理","address":"上海长宁区荣华东道60弄里昂花园2号(近古北路)  "},{"poiid":"B2094757D065A1FD4492","title":"二金堂","lon":"121.39640758","lat":"31.195499751","category":"500","category_name":"未知分类","address":"上海市长宁区古北新区黄金城道810号"},{"poiid":"B2094757D169A3F84698","title":"北海道扎幌拉面","lon":"121.396815586","lat":"31.1945497334","category":"247","category_name":"餐饮美食","address":"上海黄金城道810号"},{"poiid":"B2094655D265ABFD489B","title":"香港名都庄园","lon":"121.39464","lat":"31.19164","category":"76","category_name":"上海菜","address":"长宁区虹许路788号名都城内(近水城路)"},{"poiid":"B2094750D664AAF94492","title":"一龙居酒屋(古北店)","lon":"121.394","lat":"31.194","category":"95","category_name":"日本料理","address":"长宁区水城南路17号万科广场A37号(近黄金城道)"},{"poiid":"B2094757D76BA1F4489B","title":"八五八五韩式快餐","lon":"121.3940028","lat":"31.1937747","category":"68","category_name":"快餐厅","address":"长宁区水城南路29号(近荣华西道)"},{"poiid":"B2094757D56CABFD489D","title":"欧味多 古北家乐福店","lon":"121.393658054","lat":"31.195692793","category":"68","category_name":"快餐厅","address":"长宁区水城南路268号古北家乐福(近延安西路)"},{"poiid":"B2094757D068A6F4449D","title":"香港喜运来烧腊茶餐厅","lon":"121.39391958","lat":"31.193788718","category":"111","category_name":"休闲餐饮场所","address":"长宁区水城南路17号万科广场内(近古羊路)"},{"poiid":"B2094655D26EA5FD409F","title":"古北食堂","lon":"121.39792891545","lat":"31.193819107271","category":"95","category_name":"日本料理","address":"长宁区荣华东道90号古北太阳广场1楼101、103号(近古北路)"},{"poiid":"B2094654DB6BA7F9459E","title":"友莉米糕","lon":"121.397464054","lat":"31.195914793","category":"96","category_name":"韩国料理","address":"长宁区荣华东道60弄1号里昂花园1号(近古北路)"},{"poiid":"B2094757D169A3FC4993","title":"万贺面包","lon":"121.395789586","lat":"31.1923406902","category":"112","category_name":"糕饼店","address":"长宁区古羊路1050号(近翠钰路)"},{"poiid":"B2094757D66AA6F44792","title":"开心站 COCORU Chichen & ODEN","lon":"121.396395","lat":"31.193877","category":"96","category_name":"韩国料理","address":"长宁区翠钰路17号(近名都城)"},{"poiid":"B2094655D268A4F4469F","title":"维多利亚大厦F幢","lon":"121.39434","lat":"31.19576","category":"46","category_name":"楼宇","address":"荣华东道126-128"}]