[{"poiid":"B2094655D36DA6FC439C","title":"柘林","lon":"121.47497","lat":"30.82637","category":"38","category_name":"公交车站","address":""},{"poiid":"B2094654DB69A7F5479C","title":"海岸景苑","lon":"121.47855","lat":"30.830198","category":"47","category_name":"住宅区","address":"奉贤区新柘东路99弄"},{"poiid":"B2094757D66EA2F54492","title":"柘林(沪杭公路新柘中路)站(莘海,浦卫,西卫)","lon":"121.472603984","lat":"30.8294740372","category":"38","category_name":"公交车站","address":"上海奉贤区沪杭公路新柘中路"},{"poiid":"B2094654DB68AAF84798","title":"奉贤区拓林镇文化广播电视中心","lon":"121.47934","lat":"30.83084","category":"252","category_name":"楼宇机构","address":"新柘中路"},{"poiid":"B2094654DB65A6F8449B","title":"柘林学校","lon":"121.47506","lat":"30.82887","category":"55","category_name":"中学","address":"奉贤区钦林南路101号"},{"poiid":"B2094654DB68AAF8489E","title":"奉贤区拓林学校","lon":"121.4749","lat":"30.82919","category":"55","category_name":"中学","address":""},{"poiid":"B2094654DB68AAF8479D","title":"目华新村","lon":"121.46988","lat":"30.829157","category":"47","category_name":"住宅区","address":"苍工路158弄"},{"poiid":"B2094654DB68AAF8489A","title":"拓林影剧院","lon":"121.47375","lat":"30.830787","category":"178","category_name":"电影院","address":"钦林北路"},{"poiid":"B2094757D569A6F8469D","title":"海韵馨苑","lon":"121.48911702","lat":"30.83847656","category":"47","category_name":"住宅区","address":"联业路859弄(环城东路路口)"},{"poiid":"B2094654DB69A7FB4898","title":"中国联通上海公司柘林邮政支局代售点","lon":"121.47367","lat":"30.82965","category":"151","category_name":"电讯营业厅","address":"奉贤区柘林镇"},{"poiid":"B2094655D36CA6F8429B","title":"冯桥招呼站","lon":"121.47381","lat":"30.82545","category":"38","category_name":"公交车站","address":""},{"poiid":"B2094757D568A7F4419C","title":"上海新空间(东门)","lon":"121.47305854","lat":"30.8268929","category":"47","category_name":"住宅区","address":"中国上海市奉贤区"},{"poiid":"B2094757D568A1F8429C","title":"海韵馨苑(西北门)","lon":"121.48852024","lat":"30.8386122","category":"47","category_name":"住宅区","address":"中国上海市奉贤区"},{"poiid":"B2094757D568ABF5459F","title":"柘林镇社区文化活动中心","lon":"121.48862033","lat":"30.83666802","category":"248","category_name":"生活娱乐","address":"中国上海市奉贤区"},{"poiid":"B2094757D065AAFD4099","title":"华理图书馆老地方","lon":"121.498347","lat":"30.82943","category":"181","category_name":"图书馆","address":"上海海思路999号"},{"poiid":"B2094655D26FA6FB479E","title":"华东理工大学(西南门)","lon":"121.49834","lat":"30.82942","category":"52","category_name":"高等院校","address":""},{"poiid":"B2094654DB68A0FB439F","title":"营房社区文明苑","lon":"121.49617","lat":"30.83514","category":"47","category_name":"住宅区","address":""},{"poiid":"B2094757D16DA6FA4598","title":"华东理工大学奉贤校区信息中心","lon":"121.49835","lat":"30.829425","category":"500","category_name":"未知分类","address":"上海海思路999号"},{"poiid":"B2094654DB68AAF8499B","title":"上海奉贤海光门窗有限公司","lon":"121.47276","lat":"30.8238","category":"263","category_name":"公司","address":""},{"poiid":"B2094654DB68A7FE4099","title":"上海柘林水电设备制造有限公司分公司","lon":"121.47178","lat":"30.83445","category":"263","category_name":"公司","address":""},{"poiid":"B2094757D16AA2FC499F","title":"华东理工大学奉贤校区8号楼214室靠门上铺","lon":"121.49702818","lat":"30.836167862","category":"500","category_name":"未知分类","address":"上海奉贤区海思路999号楼号楼214室"},{"poiid":"B2094757DA64A6F44699","title":"华东理工大学图书馆五楼","lon":"121.50002","lat":"30.833127","category":"253","category_name":"校园生活","address":"华东理工大学"},{"poiid":"B2094757D66DA7FE4393","title":"华东理工大学健身房","lon":"121.50177018","lat":"30.831133745","category":"148","category_name":"美容美发店","address":"上海市奉贤区海思路999号"},{"poiid":"B2094654DB68A0FB4399","title":"好心情便利店","lon":"121.49891","lat":"30.83677","category":"117","category_name":"便民商店/便利店","address":""},{"poiid":"B2094753D66BA5F4459A","title":"也是虎兔兔的家","lon":"121.484916","lat":"30.845735","category":"247","category_name":"餐饮美食","address":"上海市 奉贤区柘林镇华亭村"},{"poiid":"B2094757DA64A6FB4298","title":"上师大玉兰苑食堂","lon":"121.4958952","lat":"30.8421292","category":"253","category_name":"校园生活","address":"上师大玉兰"},{"poiid":"B2094655D26BA5FB4593","title":"环城东路浦东铁路A4跨线桥","lon":"121.48577","lat":"30.84598","category":"250","category_name":"公园户外","address":""},{"poiid":"B2094752D66AA2FC4493","title":"伊卡斯特皇家理工大学","lon":"121.503506","lat":"30.832135","category":"253","category_name":"校园生活","address":"上海市奉贤区海思路999号"},{"poiid":"B209475CD66DA4F4429C","title":"华东理工大学奉贤校区","lon":"121.50212","lat":"30.836917","category":"500","category_name":"未知分类","address":"上海市 上海市海思路999号"},{"poiid":"B2094757D16DAAFA419E","title":"心情摩天轮","lon":"121.49657278","lat":"30.843334419","category":"500","category_name":"未知分类","address":null},{"poiid":"B2094757D568A7F44698","title":"沈慧宾馆","lon":"121.50192518","lat":"30.82531142","category":"251","category_name":"出行住宿","address":"海思路598号"}]