[{"poiid":"B2094751D26BA1FF409B","title":"东方医院南院","lon":"121.5057716","lat":"31.1514706","category":"500","category_name":"未知分类","address":"浦东新区云台路1800号"},{"poiid":"B2094757D06FA2FF4899","title":"卜蜂莲花(上南路店)","lon":"121.50367","lat":"31.15501","category":"118","category_name":"超级市场","address":"浦东新区上南路3521号宝丰综合市场内(近高青路)"},{"poiid":"B2094757D06FA7FC4998","title":"高青路地铁站","lon":"121.516038","lat":"31.15964","category":"36","category_name":"地铁站","address":"上海轨道交通 六号线 轨交高青路站 6"},{"poiid":"B2094757D06FA2FF4992","title":"上南路地铁站","lon":"121.50706092","lat":"31.148490295","category":"36","category_name":"地铁站","address":"上海轨道交通 六号线 轨交上南路站 6"},{"poiid":"B2094757D16DA0F5479E","title":"五玠坊","lon":"121.517499738","lat":"31.154644691","category":"500","category_name":"未知分类","address":"上海市浦东新区高青路"},{"poiid":"B2094757D06FA7F8419F","title":"华夏西路地铁站","lon":"121.51434569","lat":"31.1498461","category":"36","category_name":"地铁站","address":"上海轨道交通 六号线 轨交华夏西路站 6"},{"poiid":"B2094757D068A7FD4192","title":"瀚城国际","lon":"121.50944614","lat":"31.154728049","category":"46","category_name":"楼宇","address":"上海云台路1000号"},{"poiid":"B2094757D06FA0FA479D","title":"一兆韦德(尚东国际)","lon":"121.51389","lat":"31.16322","category":"221","category_name":"健身中心","address":"上海浦东新区东明路1800弄16号尚东国际名园(近板泉路)"},{"poiid":"B2094757D66CA0F4469C","title":"博学家园","lon":"121.51893","lat":"31.156414","category":"500","category_name":"未知分类","address":"上海杨南路1899弄"},{"poiid":"B2094757D06FABF54792","title":"尚东国际名苑一期","lon":"121.510328552","lat":"31.1636018774","category":"47","category_name":"住宅区","address":"上海市浦东新区板泉路1555弄"},{"poiid":"B2094757D068A5F4409A","title":"绿茵苑浦东","lon":"121.508","lat":"31.1566","category":"47","category_name":"住宅区","address":"上海杨南路694弄"},{"poiid":"B2094757D06FA5FB439D","title":"恒大翰城瀚林苑","lon":"121.506578","lat":"31.149811","category":"47","category_name":"住宅区","address":"上海上南路3899弄"},{"poiid":"B2094757D06FA2FD4199","title":"中环线","lon":"121.51643371","lat":"31.151668548","category":"500","category_name":"未知分类","address":"上海上南路，华夏西路"},{"poiid":"B2094655D36CA2F54192","title":"上南路杨南路","lon":"121.50548","lat":"31.15076","category":"38","category_name":"公交车站","address":"上海上南路3881弄"},{"poiid":"B2094655D26DA0FA4198","title":"恒大翰城瀚锦苑","lon":"121.51128","lat":"31.15137","category":"47","category_name":"住宅区","address":"恒大翰城(瀚锦苑)位于浦东上南路3895号"},{"poiid":"B2094757D069A2FF429F","title":"吉利名苑","lon":"121.5072","lat":"31.159323","category":"47","category_name":"住宅区","address":"上海市浦东新区海阳路1125号"},{"poiid":"B2094757D66DA4FC439A","title":"大桶大足浴","lon":"121.506003738","lat":"31.1548136946","category":"500","category_name":"未知分类","address":"浦东新区高青路(近上南路)"},{"poiid":"B2094655D36CA2F5409D","title":"上南路华夏西路","lon":"121.50525","lat":"31.15118","category":"38","category_name":"公交车站","address":""},{"poiid":"B2094654DB64A1FB4298","title":"尚东国际名园Ⅱ","lon":"121.51292","lat":"31.16119","category":"47","category_name":"住宅区","address":""},{"poiid":"B2094654DB64A6FB4199","title":"汉庭快捷(上南店)","lon":"121.50659","lat":"31.15104","category":"216","category_name":"经济型连锁酒店","address":"浦东新区上南路3855号(近杨南路)"},{"poiid":"B2094750D76EA4F84198","title":"明府其食","lon":"121.506","lat":"31.1493","category":"76","category_name":"上海菜","address":"浦东新区上南路3886号(华夏西路口)"},{"poiid":"B2094654DA65AAF4449B","title":"万丰大酒店","lon":"121.50187292992","lat":"31.154883465271","category":"70","category_name":"综合酒楼","address":"上南路3719号近杨南路"},{"poiid":"B2094757D06FAAFF4699","title":"香樟苑","lon":"121.51399806067","lat":"31.163260737185","category":"47","category_name":"住宅区","address":"上海浦东新区海阳路1080弄"},{"poiid":"B2094757D06BAAF8419A","title":"源城锦苑","lon":"121.50514766817","lat":"31.155441094145","category":"47","category_name":"住宅区","address":"上海市浦东新区灵岩南路769弄"},{"poiid":"B2094752D765A6F94292","title":"东方医院","lon":"121.510637","lat":"31.151509","category":"162","category_name":"医院","address":"上海市浦东新区云台路1800号"},{"poiid":"B2094757DA6EA4FB469D","title":"万科五玠坊","lon":"121.517243385312","lat":"31.1552699279137","category":"252","category_name":"楼宇机构","address":"浦东新区杨南路1705弄"},{"poiid":"B2094654DB6DA7FA4593","title":"黄金湾渔村","lon":"121.5058172","lat":"31.1503678","category":"76","category_name":"上海菜","address":"浦东新区上南路3871-3873号(近杨南路)"},{"poiid":"B209475CD068A4FC499F","title":"塔顶泰国时尚餐厅 五玠坊店","lon":"121.51671104666","lat":"31.15704193517","category":"99","category_name":"泰国／越南菜品餐厅","address":"东明路2100号万科2049五玠坊商街103-105室(近高青路地铁站)"},{"poiid":"B2094757D464A7FE4093","title":"鼎鸿海鲜馆","lon":"121.50554","lat":"31.15232","category":"260","category_name":"其他","address":"浦东新区杨南路923-927号(近家得利超市)"},{"poiid":"B2094655D36DA7FC4693","title":"云台路杨南路","lon":"121.51147","lat":"31.15434","category":"38","category_name":"公交车站","address":""},{"poiid":"B2094757D66DABFC459F","title":"四海游龙(上南店)","lon":"121.507228738","lat":"31.1540536785","category":"68","category_name":"快餐厅","address":"浦东新区上南路3521号4栋13单元(近易初莲花)"},{"poiid":"B2094655D26DA6FC4993","title":"都林嘉苑南园(杨南路)","lon":"121.51071","lat":"31.15243","category":"47","category_name":"住宅区","address":"杨南路1168弄1-31号"},{"poiid":"B2094654DB6DA7FF469C","title":"都林嘉苑北园","lon":"121.51045","lat":"31.15361","category":"47","category_name":"住宅区","address":"杨南路1139弄1-20号"},{"poiid":"B2094750D66FA7FA499C","title":"呷浦呷浦","lon":"121.509048","lat":"31.155586","category":"247","category_name":"餐饮美食","address":"昌里路"},{"poiid":"B2094655D268A2FF449C","title":"上南路3984弄小区","lon":"121.512906","lat":"31.153969","category":"47","category_name":"住宅区","address":"上南路3984弄1-8号"},{"poiid":"B2094655D268A3F9409B","title":"上南路3827弄小区","lon":"121.511201","lat":"31.157555","category":"47","category_name":"住宅区","address":"上南路3827弄1-15号"},{"poiid":"B2094757D16EAAF8409E","title":"中环","lon":"121.50605873","lat":"31.155739714","category":"500","category_name":"未知分类","address":"上海上中路隧道方向"},{"poiid":"B2094655D264A2FE4693","title":"好又多","lon":"121.50806","lat":"31.15492","category":"118","category_name":"超级市场","address":"洪山路1621临"},{"poiid":"B2094654DB6DA7FF459F","title":"恒大瀚城翰林苑(北门)","lon":"121.50849","lat":"31.15243","category":"47","category_name":"住宅区","address":"上南路3899弄"},{"poiid":"B2094655D268A0FD479D","title":"上浦路565弄小区","lon":"121.508","lat":"31.1529","category":"47","category_name":"住宅区","address":"上浦路565弄1-23号"},{"poiid":"B2094654DB6DA7F4489D","title":"尚武楼","lon":"121.50572","lat":"31.14958","category":"46","category_name":"楼宇","address":"上海浦东新区上南路3886号"},{"poiid":"B2094654DB6CA0FD499B","title":"源城锦翠苑","lon":"121.50390175708","lat":"31.156903327341","category":"47","category_name":"住宅区","address":"灵岩南路499弄1-62号"},{"poiid":"B2094753D66AA7FA489E","title":"上海大饭堂东明店","lon":"121.518028","lat":"31.154415","category":"500","category_name":"未知分类","address":"上海市 万科五街坊"},{"poiid":"B2094757D16BABF8449F","title":"联丰小学","lon":"121.508494","lat":"31.154115","category":"56","category_name":"小学","address":"上海洪山路1659号"},{"poiid":"B2094654DB6DA7FF479F","title":"三林社区卫生服务中心翰城服务站","lon":"121.50907","lat":"31.15307","category":"162","category_name":"医院","address":"东明路"},{"poiid":"B2094654DB6DA7FF469B","title":"快客No.6375","lon":"121.50942","lat":"31.15254","category":"117","category_name":"便民商店/便利店","address":"杨南路1116"},{"poiid":"B2094757D065A0FF459C","title":"尚东国际","lon":"121.512734","lat":"31.160524","category":"252","category_name":"楼宇机构","address":"上海海阳路1333弄"},{"poiid":"B2094753D164A7F9459B","title":"塔顶泰国时尚餐厅","lon":"121.516513","lat":"31.157717","category":"500","category_name":"未知分类","address":"上海市 浦东新区东明路2000号103室"},{"poiid":"B2094752DB69A6FD479C","title":"上海东方医院南院","lon":"121.510877","lat":"31.15064","category":"500","category_name":"未知分类","address":"上海市 上南路"},{"poiid":"B2094655D264A1FE449D","title":"都林嘉园","lon":"121.50749","lat":"31.15279","category":"47","category_name":"住宅区","address":"都林嘉园位于浦东浦东新区上南路3759弄1号"},{"poiid":"B2094751D26BA1FF409B","title":"东方医院南院","lon":"121.5057716","lat":"31.1514706","category":"500","category_name":"未知分类","address":"浦东新区云台路1800号"},{"poiid":"B2094757D06FA2FF4899","title":"卜蜂莲花(上南路店)","lon":"121.50367","lat":"31.15501","category":"118","category_name":"超级市场","address":"浦东新区上南路3521号宝丰综合市场内(近高青路)"},{"poiid":"B2094757D06FA7FC4998","title":"高青路地铁站","lon":"121.516038","lat":"31.15964","category":"36","category_name":"地铁站","address":"上海轨道交通 六号线 轨交高青路站 6"},{"poiid":"B2094757D06FA2FF4992","title":"上南路地铁站","lon":"121.50706092","lat":"31.148490295","category":"36","category_name":"地铁站","address":"上海轨道交通 六号线 轨交上南路站 6"},{"poiid":"B2094757D16DA0F5479E","title":"五玠坊","lon":"121.517499738","lat":"31.154644691","category":"500","category_name":"未知分类","address":"上海市浦东新区高青路"},{"poiid":"B2094757D06FA7F8419F","title":"华夏西路地铁站","lon":"121.51434569","lat":"31.1498461","category":"36","category_name":"地铁站","address":"上海轨道交通 六号线 轨交华夏西路站 6"},{"poiid":"B2094757D068A7FD4192","title":"瀚城国际","lon":"121.50944614","lat":"31.154728049","category":"46","category_name":"楼宇","address":"上海云台路1000号"},{"poiid":"B2094757D06FA0FA479D","title":"一兆韦德(尚东国际)","lon":"121.51389","lat":"31.16322","category":"221","category_name":"健身中心","address":"上海浦东新区东明路1800弄16号尚东国际名园(近板泉路)"},{"poiid":"B2094757D66CA0F4469C","title":"博学家园","lon":"121.51893","lat":"31.156414","category":"500","category_name":"未知分类","address":"上海杨南路1899弄"},{"poiid":"B2094757D06FABF54792","title":"尚东国际名苑一期","lon":"121.510328552","lat":"31.1636018774","category":"47","category_name":"住宅区","address":"上海市浦东新区板泉路1555弄"},{"poiid":"B2094757D068A5F4409A","title":"绿茵苑浦东","lon":"121.508","lat":"31.1566","category":"47","category_name":"住宅区","address":"上海杨南路694弄"},{"poiid":"B2094757D06FA5FB439D","title":"恒大翰城瀚林苑","lon":"121.506578","lat":"31.149811","category":"47","category_name":"住宅区","address":"上海上南路3899弄"},{"poiid":"B2094757D06FA2FD4199","title":"中环线","lon":"121.51643371","lat":"31.151668548","category":"500","category_name":"未知分类","address":"上海上南路，华夏西路"},{"poiid":"B2094655D36CA2F54192","title":"上南路杨南路","lon":"121.50548","lat":"31.15076","category":"38","category_name":"公交车站","address":"上海上南路3881弄"},{"poiid":"B2094655D26DA0FA4198","title":"恒大翰城瀚锦苑","lon":"121.51128","lat":"31.15137","category":"47","category_name":"住宅区","address":"恒大翰城(瀚锦苑)位于浦东上南路3895号"},{"poiid":"B2094757D069A2FF429F","title":"吉利名苑","lon":"121.5072","lat":"31.159323","category":"47","category_name":"住宅区","address":"上海市浦东新区海阳路1125号"},{"poiid":"B2094757D66DA4FC439A","title":"大桶大足浴","lon":"121.506003738","lat":"31.1548136946","category":"500","category_name":"未知分类","address":"浦东新区高青路(近上南路)"},{"poiid":"B2094655D36CA2F5409D","title":"上南路华夏西路","lon":"121.50525","lat":"31.15118","category":"38","category_name":"公交车站","address":""},{"poiid":"B2094654DB64A1FB4298","title":"尚东国际名园Ⅱ","lon":"121.51292","lat":"31.16119","category":"47","category_name":"住宅区","address":""},{"poiid":"B2094654DB64A6FB4199","title":"汉庭快捷(上南店)","lon":"121.50659","lat":"31.15104","category":"216","category_name":"经济型连锁酒店","address":"浦东新区上南路3855号(近杨南路)"},{"poiid":"B2094750D76EA4F84198","title":"明府其食","lon":"121.506","lat":"31.1493","category":"76","category_name":"上海菜","address":"浦东新区上南路3886号(华夏西路口)"},{"poiid":"B2094654DA65AAF4449B","title":"万丰大酒店","lon":"121.50187292992","lat":"31.154883465271","category":"70","category_name":"综合酒楼","address":"上南路3719号近杨南路"},{"poiid":"B2094757D06FAAFF4699","title":"香樟苑","lon":"121.51399806067","lat":"31.163260737185","category":"47","category_name":"住宅区","address":"上海浦东新区海阳路1080弄"},{"poiid":"B2094757D06BAAF8419A","title":"源城锦苑","lon":"121.50514766817","lat":"31.155441094145","category":"47","category_name":"住宅区","address":"上海市浦东新区灵岩南路769弄"},{"poiid":"B2094752D765A6F94292","title":"东方医院","lon":"121.510637","lat":"31.151509","category":"162","category_name":"医院","address":"上海市浦东新区云台路1800号"},{"poiid":"B2094757DA6EA4FB469D","title":"万科五玠坊","lon":"121.517243385312","lat":"31.1552699279137","category":"252","category_name":"楼宇机构","address":"浦东新区杨南路1705弄"},{"poiid":"B2094654DB6DA7FA4593","title":"黄金湾渔村","lon":"121.5058172","lat":"31.1503678","category":"76","category_name":"上海菜","address":"浦东新区上南路3871-3873号(近杨南路)"},{"poiid":"B209475CD068A4FC499F","title":"塔顶泰国时尚餐厅 五玠坊店","lon":"121.51671104666","lat":"31.15704193517","category":"99","category_name":"泰国／越南菜品餐厅","address":"东明路2100号万科2049五玠坊商街103-105室(近高青路地铁站)"},{"poiid":"B2094757D464A7FE4093","title":"鼎鸿海鲜馆","lon":"121.50554","lat":"31.15232","category":"260","category_name":"其他","address":"浦东新区杨南路923-927号(近家得利超市)"},{"poiid":"B2094655D36DA7FC4693","title":"云台路杨南路","lon":"121.51147","lat":"31.15434","category":"38","category_name":"公交车站","address":""},{"poiid":"B2094757D66DABFC459F","title":"四海游龙(上南店)","lon":"121.507228738","lat":"31.1540536785","category":"68","category_name":"快餐厅","address":"浦东新区上南路3521号4栋13单元(近易初莲花)"},{"poiid":"B2094655D26DA6FC4993","title":"都林嘉苑南园(杨南路)","lon":"121.51071","lat":"31.15243","category":"47","category_name":"住宅区","address":"杨南路1168弄1-31号"},{"poiid":"B2094654DB6DA7FF469C","title":"都林嘉苑北园","lon":"121.51045","lat":"31.15361","category":"47","category_name":"住宅区","address":"杨南路1139弄1-20号"},{"poiid":"B2094750D66FA7FA499C","title":"呷浦呷浦","lon":"121.509048","lat":"31.155586","category":"247","category_name":"餐饮美食","address":"昌里路"},{"poiid":"B2094655D268A2FF449C","title":"上南路3984弄小区","lon":"121.512906","lat":"31.153969","category":"47","category_name":"住宅区","address":"上南路3984弄1-8号"},{"poiid":"B2094655D268A3F9409B","title":"上南路3827弄小区","lon":"121.511201","lat":"31.157555","category":"47","category_name":"住宅区","address":"上南路3827弄1-15号"},{"poiid":"B2094757D16EAAF8409E","title":"中环","lon":"121.50605873","lat":"31.155739714","category":"500","category_name":"未知分类","address":"上海上中路隧道方向"},{"poiid":"B2094655D264A2FE4693","title":"好又多","lon":"121.50806","lat":"31.15492","category":"118","category_name":"超级市场","address":"洪山路1621临"},{"poiid":"B2094654DB6DA7FF459F","title":"恒大瀚城翰林苑(北门)","lon":"121.50849","lat":"31.15243","category":"47","category_name":"住宅区","address":"上南路3899弄"},{"poiid":"B2094655D268A0FD479D","title":"上浦路565弄小区","lon":"121.508","lat":"31.1529","category":"47","category_name":"住宅区","address":"上浦路565弄1-23号"},{"poiid":"B2094654DB6DA7F4489D","title":"尚武楼","lon":"121.50572","lat":"31.14958","category":"46","category_name":"楼宇","address":"上海浦东新区上南路3886号"},{"poiid":"B2094654DB6CA0FD499B","title":"源城锦翠苑","lon":"121.50390175708","lat":"31.156903327341","category":"47","category_name":"住宅区","address":"灵岩南路499弄1-62号"},{"poiid":"B2094753D66AA7FA489E","title":"上海大饭堂东明店","lon":"121.518028","lat":"31.154415","category":"500","category_name":"未知分类","address":"上海市 万科五街坊"},{"poiid":"B2094757D16BABF8449F","title":"联丰小学","lon":"121.508494","lat":"31.154115","category":"56","category_name":"小学","address":"上海洪山路1659号"},{"poiid":"B2094654DB6DA7FF479F","title":"三林社区卫生服务中心翰城服务站","lon":"121.50907","lat":"31.15307","category":"162","category_name":"医院","address":"东明路"},{"poiid":"B2094654DB6DA7FF469B","title":"快客No.6375","lon":"121.50942","lat":"31.15254","category":"117","category_name":"便民商店/便利店","address":"杨南路1116"},{"poiid":"B2094757D065A0FF459C","title":"尚东国际","lon":"121.512734","lat":"31.160524","category":"252","category_name":"楼宇机构","address":"上海海阳路1333弄"},{"poiid":"B2094753D164A7F9459B","title":"塔顶泰国时尚餐厅","lon":"121.516513","lat":"31.157717","category":"500","category_name":"未知分类","address":"上海市 浦东新区东明路2000号103室"},{"poiid":"B2094752DB69A6FD479C","title":"上海东方医院南院","lon":"121.510877","lat":"31.15064","category":"500","category_name":"未知分类","address":"上海市 上南路"},{"poiid":"B2094655D264A1FE449D","title":"都林嘉园","lon":"121.50749","lat":"31.15279","category":"47","category_name":"住宅区","address":"都林嘉园位于浦东浦东新区上南路3759弄1号"},{"poiid":"B2094751D26BA1FF409B","title":"东方医院南院","lon":"121.5057716","lat":"31.1514706","category":"500","category_name":"未知分类","address":"浦东新区云台路1800号"},{"poiid":"B2094757D06FA2FF4899","title":"卜蜂莲花(上南路店)","lon":"121.50367","lat":"31.15501","category":"118","category_name":"超级市场","address":"浦东新区上南路3521号宝丰综合市场内(近高青路)"},{"poiid":"B2094757D06FA7FC4998","title":"高青路地铁站","lon":"121.516038","lat":"31.15964","category":"36","category_name":"地铁站","address":"上海轨道交通 六号线 轨交高青路站 6"},{"poiid":"B2094757D06FA2FF4992","title":"上南路地铁站","lon":"121.50706092","lat":"31.148490295","category":"36","category_name":"地铁站","address":"上海轨道交通 六号线 轨交上南路站 6"},{"poiid":"B2094757D16DA0F5479E","title":"五玠坊","lon":"121.517499738","lat":"31.154644691","category":"500","category_name":"未知分类","address":"上海市浦东新区高青路"},{"poiid":"B2094757D06FA7F8419F","title":"华夏西路地铁站","lon":"121.51434569","lat":"31.1498461","category":"36","category_name":"地铁站","address":"上海轨道交通 六号线 轨交华夏西路站 6"},{"poiid":"B2094757D068A7FD4192","title":"瀚城国际","lon":"121.50944614","lat":"31.154728049","category":"46","category_name":"楼宇","address":"上海云台路1000号"},{"poiid":"B2094757D06FA0FA479D","title":"一兆韦德(尚东国际)","lon":"121.51389","lat":"31.16322","category":"221","category_name":"健身中心","address":"上海浦东新区东明路1800弄16号尚东国际名园(近板泉路)"},{"poiid":"B2094757D66CA0F4469C","title":"博学家园","lon":"121.51893","lat":"31.156414","category":"500","category_name":"未知分类","address":"上海杨南路1899弄"},{"poiid":"B2094757D06FABF54792","title":"尚东国际名苑一期","lon":"121.510328552","lat":"31.1636018774","category":"47","category_name":"住宅区","address":"上海市浦东新区板泉路1555弄"},{"poiid":"B2094757D068A5F4409A","title":"绿茵苑浦东","lon":"121.508","lat":"31.1566","category":"47","category_name":"住宅区","address":"上海杨南路694弄"},{"poiid":"B2094757D06FA5FB439D","title":"恒大翰城瀚林苑","lon":"121.506578","lat":"31.149811","category":"47","category_name":"住宅区","address":"上海上南路3899弄"},{"poiid":"B2094757D06FA2FD4199","title":"中环线","lon":"121.51643371","lat":"31.151668548","category":"500","category_name":"未知分类","address":"上海上南路，华夏西路"},{"poiid":"B2094655D36CA2F54192","title":"上南路杨南路","lon":"121.50548","lat":"31.15076","category":"38","category_name":"公交车站","address":"上海上南路3881弄"},{"poiid":"B2094655D26DA0FA4198","title":"恒大翰城瀚锦苑","lon":"121.51128","lat":"31.15137","category":"47","category_name":"住宅区","address":"恒大翰城(瀚锦苑)位于浦东上南路3895号"},{"poiid":"B2094757D069A2FF429F","title":"吉利名苑","lon":"121.5072","lat":"31.159323","category":"47","category_name":"住宅区","address":"上海市浦东新区海阳路1125号"},{"poiid":"B2094757D66DA4FC439A","title":"大桶大足浴","lon":"121.506003738","lat":"31.1548136946","category":"500","category_name":"未知分类","address":"浦东新区高青路(近上南路)"},{"poiid":"B2094655D36CA2F5409D","title":"上南路华夏西路","lon":"121.50525","lat":"31.15118","category":"38","category_name":"公交车站","address":""},{"poiid":"B2094654DB64A1FB4298","title":"尚东国际名园Ⅱ","lon":"121.51292","lat":"31.16119","category":"47","category_name":"住宅区","address":""},{"poiid":"B2094654DB64A6FB4199","title":"汉庭快捷(上南店)","lon":"121.50659","lat":"31.15104","category":"216","category_name":"经济型连锁酒店","address":"浦东新区上南路3855号(近杨南路)"},{"poiid":"B2094750D76EA4F84198","title":"明府其食","lon":"121.506","lat":"31.1493","category":"76","category_name":"上海菜","address":"浦东新区上南路3886号(华夏西路口)"},{"poiid":"B2094654DA65AAF4449B","title":"万丰大酒店","lon":"121.50187292992","lat":"31.154883465271","category":"70","category_name":"综合酒楼","address":"上南路3719号近杨南路"},{"poiid":"B2094757D06FAAFF4699","title":"香樟苑","lon":"121.51399806067","lat":"31.163260737185","category":"47","category_name":"住宅区","address":"上海浦东新区海阳路1080弄"},{"poiid":"B2094757D06BAAF8419A","title":"源城锦苑","lon":"121.50514766817","lat":"31.155441094145","category":"47","category_name":"住宅区","address":"上海市浦东新区灵岩南路769弄"},{"poiid":"B2094752D765A6F94292","title":"东方医院","lon":"121.510637","lat":"31.151509","category":"162","category_name":"医院","address":"上海市浦东新区云台路1800号"},{"poiid":"B2094757DA6EA4FB469D","title":"万科五玠坊","lon":"121.517243385312","lat":"31.1552699279137","category":"252","category_name":"楼宇机构","address":"浦东新区杨南路1705弄"},{"poiid":"B2094654DB6DA7FA4593","title":"黄金湾渔村","lon":"121.5058172","lat":"31.1503678","category":"76","category_name":"上海菜","address":"浦东新区上南路3871-3873号(近杨南路)"},{"poiid":"B209475CD068A4FC499F","title":"塔顶泰国时尚餐厅 五玠坊店","lon":"121.51671104666","lat":"31.15704193517","category":"99","category_name":"泰国／越南菜品餐厅","address":"东明路2100号万科2049五玠坊商街103-105室(近高青路地铁站)"},{"poiid":"B2094757D464A7FE4093","title":"鼎鸿海鲜馆","lon":"121.50554","lat":"31.15232","category":"260","category_name":"其他","address":"浦东新区杨南路923-927号(近家得利超市)"},{"poiid":"B2094655D36DA7FC4693","title":"云台路杨南路","lon":"121.51147","lat":"31.15434","category":"38","category_name":"公交车站","address":""},{"poiid":"B2094757D66DABFC459F","title":"四海游龙(上南店)","lon":"121.507228738","lat":"31.1540536785","category":"68","category_name":"快餐厅","address":"浦东新区上南路3521号4栋13单元(近易初莲花)"},{"poiid":"B2094655D26DA6FC4993","title":"都林嘉苑南园(杨南路)","lon":"121.51071","lat":"31.15243","category":"47","category_name":"住宅区","address":"杨南路1168弄1-31号"},{"poiid":"B2094654DB6DA7FF469C","title":"都林嘉苑北园","lon":"121.51045","lat":"31.15361","category":"47","category_name":"住宅区","address":"杨南路1139弄1-20号"},{"poiid":"B2094750D66FA7FA499C","title":"呷浦呷浦","lon":"121.509048","lat":"31.155586","category":"247","category_name":"餐饮美食","address":"昌里路"},{"poiid":"B2094655D268A2FF449C","title":"上南路3984弄小区","lon":"121.512906","lat":"31.153969","category":"47","category_name":"住宅区","address":"上南路3984弄1-8号"},{"poiid":"B2094655D268A3F9409B","title":"上南路3827弄小区","lon":"121.511201","lat":"31.157555","category":"47","category_name":"住宅区","address":"上南路3827弄1-15号"},{"poiid":"B2094757D16EAAF8409E","title":"中环","lon":"121.50605873","lat":"31.155739714","category":"500","category_name":"未知分类","address":"上海上中路隧道方向"},{"poiid":"B2094655D264A2FE4693","title":"好又多","lon":"121.50806","lat":"31.15492","category":"118","category_name":"超级市场","address":"洪山路1621临"},{"poiid":"B2094654DB6DA7FF459F","title":"恒大瀚城翰林苑(北门)","lon":"121.50849","lat":"31.15243","category":"47","category_name":"住宅区","address":"上南路3899弄"},{"poiid":"B2094655D268A0FD479D","title":"上浦路565弄小区","lon":"121.508","lat":"31.1529","category":"47","category_name":"住宅区","address":"上浦路565弄1-23号"},{"poiid":"B2094654DB6DA7F4489D","title":"尚武楼","lon":"121.50572","lat":"31.14958","category":"46","category_name":"楼宇","address":"上海浦东新区上南路3886号"},{"poiid":"B2094654DB6CA0FD499B","title":"源城锦翠苑","lon":"121.50390175708","lat":"31.156903327341","category":"47","category_name":"住宅区","address":"灵岩南路499弄1-62号"},{"poiid":"B2094753D66AA7FA489E","title":"上海大饭堂东明店","lon":"121.518028","lat":"31.154415","category":"500","category_name":"未知分类","address":"上海市 万科五街坊"},{"poiid":"B2094757D16BABF8449F","title":"联丰小学","lon":"121.508494","lat":"31.154115","category":"56","category_name":"小学","address":"上海洪山路1659号"},{"poiid":"B2094654DB6DA7FF479F","title":"三林社区卫生服务中心翰城服务站","lon":"121.50907","lat":"31.15307","category":"162","category_name":"医院","address":"东明路"},{"poiid":"B2094654DB6DA7FF469B","title":"快客No.6375","lon":"121.50942","lat":"31.15254","category":"117","category_name":"便民商店/便利店","address":"杨南路1116"},{"poiid":"B2094757D065A0FF459C","title":"尚东国际","lon":"121.512734","lat":"31.160524","category":"252","category_name":"楼宇机构","address":"上海海阳路1333弄"},{"poiid":"B2094753D164A7F9459B","title":"塔顶泰国时尚餐厅","lon":"121.516513","lat":"31.157717","category":"500","category_name":"未知分类","address":"上海市 浦东新区东明路2000号103室"},{"poiid":"B2094752DB69A6FD479C","title":"上海东方医院南院","lon":"121.510877","lat":"31.15064","category":"500","category_name":"未知分类","address":"上海市 上南路"},{"poiid":"B2094655D264A1FE449D","title":"都林嘉园","lon":"121.50749","lat":"31.15279","category":"47","category_name":"住宅区","address":"都林嘉园位于浦东浦东新区上南路3759弄1号"},{"poiid":"B2094751D26BA1FF409B","title":"东方医院南院","lon":"121.5057716","lat":"31.1514706","category":"500","category_name":"未知分类","address":"浦东新区云台路1800号"},{"poiid":"B2094757D06FA2FF4899","title":"卜蜂莲花(上南路店)","lon":"121.50367","lat":"31.15501","category":"118","category_name":"超级市场","address":"浦东新区上南路3521号宝丰综合市场内(近高青路)"},{"poiid":"B2094757D06FA7FC4998","title":"高青路地铁站","lon":"121.516038","lat":"31.15964","category":"36","category_name":"地铁站","address":"上海轨道交通 六号线 轨交高青路站 6"},{"poiid":"B2094757D06FA2FF4992","title":"上南路地铁站","lon":"121.50706092","lat":"31.148490295","category":"36","category_name":"地铁站","address":"上海轨道交通 六号线 轨交上南路站 6"},{"poiid":"B2094757D16DA0F5479E","title":"五玠坊","lon":"121.517499738","lat":"31.154644691","category":"500","category_name":"未知分类","address":"上海市浦东新区高青路"},{"poiid":"B2094757D06FA7F8419F","title":"华夏西路地铁站","lon":"121.51434569","lat":"31.1498461","category":"36","category_name":"地铁站","address":"上海轨道交通 六号线 轨交华夏西路站 6"},{"poiid":"B2094757D068A7FD4192","title":"瀚城国际","lon":"121.50944614","lat":"31.154728049","category":"46","category_name":"楼宇","address":"上海云台路1000号"},{"poiid":"B2094757D06FA0FA479D","title":"一兆韦德(尚东国际)","lon":"121.51389","lat":"31.16322","category":"221","category_name":"健身中心","address":"上海浦东新区东明路1800弄16号尚东国际名园(近板泉路)"},{"poiid":"B2094757D66CA0F4469C","title":"博学家园","lon":"121.51893","lat":"31.156414","category":"500","category_name":"未知分类","address":"上海杨南路1899弄"},{"poiid":"B2094757D06FABF54792","title":"尚东国际名苑一期","lon":"121.510328552","lat":"31.1636018774","category":"47","category_name":"住宅区","address":"上海市浦东新区板泉路1555弄"},{"poiid":"B2094757D068A5F4409A","title":"绿茵苑浦东","lon":"121.508","lat":"31.1566","category":"47","category_name":"住宅区","address":"上海杨南路694弄"},{"poiid":"B2094757D06FA5FB439D","title":"恒大翰城瀚林苑","lon":"121.506578","lat":"31.149811","category":"47","category_name":"住宅区","address":"上海上南路3899弄"},{"poiid":"B2094757D06FA2FD4199","title":"中环线","lon":"121.51643371","lat":"31.151668548","category":"500","category_name":"未知分类","address":"上海上南路，华夏西路"},{"poiid":"B2094655D36CA2F54192","title":"上南路杨南路","lon":"121.50548","lat":"31.15076","category":"38","category_name":"公交车站","address":"上海上南路3881弄"},{"poiid":"B2094655D26DA0FA4198","title":"恒大翰城瀚锦苑","lon":"121.51128","lat":"31.15137","category":"47","category_name":"住宅区","address":"恒大翰城(瀚锦苑)位于浦东上南路3895号"},{"poiid":"B2094757D069A2FF429F","title":"吉利名苑","lon":"121.5072","lat":"31.159323","category":"47","category_name":"住宅区","address":"上海市浦东新区海阳路1125号"},{"poiid":"B2094757D66DA4FC439A","title":"大桶大足浴","lon":"121.506003738","lat":"31.1548136946","category":"500","category_name":"未知分类","address":"浦东新区高青路(近上南路)"},{"poiid":"B2094655D36CA2F5409D","title":"上南路华夏西路","lon":"121.50525","lat":"31.15118","category":"38","category_name":"公交车站","address":""},{"poiid":"B2094654DB64A1FB4298","title":"尚东国际名园Ⅱ","lon":"121.51292","lat":"31.16119","category":"47","category_name":"住宅区","address":""},{"poiid":"B2094654DB64A6FB4199","title":"汉庭快捷(上南店)","lon":"121.50659","lat":"31.15104","category":"216","category_name":"经济型连锁酒店","address":"浦东新区上南路3855号(近杨南路)"},{"poiid":"B2094750D76EA4F84198","title":"明府其食","lon":"121.506","lat":"31.1493","category":"76","category_name":"上海菜","address":"浦东新区上南路3886号(华夏西路口)"},{"poiid":"B2094654DA65AAF4449B","title":"万丰大酒店","lon":"121.50187292992","lat":"31.154883465271","category":"70","category_name":"综合酒楼","address":"上南路3719号近杨南路"},{"poiid":"B2094757D06FAAFF4699","title":"香樟苑","lon":"121.51399806067","lat":"31.163260737185","category":"47","category_name":"住宅区","address":"上海浦东新区海阳路1080弄"},{"poiid":"B2094757D06BAAF8419A","title":"源城锦苑","lon":"121.50514766817","lat":"31.155441094145","category":"47","category_name":"住宅区","address":"上海市浦东新区灵岩南路769弄"},{"poiid":"B2094752D765A6F94292","title":"东方医院","lon":"121.510637","lat":"31.151509","category":"162","category_name":"医院","address":"上海市浦东新区云台路1800号"},{"poiid":"B2094757DA6EA4FB469D","title":"万科五玠坊","lon":"121.517243385312","lat":"31.1552699279137","category":"252","category_name":"楼宇机构","address":"浦东新区杨南路1705弄"},{"poiid":"B2094654DB6DA7FA4593","title":"黄金湾渔村","lon":"121.5058172","lat":"31.1503678","category":"76","category_name":"上海菜","address":"浦东新区上南路3871-3873号(近杨南路)"},{"poiid":"B209475CD068A4FC499F","title":"塔顶泰国时尚餐厅 五玠坊店","lon":"121.51671104666","lat":"31.15704193517","category":"99","category_name":"泰国／越南菜品餐厅","address":"东明路2100号万科2049五玠坊商街103-105室(近高青路地铁站)"},{"poiid":"B2094757D464A7FE4093","title":"鼎鸿海鲜馆","lon":"121.50554","lat":"31.15232","category":"260","category_name":"其他","address":"浦东新区杨南路923-927号(近家得利超市)"},{"poiid":"B2094655D36DA7FC4693","title":"云台路杨南路","lon":"121.51147","lat":"31.15434","category":"38","category_name":"公交车站","address":""},{"poiid":"B2094757D66DABFC459F","title":"四海游龙(上南店)","lon":"121.507228738","lat":"31.1540536785","category":"68","category_name":"快餐厅","address":"浦东新区上南路3521号4栋13单元(近易初莲花)"},{"poiid":"B2094655D26DA6FC4993","title":"都林嘉苑南园(杨南路)","lon":"121.51071","lat":"31.15243","category":"47","category_name":"住宅区","address":"杨南路1168弄1-31号"},{"poiid":"B2094654DB6DA7FF469C","title":"都林嘉苑北园","lon":"121.51045","lat":"31.15361","category":"47","category_name":"住宅区","address":"杨南路1139弄1-20号"},{"poiid":"B2094750D66FA7FA499C","title":"呷浦呷浦","lon":"121.509048","lat":"31.155586","category":"247","category_name":"餐饮美食","address":"昌里路"},{"poiid":"B2094655D268A2FF449C","title":"上南路3984弄小区","lon":"121.512906","lat":"31.153969","category":"47","category_name":"住宅区","address":"上南路3984弄1-8号"},{"poiid":"B2094655D268A3F9409B","title":"上南路3827弄小区","lon":"121.511201","lat":"31.157555","category":"47","category_name":"住宅区","address":"上南路3827弄1-15号"},{"poiid":"B2094757D16EAAF8409E","title":"中环","lon":"121.50605873","lat":"31.155739714","category":"500","category_name":"未知分类","address":"上海上中路隧道方向"},{"poiid":"B2094655D264A2FE4693","title":"好又多","lon":"121.50806","lat":"31.15492","category":"118","category_name":"超级市场","address":"洪山路1621临"},{"poiid":"B2094654DB6DA7FF459F","title":"恒大瀚城翰林苑(北门)","lon":"121.50849","lat":"31.15243","category":"47","category_name":"住宅区","address":"上南路3899弄"},{"poiid":"B2094655D268A0FD479D","title":"上浦路565弄小区","lon":"121.508","lat":"31.1529","category":"47","category_name":"住宅区","address":"上浦路565弄1-23号"},{"poiid":"B2094654DB6DA7F4489D","title":"尚武楼","lon":"121.50572","lat":"31.14958","category":"46","category_name":"楼宇","address":"上海浦东新区上南路3886号"},{"poiid":"B2094654DB6CA0FD499B","title":"源城锦翠苑","lon":"121.50390175708","lat":"31.156903327341","category":"47","category_name":"住宅区","address":"灵岩南路499弄1-62号"},{"poiid":"B2094753D66AA7FA489E","title":"上海大饭堂东明店","lon":"121.518028","lat":"31.154415","category":"500","category_name":"未知分类","address":"上海市 万科五街坊"},{"poiid":"B2094757D16BABF8449F","title":"联丰小学","lon":"121.508494","lat":"31.154115","category":"56","category_name":"小学","address":"上海洪山路1659号"},{"poiid":"B2094654DB6DA7FF479F","title":"三林社区卫生服务中心翰城服务站","lon":"121.50907","lat":"31.15307","category":"162","category_name":"医院","address":"东明路"},{"poiid":"B2094654DB6DA7FF469B","title":"快客No.6375","lon":"121.50942","lat":"31.15254","category":"117","category_name":"便民商店/便利店","address":"杨南路1116"},{"poiid":"B2094757D065A0FF459C","title":"尚东国际","lon":"121.512734","lat":"31.160524","category":"252","category_name":"楼宇机构","address":"上海海阳路1333弄"},{"poiid":"B2094753D164A7F9459B","title":"塔顶泰国时尚餐厅","lon":"121.516513","lat":"31.157717","category":"500","category_name":"未知分类","address":"上海市 浦东新区东明路2000号103室"},{"poiid":"B2094752DB69A6FD479C","title":"上海东方医院南院","lon":"121.510877","lat":"31.15064","category":"500","category_name":"未知分类","address":"上海市 上南路"},{"poiid":"B2094655D264A1FE449D","title":"都林嘉园","lon":"121.50749","lat":"31.15279","category":"47","category_name":"住宅区","address":"都林嘉园位于浦东浦东新区上南路3759弄1号"}]