[{"poiid":"B2094654DA6FAAF5479E","title":"上海长征医院","lon":"121.46721","lat":"31.23279","category":"162","category_name":"医院","address":"黄浦区凤阳路415号(近成都北路)"},{"poiid":"B2094655D26CAAFF4992","title":"静安别墅","lon":"121.464","lat":"31.2349","category":"47","category_name":"住宅区","address":"静安区南京西路1025弄静安别墅81号(近茂名北路)"},{"poiid":"B2094757D06FA3F4449B","title":"泰廊","lon":"121.46409","lat":"31.2338","category":"99","category_name":"泰国／越南菜品餐厅","address":"静安区大田路127号(近北京西路)"},{"poiid":"B2094753D76FAAFA449C","title":"上海滩国泰旗舰店","lon":"121.466011","lat":"31.216125","category":"249","category_name":"购物服务","address":"淮海中路868号"},{"poiid":"B209475CD564A7F84292","title":"上海滩新天地店","lon":"121.47463","lat":"31.22164","category":"119","category_name":"商场","address":"\"太仓路181弄新天地北里15号\r\n\""},{"poiid":"B209475CD564A7F8439E","title":"上海滩中信泰富店","lon":"121.45602","lat":"31.22851","category":"119","category_name":"商场","address":"\"南京西路1168号中信泰富广场，店铺号221.\r\n\""},{"poiid":"B2094757D06FAAFD409D","title":"中创大厦","lon":"121.467","lat":"31.2364","category":"46","category_name":"楼宇","address":"上海静安区南京西路819号"},{"poiid":"B2094757D069A5FD439F","title":"新闸路成都北路","lon":"121.464829","lat":"31.237632","category":"500","category_name":"未知分类","address":"上海新闸路成都北路"},{"poiid":"B2094751DA69A6FB499A","title":"王品  仙乐斯广场","lon":"121.465452","lat":"31.233329","category":"247","category_name":"餐饮美食","address":"南京西路338号"},{"poiid":"B2094757D06FA2F54492","title":"沪上一家辣肉面馆(成都北路店)","lon":"121.46618","lat":"31.23239","category":"68","category_name":"快餐厅","address":"黄浦区凤阳路535号(近成都北路)"},{"poiid":"B2094750DB6CA1F8439B","title":"人民公园","lon":"121.466559","lat":"31.233402","category":"196","category_name":"公园","address":"黄浦区南京西路75号人民公园内(近黄陂北路)"},{"poiid":"B2094757D069A2FD489B","title":"北京西路 成都北路 路口","lon":"121.46540683","lat":"31.236365878","category":"500","category_name":"未知分类","address":"上海北京西路 成都北路 路口"},{"poiid":"B2094751D468A4F5469C","title":"小杨生煎黄河路店","lon":"121.4675955718996","lat":"31.23632675273554","category":"247","category_name":"餐饮美食","address":"黄浦区黄河路97号1-3楼(近凤阳路)"},{"poiid":"B2094757DB68A5FF449C","title":"上海 来福士","lon":"121.4678278181757","lat":"31.23394058782101","category":"247","category_name":"餐饮美食","address":"人民广场"},{"poiid":"B2094757DA6EAAFD429A","title":"御景轩凯宾斯基酒店","lon":"121.465211999998","lat":"31.2323450000001","category":"251","category_name":"出行住宿","address":"静安区凤阳路601号"},{"poiid":"B2094654DB65A2FC409D","title":"静安新时代大厦","lon":"121.467","lat":"31.2366","category":"46","category_name":"楼宇","address":"南京西路881号(吴江路188)"},{"poiid":"B2094751D56FA4F4419B","title":"木有鸭梨餐吧","lon":"121.4664323","lat":"31.2333259","category":"247","category_name":"餐饮美食","address":"南京西路456号4楼"},{"poiid":"B2094752D069A5FA4393","title":"上海国际时尚中心","lon":"121.465475","lat":"31.233833","category":"249","category_name":"购物服务","address":"上海市杨树浦路2866号"},{"poiid":"B2094654DA6FAAF5489C","title":"中华保险华盛大厦","lon":"121.46685","lat":"31.23415","category":"46","category_name":"楼宇","address":"成都北路600"},{"poiid":"B2094757D06FA0FA4992","title":"上海壹街区","lon":"121.465136","lat":"31.232562","category":"47","category_name":"住宅区","address":"静安区凤阳路588弄"},{"poiid":"B2094757D16FAAFA429B","title":"长征医院住院部","lon":"121.466941738","lat":"31.2327763544","category":"162","category_name":"医院","address":"上海凤阳路415号"},{"poiid":"B2094654DA6CA1FF409D","title":"泰兴大楼","lon":"121.4651741425","lat":"31.236332098585","category":"46","category_name":"楼宇","address":"南京西路934号"},{"poiid":"B2094757D66CA0FF4199","title":"成都北路","lon":"121.465531738","lat":"31.2359084211","category":"500","category_name":"未知分类","address":"上海市黄浦区"},{"poiid":"B2094757D065A7F44593","title":"日月光中心 OLIVE DES OLIVE","lon":"121.46757623","lat":"31.232956358","category":"500","category_name":"未知分类","address":"上海打浦桥"},{"poiid":"B2094757DA68A1F84099","title":"Starbucks","lon":"121.4661986","lat":"31.2337571","category":"247","category_name":"餐饮美食","address":"People square"},{"poiid":"B2094752DA65A2FD439E","title":"上海明天广场JW万豪酒店","lon":"121.46729","lat":"31.233113","category":"500","category_name":"未知分类","address":"上海市 南京西路399号"},{"poiid":"B2094757D06FA4FC4298","title":"华盛大公馆","lon":"121.46709","lat":"31.234617","category":"47","category_name":"住宅区","address":"上海黄浦区北京西路355弄1-2号"},{"poiid":"B2094751D565A7F4479A","title":"佳家湯包","lon":"121.466453","lat":"31.234724","category":"247","category_name":"餐饮美食","address":"黄河路店"},{"poiid":"B2094753D765A7F44899","title":"木鸭梨露天餐厅","lon":"121.466018","lat":"31.234704","category":"500","category_name":"未知分类","address":"上海市 南京西路456号科勒设计中心4楼(近仙乐斯广场)"},{"poiid":"B2094757D068A0F4469E","title":"韩膳宫","lon":"121.4661986","lat":"31.2337571","category":"46","category_name":"楼宇","address":"上海静安区成都北路333号"},{"poiid":"B2094752D76FAAFE4192","title":"Lingo餐厅","lon":"121.466171","lat":"31.234406","category":"247","category_name":"餐饮美食","address":"南京西路仙乐斯"},{"poiid":"B209475CD469A1F4479C","title":"上海外滩","lon":"121.465995","lat":"31.236091","category":"500","category_name":"未知分类","address":"上海市 上海外滩"},{"poiid":"B2094752D06FA4FA499D","title":"MOCA ON THE PARK","lon":"121.465445","lat":"31.233023","category":"247","category_name":"餐饮美食","address":"南京西路231号人民公园内上海当代艺术馆3楼"},{"poiid":"B2094655D26CAAFC449A","title":"浦行别墅(西门)","lon":"121.46639","lat":"31.23531","category":"47","category_name":"住宅区","address":"成都北路696弄1-35号"},{"poiid":"B2094757D169A0F94499","title":"雅珠粥店","lon":"121.465196","lat":"31.234423","category":"68","category_name":"快餐厅","address":"静安区北京西路370号(成都路口)"},{"poiid":"B2094655D26CAAFC4393","title":"浦行别墅","lon":"121.46661","lat":"31.23531","category":"47","category_name":"住宅区","address":"成都北路696弄1-35号"},{"poiid":"B2094751DA6FAAFA4598","title":"第一笼（黄河路店）","lon":"121.4665328","lat":"31.2365944","category":"247","category_name":"餐饮美食","address":"黄河路86号"},{"poiid":"B2094654DA6CA1FB489F","title":"蕃祉里四街","lon":"121.465251","lat":"31.234841","category":"47","category_name":"住宅区","address":"茂名北路285弄4-8号"},{"poiid":"B2094655D36CA5F54198","title":"北京西路成都北路","lon":"121.4677","lat":"31.23521","category":"38","category_name":"公交车站","address":""},{"poiid":"B2094757D769A4F54993","title":"云曦小吃","lon":"121.463874054","lat":"31.236463793","category":"68","category_name":"快餐厅","address":"静安区山海关路296号(近成都北路)"},{"poiid":"B2094654DA6CA1FB489C","title":"蕃祉里五街","lon":"121.465","lat":"31.2351","category":"47","category_name":"住宅区","address":"茂名北路293弄4-8号"},{"poiid":"B2094757D06FABF5429D","title":"南泰大厦","lon":"121.466","lat":"31.2367","category":"252","category_name":"楼宇机构","address":"上海南京西路920号"},{"poiid":"B2094751D565A7F5479C","title":"中华艺术宫","lon":"121.465068","lat":"31.234241","category":"500","category_name":"未知分类","address":null},{"poiid":"B2094655D26AA4FB4593","title":"吉祥馄饨 北京西路店 Gll Wonton","lon":"121.46798","lat":"31.23527","category":"68","category_name":"快餐厅","address":"黄浦区南京西路302号(近西藏中路)"},{"poiid":"B2094752D169A6FF489D","title":"上海大光明影院","lon":"121.467849","lat":"31.234863","category":"248","category_name":"生活娱乐","address":"上海市南京西路216号"},{"poiid":"B2094655D26CAAFC4792","title":"三德小区","lon":"121.46624","lat":"31.236679","category":"47","category_name":"住宅区","address":"山海关路201弄"},{"poiid":"B2094757DB69A4FE489E","title":"苏浙汇","lon":"121.4655447326625","lat":"31.23379043700509","category":"500","category_name":"未知分类","address":null},{"poiid":"B2094655D264A1FB4498","title":"喜士多便利(华庭店)","lon":"121.46556","lat":"31.23412","category":"117","category_name":"便民商店/便利店","address":"北京西路483号"},{"poiid":"B2094654DA6CA2F8479C","title":"长春藤运通大厦","lon":"121.46723175256","lat":"31.237013536146","category":"46","category_name":"楼宇","address":"卢湾区复兴中路369号(马当路口)"},{"poiid":"B2094752DB6CA2F8469F","title":"大光明电影院","lon":"121.467461","lat":"31.234931","category":"178","category_name":"电影院","address":"上海市 南京西路"},{"poiid":"B2094654DA6FAAF5479E","title":"上海长征医院","lon":"121.46721","lat":"31.23279","category":"162","category_name":"医院","address":"黄浦区凤阳路415号(近成都北路)"},{"poiid":"B2094655D26CAAFF4992","title":"静安别墅","lon":"121.464","lat":"31.2349","category":"47","category_name":"住宅区","address":"静安区南京西路1025弄静安别墅81号(近茂名北路)"},{"poiid":"B2094757D06FA3F4449B","title":"泰廊","lon":"121.46409","lat":"31.2338","category":"99","category_name":"泰国／越南菜品餐厅","address":"静安区大田路127号(近北京西路)"},{"poiid":"B2094753D76FAAFA449C","title":"上海滩国泰旗舰店","lon":"121.466011","lat":"31.216125","category":"249","category_name":"购物服务","address":"淮海中路868号"},{"poiid":"B209475CD564A7F84292","title":"上海滩新天地店","lon":"121.47463","lat":"31.22164","category":"119","category_name":"商场","address":"\"太仓路181弄新天地北里15号\r\n\""},{"poiid":"B209475CD564A7F8439E","title":"上海滩中信泰富店","lon":"121.45602","lat":"31.22851","category":"119","category_name":"商场","address":"\"南京西路1168号中信泰富广场，店铺号221.\r\n\""},{"poiid":"B2094757D06FAAFD409D","title":"中创大厦","lon":"121.467","lat":"31.2364","category":"46","category_name":"楼宇","address":"上海静安区南京西路819号"},{"poiid":"B2094757D069A5FD439F","title":"新闸路成都北路","lon":"121.464829","lat":"31.237632","category":"500","category_name":"未知分类","address":"上海新闸路成都北路"},{"poiid":"B2094751DA69A6FB499A","title":"王品  仙乐斯广场","lon":"121.465452","lat":"31.233329","category":"247","category_name":"餐饮美食","address":"南京西路338号"},{"poiid":"B2094757D06FA2F54492","title":"沪上一家辣肉面馆(成都北路店)","lon":"121.46618","lat":"31.23239","category":"68","category_name":"快餐厅","address":"黄浦区凤阳路535号(近成都北路)"},{"poiid":"B2094750DB6CA1F8439B","title":"人民公园","lon":"121.466559","lat":"31.233402","category":"196","category_name":"公园","address":"黄浦区南京西路75号人民公园内(近黄陂北路)"},{"poiid":"B2094757D069A2FD489B","title":"北京西路 成都北路 路口","lon":"121.46540683","lat":"31.236365878","category":"500","category_name":"未知分类","address":"上海北京西路 成都北路 路口"},{"poiid":"B2094751D468A4F5469C","title":"小杨生煎黄河路店","lon":"121.4675955718996","lat":"31.23632675273554","category":"247","category_name":"餐饮美食","address":"黄浦区黄河路97号1-3楼(近凤阳路)"},{"poiid":"B2094757DB68A5FF449C","title":"上海 来福士","lon":"121.4678278181757","lat":"31.23394058782101","category":"247","category_name":"餐饮美食","address":"人民广场"},{"poiid":"B2094757DA6EAAFD429A","title":"御景轩凯宾斯基酒店","lon":"121.465211999998","lat":"31.2323450000001","category":"251","category_name":"出行住宿","address":"静安区凤阳路601号"},{"poiid":"B2094654DB65A2FC409D","title":"静安新时代大厦","lon":"121.467","lat":"31.2366","category":"46","category_name":"楼宇","address":"南京西路881号(吴江路188)"},{"poiid":"B2094751D56FA4F4419B","title":"木有鸭梨餐吧","lon":"121.4664323","lat":"31.2333259","category":"247","category_name":"餐饮美食","address":"南京西路456号4楼"},{"poiid":"B2094752D069A5FA4393","title":"上海国际时尚中心","lon":"121.465475","lat":"31.233833","category":"249","category_name":"购物服务","address":"上海市杨树浦路2866号"},{"poiid":"B2094654DA6FAAF5489C","title":"中华保险华盛大厦","lon":"121.46685","lat":"31.23415","category":"46","category_name":"楼宇","address":"成都北路600"},{"poiid":"B2094757D06FA0FA4992","title":"上海壹街区","lon":"121.465136","lat":"31.232562","category":"47","category_name":"住宅区","address":"静安区凤阳路588弄"},{"poiid":"B2094757D16FAAFA429B","title":"长征医院住院部","lon":"121.466941738","lat":"31.2327763544","category":"162","category_name":"医院","address":"上海凤阳路415号"},{"poiid":"B2094654DA6CA1FF409D","title":"泰兴大楼","lon":"121.4651741425","lat":"31.236332098585","category":"46","category_name":"楼宇","address":"南京西路934号"},{"poiid":"B2094757D66CA0FF4199","title":"成都北路","lon":"121.465531738","lat":"31.2359084211","category":"500","category_name":"未知分类","address":"上海市黄浦区"},{"poiid":"B2094757D065A7F44593","title":"日月光中心 OLIVE DES OLIVE","lon":"121.46757623","lat":"31.232956358","category":"500","category_name":"未知分类","address":"上海打浦桥"},{"poiid":"B2094757DA68A1F84099","title":"Starbucks","lon":"121.4661986","lat":"31.2337571","category":"247","category_name":"餐饮美食","address":"People square"},{"poiid":"B2094752DA65A2FD439E","title":"上海明天广场JW万豪酒店","lon":"121.46729","lat":"31.233113","category":"500","category_name":"未知分类","address":"上海市 南京西路399号"},{"poiid":"B2094757D06FA4FC4298","title":"华盛大公馆","lon":"121.46709","lat":"31.234617","category":"47","category_name":"住宅区","address":"上海黄浦区北京西路355弄1-2号"},{"poiid":"B2094751D565A7F4479A","title":"佳家湯包","lon":"121.466453","lat":"31.234724","category":"247","category_name":"餐饮美食","address":"黄河路店"},{"poiid":"B2094753D765A7F44899","title":"木鸭梨露天餐厅","lon":"121.466018","lat":"31.234704","category":"500","category_name":"未知分类","address":"上海市 南京西路456号科勒设计中心4楼(近仙乐斯广场)"},{"poiid":"B2094757D068A0F4469E","title":"韩膳宫","lon":"121.4661986","lat":"31.2337571","category":"46","category_name":"楼宇","address":"上海静安区成都北路333号"},{"poiid":"B2094752D76FAAFE4192","title":"Lingo餐厅","lon":"121.466171","lat":"31.234406","category":"247","category_name":"餐饮美食","address":"南京西路仙乐斯"},{"poiid":"B209475CD469A1F4479C","title":"上海外滩","lon":"121.465995","lat":"31.236091","category":"500","category_name":"未知分类","address":"上海市 上海外滩"},{"poiid":"B2094752D06FA4FA499D","title":"MOCA ON THE PARK","lon":"121.465445","lat":"31.233023","category":"247","category_name":"餐饮美食","address":"南京西路231号人民公园内上海当代艺术馆3楼"},{"poiid":"B2094655D26CAAFC449A","title":"浦行别墅(西门)","lon":"121.46639","lat":"31.23531","category":"47","category_name":"住宅区","address":"成都北路696弄1-35号"},{"poiid":"B2094757D169A0F94499","title":"雅珠粥店","lon":"121.465196","lat":"31.234423","category":"68","category_name":"快餐厅","address":"静安区北京西路370号(成都路口)"},{"poiid":"B2094655D26CAAFC4393","title":"浦行别墅","lon":"121.46661","lat":"31.23531","category":"47","category_name":"住宅区","address":"成都北路696弄1-35号"},{"poiid":"B2094751DA6FAAFA4598","title":"第一笼（黄河路店）","lon":"121.4665328","lat":"31.2365944","category":"247","category_name":"餐饮美食","address":"黄河路86号"},{"poiid":"B2094654DA6CA1FB489F","title":"蕃祉里四街","lon":"121.465251","lat":"31.234841","category":"47","category_name":"住宅区","address":"茂名北路285弄4-8号"},{"poiid":"B2094655D36CA5F54198","title":"北京西路成都北路","lon":"121.4677","lat":"31.23521","category":"38","category_name":"公交车站","address":""},{"poiid":"B2094757D769A4F54993","title":"云曦小吃","lon":"121.463874054","lat":"31.236463793","category":"68","category_name":"快餐厅","address":"静安区山海关路296号(近成都北路)"},{"poiid":"B2094654DA6CA1FB489C","title":"蕃祉里五街","lon":"121.465","lat":"31.2351","category":"47","category_name":"住宅区","address":"茂名北路293弄4-8号"},{"poiid":"B2094757D06FABF5429D","title":"南泰大厦","lon":"121.466","lat":"31.2367","category":"252","category_name":"楼宇机构","address":"上海南京西路920号"},{"poiid":"B2094751D565A7F5479C","title":"中华艺术宫","lon":"121.465068","lat":"31.234241","category":"500","category_name":"未知分类","address":null},{"poiid":"B2094655D26AA4FB4593","title":"吉祥馄饨 北京西路店 Gll Wonton","lon":"121.46798","lat":"31.23527","category":"68","category_name":"快餐厅","address":"黄浦区南京西路302号(近西藏中路)"},{"poiid":"B2094752D169A6FF489D","title":"上海大光明影院","lon":"121.467849","lat":"31.234863","category":"248","category_name":"生活娱乐","address":"上海市南京西路216号"},{"poiid":"B2094655D26CAAFC4792","title":"三德小区","lon":"121.46624","lat":"31.236679","category":"47","category_name":"住宅区","address":"山海关路201弄"},{"poiid":"B2094757DB69A4FE489E","title":"苏浙汇","lon":"121.4655447326625","lat":"31.23379043700509","category":"500","category_name":"未知分类","address":null},{"poiid":"B2094655D264A1FB4498","title":"喜士多便利(华庭店)","lon":"121.46556","lat":"31.23412","category":"117","category_name":"便民商店/便利店","address":"北京西路483号"},{"poiid":"B2094654DA6CA2F8479C","title":"长春藤运通大厦","lon":"121.46723175256","lat":"31.237013536146","category":"46","category_name":"楼宇","address":"卢湾区复兴中路369号(马当路口)"},{"poiid":"B2094752DB6CA2F8469F","title":"大光明电影院","lon":"121.467461","lat":"31.234931","category":"178","category_name":"电影院","address":"上海市 南京西路"},{"poiid":"B2094654DA6FAAF5479E","title":"上海长征医院","lon":"121.46721","lat":"31.23279","category":"162","category_name":"医院","address":"黄浦区凤阳路415号(近成都北路)"},{"poiid":"B2094655D26CAAFF4992","title":"静安别墅","lon":"121.464","lat":"31.2349","category":"47","category_name":"住宅区","address":"静安区南京西路1025弄静安别墅81号(近茂名北路)"},{"poiid":"B2094757D06FA3F4449B","title":"泰廊","lon":"121.46409","lat":"31.2338","category":"99","category_name":"泰国／越南菜品餐厅","address":"静安区大田路127号(近北京西路)"},{"poiid":"B2094753D76FAAFA449C","title":"上海滩国泰旗舰店","lon":"121.466011","lat":"31.216125","category":"249","category_name":"购物服务","address":"淮海中路868号"},{"poiid":"B209475CD564A7F84292","title":"上海滩新天地店","lon":"121.47463","lat":"31.22164","category":"119","category_name":"商场","address":"\"太仓路181弄新天地北里15号\r\n\""},{"poiid":"B209475CD564A7F8439E","title":"上海滩中信泰富店","lon":"121.45602","lat":"31.22851","category":"119","category_name":"商场","address":"\"南京西路1168号中信泰富广场，店铺号221.\r\n\""},{"poiid":"B2094757D06FAAFD409D","title":"中创大厦","lon":"121.467","lat":"31.2364","category":"46","category_name":"楼宇","address":"上海静安区南京西路819号"},{"poiid":"B2094757D069A5FD439F","title":"新闸路成都北路","lon":"121.464829","lat":"31.237632","category":"500","category_name":"未知分类","address":"上海新闸路成都北路"},{"poiid":"B2094751DA69A6FB499A","title":"王品  仙乐斯广场","lon":"121.465452","lat":"31.233329","category":"247","category_name":"餐饮美食","address":"南京西路338号"},{"poiid":"B2094757D06FA2F54492","title":"沪上一家辣肉面馆(成都北路店)","lon":"121.46618","lat":"31.23239","category":"68","category_name":"快餐厅","address":"黄浦区凤阳路535号(近成都北路)"},{"poiid":"B2094750DB6CA1F8439B","title":"人民公园","lon":"121.466559","lat":"31.233402","category":"196","category_name":"公园","address":"黄浦区南京西路75号人民公园内(近黄陂北路)"},{"poiid":"B2094757D069A2FD489B","title":"北京西路 成都北路 路口","lon":"121.46540683","lat":"31.236365878","category":"500","category_name":"未知分类","address":"上海北京西路 成都北路 路口"},{"poiid":"B2094751D468A4F5469C","title":"小杨生煎黄河路店","lon":"121.4675955718996","lat":"31.23632675273554","category":"247","category_name":"餐饮美食","address":"黄浦区黄河路97号1-3楼(近凤阳路)"},{"poiid":"B2094757DB68A5FF449C","title":"上海 来福士","lon":"121.4678278181757","lat":"31.23394058782101","category":"247","category_name":"餐饮美食","address":"人民广场"},{"poiid":"B2094757DA6EAAFD429A","title":"御景轩凯宾斯基酒店","lon":"121.465211999998","lat":"31.2323450000001","category":"251","category_name":"出行住宿","address":"静安区凤阳路601号"},{"poiid":"B2094654DB65A2FC409D","title":"静安新时代大厦","lon":"121.467","lat":"31.2366","category":"46","category_name":"楼宇","address":"南京西路881号(吴江路188)"},{"poiid":"B2094751D56FA4F4419B","title":"木有鸭梨餐吧","lon":"121.4664323","lat":"31.2333259","category":"247","category_name":"餐饮美食","address":"南京西路456号4楼"},{"poiid":"B2094752D069A5FA4393","title":"上海国际时尚中心","lon":"121.465475","lat":"31.233833","category":"249","category_name":"购物服务","address":"上海市杨树浦路2866号"},{"poiid":"B2094654DA6FAAF5489C","title":"中华保险华盛大厦","lon":"121.46685","lat":"31.23415","category":"46","category_name":"楼宇","address":"成都北路600"},{"poiid":"B2094757D06FA0FA4992","title":"上海壹街区","lon":"121.465136","lat":"31.232562","category":"47","category_name":"住宅区","address":"静安区凤阳路588弄"},{"poiid":"B2094757D16FAAFA429B","title":"长征医院住院部","lon":"121.466941738","lat":"31.2327763544","category":"162","category_name":"医院","address":"上海凤阳路415号"},{"poiid":"B2094654DA6CA1FF409D","title":"泰兴大楼","lon":"121.4651741425","lat":"31.236332098585","category":"46","category_name":"楼宇","address":"南京西路934号"},{"poiid":"B2094757D66CA0FF4199","title":"成都北路","lon":"121.465531738","lat":"31.2359084211","category":"500","category_name":"未知分类","address":"上海市黄浦区"},{"poiid":"B2094757D065A7F44593","title":"日月光中心 OLIVE DES OLIVE","lon":"121.46757623","lat":"31.232956358","category":"500","category_name":"未知分类","address":"上海打浦桥"},{"poiid":"B2094757DA68A1F84099","title":"Starbucks","lon":"121.4661986","lat":"31.2337571","category":"247","category_name":"餐饮美食","address":"People square"},{"poiid":"B2094752DA65A2FD439E","title":"上海明天广场JW万豪酒店","lon":"121.46729","lat":"31.233113","category":"500","category_name":"未知分类","address":"上海市 南京西路399号"},{"poiid":"B2094757D06FA4FC4298","title":"华盛大公馆","lon":"121.46709","lat":"31.234617","category":"47","category_name":"住宅区","address":"上海黄浦区北京西路355弄1-2号"},{"poiid":"B2094751D565A7F4479A","title":"佳家湯包","lon":"121.466453","lat":"31.234724","category":"247","category_name":"餐饮美食","address":"黄河路店"},{"poiid":"B2094753D765A7F44899","title":"木鸭梨露天餐厅","lon":"121.466018","lat":"31.234704","category":"500","category_name":"未知分类","address":"上海市 南京西路456号科勒设计中心4楼(近仙乐斯广场)"},{"poiid":"B2094757D068A0F4469E","title":"韩膳宫","lon":"121.4661986","lat":"31.2337571","category":"46","category_name":"楼宇","address":"上海静安区成都北路333号"},{"poiid":"B2094752D76FAAFE4192","title":"Lingo餐厅","lon":"121.466171","lat":"31.234406","category":"247","category_name":"餐饮美食","address":"南京西路仙乐斯"},{"poiid":"B209475CD469A1F4479C","title":"上海外滩","lon":"121.465995","lat":"31.236091","category":"500","category_name":"未知分类","address":"上海市 上海外滩"},{"poiid":"B2094752D06FA4FA499D","title":"MOCA ON THE PARK","lon":"121.465445","lat":"31.233023","category":"247","category_name":"餐饮美食","address":"南京西路231号人民公园内上海当代艺术馆3楼"},{"poiid":"B2094655D26CAAFC449A","title":"浦行别墅(西门)","lon":"121.46639","lat":"31.23531","category":"47","category_name":"住宅区","address":"成都北路696弄1-35号"},{"poiid":"B2094757D169A0F94499","title":"雅珠粥店","lon":"121.465196","lat":"31.234423","category":"68","category_name":"快餐厅","address":"静安区北京西路370号(成都路口)"},{"poiid":"B2094655D26CAAFC4393","title":"浦行别墅","lon":"121.46661","lat":"31.23531","category":"47","category_name":"住宅区","address":"成都北路696弄1-35号"},{"poiid":"B2094751DA6FAAFA4598","title":"第一笼（黄河路店）","lon":"121.4665328","lat":"31.2365944","category":"247","category_name":"餐饮美食","address":"黄河路86号"},{"poiid":"B2094654DA6CA1FB489F","title":"蕃祉里四街","lon":"121.465251","lat":"31.234841","category":"47","category_name":"住宅区","address":"茂名北路285弄4-8号"},{"poiid":"B2094655D36CA5F54198","title":"北京西路成都北路","lon":"121.4677","lat":"31.23521","category":"38","category_name":"公交车站","address":""},{"poiid":"B2094757D769A4F54993","title":"云曦小吃","lon":"121.463874054","lat":"31.236463793","category":"68","category_name":"快餐厅","address":"静安区山海关路296号(近成都北路)"},{"poiid":"B2094654DA6CA1FB489C","title":"蕃祉里五街","lon":"121.465","lat":"31.2351","category":"47","category_name":"住宅区","address":"茂名北路293弄4-8号"},{"poiid":"B2094757D06FABF5429D","title":"南泰大厦","lon":"121.466","lat":"31.2367","category":"252","category_name":"楼宇机构","address":"上海南京西路920号"},{"poiid":"B2094751D565A7F5479C","title":"中华艺术宫","lon":"121.465068","lat":"31.234241","category":"500","category_name":"未知分类","address":null},{"poiid":"B2094655D26AA4FB4593","title":"吉祥馄饨 北京西路店 Gll Wonton","lon":"121.46798","lat":"31.23527","category":"68","category_name":"快餐厅","address":"黄浦区南京西路302号(近西藏中路)"},{"poiid":"B2094752D169A6FF489D","title":"上海大光明影院","lon":"121.467849","lat":"31.234863","category":"248","category_name":"生活娱乐","address":"上海市南京西路216号"},{"poiid":"B2094655D26CAAFC4792","title":"三德小区","lon":"121.46624","lat":"31.236679","category":"47","category_name":"住宅区","address":"山海关路201弄"},{"poiid":"B2094757DB69A4FE489E","title":"苏浙汇","lon":"121.4655447326625","lat":"31.23379043700509","category":"500","category_name":"未知分类","address":null},{"poiid":"B2094655D264A1FB4498","title":"喜士多便利(华庭店)","lon":"121.46556","lat":"31.23412","category":"117","category_name":"便民商店/便利店","address":"北京西路483号"},{"poiid":"B2094654DA6CA2F8479C","title":"长春藤运通大厦","lon":"121.46723175256","lat":"31.237013536146","category":"46","category_name":"楼宇","address":"卢湾区复兴中路369号(马当路口)"},{"poiid":"B2094752DB6CA2F8469F","title":"大光明电影院","lon":"121.467461","lat":"31.234931","category":"178","category_name":"电影院","address":"上海市 南京西路"},{"poiid":"B2094654DA6FAAF5479E","title":"上海长征医院","lon":"121.46721","lat":"31.23279","category":"162","category_name":"医院","address":"黄浦区凤阳路415号(近成都北路)"},{"poiid":"B2094655D26CAAFF4992","title":"静安别墅","lon":"121.464","lat":"31.2349","category":"47","category_name":"住宅区","address":"静安区南京西路1025弄静安别墅81号(近茂名北路)"},{"poiid":"B2094757D06FA3F4449B","title":"泰廊","lon":"121.46409","lat":"31.2338","category":"99","category_name":"泰国／越南菜品餐厅","address":"静安区大田路127号(近北京西路)"},{"poiid":"B2094753D76FAAFA449C","title":"上海滩国泰旗舰店","lon":"121.466011","lat":"31.216125","category":"249","category_name":"购物服务","address":"淮海中路868号"},{"poiid":"B209475CD564A7F84292","title":"上海滩新天地店","lon":"121.47463","lat":"31.22164","category":"119","category_name":"商场","address":"\"太仓路181弄新天地北里15号\r\n\""},{"poiid":"B209475CD564A7F8439E","title":"上海滩中信泰富店","lon":"121.45602","lat":"31.22851","category":"119","category_name":"商场","address":"\"南京西路1168号中信泰富广场，店铺号221.\r\n\""},{"poiid":"B2094757D06FAAFD409D","title":"中创大厦","lon":"121.467","lat":"31.2364","category":"46","category_name":"楼宇","address":"上海静安区南京西路819号"},{"poiid":"B2094757D069A5FD439F","title":"新闸路成都北路","lon":"121.464829","lat":"31.237632","category":"500","category_name":"未知分类","address":"上海新闸路成都北路"},{"poiid":"B2094751DA69A6FB499A","title":"王品  仙乐斯广场","lon":"121.465452","lat":"31.233329","category":"247","category_name":"餐饮美食","address":"南京西路338号"},{"poiid":"B2094757D06FA2F54492","title":"沪上一家辣肉面馆(成都北路店)","lon":"121.46618","lat":"31.23239","category":"68","category_name":"快餐厅","address":"黄浦区凤阳路535号(近成都北路)"},{"poiid":"B2094750DB6CA1F8439B","title":"人民公园","lon":"121.466559","lat":"31.233402","category":"196","category_name":"公园","address":"黄浦区南京西路75号人民公园内(近黄陂北路)"},{"poiid":"B2094757D069A2FD489B","title":"北京西路 成都北路 路口","lon":"121.46540683","lat":"31.236365878","category":"500","category_name":"未知分类","address":"上海北京西路 成都北路 路口"},{"poiid":"B2094751D468A4F5469C","title":"小杨生煎黄河路店","lon":"121.4675955718996","lat":"31.23632675273554","category":"247","category_name":"餐饮美食","address":"黄浦区黄河路97号1-3楼(近凤阳路)"},{"poiid":"B2094757DB68A5FF449C","title":"上海 来福士","lon":"121.4678278181757","lat":"31.23394058782101","category":"247","category_name":"餐饮美食","address":"人民广场"},{"poiid":"B2094757DA6EAAFD429A","title":"御景轩凯宾斯基酒店","lon":"121.465211999998","lat":"31.2323450000001","category":"251","category_name":"出行住宿","address":"静安区凤阳路601号"},{"poiid":"B2094654DB65A2FC409D","title":"静安新时代大厦","lon":"121.467","lat":"31.2366","category":"46","category_name":"楼宇","address":"南京西路881号(吴江路188)"},{"poiid":"B2094751D56FA4F4419B","title":"木有鸭梨餐吧","lon":"121.4664323","lat":"31.2333259","category":"247","category_name":"餐饮美食","address":"南京西路456号4楼"},{"poiid":"B2094752D069A5FA4393","title":"上海国际时尚中心","lon":"121.465475","lat":"31.233833","category":"249","category_name":"购物服务","address":"上海市杨树浦路2866号"},{"poiid":"B2094654DA6FAAF5489C","title":"中华保险华盛大厦","lon":"121.46685","lat":"31.23415","category":"46","category_name":"楼宇","address":"成都北路600"},{"poiid":"B2094757D06FA0FA4992","title":"上海壹街区","lon":"121.465136","lat":"31.232562","category":"47","category_name":"住宅区","address":"静安区凤阳路588弄"},{"poiid":"B2094757D16FAAFA429B","title":"长征医院住院部","lon":"121.466941738","lat":"31.2327763544","category":"162","category_name":"医院","address":"上海凤阳路415号"},{"poiid":"B2094654DA6CA1FF409D","title":"泰兴大楼","lon":"121.4651741425","lat":"31.236332098585","category":"46","category_name":"楼宇","address":"南京西路934号"},{"poiid":"B2094757D66CA0FF4199","title":"成都北路","lon":"121.465531738","lat":"31.2359084211","category":"500","category_name":"未知分类","address":"上海市黄浦区"},{"poiid":"B2094757D065A7F44593","title":"日月光中心 OLIVE DES OLIVE","lon":"121.46757623","lat":"31.232956358","category":"500","category_name":"未知分类","address":"上海打浦桥"},{"poiid":"B2094757DA68A1F84099","title":"Starbucks","lon":"121.4661986","lat":"31.2337571","category":"247","category_name":"餐饮美食","address":"People square"},{"poiid":"B2094752DA65A2FD439E","title":"上海明天广场JW万豪酒店","lon":"121.46729","lat":"31.233113","category":"500","category_name":"未知分类","address":"上海市 南京西路399号"},{"poiid":"B2094757D06FA4FC4298","title":"华盛大公馆","lon":"121.46709","lat":"31.234617","category":"47","category_name":"住宅区","address":"上海黄浦区北京西路355弄1-2号"},{"poiid":"B2094751D565A7F4479A","title":"佳家湯包","lon":"121.466453","lat":"31.234724","category":"247","category_name":"餐饮美食","address":"黄河路店"},{"poiid":"B2094753D765A7F44899","title":"木鸭梨露天餐厅","lon":"121.466018","lat":"31.234704","category":"500","category_name":"未知分类","address":"上海市 南京西路456号科勒设计中心4楼(近仙乐斯广场)"},{"poiid":"B2094757D068A0F4469E","title":"韩膳宫","lon":"121.4661986","lat":"31.2337571","category":"46","category_name":"楼宇","address":"上海静安区成都北路333号"},{"poiid":"B2094752D76FAAFE4192","title":"Lingo餐厅","lon":"121.466171","lat":"31.234406","category":"247","category_name":"餐饮美食","address":"南京西路仙乐斯"},{"poiid":"B209475CD469A1F4479C","title":"上海外滩","lon":"121.465995","lat":"31.236091","category":"500","category_name":"未知分类","address":"上海市 上海外滩"},{"poiid":"B2094752D06FA4FA499D","title":"MOCA ON THE PARK","lon":"121.465445","lat":"31.233023","category":"247","category_name":"餐饮美食","address":"南京西路231号人民公园内上海当代艺术馆3楼"},{"poiid":"B2094655D26CAAFC449A","title":"浦行别墅(西门)","lon":"121.46639","lat":"31.23531","category":"47","category_name":"住宅区","address":"成都北路696弄1-35号"},{"poiid":"B2094757D169A0F94499","title":"雅珠粥店","lon":"121.465196","lat":"31.234423","category":"68","category_name":"快餐厅","address":"静安区北京西路370号(成都路口)"},{"poiid":"B2094655D26CAAFC4393","title":"浦行别墅","lon":"121.46661","lat":"31.23531","category":"47","category_name":"住宅区","address":"成都北路696弄1-35号"},{"poiid":"B2094751DA6FAAFA4598","title":"第一笼（黄河路店）","lon":"121.4665328","lat":"31.2365944","category":"247","category_name":"餐饮美食","address":"黄河路86号"},{"poiid":"B2094654DA6CA1FB489F","title":"蕃祉里四街","lon":"121.465251","lat":"31.234841","category":"47","category_name":"住宅区","address":"茂名北路285弄4-8号"},{"poiid":"B2094655D36CA5F54198","title":"北京西路成都北路","lon":"121.4677","lat":"31.23521","category":"38","category_name":"公交车站","address":""},{"poiid":"B2094757D769A4F54993","title":"云曦小吃","lon":"121.463874054","lat":"31.236463793","category":"68","category_name":"快餐厅","address":"静安区山海关路296号(近成都北路)"},{"poiid":"B2094654DA6CA1FB489C","title":"蕃祉里五街","lon":"121.465","lat":"31.2351","category":"47","category_name":"住宅区","address":"茂名北路293弄4-8号"},{"poiid":"B2094757D06FABF5429D","title":"南泰大厦","lon":"121.466","lat":"31.2367","category":"252","category_name":"楼宇机构","address":"上海南京西路920号"},{"poiid":"B2094751D565A7F5479C","title":"中华艺术宫","lon":"121.465068","lat":"31.234241","category":"500","category_name":"未知分类","address":null},{"poiid":"B2094655D26AA4FB4593","title":"吉祥馄饨 北京西路店 Gll Wonton","lon":"121.46798","lat":"31.23527","category":"68","category_name":"快餐厅","address":"黄浦区南京西路302号(近西藏中路)"},{"poiid":"B2094752D169A6FF489D","title":"上海大光明影院","lon":"121.467849","lat":"31.234863","category":"248","category_name":"生活娱乐","address":"上海市南京西路216号"},{"poiid":"B2094655D26CAAFC4792","title":"三德小区","lon":"121.46624","lat":"31.236679","category":"47","category_name":"住宅区","address":"山海关路201弄"},{"poiid":"B2094757DB69A4FE489E","title":"苏浙汇","lon":"121.4655447326625","lat":"31.23379043700509","category":"500","category_name":"未知分类","address":null},{"poiid":"B2094655D264A1FB4498","title":"喜士多便利(华庭店)","lon":"121.46556","lat":"31.23412","category":"117","category_name":"便民商店/便利店","address":"北京西路483号"},{"poiid":"B2094654DA6CA2F8479C","title":"长春藤运通大厦","lon":"121.46723175256","lat":"31.237013536146","category":"46","category_name":"楼宇","address":"卢湾区复兴中路369号(马当路口)"},{"poiid":"B2094752DB6CA2F8469F","title":"大光明电影院","lon":"121.467461","lat":"31.234931","category":"178","category_name":"电影院","address":"上海市 南京西路"}]