[{"poiid":"B2094655D26AABFE429B","title":"辛香汇","lon":"121.43752","lat":"31.18321","category":"71","category_name":"四川菜","address":"徐汇区零陵路899号飞洲国际广场5楼(近漕溪北路)"},{"poiid":"B2094655D26AA0FF489B","title":"上海体育馆","lon":"121.43837","lat":"31.18147","category":"224","category_name":"综合体育馆","address":"徐汇区漕溪北路1111号(零陵路口)"},{"poiid":"B2094655D26EAAFD459C","title":"上海大舞台","lon":"121.43837","lat":"31.18147","category":"180","category_name":"剧场","address":"徐汇区漕溪北路1111号(近中山南二路)"},{"poiid":"B2094757D06FA2FC439D","title":"飞洲国际大厦","lon":"121.437682","lat":"31.1833079253","category":"46","category_name":"楼宇","address":"上海市徐汇区零陵路899号"},{"poiid":"B2094757D068A3F94892","title":"上海万体馆","lon":"121.438225586","lat":"31.1821814917","category":"148","category_name":"美容美发店","address":"上海漕溪北路中山西路"},{"poiid":"B2094654DA6DA0F5469D","title":"鸿瑞兴徐汇店","lon":"121.44014","lat":"31.17986","category":"76","category_name":"上海菜","address":"徐汇区中山南二路1500号东亚体育宾馆1-3楼(上海体育场运动员之家内)"},{"poiid":"B2094757D064A1FF459C","title":"Nike篮球公园","lon":"121.43688507806542","lat":"31.182279528801896","category":"224","category_name":"综合体育馆","address":"徐汇区漕溪北路1111号东亚体育文化中心1号门(零陵路口)"},{"poiid":"B2094655D26EA0F4449B","title":"富豪东亚酒店","lon":"121.44073","lat":"31.18144","category":"214","category_name":"四星级宾馆","address":"上海徐汇区零陵路800号(近八万人体育场)"},{"poiid":"B2094757D06FA3F84393","title":"悦蓉香锅牛蛙(飞洲国际店)","lon":"121.43784","lat":"31.18282","category":"71","category_name":"四川菜","address":"徐汇区零陵路899号飞洲国际广场B1楼(近漕溪北路)"},{"poiid":"B2094757D06FA7FC409C","title":"东亚展览馆","lon":"121.439664586","lat":"31.1816744818","category":"179","category_name":"音乐厅","address":"徐汇区天钥桥路666号上海八万人体育场内(近中山南二路)"},{"poiid":"B2094757D06EAAFB429E","title":"上海体育馆地铁站","lon":"121.43746609","lat":"31.182893","category":"36","category_name":"地铁站","address":"上海轨道交通 一号线 四号线 轨交上海体育馆站 轻轨 1 4"},{"poiid":"B2094654DB69A4F8439D","title":"星巴克咖啡(上海体育馆店)","lon":"121.43912","lat":"31.18313","category":"260","category_name":"其他","address":"徐汇区漕溪北路1111号上海体育馆1楼1号扶梯(近零陵路)"},{"poiid":"B2094757D068ABF9499C","title":"小南国(万体馆店)","lon":"121.437889586","lat":"31.1826755013","category":"76","category_name":"上海菜","address":"徐汇区零陵路899号飞洲国际大厦5楼"},{"poiid":"B2094655D268A2F44993","title":"上海体育场(六号门)","lon":"121.44011","lat":"31.18315","category":"224","category_name":"综合体育馆","address":""},{"poiid":"B2094654DB65A6FA4298","title":"上海奥林匹克俱乐部","lon":"121.43959","lat":"31.18069","category":"260","category_name":"其他","address":"中山南二路1800号(近上海游泳馆)"},{"poiid":"B2094750D66BA4F8459D","title":"宜家","lon":"121.43769","lat":"31.180406","category":"500","category_name":"未知分类","address":null},{"poiid":"B2094757D06FA3FC419F","title":"麦当劳(飞洲国际店)","lon":"121.437192625","lat":"31.1830581048","category":"68","category_name":"快餐厅","address":"徐汇区零陵路899号飞洲国际大厦B1楼(近漕溪北路)"},{"poiid":"B2094757D06FA2FB4393","title":"萨莉亚(飞洲国际店)","lon":"121.43734","lat":"31.18285","category":"94","category_name":"西餐厅","address":"徐汇区零陵路899号飞洲国际大厦B1楼(近漕溪北路)"},{"poiid":"B2094752DB68A1FC4693","title":"上上谦串串香火锅(龙华西路店)","lon":"121.439194","lat":"31.180206","category":"247","category_name":"餐饮美食","address":"上海市 龙华西路565号(近中山南二路)"},{"poiid":"B2094757D06FA0FE4192","title":"争鲜回转寿司 飞洲国际店","lon":"121.436941054","lat":"31.182774793","category":"95","category_name":"日本料理","address":"徐汇区零陵路899号飞洲国际大厦B1楼(近漕溪北路)"},{"poiid":"B2094757D06FA5F44499","title":"东亚壁球馆","lon":"121.43781","lat":"31.17969","category":"220","category_name":"运动场所","address":"徐汇区中山南二路1500号(近零陵路)"},{"poiid":"B2094757D06FA7F5449D","title":"棒约翰比萨(飞洲店)","lon":"121.43744437","lat":"31.18322879","category":"94","category_name":"西餐厅","address":"上海徐汇区零陵路899号飞洲国际大厦1楼(近漕溪北路)"},{"poiid":"B2094654DA6DA0F84899","title":"富客斯国际购物中心","lon":"121.43722","lat":"31.18313","category":"119","category_name":"商场","address":"零陵路899号飞洲国际广场"},{"poiid":"B2094750D669A5FB489A","title":"辛香汇飞洲国际店","lon":"121.438926","lat":"31.180387","category":"247","category_name":"餐饮美食","address":null},{"poiid":"B2094654DB6AA6F8469D","title":"上海东亚体育宾馆","lon":"121.44016","lat":"31.17974","category":"250","category_name":"公园户外","address":"上海市徐汇区中山南二路1500号(八万人体育场旁)"},{"poiid":"B2094757D06FA4F9499A","title":"韩滋源(飞洲国际店)","lon":"121.437596881","lat":"31.1832520759","category":"96","category_name":"韩国料理","address":"徐汇区零陵路899号飞洲国际广场B1楼(近漕溪北路)"},{"poiid":"B2094757D06FA7FA439D","title":"DQ冰雪皇后(飞洲店)","lon":"121.43757629","lat":"31.183094024","category":"113","category_name":"冷饮店","address":"徐汇区零陵路899号飞洲国际广场B1楼(漕溪北路零陵路)"},{"poiid":"B2094757D665A3FD439C","title":"翠蝶川味茶餐厅","lon":"121.437018","lat":"31.182831","category":"71","category_name":"四川菜","address":"徐汇区零陵路899号飞洲国际广场B1楼(近漕溪北路)"},{"poiid":"B2094757D06FA6FC4699","title":"橙天锅锅香","lon":"121.43779","lat":"31.18294","category":"68","category_name":"快餐厅","address":"徐汇区零陵路899号飞洲国际广场B1-17号商铺(近漕溪北路)"},{"poiid":"B2094757D06FAAFC4992","title":"耐克足球公园","lon":"121.44049737","lat":"31.183140289","category":"220","category_name":"运动场所","address":"徐汇区零陵路800号万体馆6号门(近上海游泳馆)"},{"poiid":"B2094654DB6AA3F5429E","title":"真锅咖啡厅(飞洲国际店)","lon":"121.43722","lat":"31.18313","category":"247","category_name":"餐饮美食","address":"徐汇区零陵路899号飞洲国际大厦B1-12(近漕溪北路)"},{"poiid":"B2094655D26EA2FE4393","title":"八万人体育场NIKE足球公园","lon":"121.44091","lat":"31.18133","category":"196","category_name":"公园","address":"上海市徐汇区零陵路800号"},{"poiid":"B2094757D16FA1FF4492","title":"京门涮肉","lon":"121.438689386","lat":"31.179947048","category":"86","category_name":"火锅店","address":"徐汇区漕溪北路1111号上海体育馆3号楼梯旁"},{"poiid":"B2094750DA6AA6FF4893","title":"飞洲国际","lon":"121.438926","lat":"31.180414","category":"252","category_name":"楼宇机构","address":null},{"poiid":"B2094654DA6DA0F54793","title":"上海东亚网球场","lon":"121.43814","lat":"31.18001","category":"226","category_name":"网球场","address":"零陵路800号(上海体育馆对面)"},{"poiid":"B2094750D16AA2F54799","title":"上海富豪东亚酒店","lon":"121.44091","lat":"31.18133","category":"72","category_name":"广东菜","address":"徐汇区零陵路800号上海富豪东亚酒店1楼(近上海游泳馆)"},{"poiid":"B2094757D069A1F54592","title":"凡凡屋","lon":"121.43762158","lat":"31.183114509","category":"95","category_name":"日本料理","address":"徐汇区零陵路899号飞洲国际B1楼16号(近漕溪北路)"},{"poiid":"B2094757D069A6F4419A","title":"吉祥日本料理(徐汇店)","lon":"121.44157","lat":"31.17851","category":"95","category_name":"日本料理","address":"徐汇区中山南二路1800号奥林匹克俱乐部1楼(近漕溪路)"},{"poiid":"B2094757D068AAFE4998","title":"凯萨铁板烧(飞洲国际店)","lon":"121.43773","lat":"31.18272","category":"94","category_name":"西餐厅","address":"徐汇区零陵路899号飞洲国际大厦B1楼(近漕溪北路)"},{"poiid":"B2094655D26EA2FC489A","title":"富豪东亚咖啡厅","lon":"121.44218733275","lat":"31.183862376152","category":"268","category_name":"自助","address":"徐汇区零陵路800号上海富豪东亚酒店1楼(近上海游泳馆)"},{"poiid":"B2094654DB64AAFD499E","title":"奥林泰园村鱼翅","lon":"121.43974","lat":"31.18008","category":"72","category_name":"广东菜","address":"徐汇区中山南二路1800号奥林匹克宾馆2楼(近漕溪路)"},{"poiid":"B2094655D26AA0F84893","title":"地铁上海体育馆站","lon":"121.43746","lat":"31.18288","category":"36","category_name":"地铁站","address":""},{"poiid":"B2094655D269A4FA4293","title":"FOXTOWN徐汇店","lon":"121.43722","lat":"31.18313","category":"247","category_name":"餐饮美食","address":"徐汇区零陵路899号14楼(近漕溪北路)"},{"poiid":"B2094655D268A6F5409A","title":"Reebok篮球公园","lon":"121.43703","lat":"31.1808","category":"229","category_name":"篮球场馆","address":""},{"poiid":"B2094757D068A6FB479C","title":"城市超市(永新店)","lon":"121.43848858","lat":"31.181142471","category":"118","category_name":"超级市场","address":"上海徐汇区天钥桥路131号永新坊B1楼08A(近辛耕路)  "},{"poiid":"B2094757DA64A4F54592","title":"飞州国际广场","lon":"121.437389","lat":"31.182929","category":"252","category_name":"楼宇机构","address":"拱墅区工业开发区祥符路33号"},{"poiid":"B209475CD364ABFC419C","title":"多乐之日 零陵路店","lon":"121.439626","lat":"31.18361","category":"67","category_name":"甜品店","address":"零陵路735号"},{"poiid":"B2094655D26FAAFD4592","title":"上海体育场(一号门)","lon":"121.43714","lat":"31.18141","category":"224","category_name":"综合体育馆","address":""},{"poiid":"B2094655D26AA7FA429F","title":"川亿鸡公煲 飞洲店","lon":"121.436779054","lat":"31.182643793","category":"247","category_name":"餐饮美食","address":"徐汇区零陵路899号飞洲国际大厦B1(近漕溪北路)"},{"poiid":"B2094751D26BA4FE4892","title":"太平洋咖啡","lon":"121.4369257355398","lat":"31.18131728615352","category":"247","category_name":"餐饮美食","address":"上海市徐汇区天钥桥路666号上海体育场5号梯下A号房屋"},{"poiid":"B2094655D26AABFE429B","title":"辛香汇","lon":"121.43752","lat":"31.18321","category":"71","category_name":"四川菜","address":"徐汇区零陵路899号飞洲国际广场5楼(近漕溪北路)"},{"poiid":"B2094655D26AA0FF489B","title":"上海体育馆","lon":"121.43837","lat":"31.18147","category":"224","category_name":"综合体育馆","address":"徐汇区漕溪北路1111号(零陵路口)"},{"poiid":"B2094655D26EAAFD459C","title":"上海大舞台","lon":"121.43837","lat":"31.18147","category":"180","category_name":"剧场","address":"徐汇区漕溪北路1111号(近中山南二路)"},{"poiid":"B2094757D06FA2FC439D","title":"飞洲国际大厦","lon":"121.437682","lat":"31.1833079253","category":"46","category_name":"楼宇","address":"上海市徐汇区零陵路899号"},{"poiid":"B2094757D068A3F94892","title":"上海万体馆","lon":"121.438225586","lat":"31.1821814917","category":"148","category_name":"美容美发店","address":"上海漕溪北路中山西路"},{"poiid":"B2094654DA6DA0F5469D","title":"鸿瑞兴徐汇店","lon":"121.44014","lat":"31.17986","category":"76","category_name":"上海菜","address":"徐汇区中山南二路1500号东亚体育宾馆1-3楼(上海体育场运动员之家内)"},{"poiid":"B2094757D064A1FF459C","title":"Nike篮球公园","lon":"121.43688507806542","lat":"31.182279528801896","category":"224","category_name":"综合体育馆","address":"徐汇区漕溪北路1111号东亚体育文化中心1号门(零陵路口)"},{"poiid":"B2094655D26EA0F4449B","title":"富豪东亚酒店","lon":"121.44073","lat":"31.18144","category":"214","category_name":"四星级宾馆","address":"上海徐汇区零陵路800号(近八万人体育场)"},{"poiid":"B2094757D06FA3F84393","title":"悦蓉香锅牛蛙(飞洲国际店)","lon":"121.43784","lat":"31.18282","category":"71","category_name":"四川菜","address":"徐汇区零陵路899号飞洲国际广场B1楼(近漕溪北路)"},{"poiid":"B2094757D06FA7FC409C","title":"东亚展览馆","lon":"121.439664586","lat":"31.1816744818","category":"179","category_name":"音乐厅","address":"徐汇区天钥桥路666号上海八万人体育场内(近中山南二路)"},{"poiid":"B2094757D06EAAFB429E","title":"上海体育馆地铁站","lon":"121.43746609","lat":"31.182893","category":"36","category_name":"地铁站","address":"上海轨道交通 一号线 四号线 轨交上海体育馆站 轻轨 1 4"},{"poiid":"B2094654DB69A4F8439D","title":"星巴克咖啡(上海体育馆店)","lon":"121.43912","lat":"31.18313","category":"260","category_name":"其他","address":"徐汇区漕溪北路1111号上海体育馆1楼1号扶梯(近零陵路)"},{"poiid":"B2094757D068ABF9499C","title":"小南国(万体馆店)","lon":"121.437889586","lat":"31.1826755013","category":"76","category_name":"上海菜","address":"徐汇区零陵路899号飞洲国际大厦5楼"},{"poiid":"B2094655D268A2F44993","title":"上海体育场(六号门)","lon":"121.44011","lat":"31.18315","category":"224","category_name":"综合体育馆","address":""},{"poiid":"B2094654DB65A6FA4298","title":"上海奥林匹克俱乐部","lon":"121.43959","lat":"31.18069","category":"260","category_name":"其他","address":"中山南二路1800号(近上海游泳馆)"},{"poiid":"B2094750D66BA4F8459D","title":"宜家","lon":"121.43769","lat":"31.180406","category":"500","category_name":"未知分类","address":null},{"poiid":"B2094757D06FA3FC419F","title":"麦当劳(飞洲国际店)","lon":"121.437192625","lat":"31.1830581048","category":"68","category_name":"快餐厅","address":"徐汇区零陵路899号飞洲国际大厦B1楼(近漕溪北路)"},{"poiid":"B2094757D06FA2FB4393","title":"萨莉亚(飞洲国际店)","lon":"121.43734","lat":"31.18285","category":"94","category_name":"西餐厅","address":"徐汇区零陵路899号飞洲国际大厦B1楼(近漕溪北路)"},{"poiid":"B2094752DB68A1FC4693","title":"上上谦串串香火锅(龙华西路店)","lon":"121.439194","lat":"31.180206","category":"247","category_name":"餐饮美食","address":"上海市 龙华西路565号(近中山南二路)"},{"poiid":"B2094757D06FA0FE4192","title":"争鲜回转寿司 飞洲国际店","lon":"121.436941054","lat":"31.182774793","category":"95","category_name":"日本料理","address":"徐汇区零陵路899号飞洲国际大厦B1楼(近漕溪北路)"},{"poiid":"B2094757D06FA5F44499","title":"东亚壁球馆","lon":"121.43781","lat":"31.17969","category":"220","category_name":"运动场所","address":"徐汇区中山南二路1500号(近零陵路)"},{"poiid":"B2094757D06FA7F5449D","title":"棒约翰比萨(飞洲店)","lon":"121.43744437","lat":"31.18322879","category":"94","category_name":"西餐厅","address":"上海徐汇区零陵路899号飞洲国际大厦1楼(近漕溪北路)"},{"poiid":"B2094654DA6DA0F84899","title":"富客斯国际购物中心","lon":"121.43722","lat":"31.18313","category":"119","category_name":"商场","address":"零陵路899号飞洲国际广场"},{"poiid":"B2094750D669A5FB489A","title":"辛香汇飞洲国际店","lon":"121.438926","lat":"31.180387","category":"247","category_name":"餐饮美食","address":null},{"poiid":"B2094654DB6AA6F8469D","title":"上海东亚体育宾馆","lon":"121.44016","lat":"31.17974","category":"250","category_name":"公园户外","address":"上海市徐汇区中山南二路1500号(八万人体育场旁)"},{"poiid":"B2094757D06FA4F9499A","title":"韩滋源(飞洲国际店)","lon":"121.437596881","lat":"31.1832520759","category":"96","category_name":"韩国料理","address":"徐汇区零陵路899号飞洲国际广场B1楼(近漕溪北路)"},{"poiid":"B2094757D06FA7FA439D","title":"DQ冰雪皇后(飞洲店)","lon":"121.43757629","lat":"31.183094024","category":"113","category_name":"冷饮店","address":"徐汇区零陵路899号飞洲国际广场B1楼(漕溪北路零陵路)"},{"poiid":"B2094757D665A3FD439C","title":"翠蝶川味茶餐厅","lon":"121.437018","lat":"31.182831","category":"71","category_name":"四川菜","address":"徐汇区零陵路899号飞洲国际广场B1楼(近漕溪北路)"},{"poiid":"B2094757D06FA6FC4699","title":"橙天锅锅香","lon":"121.43779","lat":"31.18294","category":"68","category_name":"快餐厅","address":"徐汇区零陵路899号飞洲国际广场B1-17号商铺(近漕溪北路)"},{"poiid":"B2094757D06FAAFC4992","title":"耐克足球公园","lon":"121.44049737","lat":"31.183140289","category":"220","category_name":"运动场所","address":"徐汇区零陵路800号万体馆6号门(近上海游泳馆)"},{"poiid":"B2094654DB6AA3F5429E","title":"真锅咖啡厅(飞洲国际店)","lon":"121.43722","lat":"31.18313","category":"247","category_name":"餐饮美食","address":"徐汇区零陵路899号飞洲国际大厦B1-12(近漕溪北路)"},{"poiid":"B2094655D26EA2FE4393","title":"八万人体育场NIKE足球公园","lon":"121.44091","lat":"31.18133","category":"196","category_name":"公园","address":"上海市徐汇区零陵路800号"},{"poiid":"B2094757D16FA1FF4492","title":"京门涮肉","lon":"121.438689386","lat":"31.179947048","category":"86","category_name":"火锅店","address":"徐汇区漕溪北路1111号上海体育馆3号楼梯旁"},{"poiid":"B2094750DA6AA6FF4893","title":"飞洲国际","lon":"121.438926","lat":"31.180414","category":"252","category_name":"楼宇机构","address":null},{"poiid":"B2094654DA6DA0F54793","title":"上海东亚网球场","lon":"121.43814","lat":"31.18001","category":"226","category_name":"网球场","address":"零陵路800号(上海体育馆对面)"},{"poiid":"B2094750D16AA2F54799","title":"上海富豪东亚酒店","lon":"121.44091","lat":"31.18133","category":"72","category_name":"广东菜","address":"徐汇区零陵路800号上海富豪东亚酒店1楼(近上海游泳馆)"},{"poiid":"B2094757D069A1F54592","title":"凡凡屋","lon":"121.43762158","lat":"31.183114509","category":"95","category_name":"日本料理","address":"徐汇区零陵路899号飞洲国际B1楼16号(近漕溪北路)"},{"poiid":"B2094757D069A6F4419A","title":"吉祥日本料理(徐汇店)","lon":"121.44157","lat":"31.17851","category":"95","category_name":"日本料理","address":"徐汇区中山南二路1800号奥林匹克俱乐部1楼(近漕溪路)"},{"poiid":"B2094757D068AAFE4998","title":"凯萨铁板烧(飞洲国际店)","lon":"121.43773","lat":"31.18272","category":"94","category_name":"西餐厅","address":"徐汇区零陵路899号飞洲国际大厦B1楼(近漕溪北路)"},{"poiid":"B2094655D26EA2FC489A","title":"富豪东亚咖啡厅","lon":"121.44218733275","lat":"31.183862376152","category":"268","category_name":"自助","address":"徐汇区零陵路800号上海富豪东亚酒店1楼(近上海游泳馆)"},{"poiid":"B2094654DB64AAFD499E","title":"奥林泰园村鱼翅","lon":"121.43974","lat":"31.18008","category":"72","category_name":"广东菜","address":"徐汇区中山南二路1800号奥林匹克宾馆2楼(近漕溪路)"},{"poiid":"B2094655D26AA0F84893","title":"地铁上海体育馆站","lon":"121.43746","lat":"31.18288","category":"36","category_name":"地铁站","address":""},{"poiid":"B2094655D269A4FA4293","title":"FOXTOWN徐汇店","lon":"121.43722","lat":"31.18313","category":"247","category_name":"餐饮美食","address":"徐汇区零陵路899号14楼(近漕溪北路)"},{"poiid":"B2094655D268A6F5409A","title":"Reebok篮球公园","lon":"121.43703","lat":"31.1808","category":"229","category_name":"篮球场馆","address":""},{"poiid":"B2094757D068A6FB479C","title":"城市超市(永新店)","lon":"121.43848858","lat":"31.181142471","category":"118","category_name":"超级市场","address":"上海徐汇区天钥桥路131号永新坊B1楼08A(近辛耕路)  "},{"poiid":"B2094757DA64A4F54592","title":"飞州国际广场","lon":"121.437389","lat":"31.182929","category":"252","category_name":"楼宇机构","address":"拱墅区工业开发区祥符路33号"},{"poiid":"B209475CD364ABFC419C","title":"多乐之日 零陵路店","lon":"121.439626","lat":"31.18361","category":"67","category_name":"甜品店","address":"零陵路735号"},{"poiid":"B2094655D26FAAFD4592","title":"上海体育场(一号门)","lon":"121.43714","lat":"31.18141","category":"224","category_name":"综合体育馆","address":""},{"poiid":"B2094655D26AA7FA429F","title":"川亿鸡公煲 飞洲店","lon":"121.436779054","lat":"31.182643793","category":"247","category_name":"餐饮美食","address":"徐汇区零陵路899号飞洲国际大厦B1(近漕溪北路)"},{"poiid":"B2094751D26BA4FE4892","title":"太平洋咖啡","lon":"121.4369257355398","lat":"31.18131728615352","category":"247","category_name":"餐饮美食","address":"上海市徐汇区天钥桥路666号上海体育场5号梯下A号房屋"},{"poiid":"B2094655D26AABFE429B","title":"辛香汇","lon":"121.43752","lat":"31.18321","category":"71","category_name":"四川菜","address":"徐汇区零陵路899号飞洲国际广场5楼(近漕溪北路)"},{"poiid":"B2094655D26AA0FF489B","title":"上海体育馆","lon":"121.43837","lat":"31.18147","category":"224","category_name":"综合体育馆","address":"徐汇区漕溪北路1111号(零陵路口)"},{"poiid":"B2094655D26EAAFD459C","title":"上海大舞台","lon":"121.43837","lat":"31.18147","category":"180","category_name":"剧场","address":"徐汇区漕溪北路1111号(近中山南二路)"},{"poiid":"B2094757D06FA2FC439D","title":"飞洲国际大厦","lon":"121.437682","lat":"31.1833079253","category":"46","category_name":"楼宇","address":"上海市徐汇区零陵路899号"},{"poiid":"B2094757D068A3F94892","title":"上海万体馆","lon":"121.438225586","lat":"31.1821814917","category":"148","category_name":"美容美发店","address":"上海漕溪北路中山西路"},{"poiid":"B2094654DA6DA0F5469D","title":"鸿瑞兴徐汇店","lon":"121.44014","lat":"31.17986","category":"76","category_name":"上海菜","address":"徐汇区中山南二路1500号东亚体育宾馆1-3楼(上海体育场运动员之家内)"},{"poiid":"B2094757D064A1FF459C","title":"Nike篮球公园","lon":"121.43688507806542","lat":"31.182279528801896","category":"224","category_name":"综合体育馆","address":"徐汇区漕溪北路1111号东亚体育文化中心1号门(零陵路口)"},{"poiid":"B2094655D26EA0F4449B","title":"富豪东亚酒店","lon":"121.44073","lat":"31.18144","category":"214","category_name":"四星级宾馆","address":"上海徐汇区零陵路800号(近八万人体育场)"},{"poiid":"B2094757D06FA3F84393","title":"悦蓉香锅牛蛙(飞洲国际店)","lon":"121.43784","lat":"31.18282","category":"71","category_name":"四川菜","address":"徐汇区零陵路899号飞洲国际广场B1楼(近漕溪北路)"},{"poiid":"B2094757D06FA7FC409C","title":"东亚展览馆","lon":"121.439664586","lat":"31.1816744818","category":"179","category_name":"音乐厅","address":"徐汇区天钥桥路666号上海八万人体育场内(近中山南二路)"},{"poiid":"B2094757D06EAAFB429E","title":"上海体育馆地铁站","lon":"121.43746609","lat":"31.182893","category":"36","category_name":"地铁站","address":"上海轨道交通 一号线 四号线 轨交上海体育馆站 轻轨 1 4"},{"poiid":"B2094654DB69A4F8439D","title":"星巴克咖啡(上海体育馆店)","lon":"121.43912","lat":"31.18313","category":"260","category_name":"其他","address":"徐汇区漕溪北路1111号上海体育馆1楼1号扶梯(近零陵路)"},{"poiid":"B2094757D068ABF9499C","title":"小南国(万体馆店)","lon":"121.437889586","lat":"31.1826755013","category":"76","category_name":"上海菜","address":"徐汇区零陵路899号飞洲国际大厦5楼"},{"poiid":"B2094655D268A2F44993","title":"上海体育场(六号门)","lon":"121.44011","lat":"31.18315","category":"224","category_name":"综合体育馆","address":""},{"poiid":"B2094654DB65A6FA4298","title":"上海奥林匹克俱乐部","lon":"121.43959","lat":"31.18069","category":"260","category_name":"其他","address":"中山南二路1800号(近上海游泳馆)"},{"poiid":"B2094750D66BA4F8459D","title":"宜家","lon":"121.43769","lat":"31.180406","category":"500","category_name":"未知分类","address":null},{"poiid":"B2094757D06FA3FC419F","title":"麦当劳(飞洲国际店)","lon":"121.437192625","lat":"31.1830581048","category":"68","category_name":"快餐厅","address":"徐汇区零陵路899号飞洲国际大厦B1楼(近漕溪北路)"},{"poiid":"B2094757D06FA2FB4393","title":"萨莉亚(飞洲国际店)","lon":"121.43734","lat":"31.18285","category":"94","category_name":"西餐厅","address":"徐汇区零陵路899号飞洲国际大厦B1楼(近漕溪北路)"},{"poiid":"B2094752DB68A1FC4693","title":"上上谦串串香火锅(龙华西路店)","lon":"121.439194","lat":"31.180206","category":"247","category_name":"餐饮美食","address":"上海市 龙华西路565号(近中山南二路)"},{"poiid":"B2094757D06FA0FE4192","title":"争鲜回转寿司 飞洲国际店","lon":"121.436941054","lat":"31.182774793","category":"95","category_name":"日本料理","address":"徐汇区零陵路899号飞洲国际大厦B1楼(近漕溪北路)"},{"poiid":"B2094757D06FA5F44499","title":"东亚壁球馆","lon":"121.43781","lat":"31.17969","category":"220","category_name":"运动场所","address":"徐汇区中山南二路1500号(近零陵路)"},{"poiid":"B2094757D06FA7F5449D","title":"棒约翰比萨(飞洲店)","lon":"121.43744437","lat":"31.18322879","category":"94","category_name":"西餐厅","address":"上海徐汇区零陵路899号飞洲国际大厦1楼(近漕溪北路)"},{"poiid":"B2094654DA6DA0F84899","title":"富客斯国际购物中心","lon":"121.43722","lat":"31.18313","category":"119","category_name":"商场","address":"零陵路899号飞洲国际广场"},{"poiid":"B2094750D669A5FB489A","title":"辛香汇飞洲国际店","lon":"121.438926","lat":"31.180387","category":"247","category_name":"餐饮美食","address":null},{"poiid":"B2094654DB6AA6F8469D","title":"上海东亚体育宾馆","lon":"121.44016","lat":"31.17974","category":"250","category_name":"公园户外","address":"上海市徐汇区中山南二路1500号(八万人体育场旁)"},{"poiid":"B2094757D06FA4F9499A","title":"韩滋源(飞洲国际店)","lon":"121.437596881","lat":"31.1832520759","category":"96","category_name":"韩国料理","address":"徐汇区零陵路899号飞洲国际广场B1楼(近漕溪北路)"},{"poiid":"B2094757D06FA7FA439D","title":"DQ冰雪皇后(飞洲店)","lon":"121.43757629","lat":"31.183094024","category":"113","category_name":"冷饮店","address":"徐汇区零陵路899号飞洲国际广场B1楼(漕溪北路零陵路)"},{"poiid":"B2094757D665A3FD439C","title":"翠蝶川味茶餐厅","lon":"121.437018","lat":"31.182831","category":"71","category_name":"四川菜","address":"徐汇区零陵路899号飞洲国际广场B1楼(近漕溪北路)"},{"poiid":"B2094757D06FA6FC4699","title":"橙天锅锅香","lon":"121.43779","lat":"31.18294","category":"68","category_name":"快餐厅","address":"徐汇区零陵路899号飞洲国际广场B1-17号商铺(近漕溪北路)"},{"poiid":"B2094757D06FAAFC4992","title":"耐克足球公园","lon":"121.44049737","lat":"31.183140289","category":"220","category_name":"运动场所","address":"徐汇区零陵路800号万体馆6号门(近上海游泳馆)"},{"poiid":"B2094654DB6AA3F5429E","title":"真锅咖啡厅(飞洲国际店)","lon":"121.43722","lat":"31.18313","category":"247","category_name":"餐饮美食","address":"徐汇区零陵路899号飞洲国际大厦B1-12(近漕溪北路)"},{"poiid":"B2094655D26EA2FE4393","title":"八万人体育场NIKE足球公园","lon":"121.44091","lat":"31.18133","category":"196","category_name":"公园","address":"上海市徐汇区零陵路800号"},{"poiid":"B2094757D16FA1FF4492","title":"京门涮肉","lon":"121.438689386","lat":"31.179947048","category":"86","category_name":"火锅店","address":"徐汇区漕溪北路1111号上海体育馆3号楼梯旁"},{"poiid":"B2094750DA6AA6FF4893","title":"飞洲国际","lon":"121.438926","lat":"31.180414","category":"252","category_name":"楼宇机构","address":null},{"poiid":"B2094654DA6DA0F54793","title":"上海东亚网球场","lon":"121.43814","lat":"31.18001","category":"226","category_name":"网球场","address":"零陵路800号(上海体育馆对面)"},{"poiid":"B2094750D16AA2F54799","title":"上海富豪东亚酒店","lon":"121.44091","lat":"31.18133","category":"72","category_name":"广东菜","address":"徐汇区零陵路800号上海富豪东亚酒店1楼(近上海游泳馆)"},{"poiid":"B2094757D069A1F54592","title":"凡凡屋","lon":"121.43762158","lat":"31.183114509","category":"95","category_name":"日本料理","address":"徐汇区零陵路899号飞洲国际B1楼16号(近漕溪北路)"},{"poiid":"B2094757D069A6F4419A","title":"吉祥日本料理(徐汇店)","lon":"121.44157","lat":"31.17851","category":"95","category_name":"日本料理","address":"徐汇区中山南二路1800号奥林匹克俱乐部1楼(近漕溪路)"},{"poiid":"B2094757D068AAFE4998","title":"凯萨铁板烧(飞洲国际店)","lon":"121.43773","lat":"31.18272","category":"94","category_name":"西餐厅","address":"徐汇区零陵路899号飞洲国际大厦B1楼(近漕溪北路)"},{"poiid":"B2094655D26EA2FC489A","title":"富豪东亚咖啡厅","lon":"121.44218733275","lat":"31.183862376152","category":"268","category_name":"自助","address":"徐汇区零陵路800号上海富豪东亚酒店1楼(近上海游泳馆)"},{"poiid":"B2094654DB64AAFD499E","title":"奥林泰园村鱼翅","lon":"121.43974","lat":"31.18008","category":"72","category_name":"广东菜","address":"徐汇区中山南二路1800号奥林匹克宾馆2楼(近漕溪路)"},{"poiid":"B2094655D26AA0F84893","title":"地铁上海体育馆站","lon":"121.43746","lat":"31.18288","category":"36","category_name":"地铁站","address":""},{"poiid":"B2094655D269A4FA4293","title":"FOXTOWN徐汇店","lon":"121.43722","lat":"31.18313","category":"247","category_name":"餐饮美食","address":"徐汇区零陵路899号14楼(近漕溪北路)"},{"poiid":"B2094655D268A6F5409A","title":"Reebok篮球公园","lon":"121.43703","lat":"31.1808","category":"229","category_name":"篮球场馆","address":""},{"poiid":"B2094757D068A6FB479C","title":"城市超市(永新店)","lon":"121.43848858","lat":"31.181142471","category":"118","category_name":"超级市场","address":"上海徐汇区天钥桥路131号永新坊B1楼08A(近辛耕路)  "},{"poiid":"B2094757DA64A4F54592","title":"飞州国际广场","lon":"121.437389","lat":"31.182929","category":"252","category_name":"楼宇机构","address":"拱墅区工业开发区祥符路33号"},{"poiid":"B209475CD364ABFC419C","title":"多乐之日 零陵路店","lon":"121.439626","lat":"31.18361","category":"67","category_name":"甜品店","address":"零陵路735号"},{"poiid":"B2094655D26FAAFD4592","title":"上海体育场(一号门)","lon":"121.43714","lat":"31.18141","category":"224","category_name":"综合体育馆","address":""},{"poiid":"B2094655D26AA7FA429F","title":"川亿鸡公煲 飞洲店","lon":"121.436779054","lat":"31.182643793","category":"247","category_name":"餐饮美食","address":"徐汇区零陵路899号飞洲国际大厦B1(近漕溪北路)"},{"poiid":"B2094751D26BA4FE4892","title":"太平洋咖啡","lon":"121.4369257355398","lat":"31.18131728615352","category":"247","category_name":"餐饮美食","address":"上海市徐汇区天钥桥路666号上海体育场5号梯下A号房屋"},{"poiid":"B2094655D26AABFE429B","title":"辛香汇","lon":"121.43752","lat":"31.18321","category":"71","category_name":"四川菜","address":"徐汇区零陵路899号飞洲国际广场5楼(近漕溪北路)"},{"poiid":"B2094655D26AA0FF489B","title":"上海体育馆","lon":"121.43837","lat":"31.18147","category":"224","category_name":"综合体育馆","address":"徐汇区漕溪北路1111号(零陵路口)"},{"poiid":"B2094655D26EAAFD459C","title":"上海大舞台","lon":"121.43837","lat":"31.18147","category":"180","category_name":"剧场","address":"徐汇区漕溪北路1111号(近中山南二路)"},{"poiid":"B2094757D06FA2FC439D","title":"飞洲国际大厦","lon":"121.437682","lat":"31.1833079253","category":"46","category_name":"楼宇","address":"上海市徐汇区零陵路899号"},{"poiid":"B2094757D068A3F94892","title":"上海万体馆","lon":"121.438225586","lat":"31.1821814917","category":"148","category_name":"美容美发店","address":"上海漕溪北路中山西路"},{"poiid":"B2094654DA6DA0F5469D","title":"鸿瑞兴徐汇店","lon":"121.44014","lat":"31.17986","category":"76","category_name":"上海菜","address":"徐汇区中山南二路1500号东亚体育宾馆1-3楼(上海体育场运动员之家内)"},{"poiid":"B2094757D064A1FF459C","title":"Nike篮球公园","lon":"121.43688507806542","lat":"31.182279528801896","category":"224","category_name":"综合体育馆","address":"徐汇区漕溪北路1111号东亚体育文化中心1号门(零陵路口)"},{"poiid":"B2094655D26EA0F4449B","title":"富豪东亚酒店","lon":"121.44073","lat":"31.18144","category":"214","category_name":"四星级宾馆","address":"上海徐汇区零陵路800号(近八万人体育场)"},{"poiid":"B2094757D06FA3F84393","title":"悦蓉香锅牛蛙(飞洲国际店)","lon":"121.43784","lat":"31.18282","category":"71","category_name":"四川菜","address":"徐汇区零陵路899号飞洲国际广场B1楼(近漕溪北路)"},{"poiid":"B2094757D06FA7FC409C","title":"东亚展览馆","lon":"121.439664586","lat":"31.1816744818","category":"179","category_name":"音乐厅","address":"徐汇区天钥桥路666号上海八万人体育场内(近中山南二路)"},{"poiid":"B2094757D06EAAFB429E","title":"上海体育馆地铁站","lon":"121.43746609","lat":"31.182893","category":"36","category_name":"地铁站","address":"上海轨道交通 一号线 四号线 轨交上海体育馆站 轻轨 1 4"},{"poiid":"B2094654DB69A4F8439D","title":"星巴克咖啡(上海体育馆店)","lon":"121.43912","lat":"31.18313","category":"260","category_name":"其他","address":"徐汇区漕溪北路1111号上海体育馆1楼1号扶梯(近零陵路)"},{"poiid":"B2094757D068ABF9499C","title":"小南国(万体馆店)","lon":"121.437889586","lat":"31.1826755013","category":"76","category_name":"上海菜","address":"徐汇区零陵路899号飞洲国际大厦5楼"},{"poiid":"B2094655D268A2F44993","title":"上海体育场(六号门)","lon":"121.44011","lat":"31.18315","category":"224","category_name":"综合体育馆","address":""},{"poiid":"B2094654DB65A6FA4298","title":"上海奥林匹克俱乐部","lon":"121.43959","lat":"31.18069","category":"260","category_name":"其他","address":"中山南二路1800号(近上海游泳馆)"},{"poiid":"B2094750D66BA4F8459D","title":"宜家","lon":"121.43769","lat":"31.180406","category":"500","category_name":"未知分类","address":null},{"poiid":"B2094757D06FA3FC419F","title":"麦当劳(飞洲国际店)","lon":"121.437192625","lat":"31.1830581048","category":"68","category_name":"快餐厅","address":"徐汇区零陵路899号飞洲国际大厦B1楼(近漕溪北路)"},{"poiid":"B2094757D06FA2FB4393","title":"萨莉亚(飞洲国际店)","lon":"121.43734","lat":"31.18285","category":"94","category_name":"西餐厅","address":"徐汇区零陵路899号飞洲国际大厦B1楼(近漕溪北路)"},{"poiid":"B2094752DB68A1FC4693","title":"上上谦串串香火锅(龙华西路店)","lon":"121.439194","lat":"31.180206","category":"247","category_name":"餐饮美食","address":"上海市 龙华西路565号(近中山南二路)"},{"poiid":"B2094757D06FA0FE4192","title":"争鲜回转寿司 飞洲国际店","lon":"121.436941054","lat":"31.182774793","category":"95","category_name":"日本料理","address":"徐汇区零陵路899号飞洲国际大厦B1楼(近漕溪北路)"},{"poiid":"B2094757D06FA5F44499","title":"东亚壁球馆","lon":"121.43781","lat":"31.17969","category":"220","category_name":"运动场所","address":"徐汇区中山南二路1500号(近零陵路)"},{"poiid":"B2094757D06FA7F5449D","title":"棒约翰比萨(飞洲店)","lon":"121.43744437","lat":"31.18322879","category":"94","category_name":"西餐厅","address":"上海徐汇区零陵路899号飞洲国际大厦1楼(近漕溪北路)"},{"poiid":"B2094654DA6DA0F84899","title":"富客斯国际购物中心","lon":"121.43722","lat":"31.18313","category":"119","category_name":"商场","address":"零陵路899号飞洲国际广场"},{"poiid":"B2094750D669A5FB489A","title":"辛香汇飞洲国际店","lon":"121.438926","lat":"31.180387","category":"247","category_name":"餐饮美食","address":null},{"poiid":"B2094654DB6AA6F8469D","title":"上海东亚体育宾馆","lon":"121.44016","lat":"31.17974","category":"250","category_name":"公园户外","address":"上海市徐汇区中山南二路1500号(八万人体育场旁)"},{"poiid":"B2094757D06FA4F9499A","title":"韩滋源(飞洲国际店)","lon":"121.437596881","lat":"31.1832520759","category":"96","category_name":"韩国料理","address":"徐汇区零陵路899号飞洲国际广场B1楼(近漕溪北路)"},{"poiid":"B2094757D06FA7FA439D","title":"DQ冰雪皇后(飞洲店)","lon":"121.43757629","lat":"31.183094024","category":"113","category_name":"冷饮店","address":"徐汇区零陵路899号飞洲国际广场B1楼(漕溪北路零陵路)"},{"poiid":"B2094757D665A3FD439C","title":"翠蝶川味茶餐厅","lon":"121.437018","lat":"31.182831","category":"71","category_name":"四川菜","address":"徐汇区零陵路899号飞洲国际广场B1楼(近漕溪北路)"},{"poiid":"B2094757D06FA6FC4699","title":"橙天锅锅香","lon":"121.43779","lat":"31.18294","category":"68","category_name":"快餐厅","address":"徐汇区零陵路899号飞洲国际广场B1-17号商铺(近漕溪北路)"},{"poiid":"B2094757D06FAAFC4992","title":"耐克足球公园","lon":"121.44049737","lat":"31.183140289","category":"220","category_name":"运动场所","address":"徐汇区零陵路800号万体馆6号门(近上海游泳馆)"},{"poiid":"B2094654DB6AA3F5429E","title":"真锅咖啡厅(飞洲国际店)","lon":"121.43722","lat":"31.18313","category":"247","category_name":"餐饮美食","address":"徐汇区零陵路899号飞洲国际大厦B1-12(近漕溪北路)"},{"poiid":"B2094655D26EA2FE4393","title":"八万人体育场NIKE足球公园","lon":"121.44091","lat":"31.18133","category":"196","category_name":"公园","address":"上海市徐汇区零陵路800号"},{"poiid":"B2094757D16FA1FF4492","title":"京门涮肉","lon":"121.438689386","lat":"31.179947048","category":"86","category_name":"火锅店","address":"徐汇区漕溪北路1111号上海体育馆3号楼梯旁"},{"poiid":"B2094750DA6AA6FF4893","title":"飞洲国际","lon":"121.438926","lat":"31.180414","category":"252","category_name":"楼宇机构","address":null},{"poiid":"B2094654DA6DA0F54793","title":"上海东亚网球场","lon":"121.43814","lat":"31.18001","category":"226","category_name":"网球场","address":"零陵路800号(上海体育馆对面)"},{"poiid":"B2094750D16AA2F54799","title":"上海富豪东亚酒店","lon":"121.44091","lat":"31.18133","category":"72","category_name":"广东菜","address":"徐汇区零陵路800号上海富豪东亚酒店1楼(近上海游泳馆)"},{"poiid":"B2094757D069A1F54592","title":"凡凡屋","lon":"121.43762158","lat":"31.183114509","category":"95","category_name":"日本料理","address":"徐汇区零陵路899号飞洲国际B1楼16号(近漕溪北路)"},{"poiid":"B2094757D069A6F4419A","title":"吉祥日本料理(徐汇店)","lon":"121.44157","lat":"31.17851","category":"95","category_name":"日本料理","address":"徐汇区中山南二路1800号奥林匹克俱乐部1楼(近漕溪路)"},{"poiid":"B2094757D068AAFE4998","title":"凯萨铁板烧(飞洲国际店)","lon":"121.43773","lat":"31.18272","category":"94","category_name":"西餐厅","address":"徐汇区零陵路899号飞洲国际大厦B1楼(近漕溪北路)"},{"poiid":"B2094655D26EA2FC489A","title":"富豪东亚咖啡厅","lon":"121.44218733275","lat":"31.183862376152","category":"268","category_name":"自助","address":"徐汇区零陵路800号上海富豪东亚酒店1楼(近上海游泳馆)"},{"poiid":"B2094654DB64AAFD499E","title":"奥林泰园村鱼翅","lon":"121.43974","lat":"31.18008","category":"72","category_name":"广东菜","address":"徐汇区中山南二路1800号奥林匹克宾馆2楼(近漕溪路)"},{"poiid":"B2094655D26AA0F84893","title":"地铁上海体育馆站","lon":"121.43746","lat":"31.18288","category":"36","category_name":"地铁站","address":""},{"poiid":"B2094655D269A4FA4293","title":"FOXTOWN徐汇店","lon":"121.43722","lat":"31.18313","category":"247","category_name":"餐饮美食","address":"徐汇区零陵路899号14楼(近漕溪北路)"},{"poiid":"B2094655D268A6F5409A","title":"Reebok篮球公园","lon":"121.43703","lat":"31.1808","category":"229","category_name":"篮球场馆","address":""},{"poiid":"B2094757D068A6FB479C","title":"城市超市(永新店)","lon":"121.43848858","lat":"31.181142471","category":"118","category_name":"超级市场","address":"上海徐汇区天钥桥路131号永新坊B1楼08A(近辛耕路)  "},{"poiid":"B2094757DA64A4F54592","title":"飞州国际广场","lon":"121.437389","lat":"31.182929","category":"252","category_name":"楼宇机构","address":"拱墅区工业开发区祥符路33号"},{"poiid":"B209475CD364ABFC419C","title":"多乐之日 零陵路店","lon":"121.439626","lat":"31.18361","category":"67","category_name":"甜品店","address":"零陵路735号"},{"poiid":"B2094655D26FAAFD4592","title":"上海体育场(一号门)","lon":"121.43714","lat":"31.18141","category":"224","category_name":"综合体育馆","address":""},{"poiid":"B2094655D26AA7FA429F","title":"川亿鸡公煲 飞洲店","lon":"121.436779054","lat":"31.182643793","category":"247","category_name":"餐饮美食","address":"徐汇区零陵路899号飞洲国际大厦B1(近漕溪北路)"},{"poiid":"B2094751D26BA4FE4892","title":"太平洋咖啡","lon":"121.4369257355398","lat":"31.18131728615352","category":"247","category_name":"餐饮美食","address":"上海市徐汇区天钥桥路666号上海体育场5号梯下A号房屋"}]