[{"poiid":"B2094757D06FA2FE489C","title":"百联金山购物中心","lon":"121.34676264","lat":"30.733259894","category":"119","category_name":"商场","address":"近郊金山区卫清西路168弄99号(近松卫南路)"},{"poiid":"B2094757D06FA2FB489E","title":"星巴克(金山百联店)","lon":"121.35126","lat":"30.731089","category":"260","category_name":"其他","address":"近郊金山区卫清西路168弄99号百联金山购物中心内(近松卫南路)"},{"poiid":"B2094757D06FA0FC4699","title":"星美国际影城金山店","lon":"121.348272","lat":"30.730783","category":"178","category_name":"电影院","address":"上海金山区卫清西路188号301-1302-2室"},{"poiid":"B2094757D06FAAF5429B","title":"好乐迪金山店","lon":"121.34451927","lat":"30.732421942","category":"170","category_name":"KTV","address":"上海卫清西路168弄99号3f"},{"poiid":"B2094654DB69A2F5439A","title":"海鸥大厦","lon":"121.35182","lat":"30.72937","category":"268","category_name":"自助","address":"近郊金山区龙胜路58号(近战斗港路)"},{"poiid":"B2094757D068A3F8449B","title":"必胜客(金山百联店)","lon":"121.35021","lat":"30.73057","category":"94","category_name":"西餐厅","address":"近郊金山区卫清西路168弄99号百联金山购物中心1楼B120-121室(近松卫南路)"},{"poiid":"B2094757D06FA4FA459E","title":"避风塘 百联金山店","lon":"121.35021","lat":"30.73057","category":"111","category_name":"休闲餐饮场所","address":"近郊金山区卫清西路168弄99号百联金山购物中心1楼(近松卫南路)"},{"poiid":"B2094757D068A3F4419F","title":"乐购(金山店)","lon":"121.34391118","lat":"30.728586968","category":"118","category_name":"超级市场","address":"近郊金山区石化街道卫清西路477号(蒙山路口)"},{"poiid":"B2094757D665ABF8459F","title":"哈根达斯 百联金山店 Haagen-Dazs","lon":"121.35021","lat":"30.73057","category":"67","category_name":"甜品店","address":"近郊金山区卫清西路168弄99号百联金山购物中心B105商铺(近松卫南路)"},{"poiid":"B2094750DA6EA2F5429E","title":"湖蝶轩法式越南料理","lon":"121.346382","lat":"30.729667","category":"247","category_name":"餐饮美食","address":null},{"poiid":"B2094757D069A0FC419A","title":"汤姆熊(百联金山店)","lon":"121.34654524","lat":"30.732037833","category":"500","category_name":"未知分类","address":"上海金山区卫清西路168弄99号百联金山购物中心2楼"},{"poiid":"B2094655D265A4FA439A","title":"宝华海湾城","lon":"121.34979","lat":"30.73463","category":"47","category_name":"住宅区","address":"金山杭州湾大道板桥东路1480弄"},{"poiid":"B2094757D06BA2F54398","title":"丰收日(金山百联店)","lon":"121.34889164","lat":"30.731467753","category":"500","category_name":"未知分类","address":"上海金山百联购物中心"},{"poiid":"B2094655D264A7FE4299","title":"金山豪庭","lon":"121.35342","lat":"30.734066","category":"47","category_name":"住宅区","address":"上海市金山区卫清东路2988弄"},{"poiid":"B2094655D268A2FC429B","title":"金天地花园","lon":"121.350925","lat":"30.731236","category":"47","category_name":"住宅区","address":"金山卫清西路88号"},{"poiid":"B2094655D265A5FF429F","title":"上海波曼大酒店","lon":"121.34923","lat":"30.72995","category":"250","category_name":"公园户外","address":"近郊金山区卫清路179号(近金山城市沙滩)"},{"poiid":"B2094655D268A6FD469B","title":"福宴海鲜大酒楼","lon":"121.35036","lat":"30.73032","category":"75","category_name":"浙江菜","address":"近郊金山区卫清西路139号"},{"poiid":"B2094757D664A2F44993","title":"韩林炭烤 （百联金山店）","lon":"121.35021","lat":"30.73057","category":"96","category_name":"韩国料理","address":"卫清西路168弄99号百联金山购物中心2楼近松卫南路"},{"poiid":"B2094655D268A7FF439F","title":"山鑫城市广场","lon":"121.349978","lat":"30.734272","category":"46","category_name":"楼宇","address":"卫清西路139_149号等"},{"poiid":"B2094757D568A7FB4093","title":"三品香(卫清店)","lon":"121.3453087","lat":"30.72963515","category":"88","category_name":"海鲜酒楼","address":"上海市金山区卫清西路318号"},{"poiid":"B2094757D16CA4FF4092","title":"味千拉面(金山百联店)","lon":"121.34775619","lat":"30.7326628985","category":"95","category_name":"日本料理","address":"近郊金山区卫清西路168弄99号百联金山购物中心内(近松卫南路)"},{"poiid":"B2094655D268A6FA449A","title":"莫泰168金山卫清店","lon":"121.35103","lat":"30.73007","category":"216","category_name":"经济型连锁酒店","address":"近郊金山区卫清西路55号"},{"poiid":"B2094757D069A6FE469C","title":"许留山(金山百联店)","lon":"121.34743773","lat":"30.732148669","category":"67","category_name":"甜品店","address":"上海金山百联"},{"poiid":"B2094757D168A7F44792","title":"好乐迪","lon":"121.34642564","lat":"30.732410775","category":"500","category_name":"未知分类","address":"上海市金山区蒙山路"},{"poiid":"B2094750D768A0F5499F","title":"爱茜茜里意大利手工冰淇淋(百联金山店)","lon":"121.348","lat":"30.7301","category":"113","category_name":"冷饮店","address":"近郊金山区卫清西路168弄99号百联金山购物中心1楼"},{"poiid":"B2094757D064A6F8499F","title":"大碗鱼","lon":"121.3481987","lat":"30.7300668","category":"71","category_name":"四川菜","address":"近郊金山区卫清西路168弄99号百联金山购物中心2楼(近松卫南路)"},{"poiid":"B2094757DB6AA6FC499E","title":"斗牛士 金山百联","lon":"121.348949","lat":"30.7302035","category":"94","category_name":"西餐厅","address":"近郊金山区卫清西路168弄99号百联金山购物中心2楼(近松卫南路)"},{"poiid":"B2094757D065A2FB489B","title":"棕榈湾花园","lon":"121.3497","lat":"30.736702","category":"47","category_name":"住宅区","address":"上海蒙山路1266弄"},{"poiid":"B2094654DB69A3FB4093","title":"辰凯紫薇苑","lon":"121.34617913329","lat":"30.740805127992","category":"47","category_name":"住宅区","address":"上海市金山区蒙山路1517弄"},{"poiid":"B2094757DB6AA6FC499D","title":"小杨生煎","lon":"121.348949","lat":"30.7302035","category":"68","category_name":"快餐厅","address":"近郊金山区卫清西路168弄99号百联金山购物中心(近松卫南路)"},{"poiid":"B2094757D66BA2FC429C","title":"品尚豆捞 金山店","lon":"121.343541","lat":"30.728007","category":"86","category_name":"火锅店","address":"近郊金山石化蒙山路1252号(近国美)"},{"poiid":"B2094757D164A5FD459D","title":"咔萨音乐休闲餐厅","lon":"121.34636864","lat":"30.731582756","category":"94","category_name":"西餐厅","address":"近郊前京大道131号(金山百联对面)"},{"poiid":"B2094655D268A6FD4699","title":"九天银河大浴场","lon":"121.35131","lat":"30.73035","category":"149","category_name":"洗浴推拿场所","address":"近郊金山区卫清西路55号(近杭州湾大道)"},{"poiid":"B2094757D66EA6F54392","title":"金山海鸥大酒店","lon":"121.350602974","lat":"30.7294024417","category":"76","category_name":"上海菜","address":"上海金山区龙胜路58号"},{"poiid":"B2094654DB69AAFC499A","title":"集集小镇(金山二店)","lon":"121.34429","lat":"30.72882","category":"68","category_name":"快餐厅","address":"近郊金山区卫清西路477号乐购1楼(近蒙山路)"},{"poiid":"B2094757D06AABFC4093","title":"肯德基(金山百联店)","lon":"121.34377836","lat":"30.728891859","category":"68","category_name":"快餐厅","address":"近郊金山区卫清西路168弄99号百联金山购物中心1楼(近松卫南路)"},{"poiid":"B2094757DB6BA5FF429B","title":"好乐迪（百联金山购物中心店）","lon":"121.348","lat":"30.7301","category":"170","category_name":"KTV","address":"近郊金山区卫清西路168弄99号百联金山购物中心内(近松卫南路)"},{"poiid":"B2094757D16CA7F4499D","title":"雅点舫 百联金山店","lon":"121.35021","lat":"30.73057","category":"68","category_name":"快餐厅","address":"近郊金山区卫清西路168弄99号百联金山购物中心B207-B208号铺(近松卫南路)"},{"poiid":"B2094655D26FA1FA419C","title":"好人家酒店","lon":"121.34517","lat":"30.73325","category":"257","category_name":"中餐厅","address":"近郊金山石化板桥西路270号"},{"poiid":"B2094757D168A3FC499F","title":"爱茜茜里 百联金山店 Iceason","lon":"121.35021","lat":"30.73057","category":"67","category_name":"甜品店","address":"卫清西路168弄99号百联金山购物中心近松卫南路"},{"poiid":"B2094654DB69A1FC449B","title":"爱丁堡大酒店","lon":"121.34866","lat":"30.72608","category":"250","category_name":"公园户外","address":"上海市石化龙胜路127-129号(近蒙山路)"},{"poiid":"B2094757D66FA7FC4299","title":"Paris Baguette巴黎贝甜(金山百联店)","lon":"121.347779645","lat":"30.7295607085","category":"67","category_name":"甜品店","address":"上海近郊金山区卫清西路168弄99号百联金山购物中心1楼1号门(近松卫南路)"},{"poiid":"B2094757D66BA3F4449D","title":"古道村落 卫清西路店","lon":"121.35076","lat":"30.73076","category":"77","category_name":"湖南菜","address":"近郊金山区石化前京大道111号(百联对面)"},{"poiid":"B2094757D16DA0FC469E","title":"围炉 豆捞坊 金山店","lon":"121.346941145","lat":"30.7354820481","category":"247","category_name":"餐饮美食","address":"上海金山区 石化 百联"},{"poiid":"B2094750D56EA5FD449E","title":"今典咖啡","lon":"121.348","lat":"30.73277","category":"65","category_name":"咖啡厅","address":"近郊杭州湾大道601号海鸥大厦裙楼5楼"},{"poiid":"B2094757D569A3F5419F","title":"一闻香迷宗蟹(金山店)","lon":"121.34588732","lat":"30.72979519","category":"86","category_name":"火锅店","address":"近郊金山区卫清西路288号"},{"poiid":"B2094655D265A0FA409D","title":"东岭豪苑商业楼","lon":"121.348","lat":"30.7346","category":"252","category_name":"楼宇机构","address":"金山区卫清西路555弄"},{"poiid":"B2094757D465A7FB459A","title":"永和大王 百联金山店 Yungho King","lon":"121.35021","lat":"30.73057","category":"68","category_name":"快餐厅","address":"近郊金山区卫清西路168弄99号百联金山购物中心内(近松卫南路)"},{"poiid":"B2094757D16EA7FF4492","title":"思南私房菜 金山百联店","lon":"121.346031645","lat":"30.7328787867","category":"247","category_name":"餐饮美食","address":"上海市金山区蒙山路"},{"poiid":"B2094757D06BAAF4479C","title":"世纪联华(金山百联店)","lon":"121.347635198","lat":"30.7322809574","category":"118","category_name":"超级市场","address":"上海近郊金山区卫清西路168弄99号百联金山购物中心B1楼"},{"poiid":"B2094757D06FA2FE489C","title":"百联金山购物中心","lon":"121.34676264","lat":"30.733259894","category":"119","category_name":"商场","address":"近郊金山区卫清西路168弄99号(近松卫南路)"},{"poiid":"B2094757D06FA2FB489E","title":"星巴克(金山百联店)","lon":"121.35126","lat":"30.731089","category":"260","category_name":"其他","address":"近郊金山区卫清西路168弄99号百联金山购物中心内(近松卫南路)"},{"poiid":"B2094757D06FA0FC4699","title":"星美国际影城金山店","lon":"121.348272","lat":"30.730783","category":"178","category_name":"电影院","address":"上海金山区卫清西路188号301-1302-2室"},{"poiid":"B2094757D06FAAF5429B","title":"好乐迪金山店","lon":"121.34451927","lat":"30.732421942","category":"170","category_name":"KTV","address":"上海卫清西路168弄99号3f"},{"poiid":"B2094654DB69A2F5439A","title":"海鸥大厦","lon":"121.35182","lat":"30.72937","category":"268","category_name":"自助","address":"近郊金山区龙胜路58号(近战斗港路)"},{"poiid":"B2094757D068A3F8449B","title":"必胜客(金山百联店)","lon":"121.35021","lat":"30.73057","category":"94","category_name":"西餐厅","address":"近郊金山区卫清西路168弄99号百联金山购物中心1楼B120-121室(近松卫南路)"},{"poiid":"B2094757D06FA4FA459E","title":"避风塘 百联金山店","lon":"121.35021","lat":"30.73057","category":"111","category_name":"休闲餐饮场所","address":"近郊金山区卫清西路168弄99号百联金山购物中心1楼(近松卫南路)"},{"poiid":"B2094757D068A3F4419F","title":"乐购(金山店)","lon":"121.34391118","lat":"30.728586968","category":"118","category_name":"超级市场","address":"近郊金山区石化街道卫清西路477号(蒙山路口)"},{"poiid":"B2094757D665ABF8459F","title":"哈根达斯 百联金山店 Haagen-Dazs","lon":"121.35021","lat":"30.73057","category":"67","category_name":"甜品店","address":"近郊金山区卫清西路168弄99号百联金山购物中心B105商铺(近松卫南路)"},{"poiid":"B2094750DA6EA2F5429E","title":"湖蝶轩法式越南料理","lon":"121.346382","lat":"30.729667","category":"247","category_name":"餐饮美食","address":null},{"poiid":"B2094757D069A0FC419A","title":"汤姆熊(百联金山店)","lon":"121.34654524","lat":"30.732037833","category":"500","category_name":"未知分类","address":"上海金山区卫清西路168弄99号百联金山购物中心2楼"},{"poiid":"B2094655D265A4FA439A","title":"宝华海湾城","lon":"121.34979","lat":"30.73463","category":"47","category_name":"住宅区","address":"金山杭州湾大道板桥东路1480弄"},{"poiid":"B2094757D06BA2F54398","title":"丰收日(金山百联店)","lon":"121.34889164","lat":"30.731467753","category":"500","category_name":"未知分类","address":"上海金山百联购物中心"},{"poiid":"B2094655D264A7FE4299","title":"金山豪庭","lon":"121.35342","lat":"30.734066","category":"47","category_name":"住宅区","address":"上海市金山区卫清东路2988弄"},{"poiid":"B2094655D268A2FC429B","title":"金天地花园","lon":"121.350925","lat":"30.731236","category":"47","category_name":"住宅区","address":"金山卫清西路88号"},{"poiid":"B2094655D265A5FF429F","title":"上海波曼大酒店","lon":"121.34923","lat":"30.72995","category":"250","category_name":"公园户外","address":"近郊金山区卫清路179号(近金山城市沙滩)"},{"poiid":"B2094655D268A6FD469B","title":"福宴海鲜大酒楼","lon":"121.35036","lat":"30.73032","category":"75","category_name":"浙江菜","address":"近郊金山区卫清西路139号"},{"poiid":"B2094757D664A2F44993","title":"韩林炭烤 （百联金山店）","lon":"121.35021","lat":"30.73057","category":"96","category_name":"韩国料理","address":"卫清西路168弄99号百联金山购物中心2楼近松卫南路"},{"poiid":"B2094655D268A7FF439F","title":"山鑫城市广场","lon":"121.349978","lat":"30.734272","category":"46","category_name":"楼宇","address":"卫清西路139_149号等"},{"poiid":"B2094757D568A7FB4093","title":"三品香(卫清店)","lon":"121.3453087","lat":"30.72963515","category":"88","category_name":"海鲜酒楼","address":"上海市金山区卫清西路318号"},{"poiid":"B2094757D16CA4FF4092","title":"味千拉面(金山百联店)","lon":"121.34775619","lat":"30.7326628985","category":"95","category_name":"日本料理","address":"近郊金山区卫清西路168弄99号百联金山购物中心内(近松卫南路)"},{"poiid":"B2094655D268A6FA449A","title":"莫泰168金山卫清店","lon":"121.35103","lat":"30.73007","category":"216","category_name":"经济型连锁酒店","address":"近郊金山区卫清西路55号"},{"poiid":"B2094757D069A6FE469C","title":"许留山(金山百联店)","lon":"121.34743773","lat":"30.732148669","category":"67","category_name":"甜品店","address":"上海金山百联"},{"poiid":"B2094757D168A7F44792","title":"好乐迪","lon":"121.34642564","lat":"30.732410775","category":"500","category_name":"未知分类","address":"上海市金山区蒙山路"},{"poiid":"B2094750D768A0F5499F","title":"爱茜茜里意大利手工冰淇淋(百联金山店)","lon":"121.348","lat":"30.7301","category":"113","category_name":"冷饮店","address":"近郊金山区卫清西路168弄99号百联金山购物中心1楼"},{"poiid":"B2094757D064A6F8499F","title":"大碗鱼","lon":"121.3481987","lat":"30.7300668","category":"71","category_name":"四川菜","address":"近郊金山区卫清西路168弄99号百联金山购物中心2楼(近松卫南路)"},{"poiid":"B2094757DB6AA6FC499E","title":"斗牛士 金山百联","lon":"121.348949","lat":"30.7302035","category":"94","category_name":"西餐厅","address":"近郊金山区卫清西路168弄99号百联金山购物中心2楼(近松卫南路)"},{"poiid":"B2094757D065A2FB489B","title":"棕榈湾花园","lon":"121.3497","lat":"30.736702","category":"47","category_name":"住宅区","address":"上海蒙山路1266弄"},{"poiid":"B2094654DB69A3FB4093","title":"辰凯紫薇苑","lon":"121.34617913329","lat":"30.740805127992","category":"47","category_name":"住宅区","address":"上海市金山区蒙山路1517弄"},{"poiid":"B2094757DB6AA6FC499D","title":"小杨生煎","lon":"121.348949","lat":"30.7302035","category":"68","category_name":"快餐厅","address":"近郊金山区卫清西路168弄99号百联金山购物中心(近松卫南路)"},{"poiid":"B2094757D66BA2FC429C","title":"品尚豆捞 金山店","lon":"121.343541","lat":"30.728007","category":"86","category_name":"火锅店","address":"近郊金山石化蒙山路1252号(近国美)"},{"poiid":"B2094757D164A5FD459D","title":"咔萨音乐休闲餐厅","lon":"121.34636864","lat":"30.731582756","category":"94","category_name":"西餐厅","address":"近郊前京大道131号(金山百联对面)"},{"poiid":"B2094655D268A6FD4699","title":"九天银河大浴场","lon":"121.35131","lat":"30.73035","category":"149","category_name":"洗浴推拿场所","address":"近郊金山区卫清西路55号(近杭州湾大道)"},{"poiid":"B2094757D66EA6F54392","title":"金山海鸥大酒店","lon":"121.350602974","lat":"30.7294024417","category":"76","category_name":"上海菜","address":"上海金山区龙胜路58号"},{"poiid":"B2094654DB69AAFC499A","title":"集集小镇(金山二店)","lon":"121.34429","lat":"30.72882","category":"68","category_name":"快餐厅","address":"近郊金山区卫清西路477号乐购1楼(近蒙山路)"},{"poiid":"B2094757D06AABFC4093","title":"肯德基(金山百联店)","lon":"121.34377836","lat":"30.728891859","category":"68","category_name":"快餐厅","address":"近郊金山区卫清西路168弄99号百联金山购物中心1楼(近松卫南路)"},{"poiid":"B2094757DB6BA5FF429B","title":"好乐迪（百联金山购物中心店）","lon":"121.348","lat":"30.7301","category":"170","category_name":"KTV","address":"近郊金山区卫清西路168弄99号百联金山购物中心内(近松卫南路)"},{"poiid":"B2094757D16CA7F4499D","title":"雅点舫 百联金山店","lon":"121.35021","lat":"30.73057","category":"68","category_name":"快餐厅","address":"近郊金山区卫清西路168弄99号百联金山购物中心B207-B208号铺(近松卫南路)"},{"poiid":"B2094655D26FA1FA419C","title":"好人家酒店","lon":"121.34517","lat":"30.73325","category":"257","category_name":"中餐厅","address":"近郊金山石化板桥西路270号"},{"poiid":"B2094757D168A3FC499F","title":"爱茜茜里 百联金山店 Iceason","lon":"121.35021","lat":"30.73057","category":"67","category_name":"甜品店","address":"卫清西路168弄99号百联金山购物中心近松卫南路"},{"poiid":"B2094654DB69A1FC449B","title":"爱丁堡大酒店","lon":"121.34866","lat":"30.72608","category":"250","category_name":"公园户外","address":"上海市石化龙胜路127-129号(近蒙山路)"},{"poiid":"B2094757D66FA7FC4299","title":"Paris Baguette巴黎贝甜(金山百联店)","lon":"121.347779645","lat":"30.7295607085","category":"67","category_name":"甜品店","address":"上海近郊金山区卫清西路168弄99号百联金山购物中心1楼1号门(近松卫南路)"},{"poiid":"B2094757D66BA3F4449D","title":"古道村落 卫清西路店","lon":"121.35076","lat":"30.73076","category":"77","category_name":"湖南菜","address":"近郊金山区石化前京大道111号(百联对面)"},{"poiid":"B2094757D16DA0FC469E","title":"围炉 豆捞坊 金山店","lon":"121.346941145","lat":"30.7354820481","category":"247","category_name":"餐饮美食","address":"上海金山区 石化 百联"},{"poiid":"B2094750D56EA5FD449E","title":"今典咖啡","lon":"121.348","lat":"30.73277","category":"65","category_name":"咖啡厅","address":"近郊杭州湾大道601号海鸥大厦裙楼5楼"},{"poiid":"B2094757D569A3F5419F","title":"一闻香迷宗蟹(金山店)","lon":"121.34588732","lat":"30.72979519","category":"86","category_name":"火锅店","address":"近郊金山区卫清西路288号"},{"poiid":"B2094655D265A0FA409D","title":"东岭豪苑商业楼","lon":"121.348","lat":"30.7346","category":"252","category_name":"楼宇机构","address":"金山区卫清西路555弄"},{"poiid":"B2094757D465A7FB459A","title":"永和大王 百联金山店 Yungho King","lon":"121.35021","lat":"30.73057","category":"68","category_name":"快餐厅","address":"近郊金山区卫清西路168弄99号百联金山购物中心内(近松卫南路)"},{"poiid":"B2094757D16EA7FF4492","title":"思南私房菜 金山百联店","lon":"121.346031645","lat":"30.7328787867","category":"247","category_name":"餐饮美食","address":"上海市金山区蒙山路"},{"poiid":"B2094757D06BAAF4479C","title":"世纪联华(金山百联店)","lon":"121.347635198","lat":"30.7322809574","category":"118","category_name":"超级市场","address":"上海近郊金山区卫清西路168弄99号百联金山购物中心B1楼"},{"poiid":"B2094757D06FA2FE489C","title":"百联金山购物中心","lon":"121.34676264","lat":"30.733259894","category":"119","category_name":"商场","address":"近郊金山区卫清西路168弄99号(近松卫南路)"},{"poiid":"B2094757D06FA2FB489E","title":"星巴克(金山百联店)","lon":"121.35126","lat":"30.731089","category":"260","category_name":"其他","address":"近郊金山区卫清西路168弄99号百联金山购物中心内(近松卫南路)"},{"poiid":"B2094757D06FA0FC4699","title":"星美国际影城金山店","lon":"121.348272","lat":"30.730783","category":"178","category_name":"电影院","address":"上海金山区卫清西路188号301-1302-2室"},{"poiid":"B2094757D06FAAF5429B","title":"好乐迪金山店","lon":"121.34451927","lat":"30.732421942","category":"170","category_name":"KTV","address":"上海卫清西路168弄99号3f"},{"poiid":"B2094654DB69A2F5439A","title":"海鸥大厦","lon":"121.35182","lat":"30.72937","category":"268","category_name":"自助","address":"近郊金山区龙胜路58号(近战斗港路)"},{"poiid":"B2094757D068A3F8449B","title":"必胜客(金山百联店)","lon":"121.35021","lat":"30.73057","category":"94","category_name":"西餐厅","address":"近郊金山区卫清西路168弄99号百联金山购物中心1楼B120-121室(近松卫南路)"},{"poiid":"B2094757D06FA4FA459E","title":"避风塘 百联金山店","lon":"121.35021","lat":"30.73057","category":"111","category_name":"休闲餐饮场所","address":"近郊金山区卫清西路168弄99号百联金山购物中心1楼(近松卫南路)"},{"poiid":"B2094757D068A3F4419F","title":"乐购(金山店)","lon":"121.34391118","lat":"30.728586968","category":"118","category_name":"超级市场","address":"近郊金山区石化街道卫清西路477号(蒙山路口)"},{"poiid":"B2094757D665ABF8459F","title":"哈根达斯 百联金山店 Haagen-Dazs","lon":"121.35021","lat":"30.73057","category":"67","category_name":"甜品店","address":"近郊金山区卫清西路168弄99号百联金山购物中心B105商铺(近松卫南路)"},{"poiid":"B2094750DA6EA2F5429E","title":"湖蝶轩法式越南料理","lon":"121.346382","lat":"30.729667","category":"247","category_name":"餐饮美食","address":null},{"poiid":"B2094757D069A0FC419A","title":"汤姆熊(百联金山店)","lon":"121.34654524","lat":"30.732037833","category":"500","category_name":"未知分类","address":"上海金山区卫清西路168弄99号百联金山购物中心2楼"},{"poiid":"B2094655D265A4FA439A","title":"宝华海湾城","lon":"121.34979","lat":"30.73463","category":"47","category_name":"住宅区","address":"金山杭州湾大道板桥东路1480弄"},{"poiid":"B2094757D06BA2F54398","title":"丰收日(金山百联店)","lon":"121.34889164","lat":"30.731467753","category":"500","category_name":"未知分类","address":"上海金山百联购物中心"},{"poiid":"B2094655D264A7FE4299","title":"金山豪庭","lon":"121.35342","lat":"30.734066","category":"47","category_name":"住宅区","address":"上海市金山区卫清东路2988弄"},{"poiid":"B2094655D268A2FC429B","title":"金天地花园","lon":"121.350925","lat":"30.731236","category":"47","category_name":"住宅区","address":"金山卫清西路88号"},{"poiid":"B2094655D265A5FF429F","title":"上海波曼大酒店","lon":"121.34923","lat":"30.72995","category":"250","category_name":"公园户外","address":"近郊金山区卫清路179号(近金山城市沙滩)"},{"poiid":"B2094655D268A6FD469B","title":"福宴海鲜大酒楼","lon":"121.35036","lat":"30.73032","category":"75","category_name":"浙江菜","address":"近郊金山区卫清西路139号"},{"poiid":"B2094757D664A2F44993","title":"韩林炭烤 （百联金山店）","lon":"121.35021","lat":"30.73057","category":"96","category_name":"韩国料理","address":"卫清西路168弄99号百联金山购物中心2楼近松卫南路"},{"poiid":"B2094655D268A7FF439F","title":"山鑫城市广场","lon":"121.349978","lat":"30.734272","category":"46","category_name":"楼宇","address":"卫清西路139_149号等"},{"poiid":"B2094757D568A7FB4093","title":"三品香(卫清店)","lon":"121.3453087","lat":"30.72963515","category":"88","category_name":"海鲜酒楼","address":"上海市金山区卫清西路318号"},{"poiid":"B2094757D16CA4FF4092","title":"味千拉面(金山百联店)","lon":"121.34775619","lat":"30.7326628985","category":"95","category_name":"日本料理","address":"近郊金山区卫清西路168弄99号百联金山购物中心内(近松卫南路)"},{"poiid":"B2094655D268A6FA449A","title":"莫泰168金山卫清店","lon":"121.35103","lat":"30.73007","category":"216","category_name":"经济型连锁酒店","address":"近郊金山区卫清西路55号"},{"poiid":"B2094757D069A6FE469C","title":"许留山(金山百联店)","lon":"121.34743773","lat":"30.732148669","category":"67","category_name":"甜品店","address":"上海金山百联"},{"poiid":"B2094757D168A7F44792","title":"好乐迪","lon":"121.34642564","lat":"30.732410775","category":"500","category_name":"未知分类","address":"上海市金山区蒙山路"},{"poiid":"B2094750D768A0F5499F","title":"爱茜茜里意大利手工冰淇淋(百联金山店)","lon":"121.348","lat":"30.7301","category":"113","category_name":"冷饮店","address":"近郊金山区卫清西路168弄99号百联金山购物中心1楼"},{"poiid":"B2094757D064A6F8499F","title":"大碗鱼","lon":"121.3481987","lat":"30.7300668","category":"71","category_name":"四川菜","address":"近郊金山区卫清西路168弄99号百联金山购物中心2楼(近松卫南路)"},{"poiid":"B2094757DB6AA6FC499E","title":"斗牛士 金山百联","lon":"121.348949","lat":"30.7302035","category":"94","category_name":"西餐厅","address":"近郊金山区卫清西路168弄99号百联金山购物中心2楼(近松卫南路)"},{"poiid":"B2094757D065A2FB489B","title":"棕榈湾花园","lon":"121.3497","lat":"30.736702","category":"47","category_name":"住宅区","address":"上海蒙山路1266弄"},{"poiid":"B2094654DB69A3FB4093","title":"辰凯紫薇苑","lon":"121.34617913329","lat":"30.740805127992","category":"47","category_name":"住宅区","address":"上海市金山区蒙山路1517弄"},{"poiid":"B2094757DB6AA6FC499D","title":"小杨生煎","lon":"121.348949","lat":"30.7302035","category":"68","category_name":"快餐厅","address":"近郊金山区卫清西路168弄99号百联金山购物中心(近松卫南路)"},{"poiid":"B2094757D66BA2FC429C","title":"品尚豆捞 金山店","lon":"121.343541","lat":"30.728007","category":"86","category_name":"火锅店","address":"近郊金山石化蒙山路1252号(近国美)"},{"poiid":"B2094757D164A5FD459D","title":"咔萨音乐休闲餐厅","lon":"121.34636864","lat":"30.731582756","category":"94","category_name":"西餐厅","address":"近郊前京大道131号(金山百联对面)"},{"poiid":"B2094655D268A6FD4699","title":"九天银河大浴场","lon":"121.35131","lat":"30.73035","category":"149","category_name":"洗浴推拿场所","address":"近郊金山区卫清西路55号(近杭州湾大道)"},{"poiid":"B2094757D66EA6F54392","title":"金山海鸥大酒店","lon":"121.350602974","lat":"30.7294024417","category":"76","category_name":"上海菜","address":"上海金山区龙胜路58号"},{"poiid":"B2094654DB69AAFC499A","title":"集集小镇(金山二店)","lon":"121.34429","lat":"30.72882","category":"68","category_name":"快餐厅","address":"近郊金山区卫清西路477号乐购1楼(近蒙山路)"},{"poiid":"B2094757D06AABFC4093","title":"肯德基(金山百联店)","lon":"121.34377836","lat":"30.728891859","category":"68","category_name":"快餐厅","address":"近郊金山区卫清西路168弄99号百联金山购物中心1楼(近松卫南路)"},{"poiid":"B2094757DB6BA5FF429B","title":"好乐迪（百联金山购物中心店）","lon":"121.348","lat":"30.7301","category":"170","category_name":"KTV","address":"近郊金山区卫清西路168弄99号百联金山购物中心内(近松卫南路)"},{"poiid":"B2094757D16CA7F4499D","title":"雅点舫 百联金山店","lon":"121.35021","lat":"30.73057","category":"68","category_name":"快餐厅","address":"近郊金山区卫清西路168弄99号百联金山购物中心B207-B208号铺(近松卫南路)"},{"poiid":"B2094655D26FA1FA419C","title":"好人家酒店","lon":"121.34517","lat":"30.73325","category":"257","category_name":"中餐厅","address":"近郊金山石化板桥西路270号"},{"poiid":"B2094757D168A3FC499F","title":"爱茜茜里 百联金山店 Iceason","lon":"121.35021","lat":"30.73057","category":"67","category_name":"甜品店","address":"卫清西路168弄99号百联金山购物中心近松卫南路"},{"poiid":"B2094654DB69A1FC449B","title":"爱丁堡大酒店","lon":"121.34866","lat":"30.72608","category":"250","category_name":"公园户外","address":"上海市石化龙胜路127-129号(近蒙山路)"},{"poiid":"B2094757D66FA7FC4299","title":"Paris Baguette巴黎贝甜(金山百联店)","lon":"121.347779645","lat":"30.7295607085","category":"67","category_name":"甜品店","address":"上海近郊金山区卫清西路168弄99号百联金山购物中心1楼1号门(近松卫南路)"},{"poiid":"B2094757D66BA3F4449D","title":"古道村落 卫清西路店","lon":"121.35076","lat":"30.73076","category":"77","category_name":"湖南菜","address":"近郊金山区石化前京大道111号(百联对面)"},{"poiid":"B2094757D16DA0FC469E","title":"围炉 豆捞坊 金山店","lon":"121.346941145","lat":"30.7354820481","category":"247","category_name":"餐饮美食","address":"上海金山区 石化 百联"},{"poiid":"B2094750D56EA5FD449E","title":"今典咖啡","lon":"121.348","lat":"30.73277","category":"65","category_name":"咖啡厅","address":"近郊杭州湾大道601号海鸥大厦裙楼5楼"},{"poiid":"B2094757D569A3F5419F","title":"一闻香迷宗蟹(金山店)","lon":"121.34588732","lat":"30.72979519","category":"86","category_name":"火锅店","address":"近郊金山区卫清西路288号"},{"poiid":"B2094655D265A0FA409D","title":"东岭豪苑商业楼","lon":"121.348","lat":"30.7346","category":"252","category_name":"楼宇机构","address":"金山区卫清西路555弄"},{"poiid":"B2094757D465A7FB459A","title":"永和大王 百联金山店 Yungho King","lon":"121.35021","lat":"30.73057","category":"68","category_name":"快餐厅","address":"近郊金山区卫清西路168弄99号百联金山购物中心内(近松卫南路)"},{"poiid":"B2094757D16EA7FF4492","title":"思南私房菜 金山百联店","lon":"121.346031645","lat":"30.7328787867","category":"247","category_name":"餐饮美食","address":"上海市金山区蒙山路"},{"poiid":"B2094757D06BAAF4479C","title":"世纪联华(金山百联店)","lon":"121.347635198","lat":"30.7322809574","category":"118","category_name":"超级市场","address":"上海近郊金山区卫清西路168弄99号百联金山购物中心B1楼"},{"poiid":"B2094757D06FA2FE489C","title":"百联金山购物中心","lon":"121.34676264","lat":"30.733259894","category":"119","category_name":"商场","address":"近郊金山区卫清西路168弄99号(近松卫南路)"},{"poiid":"B2094757D06FA2FB489E","title":"星巴克(金山百联店)","lon":"121.35126","lat":"30.731089","category":"260","category_name":"其他","address":"近郊金山区卫清西路168弄99号百联金山购物中心内(近松卫南路)"},{"poiid":"B2094757D06FA0FC4699","title":"星美国际影城金山店","lon":"121.348272","lat":"30.730783","category":"178","category_name":"电影院","address":"上海金山区卫清西路188号301-1302-2室"},{"poiid":"B2094757D06FAAF5429B","title":"好乐迪金山店","lon":"121.34451927","lat":"30.732421942","category":"170","category_name":"KTV","address":"上海卫清西路168弄99号3f"},{"poiid":"B2094654DB69A2F5439A","title":"海鸥大厦","lon":"121.35182","lat":"30.72937","category":"268","category_name":"自助","address":"近郊金山区龙胜路58号(近战斗港路)"},{"poiid":"B2094757D068A3F8449B","title":"必胜客(金山百联店)","lon":"121.35021","lat":"30.73057","category":"94","category_name":"西餐厅","address":"近郊金山区卫清西路168弄99号百联金山购物中心1楼B120-121室(近松卫南路)"},{"poiid":"B2094757D06FA4FA459E","title":"避风塘 百联金山店","lon":"121.35021","lat":"30.73057","category":"111","category_name":"休闲餐饮场所","address":"近郊金山区卫清西路168弄99号百联金山购物中心1楼(近松卫南路)"},{"poiid":"B2094757D068A3F4419F","title":"乐购(金山店)","lon":"121.34391118","lat":"30.728586968","category":"118","category_name":"超级市场","address":"近郊金山区石化街道卫清西路477号(蒙山路口)"},{"poiid":"B2094757D665ABF8459F","title":"哈根达斯 百联金山店 Haagen-Dazs","lon":"121.35021","lat":"30.73057","category":"67","category_name":"甜品店","address":"近郊金山区卫清西路168弄99号百联金山购物中心B105商铺(近松卫南路)"},{"poiid":"B2094750DA6EA2F5429E","title":"湖蝶轩法式越南料理","lon":"121.346382","lat":"30.729667","category":"247","category_name":"餐饮美食","address":null},{"poiid":"B2094757D069A0FC419A","title":"汤姆熊(百联金山店)","lon":"121.34654524","lat":"30.732037833","category":"500","category_name":"未知分类","address":"上海金山区卫清西路168弄99号百联金山购物中心2楼"},{"poiid":"B2094655D265A4FA439A","title":"宝华海湾城","lon":"121.34979","lat":"30.73463","category":"47","category_name":"住宅区","address":"金山杭州湾大道板桥东路1480弄"},{"poiid":"B2094757D06BA2F54398","title":"丰收日(金山百联店)","lon":"121.34889164","lat":"30.731467753","category":"500","category_name":"未知分类","address":"上海金山百联购物中心"},{"poiid":"B2094655D264A7FE4299","title":"金山豪庭","lon":"121.35342","lat":"30.734066","category":"47","category_name":"住宅区","address":"上海市金山区卫清东路2988弄"},{"poiid":"B2094655D268A2FC429B","title":"金天地花园","lon":"121.350925","lat":"30.731236","category":"47","category_name":"住宅区","address":"金山卫清西路88号"},{"poiid":"B2094655D265A5FF429F","title":"上海波曼大酒店","lon":"121.34923","lat":"30.72995","category":"250","category_name":"公园户外","address":"近郊金山区卫清路179号(近金山城市沙滩)"},{"poiid":"B2094655D268A6FD469B","title":"福宴海鲜大酒楼","lon":"121.35036","lat":"30.73032","category":"75","category_name":"浙江菜","address":"近郊金山区卫清西路139号"},{"poiid":"B2094757D664A2F44993","title":"韩林炭烤 （百联金山店）","lon":"121.35021","lat":"30.73057","category":"96","category_name":"韩国料理","address":"卫清西路168弄99号百联金山购物中心2楼近松卫南路"},{"poiid":"B2094655D268A7FF439F","title":"山鑫城市广场","lon":"121.349978","lat":"30.734272","category":"46","category_name":"楼宇","address":"卫清西路139_149号等"},{"poiid":"B2094757D568A7FB4093","title":"三品香(卫清店)","lon":"121.3453087","lat":"30.72963515","category":"88","category_name":"海鲜酒楼","address":"上海市金山区卫清西路318号"},{"poiid":"B2094757D16CA4FF4092","title":"味千拉面(金山百联店)","lon":"121.34775619","lat":"30.7326628985","category":"95","category_name":"日本料理","address":"近郊金山区卫清西路168弄99号百联金山购物中心内(近松卫南路)"},{"poiid":"B2094655D268A6FA449A","title":"莫泰168金山卫清店","lon":"121.35103","lat":"30.73007","category":"216","category_name":"经济型连锁酒店","address":"近郊金山区卫清西路55号"},{"poiid":"B2094757D069A6FE469C","title":"许留山(金山百联店)","lon":"121.34743773","lat":"30.732148669","category":"67","category_name":"甜品店","address":"上海金山百联"},{"poiid":"B2094757D168A7F44792","title":"好乐迪","lon":"121.34642564","lat":"30.732410775","category":"500","category_name":"未知分类","address":"上海市金山区蒙山路"},{"poiid":"B2094750D768A0F5499F","title":"爱茜茜里意大利手工冰淇淋(百联金山店)","lon":"121.348","lat":"30.7301","category":"113","category_name":"冷饮店","address":"近郊金山区卫清西路168弄99号百联金山购物中心1楼"},{"poiid":"B2094757D064A6F8499F","title":"大碗鱼","lon":"121.3481987","lat":"30.7300668","category":"71","category_name":"四川菜","address":"近郊金山区卫清西路168弄99号百联金山购物中心2楼(近松卫南路)"},{"poiid":"B2094757DB6AA6FC499E","title":"斗牛士 金山百联","lon":"121.348949","lat":"30.7302035","category":"94","category_name":"西餐厅","address":"近郊金山区卫清西路168弄99号百联金山购物中心2楼(近松卫南路)"},{"poiid":"B2094757D065A2FB489B","title":"棕榈湾花园","lon":"121.3497","lat":"30.736702","category":"47","category_name":"住宅区","address":"上海蒙山路1266弄"},{"poiid":"B2094654DB69A3FB4093","title":"辰凯紫薇苑","lon":"121.34617913329","lat":"30.740805127992","category":"47","category_name":"住宅区","address":"上海市金山区蒙山路1517弄"},{"poiid":"B2094757DB6AA6FC499D","title":"小杨生煎","lon":"121.348949","lat":"30.7302035","category":"68","category_name":"快餐厅","address":"近郊金山区卫清西路168弄99号百联金山购物中心(近松卫南路)"},{"poiid":"B2094757D66BA2FC429C","title":"品尚豆捞 金山店","lon":"121.343541","lat":"30.728007","category":"86","category_name":"火锅店","address":"近郊金山石化蒙山路1252号(近国美)"},{"poiid":"B2094757D164A5FD459D","title":"咔萨音乐休闲餐厅","lon":"121.34636864","lat":"30.731582756","category":"94","category_name":"西餐厅","address":"近郊前京大道131号(金山百联对面)"},{"poiid":"B2094655D268A6FD4699","title":"九天银河大浴场","lon":"121.35131","lat":"30.73035","category":"149","category_name":"洗浴推拿场所","address":"近郊金山区卫清西路55号(近杭州湾大道)"},{"poiid":"B2094757D66EA6F54392","title":"金山海鸥大酒店","lon":"121.350602974","lat":"30.7294024417","category":"76","category_name":"上海菜","address":"上海金山区龙胜路58号"},{"poiid":"B2094654DB69AAFC499A","title":"集集小镇(金山二店)","lon":"121.34429","lat":"30.72882","category":"68","category_name":"快餐厅","address":"近郊金山区卫清西路477号乐购1楼(近蒙山路)"},{"poiid":"B2094757D06AABFC4093","title":"肯德基(金山百联店)","lon":"121.34377836","lat":"30.728891859","category":"68","category_name":"快餐厅","address":"近郊金山区卫清西路168弄99号百联金山购物中心1楼(近松卫南路)"},{"poiid":"B2094757DB6BA5FF429B","title":"好乐迪（百联金山购物中心店）","lon":"121.348","lat":"30.7301","category":"170","category_name":"KTV","address":"近郊金山区卫清西路168弄99号百联金山购物中心内(近松卫南路)"},{"poiid":"B2094757D16CA7F4499D","title":"雅点舫 百联金山店","lon":"121.35021","lat":"30.73057","category":"68","category_name":"快餐厅","address":"近郊金山区卫清西路168弄99号百联金山购物中心B207-B208号铺(近松卫南路)"},{"poiid":"B2094655D26FA1FA419C","title":"好人家酒店","lon":"121.34517","lat":"30.73325","category":"257","category_name":"中餐厅","address":"近郊金山石化板桥西路270号"},{"poiid":"B2094757D168A3FC499F","title":"爱茜茜里 百联金山店 Iceason","lon":"121.35021","lat":"30.73057","category":"67","category_name":"甜品店","address":"卫清西路168弄99号百联金山购物中心近松卫南路"},{"poiid":"B2094654DB69A1FC449B","title":"爱丁堡大酒店","lon":"121.34866","lat":"30.72608","category":"250","category_name":"公园户外","address":"上海市石化龙胜路127-129号(近蒙山路)"},{"poiid":"B2094757D66FA7FC4299","title":"Paris Baguette巴黎贝甜(金山百联店)","lon":"121.347779645","lat":"30.7295607085","category":"67","category_name":"甜品店","address":"上海近郊金山区卫清西路168弄99号百联金山购物中心1楼1号门(近松卫南路)"},{"poiid":"B2094757D66BA3F4449D","title":"古道村落 卫清西路店","lon":"121.35076","lat":"30.73076","category":"77","category_name":"湖南菜","address":"近郊金山区石化前京大道111号(百联对面)"},{"poiid":"B2094757D16DA0FC469E","title":"围炉 豆捞坊 金山店","lon":"121.346941145","lat":"30.7354820481","category":"247","category_name":"餐饮美食","address":"上海金山区 石化 百联"},{"poiid":"B2094750D56EA5FD449E","title":"今典咖啡","lon":"121.348","lat":"30.73277","category":"65","category_name":"咖啡厅","address":"近郊杭州湾大道601号海鸥大厦裙楼5楼"},{"poiid":"B2094757D569A3F5419F","title":"一闻香迷宗蟹(金山店)","lon":"121.34588732","lat":"30.72979519","category":"86","category_name":"火锅店","address":"近郊金山区卫清西路288号"},{"poiid":"B2094655D265A0FA409D","title":"东岭豪苑商业楼","lon":"121.348","lat":"30.7346","category":"252","category_name":"楼宇机构","address":"金山区卫清西路555弄"},{"poiid":"B2094757D465A7FB459A","title":"永和大王 百联金山店 Yungho King","lon":"121.35021","lat":"30.73057","category":"68","category_name":"快餐厅","address":"近郊金山区卫清西路168弄99号百联金山购物中心内(近松卫南路)"},{"poiid":"B2094757D16EA7FF4492","title":"思南私房菜 金山百联店","lon":"121.346031645","lat":"30.7328787867","category":"247","category_name":"餐饮美食","address":"上海市金山区蒙山路"},{"poiid":"B2094757D06BAAF4479C","title":"世纪联华(金山百联店)","lon":"121.347635198","lat":"30.7322809574","category":"118","category_name":"超级市场","address":"上海近郊金山区卫清西路168弄99号百联金山购物中心B1楼"}]