[{"poiid":"B2094654DB6AAAFF469F","title":"上海外国语大学","lon":"121.48271","lat":"31.27654","category":"671","category_name":"高校中心点","address":"上海市虹口区大连西路550号"},{"poiid":"B2094757D065ABF9459E","title":"上海外国语大学虹口校区","lon":"121.482817","lat":"31.275316","category":"500","category_name":"未知分类","address":"虹口区大连西路550号(近东体育会路)"},{"poiid":"B2094654D56CA1FC4799","title":"上海外国语大学生活区","lon":"121.48577","lat":"31.27796","category":"47","category_name":"住宅区","address":"东体育会路411"},{"poiid":"B2094757D06EAAF94498","title":"鲁迅公园","lon":"121.4845661077095","lat":"31.270973847972332","category":"196","category_name":"公园","address":"上海虹口区四川北路2288号"},{"poiid":"B2094757D069A1F4429E","title":"八号线虹口足球场站","lon":"121.486136503","lat":"31.2728143722","category":"500","category_name":"未知分类","address":"上海八号线虹口足球场站"},{"poiid":"B2094757D568AAF54899","title":"上海外国语大学贤达经济人文学院","lon":"121.4844739","lat":"31.27817111","category":"671","category_name":"高校中心点","address":"东体育会路390号"},{"poiid":"B2094757D06FA3F44193","title":"虹口公园","lon":"121.48354753","lat":"31.272639537","category":"196","category_name":"公园","address":"上海虹口区四川北路2288号"},{"poiid":"B2094757D16CA2F4439B","title":"高點保齡球館","lon":"121.4828011","lat":"31.273344483","category":"220","category_name":"运动场所","address":"北京虹口區東江灣路456號"},{"poiid":"B2094757D068A2F9439E","title":"虹口区牙病防治所","lon":"121.48649","lat":"31.27398","category":"162","category_name":"医院","address":"虹口区欧阳路571号(近大连西路)"},{"poiid":"B2094757D069AAFE4393","title":"上海外国语大学逸夫图书馆","lon":"121.482356","lat":"31.27608","category":"253","category_name":"校园生活","address":"虹口区大连西路550号上海外国语大学虹口校区内"},{"poiid":"B2094757D06FA7F4429E","title":"嘉和国际大厦","lon":"121.48520494983","lat":"31.275291764831","category":"46","category_name":"楼宇","address":"浦东新区金湘路225弄"},{"poiid":"B2094654DB6AAAF9489D","title":"虹口体育场(三号门)","lon":"121.48151","lat":"31.27298","category":"224","category_name":"综合体育馆","address":""},{"poiid":"B2094654D56EA0FF4793","title":"上海外国语大学(东门)","lon":"121.48381","lat":"31.27703","category":"656","category_name":"大门","address":"东体育会路340"},{"poiid":"B2094757D06FA2F4499B","title":"外国语大学健身中心","lon":"121.481790321","lat":"31.2774550866","category":"253","category_name":"校园生活","address":"上海虹口区西体育会路189号(上外迎宾馆南门对面)"},{"poiid":"B2094654D56CA6F8439F","title":"鲁迅公园(北门)","lon":"121.48374","lat":"31.27492","category":"656","category_name":"大门","address":"大连西路345"},{"poiid":"B2094757D06FAAFB419F","title":"8号线虹口足球场站","lon":"121.4812291","lat":"31.27318848","category":"36","category_name":"地铁站","address":"上海市虹口区广中支路"},{"poiid":"B2094757D06FABFE489E","title":"虹口区教师进修学院","lon":"121.486546","lat":"31.273132","category":"253","category_name":"校园生活","address":"上海虹口区欧阳路502号"},{"poiid":"B2094654DB69A4FD489C","title":"锦江之星(虹口足球场店)","lon":"121.48052","lat":"31.2765","category":"217","category_name":"旅馆招待所","address":"虹口区西江湾路718号(近虹口足球场)"},{"poiid":"B2094757D06FA5F4489C","title":"上外贤达经济人文学院","lon":"121.484745","lat":"31.277795","category":"671","category_name":"高校中心点","address":"上海东体育会路390号"},{"poiid":"B2094757D069A1F8419A","title":"上海市虹口区房地产交易中心","lon":"121.484502","lat":"31.27703","category":"260","category_name":"其他","address":"上海东体育会路359号"},{"poiid":"B2094655D36CA6FA4699","title":"东体育会路","lon":"121.48187","lat":"31.27497","category":"38","category_name":"公交车站","address":""},{"poiid":"B2094757D06AA2FF439A","title":"上外逸夫会堂","lon":"121.482903","lat":"31.275323","category":"500","category_name":"未知分类","address":"上海外国语大学"},{"poiid":"B2094757D464AAF54393","title":"艾罗玛咖啡 东体育会路店 Aroma Coffee","lon":"121.48404","lat":"31.27554","category":"260","category_name":"其他","address":"虹口区东体育会路306号(近大连西路)"},{"poiid":"B2094654DB6AA6F8449E","title":"上海上外迎宾馆","lon":"121.48219","lat":"31.27781","category":"215","category_name":"三星级宾馆","address":"上海市西体育会路189号(近西江湾路)"},{"poiid":"B2094757D06FA4FF419C","title":"上海外国语大学健身中心游泳馆","lon":"121.48178005","lat":"31.277396817","category":"253","category_name":"校园生活","address":"虹口区西体育会路189号(上外迎宾馆南门对面)"},{"poiid":"B2094757D065A2F94293","title":"上外食堂(虹口校区)","lon":"121.48223","lat":"31.2749","category":"68","category_name":"快餐厅","address":"虹口区大连西路550号上外虹口校区(近东体育会路)"},{"poiid":"B2094757D06FA0FA4492","title":"悦台三号酒吧","lon":"121.481419","lat":"31.272859","category":"172","category_name":"酒吧","address":"上海东江湾路444号虹口足球场3号楼梯下(近3号门)"},{"poiid":"B2094655D265ABFF4599","title":"同茂兴苏氏面菜馆上外店","lon":"121.48406","lat":"31.27582","category":"68","category_name":"快餐厅","address":"虹口区东体育会路318号(大连西路欧阳路)"},{"poiid":"B2094757D068A6FB419C","title":"德笼馆 上外店","lon":"121.481729054","lat":"31.274257793","category":"68","category_name":"快餐厅","address":"虹口区东体育会路29号(近东体育会支路)"},{"poiid":"B2094750D66CA0F94592","title":"上海市虹口区委党校","lon":"121.483306","lat":"31.275484","category":"253","category_name":"校园生活","address":"欧阳路875号"},{"poiid":"B2094757D068ABF5479A","title":"cross corner","lon":"121.48206","lat":"31.27787","category":"94","category_name":"西餐厅","address":"虹口区西体育会路229号5号商铺(近上海外国语大学)"},{"poiid":"B2094757D169A7F94393","title":"禧福居茶(私人小會所)","lon":"121.483576003","lat":"31.2746132098","category":"247","category_name":"餐饮美食","address":null},{"poiid":"B2094757D068A4F84099","title":"敬亭盲人保健按摩","lon":"121.48734","lat":"31.27599","category":"149","category_name":"洗浴推拿场所","address":"虹口区大连西路261号中原证券大厦1楼(近曲阳路站)"},{"poiid":"B2094655D26CA1F4419C","title":"华兴商厦","lon":"121.48202","lat":"31.274595","category":"47","category_name":"住宅区","address":"东体育会路100弄1号"},{"poiid":"B2094654D56CA6FA4393","title":"虹光公寓","lon":"121.483745","lat":"31.274348","category":"47","category_name":"住宅区","address":"上海市虹口区西江湾路206弄20号"},{"poiid":"B2094655D265AAF4499E","title":"上外出版大楼","lon":"121.48281","lat":"31.27532","category":"46","category_name":"楼宇","address":"大连西路550号"},{"poiid":"B2094757D06AA6FA4793","title":"朱屺瞻艺术馆","lon":"121.48645","lat":"31.27411","category":"179","category_name":"音乐厅","address":"虹口区欧阳路580号"},{"poiid":"B2094757D16DA1FB4792","title":"哈尔滨私房菜","lon":"121.482969969","lat":"31.2751964554","category":"247","category_name":"餐饮美食","address":"上海东体育会路29号"},{"poiid":"B2094750DB68A0FB4693","title":"虹口牙防所","lon":"121.482887","lat":"31.274051","category":"500","category_name":"未知分类","address":null},{"poiid":"B2094655D26BABFA4398","title":"逸夫图书馆","lon":"121.48302","lat":"31.2774","category":"181","category_name":"图书馆","address":""},{"poiid":"B2094655D26DA5F44692","title":"好德便利No.232","lon":"121.48401","lat":"31.27575","category":"117","category_name":"便民商店/便利店","address":"东体育会路312"},{"poiid":"B2094655D36CA5FC439D","title":"大连西路东体育会路","lon":"121.48187","lat":"31.27498","category":"38","category_name":"公交车站","address":""},{"poiid":"B2094753D264A4FB4299","title":"虹口区甜爱路","lon":"121.483613","lat":"31.275653","category":"500","category_name":"未知分类","address":"上海市 515906543"},{"poiid":"B2094655D265A7FA439C","title":"逸夫会堂","lon":"121.48347","lat":"31.27607","category":"185","category_name":"会展中心","address":""},{"poiid":"B2094654D56CA0F9489A","title":"欧阳名邸","lon":"121.48741","lat":"31.274374","category":"47","category_name":"住宅区","address":"上海市虹口区欧阳路571号(近大连西路)"},{"poiid":"B2094757D16CA5F54299","title":"上海外国语大学食堂(虹口校区)","lon":"121.482829","lat":"31.275566","category":"500","category_name":"未知分类","address":"上海虹口区大连西路550号(近东体育会路)"},{"poiid":"B2094757D06AA4FD459B","title":"虹口训练馆","lon":"121.48146581","lat":"31.272329574","category":"220","category_name":"运动场所","address":"虹口区东体育会路"},{"poiid":"B2094655D26AA6F5479B","title":"锦江大厨虹口店","lon":"121.48051","lat":"31.2765","category":"76","category_name":"上海菜","address":"虹口区西江湾路718号(近中山北一路)"},{"poiid":"B2094757D06BA2F5429D","title":"上外书店","lon":"121.482342157","lat":"31.2752450127","category":"125","category_name":"书店","address":"虹口区大连西路570号(近东体育会路)"},{"poiid":"B2094654D56CA1FE429A","title":"上海欣鹏大酒店","lon":"121.48063","lat":"31.27696","category":"75","category_name":"浙江菜","address":"上海虹口区西江湾路760号(近虹口足球场)  "},{"poiid":"B2094654DB6AAAFF469F","title":"上海外国语大学","lon":"121.48271","lat":"31.27654","category":"671","category_name":"高校中心点","address":"上海市虹口区大连西路550号"},{"poiid":"B2094757D065ABF9459E","title":"上海外国语大学虹口校区","lon":"121.482817","lat":"31.275316","category":"500","category_name":"未知分类","address":"虹口区大连西路550号(近东体育会路)"},{"poiid":"B2094654D56CA1FC4799","title":"上海外国语大学生活区","lon":"121.48577","lat":"31.27796","category":"47","category_name":"住宅区","address":"东体育会路411"},{"poiid":"B2094757D06EAAF94498","title":"鲁迅公园","lon":"121.4845661077095","lat":"31.270973847972332","category":"196","category_name":"公园","address":"上海虹口区四川北路2288号"},{"poiid":"B2094757D069A1F4429E","title":"八号线虹口足球场站","lon":"121.486136503","lat":"31.2728143722","category":"500","category_name":"未知分类","address":"上海八号线虹口足球场站"},{"poiid":"B2094757D568AAF54899","title":"上海外国语大学贤达经济人文学院","lon":"121.4844739","lat":"31.27817111","category":"671","category_name":"高校中心点","address":"东体育会路390号"},{"poiid":"B2094757D06FA3F44193","title":"虹口公园","lon":"121.48354753","lat":"31.272639537","category":"196","category_name":"公园","address":"上海虹口区四川北路2288号"},{"poiid":"B2094757D16CA2F4439B","title":"高點保齡球館","lon":"121.4828011","lat":"31.273344483","category":"220","category_name":"运动场所","address":"北京虹口區東江灣路456號"},{"poiid":"B2094757D068A2F9439E","title":"虹口区牙病防治所","lon":"121.48649","lat":"31.27398","category":"162","category_name":"医院","address":"虹口区欧阳路571号(近大连西路)"},{"poiid":"B2094757D069AAFE4393","title":"上海外国语大学逸夫图书馆","lon":"121.482356","lat":"31.27608","category":"253","category_name":"校园生活","address":"虹口区大连西路550号上海外国语大学虹口校区内"},{"poiid":"B2094757D06FA7F4429E","title":"嘉和国际大厦","lon":"121.48520494983","lat":"31.275291764831","category":"46","category_name":"楼宇","address":"浦东新区金湘路225弄"},{"poiid":"B2094654DB6AAAF9489D","title":"虹口体育场(三号门)","lon":"121.48151","lat":"31.27298","category":"224","category_name":"综合体育馆","address":""},{"poiid":"B2094654D56EA0FF4793","title":"上海外国语大学(东门)","lon":"121.48381","lat":"31.27703","category":"656","category_name":"大门","address":"东体育会路340"},{"poiid":"B2094757D06FA2F4499B","title":"外国语大学健身中心","lon":"121.481790321","lat":"31.2774550866","category":"253","category_name":"校园生活","address":"上海虹口区西体育会路189号(上外迎宾馆南门对面)"},{"poiid":"B2094654D56CA6F8439F","title":"鲁迅公园(北门)","lon":"121.48374","lat":"31.27492","category":"656","category_name":"大门","address":"大连西路345"},{"poiid":"B2094757D06FAAFB419F","title":"8号线虹口足球场站","lon":"121.4812291","lat":"31.27318848","category":"36","category_name":"地铁站","address":"上海市虹口区广中支路"},{"poiid":"B2094757D06FABFE489E","title":"虹口区教师进修学院","lon":"121.486546","lat":"31.273132","category":"253","category_name":"校园生活","address":"上海虹口区欧阳路502号"},{"poiid":"B2094654DB69A4FD489C","title":"锦江之星(虹口足球场店)","lon":"121.48052","lat":"31.2765","category":"217","category_name":"旅馆招待所","address":"虹口区西江湾路718号(近虹口足球场)"},{"poiid":"B2094757D06FA5F4489C","title":"上外贤达经济人文学院","lon":"121.484745","lat":"31.277795","category":"671","category_name":"高校中心点","address":"上海东体育会路390号"},{"poiid":"B2094757D069A1F8419A","title":"上海市虹口区房地产交易中心","lon":"121.484502","lat":"31.27703","category":"260","category_name":"其他","address":"上海东体育会路359号"},{"poiid":"B2094655D36CA6FA4699","title":"东体育会路","lon":"121.48187","lat":"31.27497","category":"38","category_name":"公交车站","address":""},{"poiid":"B2094757D06AA2FF439A","title":"上外逸夫会堂","lon":"121.482903","lat":"31.275323","category":"500","category_name":"未知分类","address":"上海外国语大学"},{"poiid":"B2094757D464AAF54393","title":"艾罗玛咖啡 东体育会路店 Aroma Coffee","lon":"121.48404","lat":"31.27554","category":"260","category_name":"其他","address":"虹口区东体育会路306号(近大连西路)"},{"poiid":"B2094654DB6AA6F8449E","title":"上海上外迎宾馆","lon":"121.48219","lat":"31.27781","category":"215","category_name":"三星级宾馆","address":"上海市西体育会路189号(近西江湾路)"},{"poiid":"B2094757D06FA4FF419C","title":"上海外国语大学健身中心游泳馆","lon":"121.48178005","lat":"31.277396817","category":"253","category_name":"校园生活","address":"虹口区西体育会路189号(上外迎宾馆南门对面)"},{"poiid":"B2094757D065A2F94293","title":"上外食堂(虹口校区)","lon":"121.48223","lat":"31.2749","category":"68","category_name":"快餐厅","address":"虹口区大连西路550号上外虹口校区(近东体育会路)"},{"poiid":"B2094757D06FA0FA4492","title":"悦台三号酒吧","lon":"121.481419","lat":"31.272859","category":"172","category_name":"酒吧","address":"上海东江湾路444号虹口足球场3号楼梯下(近3号门)"},{"poiid":"B2094655D265ABFF4599","title":"同茂兴苏氏面菜馆上外店","lon":"121.48406","lat":"31.27582","category":"68","category_name":"快餐厅","address":"虹口区东体育会路318号(大连西路欧阳路)"},{"poiid":"B2094757D068A6FB419C","title":"德笼馆 上外店","lon":"121.481729054","lat":"31.274257793","category":"68","category_name":"快餐厅","address":"虹口区东体育会路29号(近东体育会支路)"},{"poiid":"B2094750D66CA0F94592","title":"上海市虹口区委党校","lon":"121.483306","lat":"31.275484","category":"253","category_name":"校园生活","address":"欧阳路875号"},{"poiid":"B2094757D068ABF5479A","title":"cross corner","lon":"121.48206","lat":"31.27787","category":"94","category_name":"西餐厅","address":"虹口区西体育会路229号5号商铺(近上海外国语大学)"},{"poiid":"B2094757D169A7F94393","title":"禧福居茶(私人小會所)","lon":"121.483576003","lat":"31.2746132098","category":"247","category_name":"餐饮美食","address":null},{"poiid":"B2094757D068A4F84099","title":"敬亭盲人保健按摩","lon":"121.48734","lat":"31.27599","category":"149","category_name":"洗浴推拿场所","address":"虹口区大连西路261号中原证券大厦1楼(近曲阳路站)"},{"poiid":"B2094655D26CA1F4419C","title":"华兴商厦","lon":"121.48202","lat":"31.274595","category":"47","category_name":"住宅区","address":"东体育会路100弄1号"},{"poiid":"B2094654D56CA6FA4393","title":"虹光公寓","lon":"121.483745","lat":"31.274348","category":"47","category_name":"住宅区","address":"上海市虹口区西江湾路206弄20号"},{"poiid":"B2094655D265AAF4499E","title":"上外出版大楼","lon":"121.48281","lat":"31.27532","category":"46","category_name":"楼宇","address":"大连西路550号"},{"poiid":"B2094757D06AA6FA4793","title":"朱屺瞻艺术馆","lon":"121.48645","lat":"31.27411","category":"179","category_name":"音乐厅","address":"虹口区欧阳路580号"},{"poiid":"B2094757D16DA1FB4792","title":"哈尔滨私房菜","lon":"121.482969969","lat":"31.2751964554","category":"247","category_name":"餐饮美食","address":"上海东体育会路29号"},{"poiid":"B2094750DB68A0FB4693","title":"虹口牙防所","lon":"121.482887","lat":"31.274051","category":"500","category_name":"未知分类","address":null},{"poiid":"B2094655D26BABFA4398","title":"逸夫图书馆","lon":"121.48302","lat":"31.2774","category":"181","category_name":"图书馆","address":""},{"poiid":"B2094655D26DA5F44692","title":"好德便利No.232","lon":"121.48401","lat":"31.27575","category":"117","category_name":"便民商店/便利店","address":"东体育会路312"},{"poiid":"B2094655D36CA5FC439D","title":"大连西路东体育会路","lon":"121.48187","lat":"31.27498","category":"38","category_name":"公交车站","address":""},{"poiid":"B2094753D264A4FB4299","title":"虹口区甜爱路","lon":"121.483613","lat":"31.275653","category":"500","category_name":"未知分类","address":"上海市 515906543"},{"poiid":"B2094655D265A7FA439C","title":"逸夫会堂","lon":"121.48347","lat":"31.27607","category":"185","category_name":"会展中心","address":""},{"poiid":"B2094654D56CA0F9489A","title":"欧阳名邸","lon":"121.48741","lat":"31.274374","category":"47","category_name":"住宅区","address":"上海市虹口区欧阳路571号(近大连西路)"},{"poiid":"B2094757D16CA5F54299","title":"上海外国语大学食堂(虹口校区)","lon":"121.482829","lat":"31.275566","category":"500","category_name":"未知分类","address":"上海虹口区大连西路550号(近东体育会路)"},{"poiid":"B2094757D06AA4FD459B","title":"虹口训练馆","lon":"121.48146581","lat":"31.272329574","category":"220","category_name":"运动场所","address":"虹口区东体育会路"},{"poiid":"B2094655D26AA6F5479B","title":"锦江大厨虹口店","lon":"121.48051","lat":"31.2765","category":"76","category_name":"上海菜","address":"虹口区西江湾路718号(近中山北一路)"},{"poiid":"B2094757D06BA2F5429D","title":"上外书店","lon":"121.482342157","lat":"31.2752450127","category":"125","category_name":"书店","address":"虹口区大连西路570号(近东体育会路)"},{"poiid":"B2094654D56CA1FE429A","title":"上海欣鹏大酒店","lon":"121.48063","lat":"31.27696","category":"75","category_name":"浙江菜","address":"上海虹口区西江湾路760号(近虹口足球场)  "},{"poiid":"B2094654DB6AAAFF469F","title":"上海外国语大学","lon":"121.48271","lat":"31.27654","category":"671","category_name":"高校中心点","address":"上海市虹口区大连西路550号"},{"poiid":"B2094757D065ABF9459E","title":"上海外国语大学虹口校区","lon":"121.482817","lat":"31.275316","category":"500","category_name":"未知分类","address":"虹口区大连西路550号(近东体育会路)"},{"poiid":"B2094654D56CA1FC4799","title":"上海外国语大学生活区","lon":"121.48577","lat":"31.27796","category":"47","category_name":"住宅区","address":"东体育会路411"},{"poiid":"B2094757D06EAAF94498","title":"鲁迅公园","lon":"121.4845661077095","lat":"31.270973847972332","category":"196","category_name":"公园","address":"上海虹口区四川北路2288号"},{"poiid":"B2094757D069A1F4429E","title":"八号线虹口足球场站","lon":"121.486136503","lat":"31.2728143722","category":"500","category_name":"未知分类","address":"上海八号线虹口足球场站"},{"poiid":"B2094757D568AAF54899","title":"上海外国语大学贤达经济人文学院","lon":"121.4844739","lat":"31.27817111","category":"671","category_name":"高校中心点","address":"东体育会路390号"},{"poiid":"B2094757D06FA3F44193","title":"虹口公园","lon":"121.48354753","lat":"31.272639537","category":"196","category_name":"公园","address":"上海虹口区四川北路2288号"},{"poiid":"B2094757D16CA2F4439B","title":"高點保齡球館","lon":"121.4828011","lat":"31.273344483","category":"220","category_name":"运动场所","address":"北京虹口區東江灣路456號"},{"poiid":"B2094757D068A2F9439E","title":"虹口区牙病防治所","lon":"121.48649","lat":"31.27398","category":"162","category_name":"医院","address":"虹口区欧阳路571号(近大连西路)"},{"poiid":"B2094757D069AAFE4393","title":"上海外国语大学逸夫图书馆","lon":"121.482356","lat":"31.27608","category":"253","category_name":"校园生活","address":"虹口区大连西路550号上海外国语大学虹口校区内"},{"poiid":"B2094757D06FA7F4429E","title":"嘉和国际大厦","lon":"121.48520494983","lat":"31.275291764831","category":"46","category_name":"楼宇","address":"浦东新区金湘路225弄"},{"poiid":"B2094654DB6AAAF9489D","title":"虹口体育场(三号门)","lon":"121.48151","lat":"31.27298","category":"224","category_name":"综合体育馆","address":""},{"poiid":"B2094654D56EA0FF4793","title":"上海外国语大学(东门)","lon":"121.48381","lat":"31.27703","category":"656","category_name":"大门","address":"东体育会路340"},{"poiid":"B2094757D06FA2F4499B","title":"外国语大学健身中心","lon":"121.481790321","lat":"31.2774550866","category":"253","category_name":"校园生活","address":"上海虹口区西体育会路189号(上外迎宾馆南门对面)"},{"poiid":"B2094654D56CA6F8439F","title":"鲁迅公园(北门)","lon":"121.48374","lat":"31.27492","category":"656","category_name":"大门","address":"大连西路345"},{"poiid":"B2094757D06FAAFB419F","title":"8号线虹口足球场站","lon":"121.4812291","lat":"31.27318848","category":"36","category_name":"地铁站","address":"上海市虹口区广中支路"},{"poiid":"B2094757D06FABFE489E","title":"虹口区教师进修学院","lon":"121.486546","lat":"31.273132","category":"253","category_name":"校园生活","address":"上海虹口区欧阳路502号"},{"poiid":"B2094654DB69A4FD489C","title":"锦江之星(虹口足球场店)","lon":"121.48052","lat":"31.2765","category":"217","category_name":"旅馆招待所","address":"虹口区西江湾路718号(近虹口足球场)"},{"poiid":"B2094757D06FA5F4489C","title":"上外贤达经济人文学院","lon":"121.484745","lat":"31.277795","category":"671","category_name":"高校中心点","address":"上海东体育会路390号"},{"poiid":"B2094757D069A1F8419A","title":"上海市虹口区房地产交易中心","lon":"121.484502","lat":"31.27703","category":"260","category_name":"其他","address":"上海东体育会路359号"},{"poiid":"B2094655D36CA6FA4699","title":"东体育会路","lon":"121.48187","lat":"31.27497","category":"38","category_name":"公交车站","address":""},{"poiid":"B2094757D06AA2FF439A","title":"上外逸夫会堂","lon":"121.482903","lat":"31.275323","category":"500","category_name":"未知分类","address":"上海外国语大学"},{"poiid":"B2094757D464AAF54393","title":"艾罗玛咖啡 东体育会路店 Aroma Coffee","lon":"121.48404","lat":"31.27554","category":"260","category_name":"其他","address":"虹口区东体育会路306号(近大连西路)"},{"poiid":"B2094654DB6AA6F8449E","title":"上海上外迎宾馆","lon":"121.48219","lat":"31.27781","category":"215","category_name":"三星级宾馆","address":"上海市西体育会路189号(近西江湾路)"},{"poiid":"B2094757D06FA4FF419C","title":"上海外国语大学健身中心游泳馆","lon":"121.48178005","lat":"31.277396817","category":"253","category_name":"校园生活","address":"虹口区西体育会路189号(上外迎宾馆南门对面)"},{"poiid":"B2094757D065A2F94293","title":"上外食堂(虹口校区)","lon":"121.48223","lat":"31.2749","category":"68","category_name":"快餐厅","address":"虹口区大连西路550号上外虹口校区(近东体育会路)"},{"poiid":"B2094757D06FA0FA4492","title":"悦台三号酒吧","lon":"121.481419","lat":"31.272859","category":"172","category_name":"酒吧","address":"上海东江湾路444号虹口足球场3号楼梯下(近3号门)"},{"poiid":"B2094655D265ABFF4599","title":"同茂兴苏氏面菜馆上外店","lon":"121.48406","lat":"31.27582","category":"68","category_name":"快餐厅","address":"虹口区东体育会路318号(大连西路欧阳路)"},{"poiid":"B2094757D068A6FB419C","title":"德笼馆 上外店","lon":"121.481729054","lat":"31.274257793","category":"68","category_name":"快餐厅","address":"虹口区东体育会路29号(近东体育会支路)"},{"poiid":"B2094750D66CA0F94592","title":"上海市虹口区委党校","lon":"121.483306","lat":"31.275484","category":"253","category_name":"校园生活","address":"欧阳路875号"},{"poiid":"B2094757D068ABF5479A","title":"cross corner","lon":"121.48206","lat":"31.27787","category":"94","category_name":"西餐厅","address":"虹口区西体育会路229号5号商铺(近上海外国语大学)"},{"poiid":"B2094757D169A7F94393","title":"禧福居茶(私人小會所)","lon":"121.483576003","lat":"31.2746132098","category":"247","category_name":"餐饮美食","address":null},{"poiid":"B2094757D068A4F84099","title":"敬亭盲人保健按摩","lon":"121.48734","lat":"31.27599","category":"149","category_name":"洗浴推拿场所","address":"虹口区大连西路261号中原证券大厦1楼(近曲阳路站)"},{"poiid":"B2094655D26CA1F4419C","title":"华兴商厦","lon":"121.48202","lat":"31.274595","category":"47","category_name":"住宅区","address":"东体育会路100弄1号"},{"poiid":"B2094654D56CA6FA4393","title":"虹光公寓","lon":"121.483745","lat":"31.274348","category":"47","category_name":"住宅区","address":"上海市虹口区西江湾路206弄20号"},{"poiid":"B2094655D265AAF4499E","title":"上外出版大楼","lon":"121.48281","lat":"31.27532","category":"46","category_name":"楼宇","address":"大连西路550号"},{"poiid":"B2094757D06AA6FA4793","title":"朱屺瞻艺术馆","lon":"121.48645","lat":"31.27411","category":"179","category_name":"音乐厅","address":"虹口区欧阳路580号"},{"poiid":"B2094757D16DA1FB4792","title":"哈尔滨私房菜","lon":"121.482969969","lat":"31.2751964554","category":"247","category_name":"餐饮美食","address":"上海东体育会路29号"},{"poiid":"B2094750DB68A0FB4693","title":"虹口牙防所","lon":"121.482887","lat":"31.274051","category":"500","category_name":"未知分类","address":null},{"poiid":"B2094655D26BABFA4398","title":"逸夫图书馆","lon":"121.48302","lat":"31.2774","category":"181","category_name":"图书馆","address":""},{"poiid":"B2094655D26DA5F44692","title":"好德便利No.232","lon":"121.48401","lat":"31.27575","category":"117","category_name":"便民商店/便利店","address":"东体育会路312"},{"poiid":"B2094655D36CA5FC439D","title":"大连西路东体育会路","lon":"121.48187","lat":"31.27498","category":"38","category_name":"公交车站","address":""},{"poiid":"B2094753D264A4FB4299","title":"虹口区甜爱路","lon":"121.483613","lat":"31.275653","category":"500","category_name":"未知分类","address":"上海市 515906543"},{"poiid":"B2094655D265A7FA439C","title":"逸夫会堂","lon":"121.48347","lat":"31.27607","category":"185","category_name":"会展中心","address":""},{"poiid":"B2094654D56CA0F9489A","title":"欧阳名邸","lon":"121.48741","lat":"31.274374","category":"47","category_name":"住宅区","address":"上海市虹口区欧阳路571号(近大连西路)"},{"poiid":"B2094757D16CA5F54299","title":"上海外国语大学食堂(虹口校区)","lon":"121.482829","lat":"31.275566","category":"500","category_name":"未知分类","address":"上海虹口区大连西路550号(近东体育会路)"},{"poiid":"B2094757D06AA4FD459B","title":"虹口训练馆","lon":"121.48146581","lat":"31.272329574","category":"220","category_name":"运动场所","address":"虹口区东体育会路"},{"poiid":"B2094655D26AA6F5479B","title":"锦江大厨虹口店","lon":"121.48051","lat":"31.2765","category":"76","category_name":"上海菜","address":"虹口区西江湾路718号(近中山北一路)"},{"poiid":"B2094757D06BA2F5429D","title":"上外书店","lon":"121.482342157","lat":"31.2752450127","category":"125","category_name":"书店","address":"虹口区大连西路570号(近东体育会路)"},{"poiid":"B2094654D56CA1FE429A","title":"上海欣鹏大酒店","lon":"121.48063","lat":"31.27696","category":"75","category_name":"浙江菜","address":"上海虹口区西江湾路760号(近虹口足球场)  "},{"poiid":"B2094654DB6AAAFF469F","title":"上海外国语大学","lon":"121.48271","lat":"31.27654","category":"671","category_name":"高校中心点","address":"上海市虹口区大连西路550号"},{"poiid":"B2094757D065ABF9459E","title":"上海外国语大学虹口校区","lon":"121.482817","lat":"31.275316","category":"500","category_name":"未知分类","address":"虹口区大连西路550号(近东体育会路)"},{"poiid":"B2094654D56CA1FC4799","title":"上海外国语大学生活区","lon":"121.48577","lat":"31.27796","category":"47","category_name":"住宅区","address":"东体育会路411"},{"poiid":"B2094757D06EAAF94498","title":"鲁迅公园","lon":"121.4845661077095","lat":"31.270973847972332","category":"196","category_name":"公园","address":"上海虹口区四川北路2288号"},{"poiid":"B2094757D069A1F4429E","title":"八号线虹口足球场站","lon":"121.486136503","lat":"31.2728143722","category":"500","category_name":"未知分类","address":"上海八号线虹口足球场站"},{"poiid":"B2094757D568AAF54899","title":"上海外国语大学贤达经济人文学院","lon":"121.4844739","lat":"31.27817111","category":"671","category_name":"高校中心点","address":"东体育会路390号"},{"poiid":"B2094757D06FA3F44193","title":"虹口公园","lon":"121.48354753","lat":"31.272639537","category":"196","category_name":"公园","address":"上海虹口区四川北路2288号"},{"poiid":"B2094757D16CA2F4439B","title":"高點保齡球館","lon":"121.4828011","lat":"31.273344483","category":"220","category_name":"运动场所","address":"北京虹口區東江灣路456號"},{"poiid":"B2094757D068A2F9439E","title":"虹口区牙病防治所","lon":"121.48649","lat":"31.27398","category":"162","category_name":"医院","address":"虹口区欧阳路571号(近大连西路)"},{"poiid":"B2094757D069AAFE4393","title":"上海外国语大学逸夫图书馆","lon":"121.482356","lat":"31.27608","category":"253","category_name":"校园生活","address":"虹口区大连西路550号上海外国语大学虹口校区内"},{"poiid":"B2094757D06FA7F4429E","title":"嘉和国际大厦","lon":"121.48520494983","lat":"31.275291764831","category":"46","category_name":"楼宇","address":"浦东新区金湘路225弄"},{"poiid":"B2094654DB6AAAF9489D","title":"虹口体育场(三号门)","lon":"121.48151","lat":"31.27298","category":"224","category_name":"综合体育馆","address":""},{"poiid":"B2094654D56EA0FF4793","title":"上海外国语大学(东门)","lon":"121.48381","lat":"31.27703","category":"656","category_name":"大门","address":"东体育会路340"},{"poiid":"B2094757D06FA2F4499B","title":"外国语大学健身中心","lon":"121.481790321","lat":"31.2774550866","category":"253","category_name":"校园生活","address":"上海虹口区西体育会路189号(上外迎宾馆南门对面)"},{"poiid":"B2094654D56CA6F8439F","title":"鲁迅公园(北门)","lon":"121.48374","lat":"31.27492","category":"656","category_name":"大门","address":"大连西路345"},{"poiid":"B2094757D06FAAFB419F","title":"8号线虹口足球场站","lon":"121.4812291","lat":"31.27318848","category":"36","category_name":"地铁站","address":"上海市虹口区广中支路"},{"poiid":"B2094757D06FABFE489E","title":"虹口区教师进修学院","lon":"121.486546","lat":"31.273132","category":"253","category_name":"校园生活","address":"上海虹口区欧阳路502号"},{"poiid":"B2094654DB69A4FD489C","title":"锦江之星(虹口足球场店)","lon":"121.48052","lat":"31.2765","category":"217","category_name":"旅馆招待所","address":"虹口区西江湾路718号(近虹口足球场)"},{"poiid":"B2094757D06FA5F4489C","title":"上外贤达经济人文学院","lon":"121.484745","lat":"31.277795","category":"671","category_name":"高校中心点","address":"上海东体育会路390号"},{"poiid":"B2094757D069A1F8419A","title":"上海市虹口区房地产交易中心","lon":"121.484502","lat":"31.27703","category":"260","category_name":"其他","address":"上海东体育会路359号"},{"poiid":"B2094655D36CA6FA4699","title":"东体育会路","lon":"121.48187","lat":"31.27497","category":"38","category_name":"公交车站","address":""},{"poiid":"B2094757D06AA2FF439A","title":"上外逸夫会堂","lon":"121.482903","lat":"31.275323","category":"500","category_name":"未知分类","address":"上海外国语大学"},{"poiid":"B2094757D464AAF54393","title":"艾罗玛咖啡 东体育会路店 Aroma Coffee","lon":"121.48404","lat":"31.27554","category":"260","category_name":"其他","address":"虹口区东体育会路306号(近大连西路)"},{"poiid":"B2094654DB6AA6F8449E","title":"上海上外迎宾馆","lon":"121.48219","lat":"31.27781","category":"215","category_name":"三星级宾馆","address":"上海市西体育会路189号(近西江湾路)"},{"poiid":"B2094757D06FA4FF419C","title":"上海外国语大学健身中心游泳馆","lon":"121.48178005","lat":"31.277396817","category":"253","category_name":"校园生活","address":"虹口区西体育会路189号(上外迎宾馆南门对面)"},{"poiid":"B2094757D065A2F94293","title":"上外食堂(虹口校区)","lon":"121.48223","lat":"31.2749","category":"68","category_name":"快餐厅","address":"虹口区大连西路550号上外虹口校区(近东体育会路)"},{"poiid":"B2094757D06FA0FA4492","title":"悦台三号酒吧","lon":"121.481419","lat":"31.272859","category":"172","category_name":"酒吧","address":"上海东江湾路444号虹口足球场3号楼梯下(近3号门)"},{"poiid":"B2094655D265ABFF4599","title":"同茂兴苏氏面菜馆上外店","lon":"121.48406","lat":"31.27582","category":"68","category_name":"快餐厅","address":"虹口区东体育会路318号(大连西路欧阳路)"},{"poiid":"B2094757D068A6FB419C","title":"德笼馆 上外店","lon":"121.481729054","lat":"31.274257793","category":"68","category_name":"快餐厅","address":"虹口区东体育会路29号(近东体育会支路)"},{"poiid":"B2094750D66CA0F94592","title":"上海市虹口区委党校","lon":"121.483306","lat":"31.275484","category":"253","category_name":"校园生活","address":"欧阳路875号"},{"poiid":"B2094757D068ABF5479A","title":"cross corner","lon":"121.48206","lat":"31.27787","category":"94","category_name":"西餐厅","address":"虹口区西体育会路229号5号商铺(近上海外国语大学)"},{"poiid":"B2094757D169A7F94393","title":"禧福居茶(私人小會所)","lon":"121.483576003","lat":"31.2746132098","category":"247","category_name":"餐饮美食","address":null},{"poiid":"B2094757D068A4F84099","title":"敬亭盲人保健按摩","lon":"121.48734","lat":"31.27599","category":"149","category_name":"洗浴推拿场所","address":"虹口区大连西路261号中原证券大厦1楼(近曲阳路站)"},{"poiid":"B2094655D26CA1F4419C","title":"华兴商厦","lon":"121.48202","lat":"31.274595","category":"47","category_name":"住宅区","address":"东体育会路100弄1号"},{"poiid":"B2094654D56CA6FA4393","title":"虹光公寓","lon":"121.483745","lat":"31.274348","category":"47","category_name":"住宅区","address":"上海市虹口区西江湾路206弄20号"},{"poiid":"B2094655D265AAF4499E","title":"上外出版大楼","lon":"121.48281","lat":"31.27532","category":"46","category_name":"楼宇","address":"大连西路550号"},{"poiid":"B2094757D06AA6FA4793","title":"朱屺瞻艺术馆","lon":"121.48645","lat":"31.27411","category":"179","category_name":"音乐厅","address":"虹口区欧阳路580号"},{"poiid":"B2094757D16DA1FB4792","title":"哈尔滨私房菜","lon":"121.482969969","lat":"31.2751964554","category":"247","category_name":"餐饮美食","address":"上海东体育会路29号"},{"poiid":"B2094750DB68A0FB4693","title":"虹口牙防所","lon":"121.482887","lat":"31.274051","category":"500","category_name":"未知分类","address":null},{"poiid":"B2094655D26BABFA4398","title":"逸夫图书馆","lon":"121.48302","lat":"31.2774","category":"181","category_name":"图书馆","address":""},{"poiid":"B2094655D26DA5F44692","title":"好德便利No.232","lon":"121.48401","lat":"31.27575","category":"117","category_name":"便民商店/便利店","address":"东体育会路312"},{"poiid":"B2094655D36CA5FC439D","title":"大连西路东体育会路","lon":"121.48187","lat":"31.27498","category":"38","category_name":"公交车站","address":""},{"poiid":"B2094753D264A4FB4299","title":"虹口区甜爱路","lon":"121.483613","lat":"31.275653","category":"500","category_name":"未知分类","address":"上海市 515906543"},{"poiid":"B2094655D265A7FA439C","title":"逸夫会堂","lon":"121.48347","lat":"31.27607","category":"185","category_name":"会展中心","address":""},{"poiid":"B2094654D56CA0F9489A","title":"欧阳名邸","lon":"121.48741","lat":"31.274374","category":"47","category_name":"住宅区","address":"上海市虹口区欧阳路571号(近大连西路)"},{"poiid":"B2094757D16CA5F54299","title":"上海外国语大学食堂(虹口校区)","lon":"121.482829","lat":"31.275566","category":"500","category_name":"未知分类","address":"上海虹口区大连西路550号(近东体育会路)"},{"poiid":"B2094757D06AA4FD459B","title":"虹口训练馆","lon":"121.48146581","lat":"31.272329574","category":"220","category_name":"运动场所","address":"虹口区东体育会路"},{"poiid":"B2094655D26AA6F5479B","title":"锦江大厨虹口店","lon":"121.48051","lat":"31.2765","category":"76","category_name":"上海菜","address":"虹口区西江湾路718号(近中山北一路)"},{"poiid":"B2094757D06BA2F5429D","title":"上外书店","lon":"121.482342157","lat":"31.2752450127","category":"125","category_name":"书店","address":"虹口区大连西路570号(近东体育会路)"},{"poiid":"B2094654D56CA1FE429A","title":"上海欣鹏大酒店","lon":"121.48063","lat":"31.27696","category":"75","category_name":"浙江菜","address":"上海虹口区西江湾路760号(近虹口足球场)  "}]