[{"poiid":"B2094757D06FA0FF459A","title":"有家川菜 阳曲路店","lon":"121.459702054","lat":"31.316875793","category":"71","category_name":"四川菜","address":"闸北区阳曲路665号(近保德路)"},{"poiid":"B2094655D26FA7FD4398","title":"临汾名城","lon":"121.46566","lat":"31.31241","category":"47","category_name":"住宅区","address":"上海闸北区汾西路87-88弄"},{"poiid":"B2094654D56DA1FF429A","title":"诚嘉酒楼","lon":"121.46752","lat":"31.32075","category":"70","category_name":"综合酒楼","address":"宝山区江杨南路728号(近保德路)"},{"poiid":"B2094757D068A1F4419F","title":"阳曲路","lon":"121.4623511","lat":"31.31575437","category":"500","category_name":"未知分类","address":"上海市闸北区阳曲路"},{"poiid":"B2094757D06FA1FF4793","title":"沃尔玛(宝山店)","lon":"121.4742","lat":"31.32014","category":"118","category_name":"超级市场","address":"宝山区高境镇殷高西路542号景瑞生活广场(近高跃路)"},{"poiid":"B2094757D06FA6FA4798","title":"卜蜂莲花(保德店)","lon":"121.467412884","lat":"31.3196074245","category":"118","category_name":"超级市场","address":"闸北区保德路88号(近江杨南路)"},{"poiid":"B2094654D465ABFA489A","title":"麦盛莉酒楼阳曲店","lon":"121.46017","lat":"31.31739","category":"70","category_name":"综合酒楼","address":"闸北区阳曲路670号(保德路口)"},{"poiid":"B2094757D06FA6F5409E","title":"三花现代城香梅苑","lon":"121.474579357","lat":"31.3185069398","category":"47","category_name":"住宅区","address":"上海云西路219弄"},{"poiid":"B2094750D268A1FD479B","title":"和源名城","lon":"121.468139","lat":"31.317493","category":"47","category_name":"住宅区","address":"保德路江杨南路466弄"},{"poiid":"B2094757D06FA4FC459A","title":"临汾花园","lon":"121.47220132704","lat":"31.31348066042","category":"47","category_name":"住宅区","address":"上海闸北区临汾路165弄1-6号,135弄14号"},{"poiid":"B2094757D06FA0FB4393","title":"麦当劳(银都店)","lon":"121.4737897","lat":"31.320562519","category":"68","category_name":"快餐厅","address":"宝山区殷高西路542号景瑞生活广场(近沃尔玛)"},{"poiid":"B2094655D264A7F8459F","title":"上海临汾名城二期","lon":"121.472417","lat":"31.320972","category":"47","category_name":"住宅区","address":"上海市闸北区汾西路88弄"},{"poiid":"B2094757D06FABFE459D","title":"田家炳中学","lon":"121.46329","lat":"31.31989","category":"55","category_name":"中学","address":"闸北区景风路185号(近阳泉路)"},{"poiid":"B2094654DB64A6FE4698","title":"肯德基保德店","lon":"121.46736","lat":"31.31954","category":"68","category_name":"快餐厅","address":"闸北区保德路88号(近江杨南路)"},{"poiid":"B2094655D26CA0FA489A","title":"临汾路1564弄小区","lon":"121.462","lat":"31.317","category":"47","category_name":"住宅区","address":"临汾路1564弄1-39号"},{"poiid":"B2094757D169ABFE449E","title":"�郭师傅私房菜","lon":"121.470945029","lat":"31.3200127005","category":"76","category_name":"上海菜","address":"宝山区殷高西路628号101座"},{"poiid":"B2094655D36CA4FC4599","title":"保德路江杨南路","lon":"121.46814","lat":"31.32004","category":"38","category_name":"公交车站","address":""},{"poiid":"B2094757D56DA3F8459D","title":"乔老爷老北京铜炉涮锅","lon":"121.4618465","lat":"31.3233447","category":"86","category_name":"火锅店","address":"宝山区共康东路113-115号(近阳曲路)"},{"poiid":"B2094654D56DA1FF4293","title":"味之都(保德路)","lon":"121.46693","lat":"31.3195","category":"68","category_name":"快餐厅","address":"闸北区保德路88号(近江杨南路)"},{"poiid":"B2094757D06FAAFC409F","title":"共和一村","lon":"121.463846","lat":"31.320436","category":"500","category_name":"未知分类","address":"上海市阳泉路"},{"poiid":"B2094655D26AA6FD4893","title":"村夫烤鱼 殷高西路店","lon":"121.468526054","lat":"31.318988793","category":"71","category_name":"四川菜","address":"宝山区殷高西路628号106室(近江杨南路)"},{"poiid":"B2094757D068A1F9459B","title":"虹北公寓","lon":"121.47337","lat":"31.314703","category":"47","category_name":"住宅区","address":"上海安汾路780弄"},{"poiid":"B2094757D069A4FB449E","title":"哈鲜面馆","lon":"121.46945","lat":"31.3194","category":"68","category_name":"快餐厅","address":"宝山区殷高西路628号102(近江杨南路)"},{"poiid":"B2094757D065A1FF4799","title":"临汾文化活动中心","lon":"121.46635","lat":"31.31841","category":"179","category_name":"音乐厅","address":"闸北区保德路181-183号(近阳曲路)"},{"poiid":"B2094757D069A2F54892","title":"新锦田大酒店","lon":"121.46043","lat":"31.31542","category":"76","category_name":"上海菜","address":"闸北区阳曲路632号(近保德路)"},{"poiid":"B2094757D464AAFA4693","title":"吉祥馄饨 保德店 Gll Wonton","lon":"121.46737114621","lat":"31.318945226124","category":"247","category_name":"餐饮美食","address":"保德路23号近江杨南路"},{"poiid":"B2094757D16DA2FB479D","title":"上海东华之星汽车服务有限公司","lon":"121.467099","lat":"31.325347","category":"500","category_name":"未知分类","address":"上海市宝山区江杨南路980号"},{"poiid":"B2094751DA64A4FB459A","title":"东滩悦大酒店","lon":"121.460159","lat":"31.316034","category":"247","category_name":"餐饮美食","address":"阳曲路632号"},{"poiid":"B2094757D06BA7FD479F","title":"大桶大足浴(殷高西路店)","lon":"121.4741931","lat":"31.318448426","category":"149","category_name":"洗浴推拿场所","address":"宝山区殷高西路618号(近江杨南路)"},{"poiid":"B2094654D56DA1FF4698","title":"景阳小区","lon":"121.46208","lat":"31.31909","category":"47","category_name":"住宅区","address":"景凤路205、301弄"},{"poiid":"B2094655D26FA6F8459B","title":"屈臣氏(高境店)","lon":"121.46861","lat":"31.31928","category":"118","category_name":"超级市场","address":"宝山区殷高西路700号(近保德路，易初莲花对面)"},{"poiid":"B2094655D264A2F8469E","title":"福建闽东小吃","lon":"121.46916","lat":"31.32091","category":"68","category_name":"快餐厅","address":"杨浦区政立路1688号(近吉浦路)"},{"poiid":"B2094655D36CA0F8479C","title":"江杨南路殷高西路","lon":"121.47","lat":"31.31983","category":"38","category_name":"公交车站","address":""},{"poiid":"B2094655D264A7FC449D","title":"上海临汾名城三期","lon":"121.47315","lat":"31.31852","category":"47","category_name":"住宅区","address":"上海市闸北区临汾路80弄"},{"poiid":"B209475CD265AAFA439A","title":"新诚嘉酒店","lon":"121.46765470505","lat":"31.320574178875","category":"76","category_name":"上海菜","address":"江杨南路728号近保德路"},{"poiid":"B2094753D76AABFE479A","title":"医院","lon":"121.462097","lat":"31.313249","category":"162","category_name":"医院","address":"上海市 临汾路444"},{"poiid":"B2094757D06BA3F9449C","title":"瑞孚荣威4S店","lon":"121.467138","lat":"31.326228","category":"158","category_name":"汽车销售","address":"上海宝山区江杨南路1058号"},{"poiid":"B2094654D465ABFA449E","title":"汾西小区","lon":"121.46291","lat":"31.314842","category":"47","category_name":"住宅区","address":"汾西路260弄1-66号"},{"poiid":"B2094757D06EAAFB4298","title":"中进众旺汽车销售服务有限公司","lon":"121.466981508","lat":"31.324331515","category":"158","category_name":"汽车销售","address":"宝山区江杨南路1381号(近一二八纪念路)"},{"poiid":"B2094757D465A0F44198","title":"上岛咖啡 宝山店 UBC Coffee","lon":"121.469978054","lat":"31.319344793","category":"260","category_name":"其他","address":"宝山区殷高西路588号(近高跃路)"},{"poiid":"B2094757D168A3F9459D","title":"134终点站","lon":"121.467362503","lat":"31.3192394432","category":"500","category_name":"未知分类","address":"上海彭浦新村保德路"},{"poiid":"B2094751D56AA3FF429B","title":"恒盛豪庭","lon":"121.46683","lat":"31.3215792","category":"47","category_name":"住宅区","address":"宝山区恒高路江杨南路"},{"poiid":"B2094654D56DA1F84098","title":"共和二村","lon":"121.46089","lat":"31.321644","category":"47","category_name":"住宅区","address":"上海市宝山区阳曲路"},{"poiid":"B2094654D56DA1FF489A","title":"昌林公寓","lon":"121.46408","lat":"31.320793","category":"47","category_name":"住宅区","address":"景凤路52弄1-34号"},{"poiid":"B2094751D26AA6FD439D","title":"欢歌KTV","lon":"121.468872","lat":"31.322004","category":"170","category_name":"KTV","address":"殷高西路"},{"poiid":"B2094757D069A3F8469D","title":"长江国际商业购物中心","lon":"121.47097886","lat":"31.320503276","category":"119","category_name":"商场","address":"上海宝山区殷高西路333号(近江杨南路)"},{"poiid":"B2094655D26BABF94098","title":"临汾路街道图书馆","lon":"121.46322","lat":"31.31801","category":"181","category_name":"图书馆","address":"闸北区保德路181号3楼(近阳曲路)"},{"poiid":"B2094757D06BA0F94992","title":"岁福祥老母鸡汤面馆 阳曲路店","lon":"121.45997","lat":"31.31945","category":"68","category_name":"快餐厅","address":"闸北区阳曲路814号(近景凤路)"},{"poiid":"B2094753D16CAAFF4792","title":"金仕堡健身会所(高跃路店)","lon":"121.47301","lat":"31.3184","category":"221","category_name":"健身中心","address":"宝山区高跃路133弄三花现代城(近殷高西路)"},{"poiid":"B2094751D36CA3F9429C","title":"段氏龙虾(阳曲路店)","lon":"121.45976","lat":"31.31732","category":"68","category_name":"快餐厅","address":"闸北区阳曲路681号(保德路口)"},{"poiid":"B2094757D06FA0FF459A","title":"有家川菜 阳曲路店","lon":"121.459702054","lat":"31.316875793","category":"71","category_name":"四川菜","address":"闸北区阳曲路665号(近保德路)"},{"poiid":"B2094655D26FA7FD4398","title":"临汾名城","lon":"121.46566","lat":"31.31241","category":"47","category_name":"住宅区","address":"上海闸北区汾西路87-88弄"},{"poiid":"B2094654D56DA1FF429A","title":"诚嘉酒楼","lon":"121.46752","lat":"31.32075","category":"70","category_name":"综合酒楼","address":"宝山区江杨南路728号(近保德路)"},{"poiid":"B2094757D068A1F4419F","title":"阳曲路","lon":"121.4623511","lat":"31.31575437","category":"500","category_name":"未知分类","address":"上海市闸北区阳曲路"},{"poiid":"B2094757D06FA1FF4793","title":"沃尔玛(宝山店)","lon":"121.4742","lat":"31.32014","category":"118","category_name":"超级市场","address":"宝山区高境镇殷高西路542号景瑞生活广场(近高跃路)"},{"poiid":"B2094757D06FA6FA4798","title":"卜蜂莲花(保德店)","lon":"121.467412884","lat":"31.3196074245","category":"118","category_name":"超级市场","address":"闸北区保德路88号(近江杨南路)"},{"poiid":"B2094654D465ABFA489A","title":"麦盛莉酒楼阳曲店","lon":"121.46017","lat":"31.31739","category":"70","category_name":"综合酒楼","address":"闸北区阳曲路670号(保德路口)"},{"poiid":"B2094757D06FA6F5409E","title":"三花现代城香梅苑","lon":"121.474579357","lat":"31.3185069398","category":"47","category_name":"住宅区","address":"上海云西路219弄"},{"poiid":"B2094750D268A1FD479B","title":"和源名城","lon":"121.468139","lat":"31.317493","category":"47","category_name":"住宅区","address":"保德路江杨南路466弄"},{"poiid":"B2094757D06FA4FC459A","title":"临汾花园","lon":"121.47220132704","lat":"31.31348066042","category":"47","category_name":"住宅区","address":"上海闸北区临汾路165弄1-6号,135弄14号"},{"poiid":"B2094757D06FA0FB4393","title":"麦当劳(银都店)","lon":"121.4737897","lat":"31.320562519","category":"68","category_name":"快餐厅","address":"宝山区殷高西路542号景瑞生活广场(近沃尔玛)"},{"poiid":"B2094655D264A7F8459F","title":"上海临汾名城二期","lon":"121.472417","lat":"31.320972","category":"47","category_name":"住宅区","address":"上海市闸北区汾西路88弄"},{"poiid":"B2094757D06FABFE459D","title":"田家炳中学","lon":"121.46329","lat":"31.31989","category":"55","category_name":"中学","address":"闸北区景风路185号(近阳泉路)"},{"poiid":"B2094654DB64A6FE4698","title":"肯德基保德店","lon":"121.46736","lat":"31.31954","category":"68","category_name":"快餐厅","address":"闸北区保德路88号(近江杨南路)"},{"poiid":"B2094655D26CA0FA489A","title":"临汾路1564弄小区","lon":"121.462","lat":"31.317","category":"47","category_name":"住宅区","address":"临汾路1564弄1-39号"},{"poiid":"B2094757D169ABFE449E","title":"�郭师傅私房菜","lon":"121.470945029","lat":"31.3200127005","category":"76","category_name":"上海菜","address":"宝山区殷高西路628号101座"},{"poiid":"B2094655D36CA4FC4599","title":"保德路江杨南路","lon":"121.46814","lat":"31.32004","category":"38","category_name":"公交车站","address":""},{"poiid":"B2094757D56DA3F8459D","title":"乔老爷老北京铜炉涮锅","lon":"121.4618465","lat":"31.3233447","category":"86","category_name":"火锅店","address":"宝山区共康东路113-115号(近阳曲路)"},{"poiid":"B2094654D56DA1FF4293","title":"味之都(保德路)","lon":"121.46693","lat":"31.3195","category":"68","category_name":"快餐厅","address":"闸北区保德路88号(近江杨南路)"},{"poiid":"B2094757D06FAAFC409F","title":"共和一村","lon":"121.463846","lat":"31.320436","category":"500","category_name":"未知分类","address":"上海市阳泉路"},{"poiid":"B2094655D26AA6FD4893","title":"村夫烤鱼 殷高西路店","lon":"121.468526054","lat":"31.318988793","category":"71","category_name":"四川菜","address":"宝山区殷高西路628号106室(近江杨南路)"},{"poiid":"B2094757D068A1F9459B","title":"虹北公寓","lon":"121.47337","lat":"31.314703","category":"47","category_name":"住宅区","address":"上海安汾路780弄"},{"poiid":"B2094757D069A4FB449E","title":"哈鲜面馆","lon":"121.46945","lat":"31.3194","category":"68","category_name":"快餐厅","address":"宝山区殷高西路628号102(近江杨南路)"},{"poiid":"B2094757D065A1FF4799","title":"临汾文化活动中心","lon":"121.46635","lat":"31.31841","category":"179","category_name":"音乐厅","address":"闸北区保德路181-183号(近阳曲路)"},{"poiid":"B2094757D069A2F54892","title":"新锦田大酒店","lon":"121.46043","lat":"31.31542","category":"76","category_name":"上海菜","address":"闸北区阳曲路632号(近保德路)"},{"poiid":"B2094757D464AAFA4693","title":"吉祥馄饨 保德店 Gll Wonton","lon":"121.46737114621","lat":"31.318945226124","category":"247","category_name":"餐饮美食","address":"保德路23号近江杨南路"},{"poiid":"B2094757D16DA2FB479D","title":"上海东华之星汽车服务有限公司","lon":"121.467099","lat":"31.325347","category":"500","category_name":"未知分类","address":"上海市宝山区江杨南路980号"},{"poiid":"B2094751DA64A4FB459A","title":"东滩悦大酒店","lon":"121.460159","lat":"31.316034","category":"247","category_name":"餐饮美食","address":"阳曲路632号"},{"poiid":"B2094757D06BA7FD479F","title":"大桶大足浴(殷高西路店)","lon":"121.4741931","lat":"31.318448426","category":"149","category_name":"洗浴推拿场所","address":"宝山区殷高西路618号(近江杨南路)"},{"poiid":"B2094654D56DA1FF4698","title":"景阳小区","lon":"121.46208","lat":"31.31909","category":"47","category_name":"住宅区","address":"景凤路205、301弄"},{"poiid":"B2094655D26FA6F8459B","title":"屈臣氏(高境店)","lon":"121.46861","lat":"31.31928","category":"118","category_name":"超级市场","address":"宝山区殷高西路700号(近保德路，易初莲花对面)"},{"poiid":"B2094655D264A2F8469E","title":"福建闽东小吃","lon":"121.46916","lat":"31.32091","category":"68","category_name":"快餐厅","address":"杨浦区政立路1688号(近吉浦路)"},{"poiid":"B2094655D36CA0F8479C","title":"江杨南路殷高西路","lon":"121.47","lat":"31.31983","category":"38","category_name":"公交车站","address":""},{"poiid":"B2094655D264A7FC449D","title":"上海临汾名城三期","lon":"121.47315","lat":"31.31852","category":"47","category_name":"住宅区","address":"上海市闸北区临汾路80弄"},{"poiid":"B209475CD265AAFA439A","title":"新诚嘉酒店","lon":"121.46765470505","lat":"31.320574178875","category":"76","category_name":"上海菜","address":"江杨南路728号近保德路"},{"poiid":"B2094753D76AABFE479A","title":"医院","lon":"121.462097","lat":"31.313249","category":"162","category_name":"医院","address":"上海市 临汾路444"},{"poiid":"B2094757D06BA3F9449C","title":"瑞孚荣威4S店","lon":"121.467138","lat":"31.326228","category":"158","category_name":"汽车销售","address":"上海宝山区江杨南路1058号"},{"poiid":"B2094654D465ABFA449E","title":"汾西小区","lon":"121.46291","lat":"31.314842","category":"47","category_name":"住宅区","address":"汾西路260弄1-66号"},{"poiid":"B2094757D06EAAFB4298","title":"中进众旺汽车销售服务有限公司","lon":"121.466981508","lat":"31.324331515","category":"158","category_name":"汽车销售","address":"宝山区江杨南路1381号(近一二八纪念路)"},{"poiid":"B2094757D465A0F44198","title":"上岛咖啡 宝山店 UBC Coffee","lon":"121.469978054","lat":"31.319344793","category":"260","category_name":"其他","address":"宝山区殷高西路588号(近高跃路)"},{"poiid":"B2094757D168A3F9459D","title":"134终点站","lon":"121.467362503","lat":"31.3192394432","category":"500","category_name":"未知分类","address":"上海彭浦新村保德路"},{"poiid":"B2094751D56AA3FF429B","title":"恒盛豪庭","lon":"121.46683","lat":"31.3215792","category":"47","category_name":"住宅区","address":"宝山区恒高路江杨南路"},{"poiid":"B2094654D56DA1F84098","title":"共和二村","lon":"121.46089","lat":"31.321644","category":"47","category_name":"住宅区","address":"上海市宝山区阳曲路"},{"poiid":"B2094654D56DA1FF489A","title":"昌林公寓","lon":"121.46408","lat":"31.320793","category":"47","category_name":"住宅区","address":"景凤路52弄1-34号"},{"poiid":"B2094751D26AA6FD439D","title":"欢歌KTV","lon":"121.468872","lat":"31.322004","category":"170","category_name":"KTV","address":"殷高西路"},{"poiid":"B2094757D069A3F8469D","title":"长江国际商业购物中心","lon":"121.47097886","lat":"31.320503276","category":"119","category_name":"商场","address":"上海宝山区殷高西路333号(近江杨南路)"},{"poiid":"B2094655D26BABF94098","title":"临汾路街道图书馆","lon":"121.46322","lat":"31.31801","category":"181","category_name":"图书馆","address":"闸北区保德路181号3楼(近阳曲路)"},{"poiid":"B2094757D06BA0F94992","title":"岁福祥老母鸡汤面馆 阳曲路店","lon":"121.45997","lat":"31.31945","category":"68","category_name":"快餐厅","address":"闸北区阳曲路814号(近景凤路)"},{"poiid":"B2094753D16CAAFF4792","title":"金仕堡健身会所(高跃路店)","lon":"121.47301","lat":"31.3184","category":"221","category_name":"健身中心","address":"宝山区高跃路133弄三花现代城(近殷高西路)"},{"poiid":"B2094751D36CA3F9429C","title":"段氏龙虾(阳曲路店)","lon":"121.45976","lat":"31.31732","category":"68","category_name":"快餐厅","address":"闸北区阳曲路681号(保德路口)"},{"poiid":"B2094757D06FA0FF459A","title":"有家川菜 阳曲路店","lon":"121.459702054","lat":"31.316875793","category":"71","category_name":"四川菜","address":"闸北区阳曲路665号(近保德路)"},{"poiid":"B2094655D26FA7FD4398","title":"临汾名城","lon":"121.46566","lat":"31.31241","category":"47","category_name":"住宅区","address":"上海闸北区汾西路87-88弄"},{"poiid":"B2094654D56DA1FF429A","title":"诚嘉酒楼","lon":"121.46752","lat":"31.32075","category":"70","category_name":"综合酒楼","address":"宝山区江杨南路728号(近保德路)"},{"poiid":"B2094757D068A1F4419F","title":"阳曲路","lon":"121.4623511","lat":"31.31575437","category":"500","category_name":"未知分类","address":"上海市闸北区阳曲路"},{"poiid":"B2094757D06FA1FF4793","title":"沃尔玛(宝山店)","lon":"121.4742","lat":"31.32014","category":"118","category_name":"超级市场","address":"宝山区高境镇殷高西路542号景瑞生活广场(近高跃路)"},{"poiid":"B2094757D06FA6FA4798","title":"卜蜂莲花(保德店)","lon":"121.467412884","lat":"31.3196074245","category":"118","category_name":"超级市场","address":"闸北区保德路88号(近江杨南路)"},{"poiid":"B2094654D465ABFA489A","title":"麦盛莉酒楼阳曲店","lon":"121.46017","lat":"31.31739","category":"70","category_name":"综合酒楼","address":"闸北区阳曲路670号(保德路口)"},{"poiid":"B2094757D06FA6F5409E","title":"三花现代城香梅苑","lon":"121.474579357","lat":"31.3185069398","category":"47","category_name":"住宅区","address":"上海云西路219弄"},{"poiid":"B2094750D268A1FD479B","title":"和源名城","lon":"121.468139","lat":"31.317493","category":"47","category_name":"住宅区","address":"保德路江杨南路466弄"},{"poiid":"B2094757D06FA4FC459A","title":"临汾花园","lon":"121.47220132704","lat":"31.31348066042","category":"47","category_name":"住宅区","address":"上海闸北区临汾路165弄1-6号,135弄14号"},{"poiid":"B2094757D06FA0FB4393","title":"麦当劳(银都店)","lon":"121.4737897","lat":"31.320562519","category":"68","category_name":"快餐厅","address":"宝山区殷高西路542号景瑞生活广场(近沃尔玛)"},{"poiid":"B2094655D264A7F8459F","title":"上海临汾名城二期","lon":"121.472417","lat":"31.320972","category":"47","category_name":"住宅区","address":"上海市闸北区汾西路88弄"},{"poiid":"B2094757D06FABFE459D","title":"田家炳中学","lon":"121.46329","lat":"31.31989","category":"55","category_name":"中学","address":"闸北区景风路185号(近阳泉路)"},{"poiid":"B2094654DB64A6FE4698","title":"肯德基保德店","lon":"121.46736","lat":"31.31954","category":"68","category_name":"快餐厅","address":"闸北区保德路88号(近江杨南路)"},{"poiid":"B2094655D26CA0FA489A","title":"临汾路1564弄小区","lon":"121.462","lat":"31.317","category":"47","category_name":"住宅区","address":"临汾路1564弄1-39号"},{"poiid":"B2094757D169ABFE449E","title":"�郭师傅私房菜","lon":"121.470945029","lat":"31.3200127005","category":"76","category_name":"上海菜","address":"宝山区殷高西路628号101座"},{"poiid":"B2094655D36CA4FC4599","title":"保德路江杨南路","lon":"121.46814","lat":"31.32004","category":"38","category_name":"公交车站","address":""},{"poiid":"B2094757D56DA3F8459D","title":"乔老爷老北京铜炉涮锅","lon":"121.4618465","lat":"31.3233447","category":"86","category_name":"火锅店","address":"宝山区共康东路113-115号(近阳曲路)"},{"poiid":"B2094654D56DA1FF4293","title":"味之都(保德路)","lon":"121.46693","lat":"31.3195","category":"68","category_name":"快餐厅","address":"闸北区保德路88号(近江杨南路)"},{"poiid":"B2094757D06FAAFC409F","title":"共和一村","lon":"121.463846","lat":"31.320436","category":"500","category_name":"未知分类","address":"上海市阳泉路"},{"poiid":"B2094655D26AA6FD4893","title":"村夫烤鱼 殷高西路店","lon":"121.468526054","lat":"31.318988793","category":"71","category_name":"四川菜","address":"宝山区殷高西路628号106室(近江杨南路)"},{"poiid":"B2094757D068A1F9459B","title":"虹北公寓","lon":"121.47337","lat":"31.314703","category":"47","category_name":"住宅区","address":"上海安汾路780弄"},{"poiid":"B2094757D069A4FB449E","title":"哈鲜面馆","lon":"121.46945","lat":"31.3194","category":"68","category_name":"快餐厅","address":"宝山区殷高西路628号102(近江杨南路)"},{"poiid":"B2094757D065A1FF4799","title":"临汾文化活动中心","lon":"121.46635","lat":"31.31841","category":"179","category_name":"音乐厅","address":"闸北区保德路181-183号(近阳曲路)"},{"poiid":"B2094757D069A2F54892","title":"新锦田大酒店","lon":"121.46043","lat":"31.31542","category":"76","category_name":"上海菜","address":"闸北区阳曲路632号(近保德路)"},{"poiid":"B2094757D464AAFA4693","title":"吉祥馄饨 保德店 Gll Wonton","lon":"121.46737114621","lat":"31.318945226124","category":"247","category_name":"餐饮美食","address":"保德路23号近江杨南路"},{"poiid":"B2094757D16DA2FB479D","title":"上海东华之星汽车服务有限公司","lon":"121.467099","lat":"31.325347","category":"500","category_name":"未知分类","address":"上海市宝山区江杨南路980号"},{"poiid":"B2094751DA64A4FB459A","title":"东滩悦大酒店","lon":"121.460159","lat":"31.316034","category":"247","category_name":"餐饮美食","address":"阳曲路632号"},{"poiid":"B2094757D06BA7FD479F","title":"大桶大足浴(殷高西路店)","lon":"121.4741931","lat":"31.318448426","category":"149","category_name":"洗浴推拿场所","address":"宝山区殷高西路618号(近江杨南路)"},{"poiid":"B2094654D56DA1FF4698","title":"景阳小区","lon":"121.46208","lat":"31.31909","category":"47","category_name":"住宅区","address":"景凤路205、301弄"},{"poiid":"B2094655D26FA6F8459B","title":"屈臣氏(高境店)","lon":"121.46861","lat":"31.31928","category":"118","category_name":"超级市场","address":"宝山区殷高西路700号(近保德路，易初莲花对面)"},{"poiid":"B2094655D264A2F8469E","title":"福建闽东小吃","lon":"121.46916","lat":"31.32091","category":"68","category_name":"快餐厅","address":"杨浦区政立路1688号(近吉浦路)"},{"poiid":"B2094655D36CA0F8479C","title":"江杨南路殷高西路","lon":"121.47","lat":"31.31983","category":"38","category_name":"公交车站","address":""},{"poiid":"B2094655D264A7FC449D","title":"上海临汾名城三期","lon":"121.47315","lat":"31.31852","category":"47","category_name":"住宅区","address":"上海市闸北区临汾路80弄"},{"poiid":"B209475CD265AAFA439A","title":"新诚嘉酒店","lon":"121.46765470505","lat":"31.320574178875","category":"76","category_name":"上海菜","address":"江杨南路728号近保德路"},{"poiid":"B2094753D76AABFE479A","title":"医院","lon":"121.462097","lat":"31.313249","category":"162","category_name":"医院","address":"上海市 临汾路444"},{"poiid":"B2094757D06BA3F9449C","title":"瑞孚荣威4S店","lon":"121.467138","lat":"31.326228","category":"158","category_name":"汽车销售","address":"上海宝山区江杨南路1058号"},{"poiid":"B2094654D465ABFA449E","title":"汾西小区","lon":"121.46291","lat":"31.314842","category":"47","category_name":"住宅区","address":"汾西路260弄1-66号"},{"poiid":"B2094757D06EAAFB4298","title":"中进众旺汽车销售服务有限公司","lon":"121.466981508","lat":"31.324331515","category":"158","category_name":"汽车销售","address":"宝山区江杨南路1381号(近一二八纪念路)"},{"poiid":"B2094757D465A0F44198","title":"上岛咖啡 宝山店 UBC Coffee","lon":"121.469978054","lat":"31.319344793","category":"260","category_name":"其他","address":"宝山区殷高西路588号(近高跃路)"},{"poiid":"B2094757D168A3F9459D","title":"134终点站","lon":"121.467362503","lat":"31.3192394432","category":"500","category_name":"未知分类","address":"上海彭浦新村保德路"},{"poiid":"B2094751D56AA3FF429B","title":"恒盛豪庭","lon":"121.46683","lat":"31.3215792","category":"47","category_name":"住宅区","address":"宝山区恒高路江杨南路"},{"poiid":"B2094654D56DA1F84098","title":"共和二村","lon":"121.46089","lat":"31.321644","category":"47","category_name":"住宅区","address":"上海市宝山区阳曲路"},{"poiid":"B2094654D56DA1FF489A","title":"昌林公寓","lon":"121.46408","lat":"31.320793","category":"47","category_name":"住宅区","address":"景凤路52弄1-34号"},{"poiid":"B2094751D26AA6FD439D","title":"欢歌KTV","lon":"121.468872","lat":"31.322004","category":"170","category_name":"KTV","address":"殷高西路"},{"poiid":"B2094757D069A3F8469D","title":"长江国际商业购物中心","lon":"121.47097886","lat":"31.320503276","category":"119","category_name":"商场","address":"上海宝山区殷高西路333号(近江杨南路)"},{"poiid":"B2094655D26BABF94098","title":"临汾路街道图书馆","lon":"121.46322","lat":"31.31801","category":"181","category_name":"图书馆","address":"闸北区保德路181号3楼(近阳曲路)"},{"poiid":"B2094757D06BA0F94992","title":"岁福祥老母鸡汤面馆 阳曲路店","lon":"121.45997","lat":"31.31945","category":"68","category_name":"快餐厅","address":"闸北区阳曲路814号(近景凤路)"},{"poiid":"B2094753D16CAAFF4792","title":"金仕堡健身会所(高跃路店)","lon":"121.47301","lat":"31.3184","category":"221","category_name":"健身中心","address":"宝山区高跃路133弄三花现代城(近殷高西路)"},{"poiid":"B2094751D36CA3F9429C","title":"段氏龙虾(阳曲路店)","lon":"121.45976","lat":"31.31732","category":"68","category_name":"快餐厅","address":"闸北区阳曲路681号(保德路口)"},{"poiid":"B2094757D06FA0FF459A","title":"有家川菜 阳曲路店","lon":"121.459702054","lat":"31.316875793","category":"71","category_name":"四川菜","address":"闸北区阳曲路665号(近保德路)"},{"poiid":"B2094655D26FA7FD4398","title":"临汾名城","lon":"121.46566","lat":"31.31241","category":"47","category_name":"住宅区","address":"上海闸北区汾西路87-88弄"},{"poiid":"B2094654D56DA1FF429A","title":"诚嘉酒楼","lon":"121.46752","lat":"31.32075","category":"70","category_name":"综合酒楼","address":"宝山区江杨南路728号(近保德路)"},{"poiid":"B2094757D068A1F4419F","title":"阳曲路","lon":"121.4623511","lat":"31.31575437","category":"500","category_name":"未知分类","address":"上海市闸北区阳曲路"},{"poiid":"B2094757D06FA1FF4793","title":"沃尔玛(宝山店)","lon":"121.4742","lat":"31.32014","category":"118","category_name":"超级市场","address":"宝山区高境镇殷高西路542号景瑞生活广场(近高跃路)"},{"poiid":"B2094757D06FA6FA4798","title":"卜蜂莲花(保德店)","lon":"121.467412884","lat":"31.3196074245","category":"118","category_name":"超级市场","address":"闸北区保德路88号(近江杨南路)"},{"poiid":"B2094654D465ABFA489A","title":"麦盛莉酒楼阳曲店","lon":"121.46017","lat":"31.31739","category":"70","category_name":"综合酒楼","address":"闸北区阳曲路670号(保德路口)"},{"poiid":"B2094757D06FA6F5409E","title":"三花现代城香梅苑","lon":"121.474579357","lat":"31.3185069398","category":"47","category_name":"住宅区","address":"上海云西路219弄"},{"poiid":"B2094750D268A1FD479B","title":"和源名城","lon":"121.468139","lat":"31.317493","category":"47","category_name":"住宅区","address":"保德路江杨南路466弄"},{"poiid":"B2094757D06FA4FC459A","title":"临汾花园","lon":"121.47220132704","lat":"31.31348066042","category":"47","category_name":"住宅区","address":"上海闸北区临汾路165弄1-6号,135弄14号"},{"poiid":"B2094757D06FA0FB4393","title":"麦当劳(银都店)","lon":"121.4737897","lat":"31.320562519","category":"68","category_name":"快餐厅","address":"宝山区殷高西路542号景瑞生活广场(近沃尔玛)"},{"poiid":"B2094655D264A7F8459F","title":"上海临汾名城二期","lon":"121.472417","lat":"31.320972","category":"47","category_name":"住宅区","address":"上海市闸北区汾西路88弄"},{"poiid":"B2094757D06FABFE459D","title":"田家炳中学","lon":"121.46329","lat":"31.31989","category":"55","category_name":"中学","address":"闸北区景风路185号(近阳泉路)"},{"poiid":"B2094654DB64A6FE4698","title":"肯德基保德店","lon":"121.46736","lat":"31.31954","category":"68","category_name":"快餐厅","address":"闸北区保德路88号(近江杨南路)"},{"poiid":"B2094655D26CA0FA489A","title":"临汾路1564弄小区","lon":"121.462","lat":"31.317","category":"47","category_name":"住宅区","address":"临汾路1564弄1-39号"},{"poiid":"B2094757D169ABFE449E","title":"�郭师傅私房菜","lon":"121.470945029","lat":"31.3200127005","category":"76","category_name":"上海菜","address":"宝山区殷高西路628号101座"},{"poiid":"B2094655D36CA4FC4599","title":"保德路江杨南路","lon":"121.46814","lat":"31.32004","category":"38","category_name":"公交车站","address":""},{"poiid":"B2094757D56DA3F8459D","title":"乔老爷老北京铜炉涮锅","lon":"121.4618465","lat":"31.3233447","category":"86","category_name":"火锅店","address":"宝山区共康东路113-115号(近阳曲路)"},{"poiid":"B2094654D56DA1FF4293","title":"味之都(保德路)","lon":"121.46693","lat":"31.3195","category":"68","category_name":"快餐厅","address":"闸北区保德路88号(近江杨南路)"},{"poiid":"B2094757D06FAAFC409F","title":"共和一村","lon":"121.463846","lat":"31.320436","category":"500","category_name":"未知分类","address":"上海市阳泉路"},{"poiid":"B2094655D26AA6FD4893","title":"村夫烤鱼 殷高西路店","lon":"121.468526054","lat":"31.318988793","category":"71","category_name":"四川菜","address":"宝山区殷高西路628号106室(近江杨南路)"},{"poiid":"B2094757D068A1F9459B","title":"虹北公寓","lon":"121.47337","lat":"31.314703","category":"47","category_name":"住宅区","address":"上海安汾路780弄"},{"poiid":"B2094757D069A4FB449E","title":"哈鲜面馆","lon":"121.46945","lat":"31.3194","category":"68","category_name":"快餐厅","address":"宝山区殷高西路628号102(近江杨南路)"},{"poiid":"B2094757D065A1FF4799","title":"临汾文化活动中心","lon":"121.46635","lat":"31.31841","category":"179","category_name":"音乐厅","address":"闸北区保德路181-183号(近阳曲路)"},{"poiid":"B2094757D069A2F54892","title":"新锦田大酒店","lon":"121.46043","lat":"31.31542","category":"76","category_name":"上海菜","address":"闸北区阳曲路632号(近保德路)"},{"poiid":"B2094757D464AAFA4693","title":"吉祥馄饨 保德店 Gll Wonton","lon":"121.46737114621","lat":"31.318945226124","category":"247","category_name":"餐饮美食","address":"保德路23号近江杨南路"},{"poiid":"B2094757D16DA2FB479D","title":"上海东华之星汽车服务有限公司","lon":"121.467099","lat":"31.325347","category":"500","category_name":"未知分类","address":"上海市宝山区江杨南路980号"},{"poiid":"B2094751DA64A4FB459A","title":"东滩悦大酒店","lon":"121.460159","lat":"31.316034","category":"247","category_name":"餐饮美食","address":"阳曲路632号"},{"poiid":"B2094757D06BA7FD479F","title":"大桶大足浴(殷高西路店)","lon":"121.4741931","lat":"31.318448426","category":"149","category_name":"洗浴推拿场所","address":"宝山区殷高西路618号(近江杨南路)"},{"poiid":"B2094654D56DA1FF4698","title":"景阳小区","lon":"121.46208","lat":"31.31909","category":"47","category_name":"住宅区","address":"景凤路205、301弄"},{"poiid":"B2094655D26FA6F8459B","title":"屈臣氏(高境店)","lon":"121.46861","lat":"31.31928","category":"118","category_name":"超级市场","address":"宝山区殷高西路700号(近保德路，易初莲花对面)"},{"poiid":"B2094655D264A2F8469E","title":"福建闽东小吃","lon":"121.46916","lat":"31.32091","category":"68","category_name":"快餐厅","address":"杨浦区政立路1688号(近吉浦路)"},{"poiid":"B2094655D36CA0F8479C","title":"江杨南路殷高西路","lon":"121.47","lat":"31.31983","category":"38","category_name":"公交车站","address":""},{"poiid":"B2094655D264A7FC449D","title":"上海临汾名城三期","lon":"121.47315","lat":"31.31852","category":"47","category_name":"住宅区","address":"上海市闸北区临汾路80弄"},{"poiid":"B209475CD265AAFA439A","title":"新诚嘉酒店","lon":"121.46765470505","lat":"31.320574178875","category":"76","category_name":"上海菜","address":"江杨南路728号近保德路"},{"poiid":"B2094753D76AABFE479A","title":"医院","lon":"121.462097","lat":"31.313249","category":"162","category_name":"医院","address":"上海市 临汾路444"},{"poiid":"B2094757D06BA3F9449C","title":"瑞孚荣威4S店","lon":"121.467138","lat":"31.326228","category":"158","category_name":"汽车销售","address":"上海宝山区江杨南路1058号"},{"poiid":"B2094654D465ABFA449E","title":"汾西小区","lon":"121.46291","lat":"31.314842","category":"47","category_name":"住宅区","address":"汾西路260弄1-66号"},{"poiid":"B2094757D06EAAFB4298","title":"中进众旺汽车销售服务有限公司","lon":"121.466981508","lat":"31.324331515","category":"158","category_name":"汽车销售","address":"宝山区江杨南路1381号(近一二八纪念路)"},{"poiid":"B2094757D465A0F44198","title":"上岛咖啡 宝山店 UBC Coffee","lon":"121.469978054","lat":"31.319344793","category":"260","category_name":"其他","address":"宝山区殷高西路588号(近高跃路)"},{"poiid":"B2094757D168A3F9459D","title":"134终点站","lon":"121.467362503","lat":"31.3192394432","category":"500","category_name":"未知分类","address":"上海彭浦新村保德路"},{"poiid":"B2094751D56AA3FF429B","title":"恒盛豪庭","lon":"121.46683","lat":"31.3215792","category":"47","category_name":"住宅区","address":"宝山区恒高路江杨南路"},{"poiid":"B2094654D56DA1F84098","title":"共和二村","lon":"121.46089","lat":"31.321644","category":"47","category_name":"住宅区","address":"上海市宝山区阳曲路"},{"poiid":"B2094654D56DA1FF489A","title":"昌林公寓","lon":"121.46408","lat":"31.320793","category":"47","category_name":"住宅区","address":"景凤路52弄1-34号"},{"poiid":"B2094751D26AA6FD439D","title":"欢歌KTV","lon":"121.468872","lat":"31.322004","category":"170","category_name":"KTV","address":"殷高西路"},{"poiid":"B2094757D069A3F8469D","title":"长江国际商业购物中心","lon":"121.47097886","lat":"31.320503276","category":"119","category_name":"商场","address":"上海宝山区殷高西路333号(近江杨南路)"},{"poiid":"B2094655D26BABF94098","title":"临汾路街道图书馆","lon":"121.46322","lat":"31.31801","category":"181","category_name":"图书馆","address":"闸北区保德路181号3楼(近阳曲路)"},{"poiid":"B2094757D06BA0F94992","title":"岁福祥老母鸡汤面馆 阳曲路店","lon":"121.45997","lat":"31.31945","category":"68","category_name":"快餐厅","address":"闸北区阳曲路814号(近景凤路)"},{"poiid":"B2094753D16CAAFF4792","title":"金仕堡健身会所(高跃路店)","lon":"121.47301","lat":"31.3184","category":"221","category_name":"健身中心","address":"宝山区高跃路133弄三花现代城(近殷高西路)"},{"poiid":"B2094751D36CA3F9429C","title":"段氏龙虾(阳曲路店)","lon":"121.45976","lat":"31.31732","category":"68","category_name":"快餐厅","address":"闸北区阳曲路681号(保德路口)"}]