[{"poiid":"B2094655D26DA5FF489D","title":"华东理工大学","lon":"121.425","lat":"31.14313","category":"671","category_name":"高校中心点","address":"徐汇区梅陇路130号"},{"poiid":"B2094757D06FAAF84398","title":"华东理工大学图书馆","lon":"121.42208612","lat":"31.142591023","category":"253","category_name":"校园生活","address":"徐汇区梅陇路130号华东理工大学内(近天等路)"},{"poiid":"B2094757D06FA2F44192","title":"华东理工大学七教","lon":"121.42448527","lat":"31.141593448","category":"253","category_name":"校园生活","address":"上海徐汇区梅陇路130号"},{"poiid":"B2094757D06FA2F4409E","title":"老盛昌苏州汤包馆(梅陇店)","lon":"121.4211","lat":"31.13846","category":"68","category_name":"快餐厅","address":"徐汇区梅陇路267号(近凌云路)"},{"poiid":"B2094757D06FA5FF449A","title":"梅陇文化馆","lon":"121.42175","lat":"31.13916","category":"260","category_name":"其他","address":"徐汇区梅陇路415号(近凌云路)"},{"poiid":"B2094655D26DAAFB4698","title":"凌云新村","lon":"121.41817","lat":"31.14193","category":"47","category_name":"住宅区","address":"虹梅南路126弄"},{"poiid":"B2094757D06FA1F8419D","title":"华轻梅陇购物中心","lon":"121.421973848","lat":"31.1393005866","category":"119","category_name":"商场","address":"上海徐汇区梅陇路255号(近龙州路)"},{"poiid":"B2094757D068ABF4459B","title":"华东理工大学大操场","lon":"121.424847","lat":"31.143529","category":"253","category_name":"校园生活","address":"上海徐汇区梅陇路130号华东理工大学内"},{"poiid":"B2094655D26EA2FC479E","title":"巴贝拉 梅陇路店 Babela's Kitchen","lon":"121.42533","lat":"31.14084","category":"94","category_name":"西餐厅","address":"徐汇区梅陇路257号1-2楼(近天等路)"},{"poiid":"B2094654DB6AA7F5479B","title":"华东理工大学华理苑","lon":"121.41942","lat":"31.13925","category":"52","category_name":"高等院校","address":"徐汇区梅陇路256号"},{"poiid":"B2094757D06FAAF4489E","title":"小李烧烤(梅陇路店)","lon":"121.4202","lat":"31.13859","category":"68","category_name":"快餐厅","address":"徐汇区梅陇路258号(近凌云路)"},{"poiid":"B2094757D06FA5FA409D","title":"华东理工大学四教","lon":"121.42423009","lat":"31.142512028","category":"253","category_name":"校园生活","address":"上海徐汇区梅陇路130号"},{"poiid":"B2094757D068A2F8499C","title":"85度C(龙州店)","lon":"121.42244","lat":"31.13908","category":"112","category_name":"糕饼店","address":"徐汇区龙州路995号(近梅陇路)"},{"poiid":"B2094655D26BAAFD4092","title":"华东理工大学游泳池","lon":"121.42037","lat":"31.14171","category":"231","category_name":"游泳馆","address":"徐汇区梅陇路130号华东理工大学内(近天等路)"},{"poiid":"B2094757D068A0FB4493","title":"华东理工大学第三食堂","lon":"121.422156618","lat":"31.1459460993","category":"253","category_name":"校园生活","address":"徐汇区梅陇路130号华东理工大学内(近天等路)"},{"poiid":"B2094757D16AAAFB429C","title":"华东理工大学健身房","lon":"121.421625","lat":"31.142972","category":"148","category_name":"美容美发店","address":"上海徐汇校区大操场旁"},{"poiid":"B2094757D664AAFB4393","title":"华东理工教工食堂","lon":"121.42533","lat":"31.14084","category":"68","category_name":"快餐厅","address":"徐汇区梅陇路130号华东理工大学西门(近天等路)"},{"poiid":"B2094655D26FA5FC4892","title":"华理苑","lon":"121.42076","lat":"31.144419","category":"47","category_name":"住宅区","address":"上海徐汇区梅陇路130弄"},{"poiid":"B2094757D06AA6F8469F","title":"梅陇一村","lon":"121.42","lat":"31.1424","category":"500","category_name":"未知分类","address":"上海中环路梅陇路"},{"poiid":"B2094751DA69A4FB439E","title":"东方明珠","lon":"121.418119","lat":"31.145922","category":"500","category_name":"未知分类","address":"上海市黄浦区外滩"},{"poiid":"B2094655D264ABFB409D","title":"华东理工大学商学院","lon":"121.42257","lat":"31.14301","category":"52","category_name":"高等院校","address":"上海市徐汇区梅陇路130号"},{"poiid":"B2094750D269A5F94893","title":"济州料理","lon":"121.420692","lat":"31.138915","category":"96","category_name":"韩国料理","address":"徐汇区梅陇路279号格林联盟酒店1楼(近华东理工大学)"},{"poiid":"B2094757D568A5FC489E","title":"刘基故里农家大院","lon":"121.42073","lat":"31.138929","category":"257","category_name":"中餐厅","address":"徐汇区梅陇路279号今缘宝大酒店2楼(近凌云路)"},{"poiid":"B2094753D56AA1FE429E","title":"梅赛德斯-奔驰文化中心","lon":"121.418167","lat":"31.142641","category":"500","category_name":"未知分类","address":"上海市 上海市浦东新区世博大道1200号(近上南路)"},{"poiid":"B2094654DB69AAF84398","title":"台台缘美食坊 梅陇路店","lon":"121.4188167111","lat":"31.138202038697","category":"76","category_name":"上海菜","address":"徐汇区梅陇路293号(近凌云路)"},{"poiid":"B2094757D069A3FA459A","title":"全家便利(锦江乐园站店)","lon":"121.419387817","lat":"31.1433238983","category":"117","category_name":"便民商店/便利店","address":"上海闵行区地铁一号线锦江乐园站北2口"},{"poiid":"B2094757D069A4F94098","title":"泰煌鸡 梅陇路店","lon":"121.41907","lat":"31.138309","category":"68","category_name":"快餐厅","address":"徐汇区梅陇路279号(近凌云路)"},{"poiid":"B2094757D065A1FA4692","title":"华东理工华林餐厅","lon":"121.42533","lat":"31.14084","category":"68","category_name":"快餐厅","address":"徐汇区梅陇路130号华东理工大学内(近天等路)"},{"poiid":"B2094655D265A1F4439B","title":"华东理工大学第二学生食堂","lon":"121.42208","lat":"31.14438","category":"257","category_name":"中餐厅","address":""},{"poiid":"B2094757D169A6F44198","title":"百乐迪量贩KTV","lon":"121.425118857","lat":"31.1414194918","category":"170","category_name":"KTV","address":"徐汇区龙州路995号华轻轻纺市场4楼(近梅陇路)"},{"poiid":"B2094757D568ABFC4093","title":"华东理工大学商学院MBA教育中心","lon":"121.423591","lat":"31.143171","category":"52","category_name":"高等院校","address":"中国上海市徐汇区"},{"poiid":"B2094655D264ABF5429E","title":"留学生公寓2","lon":"121.42149","lat":"31.14342","category":"47","category_name":"住宅区","address":""},{"poiid":"B2094757D069A4F9489A","title":"豪鸡汇(梅陇路店)","lon":"121.419965","lat":"31.138611","category":"68","category_name":"快餐厅","address":"徐汇区梅陇路391号(近龙州路)"},{"poiid":"B2094757D06AA6FC459A","title":"华东理工大学八角亭","lon":"121.422180349","lat":"31.1411939693","category":"260","category_name":"其他","address":"上海华东理工大学内(徐汇区梅陇路130号)"},{"poiid":"B2094655D26EA2FE499B","title":"华理苑(南门)","lon":"121.41973","lat":"31.14396","category":"47","category_name":"住宅区","address":"凌云路"},{"poiid":"B2094757D168A5FA459D","title":"吉龙豆捞","lon":"121.42448","lat":"31.13532","category":"86","category_name":"火锅店","address":"徐汇区龙州路925号(梅陇七村对面)"},{"poiid":"B2094752D66CAAF9409A","title":"恋暖の初茶","lon":"121.419455","lat":"31.141734","category":"247","category_name":"餐饮美食","address":"徐家汇美罗城B1楼"},{"poiid":"B2094654DB65A3F4479C","title":"华东理工大学华理苑一四村","lon":"121.42194","lat":"31.14085","category":"47","category_name":"住宅区","address":"梅陇路130号"},{"poiid":"B2094655D26BA6F94499","title":"小红花幼儿园","lon":"121.4204","lat":"31.13946","category":"57","category_name":"幼儿园","address":"徐汇区梅陇路130弄(天等路口)"},{"poiid":"B2094757D66DAAFC459D","title":"华东理工大学14舍 Cottonfield","lon":"121.42037185","lat":"31.144132246","category":"500","category_name":"未知分类","address":null},{"poiid":"B2094757D66DA1FF4393","title":"华东理工大学留学生公寓","lon":"121.420074157","lat":"31.1441856472","category":"500","category_name":"未知分类","address":"上海徐汇区梅陇路130号华东理工大学徐汇校区"},{"poiid":"B2094655D264AAFD4492","title":"上海教育超市华东理工店","lon":"121.42138","lat":"31.14171","category":"118","category_name":"超级市场","address":""},{"poiid":"B2094757D065A3F94898","title":"华东理工大学网球场","lon":"121.42306","lat":"31.13967","category":"500","category_name":"未知分类","address":"徐汇区梅陇路130号华东理工大学内(近天等路)"},{"poiid":"B2094757D064ABFA449C","title":"威利琴行","lon":"121.41945648","lat":"31.143299102","category":"249","category_name":"购物服务","address":"上海市徐汇区桂林路101号"},{"poiid":"B2094757D069AAFB489A","title":"川福楼","lon":"121.421497054","lat":"31.139273793","category":"86","category_name":"火锅店","address":"徐汇区梅陇路289号(近凌云路)"},{"poiid":"B2094654DB69A5F44892","title":"避风塘 梅陇路","lon":"121.41902923668","lat":"31.138262254249","category":"257","category_name":"中餐厅","address":"梅陇路279号近龙州路"},{"poiid":"B2094757D66CA3F5459B","title":"千島湖海鮮酒樓","lon":"121.417572857","lat":"31.1421672067","category":"247","category_name":"餐饮美食","address":"上海徐匯區梅龍路599號"},{"poiid":"B2094757D16AABF44898","title":"国际妇幼保健医院产科","lon":"121.419334257","lat":"31.1462648889","category":"162","category_name":"医院","address":"上海市"},{"poiid":"B2094757D06AA3F4439C","title":"华东理工大学14舍","lon":"121.42232985","lat":"31.145487273","category":"500","category_name":"未知分类","address":"上海徐汇区梅陇路130号华东理工大学徐汇校区"},{"poiid":"B2094757D16FA1FB499A","title":"华东理工大学大草坪","lon":"121.424604447","lat":"31.1439000415","category":"500","category_name":"未知分类","address":"上海市徐汇区梅陇路130号"},{"poiid":"B2094655D26DA5FF489D","title":"华东理工大学","lon":"121.425","lat":"31.14313","category":"671","category_name":"高校中心点","address":"徐汇区梅陇路130号"},{"poiid":"B2094757D06FAAF84398","title":"华东理工大学图书馆","lon":"121.42208612","lat":"31.142591023","category":"253","category_name":"校园生活","address":"徐汇区梅陇路130号华东理工大学内(近天等路)"},{"poiid":"B2094757D06FA2F44192","title":"华东理工大学七教","lon":"121.42448527","lat":"31.141593448","category":"253","category_name":"校园生活","address":"上海徐汇区梅陇路130号"},{"poiid":"B2094757D06FA2F4409E","title":"老盛昌苏州汤包馆(梅陇店)","lon":"121.4211","lat":"31.13846","category":"68","category_name":"快餐厅","address":"徐汇区梅陇路267号(近凌云路)"},{"poiid":"B2094757D06FA5FF449A","title":"梅陇文化馆","lon":"121.42175","lat":"31.13916","category":"260","category_name":"其他","address":"徐汇区梅陇路415号(近凌云路)"},{"poiid":"B2094655D26DAAFB4698","title":"凌云新村","lon":"121.41817","lat":"31.14193","category":"47","category_name":"住宅区","address":"虹梅南路126弄"},{"poiid":"B2094757D06FA1F8419D","title":"华轻梅陇购物中心","lon":"121.421973848","lat":"31.1393005866","category":"119","category_name":"商场","address":"上海徐汇区梅陇路255号(近龙州路)"},{"poiid":"B2094757D068ABF4459B","title":"华东理工大学大操场","lon":"121.424847","lat":"31.143529","category":"253","category_name":"校园生活","address":"上海徐汇区梅陇路130号华东理工大学内"},{"poiid":"B2094655D26EA2FC479E","title":"巴贝拉 梅陇路店 Babela's Kitchen","lon":"121.42533","lat":"31.14084","category":"94","category_name":"西餐厅","address":"徐汇区梅陇路257号1-2楼(近天等路)"},{"poiid":"B2094654DB6AA7F5479B","title":"华东理工大学华理苑","lon":"121.41942","lat":"31.13925","category":"52","category_name":"高等院校","address":"徐汇区梅陇路256号"},{"poiid":"B2094757D06FAAF4489E","title":"小李烧烤(梅陇路店)","lon":"121.4202","lat":"31.13859","category":"68","category_name":"快餐厅","address":"徐汇区梅陇路258号(近凌云路)"},{"poiid":"B2094757D06FA5FA409D","title":"华东理工大学四教","lon":"121.42423009","lat":"31.142512028","category":"253","category_name":"校园生活","address":"上海徐汇区梅陇路130号"},{"poiid":"B2094757D068A2F8499C","title":"85度C(龙州店)","lon":"121.42244","lat":"31.13908","category":"112","category_name":"糕饼店","address":"徐汇区龙州路995号(近梅陇路)"},{"poiid":"B2094655D26BAAFD4092","title":"华东理工大学游泳池","lon":"121.42037","lat":"31.14171","category":"231","category_name":"游泳馆","address":"徐汇区梅陇路130号华东理工大学内(近天等路)"},{"poiid":"B2094757D068A0FB4493","title":"华东理工大学第三食堂","lon":"121.422156618","lat":"31.1459460993","category":"253","category_name":"校园生活","address":"徐汇区梅陇路130号华东理工大学内(近天等路)"},{"poiid":"B2094757D16AAAFB429C","title":"华东理工大学健身房","lon":"121.421625","lat":"31.142972","category":"148","category_name":"美容美发店","address":"上海徐汇校区大操场旁"},{"poiid":"B2094757D664AAFB4393","title":"华东理工教工食堂","lon":"121.42533","lat":"31.14084","category":"68","category_name":"快餐厅","address":"徐汇区梅陇路130号华东理工大学西门(近天等路)"},{"poiid":"B2094655D26FA5FC4892","title":"华理苑","lon":"121.42076","lat":"31.144419","category":"47","category_name":"住宅区","address":"上海徐汇区梅陇路130弄"},{"poiid":"B2094757D06AA6F8469F","title":"梅陇一村","lon":"121.42","lat":"31.1424","category":"500","category_name":"未知分类","address":"上海中环路梅陇路"},{"poiid":"B2094751DA69A4FB439E","title":"东方明珠","lon":"121.418119","lat":"31.145922","category":"500","category_name":"未知分类","address":"上海市黄浦区外滩"},{"poiid":"B2094655D264ABFB409D","title":"华东理工大学商学院","lon":"121.42257","lat":"31.14301","category":"52","category_name":"高等院校","address":"上海市徐汇区梅陇路130号"},{"poiid":"B2094750D269A5F94893","title":"济州料理","lon":"121.420692","lat":"31.138915","category":"96","category_name":"韩国料理","address":"徐汇区梅陇路279号格林联盟酒店1楼(近华东理工大学)"},{"poiid":"B2094757D568A5FC489E","title":"刘基故里农家大院","lon":"121.42073","lat":"31.138929","category":"257","category_name":"中餐厅","address":"徐汇区梅陇路279号今缘宝大酒店2楼(近凌云路)"},{"poiid":"B2094753D56AA1FE429E","title":"梅赛德斯-奔驰文化中心","lon":"121.418167","lat":"31.142641","category":"500","category_name":"未知分类","address":"上海市 上海市浦东新区世博大道1200号(近上南路)"},{"poiid":"B2094654DB69AAF84398","title":"台台缘美食坊 梅陇路店","lon":"121.4188167111","lat":"31.138202038697","category":"76","category_name":"上海菜","address":"徐汇区梅陇路293号(近凌云路)"},{"poiid":"B2094757D069A3FA459A","title":"全家便利(锦江乐园站店)","lon":"121.419387817","lat":"31.1433238983","category":"117","category_name":"便民商店/便利店","address":"上海闵行区地铁一号线锦江乐园站北2口"},{"poiid":"B2094757D069A4F94098","title":"泰煌鸡 梅陇路店","lon":"121.41907","lat":"31.138309","category":"68","category_name":"快餐厅","address":"徐汇区梅陇路279号(近凌云路)"},{"poiid":"B2094757D065A1FA4692","title":"华东理工华林餐厅","lon":"121.42533","lat":"31.14084","category":"68","category_name":"快餐厅","address":"徐汇区梅陇路130号华东理工大学内(近天等路)"},{"poiid":"B2094655D265A1F4439B","title":"华东理工大学第二学生食堂","lon":"121.42208","lat":"31.14438","category":"257","category_name":"中餐厅","address":""},{"poiid":"B2094757D169A6F44198","title":"百乐迪量贩KTV","lon":"121.425118857","lat":"31.1414194918","category":"170","category_name":"KTV","address":"徐汇区龙州路995号华轻轻纺市场4楼(近梅陇路)"},{"poiid":"B2094757D568ABFC4093","title":"华东理工大学商学院MBA教育中心","lon":"121.423591","lat":"31.143171","category":"52","category_name":"高等院校","address":"中国上海市徐汇区"},{"poiid":"B2094655D264ABF5429E","title":"留学生公寓2","lon":"121.42149","lat":"31.14342","category":"47","category_name":"住宅区","address":""},{"poiid":"B2094757D069A4F9489A","title":"豪鸡汇(梅陇路店)","lon":"121.419965","lat":"31.138611","category":"68","category_name":"快餐厅","address":"徐汇区梅陇路391号(近龙州路)"},{"poiid":"B2094757D06AA6FC459A","title":"华东理工大学八角亭","lon":"121.422180349","lat":"31.1411939693","category":"260","category_name":"其他","address":"上海华东理工大学内(徐汇区梅陇路130号)"},{"poiid":"B2094655D26EA2FE499B","title":"华理苑(南门)","lon":"121.41973","lat":"31.14396","category":"47","category_name":"住宅区","address":"凌云路"},{"poiid":"B2094757D168A5FA459D","title":"吉龙豆捞","lon":"121.42448","lat":"31.13532","category":"86","category_name":"火锅店","address":"徐汇区龙州路925号(梅陇七村对面)"},{"poiid":"B2094752D66CAAF9409A","title":"恋暖の初茶","lon":"121.419455","lat":"31.141734","category":"247","category_name":"餐饮美食","address":"徐家汇美罗城B1楼"},{"poiid":"B2094654DB65A3F4479C","title":"华东理工大学华理苑一四村","lon":"121.42194","lat":"31.14085","category":"47","category_name":"住宅区","address":"梅陇路130号"},{"poiid":"B2094655D26BA6F94499","title":"小红花幼儿园","lon":"121.4204","lat":"31.13946","category":"57","category_name":"幼儿园","address":"徐汇区梅陇路130弄(天等路口)"},{"poiid":"B2094757D66DAAFC459D","title":"华东理工大学14舍 Cottonfield","lon":"121.42037185","lat":"31.144132246","category":"500","category_name":"未知分类","address":null},{"poiid":"B2094757D66DA1FF4393","title":"华东理工大学留学生公寓","lon":"121.420074157","lat":"31.1441856472","category":"500","category_name":"未知分类","address":"上海徐汇区梅陇路130号华东理工大学徐汇校区"},{"poiid":"B2094655D264AAFD4492","title":"上海教育超市华东理工店","lon":"121.42138","lat":"31.14171","category":"118","category_name":"超级市场","address":""},{"poiid":"B2094757D065A3F94898","title":"华东理工大学网球场","lon":"121.42306","lat":"31.13967","category":"500","category_name":"未知分类","address":"徐汇区梅陇路130号华东理工大学内(近天等路)"},{"poiid":"B2094757D064ABFA449C","title":"威利琴行","lon":"121.41945648","lat":"31.143299102","category":"249","category_name":"购物服务","address":"上海市徐汇区桂林路101号"},{"poiid":"B2094757D069AAFB489A","title":"川福楼","lon":"121.421497054","lat":"31.139273793","category":"86","category_name":"火锅店","address":"徐汇区梅陇路289号(近凌云路)"},{"poiid":"B2094654DB69A5F44892","title":"避风塘 梅陇路","lon":"121.41902923668","lat":"31.138262254249","category":"257","category_name":"中餐厅","address":"梅陇路279号近龙州路"},{"poiid":"B2094757D66CA3F5459B","title":"千島湖海鮮酒樓","lon":"121.417572857","lat":"31.1421672067","category":"247","category_name":"餐饮美食","address":"上海徐匯區梅龍路599號"},{"poiid":"B2094757D16AABF44898","title":"国际妇幼保健医院产科","lon":"121.419334257","lat":"31.1462648889","category":"162","category_name":"医院","address":"上海市"},{"poiid":"B2094757D06AA3F4439C","title":"华东理工大学14舍","lon":"121.42232985","lat":"31.145487273","category":"500","category_name":"未知分类","address":"上海徐汇区梅陇路130号华东理工大学徐汇校区"},{"poiid":"B2094757D16FA1FB499A","title":"华东理工大学大草坪","lon":"121.424604447","lat":"31.1439000415","category":"500","category_name":"未知分类","address":"上海市徐汇区梅陇路130号"},{"poiid":"B2094655D26DA5FF489D","title":"华东理工大学","lon":"121.425","lat":"31.14313","category":"671","category_name":"高校中心点","address":"徐汇区梅陇路130号"},{"poiid":"B2094757D06FAAF84398","title":"华东理工大学图书馆","lon":"121.42208612","lat":"31.142591023","category":"253","category_name":"校园生活","address":"徐汇区梅陇路130号华东理工大学内(近天等路)"},{"poiid":"B2094757D06FA2F44192","title":"华东理工大学七教","lon":"121.42448527","lat":"31.141593448","category":"253","category_name":"校园生活","address":"上海徐汇区梅陇路130号"},{"poiid":"B2094757D06FA2F4409E","title":"老盛昌苏州汤包馆(梅陇店)","lon":"121.4211","lat":"31.13846","category":"68","category_name":"快餐厅","address":"徐汇区梅陇路267号(近凌云路)"},{"poiid":"B2094757D06FA5FF449A","title":"梅陇文化馆","lon":"121.42175","lat":"31.13916","category":"260","category_name":"其他","address":"徐汇区梅陇路415号(近凌云路)"},{"poiid":"B2094655D26DAAFB4698","title":"凌云新村","lon":"121.41817","lat":"31.14193","category":"47","category_name":"住宅区","address":"虹梅南路126弄"},{"poiid":"B2094757D06FA1F8419D","title":"华轻梅陇购物中心","lon":"121.421973848","lat":"31.1393005866","category":"119","category_name":"商场","address":"上海徐汇区梅陇路255号(近龙州路)"},{"poiid":"B2094757D068ABF4459B","title":"华东理工大学大操场","lon":"121.424847","lat":"31.143529","category":"253","category_name":"校园生活","address":"上海徐汇区梅陇路130号华东理工大学内"},{"poiid":"B2094655D26EA2FC479E","title":"巴贝拉 梅陇路店 Babela's Kitchen","lon":"121.42533","lat":"31.14084","category":"94","category_name":"西餐厅","address":"徐汇区梅陇路257号1-2楼(近天等路)"},{"poiid":"B2094654DB6AA7F5479B","title":"华东理工大学华理苑","lon":"121.41942","lat":"31.13925","category":"52","category_name":"高等院校","address":"徐汇区梅陇路256号"},{"poiid":"B2094757D06FAAF4489E","title":"小李烧烤(梅陇路店)","lon":"121.4202","lat":"31.13859","category":"68","category_name":"快餐厅","address":"徐汇区梅陇路258号(近凌云路)"},{"poiid":"B2094757D06FA5FA409D","title":"华东理工大学四教","lon":"121.42423009","lat":"31.142512028","category":"253","category_name":"校园生活","address":"上海徐汇区梅陇路130号"},{"poiid":"B2094757D068A2F8499C","title":"85度C(龙州店)","lon":"121.42244","lat":"31.13908","category":"112","category_name":"糕饼店","address":"徐汇区龙州路995号(近梅陇路)"},{"poiid":"B2094655D26BAAFD4092","title":"华东理工大学游泳池","lon":"121.42037","lat":"31.14171","category":"231","category_name":"游泳馆","address":"徐汇区梅陇路130号华东理工大学内(近天等路)"},{"poiid":"B2094757D068A0FB4493","title":"华东理工大学第三食堂","lon":"121.422156618","lat":"31.1459460993","category":"253","category_name":"校园生活","address":"徐汇区梅陇路130号华东理工大学内(近天等路)"},{"poiid":"B2094757D16AAAFB429C","title":"华东理工大学健身房","lon":"121.421625","lat":"31.142972","category":"148","category_name":"美容美发店","address":"上海徐汇校区大操场旁"},{"poiid":"B2094757D664AAFB4393","title":"华东理工教工食堂","lon":"121.42533","lat":"31.14084","category":"68","category_name":"快餐厅","address":"徐汇区梅陇路130号华东理工大学西门(近天等路)"},{"poiid":"B2094655D26FA5FC4892","title":"华理苑","lon":"121.42076","lat":"31.144419","category":"47","category_name":"住宅区","address":"上海徐汇区梅陇路130弄"},{"poiid":"B2094757D06AA6F8469F","title":"梅陇一村","lon":"121.42","lat":"31.1424","category":"500","category_name":"未知分类","address":"上海中环路梅陇路"},{"poiid":"B2094751DA69A4FB439E","title":"东方明珠","lon":"121.418119","lat":"31.145922","category":"500","category_name":"未知分类","address":"上海市黄浦区外滩"},{"poiid":"B2094655D264ABFB409D","title":"华东理工大学商学院","lon":"121.42257","lat":"31.14301","category":"52","category_name":"高等院校","address":"上海市徐汇区梅陇路130号"},{"poiid":"B2094750D269A5F94893","title":"济州料理","lon":"121.420692","lat":"31.138915","category":"96","category_name":"韩国料理","address":"徐汇区梅陇路279号格林联盟酒店1楼(近华东理工大学)"},{"poiid":"B2094757D568A5FC489E","title":"刘基故里农家大院","lon":"121.42073","lat":"31.138929","category":"257","category_name":"中餐厅","address":"徐汇区梅陇路279号今缘宝大酒店2楼(近凌云路)"},{"poiid":"B2094753D56AA1FE429E","title":"梅赛德斯-奔驰文化中心","lon":"121.418167","lat":"31.142641","category":"500","category_name":"未知分类","address":"上海市 上海市浦东新区世博大道1200号(近上南路)"},{"poiid":"B2094654DB69AAF84398","title":"台台缘美食坊 梅陇路店","lon":"121.4188167111","lat":"31.138202038697","category":"76","category_name":"上海菜","address":"徐汇区梅陇路293号(近凌云路)"},{"poiid":"B2094757D069A3FA459A","title":"全家便利(锦江乐园站店)","lon":"121.419387817","lat":"31.1433238983","category":"117","category_name":"便民商店/便利店","address":"上海闵行区地铁一号线锦江乐园站北2口"},{"poiid":"B2094757D069A4F94098","title":"泰煌鸡 梅陇路店","lon":"121.41907","lat":"31.138309","category":"68","category_name":"快餐厅","address":"徐汇区梅陇路279号(近凌云路)"},{"poiid":"B2094757D065A1FA4692","title":"华东理工华林餐厅","lon":"121.42533","lat":"31.14084","category":"68","category_name":"快餐厅","address":"徐汇区梅陇路130号华东理工大学内(近天等路)"},{"poiid":"B2094655D265A1F4439B","title":"华东理工大学第二学生食堂","lon":"121.42208","lat":"31.14438","category":"257","category_name":"中餐厅","address":""},{"poiid":"B2094757D169A6F44198","title":"百乐迪量贩KTV","lon":"121.425118857","lat":"31.1414194918","category":"170","category_name":"KTV","address":"徐汇区龙州路995号华轻轻纺市场4楼(近梅陇路)"},{"poiid":"B2094757D568ABFC4093","title":"华东理工大学商学院MBA教育中心","lon":"121.423591","lat":"31.143171","category":"52","category_name":"高等院校","address":"中国上海市徐汇区"},{"poiid":"B2094655D264ABF5429E","title":"留学生公寓2","lon":"121.42149","lat":"31.14342","category":"47","category_name":"住宅区","address":""},{"poiid":"B2094757D069A4F9489A","title":"豪鸡汇(梅陇路店)","lon":"121.419965","lat":"31.138611","category":"68","category_name":"快餐厅","address":"徐汇区梅陇路391号(近龙州路)"},{"poiid":"B2094757D06AA6FC459A","title":"华东理工大学八角亭","lon":"121.422180349","lat":"31.1411939693","category":"260","category_name":"其他","address":"上海华东理工大学内(徐汇区梅陇路130号)"},{"poiid":"B2094655D26EA2FE499B","title":"华理苑(南门)","lon":"121.41973","lat":"31.14396","category":"47","category_name":"住宅区","address":"凌云路"},{"poiid":"B2094757D168A5FA459D","title":"吉龙豆捞","lon":"121.42448","lat":"31.13532","category":"86","category_name":"火锅店","address":"徐汇区龙州路925号(梅陇七村对面)"},{"poiid":"B2094752D66CAAF9409A","title":"恋暖の初茶","lon":"121.419455","lat":"31.141734","category":"247","category_name":"餐饮美食","address":"徐家汇美罗城B1楼"},{"poiid":"B2094654DB65A3F4479C","title":"华东理工大学华理苑一四村","lon":"121.42194","lat":"31.14085","category":"47","category_name":"住宅区","address":"梅陇路130号"},{"poiid":"B2094655D26BA6F94499","title":"小红花幼儿园","lon":"121.4204","lat":"31.13946","category":"57","category_name":"幼儿园","address":"徐汇区梅陇路130弄(天等路口)"},{"poiid":"B2094757D66DAAFC459D","title":"华东理工大学14舍 Cottonfield","lon":"121.42037185","lat":"31.144132246","category":"500","category_name":"未知分类","address":null},{"poiid":"B2094757D66DA1FF4393","title":"华东理工大学留学生公寓","lon":"121.420074157","lat":"31.1441856472","category":"500","category_name":"未知分类","address":"上海徐汇区梅陇路130号华东理工大学徐汇校区"},{"poiid":"B2094655D264AAFD4492","title":"上海教育超市华东理工店","lon":"121.42138","lat":"31.14171","category":"118","category_name":"超级市场","address":""},{"poiid":"B2094757D065A3F94898","title":"华东理工大学网球场","lon":"121.42306","lat":"31.13967","category":"500","category_name":"未知分类","address":"徐汇区梅陇路130号华东理工大学内(近天等路)"},{"poiid":"B2094757D064ABFA449C","title":"威利琴行","lon":"121.41945648","lat":"31.143299102","category":"249","category_name":"购物服务","address":"上海市徐汇区桂林路101号"},{"poiid":"B2094757D069AAFB489A","title":"川福楼","lon":"121.421497054","lat":"31.139273793","category":"86","category_name":"火锅店","address":"徐汇区梅陇路289号(近凌云路)"},{"poiid":"B2094654DB69A5F44892","title":"避风塘 梅陇路","lon":"121.41902923668","lat":"31.138262254249","category":"257","category_name":"中餐厅","address":"梅陇路279号近龙州路"},{"poiid":"B2094757D66CA3F5459B","title":"千島湖海鮮酒樓","lon":"121.417572857","lat":"31.1421672067","category":"247","category_name":"餐饮美食","address":"上海徐匯區梅龍路599號"},{"poiid":"B2094757D16AABF44898","title":"国际妇幼保健医院产科","lon":"121.419334257","lat":"31.1462648889","category":"162","category_name":"医院","address":"上海市"},{"poiid":"B2094757D06AA3F4439C","title":"华东理工大学14舍","lon":"121.42232985","lat":"31.145487273","category":"500","category_name":"未知分类","address":"上海徐汇区梅陇路130号华东理工大学徐汇校区"},{"poiid":"B2094757D16FA1FB499A","title":"华东理工大学大草坪","lon":"121.424604447","lat":"31.1439000415","category":"500","category_name":"未知分类","address":"上海市徐汇区梅陇路130号"},{"poiid":"B2094655D26DA5FF489D","title":"华东理工大学","lon":"121.425","lat":"31.14313","category":"671","category_name":"高校中心点","address":"徐汇区梅陇路130号"},{"poiid":"B2094757D06FAAF84398","title":"华东理工大学图书馆","lon":"121.42208612","lat":"31.142591023","category":"253","category_name":"校园生活","address":"徐汇区梅陇路130号华东理工大学内(近天等路)"},{"poiid":"B2094757D06FA2F44192","title":"华东理工大学七教","lon":"121.42448527","lat":"31.141593448","category":"253","category_name":"校园生活","address":"上海徐汇区梅陇路130号"},{"poiid":"B2094757D06FA2F4409E","title":"老盛昌苏州汤包馆(梅陇店)","lon":"121.4211","lat":"31.13846","category":"68","category_name":"快餐厅","address":"徐汇区梅陇路267号(近凌云路)"},{"poiid":"B2094757D06FA5FF449A","title":"梅陇文化馆","lon":"121.42175","lat":"31.13916","category":"260","category_name":"其他","address":"徐汇区梅陇路415号(近凌云路)"},{"poiid":"B2094655D26DAAFB4698","title":"凌云新村","lon":"121.41817","lat":"31.14193","category":"47","category_name":"住宅区","address":"虹梅南路126弄"},{"poiid":"B2094757D06FA1F8419D","title":"华轻梅陇购物中心","lon":"121.421973848","lat":"31.1393005866","category":"119","category_name":"商场","address":"上海徐汇区梅陇路255号(近龙州路)"},{"poiid":"B2094757D068ABF4459B","title":"华东理工大学大操场","lon":"121.424847","lat":"31.143529","category":"253","category_name":"校园生活","address":"上海徐汇区梅陇路130号华东理工大学内"},{"poiid":"B2094655D26EA2FC479E","title":"巴贝拉 梅陇路店 Babela's Kitchen","lon":"121.42533","lat":"31.14084","category":"94","category_name":"西餐厅","address":"徐汇区梅陇路257号1-2楼(近天等路)"},{"poiid":"B2094654DB6AA7F5479B","title":"华东理工大学华理苑","lon":"121.41942","lat":"31.13925","category":"52","category_name":"高等院校","address":"徐汇区梅陇路256号"},{"poiid":"B2094757D06FAAF4489E","title":"小李烧烤(梅陇路店)","lon":"121.4202","lat":"31.13859","category":"68","category_name":"快餐厅","address":"徐汇区梅陇路258号(近凌云路)"},{"poiid":"B2094757D06FA5FA409D","title":"华东理工大学四教","lon":"121.42423009","lat":"31.142512028","category":"253","category_name":"校园生活","address":"上海徐汇区梅陇路130号"},{"poiid":"B2094757D068A2F8499C","title":"85度C(龙州店)","lon":"121.42244","lat":"31.13908","category":"112","category_name":"糕饼店","address":"徐汇区龙州路995号(近梅陇路)"},{"poiid":"B2094655D26BAAFD4092","title":"华东理工大学游泳池","lon":"121.42037","lat":"31.14171","category":"231","category_name":"游泳馆","address":"徐汇区梅陇路130号华东理工大学内(近天等路)"},{"poiid":"B2094757D068A0FB4493","title":"华东理工大学第三食堂","lon":"121.422156618","lat":"31.1459460993","category":"253","category_name":"校园生活","address":"徐汇区梅陇路130号华东理工大学内(近天等路)"},{"poiid":"B2094757D16AAAFB429C","title":"华东理工大学健身房","lon":"121.421625","lat":"31.142972","category":"148","category_name":"美容美发店","address":"上海徐汇校区大操场旁"},{"poiid":"B2094757D664AAFB4393","title":"华东理工教工食堂","lon":"121.42533","lat":"31.14084","category":"68","category_name":"快餐厅","address":"徐汇区梅陇路130号华东理工大学西门(近天等路)"},{"poiid":"B2094655D26FA5FC4892","title":"华理苑","lon":"121.42076","lat":"31.144419","category":"47","category_name":"住宅区","address":"上海徐汇区梅陇路130弄"},{"poiid":"B2094757D06AA6F8469F","title":"梅陇一村","lon":"121.42","lat":"31.1424","category":"500","category_name":"未知分类","address":"上海中环路梅陇路"},{"poiid":"B2094751DA69A4FB439E","title":"东方明珠","lon":"121.418119","lat":"31.145922","category":"500","category_name":"未知分类","address":"上海市黄浦区外滩"},{"poiid":"B2094655D264ABFB409D","title":"华东理工大学商学院","lon":"121.42257","lat":"31.14301","category":"52","category_name":"高等院校","address":"上海市徐汇区梅陇路130号"},{"poiid":"B2094750D269A5F94893","title":"济州料理","lon":"121.420692","lat":"31.138915","category":"96","category_name":"韩国料理","address":"徐汇区梅陇路279号格林联盟酒店1楼(近华东理工大学)"},{"poiid":"B2094757D568A5FC489E","title":"刘基故里农家大院","lon":"121.42073","lat":"31.138929","category":"257","category_name":"中餐厅","address":"徐汇区梅陇路279号今缘宝大酒店2楼(近凌云路)"},{"poiid":"B2094753D56AA1FE429E","title":"梅赛德斯-奔驰文化中心","lon":"121.418167","lat":"31.142641","category":"500","category_name":"未知分类","address":"上海市 上海市浦东新区世博大道1200号(近上南路)"},{"poiid":"B2094654DB69AAF84398","title":"台台缘美食坊 梅陇路店","lon":"121.4188167111","lat":"31.138202038697","category":"76","category_name":"上海菜","address":"徐汇区梅陇路293号(近凌云路)"},{"poiid":"B2094757D069A3FA459A","title":"全家便利(锦江乐园站店)","lon":"121.419387817","lat":"31.1433238983","category":"117","category_name":"便民商店/便利店","address":"上海闵行区地铁一号线锦江乐园站北2口"},{"poiid":"B2094757D069A4F94098","title":"泰煌鸡 梅陇路店","lon":"121.41907","lat":"31.138309","category":"68","category_name":"快餐厅","address":"徐汇区梅陇路279号(近凌云路)"},{"poiid":"B2094757D065A1FA4692","title":"华东理工华林餐厅","lon":"121.42533","lat":"31.14084","category":"68","category_name":"快餐厅","address":"徐汇区梅陇路130号华东理工大学内(近天等路)"},{"poiid":"B2094655D265A1F4439B","title":"华东理工大学第二学生食堂","lon":"121.42208","lat":"31.14438","category":"257","category_name":"中餐厅","address":""},{"poiid":"B2094757D169A6F44198","title":"百乐迪量贩KTV","lon":"121.425118857","lat":"31.1414194918","category":"170","category_name":"KTV","address":"徐汇区龙州路995号华轻轻纺市场4楼(近梅陇路)"},{"poiid":"B2094757D568ABFC4093","title":"华东理工大学商学院MBA教育中心","lon":"121.423591","lat":"31.143171","category":"52","category_name":"高等院校","address":"中国上海市徐汇区"},{"poiid":"B2094655D264ABF5429E","title":"留学生公寓2","lon":"121.42149","lat":"31.14342","category":"47","category_name":"住宅区","address":""},{"poiid":"B2094757D069A4F9489A","title":"豪鸡汇(梅陇路店)","lon":"121.419965","lat":"31.138611","category":"68","category_name":"快餐厅","address":"徐汇区梅陇路391号(近龙州路)"},{"poiid":"B2094757D06AA6FC459A","title":"华东理工大学八角亭","lon":"121.422180349","lat":"31.1411939693","category":"260","category_name":"其他","address":"上海华东理工大学内(徐汇区梅陇路130号)"},{"poiid":"B2094655D26EA2FE499B","title":"华理苑(南门)","lon":"121.41973","lat":"31.14396","category":"47","category_name":"住宅区","address":"凌云路"},{"poiid":"B2094757D168A5FA459D","title":"吉龙豆捞","lon":"121.42448","lat":"31.13532","category":"86","category_name":"火锅店","address":"徐汇区龙州路925号(梅陇七村对面)"},{"poiid":"B2094752D66CAAF9409A","title":"恋暖の初茶","lon":"121.419455","lat":"31.141734","category":"247","category_name":"餐饮美食","address":"徐家汇美罗城B1楼"},{"poiid":"B2094654DB65A3F4479C","title":"华东理工大学华理苑一四村","lon":"121.42194","lat":"31.14085","category":"47","category_name":"住宅区","address":"梅陇路130号"},{"poiid":"B2094655D26BA6F94499","title":"小红花幼儿园","lon":"121.4204","lat":"31.13946","category":"57","category_name":"幼儿园","address":"徐汇区梅陇路130弄(天等路口)"},{"poiid":"B2094757D66DAAFC459D","title":"华东理工大学14舍 Cottonfield","lon":"121.42037185","lat":"31.144132246","category":"500","category_name":"未知分类","address":null},{"poiid":"B2094757D66DA1FF4393","title":"华东理工大学留学生公寓","lon":"121.420074157","lat":"31.1441856472","category":"500","category_name":"未知分类","address":"上海徐汇区梅陇路130号华东理工大学徐汇校区"},{"poiid":"B2094655D264AAFD4492","title":"上海教育超市华东理工店","lon":"121.42138","lat":"31.14171","category":"118","category_name":"超级市场","address":""},{"poiid":"B2094757D065A3F94898","title":"华东理工大学网球场","lon":"121.42306","lat":"31.13967","category":"500","category_name":"未知分类","address":"徐汇区梅陇路130号华东理工大学内(近天等路)"},{"poiid":"B2094757D064ABFA449C","title":"威利琴行","lon":"121.41945648","lat":"31.143299102","category":"249","category_name":"购物服务","address":"上海市徐汇区桂林路101号"},{"poiid":"B2094757D069AAFB489A","title":"川福楼","lon":"121.421497054","lat":"31.139273793","category":"86","category_name":"火锅店","address":"徐汇区梅陇路289号(近凌云路)"},{"poiid":"B2094654DB69A5F44892","title":"避风塘 梅陇路","lon":"121.41902923668","lat":"31.138262254249","category":"257","category_name":"中餐厅","address":"梅陇路279号近龙州路"},{"poiid":"B2094757D66CA3F5459B","title":"千島湖海鮮酒樓","lon":"121.417572857","lat":"31.1421672067","category":"247","category_name":"餐饮美食","address":"上海徐匯區梅龍路599號"},{"poiid":"B2094757D16AABF44898","title":"国际妇幼保健医院产科","lon":"121.419334257","lat":"31.1462648889","category":"162","category_name":"医院","address":"上海市"},{"poiid":"B2094757D06AA3F4439C","title":"华东理工大学14舍","lon":"121.42232985","lat":"31.145487273","category":"500","category_name":"未知分类","address":"上海徐汇区梅陇路130号华东理工大学徐汇校区"},{"poiid":"B2094757D16FA1FB499A","title":"华东理工大学大草坪","lon":"121.424604447","lat":"31.1439000415","category":"500","category_name":"未知分类","address":"上海市徐汇区梅陇路130号"}]