[{"poiid":"B2094757D06EABF5439D","title":"杨思地铁站","lon":"121.49400429","lat":"31.160810371","category":"36","category_name":"地铁站","address":"上海轨道交通 八号线 轨交杨思站 8"},{"poiid":"B2094757D069A5FE4292","title":"恒大华城","lon":"121.48864865","lat":"31.161270376","category":"500","category_name":"未知分类","address":"上海浦东新区杨新路282弄"},{"poiid":"B209475CD76BA7F8409C","title":"三林大光明影城","lon":"121.491086","lat":"31.161036","category":"178","category_name":"电影院","address":"上海市浦东新区长清路507号3楼"},{"poiid":"B2094751D569A7FF479B","title":"南国丰大酒店","lon":"121.49263","lat":"31.162204","category":"247","category_name":"餐饮美食","address":"浦东新区长清路507号2楼(近长清茶叶城)"},{"poiid":"B2094654DB6CA0F8469E","title":"南杨小区(杨思路)","lon":"121.49148","lat":"31.15876","category":"47","category_name":"住宅区","address":"长清路643弄1-42号,693弄1-54号"},{"poiid":"B2094752D46AA5FE479B","title":"三林大光明影城","lon":"121.49186","lat":"31.160776","category":"248","category_name":"生活娱乐","address":"长清路507号"},{"poiid":"B2094654DB64A2F8479B","title":"天地苑","lon":"121.48456","lat":"31.16023","category":"47","category_name":"住宅区","address":"西营南路17弄1-69号"},{"poiid":"B2094752DA64A2F54798","title":"长清大光明电影院","lon":"121.491151","lat":"31.161025","category":"500","category_name":"未知分类","address":"上海市 长清路杨思路"},{"poiid":"B2094655D26AA0FA409C","title":"地铁杨思站","lon":"121.49404","lat":"31.16079","category":"36","category_name":"地铁站","address":""},{"poiid":"B2094654DA65A0FB439D","title":"华城广场","lon":"121.49053","lat":"31.1629","category":"201","category_name":"城市广场","address":"三林镇"},{"poiid":"B2094757D069A0FC4393","title":"恒大华城天地苑","lon":"121.493","lat":"31.165","category":"500","category_name":"未知分类","address":"上海市浦东新区西营南路67弄"},{"poiid":"B2094757D069ABFE459E","title":"454路终点站","lon":"121.48944","lat":"31.162187","category":"38","category_name":"公交车站","address":"上海恒大华城"},{"poiid":"B2094654DA65A0FB4499","title":"恒大华城(正门)","lon":"121.49016","lat":"31.1626","category":"47","category_name":"住宅区","address":"三林镇"},{"poiid":"B2094655D26FA5FC4498","title":"华城秀庭","lon":"121.4892","lat":"31.163202","category":"47","category_name":"住宅区","address":"上海市浦东新区杨新路238弄"},{"poiid":"B2094654DB64A2F84692","title":"华城秀庭(正门)","lon":"121.48938","lat":"31.16255","category":"47","category_name":"住宅区","address":"杨新路238弄1-21号"},{"poiid":"B2094655D265A6FB459A","title":"长青园","lon":"121.49013","lat":"31.1612","category":"196","category_name":"公园","address":""},{"poiid":"B2094654DB64A2F84693","title":"快客","lon":"121.4893","lat":"31.16249","category":"117","category_name":"便民商店/便利店","address":"杨新路242"},{"poiid":"B2094752D065A2FA409D","title":"大光明电影城","lon":"121.488639","lat":"31.163604","category":"178","category_name":"电影院","address":null},{"poiid":"B2094757D069AAFD429F","title":"986车站","lon":"121.49302463","lat":"31.162668261","category":"38","category_name":"公交车站","address":"上海杨思路灵岩南路(近八号线杨思站2号口)"},{"poiid":"B2094757D16BA1FE429A","title":"安临小区","lon":"121.4921","lat":"31.163219","category":"47","category_name":"住宅区","address":"上海市浦东新区杨新路197弄"},{"poiid":"B2094752D168A4FB4292","title":"大光明电影院","lon":"121.49248","lat":"31.162092","category":"178","category_name":"电影院","address":null},{"poiid":"B2094654DB64A2F8469C","title":"华城社区卫生综合服务站","lon":"121.48995","lat":"31.16321","category":"162","category_name":"医院","address":""},{"poiid":"B2094654DB64A2F8479C","title":"梅山苑","lon":"121.48707","lat":"31.159868","category":"47","category_name":"住宅区","address":"西营南路18弄1-57号"},{"poiid":"B2094654DB64A2F8479D","title":"长清苑","lon":"121.48851","lat":"31.16049","category":"47","category_name":"住宅区","address":"杨新路281弄1-49号"},{"poiid":"B2094757D16AA1FF489A","title":"长清路杨思路","lon":"121.491464","lat":"31.159875","category":"500","category_name":"未知分类","address":"上海长清路595弄"},{"poiid":"B2094753D76AA0FD4598","title":"鼎枫料理","lon":"121.491108","lat":"31.160907","category":"95","category_name":"日本料理","address":"上海市浦东新区长清路507号207室(近杨新路)"},{"poiid":"B2094753D26DA4F54392","title":"鼎枫料理","lon":"121.491131","lat":"31.160996","category":"247","category_name":"餐饮美食","address":"上海市 长清路507号207室"},{"poiid":"B2094757D068A5F8479D","title":"恒大华城上河苑","lon":"121.48666221","lat":"31.161639027","category":"47","category_name":"住宅区","address":"上海市浦东新区杨新路282弄"},{"poiid":"B2094655D26EA2F54693","title":"南杨小区(正门)","lon":"121.49128","lat":"31.15935","category":"47","category_name":"住宅区","address":"长清路643弄1-42号、693弄1-54号"},{"poiid":"B2094757D068A3FF409F","title":"德州七村","lon":"121.48602","lat":"31.166298","category":"252","category_name":"楼宇机构","address":"上海浦东新区德州路380弄"},{"poiid":"B2094654DA65A7FC409C","title":"华夏小区","lon":"121.49384","lat":"31.16338","category":"47","category_name":"住宅区","address":"杨新路77、93弄"},{"poiid":"B2094757D66FA6F9459C","title":"吉的堡双语幼儿园","lon":"121.48864673","lat":"31.163318875","category":"57","category_name":"幼儿园","address":"上海市浦东新区德州路420弄22号"},{"poiid":"B2094655D26FA6FF4392","title":"上河苑","lon":"121.48692","lat":"31.1622","category":"47","category_name":"住宅区","address":"杨新路282弄1-47号"},{"poiid":"B2094655D268A0FF4799","title":"华城溜冰场","lon":"121.49015","lat":"31.16341","category":"222","category_name":"溜冰场","address":""},{"poiid":"B2094752D269ABF8419B","title":"融汇时尚量贩式ktv","lon":"121.487649","lat":"31.162321","category":"248","category_name":"生活娱乐","address":null},{"poiid":"B2094757D065A5F5429E","title":"东林苑","lon":"121.48727922","lat":"31.158886081","category":"252","category_name":"楼宇机构","address":"上海西营南路68弄"},{"poiid":"B2094654DB64A2F84792","title":"华城丽苑","lon":"121.48949","lat":"31.159363","category":"47","category_name":"住宅区","address":"杨思路301弄1-10号"},{"poiid":"B2094757D76DABFD479C","title":"克莉丝汀 杨思店","lon":"121.49792","lat":"31.16285","category":"112","category_name":"糕饼店","address":"浦东新区杨思路755号(近上南路)"},{"poiid":"B2094655D26BA4FE499A","title":"万科金色公馆","lon":"121.489796","lat":"31.167011","category":"47","category_name":"住宅区","address":"浦东新区济阳路333弄(近杨思路)"},{"poiid":"B2094757D069A5F84599","title":"辽东烤吧","lon":"121.49459","lat":"31.16026","category":"68","category_name":"快餐厅","address":"浦东新区灵岩南路121号(近杨思路)"},{"poiid":"B2094752DA68AAFA439C","title":"融汇时尚量贩KTV","lon":"121.4913","lat":"31.160873","category":"500","category_name":"未知分类","address":"上海市 浦东新区长清路505号长清商城1F"},{"poiid":"B2094757D469A2FF409C","title":"东北人家 灵岩南路店","lon":"121.494445054","lat":"31.160678793","category":"82","category_name":"东北菜","address":"浦东新区灵岩南路119号(近杨思路)"},{"poiid":"B2094655D268A7FD4899","title":"杨新路198弄小区","lon":"121.49191","lat":"31.16369","category":"47","category_name":"住宅区","address":"杨新路198弄1-4号"},{"poiid":"B2094655D268A7FD4898","title":"杨新路198弄小区(南门)","lon":"121.49206","lat":"31.16345","category":"47","category_name":"住宅区","address":"杨新路198弄1-4号"},{"poiid":"B2094654DA65A0FB4898","title":"华城休闲绿地","lon":"121.49015","lat":"31.15959","category":"196","category_name":"公园","address":""},{"poiid":"B2094654DB65A7FE419B","title":"杨思影剧院","lon":"121.49467","lat":"31.16385","category":"178","category_name":"电影院","address":"杨新路61识别"},{"poiid":"B2094757D16AA7F4459D","title":"杨思天主堂","lon":"121.491789","lat":"31.16264","category":"500","category_name":"未知分类","address":"上海浦东新区云台路731号"},{"poiid":"B2094654DB6BABFF4498","title":"德州六村(灵岩路)","lon":"121.49275","lat":"31.1661","category":"47","category_name":"住宅区","address":"灵岩路56弄1-66号"},{"poiid":"B2094757D66DA3FD4192","title":"蛋糕Oo。甜品窩","lon":"121.49300673","lat":"31.162230852","category":"247","category_name":"餐饮美食","address":"厦门靈岩南路156弄14號xxx室"},{"poiid":"B2094654DA65A7FC469E","title":"快客No.6100","lon":"121.49185","lat":"31.15992","category":"117","category_name":"便民商店/便利店","address":"杨思路409"},{"poiid":"B2094757D06EABF5439D","title":"杨思地铁站","lon":"121.49400429","lat":"31.160810371","category":"36","category_name":"地铁站","address":"上海轨道交通 八号线 轨交杨思站 8"},{"poiid":"B2094757D069A5FE4292","title":"恒大华城","lon":"121.48864865","lat":"31.161270376","category":"500","category_name":"未知分类","address":"上海浦东新区杨新路282弄"},{"poiid":"B209475CD76BA7F8409C","title":"三林大光明影城","lon":"121.491086","lat":"31.161036","category":"178","category_name":"电影院","address":"上海市浦东新区长清路507号3楼"},{"poiid":"B2094751D569A7FF479B","title":"南国丰大酒店","lon":"121.49263","lat":"31.162204","category":"247","category_name":"餐饮美食","address":"浦东新区长清路507号2楼(近长清茶叶城)"},{"poiid":"B2094654DB6CA0F8469E","title":"南杨小区(杨思路)","lon":"121.49148","lat":"31.15876","category":"47","category_name":"住宅区","address":"长清路643弄1-42号,693弄1-54号"},{"poiid":"B2094752D46AA5FE479B","title":"三林大光明影城","lon":"121.49186","lat":"31.160776","category":"248","category_name":"生活娱乐","address":"长清路507号"},{"poiid":"B2094654DB64A2F8479B","title":"天地苑","lon":"121.48456","lat":"31.16023","category":"47","category_name":"住宅区","address":"西营南路17弄1-69号"},{"poiid":"B2094752DA64A2F54798","title":"长清大光明电影院","lon":"121.491151","lat":"31.161025","category":"500","category_name":"未知分类","address":"上海市 长清路杨思路"},{"poiid":"B2094655D26AA0FA409C","title":"地铁杨思站","lon":"121.49404","lat":"31.16079","category":"36","category_name":"地铁站","address":""},{"poiid":"B2094654DA65A0FB439D","title":"华城广场","lon":"121.49053","lat":"31.1629","category":"201","category_name":"城市广场","address":"三林镇"},{"poiid":"B2094757D069A0FC4393","title":"恒大华城天地苑","lon":"121.493","lat":"31.165","category":"500","category_name":"未知分类","address":"上海市浦东新区西营南路67弄"},{"poiid":"B2094757D069ABFE459E","title":"454路终点站","lon":"121.48944","lat":"31.162187","category":"38","category_name":"公交车站","address":"上海恒大华城"},{"poiid":"B2094654DA65A0FB4499","title":"恒大华城(正门)","lon":"121.49016","lat":"31.1626","category":"47","category_name":"住宅区","address":"三林镇"},{"poiid":"B2094655D26FA5FC4498","title":"华城秀庭","lon":"121.4892","lat":"31.163202","category":"47","category_name":"住宅区","address":"上海市浦东新区杨新路238弄"},{"poiid":"B2094654DB64A2F84692","title":"华城秀庭(正门)","lon":"121.48938","lat":"31.16255","category":"47","category_name":"住宅区","address":"杨新路238弄1-21号"},{"poiid":"B2094655D265A6FB459A","title":"长青园","lon":"121.49013","lat":"31.1612","category":"196","category_name":"公园","address":""},{"poiid":"B2094654DB64A2F84693","title":"快客","lon":"121.4893","lat":"31.16249","category":"117","category_name":"便民商店/便利店","address":"杨新路242"},{"poiid":"B2094752D065A2FA409D","title":"大光明电影城","lon":"121.488639","lat":"31.163604","category":"178","category_name":"电影院","address":null},{"poiid":"B2094757D069AAFD429F","title":"986车站","lon":"121.49302463","lat":"31.162668261","category":"38","category_name":"公交车站","address":"上海杨思路灵岩南路(近八号线杨思站2号口)"},{"poiid":"B2094757D16BA1FE429A","title":"安临小区","lon":"121.4921","lat":"31.163219","category":"47","category_name":"住宅区","address":"上海市浦东新区杨新路197弄"},{"poiid":"B2094752D168A4FB4292","title":"大光明电影院","lon":"121.49248","lat":"31.162092","category":"178","category_name":"电影院","address":null},{"poiid":"B2094654DB64A2F8469C","title":"华城社区卫生综合服务站","lon":"121.48995","lat":"31.16321","category":"162","category_name":"医院","address":""},{"poiid":"B2094654DB64A2F8479C","title":"梅山苑","lon":"121.48707","lat":"31.159868","category":"47","category_name":"住宅区","address":"西营南路18弄1-57号"},{"poiid":"B2094654DB64A2F8479D","title":"长清苑","lon":"121.48851","lat":"31.16049","category":"47","category_name":"住宅区","address":"杨新路281弄1-49号"},{"poiid":"B2094757D16AA1FF489A","title":"长清路杨思路","lon":"121.491464","lat":"31.159875","category":"500","category_name":"未知分类","address":"上海长清路595弄"},{"poiid":"B2094753D76AA0FD4598","title":"鼎枫料理","lon":"121.491108","lat":"31.160907","category":"95","category_name":"日本料理","address":"上海市浦东新区长清路507号207室(近杨新路)"},{"poiid":"B2094753D26DA4F54392","title":"鼎枫料理","lon":"121.491131","lat":"31.160996","category":"247","category_name":"餐饮美食","address":"上海市 长清路507号207室"},{"poiid":"B2094757D068A5F8479D","title":"恒大华城上河苑","lon":"121.48666221","lat":"31.161639027","category":"47","category_name":"住宅区","address":"上海市浦东新区杨新路282弄"},{"poiid":"B2094655D26EA2F54693","title":"南杨小区(正门)","lon":"121.49128","lat":"31.15935","category":"47","category_name":"住宅区","address":"长清路643弄1-42号、693弄1-54号"},{"poiid":"B2094757D068A3FF409F","title":"德州七村","lon":"121.48602","lat":"31.166298","category":"252","category_name":"楼宇机构","address":"上海浦东新区德州路380弄"},{"poiid":"B2094654DA65A7FC409C","title":"华夏小区","lon":"121.49384","lat":"31.16338","category":"47","category_name":"住宅区","address":"杨新路77、93弄"},{"poiid":"B2094757D66FA6F9459C","title":"吉的堡双语幼儿园","lon":"121.48864673","lat":"31.163318875","category":"57","category_name":"幼儿园","address":"上海市浦东新区德州路420弄22号"},{"poiid":"B2094655D26FA6FF4392","title":"上河苑","lon":"121.48692","lat":"31.1622","category":"47","category_name":"住宅区","address":"杨新路282弄1-47号"},{"poiid":"B2094655D268A0FF4799","title":"华城溜冰场","lon":"121.49015","lat":"31.16341","category":"222","category_name":"溜冰场","address":""},{"poiid":"B2094752D269ABF8419B","title":"融汇时尚量贩式ktv","lon":"121.487649","lat":"31.162321","category":"248","category_name":"生活娱乐","address":null},{"poiid":"B2094757D065A5F5429E","title":"东林苑","lon":"121.48727922","lat":"31.158886081","category":"252","category_name":"楼宇机构","address":"上海西营南路68弄"},{"poiid":"B2094654DB64A2F84792","title":"华城丽苑","lon":"121.48949","lat":"31.159363","category":"47","category_name":"住宅区","address":"杨思路301弄1-10号"},{"poiid":"B2094757D76DABFD479C","title":"克莉丝汀 杨思店","lon":"121.49792","lat":"31.16285","category":"112","category_name":"糕饼店","address":"浦东新区杨思路755号(近上南路)"},{"poiid":"B2094655D26BA4FE499A","title":"万科金色公馆","lon":"121.489796","lat":"31.167011","category":"47","category_name":"住宅区","address":"浦东新区济阳路333弄(近杨思路)"},{"poiid":"B2094757D069A5F84599","title":"辽东烤吧","lon":"121.49459","lat":"31.16026","category":"68","category_name":"快餐厅","address":"浦东新区灵岩南路121号(近杨思路)"},{"poiid":"B2094752DA68AAFA439C","title":"融汇时尚量贩KTV","lon":"121.4913","lat":"31.160873","category":"500","category_name":"未知分类","address":"上海市 浦东新区长清路505号长清商城1F"},{"poiid":"B2094757D469A2FF409C","title":"东北人家 灵岩南路店","lon":"121.494445054","lat":"31.160678793","category":"82","category_name":"东北菜","address":"浦东新区灵岩南路119号(近杨思路)"},{"poiid":"B2094655D268A7FD4899","title":"杨新路198弄小区","lon":"121.49191","lat":"31.16369","category":"47","category_name":"住宅区","address":"杨新路198弄1-4号"},{"poiid":"B2094655D268A7FD4898","title":"杨新路198弄小区(南门)","lon":"121.49206","lat":"31.16345","category":"47","category_name":"住宅区","address":"杨新路198弄1-4号"},{"poiid":"B2094654DA65A0FB4898","title":"华城休闲绿地","lon":"121.49015","lat":"31.15959","category":"196","category_name":"公园","address":""},{"poiid":"B2094654DB65A7FE419B","title":"杨思影剧院","lon":"121.49467","lat":"31.16385","category":"178","category_name":"电影院","address":"杨新路61识别"},{"poiid":"B2094757D16AA7F4459D","title":"杨思天主堂","lon":"121.491789","lat":"31.16264","category":"500","category_name":"未知分类","address":"上海浦东新区云台路731号"},{"poiid":"B2094654DB6BABFF4498","title":"德州六村(灵岩路)","lon":"121.49275","lat":"31.1661","category":"47","category_name":"住宅区","address":"灵岩路56弄1-66号"},{"poiid":"B2094757D66DA3FD4192","title":"蛋糕Oo。甜品窩","lon":"121.49300673","lat":"31.162230852","category":"247","category_name":"餐饮美食","address":"厦门靈岩南路156弄14號xxx室"},{"poiid":"B2094654DA65A7FC469E","title":"快客No.6100","lon":"121.49185","lat":"31.15992","category":"117","category_name":"便民商店/便利店","address":"杨思路409"},{"poiid":"B2094757D06EABF5439D","title":"杨思地铁站","lon":"121.49400429","lat":"31.160810371","category":"36","category_name":"地铁站","address":"上海轨道交通 八号线 轨交杨思站 8"},{"poiid":"B2094757D069A5FE4292","title":"恒大华城","lon":"121.48864865","lat":"31.161270376","category":"500","category_name":"未知分类","address":"上海浦东新区杨新路282弄"},{"poiid":"B209475CD76BA7F8409C","title":"三林大光明影城","lon":"121.491086","lat":"31.161036","category":"178","category_name":"电影院","address":"上海市浦东新区长清路507号3楼"},{"poiid":"B2094751D569A7FF479B","title":"南国丰大酒店","lon":"121.49263","lat":"31.162204","category":"247","category_name":"餐饮美食","address":"浦东新区长清路507号2楼(近长清茶叶城)"},{"poiid":"B2094654DB6CA0F8469E","title":"南杨小区(杨思路)","lon":"121.49148","lat":"31.15876","category":"47","category_name":"住宅区","address":"长清路643弄1-42号,693弄1-54号"},{"poiid":"B2094752D46AA5FE479B","title":"三林大光明影城","lon":"121.49186","lat":"31.160776","category":"248","category_name":"生活娱乐","address":"长清路507号"},{"poiid":"B2094654DB64A2F8479B","title":"天地苑","lon":"121.48456","lat":"31.16023","category":"47","category_name":"住宅区","address":"西营南路17弄1-69号"},{"poiid":"B2094752DA64A2F54798","title":"长清大光明电影院","lon":"121.491151","lat":"31.161025","category":"500","category_name":"未知分类","address":"上海市 长清路杨思路"},{"poiid":"B2094655D26AA0FA409C","title":"地铁杨思站","lon":"121.49404","lat":"31.16079","category":"36","category_name":"地铁站","address":""},{"poiid":"B2094654DA65A0FB439D","title":"华城广场","lon":"121.49053","lat":"31.1629","category":"201","category_name":"城市广场","address":"三林镇"},{"poiid":"B2094757D069A0FC4393","title":"恒大华城天地苑","lon":"121.493","lat":"31.165","category":"500","category_name":"未知分类","address":"上海市浦东新区西营南路67弄"},{"poiid":"B2094757D069ABFE459E","title":"454路终点站","lon":"121.48944","lat":"31.162187","category":"38","category_name":"公交车站","address":"上海恒大华城"},{"poiid":"B2094654DA65A0FB4499","title":"恒大华城(正门)","lon":"121.49016","lat":"31.1626","category":"47","category_name":"住宅区","address":"三林镇"},{"poiid":"B2094655D26FA5FC4498","title":"华城秀庭","lon":"121.4892","lat":"31.163202","category":"47","category_name":"住宅区","address":"上海市浦东新区杨新路238弄"},{"poiid":"B2094654DB64A2F84692","title":"华城秀庭(正门)","lon":"121.48938","lat":"31.16255","category":"47","category_name":"住宅区","address":"杨新路238弄1-21号"},{"poiid":"B2094655D265A6FB459A","title":"长青园","lon":"121.49013","lat":"31.1612","category":"196","category_name":"公园","address":""},{"poiid":"B2094654DB64A2F84693","title":"快客","lon":"121.4893","lat":"31.16249","category":"117","category_name":"便民商店/便利店","address":"杨新路242"},{"poiid":"B2094752D065A2FA409D","title":"大光明电影城","lon":"121.488639","lat":"31.163604","category":"178","category_name":"电影院","address":null},{"poiid":"B2094757D069AAFD429F","title":"986车站","lon":"121.49302463","lat":"31.162668261","category":"38","category_name":"公交车站","address":"上海杨思路灵岩南路(近八号线杨思站2号口)"},{"poiid":"B2094757D16BA1FE429A","title":"安临小区","lon":"121.4921","lat":"31.163219","category":"47","category_name":"住宅区","address":"上海市浦东新区杨新路197弄"},{"poiid":"B2094752D168A4FB4292","title":"大光明电影院","lon":"121.49248","lat":"31.162092","category":"178","category_name":"电影院","address":null},{"poiid":"B2094654DB64A2F8469C","title":"华城社区卫生综合服务站","lon":"121.48995","lat":"31.16321","category":"162","category_name":"医院","address":""},{"poiid":"B2094654DB64A2F8479C","title":"梅山苑","lon":"121.48707","lat":"31.159868","category":"47","category_name":"住宅区","address":"西营南路18弄1-57号"},{"poiid":"B2094654DB64A2F8479D","title":"长清苑","lon":"121.48851","lat":"31.16049","category":"47","category_name":"住宅区","address":"杨新路281弄1-49号"},{"poiid":"B2094757D16AA1FF489A","title":"长清路杨思路","lon":"121.491464","lat":"31.159875","category":"500","category_name":"未知分类","address":"上海长清路595弄"},{"poiid":"B2094753D76AA0FD4598","title":"鼎枫料理","lon":"121.491108","lat":"31.160907","category":"95","category_name":"日本料理","address":"上海市浦东新区长清路507号207室(近杨新路)"},{"poiid":"B2094753D26DA4F54392","title":"鼎枫料理","lon":"121.491131","lat":"31.160996","category":"247","category_name":"餐饮美食","address":"上海市 长清路507号207室"},{"poiid":"B2094757D068A5F8479D","title":"恒大华城上河苑","lon":"121.48666221","lat":"31.161639027","category":"47","category_name":"住宅区","address":"上海市浦东新区杨新路282弄"},{"poiid":"B2094655D26EA2F54693","title":"南杨小区(正门)","lon":"121.49128","lat":"31.15935","category":"47","category_name":"住宅区","address":"长清路643弄1-42号、693弄1-54号"},{"poiid":"B2094757D068A3FF409F","title":"德州七村","lon":"121.48602","lat":"31.166298","category":"252","category_name":"楼宇机构","address":"上海浦东新区德州路380弄"},{"poiid":"B2094654DA65A7FC409C","title":"华夏小区","lon":"121.49384","lat":"31.16338","category":"47","category_name":"住宅区","address":"杨新路77、93弄"},{"poiid":"B2094757D66FA6F9459C","title":"吉的堡双语幼儿园","lon":"121.48864673","lat":"31.163318875","category":"57","category_name":"幼儿园","address":"上海市浦东新区德州路420弄22号"},{"poiid":"B2094655D26FA6FF4392","title":"上河苑","lon":"121.48692","lat":"31.1622","category":"47","category_name":"住宅区","address":"杨新路282弄1-47号"},{"poiid":"B2094655D268A0FF4799","title":"华城溜冰场","lon":"121.49015","lat":"31.16341","category":"222","category_name":"溜冰场","address":""},{"poiid":"B2094752D269ABF8419B","title":"融汇时尚量贩式ktv","lon":"121.487649","lat":"31.162321","category":"248","category_name":"生活娱乐","address":null},{"poiid":"B2094757D065A5F5429E","title":"东林苑","lon":"121.48727922","lat":"31.158886081","category":"252","category_name":"楼宇机构","address":"上海西营南路68弄"},{"poiid":"B2094654DB64A2F84792","title":"华城丽苑","lon":"121.48949","lat":"31.159363","category":"47","category_name":"住宅区","address":"杨思路301弄1-10号"},{"poiid":"B2094757D76DABFD479C","title":"克莉丝汀 杨思店","lon":"121.49792","lat":"31.16285","category":"112","category_name":"糕饼店","address":"浦东新区杨思路755号(近上南路)"},{"poiid":"B2094655D26BA4FE499A","title":"万科金色公馆","lon":"121.489796","lat":"31.167011","category":"47","category_name":"住宅区","address":"浦东新区济阳路333弄(近杨思路)"},{"poiid":"B2094757D069A5F84599","title":"辽东烤吧","lon":"121.49459","lat":"31.16026","category":"68","category_name":"快餐厅","address":"浦东新区灵岩南路121号(近杨思路)"},{"poiid":"B2094752DA68AAFA439C","title":"融汇时尚量贩KTV","lon":"121.4913","lat":"31.160873","category":"500","category_name":"未知分类","address":"上海市 浦东新区长清路505号长清商城1F"},{"poiid":"B2094757D469A2FF409C","title":"东北人家 灵岩南路店","lon":"121.494445054","lat":"31.160678793","category":"82","category_name":"东北菜","address":"浦东新区灵岩南路119号(近杨思路)"},{"poiid":"B2094655D268A7FD4899","title":"杨新路198弄小区","lon":"121.49191","lat":"31.16369","category":"47","category_name":"住宅区","address":"杨新路198弄1-4号"},{"poiid":"B2094655D268A7FD4898","title":"杨新路198弄小区(南门)","lon":"121.49206","lat":"31.16345","category":"47","category_name":"住宅区","address":"杨新路198弄1-4号"},{"poiid":"B2094654DA65A0FB4898","title":"华城休闲绿地","lon":"121.49015","lat":"31.15959","category":"196","category_name":"公园","address":""},{"poiid":"B2094654DB65A7FE419B","title":"杨思影剧院","lon":"121.49467","lat":"31.16385","category":"178","category_name":"电影院","address":"杨新路61识别"},{"poiid":"B2094757D16AA7F4459D","title":"杨思天主堂","lon":"121.491789","lat":"31.16264","category":"500","category_name":"未知分类","address":"上海浦东新区云台路731号"},{"poiid":"B2094654DB6BABFF4498","title":"德州六村(灵岩路)","lon":"121.49275","lat":"31.1661","category":"47","category_name":"住宅区","address":"灵岩路56弄1-66号"},{"poiid":"B2094757D66DA3FD4192","title":"蛋糕Oo。甜品窩","lon":"121.49300673","lat":"31.162230852","category":"247","category_name":"餐饮美食","address":"厦门靈岩南路156弄14號xxx室"},{"poiid":"B2094654DA65A7FC469E","title":"快客No.6100","lon":"121.49185","lat":"31.15992","category":"117","category_name":"便民商店/便利店","address":"杨思路409"},{"poiid":"B2094757D06EABF5439D","title":"杨思地铁站","lon":"121.49400429","lat":"31.160810371","category":"36","category_name":"地铁站","address":"上海轨道交通 八号线 轨交杨思站 8"},{"poiid":"B2094757D069A5FE4292","title":"恒大华城","lon":"121.48864865","lat":"31.161270376","category":"500","category_name":"未知分类","address":"上海浦东新区杨新路282弄"},{"poiid":"B209475CD76BA7F8409C","title":"三林大光明影城","lon":"121.491086","lat":"31.161036","category":"178","category_name":"电影院","address":"上海市浦东新区长清路507号3楼"},{"poiid":"B2094751D569A7FF479B","title":"南国丰大酒店","lon":"121.49263","lat":"31.162204","category":"247","category_name":"餐饮美食","address":"浦东新区长清路507号2楼(近长清茶叶城)"},{"poiid":"B2094654DB6CA0F8469E","title":"南杨小区(杨思路)","lon":"121.49148","lat":"31.15876","category":"47","category_name":"住宅区","address":"长清路643弄1-42号,693弄1-54号"},{"poiid":"B2094752D46AA5FE479B","title":"三林大光明影城","lon":"121.49186","lat":"31.160776","category":"248","category_name":"生活娱乐","address":"长清路507号"},{"poiid":"B2094654DB64A2F8479B","title":"天地苑","lon":"121.48456","lat":"31.16023","category":"47","category_name":"住宅区","address":"西营南路17弄1-69号"},{"poiid":"B2094752DA64A2F54798","title":"长清大光明电影院","lon":"121.491151","lat":"31.161025","category":"500","category_name":"未知分类","address":"上海市 长清路杨思路"},{"poiid":"B2094655D26AA0FA409C","title":"地铁杨思站","lon":"121.49404","lat":"31.16079","category":"36","category_name":"地铁站","address":""},{"poiid":"B2094654DA65A0FB439D","title":"华城广场","lon":"121.49053","lat":"31.1629","category":"201","category_name":"城市广场","address":"三林镇"},{"poiid":"B2094757D069A0FC4393","title":"恒大华城天地苑","lon":"121.493","lat":"31.165","category":"500","category_name":"未知分类","address":"上海市浦东新区西营南路67弄"},{"poiid":"B2094757D069ABFE459E","title":"454路终点站","lon":"121.48944","lat":"31.162187","category":"38","category_name":"公交车站","address":"上海恒大华城"},{"poiid":"B2094654DA65A0FB4499","title":"恒大华城(正门)","lon":"121.49016","lat":"31.1626","category":"47","category_name":"住宅区","address":"三林镇"},{"poiid":"B2094655D26FA5FC4498","title":"华城秀庭","lon":"121.4892","lat":"31.163202","category":"47","category_name":"住宅区","address":"上海市浦东新区杨新路238弄"},{"poiid":"B2094654DB64A2F84692","title":"华城秀庭(正门)","lon":"121.48938","lat":"31.16255","category":"47","category_name":"住宅区","address":"杨新路238弄1-21号"},{"poiid":"B2094655D265A6FB459A","title":"长青园","lon":"121.49013","lat":"31.1612","category":"196","category_name":"公园","address":""},{"poiid":"B2094654DB64A2F84693","title":"快客","lon":"121.4893","lat":"31.16249","category":"117","category_name":"便民商店/便利店","address":"杨新路242"},{"poiid":"B2094752D065A2FA409D","title":"大光明电影城","lon":"121.488639","lat":"31.163604","category":"178","category_name":"电影院","address":null},{"poiid":"B2094757D069AAFD429F","title":"986车站","lon":"121.49302463","lat":"31.162668261","category":"38","category_name":"公交车站","address":"上海杨思路灵岩南路(近八号线杨思站2号口)"},{"poiid":"B2094757D16BA1FE429A","title":"安临小区","lon":"121.4921","lat":"31.163219","category":"47","category_name":"住宅区","address":"上海市浦东新区杨新路197弄"},{"poiid":"B2094752D168A4FB4292","title":"大光明电影院","lon":"121.49248","lat":"31.162092","category":"178","category_name":"电影院","address":null},{"poiid":"B2094654DB64A2F8469C","title":"华城社区卫生综合服务站","lon":"121.48995","lat":"31.16321","category":"162","category_name":"医院","address":""},{"poiid":"B2094654DB64A2F8479C","title":"梅山苑","lon":"121.48707","lat":"31.159868","category":"47","category_name":"住宅区","address":"西营南路18弄1-57号"},{"poiid":"B2094654DB64A2F8479D","title":"长清苑","lon":"121.48851","lat":"31.16049","category":"47","category_name":"住宅区","address":"杨新路281弄1-49号"},{"poiid":"B2094757D16AA1FF489A","title":"长清路杨思路","lon":"121.491464","lat":"31.159875","category":"500","category_name":"未知分类","address":"上海长清路595弄"},{"poiid":"B2094753D76AA0FD4598","title":"鼎枫料理","lon":"121.491108","lat":"31.160907","category":"95","category_name":"日本料理","address":"上海市浦东新区长清路507号207室(近杨新路)"},{"poiid":"B2094753D26DA4F54392","title":"鼎枫料理","lon":"121.491131","lat":"31.160996","category":"247","category_name":"餐饮美食","address":"上海市 长清路507号207室"},{"poiid":"B2094757D068A5F8479D","title":"恒大华城上河苑","lon":"121.48666221","lat":"31.161639027","category":"47","category_name":"住宅区","address":"上海市浦东新区杨新路282弄"},{"poiid":"B2094655D26EA2F54693","title":"南杨小区(正门)","lon":"121.49128","lat":"31.15935","category":"47","category_name":"住宅区","address":"长清路643弄1-42号、693弄1-54号"},{"poiid":"B2094757D068A3FF409F","title":"德州七村","lon":"121.48602","lat":"31.166298","category":"252","category_name":"楼宇机构","address":"上海浦东新区德州路380弄"},{"poiid":"B2094654DA65A7FC409C","title":"华夏小区","lon":"121.49384","lat":"31.16338","category":"47","category_name":"住宅区","address":"杨新路77、93弄"},{"poiid":"B2094757D66FA6F9459C","title":"吉的堡双语幼儿园","lon":"121.48864673","lat":"31.163318875","category":"57","category_name":"幼儿园","address":"上海市浦东新区德州路420弄22号"},{"poiid":"B2094655D26FA6FF4392","title":"上河苑","lon":"121.48692","lat":"31.1622","category":"47","category_name":"住宅区","address":"杨新路282弄1-47号"},{"poiid":"B2094655D268A0FF4799","title":"华城溜冰场","lon":"121.49015","lat":"31.16341","category":"222","category_name":"溜冰场","address":""},{"poiid":"B2094752D269ABF8419B","title":"融汇时尚量贩式ktv","lon":"121.487649","lat":"31.162321","category":"248","category_name":"生活娱乐","address":null},{"poiid":"B2094757D065A5F5429E","title":"东林苑","lon":"121.48727922","lat":"31.158886081","category":"252","category_name":"楼宇机构","address":"上海西营南路68弄"},{"poiid":"B2094654DB64A2F84792","title":"华城丽苑","lon":"121.48949","lat":"31.159363","category":"47","category_name":"住宅区","address":"杨思路301弄1-10号"},{"poiid":"B2094757D76DABFD479C","title":"克莉丝汀 杨思店","lon":"121.49792","lat":"31.16285","category":"112","category_name":"糕饼店","address":"浦东新区杨思路755号(近上南路)"},{"poiid":"B2094655D26BA4FE499A","title":"万科金色公馆","lon":"121.489796","lat":"31.167011","category":"47","category_name":"住宅区","address":"浦东新区济阳路333弄(近杨思路)"},{"poiid":"B2094757D069A5F84599","title":"辽东烤吧","lon":"121.49459","lat":"31.16026","category":"68","category_name":"快餐厅","address":"浦东新区灵岩南路121号(近杨思路)"},{"poiid":"B2094752DA68AAFA439C","title":"融汇时尚量贩KTV","lon":"121.4913","lat":"31.160873","category":"500","category_name":"未知分类","address":"上海市 浦东新区长清路505号长清商城1F"},{"poiid":"B2094757D469A2FF409C","title":"东北人家 灵岩南路店","lon":"121.494445054","lat":"31.160678793","category":"82","category_name":"东北菜","address":"浦东新区灵岩南路119号(近杨思路)"},{"poiid":"B2094655D268A7FD4899","title":"杨新路198弄小区","lon":"121.49191","lat":"31.16369","category":"47","category_name":"住宅区","address":"杨新路198弄1-4号"},{"poiid":"B2094655D268A7FD4898","title":"杨新路198弄小区(南门)","lon":"121.49206","lat":"31.16345","category":"47","category_name":"住宅区","address":"杨新路198弄1-4号"},{"poiid":"B2094654DA65A0FB4898","title":"华城休闲绿地","lon":"121.49015","lat":"31.15959","category":"196","category_name":"公园","address":""},{"poiid":"B2094654DB65A7FE419B","title":"杨思影剧院","lon":"121.49467","lat":"31.16385","category":"178","category_name":"电影院","address":"杨新路61识别"},{"poiid":"B2094757D16AA7F4459D","title":"杨思天主堂","lon":"121.491789","lat":"31.16264","category":"500","category_name":"未知分类","address":"上海浦东新区云台路731号"},{"poiid":"B2094654DB6BABFF4498","title":"德州六村(灵岩路)","lon":"121.49275","lat":"31.1661","category":"47","category_name":"住宅区","address":"灵岩路56弄1-66号"},{"poiid":"B2094757D66DA3FD4192","title":"蛋糕Oo。甜品窩","lon":"121.49300673","lat":"31.162230852","category":"247","category_name":"餐饮美食","address":"厦门靈岩南路156弄14號xxx室"},{"poiid":"B2094654DA65A7FC469E","title":"快客No.6100","lon":"121.49185","lat":"31.15992","category":"117","category_name":"便民商店/便利店","address":"杨思路409"}]