[{"poiid":"B2094655D264A0F9479E","title":"绿地东海岸国际广场","lon":"121.70689043678","lat":"31.19116655616","category":"47","category_name":"住宅区","address":"川沙路锦川路口"},{"poiid":"B2094655D36CA5FD4698","title":"川沙镇","lon":"121.70425","lat":"31.19988","category":"38","category_name":"公交车站","address":""},{"poiid":"B2094757D068ABFD4199","title":"小桥流水(川沙店)","lon":"121.70385","lat":"31.1983","category":"47","category_name":"住宅区","address":"浦东新区川沙新镇北城壕路66号(川沙体育场对面)"},{"poiid":"B2094757D468A4FA479F","title":"滕氏农家大院","lon":"121.7073306","lat":"31.2006242","category":"87","category_name":"特色／地方风味餐厅","address":"浦东新区华夏东路3059号1楼(华邦佳苑对面)"},{"poiid":"B2094757D068A2F44592","title":"新川饮食店","lon":"121.704636054","lat":"31.194273793","category":"68","category_name":"快餐厅","address":"浦东新区川黄路22号(近新川路口)"},{"poiid":"B2094757D06BA2FB449A","title":"上海市航空服务学校","lon":"121.7076086","lat":"31.189256901","category":"500","category_name":"未知分类","address":"浦东新区川沙新镇川环南路266号"},{"poiid":"B2094757D16EA3F4409F","title":"农家大院","lon":"121.711266085","lat":"31.1972711581","category":"500","category_name":"未知分类","address":"上海川沙华夏东路"},{"poiid":"B2094757D66AAAFB489B","title":"雪满天","lon":"121.7073306","lat":"31.2006242","category":"82","category_name":"东北菜","address":"浦东新区华夏东路2620号(近北市街)"},{"poiid":"B2094654DA6AA4FD4098","title":"上海市川沙中学","lon":"121.70137","lat":"31.19406","category":"55","category_name":"中学","address":"浦东新区川沙镇新川路324号(川沙路口)"},{"poiid":"B2094654DA6AABF54899","title":"上海电视大学浦东新区分校","lon":"121.7071","lat":"31.18906","category":"52","category_name":"高等院校","address":"浦东新区川沙镇川环南路320号(川环南路川黄路)"},{"poiid":"B2094654DA6BA3FD4993","title":"浦东新区川沙体育场","lon":"121.70272","lat":"31.20032","category":"224","category_name":"综合体育馆","address":"浦东新区华夏东路2541号(华夏东路益华路)"},{"poiid":"B2094757D06BAAF84593","title":"圣地亚歌量贩式KTV","lon":"121.705608785","lat":"31.1894834871","category":"170","category_name":"KTV","address":"上海川黄路271号"},{"poiid":"B2094757D16BA7FD439C","title":"巴贝隆无限量烤肉(川沙店)","lon":"121.699104085","lat":"31.1980703757","category":"247","category_name":"餐饮美食","address":"上海川沙玛雅广场西市街188号"},{"poiid":"B2094757D76DA1F54592","title":"七欣天迷宗蟹 川沙店","lon":"121.7073306","lat":"31.2006242","category":"86","category_name":"火锅店","address":"浦东新区华夏东路2480号"},{"poiid":"B2094654DB69A4FE479D","title":"如家酒店(浦东机场北通道店)","lon":"121.70535","lat":"31.2002","category":"216","category_name":"经济型连锁酒店","address":"浦东新区川沙华夏东路2682号"},{"poiid":"B2094757D065A7F8449A","title":"九龙锦江大酒店","lon":"121.70547","lat":"31.19045","category":"76","category_name":"上海菜","address":"浦东新区川黄路222号(川黄路川沙南桥路)"},{"poiid":"B2094654DA6AA4FD489B","title":"观澜小学","lon":"121.70613","lat":"31.19489","category":"56","category_name":"小学","address":"浦东新区新川路171号(东城壕路新川路)"},{"poiid":"B2094654DA6AA4FD409E","title":"五三中学","lon":"121.70639","lat":"31.19835","category":"55","category_name":"中学","address":"川沙镇东河浜路26号"},{"poiid":"B2094654DA6AA4FD4199","title":"黄炎培故居","lon":"121.70498","lat":"31.19524","category":"250","category_name":"公园户外","address":"浦东新区川沙镇兰芬堂74弄1号"},{"poiid":"B2094757D464AAF5479F","title":"爵鼎鸡 川黄路店","lon":"121.70445","lat":"31.19416","category":"68","category_name":"快餐厅","address":"浦东新区川黄路25号(新川路口)"},{"poiid":"B2094757D16BA5F4459A","title":"骏朋酒店","lon":"121.71203408","lat":"31.201959461","category":"217","category_name":"旅馆招待所","address":"浦东新区华夏东路2986号(近川沙路)"},{"poiid":"B2094750D76DAAFD4398","title":"蜀膳传火锅传奇(川沙店)","lon":"121.699","lat":"31.1959","category":"86","category_name":"火锅店","address":"浦东新区西市街188号玛雅现代广场(近川沙路)"},{"poiid":"B2094757D165A1F9479A","title":"川沙宾馆","lon":"121.704447685","lat":"31.1948175042","category":"217","category_name":"旅馆招待所","address":"浦东新区川沙镇石皮路25号　(近乔家浜路)"},{"poiid":"B2094654DA6BA1FC4193","title":"上海浦东新区达尔培训中心","lon":"121.70118","lat":"31.194","category":"190","category_name":"培训机构","address":"川沙镇"},{"poiid":"B2094654DB65A7FD4899","title":"元祖 川沙店 Ganso","lon":"121.704804054","lat":"31.193540793","category":"67","category_name":"甜品店","address":"浦东新区川沙镇川黄路59号(近新川饮食店)"},{"poiid":"B2094752D46AA2FE409E","title":"中国农业银行川沙营业部","lon":"121.705826","lat":"31.199328","category":"150","category_name":"银行","address":"上海市浦东新区新川路385号"},{"poiid":"B2094750DB6DA6FC4599","title":"欧帝臻品酒店","lon":"121.708002","lat":"31.194154","category":"216","category_name":"经济型连锁酒店","address":"浦东新区城南路200号"},{"poiid":"B2094757D66AA6FB4693","title":"花木人家","lon":"121.705470054","lat":"31.201443793","category":"76","category_name":"上海菜","address":"浦东新区川沙镇华夏东路3548号(近华洲北路)"},{"poiid":"B2094655D36CA6F4439E","title":"东城壕路新川路","lon":"121.70673","lat":"31.1956","category":"38","category_name":"公交车站","address":""},{"poiid":"B2094750DA69A4F84999","title":"好面","lon":"121.70333","lat":"31.197505","category":"247","category_name":"餐饮美食","address":"北市街195号"},{"poiid":"B2094750D76EAAF9489D","title":"呷哺呷哺(华夏东路店)","lon":"121.701","lat":"31.1986","category":"86","category_name":"火锅店","address":"浦东新区华夏东路2255号浦东商业广场东侧1楼3-6铺(近卜蜂莲花)"},{"poiid":"B2094654DA6BA3FA409A","title":"怡婷园姐妹店","lon":"121.69967","lat":"31.19675","category":"72","category_name":"广东菜","address":"浦东新区川沙镇新川路236号(近川黄路)"},{"poiid":"B2094655D36CA7FC429B","title":"华夏东路车站路","lon":"121.70501","lat":"31.20039","category":"38","category_name":"公交车站","address":""},{"poiid":"B2094655D36DA0FA4899","title":"益华路","lon":"121.70943","lat":"31.20162","category":"38","category_name":"公交车站","address":""},{"poiid":"B2094757D66FA6FD489B","title":"憬和茶道","lon":"121.70462","lat":"31.19449","category":"247","category_name":"餐饮美食","address":"浦东新区川沙南桥路699号(近川沙路)"},{"poiid":"B2094757D065A7FF4198","title":"新川沙图书馆","lon":"121.70508","lat":"31.19259","category":"181","category_name":"图书馆","address":"浦东新区川沙镇川黄路157号(川沙城南路川黄路)"},{"poiid":"B2094654DA6AA5F5479C","title":"川沙商场","lon":"121.70647","lat":"31.19484","category":"119","category_name":"商场","address":"新川路185号"},{"poiid":"B2094757D66DA5FF439E","title":"麒麟苑烧烤摊","lon":"121.70400238","lat":"31.194400787","category":"68","category_name":"快餐厅","address":"浦东新区川沙镇新川路(川黄路口)"},{"poiid":"B2094654DB69AAF9439D","title":"紫来轩 九龙锦江店","lon":"121.70542799716","lat":"31.191621841231","category":"76","category_name":"上海菜","address":"浦东新区川沙川黄路222号九龙锦江大酒店11楼"},{"poiid":"B2094654DA6AA5F5419E","title":"浦东新区税务一分局国营企业税务所","lon":"121.70488","lat":"31.19811","category":"250","category_name":"公园户外","address":"川沙镇车站路5号"},{"poiid":"B2094753D36FA3FE499A","title":"浦东机场2号航站楼国际出发","lon":"121.70168","lat":"31.191174","category":"500","category_name":"未知分类","address":"上海市 浦东机场2号航站楼"},{"poiid":"B2094655D36CA5FF459E","title":"城南路川黄路","lon":"121.70392","lat":"31.19237","category":"38","category_name":"公交车站","address":""},{"poiid":"B2094654DA6AABF54998","title":"曙光北苑","lon":"121.71003","lat":"31.192335","category":"47","category_name":"住宅区","address":"南桥路86弄"},{"poiid":"B2094757D66FA2FD479F","title":"巴渝豪情","lon":"121.703663085","lat":"31.1942672921","category":"86","category_name":"火锅店","address":"浦东新区新川路253号(近川黄路)"},{"poiid":"B2094654DA6AAAFB449A","title":"上海电视大学浦东农校教学点","lon":"121.71427","lat":"31.19987","category":"52","category_name":"高等院校","address":""},{"poiid":"B2094654DA6AAAFB4593","title":"浦东新区传染病医院","lon":"121.71203","lat":"31.20116","category":"162","category_name":"医院","address":"华夏东路3018弄46号"},{"poiid":"B2094757D16EA7F84999","title":"欧闻美容美发(川沙店)","lon":"121.70398","lat":"31.19441","category":"148","category_name":"美容美发店","address":"浦东新区川沙路4625弄38号(近农工商超市)"},{"poiid":"B2094654DA6AA4FC4892","title":"养和堂川沙店","lon":"121.70354","lat":"31.19597","category":"162","category_name":"医院","address":"川沙镇北市街2号"},{"poiid":"B2094654DA6AA4FC459C","title":"上海市浦东新区川沙文化馆","lon":"121.70552","lat":"31.19746","category":"188","category_name":"文化宫","address":"川沙镇东城壕路50号"},{"poiid":"B2094655D264A0FF419C","title":"贝越河滨雅筑","lon":"121.7021","lat":"31.199303","category":"47","category_name":"住宅区","address":"上海市浦东新区北市街308弄"},{"poiid":"B2094655D264A0F9479E","title":"绿地东海岸国际广场","lon":"121.70689043678","lat":"31.19116655616","category":"47","category_name":"住宅区","address":"川沙路锦川路口"},{"poiid":"B2094655D36CA5FD4698","title":"川沙镇","lon":"121.70425","lat":"31.19988","category":"38","category_name":"公交车站","address":""},{"poiid":"B2094757D068ABFD4199","title":"小桥流水(川沙店)","lon":"121.70385","lat":"31.1983","category":"47","category_name":"住宅区","address":"浦东新区川沙新镇北城壕路66号(川沙体育场对面)"},{"poiid":"B2094757D468A4FA479F","title":"滕氏农家大院","lon":"121.7073306","lat":"31.2006242","category":"87","category_name":"特色／地方风味餐厅","address":"浦东新区华夏东路3059号1楼(华邦佳苑对面)"},{"poiid":"B2094757D068A2F44592","title":"新川饮食店","lon":"121.704636054","lat":"31.194273793","category":"68","category_name":"快餐厅","address":"浦东新区川黄路22号(近新川路口)"},{"poiid":"B2094757D06BA2FB449A","title":"上海市航空服务学校","lon":"121.7076086","lat":"31.189256901","category":"500","category_name":"未知分类","address":"浦东新区川沙新镇川环南路266号"},{"poiid":"B2094757D16EA3F4409F","title":"农家大院","lon":"121.711266085","lat":"31.1972711581","category":"500","category_name":"未知分类","address":"上海川沙华夏东路"},{"poiid":"B2094757D66AAAFB489B","title":"雪满天","lon":"121.7073306","lat":"31.2006242","category":"82","category_name":"东北菜","address":"浦东新区华夏东路2620号(近北市街)"},{"poiid":"B2094654DA6AA4FD4098","title":"上海市川沙中学","lon":"121.70137","lat":"31.19406","category":"55","category_name":"中学","address":"浦东新区川沙镇新川路324号(川沙路口)"},{"poiid":"B2094654DA6AABF54899","title":"上海电视大学浦东新区分校","lon":"121.7071","lat":"31.18906","category":"52","category_name":"高等院校","address":"浦东新区川沙镇川环南路320号(川环南路川黄路)"},{"poiid":"B2094654DA6BA3FD4993","title":"浦东新区川沙体育场","lon":"121.70272","lat":"31.20032","category":"224","category_name":"综合体育馆","address":"浦东新区华夏东路2541号(华夏东路益华路)"},{"poiid":"B2094757D06BAAF84593","title":"圣地亚歌量贩式KTV","lon":"121.705608785","lat":"31.1894834871","category":"170","category_name":"KTV","address":"上海川黄路271号"},{"poiid":"B2094757D16BA7FD439C","title":"巴贝隆无限量烤肉(川沙店)","lon":"121.699104085","lat":"31.1980703757","category":"247","category_name":"餐饮美食","address":"上海川沙玛雅广场西市街188号"},{"poiid":"B2094757D76DA1F54592","title":"七欣天迷宗蟹 川沙店","lon":"121.7073306","lat":"31.2006242","category":"86","category_name":"火锅店","address":"浦东新区华夏东路2480号"},{"poiid":"B2094654DB69A4FE479D","title":"如家酒店(浦东机场北通道店)","lon":"121.70535","lat":"31.2002","category":"216","category_name":"经济型连锁酒店","address":"浦东新区川沙华夏东路2682号"},{"poiid":"B2094757D065A7F8449A","title":"九龙锦江大酒店","lon":"121.70547","lat":"31.19045","category":"76","category_name":"上海菜","address":"浦东新区川黄路222号(川黄路川沙南桥路)"},{"poiid":"B2094654DA6AA4FD489B","title":"观澜小学","lon":"121.70613","lat":"31.19489","category":"56","category_name":"小学","address":"浦东新区新川路171号(东城壕路新川路)"},{"poiid":"B2094654DA6AA4FD409E","title":"五三中学","lon":"121.70639","lat":"31.19835","category":"55","category_name":"中学","address":"川沙镇东河浜路26号"},{"poiid":"B2094654DA6AA4FD4199","title":"黄炎培故居","lon":"121.70498","lat":"31.19524","category":"250","category_name":"公园户外","address":"浦东新区川沙镇兰芬堂74弄1号"},{"poiid":"B2094757D464AAF5479F","title":"爵鼎鸡 川黄路店","lon":"121.70445","lat":"31.19416","category":"68","category_name":"快餐厅","address":"浦东新区川黄路25号(新川路口)"},{"poiid":"B2094757D16BA5F4459A","title":"骏朋酒店","lon":"121.71203408","lat":"31.201959461","category":"217","category_name":"旅馆招待所","address":"浦东新区华夏东路2986号(近川沙路)"},{"poiid":"B2094750D76DAAFD4398","title":"蜀膳传火锅传奇(川沙店)","lon":"121.699","lat":"31.1959","category":"86","category_name":"火锅店","address":"浦东新区西市街188号玛雅现代广场(近川沙路)"},{"poiid":"B2094757D165A1F9479A","title":"川沙宾馆","lon":"121.704447685","lat":"31.1948175042","category":"217","category_name":"旅馆招待所","address":"浦东新区川沙镇石皮路25号　(近乔家浜路)"},{"poiid":"B2094654DA6BA1FC4193","title":"上海浦东新区达尔培训中心","lon":"121.70118","lat":"31.194","category":"190","category_name":"培训机构","address":"川沙镇"},{"poiid":"B2094654DB65A7FD4899","title":"元祖 川沙店 Ganso","lon":"121.704804054","lat":"31.193540793","category":"67","category_name":"甜品店","address":"浦东新区川沙镇川黄路59号(近新川饮食店)"},{"poiid":"B2094752D46AA2FE409E","title":"中国农业银行川沙营业部","lon":"121.705826","lat":"31.199328","category":"150","category_name":"银行","address":"上海市浦东新区新川路385号"},{"poiid":"B2094750DB6DA6FC4599","title":"欧帝臻品酒店","lon":"121.708002","lat":"31.194154","category":"216","category_name":"经济型连锁酒店","address":"浦东新区城南路200号"},{"poiid":"B2094757D66AA6FB4693","title":"花木人家","lon":"121.705470054","lat":"31.201443793","category":"76","category_name":"上海菜","address":"浦东新区川沙镇华夏东路3548号(近华洲北路)"},{"poiid":"B2094655D36CA6F4439E","title":"东城壕路新川路","lon":"121.70673","lat":"31.1956","category":"38","category_name":"公交车站","address":""},{"poiid":"B2094750DA69A4F84999","title":"好面","lon":"121.70333","lat":"31.197505","category":"247","category_name":"餐饮美食","address":"北市街195号"},{"poiid":"B2094750D76EAAF9489D","title":"呷哺呷哺(华夏东路店)","lon":"121.701","lat":"31.1986","category":"86","category_name":"火锅店","address":"浦东新区华夏东路2255号浦东商业广场东侧1楼3-6铺(近卜蜂莲花)"},{"poiid":"B2094654DA6BA3FA409A","title":"怡婷园姐妹店","lon":"121.69967","lat":"31.19675","category":"72","category_name":"广东菜","address":"浦东新区川沙镇新川路236号(近川黄路)"},{"poiid":"B2094655D36CA7FC429B","title":"华夏东路车站路","lon":"121.70501","lat":"31.20039","category":"38","category_name":"公交车站","address":""},{"poiid":"B2094655D36DA0FA4899","title":"益华路","lon":"121.70943","lat":"31.20162","category":"38","category_name":"公交车站","address":""},{"poiid":"B2094757D66FA6FD489B","title":"憬和茶道","lon":"121.70462","lat":"31.19449","category":"247","category_name":"餐饮美食","address":"浦东新区川沙南桥路699号(近川沙路)"},{"poiid":"B2094757D065A7FF4198","title":"新川沙图书馆","lon":"121.70508","lat":"31.19259","category":"181","category_name":"图书馆","address":"浦东新区川沙镇川黄路157号(川沙城南路川黄路)"},{"poiid":"B2094654DA6AA5F5479C","title":"川沙商场","lon":"121.70647","lat":"31.19484","category":"119","category_name":"商场","address":"新川路185号"},{"poiid":"B2094757D66DA5FF439E","title":"麒麟苑烧烤摊","lon":"121.70400238","lat":"31.194400787","category":"68","category_name":"快餐厅","address":"浦东新区川沙镇新川路(川黄路口)"},{"poiid":"B2094654DB69AAF9439D","title":"紫来轩 九龙锦江店","lon":"121.70542799716","lat":"31.191621841231","category":"76","category_name":"上海菜","address":"浦东新区川沙川黄路222号九龙锦江大酒店11楼"},{"poiid":"B2094654DA6AA5F5419E","title":"浦东新区税务一分局国营企业税务所","lon":"121.70488","lat":"31.19811","category":"250","category_name":"公园户外","address":"川沙镇车站路5号"},{"poiid":"B2094753D36FA3FE499A","title":"浦东机场2号航站楼国际出发","lon":"121.70168","lat":"31.191174","category":"500","category_name":"未知分类","address":"上海市 浦东机场2号航站楼"},{"poiid":"B2094655D36CA5FF459E","title":"城南路川黄路","lon":"121.70392","lat":"31.19237","category":"38","category_name":"公交车站","address":""},{"poiid":"B2094654DA6AABF54998","title":"曙光北苑","lon":"121.71003","lat":"31.192335","category":"47","category_name":"住宅区","address":"南桥路86弄"},{"poiid":"B2094757D66FA2FD479F","title":"巴渝豪情","lon":"121.703663085","lat":"31.1942672921","category":"86","category_name":"火锅店","address":"浦东新区新川路253号(近川黄路)"},{"poiid":"B2094654DA6AAAFB449A","title":"上海电视大学浦东农校教学点","lon":"121.71427","lat":"31.19987","category":"52","category_name":"高等院校","address":""},{"poiid":"B2094654DA6AAAFB4593","title":"浦东新区传染病医院","lon":"121.71203","lat":"31.20116","category":"162","category_name":"医院","address":"华夏东路3018弄46号"},{"poiid":"B2094757D16EA7F84999","title":"欧闻美容美发(川沙店)","lon":"121.70398","lat":"31.19441","category":"148","category_name":"美容美发店","address":"浦东新区川沙路4625弄38号(近农工商超市)"},{"poiid":"B2094654DA6AA4FC4892","title":"养和堂川沙店","lon":"121.70354","lat":"31.19597","category":"162","category_name":"医院","address":"川沙镇北市街2号"},{"poiid":"B2094654DA6AA4FC459C","title":"上海市浦东新区川沙文化馆","lon":"121.70552","lat":"31.19746","category":"188","category_name":"文化宫","address":"川沙镇东城壕路50号"},{"poiid":"B2094655D264A0FF419C","title":"贝越河滨雅筑","lon":"121.7021","lat":"31.199303","category":"47","category_name":"住宅区","address":"上海市浦东新区北市街308弄"},{"poiid":"B2094655D264A0F9479E","title":"绿地东海岸国际广场","lon":"121.70689043678","lat":"31.19116655616","category":"47","category_name":"住宅区","address":"川沙路锦川路口"},{"poiid":"B2094655D36CA5FD4698","title":"川沙镇","lon":"121.70425","lat":"31.19988","category":"38","category_name":"公交车站","address":""},{"poiid":"B2094757D068ABFD4199","title":"小桥流水(川沙店)","lon":"121.70385","lat":"31.1983","category":"47","category_name":"住宅区","address":"浦东新区川沙新镇北城壕路66号(川沙体育场对面)"},{"poiid":"B2094757D468A4FA479F","title":"滕氏农家大院","lon":"121.7073306","lat":"31.2006242","category":"87","category_name":"特色／地方风味餐厅","address":"浦东新区华夏东路3059号1楼(华邦佳苑对面)"},{"poiid":"B2094757D068A2F44592","title":"新川饮食店","lon":"121.704636054","lat":"31.194273793","category":"68","category_name":"快餐厅","address":"浦东新区川黄路22号(近新川路口)"},{"poiid":"B2094757D06BA2FB449A","title":"上海市航空服务学校","lon":"121.7076086","lat":"31.189256901","category":"500","category_name":"未知分类","address":"浦东新区川沙新镇川环南路266号"},{"poiid":"B2094757D16EA3F4409F","title":"农家大院","lon":"121.711266085","lat":"31.1972711581","category":"500","category_name":"未知分类","address":"上海川沙华夏东路"},{"poiid":"B2094757D66AAAFB489B","title":"雪满天","lon":"121.7073306","lat":"31.2006242","category":"82","category_name":"东北菜","address":"浦东新区华夏东路2620号(近北市街)"},{"poiid":"B2094654DA6AA4FD4098","title":"上海市川沙中学","lon":"121.70137","lat":"31.19406","category":"55","category_name":"中学","address":"浦东新区川沙镇新川路324号(川沙路口)"},{"poiid":"B2094654DA6AABF54899","title":"上海电视大学浦东新区分校","lon":"121.7071","lat":"31.18906","category":"52","category_name":"高等院校","address":"浦东新区川沙镇川环南路320号(川环南路川黄路)"},{"poiid":"B2094654DA6BA3FD4993","title":"浦东新区川沙体育场","lon":"121.70272","lat":"31.20032","category":"224","category_name":"综合体育馆","address":"浦东新区华夏东路2541号(华夏东路益华路)"},{"poiid":"B2094757D06BAAF84593","title":"圣地亚歌量贩式KTV","lon":"121.705608785","lat":"31.1894834871","category":"170","category_name":"KTV","address":"上海川黄路271号"},{"poiid":"B2094757D16BA7FD439C","title":"巴贝隆无限量烤肉(川沙店)","lon":"121.699104085","lat":"31.1980703757","category":"247","category_name":"餐饮美食","address":"上海川沙玛雅广场西市街188号"},{"poiid":"B2094757D76DA1F54592","title":"七欣天迷宗蟹 川沙店","lon":"121.7073306","lat":"31.2006242","category":"86","category_name":"火锅店","address":"浦东新区华夏东路2480号"},{"poiid":"B2094654DB69A4FE479D","title":"如家酒店(浦东机场北通道店)","lon":"121.70535","lat":"31.2002","category":"216","category_name":"经济型连锁酒店","address":"浦东新区川沙华夏东路2682号"},{"poiid":"B2094757D065A7F8449A","title":"九龙锦江大酒店","lon":"121.70547","lat":"31.19045","category":"76","category_name":"上海菜","address":"浦东新区川黄路222号(川黄路川沙南桥路)"},{"poiid":"B2094654DA6AA4FD489B","title":"观澜小学","lon":"121.70613","lat":"31.19489","category":"56","category_name":"小学","address":"浦东新区新川路171号(东城壕路新川路)"},{"poiid":"B2094654DA6AA4FD409E","title":"五三中学","lon":"121.70639","lat":"31.19835","category":"55","category_name":"中学","address":"川沙镇东河浜路26号"},{"poiid":"B2094654DA6AA4FD4199","title":"黄炎培故居","lon":"121.70498","lat":"31.19524","category":"250","category_name":"公园户外","address":"浦东新区川沙镇兰芬堂74弄1号"},{"poiid":"B2094757D464AAF5479F","title":"爵鼎鸡 川黄路店","lon":"121.70445","lat":"31.19416","category":"68","category_name":"快餐厅","address":"浦东新区川黄路25号(新川路口)"},{"poiid":"B2094757D16BA5F4459A","title":"骏朋酒店","lon":"121.71203408","lat":"31.201959461","category":"217","category_name":"旅馆招待所","address":"浦东新区华夏东路2986号(近川沙路)"},{"poiid":"B2094750D76DAAFD4398","title":"蜀膳传火锅传奇(川沙店)","lon":"121.699","lat":"31.1959","category":"86","category_name":"火锅店","address":"浦东新区西市街188号玛雅现代广场(近川沙路)"},{"poiid":"B2094757D165A1F9479A","title":"川沙宾馆","lon":"121.704447685","lat":"31.1948175042","category":"217","category_name":"旅馆招待所","address":"浦东新区川沙镇石皮路25号　(近乔家浜路)"},{"poiid":"B2094654DA6BA1FC4193","title":"上海浦东新区达尔培训中心","lon":"121.70118","lat":"31.194","category":"190","category_name":"培训机构","address":"川沙镇"},{"poiid":"B2094654DB65A7FD4899","title":"元祖 川沙店 Ganso","lon":"121.704804054","lat":"31.193540793","category":"67","category_name":"甜品店","address":"浦东新区川沙镇川黄路59号(近新川饮食店)"},{"poiid":"B2094752D46AA2FE409E","title":"中国农业银行川沙营业部","lon":"121.705826","lat":"31.199328","category":"150","category_name":"银行","address":"上海市浦东新区新川路385号"},{"poiid":"B2094750DB6DA6FC4599","title":"欧帝臻品酒店","lon":"121.708002","lat":"31.194154","category":"216","category_name":"经济型连锁酒店","address":"浦东新区城南路200号"},{"poiid":"B2094757D66AA6FB4693","title":"花木人家","lon":"121.705470054","lat":"31.201443793","category":"76","category_name":"上海菜","address":"浦东新区川沙镇华夏东路3548号(近华洲北路)"},{"poiid":"B2094655D36CA6F4439E","title":"东城壕路新川路","lon":"121.70673","lat":"31.1956","category":"38","category_name":"公交车站","address":""},{"poiid":"B2094750DA69A4F84999","title":"好面","lon":"121.70333","lat":"31.197505","category":"247","category_name":"餐饮美食","address":"北市街195号"},{"poiid":"B2094750D76EAAF9489D","title":"呷哺呷哺(华夏东路店)","lon":"121.701","lat":"31.1986","category":"86","category_name":"火锅店","address":"浦东新区华夏东路2255号浦东商业广场东侧1楼3-6铺(近卜蜂莲花)"},{"poiid":"B2094654DA6BA3FA409A","title":"怡婷园姐妹店","lon":"121.69967","lat":"31.19675","category":"72","category_name":"广东菜","address":"浦东新区川沙镇新川路236号(近川黄路)"},{"poiid":"B2094655D36CA7FC429B","title":"华夏东路车站路","lon":"121.70501","lat":"31.20039","category":"38","category_name":"公交车站","address":""},{"poiid":"B2094655D36DA0FA4899","title":"益华路","lon":"121.70943","lat":"31.20162","category":"38","category_name":"公交车站","address":""},{"poiid":"B2094757D66FA6FD489B","title":"憬和茶道","lon":"121.70462","lat":"31.19449","category":"247","category_name":"餐饮美食","address":"浦东新区川沙南桥路699号(近川沙路)"},{"poiid":"B2094757D065A7FF4198","title":"新川沙图书馆","lon":"121.70508","lat":"31.19259","category":"181","category_name":"图书馆","address":"浦东新区川沙镇川黄路157号(川沙城南路川黄路)"},{"poiid":"B2094654DA6AA5F5479C","title":"川沙商场","lon":"121.70647","lat":"31.19484","category":"119","category_name":"商场","address":"新川路185号"},{"poiid":"B2094757D66DA5FF439E","title":"麒麟苑烧烤摊","lon":"121.70400238","lat":"31.194400787","category":"68","category_name":"快餐厅","address":"浦东新区川沙镇新川路(川黄路口)"},{"poiid":"B2094654DB69AAF9439D","title":"紫来轩 九龙锦江店","lon":"121.70542799716","lat":"31.191621841231","category":"76","category_name":"上海菜","address":"浦东新区川沙川黄路222号九龙锦江大酒店11楼"},{"poiid":"B2094654DA6AA5F5419E","title":"浦东新区税务一分局国营企业税务所","lon":"121.70488","lat":"31.19811","category":"250","category_name":"公园户外","address":"川沙镇车站路5号"},{"poiid":"B2094753D36FA3FE499A","title":"浦东机场2号航站楼国际出发","lon":"121.70168","lat":"31.191174","category":"500","category_name":"未知分类","address":"上海市 浦东机场2号航站楼"},{"poiid":"B2094655D36CA5FF459E","title":"城南路川黄路","lon":"121.70392","lat":"31.19237","category":"38","category_name":"公交车站","address":""},{"poiid":"B2094654DA6AABF54998","title":"曙光北苑","lon":"121.71003","lat":"31.192335","category":"47","category_name":"住宅区","address":"南桥路86弄"},{"poiid":"B2094757D66FA2FD479F","title":"巴渝豪情","lon":"121.703663085","lat":"31.1942672921","category":"86","category_name":"火锅店","address":"浦东新区新川路253号(近川黄路)"},{"poiid":"B2094654DA6AAAFB449A","title":"上海电视大学浦东农校教学点","lon":"121.71427","lat":"31.19987","category":"52","category_name":"高等院校","address":""},{"poiid":"B2094654DA6AAAFB4593","title":"浦东新区传染病医院","lon":"121.71203","lat":"31.20116","category":"162","category_name":"医院","address":"华夏东路3018弄46号"},{"poiid":"B2094757D16EA7F84999","title":"欧闻美容美发(川沙店)","lon":"121.70398","lat":"31.19441","category":"148","category_name":"美容美发店","address":"浦东新区川沙路4625弄38号(近农工商超市)"},{"poiid":"B2094654DA6AA4FC4892","title":"养和堂川沙店","lon":"121.70354","lat":"31.19597","category":"162","category_name":"医院","address":"川沙镇北市街2号"},{"poiid":"B2094654DA6AA4FC459C","title":"上海市浦东新区川沙文化馆","lon":"121.70552","lat":"31.19746","category":"188","category_name":"文化宫","address":"川沙镇东城壕路50号"},{"poiid":"B2094655D264A0FF419C","title":"贝越河滨雅筑","lon":"121.7021","lat":"31.199303","category":"47","category_name":"住宅区","address":"上海市浦东新区北市街308弄"},{"poiid":"B2094655D264A0F9479E","title":"绿地东海岸国际广场","lon":"121.70689043678","lat":"31.19116655616","category":"47","category_name":"住宅区","address":"川沙路锦川路口"},{"poiid":"B2094655D36CA5FD4698","title":"川沙镇","lon":"121.70425","lat":"31.19988","category":"38","category_name":"公交车站","address":""},{"poiid":"B2094757D068ABFD4199","title":"小桥流水(川沙店)","lon":"121.70385","lat":"31.1983","category":"47","category_name":"住宅区","address":"浦东新区川沙新镇北城壕路66号(川沙体育场对面)"},{"poiid":"B2094757D468A4FA479F","title":"滕氏农家大院","lon":"121.7073306","lat":"31.2006242","category":"87","category_name":"特色／地方风味餐厅","address":"浦东新区华夏东路3059号1楼(华邦佳苑对面)"},{"poiid":"B2094757D068A2F44592","title":"新川饮食店","lon":"121.704636054","lat":"31.194273793","category":"68","category_name":"快餐厅","address":"浦东新区川黄路22号(近新川路口)"},{"poiid":"B2094757D06BA2FB449A","title":"上海市航空服务学校","lon":"121.7076086","lat":"31.189256901","category":"500","category_name":"未知分类","address":"浦东新区川沙新镇川环南路266号"},{"poiid":"B2094757D16EA3F4409F","title":"农家大院","lon":"121.711266085","lat":"31.1972711581","category":"500","category_name":"未知分类","address":"上海川沙华夏东路"},{"poiid":"B2094757D66AAAFB489B","title":"雪满天","lon":"121.7073306","lat":"31.2006242","category":"82","category_name":"东北菜","address":"浦东新区华夏东路2620号(近北市街)"},{"poiid":"B2094654DA6AA4FD4098","title":"上海市川沙中学","lon":"121.70137","lat":"31.19406","category":"55","category_name":"中学","address":"浦东新区川沙镇新川路324号(川沙路口)"},{"poiid":"B2094654DA6AABF54899","title":"上海电视大学浦东新区分校","lon":"121.7071","lat":"31.18906","category":"52","category_name":"高等院校","address":"浦东新区川沙镇川环南路320号(川环南路川黄路)"},{"poiid":"B2094654DA6BA3FD4993","title":"浦东新区川沙体育场","lon":"121.70272","lat":"31.20032","category":"224","category_name":"综合体育馆","address":"浦东新区华夏东路2541号(华夏东路益华路)"},{"poiid":"B2094757D06BAAF84593","title":"圣地亚歌量贩式KTV","lon":"121.705608785","lat":"31.1894834871","category":"170","category_name":"KTV","address":"上海川黄路271号"},{"poiid":"B2094757D16BA7FD439C","title":"巴贝隆无限量烤肉(川沙店)","lon":"121.699104085","lat":"31.1980703757","category":"247","category_name":"餐饮美食","address":"上海川沙玛雅广场西市街188号"},{"poiid":"B2094757D76DA1F54592","title":"七欣天迷宗蟹 川沙店","lon":"121.7073306","lat":"31.2006242","category":"86","category_name":"火锅店","address":"浦东新区华夏东路2480号"},{"poiid":"B2094654DB69A4FE479D","title":"如家酒店(浦东机场北通道店)","lon":"121.70535","lat":"31.2002","category":"216","category_name":"经济型连锁酒店","address":"浦东新区川沙华夏东路2682号"},{"poiid":"B2094757D065A7F8449A","title":"九龙锦江大酒店","lon":"121.70547","lat":"31.19045","category":"76","category_name":"上海菜","address":"浦东新区川黄路222号(川黄路川沙南桥路)"},{"poiid":"B2094654DA6AA4FD489B","title":"观澜小学","lon":"121.70613","lat":"31.19489","category":"56","category_name":"小学","address":"浦东新区新川路171号(东城壕路新川路)"},{"poiid":"B2094654DA6AA4FD409E","title":"五三中学","lon":"121.70639","lat":"31.19835","category":"55","category_name":"中学","address":"川沙镇东河浜路26号"},{"poiid":"B2094654DA6AA4FD4199","title":"黄炎培故居","lon":"121.70498","lat":"31.19524","category":"250","category_name":"公园户外","address":"浦东新区川沙镇兰芬堂74弄1号"},{"poiid":"B2094757D464AAF5479F","title":"爵鼎鸡 川黄路店","lon":"121.70445","lat":"31.19416","category":"68","category_name":"快餐厅","address":"浦东新区川黄路25号(新川路口)"},{"poiid":"B2094757D16BA5F4459A","title":"骏朋酒店","lon":"121.71203408","lat":"31.201959461","category":"217","category_name":"旅馆招待所","address":"浦东新区华夏东路2986号(近川沙路)"},{"poiid":"B2094750D76DAAFD4398","title":"蜀膳传火锅传奇(川沙店)","lon":"121.699","lat":"31.1959","category":"86","category_name":"火锅店","address":"浦东新区西市街188号玛雅现代广场(近川沙路)"},{"poiid":"B2094757D165A1F9479A","title":"川沙宾馆","lon":"121.704447685","lat":"31.1948175042","category":"217","category_name":"旅馆招待所","address":"浦东新区川沙镇石皮路25号　(近乔家浜路)"},{"poiid":"B2094654DA6BA1FC4193","title":"上海浦东新区达尔培训中心","lon":"121.70118","lat":"31.194","category":"190","category_name":"培训机构","address":"川沙镇"},{"poiid":"B2094654DB65A7FD4899","title":"元祖 川沙店 Ganso","lon":"121.704804054","lat":"31.193540793","category":"67","category_name":"甜品店","address":"浦东新区川沙镇川黄路59号(近新川饮食店)"},{"poiid":"B2094752D46AA2FE409E","title":"中国农业银行川沙营业部","lon":"121.705826","lat":"31.199328","category":"150","category_name":"银行","address":"上海市浦东新区新川路385号"},{"poiid":"B2094750DB6DA6FC4599","title":"欧帝臻品酒店","lon":"121.708002","lat":"31.194154","category":"216","category_name":"经济型连锁酒店","address":"浦东新区城南路200号"},{"poiid":"B2094757D66AA6FB4693","title":"花木人家","lon":"121.705470054","lat":"31.201443793","category":"76","category_name":"上海菜","address":"浦东新区川沙镇华夏东路3548号(近华洲北路)"},{"poiid":"B2094655D36CA6F4439E","title":"东城壕路新川路","lon":"121.70673","lat":"31.1956","category":"38","category_name":"公交车站","address":""},{"poiid":"B2094750DA69A4F84999","title":"好面","lon":"121.70333","lat":"31.197505","category":"247","category_name":"餐饮美食","address":"北市街195号"},{"poiid":"B2094750D76EAAF9489D","title":"呷哺呷哺(华夏东路店)","lon":"121.701","lat":"31.1986","category":"86","category_name":"火锅店","address":"浦东新区华夏东路2255号浦东商业广场东侧1楼3-6铺(近卜蜂莲花)"},{"poiid":"B2094654DA6BA3FA409A","title":"怡婷园姐妹店","lon":"121.69967","lat":"31.19675","category":"72","category_name":"广东菜","address":"浦东新区川沙镇新川路236号(近川黄路)"},{"poiid":"B2094655D36CA7FC429B","title":"华夏东路车站路","lon":"121.70501","lat":"31.20039","category":"38","category_name":"公交车站","address":""},{"poiid":"B2094655D36DA0FA4899","title":"益华路","lon":"121.70943","lat":"31.20162","category":"38","category_name":"公交车站","address":""},{"poiid":"B2094757D66FA6FD489B","title":"憬和茶道","lon":"121.70462","lat":"31.19449","category":"247","category_name":"餐饮美食","address":"浦东新区川沙南桥路699号(近川沙路)"},{"poiid":"B2094757D065A7FF4198","title":"新川沙图书馆","lon":"121.70508","lat":"31.19259","category":"181","category_name":"图书馆","address":"浦东新区川沙镇川黄路157号(川沙城南路川黄路)"},{"poiid":"B2094654DA6AA5F5479C","title":"川沙商场","lon":"121.70647","lat":"31.19484","category":"119","category_name":"商场","address":"新川路185号"},{"poiid":"B2094757D66DA5FF439E","title":"麒麟苑烧烤摊","lon":"121.70400238","lat":"31.194400787","category":"68","category_name":"快餐厅","address":"浦东新区川沙镇新川路(川黄路口)"},{"poiid":"B2094654DB69AAF9439D","title":"紫来轩 九龙锦江店","lon":"121.70542799716","lat":"31.191621841231","category":"76","category_name":"上海菜","address":"浦东新区川沙川黄路222号九龙锦江大酒店11楼"},{"poiid":"B2094654DA6AA5F5419E","title":"浦东新区税务一分局国营企业税务所","lon":"121.70488","lat":"31.19811","category":"250","category_name":"公园户外","address":"川沙镇车站路5号"},{"poiid":"B2094753D36FA3FE499A","title":"浦东机场2号航站楼国际出发","lon":"121.70168","lat":"31.191174","category":"500","category_name":"未知分类","address":"上海市 浦东机场2号航站楼"},{"poiid":"B2094655D36CA5FF459E","title":"城南路川黄路","lon":"121.70392","lat":"31.19237","category":"38","category_name":"公交车站","address":""},{"poiid":"B2094654DA6AABF54998","title":"曙光北苑","lon":"121.71003","lat":"31.192335","category":"47","category_name":"住宅区","address":"南桥路86弄"},{"poiid":"B2094757D66FA2FD479F","title":"巴渝豪情","lon":"121.703663085","lat":"31.1942672921","category":"86","category_name":"火锅店","address":"浦东新区新川路253号(近川黄路)"},{"poiid":"B2094654DA6AAAFB449A","title":"上海电视大学浦东农校教学点","lon":"121.71427","lat":"31.19987","category":"52","category_name":"高等院校","address":""},{"poiid":"B2094654DA6AAAFB4593","title":"浦东新区传染病医院","lon":"121.71203","lat":"31.20116","category":"162","category_name":"医院","address":"华夏东路3018弄46号"},{"poiid":"B2094757D16EA7F84999","title":"欧闻美容美发(川沙店)","lon":"121.70398","lat":"31.19441","category":"148","category_name":"美容美发店","address":"浦东新区川沙路4625弄38号(近农工商超市)"},{"poiid":"B2094654DA6AA4FC4892","title":"养和堂川沙店","lon":"121.70354","lat":"31.19597","category":"162","category_name":"医院","address":"川沙镇北市街2号"},{"poiid":"B2094654DA6AA4FC459C","title":"上海市浦东新区川沙文化馆","lon":"121.70552","lat":"31.19746","category":"188","category_name":"文化宫","address":"川沙镇东城壕路50号"},{"poiid":"B2094655D264A0FF419C","title":"贝越河滨雅筑","lon":"121.7021","lat":"31.199303","category":"47","category_name":"住宅区","address":"上海市浦东新区北市街308弄"}]