[{"poiid":"B2094757D06FA0FB4499","title":"欧尚(嘉定店)","lon":"121.253868135","lat":"31.3835903591","category":"118","category_name":"超级市场","address":"嘉定区博乐路99号博乐广场对面(近塔城路)"},{"poiid":"B2094757D068A1F9419F","title":"汇龙潭","lon":"121.25354","lat":"31.38189","category":"196","category_name":"公园","address":"嘉定区沙霞路68号(近孔庙)"},{"poiid":"B2094654D469A0FF429E","title":"嘉定孔庙","lon":"121.25323","lat":"31.38096","category":"244","category_name":"寺庙道观","address":"地址：嘉定南大街183号"},{"poiid":"B2094654DB69ABF44392","title":"添欢夜昙(嘉定店)","lon":"121.25585","lat":"31.38365","category":"170","category_name":"KTV","address":"嘉定区塔城路297号(近博乐路)"},{"poiid":"B2094757D66BA7FD429F","title":"肯德基 博乐店 KFC","lon":"121.254760054","lat":"31.383034793","category":"68","category_name":"快餐厅","address":"嘉定区博乐路99号欧尚超市旁(近博乐广场)"},{"poiid":"B2094654D469A4FD4698","title":"榕港海鲜大酒楼(嘉定店)","lon":"121.2549486588955","lat":"31.382355724579902","category":"88","category_name":"海鲜酒楼","address":"嘉定区塔城路297-38号(近博乐路)"},{"poiid":"B2094757D069AAF9449C","title":"嘉定宾馆","lon":"121.253174","lat":"31.38382","category":"217","category_name":"旅馆招待所","address":"嘉定区博乐路100号(博乐路塔城路)"},{"poiid":"B2094654D469A4FD499A","title":"两岸咖啡嘉定店","lon":"121.25592","lat":"31.38369","category":"260","category_name":"其他","address":"嘉定区塔城路295号添欢夜昙旁(近博乐路)"},{"poiid":"B2094757D06AA3FD479C","title":"七欣天迷宗蟹","lon":"121.25685915","lat":"31.380669106","category":"86","category_name":"火锅店","address":"嘉定区博乐路85号(近中信银行)"},{"poiid":"B209475CDB6CA2F54892","title":"疁城新天地","lon":"121.255213","lat":"31.382237","category":"116","category_name":"特色商业街","address":"上海市 博乐路"},{"poiid":"B2094752D564A7FF499C","title":"江南公社","lon":"121.254337","lat":"31.383078","category":"247","category_name":"餐饮美食","address":"嘉定区塔城路297号-21-2楼"},{"poiid":"B2094751DA6AA5FF4593","title":"堂绘","lon":"121.252286","lat":"31.384854","category":"247","category_name":"餐饮美食","address":"上海市嘉定区博乐路东下塘街51号"},{"poiid":"B2094757D465A1FF449C","title":"故乡","lon":"121.25620269775","lat":"31.383838653564","category":"269","category_name":"烧烤","address":"嘉定区塔城路290号"},{"poiid":"B2094757D06BABFE4798","title":"村夫烤鱼(塔城路店)","lon":"121.25419","lat":"31.38403","category":"68","category_name":"快餐厅","address":"嘉定区博乐路99号欧尚超市侧门对面"},{"poiid":"B2094654D469A4FD489D","title":"浜名湖日本烧肉","lon":"121.25572","lat":"31.38358","category":"269","category_name":"烧烤","address":"嘉定区塔城路277弄2号(近博乐路)"},{"poiid":"B2094757D068AAFC4099","title":"蒙自过桥米线馆","lon":"121.25293","lat":"31.38502","category":"68","category_name":"快餐厅","address":"嘉定区东大街465号(北下塘街东大街)"},{"poiid":"B209475CD469A4F4469D","title":"星巴克（嘉定疁城国际店）","lon":"121.25518","lat":"31.383516","category":"500","category_name":"未知分类","address":"上海市 上海市嘉定区塔城路295号"},{"poiid":"B2094757D06AABFC489D","title":"新招鲜本地鸡窝(塔城路店)","lon":"121.256573653","lat":"31.3843191806","category":"86","category_name":"火锅店","address":"嘉定区塔城路283-6号(近金沙路)"},{"poiid":"B2094757DA69A2FA439A","title":"上海嘉定公馆","lon":"121.25336","lat":"31.38322","category":"72","category_name":"广东菜","address":"嘉定区博乐路100号(欧尚超市对面)"},{"poiid":"B2094757D169A2FE4299","title":"朝日屋","lon":"121.25375","lat":"31.38312","category":"95","category_name":"日本料理","address":"上海近郊嘉定区博乐路100号嘉定宾馆1楼(近塔城路)  "},{"poiid":"B2094654D469A4FD4892","title":"四海游龙 塔城路店 OVERSEAS DRAGON","lon":"121.25687","lat":"31.38441","category":"68","category_name":"快餐厅","address":"嘉定区塔城路277弄5号(近博乐路)"},{"poiid":"B2094757D16FABFE4393","title":"老北京涮羊肉","lon":"121.253798","lat":"31.382649","category":"86","category_name":"火锅店","address":"上海塔城路297号"},{"poiid":"B2094757D66DA4FA469B","title":"旺辉新概念川菜馆","lon":"121.253439653","lat":"31.3819433708","category":"247","category_name":"餐饮美食","address":"上海市嘉定区塔城路297号"},{"poiid":"B2094655D268A7FE489F","title":"博乐广场(东门)","lon":"121.25276","lat":"31.38445","category":"201","category_name":"城市广场","address":""},{"poiid":"B2094757D065AAFB449D","title":"南翔小笼孔庙店","lon":"121.25283","lat":"31.38017","category":"68","category_name":"快餐厅","address":"嘉定区南大街194号(近汇龙潭公园)"},{"poiid":"B2094757D66AABFF4592","title":"旺晖新概念川菜馆 塔城路店","lon":"121.255338054","lat":"31.383364793","category":"71","category_name":"四川菜","address":"嘉定区塔城路297号(近博乐路)"},{"poiid":"B2094654DB6AA6F5429A","title":"红豆","lon":"121.25209","lat":"31.38201","category":"257","category_name":"中餐厅","address":"南大街265"},{"poiid":"B2094655D268A1FC419D","title":"龙鑫火锅","lon":"121.25215","lat":"31.38106","category":"86","category_name":"火锅店","address":"嘉定区南大街202号二楼"},{"poiid":"B2094757DA65A5F5479C","title":"如家快捷酒店（上海嘉定塔城路店）","lon":"121.254622936","lat":"31.382667238","category":"216","category_name":"经济型连锁酒店","address":"上海市嘉定塔城路297号"},{"poiid":"B2094654DB69A5F8499A","title":"文峰美容美发(塔城路店)","lon":"121.2537","lat":"31.38245","category":"148","category_name":"美容美发店","address":"嘉定区塔城路309号"},{"poiid":"B2094753D369A2F8429C","title":"嘉定区博物馆","lon":"121.2532","lat":"31.38125","category":"182","category_name":"博物馆","address":"嘉定区嘉定镇南大街183号"},{"poiid":"B2094757D065A5FB4198","title":"永和豆浆","lon":"121.255464253","lat":"31.3833541909","category":"68","category_name":"快餐厅","address":"嘉定区塔城路(嘉定卫生局对面)"},{"poiid":"B2094750DB68A3FE429B","title":"东方绿洲","lon":"121.253097","lat":"31.380004","category":"47","category_name":"住宅区","address":null},{"poiid":"B2094655D36CA5F44198","title":"博乐路","lon":"121.25441","lat":"31.38303","category":"38","category_name":"公交车站","address":""},{"poiid":"B209475CDB65A7F8469C","title":"好牛烧肉专门店","lon":"121.254997","lat":"31.382223","category":"500","category_name":"未知分类","address":"上海市 塔城路295号"},{"poiid":"B2094654D469ABFC469E","title":"普通小学","lon":"121.25544","lat":"31.38451","category":"56","category_name":"小学","address":"嘉定区塔城路278号"},{"poiid":"B2094757D46EA3FB419D","title":"小宝饭店","lon":"121.254748","lat":"31.383024","category":"76","category_name":"上海菜","address":"嘉定区博乐路99号博乐广场附近(近小商品市场)"},{"poiid":"B2094654D469A2FC4198","title":"宜茶馆","lon":"121.251517054","lat":"31.381477793","category":"260","category_name":"其他","address":"嘉定区塔城路309号(嘉定孔庙斜对面)"},{"poiid":"B2094654D469A4FF499F","title":"三家村","lon":"121.253915054","lat":"31.379824793","category":"76","category_name":"上海菜","address":"嘉定区沙霞路78号(博乐路沙霞路)"},{"poiid":"B209475CDA6DA7F8479A","title":"斗牛士牛排馆嘉定塔城店","lon":"121.254608","lat":"31.380954","category":"500","category_name":"未知分类","address":"上海市 塔城路"},{"poiid":"B2094757D06BA7F44699","title":"塔城小区","lon":"121.25045","lat":"31.380217","category":"252","category_name":"楼宇机构","address":"塔城路341弄"},{"poiid":"B2094753D669A3FE489F","title":"糖先森甜品","lon":"121.250925","lat":"31.384502","category":"247","category_name":"餐饮美食","address":"上海市嘉定区北大街12号"},{"poiid":"B2094757D16FA5FA439E","title":"新招鲜","lon":"121.25481865","lat":"31.382960152","category":"500","category_name":"未知分类","address":"上海市嘉定区"},{"poiid":"B2094655D268A5FE469F","title":"泰宸汇金商务楼","lon":"121.25598","lat":"31.38115","category":"46","category_name":"楼宇","address":"金沙路75"},{"poiid":"B2094655D268A7F4439B","title":"汇龙谭公园(北二门)","lon":"121.25327","lat":"31.38217","category":"680","category_name":"楼宇机构","address":""},{"poiid":"B2094654DB6AA6F44199","title":"上岛咖啡(汇龙潭店)","lon":"121.25337","lat":"31.37992","category":"65","category_name":"咖啡厅","address":"嘉定区南大街157号(近汇龙潭公园)"},{"poiid":"B2094655D26BA2FA4899","title":"塔城路博乐路","lon":"121.25501","lat":"31.38339","category":"38","category_name":"公交车站","address":""},{"poiid":"B2094654D469A4FD469D","title":"快客NO.1168(浦发香舍东)","lon":"121.2546","lat":"31.3829","category":"117","category_name":"便民商店/便利店","address":""},{"poiid":"B2094752D26AA4FE4393","title":"添欢纯K","lon":"121.252394","lat":"31.384581","category":"248","category_name":"生活娱乐","address":"塔城路"},{"poiid":"B209475CDA6DA7FF479B","title":"斗牛士牛排馆","lon":"121.254585","lat":"31.380935","category":"247","category_name":"餐饮美食","address":"上海市 塔城路"},{"poiid":"B2094757D06FA0FB4499","title":"欧尚(嘉定店)","lon":"121.253868135","lat":"31.3835903591","category":"118","category_name":"超级市场","address":"嘉定区博乐路99号博乐广场对面(近塔城路)"},{"poiid":"B2094757D068A1F9419F","title":"汇龙潭","lon":"121.25354","lat":"31.38189","category":"196","category_name":"公园","address":"嘉定区沙霞路68号(近孔庙)"},{"poiid":"B2094654D469A0FF429E","title":"嘉定孔庙","lon":"121.25323","lat":"31.38096","category":"244","category_name":"寺庙道观","address":"地址：嘉定南大街183号"},{"poiid":"B2094654DB69ABF44392","title":"添欢夜昙(嘉定店)","lon":"121.25585","lat":"31.38365","category":"170","category_name":"KTV","address":"嘉定区塔城路297号(近博乐路)"},{"poiid":"B2094757D66BA7FD429F","title":"肯德基 博乐店 KFC","lon":"121.254760054","lat":"31.383034793","category":"68","category_name":"快餐厅","address":"嘉定区博乐路99号欧尚超市旁(近博乐广场)"},{"poiid":"B2094654D469A4FD4698","title":"榕港海鲜大酒楼(嘉定店)","lon":"121.2549486588955","lat":"31.382355724579902","category":"88","category_name":"海鲜酒楼","address":"嘉定区塔城路297-38号(近博乐路)"},{"poiid":"B2094757D069AAF9449C","title":"嘉定宾馆","lon":"121.253174","lat":"31.38382","category":"217","category_name":"旅馆招待所","address":"嘉定区博乐路100号(博乐路塔城路)"},{"poiid":"B2094654D469A4FD499A","title":"两岸咖啡嘉定店","lon":"121.25592","lat":"31.38369","category":"260","category_name":"其他","address":"嘉定区塔城路295号添欢夜昙旁(近博乐路)"},{"poiid":"B2094757D06AA3FD479C","title":"七欣天迷宗蟹","lon":"121.25685915","lat":"31.380669106","category":"86","category_name":"火锅店","address":"嘉定区博乐路85号(近中信银行)"},{"poiid":"B209475CDB6CA2F54892","title":"疁城新天地","lon":"121.255213","lat":"31.382237","category":"116","category_name":"特色商业街","address":"上海市 博乐路"},{"poiid":"B2094752D564A7FF499C","title":"江南公社","lon":"121.254337","lat":"31.383078","category":"247","category_name":"餐饮美食","address":"嘉定区塔城路297号-21-2楼"},{"poiid":"B2094751DA6AA5FF4593","title":"堂绘","lon":"121.252286","lat":"31.384854","category":"247","category_name":"餐饮美食","address":"上海市嘉定区博乐路东下塘街51号"},{"poiid":"B2094757D465A1FF449C","title":"故乡","lon":"121.25620269775","lat":"31.383838653564","category":"269","category_name":"烧烤","address":"嘉定区塔城路290号"},{"poiid":"B2094757D06BABFE4798","title":"村夫烤鱼(塔城路店)","lon":"121.25419","lat":"31.38403","category":"68","category_name":"快餐厅","address":"嘉定区博乐路99号欧尚超市侧门对面"},{"poiid":"B2094654D469A4FD489D","title":"浜名湖日本烧肉","lon":"121.25572","lat":"31.38358","category":"269","category_name":"烧烤","address":"嘉定区塔城路277弄2号(近博乐路)"},{"poiid":"B2094757D068AAFC4099","title":"蒙自过桥米线馆","lon":"121.25293","lat":"31.38502","category":"68","category_name":"快餐厅","address":"嘉定区东大街465号(北下塘街东大街)"},{"poiid":"B209475CD469A4F4469D","title":"星巴克（嘉定疁城国际店）","lon":"121.25518","lat":"31.383516","category":"500","category_name":"未知分类","address":"上海市 上海市嘉定区塔城路295号"},{"poiid":"B2094757D06AABFC489D","title":"新招鲜本地鸡窝(塔城路店)","lon":"121.256573653","lat":"31.3843191806","category":"86","category_name":"火锅店","address":"嘉定区塔城路283-6号(近金沙路)"},{"poiid":"B2094757DA69A2FA439A","title":"上海嘉定公馆","lon":"121.25336","lat":"31.38322","category":"72","category_name":"广东菜","address":"嘉定区博乐路100号(欧尚超市对面)"},{"poiid":"B2094757D169A2FE4299","title":"朝日屋","lon":"121.25375","lat":"31.38312","category":"95","category_name":"日本料理","address":"上海近郊嘉定区博乐路100号嘉定宾馆1楼(近塔城路)  "},{"poiid":"B2094654D469A4FD4892","title":"四海游龙 塔城路店 OVERSEAS DRAGON","lon":"121.25687","lat":"31.38441","category":"68","category_name":"快餐厅","address":"嘉定区塔城路277弄5号(近博乐路)"},{"poiid":"B2094757D16FABFE4393","title":"老北京涮羊肉","lon":"121.253798","lat":"31.382649","category":"86","category_name":"火锅店","address":"上海塔城路297号"},{"poiid":"B2094757D66DA4FA469B","title":"旺辉新概念川菜馆","lon":"121.253439653","lat":"31.3819433708","category":"247","category_name":"餐饮美食","address":"上海市嘉定区塔城路297号"},{"poiid":"B2094655D268A7FE489F","title":"博乐广场(东门)","lon":"121.25276","lat":"31.38445","category":"201","category_name":"城市广场","address":""},{"poiid":"B2094757D065AAFB449D","title":"南翔小笼孔庙店","lon":"121.25283","lat":"31.38017","category":"68","category_name":"快餐厅","address":"嘉定区南大街194号(近汇龙潭公园)"},{"poiid":"B2094757D66AABFF4592","title":"旺晖新概念川菜馆 塔城路店","lon":"121.255338054","lat":"31.383364793","category":"71","category_name":"四川菜","address":"嘉定区塔城路297号(近博乐路)"},{"poiid":"B2094654DB6AA6F5429A","title":"红豆","lon":"121.25209","lat":"31.38201","category":"257","category_name":"中餐厅","address":"南大街265"},{"poiid":"B2094655D268A1FC419D","title":"龙鑫火锅","lon":"121.25215","lat":"31.38106","category":"86","category_name":"火锅店","address":"嘉定区南大街202号二楼"},{"poiid":"B2094757DA65A5F5479C","title":"如家快捷酒店（上海嘉定塔城路店）","lon":"121.254622936","lat":"31.382667238","category":"216","category_name":"经济型连锁酒店","address":"上海市嘉定塔城路297号"},{"poiid":"B2094654DB69A5F8499A","title":"文峰美容美发(塔城路店)","lon":"121.2537","lat":"31.38245","category":"148","category_name":"美容美发店","address":"嘉定区塔城路309号"},{"poiid":"B2094753D369A2F8429C","title":"嘉定区博物馆","lon":"121.2532","lat":"31.38125","category":"182","category_name":"博物馆","address":"嘉定区嘉定镇南大街183号"},{"poiid":"B2094757D065A5FB4198","title":"永和豆浆","lon":"121.255464253","lat":"31.3833541909","category":"68","category_name":"快餐厅","address":"嘉定区塔城路(嘉定卫生局对面)"},{"poiid":"B2094750DB68A3FE429B","title":"东方绿洲","lon":"121.253097","lat":"31.380004","category":"47","category_name":"住宅区","address":null},{"poiid":"B2094655D36CA5F44198","title":"博乐路","lon":"121.25441","lat":"31.38303","category":"38","category_name":"公交车站","address":""},{"poiid":"B209475CDB65A7F8469C","title":"好牛烧肉专门店","lon":"121.254997","lat":"31.382223","category":"500","category_name":"未知分类","address":"上海市 塔城路295号"},{"poiid":"B2094654D469ABFC469E","title":"普通小学","lon":"121.25544","lat":"31.38451","category":"56","category_name":"小学","address":"嘉定区塔城路278号"},{"poiid":"B2094757D46EA3FB419D","title":"小宝饭店","lon":"121.254748","lat":"31.383024","category":"76","category_name":"上海菜","address":"嘉定区博乐路99号博乐广场附近(近小商品市场)"},{"poiid":"B2094654D469A2FC4198","title":"宜茶馆","lon":"121.251517054","lat":"31.381477793","category":"260","category_name":"其他","address":"嘉定区塔城路309号(嘉定孔庙斜对面)"},{"poiid":"B2094654D469A4FF499F","title":"三家村","lon":"121.253915054","lat":"31.379824793","category":"76","category_name":"上海菜","address":"嘉定区沙霞路78号(博乐路沙霞路)"},{"poiid":"B209475CDA6DA7F8479A","title":"斗牛士牛排馆嘉定塔城店","lon":"121.254608","lat":"31.380954","category":"500","category_name":"未知分类","address":"上海市 塔城路"},{"poiid":"B2094757D06BA7F44699","title":"塔城小区","lon":"121.25045","lat":"31.380217","category":"252","category_name":"楼宇机构","address":"塔城路341弄"},{"poiid":"B2094753D669A3FE489F","title":"糖先森甜品","lon":"121.250925","lat":"31.384502","category":"247","category_name":"餐饮美食","address":"上海市嘉定区北大街12号"},{"poiid":"B2094757D16FA5FA439E","title":"新招鲜","lon":"121.25481865","lat":"31.382960152","category":"500","category_name":"未知分类","address":"上海市嘉定区"},{"poiid":"B2094655D268A5FE469F","title":"泰宸汇金商务楼","lon":"121.25598","lat":"31.38115","category":"46","category_name":"楼宇","address":"金沙路75"},{"poiid":"B2094655D268A7F4439B","title":"汇龙谭公园(北二门)","lon":"121.25327","lat":"31.38217","category":"680","category_name":"楼宇机构","address":""},{"poiid":"B2094654DB6AA6F44199","title":"上岛咖啡(汇龙潭店)","lon":"121.25337","lat":"31.37992","category":"65","category_name":"咖啡厅","address":"嘉定区南大街157号(近汇龙潭公园)"},{"poiid":"B2094655D26BA2FA4899","title":"塔城路博乐路","lon":"121.25501","lat":"31.38339","category":"38","category_name":"公交车站","address":""},{"poiid":"B2094654D469A4FD469D","title":"快客NO.1168(浦发香舍东)","lon":"121.2546","lat":"31.3829","category":"117","category_name":"便民商店/便利店","address":""},{"poiid":"B2094752D26AA4FE4393","title":"添欢纯K","lon":"121.252394","lat":"31.384581","category":"248","category_name":"生活娱乐","address":"塔城路"},{"poiid":"B209475CDA6DA7FF479B","title":"斗牛士牛排馆","lon":"121.254585","lat":"31.380935","category":"247","category_name":"餐饮美食","address":"上海市 塔城路"},{"poiid":"B2094757D06FA0FB4499","title":"欧尚(嘉定店)","lon":"121.253868135","lat":"31.3835903591","category":"118","category_name":"超级市场","address":"嘉定区博乐路99号博乐广场对面(近塔城路)"},{"poiid":"B2094757D068A1F9419F","title":"汇龙潭","lon":"121.25354","lat":"31.38189","category":"196","category_name":"公园","address":"嘉定区沙霞路68号(近孔庙)"},{"poiid":"B2094654D469A0FF429E","title":"嘉定孔庙","lon":"121.25323","lat":"31.38096","category":"244","category_name":"寺庙道观","address":"地址：嘉定南大街183号"},{"poiid":"B2094654DB69ABF44392","title":"添欢夜昙(嘉定店)","lon":"121.25585","lat":"31.38365","category":"170","category_name":"KTV","address":"嘉定区塔城路297号(近博乐路)"},{"poiid":"B2094757D66BA7FD429F","title":"肯德基 博乐店 KFC","lon":"121.254760054","lat":"31.383034793","category":"68","category_name":"快餐厅","address":"嘉定区博乐路99号欧尚超市旁(近博乐广场)"},{"poiid":"B2094654D469A4FD4698","title":"榕港海鲜大酒楼(嘉定店)","lon":"121.2549486588955","lat":"31.382355724579902","category":"88","category_name":"海鲜酒楼","address":"嘉定区塔城路297-38号(近博乐路)"},{"poiid":"B2094757D069AAF9449C","title":"嘉定宾馆","lon":"121.253174","lat":"31.38382","category":"217","category_name":"旅馆招待所","address":"嘉定区博乐路100号(博乐路塔城路)"},{"poiid":"B2094654D469A4FD499A","title":"两岸咖啡嘉定店","lon":"121.25592","lat":"31.38369","category":"260","category_name":"其他","address":"嘉定区塔城路295号添欢夜昙旁(近博乐路)"},{"poiid":"B2094757D06AA3FD479C","title":"七欣天迷宗蟹","lon":"121.25685915","lat":"31.380669106","category":"86","category_name":"火锅店","address":"嘉定区博乐路85号(近中信银行)"},{"poiid":"B209475CDB6CA2F54892","title":"疁城新天地","lon":"121.255213","lat":"31.382237","category":"116","category_name":"特色商业街","address":"上海市 博乐路"},{"poiid":"B2094752D564A7FF499C","title":"江南公社","lon":"121.254337","lat":"31.383078","category":"247","category_name":"餐饮美食","address":"嘉定区塔城路297号-21-2楼"},{"poiid":"B2094751DA6AA5FF4593","title":"堂绘","lon":"121.252286","lat":"31.384854","category":"247","category_name":"餐饮美食","address":"上海市嘉定区博乐路东下塘街51号"},{"poiid":"B2094757D465A1FF449C","title":"故乡","lon":"121.25620269775","lat":"31.383838653564","category":"269","category_name":"烧烤","address":"嘉定区塔城路290号"},{"poiid":"B2094757D06BABFE4798","title":"村夫烤鱼(塔城路店)","lon":"121.25419","lat":"31.38403","category":"68","category_name":"快餐厅","address":"嘉定区博乐路99号欧尚超市侧门对面"},{"poiid":"B2094654D469A4FD489D","title":"浜名湖日本烧肉","lon":"121.25572","lat":"31.38358","category":"269","category_name":"烧烤","address":"嘉定区塔城路277弄2号(近博乐路)"},{"poiid":"B2094757D068AAFC4099","title":"蒙自过桥米线馆","lon":"121.25293","lat":"31.38502","category":"68","category_name":"快餐厅","address":"嘉定区东大街465号(北下塘街东大街)"},{"poiid":"B209475CD469A4F4469D","title":"星巴克（嘉定疁城国际店）","lon":"121.25518","lat":"31.383516","category":"500","category_name":"未知分类","address":"上海市 上海市嘉定区塔城路295号"},{"poiid":"B2094757D06AABFC489D","title":"新招鲜本地鸡窝(塔城路店)","lon":"121.256573653","lat":"31.3843191806","category":"86","category_name":"火锅店","address":"嘉定区塔城路283-6号(近金沙路)"},{"poiid":"B2094757DA69A2FA439A","title":"上海嘉定公馆","lon":"121.25336","lat":"31.38322","category":"72","category_name":"广东菜","address":"嘉定区博乐路100号(欧尚超市对面)"},{"poiid":"B2094757D169A2FE4299","title":"朝日屋","lon":"121.25375","lat":"31.38312","category":"95","category_name":"日本料理","address":"上海近郊嘉定区博乐路100号嘉定宾馆1楼(近塔城路)  "},{"poiid":"B2094654D469A4FD4892","title":"四海游龙 塔城路店 OVERSEAS DRAGON","lon":"121.25687","lat":"31.38441","category":"68","category_name":"快餐厅","address":"嘉定区塔城路277弄5号(近博乐路)"},{"poiid":"B2094757D16FABFE4393","title":"老北京涮羊肉","lon":"121.253798","lat":"31.382649","category":"86","category_name":"火锅店","address":"上海塔城路297号"},{"poiid":"B2094757D66DA4FA469B","title":"旺辉新概念川菜馆","lon":"121.253439653","lat":"31.3819433708","category":"247","category_name":"餐饮美食","address":"上海市嘉定区塔城路297号"},{"poiid":"B2094655D268A7FE489F","title":"博乐广场(东门)","lon":"121.25276","lat":"31.38445","category":"201","category_name":"城市广场","address":""},{"poiid":"B2094757D065AAFB449D","title":"南翔小笼孔庙店","lon":"121.25283","lat":"31.38017","category":"68","category_name":"快餐厅","address":"嘉定区南大街194号(近汇龙潭公园)"},{"poiid":"B2094757D66AABFF4592","title":"旺晖新概念川菜馆 塔城路店","lon":"121.255338054","lat":"31.383364793","category":"71","category_name":"四川菜","address":"嘉定区塔城路297号(近博乐路)"},{"poiid":"B2094654DB6AA6F5429A","title":"红豆","lon":"121.25209","lat":"31.38201","category":"257","category_name":"中餐厅","address":"南大街265"},{"poiid":"B2094655D268A1FC419D","title":"龙鑫火锅","lon":"121.25215","lat":"31.38106","category":"86","category_name":"火锅店","address":"嘉定区南大街202号二楼"},{"poiid":"B2094757DA65A5F5479C","title":"如家快捷酒店（上海嘉定塔城路店）","lon":"121.254622936","lat":"31.382667238","category":"216","category_name":"经济型连锁酒店","address":"上海市嘉定塔城路297号"},{"poiid":"B2094654DB69A5F8499A","title":"文峰美容美发(塔城路店)","lon":"121.2537","lat":"31.38245","category":"148","category_name":"美容美发店","address":"嘉定区塔城路309号"},{"poiid":"B2094753D369A2F8429C","title":"嘉定区博物馆","lon":"121.2532","lat":"31.38125","category":"182","category_name":"博物馆","address":"嘉定区嘉定镇南大街183号"},{"poiid":"B2094757D065A5FB4198","title":"永和豆浆","lon":"121.255464253","lat":"31.3833541909","category":"68","category_name":"快餐厅","address":"嘉定区塔城路(嘉定卫生局对面)"},{"poiid":"B2094750DB68A3FE429B","title":"东方绿洲","lon":"121.253097","lat":"31.380004","category":"47","category_name":"住宅区","address":null},{"poiid":"B2094655D36CA5F44198","title":"博乐路","lon":"121.25441","lat":"31.38303","category":"38","category_name":"公交车站","address":""},{"poiid":"B209475CDB65A7F8469C","title":"好牛烧肉专门店","lon":"121.254997","lat":"31.382223","category":"500","category_name":"未知分类","address":"上海市 塔城路295号"},{"poiid":"B2094654D469ABFC469E","title":"普通小学","lon":"121.25544","lat":"31.38451","category":"56","category_name":"小学","address":"嘉定区塔城路278号"},{"poiid":"B2094757D46EA3FB419D","title":"小宝饭店","lon":"121.254748","lat":"31.383024","category":"76","category_name":"上海菜","address":"嘉定区博乐路99号博乐广场附近(近小商品市场)"},{"poiid":"B2094654D469A2FC4198","title":"宜茶馆","lon":"121.251517054","lat":"31.381477793","category":"260","category_name":"其他","address":"嘉定区塔城路309号(嘉定孔庙斜对面)"},{"poiid":"B2094654D469A4FF499F","title":"三家村","lon":"121.253915054","lat":"31.379824793","category":"76","category_name":"上海菜","address":"嘉定区沙霞路78号(博乐路沙霞路)"},{"poiid":"B209475CDA6DA7F8479A","title":"斗牛士牛排馆嘉定塔城店","lon":"121.254608","lat":"31.380954","category":"500","category_name":"未知分类","address":"上海市 塔城路"},{"poiid":"B2094757D06BA7F44699","title":"塔城小区","lon":"121.25045","lat":"31.380217","category":"252","category_name":"楼宇机构","address":"塔城路341弄"},{"poiid":"B2094753D669A3FE489F","title":"糖先森甜品","lon":"121.250925","lat":"31.384502","category":"247","category_name":"餐饮美食","address":"上海市嘉定区北大街12号"},{"poiid":"B2094757D16FA5FA439E","title":"新招鲜","lon":"121.25481865","lat":"31.382960152","category":"500","category_name":"未知分类","address":"上海市嘉定区"},{"poiid":"B2094655D268A5FE469F","title":"泰宸汇金商务楼","lon":"121.25598","lat":"31.38115","category":"46","category_name":"楼宇","address":"金沙路75"},{"poiid":"B2094655D268A7F4439B","title":"汇龙谭公园(北二门)","lon":"121.25327","lat":"31.38217","category":"680","category_name":"楼宇机构","address":""},{"poiid":"B2094654DB6AA6F44199","title":"上岛咖啡(汇龙潭店)","lon":"121.25337","lat":"31.37992","category":"65","category_name":"咖啡厅","address":"嘉定区南大街157号(近汇龙潭公园)"},{"poiid":"B2094655D26BA2FA4899","title":"塔城路博乐路","lon":"121.25501","lat":"31.38339","category":"38","category_name":"公交车站","address":""},{"poiid":"B2094654D469A4FD469D","title":"快客NO.1168(浦发香舍东)","lon":"121.2546","lat":"31.3829","category":"117","category_name":"便民商店/便利店","address":""},{"poiid":"B2094752D26AA4FE4393","title":"添欢纯K","lon":"121.252394","lat":"31.384581","category":"248","category_name":"生活娱乐","address":"塔城路"},{"poiid":"B209475CDA6DA7FF479B","title":"斗牛士牛排馆","lon":"121.254585","lat":"31.380935","category":"247","category_name":"餐饮美食","address":"上海市 塔城路"},{"poiid":"B2094757D06FA0FB4499","title":"欧尚(嘉定店)","lon":"121.253868135","lat":"31.3835903591","category":"118","category_name":"超级市场","address":"嘉定区博乐路99号博乐广场对面(近塔城路)"},{"poiid":"B2094757D068A1F9419F","title":"汇龙潭","lon":"121.25354","lat":"31.38189","category":"196","category_name":"公园","address":"嘉定区沙霞路68号(近孔庙)"},{"poiid":"B2094654D469A0FF429E","title":"嘉定孔庙","lon":"121.25323","lat":"31.38096","category":"244","category_name":"寺庙道观","address":"地址：嘉定南大街183号"},{"poiid":"B2094654DB69ABF44392","title":"添欢夜昙(嘉定店)","lon":"121.25585","lat":"31.38365","category":"170","category_name":"KTV","address":"嘉定区塔城路297号(近博乐路)"},{"poiid":"B2094757D66BA7FD429F","title":"肯德基 博乐店 KFC","lon":"121.254760054","lat":"31.383034793","category":"68","category_name":"快餐厅","address":"嘉定区博乐路99号欧尚超市旁(近博乐广场)"},{"poiid":"B2094654D469A4FD4698","title":"榕港海鲜大酒楼(嘉定店)","lon":"121.2549486588955","lat":"31.382355724579902","category":"88","category_name":"海鲜酒楼","address":"嘉定区塔城路297-38号(近博乐路)"},{"poiid":"B2094757D069AAF9449C","title":"嘉定宾馆","lon":"121.253174","lat":"31.38382","category":"217","category_name":"旅馆招待所","address":"嘉定区博乐路100号(博乐路塔城路)"},{"poiid":"B2094654D469A4FD499A","title":"两岸咖啡嘉定店","lon":"121.25592","lat":"31.38369","category":"260","category_name":"其他","address":"嘉定区塔城路295号添欢夜昙旁(近博乐路)"},{"poiid":"B2094757D06AA3FD479C","title":"七欣天迷宗蟹","lon":"121.25685915","lat":"31.380669106","category":"86","category_name":"火锅店","address":"嘉定区博乐路85号(近中信银行)"},{"poiid":"B209475CDB6CA2F54892","title":"疁城新天地","lon":"121.255213","lat":"31.382237","category":"116","category_name":"特色商业街","address":"上海市 博乐路"},{"poiid":"B2094752D564A7FF499C","title":"江南公社","lon":"121.254337","lat":"31.383078","category":"247","category_name":"餐饮美食","address":"嘉定区塔城路297号-21-2楼"},{"poiid":"B2094751DA6AA5FF4593","title":"堂绘","lon":"121.252286","lat":"31.384854","category":"247","category_name":"餐饮美食","address":"上海市嘉定区博乐路东下塘街51号"},{"poiid":"B2094757D465A1FF449C","title":"故乡","lon":"121.25620269775","lat":"31.383838653564","category":"269","category_name":"烧烤","address":"嘉定区塔城路290号"},{"poiid":"B2094757D06BABFE4798","title":"村夫烤鱼(塔城路店)","lon":"121.25419","lat":"31.38403","category":"68","category_name":"快餐厅","address":"嘉定区博乐路99号欧尚超市侧门对面"},{"poiid":"B2094654D469A4FD489D","title":"浜名湖日本烧肉","lon":"121.25572","lat":"31.38358","category":"269","category_name":"烧烤","address":"嘉定区塔城路277弄2号(近博乐路)"},{"poiid":"B2094757D068AAFC4099","title":"蒙自过桥米线馆","lon":"121.25293","lat":"31.38502","category":"68","category_name":"快餐厅","address":"嘉定区东大街465号(北下塘街东大街)"},{"poiid":"B209475CD469A4F4469D","title":"星巴克（嘉定疁城国际店）","lon":"121.25518","lat":"31.383516","category":"500","category_name":"未知分类","address":"上海市 上海市嘉定区塔城路295号"},{"poiid":"B2094757D06AABFC489D","title":"新招鲜本地鸡窝(塔城路店)","lon":"121.256573653","lat":"31.3843191806","category":"86","category_name":"火锅店","address":"嘉定区塔城路283-6号(近金沙路)"},{"poiid":"B2094757DA69A2FA439A","title":"上海嘉定公馆","lon":"121.25336","lat":"31.38322","category":"72","category_name":"广东菜","address":"嘉定区博乐路100号(欧尚超市对面)"},{"poiid":"B2094757D169A2FE4299","title":"朝日屋","lon":"121.25375","lat":"31.38312","category":"95","category_name":"日本料理","address":"上海近郊嘉定区博乐路100号嘉定宾馆1楼(近塔城路)  "},{"poiid":"B2094654D469A4FD4892","title":"四海游龙 塔城路店 OVERSEAS DRAGON","lon":"121.25687","lat":"31.38441","category":"68","category_name":"快餐厅","address":"嘉定区塔城路277弄5号(近博乐路)"},{"poiid":"B2094757D16FABFE4393","title":"老北京涮羊肉","lon":"121.253798","lat":"31.382649","category":"86","category_name":"火锅店","address":"上海塔城路297号"},{"poiid":"B2094757D66DA4FA469B","title":"旺辉新概念川菜馆","lon":"121.253439653","lat":"31.3819433708","category":"247","category_name":"餐饮美食","address":"上海市嘉定区塔城路297号"},{"poiid":"B2094655D268A7FE489F","title":"博乐广场(东门)","lon":"121.25276","lat":"31.38445","category":"201","category_name":"城市广场","address":""},{"poiid":"B2094757D065AAFB449D","title":"南翔小笼孔庙店","lon":"121.25283","lat":"31.38017","category":"68","category_name":"快餐厅","address":"嘉定区南大街194号(近汇龙潭公园)"},{"poiid":"B2094757D66AABFF4592","title":"旺晖新概念川菜馆 塔城路店","lon":"121.255338054","lat":"31.383364793","category":"71","category_name":"四川菜","address":"嘉定区塔城路297号(近博乐路)"},{"poiid":"B2094654DB6AA6F5429A","title":"红豆","lon":"121.25209","lat":"31.38201","category":"257","category_name":"中餐厅","address":"南大街265"},{"poiid":"B2094655D268A1FC419D","title":"龙鑫火锅","lon":"121.25215","lat":"31.38106","category":"86","category_name":"火锅店","address":"嘉定区南大街202号二楼"},{"poiid":"B2094757DA65A5F5479C","title":"如家快捷酒店（上海嘉定塔城路店）","lon":"121.254622936","lat":"31.382667238","category":"216","category_name":"经济型连锁酒店","address":"上海市嘉定塔城路297号"},{"poiid":"B2094654DB69A5F8499A","title":"文峰美容美发(塔城路店)","lon":"121.2537","lat":"31.38245","category":"148","category_name":"美容美发店","address":"嘉定区塔城路309号"},{"poiid":"B2094753D369A2F8429C","title":"嘉定区博物馆","lon":"121.2532","lat":"31.38125","category":"182","category_name":"博物馆","address":"嘉定区嘉定镇南大街183号"},{"poiid":"B2094757D065A5FB4198","title":"永和豆浆","lon":"121.255464253","lat":"31.3833541909","category":"68","category_name":"快餐厅","address":"嘉定区塔城路(嘉定卫生局对面)"},{"poiid":"B2094750DB68A3FE429B","title":"东方绿洲","lon":"121.253097","lat":"31.380004","category":"47","category_name":"住宅区","address":null},{"poiid":"B2094655D36CA5F44198","title":"博乐路","lon":"121.25441","lat":"31.38303","category":"38","category_name":"公交车站","address":""},{"poiid":"B209475CDB65A7F8469C","title":"好牛烧肉专门店","lon":"121.254997","lat":"31.382223","category":"500","category_name":"未知分类","address":"上海市 塔城路295号"},{"poiid":"B2094654D469ABFC469E","title":"普通小学","lon":"121.25544","lat":"31.38451","category":"56","category_name":"小学","address":"嘉定区塔城路278号"},{"poiid":"B2094757D46EA3FB419D","title":"小宝饭店","lon":"121.254748","lat":"31.383024","category":"76","category_name":"上海菜","address":"嘉定区博乐路99号博乐广场附近(近小商品市场)"},{"poiid":"B2094654D469A2FC4198","title":"宜茶馆","lon":"121.251517054","lat":"31.381477793","category":"260","category_name":"其他","address":"嘉定区塔城路309号(嘉定孔庙斜对面)"},{"poiid":"B2094654D469A4FF499F","title":"三家村","lon":"121.253915054","lat":"31.379824793","category":"76","category_name":"上海菜","address":"嘉定区沙霞路78号(博乐路沙霞路)"},{"poiid":"B209475CDA6DA7F8479A","title":"斗牛士牛排馆嘉定塔城店","lon":"121.254608","lat":"31.380954","category":"500","category_name":"未知分类","address":"上海市 塔城路"},{"poiid":"B2094757D06BA7F44699","title":"塔城小区","lon":"121.25045","lat":"31.380217","category":"252","category_name":"楼宇机构","address":"塔城路341弄"},{"poiid":"B2094753D669A3FE489F","title":"糖先森甜品","lon":"121.250925","lat":"31.384502","category":"247","category_name":"餐饮美食","address":"上海市嘉定区北大街12号"},{"poiid":"B2094757D16FA5FA439E","title":"新招鲜","lon":"121.25481865","lat":"31.382960152","category":"500","category_name":"未知分类","address":"上海市嘉定区"},{"poiid":"B2094655D268A5FE469F","title":"泰宸汇金商务楼","lon":"121.25598","lat":"31.38115","category":"46","category_name":"楼宇","address":"金沙路75"},{"poiid":"B2094655D268A7F4439B","title":"汇龙谭公园(北二门)","lon":"121.25327","lat":"31.38217","category":"680","category_name":"楼宇机构","address":""},{"poiid":"B2094654DB6AA6F44199","title":"上岛咖啡(汇龙潭店)","lon":"121.25337","lat":"31.37992","category":"65","category_name":"咖啡厅","address":"嘉定区南大街157号(近汇龙潭公园)"},{"poiid":"B2094655D26BA2FA4899","title":"塔城路博乐路","lon":"121.25501","lat":"31.38339","category":"38","category_name":"公交车站","address":""},{"poiid":"B2094654D469A4FD469D","title":"快客NO.1168(浦发香舍东)","lon":"121.2546","lat":"31.3829","category":"117","category_name":"便民商店/便利店","address":""},{"poiid":"B2094752D26AA4FE4393","title":"添欢纯K","lon":"121.252394","lat":"31.384581","category":"248","category_name":"生活娱乐","address":"塔城路"},{"poiid":"B209475CDA6DA7FF479B","title":"斗牛士牛排馆","lon":"121.254585","lat":"31.380935","category":"247","category_name":"餐饮美食","address":"上海市 塔城路"}]