[{"poiid":"B2094757D06FA0FC4193","title":"三宝粥铺","lon":"121.480977","lat":"31.22688","category":"68","category_name":"快餐厅","address":"黄浦区金陵东路569号汇都国际2楼(近西藏南路)"},{"poiid":"B2094757D06EABF54499","title":"鼎辣重庆老火锅店","lon":"121.480830738","lat":"31.2271672348","category":"86","category_name":"火锅店","address":"黄浦区金陵东路460号撰食城3楼(近云南南路预计7月30日营业)"},{"poiid":"B2094654DB64A4FC449E","title":"三人行骨头王火锅(浙江路店)","lon":"121.48163","lat":"31.22993","category":"86","category_name":"火锅店","address":"黄浦区浙江南路8号(近延安东路)"},{"poiid":"B2094753D76FAAFA449C","title":"上海滩国泰旗舰店","lon":"121.466011","lat":"31.216125","category":"249","category_name":"购物服务","address":"淮海中路868号"},{"poiid":"B209475CD564A7F84292","title":"上海滩新天地店","lon":"121.47463","lat":"31.22164","category":"119","category_name":"商场","address":"\"太仓路181弄新天地北里15号\r\n\""},{"poiid":"B209475CD564A7F8439E","title":"上海滩中信泰富店","lon":"121.45602","lat":"31.22851","category":"119","category_name":"商场","address":"\"南京西路1168号中信泰富广场，店铺号221.\r\n\""},{"poiid":"B209475CD564A7F84392","title":"上海滩浦东香格里拉店","lon":"121.50058","lat":"31.23634","category":"119","category_name":"商场","address":"浦东富成路33号香格里拉酒店内大堂层"},{"poiid":"B2094654DB69A4F4479D","title":"纯k（浙江路店）","lon":"121.48193","lat":"31.22918","category":"170","category_name":"KTV","address":"黄浦区浙江南路68号(近宁海东路)"},{"poiid":"B2094757D06EAAF8459D","title":"月圆火锅(宁海东路一店)","lon":"121.48041","lat":"31.22789","category":"86","category_name":"火锅店","address":"黄浦区宁海东路270号(云南南路口)"},{"poiid":"B2094750DA68ABFE4898","title":"台北纯K(浙江路店)","lon":"121.482363726181","lat":"31.2290736899797","category":"170","category_name":"KTV","address":"黄浦区浙江南路68号(宁海东路口)"},{"poiid":"B2094752D265A7F9459D","title":"阿姨奶茶专卖","lon":"121.480883","lat":"31.227716","category":"247","category_name":"餐饮美食","address":"黄浦区云南南路79号(近金陵东路)"},{"poiid":"B2094757D06FA1FA419A","title":"洪长兴羊肉馆(云南南路店)","lon":"121.48008","lat":"31.22884","category":"86","category_name":"火锅店","address":"黄浦区云南南路1号(近延安东路)"},{"poiid":"B2094757D06FA2FE459D","title":"小绍兴(云南店)","lon":"121.480623106","lat":"31.2279221135","category":"68","category_name":"快餐厅","address":"黄浦区云南南路69-75号(近宁海东路)"},{"poiid":"B2094757D06EAAF5419D","title":"重庆小天鹅(云南南路店)","lon":"121.481","lat":"31.22718","category":"86","category_name":"火锅店","address":"黄浦区云南南路118号朗润商务楼4楼(近金陵东路)"},{"poiid":"B2094757D06FA1FB409B","title":"新梅居(云南南路店)","lon":"121.47999","lat":"31.22838","category":"86","category_name":"火锅店","address":"黄浦区云南南路16号(近延安路)"},{"poiid":"B2094757D06FA3FA4192","title":"瑞安广场","lon":"121.481","lat":"31.2284","category":"119","category_name":"商场","address":"格林SOHO位于和平十三纬路云集街10号甲(东北炊具城西侧)"},{"poiid":"B2094655D26AABFD4699","title":"三顾牛蛙馆西藏南路店","lon":"121.48091","lat":"31.22694","category":"71","category_name":"四川菜","address":"黄浦区金陵东路569号汇都大厦302室(近西藏南路)"},{"poiid":"B2094655D26BA6FB439D","title":"豆捞坊(金陵东路店)","lon":"121.48094","lat":"31.22696","category":"86","category_name":"火锅店","address":"黄浦区金陵东路569号汇通大厦3楼(近西藏南路)"},{"poiid":"B2094757D06FA2F8419B","title":"燕云楼(云南路店)","lon":"121.480266825","lat":"31.2279954151","category":"260","category_name":"其他","address":"黄浦区云南南路100号(宁海东路口)"},{"poiid":"B2094757D06FA2F5469D","title":"大壶春(云南南路店)","lon":"121.48114","lat":"31.2273","category":"68","category_name":"快餐厅","address":"黄浦区云南南路71号(近金陵东路)"},{"poiid":"B209475DD265A2FD469C","title":"很久以前只是家串店","lon":"121.481468","lat":"31.22673","category":"257","category_name":"中餐厅","address":"上海市 云南南路180号"},{"poiid":"B2094655D268A5FB4092","title":"云南南路美食街","lon":"121.4807","lat":"31.22771","category":"116","category_name":"特色商业街","address":""},{"poiid":"B2094757D06FA1F54598","title":"德兴馆(金陵路店)","lon":"121.48173","lat":"31.2273","category":"76","category_name":"上海菜","address":"黄浦区金陵东路416号1楼(广西南路金陵东路)"},{"poiid":"B2094757D068A4FD469A","title":"金陵东路浙江南路","lon":"121.482636","lat":"31.22811","category":"38","category_name":"公交车站","address":"上海金陵东路浙江南路"},{"poiid":"B2094757D16DA6F84098","title":"彩云南","lon":"121.480391738","lat":"31.2282712583","category":"68","category_name":"快餐厅","address":"黄浦区云南南路51号(近宁海东路)"},{"poiid":"B2094752D16CA2FB429B","title":"阿姨奶茶","lon":"121.480652","lat":"31.22702","category":"247","category_name":"餐饮美食","address":"云南南路79号"},{"poiid":"B2094757D068A6FF4598","title":"延福绿地篮球场","lon":"121.48202","lat":"31.22915","category":"220","category_name":"运动场所","address":"黄浦区延安东路(近福建南路)"},{"poiid":"B2094753D464A1FE4593","title":"HOUSE浩思音乐餐厅","lon":"121.480857","lat":"31.227321","category":"247","category_name":"餐饮美食","address":"黄浦区金陵东路460号撰食城3楼(近云南南路)"},{"poiid":"B2094757D06FA1FC449A","title":"港东盛宴","lon":"121.480747","lat":"31.226876","category":"72","category_name":"广东菜","address":"黄浦区金陵东路621号(近西藏南路)"},{"poiid":"B2094757D068A4F5459E","title":"ONLY ONE日式造型","lon":"121.48077","lat":"31.22814","category":"148","category_name":"美容美发店","address":"上海黄浦区宁海东路262号(近云南南路)  "},{"poiid":"B2094757D464A5F9489C","title":"小金陵盐水鸭店","lon":"121.4800955317","lat":"31.228691491158","category":"68","category_name":"快餐厅","address":"黄浦区云南南路55号(近宁海东路)"},{"poiid":"B2094757D065A3FA459B","title":"萨莉亚(金陵东路店)","lon":"121.4805939","lat":"31.2270441","category":"94","category_name":"西餐厅","address":"黄浦区金陵东路450-464号2楼(近西藏南路)"},{"poiid":"B2094752D768AAFF4398","title":"阿宝炸猪排","lon":"121.480561","lat":"31.227032","category":"247","category_name":"餐饮美食","address":"云南南路95号"},{"poiid":"B2094750D76DA7FD429C","title":"宝寿司(广西南路店)","lon":"121.482","lat":"31.2267","category":"95","category_name":"日本料理","address":"黄浦区广西南路98号(近淮海东路)"},{"poiid":"B2094757D064A7FA449D","title":"群力中医门诊部","lon":"121.48233","lat":"31.22767","category":"162","category_name":"医院","address":"上海黄浦区金陵东路396号  "},{"poiid":"B2094654DB6AA6FF4492","title":"上海新黄浦酒店公寓","lon":"121.48145","lat":"31.22835","category":"214","category_name":"四星级宾馆","address":"浦发绿城位于浦东浦发绿城永泰路2079弄"},{"poiid":"B2094757D06AA2FD4299","title":"舟山海鲜","lon":"121.480024654","lat":"31.228309393","category":"75","category_name":"浙江菜","address":"黄浦区云南南路48号(近宁海路)"},{"poiid":"B2094750D76EA7FF469A","title":"云南南路炸猪排","lon":"121.481","lat":"31.2278","category":"68","category_name":"快餐厅","address":"黄浦区云南南路111弄内(近金陵东路)"},{"poiid":"B2094757D06AAAF54992","title":"组合发型(金陵东路店)","lon":"121.48051","lat":"31.22704","category":"148","category_name":"美容美发店","address":"上海黄浦区金陵东路500号(近西藏南路)"},{"poiid":"B2094757D56EA6F8409E","title":"大麦售票处（宁海路申鑫大厦）","lon":"121.48169875145","lat":"31.2291054861415","category":"248","category_name":"生活娱乐","address":"上海市黄浦区宁海东路200号8楼"},{"poiid":"B2094655D26AA1F44392","title":"明堂青年旅舍","lon":"121.48131","lat":"31.22923","category":"217","category_name":"旅馆招待所","address":"黄浦区永寿路35号(近延安东路)"},{"poiid":"B2094654DB64ABFC4592","title":"新世界假日豪都酒店","lon":"121.48165","lat":"31.22786","category":"250","category_name":"公园户外","address":"黄浦区广西南路41号(近金陵东路)"},{"poiid":"B2094757D068A3FD469A","title":"埃洛美甲","lon":"121.482538","lat":"31.229008","category":"149","category_name":"洗浴推拿场所","address":"上海浙江南路69号"},{"poiid":"B2094655D26AAAFA4492","title":"上游社会桌游俱乐部","lon":"121.48243","lat":"31.22873","category":"248","category_name":"生活娱乐","address":"黄浦区浙江南路88号东新大厦216商铺(近宁海东路)"},{"poiid":"B2094757D06BA7FA489B","title":"成昌园子店","lon":"121.481348","lat":"31.227146","category":"68","category_name":"快餐厅","address":"黄浦区云南南路87号(近金陵中路)"},{"poiid":"B2094654DA6EA6FD449D","title":"钱柜(浪达包装(上海)有限公司东)","lon":"121.48193","lat":"31.22918","category":"170","category_name":"KTV","address":"浙江南路68"},{"poiid":"B2094757D069A4F84793","title":"永宁台球","lon":"121.4814","lat":"31.22917","category":"171","category_name":"台球厅","address":"上海黄浦区永寿路11号4楼(近延安路高架)  "},{"poiid":"B2094757D068A4F9489B","title":"京都拉面太郎","lon":"121.48188083","lat":"31.229529914","category":"95","category_name":"日本料理","address":"黄浦区浙江南路48号(近宁海东路)"},{"poiid":"B2094757D16DA5FE479E","title":"正宗新疆烤肉串","lon":"121.480703138","lat":"31.2278364491","category":"68","category_name":"快餐厅","address":"黄浦区淮海东路52号(近云南南路)"},{"poiid":"B2094654DB6AA3F5409D","title":"图门郎特色烧烤(云南南路店)","lon":"121.4816","lat":"31.22662","category":"247","category_name":"餐饮美食","address":"黄浦区云南南路127号(近金陵东路)"},{"poiid":"B2094757D06FA0FC4193","title":"三宝粥铺","lon":"121.480977","lat":"31.22688","category":"68","category_name":"快餐厅","address":"黄浦区金陵东路569号汇都国际2楼(近西藏南路)"},{"poiid":"B2094757D06EABF54499","title":"鼎辣重庆老火锅店","lon":"121.480830738","lat":"31.2271672348","category":"86","category_name":"火锅店","address":"黄浦区金陵东路460号撰食城3楼(近云南南路预计7月30日营业)"},{"poiid":"B2094654DB64A4FC449E","title":"三人行骨头王火锅(浙江路店)","lon":"121.48163","lat":"31.22993","category":"86","category_name":"火锅店","address":"黄浦区浙江南路8号(近延安东路)"},{"poiid":"B2094753D76FAAFA449C","title":"上海滩国泰旗舰店","lon":"121.466011","lat":"31.216125","category":"249","category_name":"购物服务","address":"淮海中路868号"},{"poiid":"B209475CD564A7F84292","title":"上海滩新天地店","lon":"121.47463","lat":"31.22164","category":"119","category_name":"商场","address":"\"太仓路181弄新天地北里15号\r\n\""},{"poiid":"B209475CD564A7F8439E","title":"上海滩中信泰富店","lon":"121.45602","lat":"31.22851","category":"119","category_name":"商场","address":"\"南京西路1168号中信泰富广场，店铺号221.\r\n\""},{"poiid":"B209475CD564A7F84392","title":"上海滩浦东香格里拉店","lon":"121.50058","lat":"31.23634","category":"119","category_name":"商场","address":"浦东富成路33号香格里拉酒店内大堂层"},{"poiid":"B2094654DB69A4F4479D","title":"纯k（浙江路店）","lon":"121.48193","lat":"31.22918","category":"170","category_name":"KTV","address":"黄浦区浙江南路68号(近宁海东路)"},{"poiid":"B2094757D06EAAF8459D","title":"月圆火锅(宁海东路一店)","lon":"121.48041","lat":"31.22789","category":"86","category_name":"火锅店","address":"黄浦区宁海东路270号(云南南路口)"},{"poiid":"B2094750DA68ABFE4898","title":"台北纯K(浙江路店)","lon":"121.482363726181","lat":"31.2290736899797","category":"170","category_name":"KTV","address":"黄浦区浙江南路68号(宁海东路口)"},{"poiid":"B2094752D265A7F9459D","title":"阿姨奶茶专卖","lon":"121.480883","lat":"31.227716","category":"247","category_name":"餐饮美食","address":"黄浦区云南南路79号(近金陵东路)"},{"poiid":"B2094757D06FA1FA419A","title":"洪长兴羊肉馆(云南南路店)","lon":"121.48008","lat":"31.22884","category":"86","category_name":"火锅店","address":"黄浦区云南南路1号(近延安东路)"},{"poiid":"B2094757D06FA2FE459D","title":"小绍兴(云南店)","lon":"121.480623106","lat":"31.2279221135","category":"68","category_name":"快餐厅","address":"黄浦区云南南路69-75号(近宁海东路)"},{"poiid":"B2094757D06EAAF5419D","title":"重庆小天鹅(云南南路店)","lon":"121.481","lat":"31.22718","category":"86","category_name":"火锅店","address":"黄浦区云南南路118号朗润商务楼4楼(近金陵东路)"},{"poiid":"B2094757D06FA1FB409B","title":"新梅居(云南南路店)","lon":"121.47999","lat":"31.22838","category":"86","category_name":"火锅店","address":"黄浦区云南南路16号(近延安路)"},{"poiid":"B2094757D06FA3FA4192","title":"瑞安广场","lon":"121.481","lat":"31.2284","category":"119","category_name":"商场","address":"格林SOHO位于和平十三纬路云集街10号甲(东北炊具城西侧)"},{"poiid":"B2094655D26AABFD4699","title":"三顾牛蛙馆西藏南路店","lon":"121.48091","lat":"31.22694","category":"71","category_name":"四川菜","address":"黄浦区金陵东路569号汇都大厦302室(近西藏南路)"},{"poiid":"B2094655D26BA6FB439D","title":"豆捞坊(金陵东路店)","lon":"121.48094","lat":"31.22696","category":"86","category_name":"火锅店","address":"黄浦区金陵东路569号汇通大厦3楼(近西藏南路)"},{"poiid":"B2094757D06FA2F8419B","title":"燕云楼(云南路店)","lon":"121.480266825","lat":"31.2279954151","category":"260","category_name":"其他","address":"黄浦区云南南路100号(宁海东路口)"},{"poiid":"B2094757D06FA2F5469D","title":"大壶春(云南南路店)","lon":"121.48114","lat":"31.2273","category":"68","category_name":"快餐厅","address":"黄浦区云南南路71号(近金陵东路)"},{"poiid":"B209475DD265A2FD469C","title":"很久以前只是家串店","lon":"121.481468","lat":"31.22673","category":"257","category_name":"中餐厅","address":"上海市 云南南路180号"},{"poiid":"B2094655D268A5FB4092","title":"云南南路美食街","lon":"121.4807","lat":"31.22771","category":"116","category_name":"特色商业街","address":""},{"poiid":"B2094757D06FA1F54598","title":"德兴馆(金陵路店)","lon":"121.48173","lat":"31.2273","category":"76","category_name":"上海菜","address":"黄浦区金陵东路416号1楼(广西南路金陵东路)"},{"poiid":"B2094757D068A4FD469A","title":"金陵东路浙江南路","lon":"121.482636","lat":"31.22811","category":"38","category_name":"公交车站","address":"上海金陵东路浙江南路"},{"poiid":"B2094757D16DA6F84098","title":"彩云南","lon":"121.480391738","lat":"31.2282712583","category":"68","category_name":"快餐厅","address":"黄浦区云南南路51号(近宁海东路)"},{"poiid":"B2094752D16CA2FB429B","title":"阿姨奶茶","lon":"121.480652","lat":"31.22702","category":"247","category_name":"餐饮美食","address":"云南南路79号"},{"poiid":"B2094757D068A6FF4598","title":"延福绿地篮球场","lon":"121.48202","lat":"31.22915","category":"220","category_name":"运动场所","address":"黄浦区延安东路(近福建南路)"},{"poiid":"B2094753D464A1FE4593","title":"HOUSE浩思音乐餐厅","lon":"121.480857","lat":"31.227321","category":"247","category_name":"餐饮美食","address":"黄浦区金陵东路460号撰食城3楼(近云南南路)"},{"poiid":"B2094757D06FA1FC449A","title":"港东盛宴","lon":"121.480747","lat":"31.226876","category":"72","category_name":"广东菜","address":"黄浦区金陵东路621号(近西藏南路)"},{"poiid":"B2094757D068A4F5459E","title":"ONLY ONE日式造型","lon":"121.48077","lat":"31.22814","category":"148","category_name":"美容美发店","address":"上海黄浦区宁海东路262号(近云南南路)  "},{"poiid":"B2094757D464A5F9489C","title":"小金陵盐水鸭店","lon":"121.4800955317","lat":"31.228691491158","category":"68","category_name":"快餐厅","address":"黄浦区云南南路55号(近宁海东路)"},{"poiid":"B2094757D065A3FA459B","title":"萨莉亚(金陵东路店)","lon":"121.4805939","lat":"31.2270441","category":"94","category_name":"西餐厅","address":"黄浦区金陵东路450-464号2楼(近西藏南路)"},{"poiid":"B2094752D768AAFF4398","title":"阿宝炸猪排","lon":"121.480561","lat":"31.227032","category":"247","category_name":"餐饮美食","address":"云南南路95号"},{"poiid":"B2094750D76DA7FD429C","title":"宝寿司(广西南路店)","lon":"121.482","lat":"31.2267","category":"95","category_name":"日本料理","address":"黄浦区广西南路98号(近淮海东路)"},{"poiid":"B2094757D064A7FA449D","title":"群力中医门诊部","lon":"121.48233","lat":"31.22767","category":"162","category_name":"医院","address":"上海黄浦区金陵东路396号  "},{"poiid":"B2094654DB6AA6FF4492","title":"上海新黄浦酒店公寓","lon":"121.48145","lat":"31.22835","category":"214","category_name":"四星级宾馆","address":"浦发绿城位于浦东浦发绿城永泰路2079弄"},{"poiid":"B2094757D06AA2FD4299","title":"舟山海鲜","lon":"121.480024654","lat":"31.228309393","category":"75","category_name":"浙江菜","address":"黄浦区云南南路48号(近宁海路)"},{"poiid":"B2094750D76EA7FF469A","title":"云南南路炸猪排","lon":"121.481","lat":"31.2278","category":"68","category_name":"快餐厅","address":"黄浦区云南南路111弄内(近金陵东路)"},{"poiid":"B2094757D06AAAF54992","title":"组合发型(金陵东路店)","lon":"121.48051","lat":"31.22704","category":"148","category_name":"美容美发店","address":"上海黄浦区金陵东路500号(近西藏南路)"},{"poiid":"B2094757D56EA6F8409E","title":"大麦售票处（宁海路申鑫大厦）","lon":"121.48169875145","lat":"31.2291054861415","category":"248","category_name":"生活娱乐","address":"上海市黄浦区宁海东路200号8楼"},{"poiid":"B2094655D26AA1F44392","title":"明堂青年旅舍","lon":"121.48131","lat":"31.22923","category":"217","category_name":"旅馆招待所","address":"黄浦区永寿路35号(近延安东路)"},{"poiid":"B2094654DB64ABFC4592","title":"新世界假日豪都酒店","lon":"121.48165","lat":"31.22786","category":"250","category_name":"公园户外","address":"黄浦区广西南路41号(近金陵东路)"},{"poiid":"B2094757D068A3FD469A","title":"埃洛美甲","lon":"121.482538","lat":"31.229008","category":"149","category_name":"洗浴推拿场所","address":"上海浙江南路69号"},{"poiid":"B2094655D26AAAFA4492","title":"上游社会桌游俱乐部","lon":"121.48243","lat":"31.22873","category":"248","category_name":"生活娱乐","address":"黄浦区浙江南路88号东新大厦216商铺(近宁海东路)"},{"poiid":"B2094757D06BA7FA489B","title":"成昌园子店","lon":"121.481348","lat":"31.227146","category":"68","category_name":"快餐厅","address":"黄浦区云南南路87号(近金陵中路)"},{"poiid":"B2094654DA6EA6FD449D","title":"钱柜(浪达包装(上海)有限公司东)","lon":"121.48193","lat":"31.22918","category":"170","category_name":"KTV","address":"浙江南路68"},{"poiid":"B2094757D069A4F84793","title":"永宁台球","lon":"121.4814","lat":"31.22917","category":"171","category_name":"台球厅","address":"上海黄浦区永寿路11号4楼(近延安路高架)  "},{"poiid":"B2094757D068A4F9489B","title":"京都拉面太郎","lon":"121.48188083","lat":"31.229529914","category":"95","category_name":"日本料理","address":"黄浦区浙江南路48号(近宁海东路)"},{"poiid":"B2094757D16DA5FE479E","title":"正宗新疆烤肉串","lon":"121.480703138","lat":"31.2278364491","category":"68","category_name":"快餐厅","address":"黄浦区淮海东路52号(近云南南路)"},{"poiid":"B2094654DB6AA3F5409D","title":"图门郎特色烧烤(云南南路店)","lon":"121.4816","lat":"31.22662","category":"247","category_name":"餐饮美食","address":"黄浦区云南南路127号(近金陵东路)"},{"poiid":"B2094757D06FA0FC4193","title":"三宝粥铺","lon":"121.480977","lat":"31.22688","category":"68","category_name":"快餐厅","address":"黄浦区金陵东路569号汇都国际2楼(近西藏南路)"},{"poiid":"B2094757D06EABF54499","title":"鼎辣重庆老火锅店","lon":"121.480830738","lat":"31.2271672348","category":"86","category_name":"火锅店","address":"黄浦区金陵东路460号撰食城3楼(近云南南路预计7月30日营业)"},{"poiid":"B2094654DB64A4FC449E","title":"三人行骨头王火锅(浙江路店)","lon":"121.48163","lat":"31.22993","category":"86","category_name":"火锅店","address":"黄浦区浙江南路8号(近延安东路)"},{"poiid":"B2094753D76FAAFA449C","title":"上海滩国泰旗舰店","lon":"121.466011","lat":"31.216125","category":"249","category_name":"购物服务","address":"淮海中路868号"},{"poiid":"B209475CD564A7F84292","title":"上海滩新天地店","lon":"121.47463","lat":"31.22164","category":"119","category_name":"商场","address":"\"太仓路181弄新天地北里15号\r\n\""},{"poiid":"B209475CD564A7F8439E","title":"上海滩中信泰富店","lon":"121.45602","lat":"31.22851","category":"119","category_name":"商场","address":"\"南京西路1168号中信泰富广场，店铺号221.\r\n\""},{"poiid":"B209475CD564A7F84392","title":"上海滩浦东香格里拉店","lon":"121.50058","lat":"31.23634","category":"119","category_name":"商场","address":"浦东富成路33号香格里拉酒店内大堂层"},{"poiid":"B2094654DB69A4F4479D","title":"纯k（浙江路店）","lon":"121.48193","lat":"31.22918","category":"170","category_name":"KTV","address":"黄浦区浙江南路68号(近宁海东路)"},{"poiid":"B2094757D06EAAF8459D","title":"月圆火锅(宁海东路一店)","lon":"121.48041","lat":"31.22789","category":"86","category_name":"火锅店","address":"黄浦区宁海东路270号(云南南路口)"},{"poiid":"B2094750DA68ABFE4898","title":"台北纯K(浙江路店)","lon":"121.482363726181","lat":"31.2290736899797","category":"170","category_name":"KTV","address":"黄浦区浙江南路68号(宁海东路口)"},{"poiid":"B2094752D265A7F9459D","title":"阿姨奶茶专卖","lon":"121.480883","lat":"31.227716","category":"247","category_name":"餐饮美食","address":"黄浦区云南南路79号(近金陵东路)"},{"poiid":"B2094757D06FA1FA419A","title":"洪长兴羊肉馆(云南南路店)","lon":"121.48008","lat":"31.22884","category":"86","category_name":"火锅店","address":"黄浦区云南南路1号(近延安东路)"},{"poiid":"B2094757D06FA2FE459D","title":"小绍兴(云南店)","lon":"121.480623106","lat":"31.2279221135","category":"68","category_name":"快餐厅","address":"黄浦区云南南路69-75号(近宁海东路)"},{"poiid":"B2094757D06EAAF5419D","title":"重庆小天鹅(云南南路店)","lon":"121.481","lat":"31.22718","category":"86","category_name":"火锅店","address":"黄浦区云南南路118号朗润商务楼4楼(近金陵东路)"},{"poiid":"B2094757D06FA1FB409B","title":"新梅居(云南南路店)","lon":"121.47999","lat":"31.22838","category":"86","category_name":"火锅店","address":"黄浦区云南南路16号(近延安路)"},{"poiid":"B2094757D06FA3FA4192","title":"瑞安广场","lon":"121.481","lat":"31.2284","category":"119","category_name":"商场","address":"格林SOHO位于和平十三纬路云集街10号甲(东北炊具城西侧)"},{"poiid":"B2094655D26AABFD4699","title":"三顾牛蛙馆西藏南路店","lon":"121.48091","lat":"31.22694","category":"71","category_name":"四川菜","address":"黄浦区金陵东路569号汇都大厦302室(近西藏南路)"},{"poiid":"B2094655D26BA6FB439D","title":"豆捞坊(金陵东路店)","lon":"121.48094","lat":"31.22696","category":"86","category_name":"火锅店","address":"黄浦区金陵东路569号汇通大厦3楼(近西藏南路)"},{"poiid":"B2094757D06FA2F8419B","title":"燕云楼(云南路店)","lon":"121.480266825","lat":"31.2279954151","category":"260","category_name":"其他","address":"黄浦区云南南路100号(宁海东路口)"},{"poiid":"B2094757D06FA2F5469D","title":"大壶春(云南南路店)","lon":"121.48114","lat":"31.2273","category":"68","category_name":"快餐厅","address":"黄浦区云南南路71号(近金陵东路)"},{"poiid":"B209475DD265A2FD469C","title":"很久以前只是家串店","lon":"121.481468","lat":"31.22673","category":"257","category_name":"中餐厅","address":"上海市 云南南路180号"},{"poiid":"B2094655D268A5FB4092","title":"云南南路美食街","lon":"121.4807","lat":"31.22771","category":"116","category_name":"特色商业街","address":""},{"poiid":"B2094757D06FA1F54598","title":"德兴馆(金陵路店)","lon":"121.48173","lat":"31.2273","category":"76","category_name":"上海菜","address":"黄浦区金陵东路416号1楼(广西南路金陵东路)"},{"poiid":"B2094757D068A4FD469A","title":"金陵东路浙江南路","lon":"121.482636","lat":"31.22811","category":"38","category_name":"公交车站","address":"上海金陵东路浙江南路"},{"poiid":"B2094757D16DA6F84098","title":"彩云南","lon":"121.480391738","lat":"31.2282712583","category":"68","category_name":"快餐厅","address":"黄浦区云南南路51号(近宁海东路)"},{"poiid":"B2094752D16CA2FB429B","title":"阿姨奶茶","lon":"121.480652","lat":"31.22702","category":"247","category_name":"餐饮美食","address":"云南南路79号"},{"poiid":"B2094757D068A6FF4598","title":"延福绿地篮球场","lon":"121.48202","lat":"31.22915","category":"220","category_name":"运动场所","address":"黄浦区延安东路(近福建南路)"},{"poiid":"B2094753D464A1FE4593","title":"HOUSE浩思音乐餐厅","lon":"121.480857","lat":"31.227321","category":"247","category_name":"餐饮美食","address":"黄浦区金陵东路460号撰食城3楼(近云南南路)"},{"poiid":"B2094757D06FA1FC449A","title":"港东盛宴","lon":"121.480747","lat":"31.226876","category":"72","category_name":"广东菜","address":"黄浦区金陵东路621号(近西藏南路)"},{"poiid":"B2094757D068A4F5459E","title":"ONLY ONE日式造型","lon":"121.48077","lat":"31.22814","category":"148","category_name":"美容美发店","address":"上海黄浦区宁海东路262号(近云南南路)  "},{"poiid":"B2094757D464A5F9489C","title":"小金陵盐水鸭店","lon":"121.4800955317","lat":"31.228691491158","category":"68","category_name":"快餐厅","address":"黄浦区云南南路55号(近宁海东路)"},{"poiid":"B2094757D065A3FA459B","title":"萨莉亚(金陵东路店)","lon":"121.4805939","lat":"31.2270441","category":"94","category_name":"西餐厅","address":"黄浦区金陵东路450-464号2楼(近西藏南路)"},{"poiid":"B2094752D768AAFF4398","title":"阿宝炸猪排","lon":"121.480561","lat":"31.227032","category":"247","category_name":"餐饮美食","address":"云南南路95号"},{"poiid":"B2094750D76DA7FD429C","title":"宝寿司(广西南路店)","lon":"121.482","lat":"31.2267","category":"95","category_name":"日本料理","address":"黄浦区广西南路98号(近淮海东路)"},{"poiid":"B2094757D064A7FA449D","title":"群力中医门诊部","lon":"121.48233","lat":"31.22767","category":"162","category_name":"医院","address":"上海黄浦区金陵东路396号  "},{"poiid":"B2094654DB6AA6FF4492","title":"上海新黄浦酒店公寓","lon":"121.48145","lat":"31.22835","category":"214","category_name":"四星级宾馆","address":"浦发绿城位于浦东浦发绿城永泰路2079弄"},{"poiid":"B2094757D06AA2FD4299","title":"舟山海鲜","lon":"121.480024654","lat":"31.228309393","category":"75","category_name":"浙江菜","address":"黄浦区云南南路48号(近宁海路)"},{"poiid":"B2094750D76EA7FF469A","title":"云南南路炸猪排","lon":"121.481","lat":"31.2278","category":"68","category_name":"快餐厅","address":"黄浦区云南南路111弄内(近金陵东路)"},{"poiid":"B2094757D06AAAF54992","title":"组合发型(金陵东路店)","lon":"121.48051","lat":"31.22704","category":"148","category_name":"美容美发店","address":"上海黄浦区金陵东路500号(近西藏南路)"},{"poiid":"B2094757D56EA6F8409E","title":"大麦售票处（宁海路申鑫大厦）","lon":"121.48169875145","lat":"31.2291054861415","category":"248","category_name":"生活娱乐","address":"上海市黄浦区宁海东路200号8楼"},{"poiid":"B2094655D26AA1F44392","title":"明堂青年旅舍","lon":"121.48131","lat":"31.22923","category":"217","category_name":"旅馆招待所","address":"黄浦区永寿路35号(近延安东路)"},{"poiid":"B2094654DB64ABFC4592","title":"新世界假日豪都酒店","lon":"121.48165","lat":"31.22786","category":"250","category_name":"公园户外","address":"黄浦区广西南路41号(近金陵东路)"},{"poiid":"B2094757D068A3FD469A","title":"埃洛美甲","lon":"121.482538","lat":"31.229008","category":"149","category_name":"洗浴推拿场所","address":"上海浙江南路69号"},{"poiid":"B2094655D26AAAFA4492","title":"上游社会桌游俱乐部","lon":"121.48243","lat":"31.22873","category":"248","category_name":"生活娱乐","address":"黄浦区浙江南路88号东新大厦216商铺(近宁海东路)"},{"poiid":"B2094757D06BA7FA489B","title":"成昌园子店","lon":"121.481348","lat":"31.227146","category":"68","category_name":"快餐厅","address":"黄浦区云南南路87号(近金陵中路)"},{"poiid":"B2094654DA6EA6FD449D","title":"钱柜(浪达包装(上海)有限公司东)","lon":"121.48193","lat":"31.22918","category":"170","category_name":"KTV","address":"浙江南路68"},{"poiid":"B2094757D069A4F84793","title":"永宁台球","lon":"121.4814","lat":"31.22917","category":"171","category_name":"台球厅","address":"上海黄浦区永寿路11号4楼(近延安路高架)  "},{"poiid":"B2094757D068A4F9489B","title":"京都拉面太郎","lon":"121.48188083","lat":"31.229529914","category":"95","category_name":"日本料理","address":"黄浦区浙江南路48号(近宁海东路)"},{"poiid":"B2094757D16DA5FE479E","title":"正宗新疆烤肉串","lon":"121.480703138","lat":"31.2278364491","category":"68","category_name":"快餐厅","address":"黄浦区淮海东路52号(近云南南路)"},{"poiid":"B2094654DB6AA3F5409D","title":"图门郎特色烧烤(云南南路店)","lon":"121.4816","lat":"31.22662","category":"247","category_name":"餐饮美食","address":"黄浦区云南南路127号(近金陵东路)"},{"poiid":"B2094757D06FA0FC4193","title":"三宝粥铺","lon":"121.480977","lat":"31.22688","category":"68","category_name":"快餐厅","address":"黄浦区金陵东路569号汇都国际2楼(近西藏南路)"},{"poiid":"B2094757D06EABF54499","title":"鼎辣重庆老火锅店","lon":"121.480830738","lat":"31.2271672348","category":"86","category_name":"火锅店","address":"黄浦区金陵东路460号撰食城3楼(近云南南路预计7月30日营业)"},{"poiid":"B2094654DB64A4FC449E","title":"三人行骨头王火锅(浙江路店)","lon":"121.48163","lat":"31.22993","category":"86","category_name":"火锅店","address":"黄浦区浙江南路8号(近延安东路)"},{"poiid":"B2094753D76FAAFA449C","title":"上海滩国泰旗舰店","lon":"121.466011","lat":"31.216125","category":"249","category_name":"购物服务","address":"淮海中路868号"},{"poiid":"B209475CD564A7F84292","title":"上海滩新天地店","lon":"121.47463","lat":"31.22164","category":"119","category_name":"商场","address":"\"太仓路181弄新天地北里15号\r\n\""},{"poiid":"B209475CD564A7F8439E","title":"上海滩中信泰富店","lon":"121.45602","lat":"31.22851","category":"119","category_name":"商场","address":"\"南京西路1168号中信泰富广场，店铺号221.\r\n\""},{"poiid":"B209475CD564A7F84392","title":"上海滩浦东香格里拉店","lon":"121.50058","lat":"31.23634","category":"119","category_name":"商场","address":"浦东富成路33号香格里拉酒店内大堂层"},{"poiid":"B2094654DB69A4F4479D","title":"纯k（浙江路店）","lon":"121.48193","lat":"31.22918","category":"170","category_name":"KTV","address":"黄浦区浙江南路68号(近宁海东路)"},{"poiid":"B2094757D06EAAF8459D","title":"月圆火锅(宁海东路一店)","lon":"121.48041","lat":"31.22789","category":"86","category_name":"火锅店","address":"黄浦区宁海东路270号(云南南路口)"},{"poiid":"B2094750DA68ABFE4898","title":"台北纯K(浙江路店)","lon":"121.482363726181","lat":"31.2290736899797","category":"170","category_name":"KTV","address":"黄浦区浙江南路68号(宁海东路口)"},{"poiid":"B2094752D265A7F9459D","title":"阿姨奶茶专卖","lon":"121.480883","lat":"31.227716","category":"247","category_name":"餐饮美食","address":"黄浦区云南南路79号(近金陵东路)"},{"poiid":"B2094757D06FA1FA419A","title":"洪长兴羊肉馆(云南南路店)","lon":"121.48008","lat":"31.22884","category":"86","category_name":"火锅店","address":"黄浦区云南南路1号(近延安东路)"},{"poiid":"B2094757D06FA2FE459D","title":"小绍兴(云南店)","lon":"121.480623106","lat":"31.2279221135","category":"68","category_name":"快餐厅","address":"黄浦区云南南路69-75号(近宁海东路)"},{"poiid":"B2094757D06EAAF5419D","title":"重庆小天鹅(云南南路店)","lon":"121.481","lat":"31.22718","category":"86","category_name":"火锅店","address":"黄浦区云南南路118号朗润商务楼4楼(近金陵东路)"},{"poiid":"B2094757D06FA1FB409B","title":"新梅居(云南南路店)","lon":"121.47999","lat":"31.22838","category":"86","category_name":"火锅店","address":"黄浦区云南南路16号(近延安路)"},{"poiid":"B2094757D06FA3FA4192","title":"瑞安广场","lon":"121.481","lat":"31.2284","category":"119","category_name":"商场","address":"格林SOHO位于和平十三纬路云集街10号甲(东北炊具城西侧)"},{"poiid":"B2094655D26AABFD4699","title":"三顾牛蛙馆西藏南路店","lon":"121.48091","lat":"31.22694","category":"71","category_name":"四川菜","address":"黄浦区金陵东路569号汇都大厦302室(近西藏南路)"},{"poiid":"B2094655D26BA6FB439D","title":"豆捞坊(金陵东路店)","lon":"121.48094","lat":"31.22696","category":"86","category_name":"火锅店","address":"黄浦区金陵东路569号汇通大厦3楼(近西藏南路)"},{"poiid":"B2094757D06FA2F8419B","title":"燕云楼(云南路店)","lon":"121.480266825","lat":"31.2279954151","category":"260","category_name":"其他","address":"黄浦区云南南路100号(宁海东路口)"},{"poiid":"B2094757D06FA2F5469D","title":"大壶春(云南南路店)","lon":"121.48114","lat":"31.2273","category":"68","category_name":"快餐厅","address":"黄浦区云南南路71号(近金陵东路)"},{"poiid":"B209475DD265A2FD469C","title":"很久以前只是家串店","lon":"121.481468","lat":"31.22673","category":"257","category_name":"中餐厅","address":"上海市 云南南路180号"},{"poiid":"B2094655D268A5FB4092","title":"云南南路美食街","lon":"121.4807","lat":"31.22771","category":"116","category_name":"特色商业街","address":""},{"poiid":"B2094757D06FA1F54598","title":"德兴馆(金陵路店)","lon":"121.48173","lat":"31.2273","category":"76","category_name":"上海菜","address":"黄浦区金陵东路416号1楼(广西南路金陵东路)"},{"poiid":"B2094757D068A4FD469A","title":"金陵东路浙江南路","lon":"121.482636","lat":"31.22811","category":"38","category_name":"公交车站","address":"上海金陵东路浙江南路"},{"poiid":"B2094757D16DA6F84098","title":"彩云南","lon":"121.480391738","lat":"31.2282712583","category":"68","category_name":"快餐厅","address":"黄浦区云南南路51号(近宁海东路)"},{"poiid":"B2094752D16CA2FB429B","title":"阿姨奶茶","lon":"121.480652","lat":"31.22702","category":"247","category_name":"餐饮美食","address":"云南南路79号"},{"poiid":"B2094757D068A6FF4598","title":"延福绿地篮球场","lon":"121.48202","lat":"31.22915","category":"220","category_name":"运动场所","address":"黄浦区延安东路(近福建南路)"},{"poiid":"B2094753D464A1FE4593","title":"HOUSE浩思音乐餐厅","lon":"121.480857","lat":"31.227321","category":"247","category_name":"餐饮美食","address":"黄浦区金陵东路460号撰食城3楼(近云南南路)"},{"poiid":"B2094757D06FA1FC449A","title":"港东盛宴","lon":"121.480747","lat":"31.226876","category":"72","category_name":"广东菜","address":"黄浦区金陵东路621号(近西藏南路)"},{"poiid":"B2094757D068A4F5459E","title":"ONLY ONE日式造型","lon":"121.48077","lat":"31.22814","category":"148","category_name":"美容美发店","address":"上海黄浦区宁海东路262号(近云南南路)  "},{"poiid":"B2094757D464A5F9489C","title":"小金陵盐水鸭店","lon":"121.4800955317","lat":"31.228691491158","category":"68","category_name":"快餐厅","address":"黄浦区云南南路55号(近宁海东路)"},{"poiid":"B2094757D065A3FA459B","title":"萨莉亚(金陵东路店)","lon":"121.4805939","lat":"31.2270441","category":"94","category_name":"西餐厅","address":"黄浦区金陵东路450-464号2楼(近西藏南路)"},{"poiid":"B2094752D768AAFF4398","title":"阿宝炸猪排","lon":"121.480561","lat":"31.227032","category":"247","category_name":"餐饮美食","address":"云南南路95号"},{"poiid":"B2094750D76DA7FD429C","title":"宝寿司(广西南路店)","lon":"121.482","lat":"31.2267","category":"95","category_name":"日本料理","address":"黄浦区广西南路98号(近淮海东路)"},{"poiid":"B2094757D064A7FA449D","title":"群力中医门诊部","lon":"121.48233","lat":"31.22767","category":"162","category_name":"医院","address":"上海黄浦区金陵东路396号  "},{"poiid":"B2094654DB6AA6FF4492","title":"上海新黄浦酒店公寓","lon":"121.48145","lat":"31.22835","category":"214","category_name":"四星级宾馆","address":"浦发绿城位于浦东浦发绿城永泰路2079弄"},{"poiid":"B2094757D06AA2FD4299","title":"舟山海鲜","lon":"121.480024654","lat":"31.228309393","category":"75","category_name":"浙江菜","address":"黄浦区云南南路48号(近宁海路)"},{"poiid":"B2094750D76EA7FF469A","title":"云南南路炸猪排","lon":"121.481","lat":"31.2278","category":"68","category_name":"快餐厅","address":"黄浦区云南南路111弄内(近金陵东路)"},{"poiid":"B2094757D06AAAF54992","title":"组合发型(金陵东路店)","lon":"121.48051","lat":"31.22704","category":"148","category_name":"美容美发店","address":"上海黄浦区金陵东路500号(近西藏南路)"},{"poiid":"B2094757D56EA6F8409E","title":"大麦售票处（宁海路申鑫大厦）","lon":"121.48169875145","lat":"31.2291054861415","category":"248","category_name":"生活娱乐","address":"上海市黄浦区宁海东路200号8楼"},{"poiid":"B2094655D26AA1F44392","title":"明堂青年旅舍","lon":"121.48131","lat":"31.22923","category":"217","category_name":"旅馆招待所","address":"黄浦区永寿路35号(近延安东路)"},{"poiid":"B2094654DB64ABFC4592","title":"新世界假日豪都酒店","lon":"121.48165","lat":"31.22786","category":"250","category_name":"公园户外","address":"黄浦区广西南路41号(近金陵东路)"},{"poiid":"B2094757D068A3FD469A","title":"埃洛美甲","lon":"121.482538","lat":"31.229008","category":"149","category_name":"洗浴推拿场所","address":"上海浙江南路69号"},{"poiid":"B2094655D26AAAFA4492","title":"上游社会桌游俱乐部","lon":"121.48243","lat":"31.22873","category":"248","category_name":"生活娱乐","address":"黄浦区浙江南路88号东新大厦216商铺(近宁海东路)"},{"poiid":"B2094757D06BA7FA489B","title":"成昌园子店","lon":"121.481348","lat":"31.227146","category":"68","category_name":"快餐厅","address":"黄浦区云南南路87号(近金陵中路)"},{"poiid":"B2094654DA6EA6FD449D","title":"钱柜(浪达包装(上海)有限公司东)","lon":"121.48193","lat":"31.22918","category":"170","category_name":"KTV","address":"浙江南路68"},{"poiid":"B2094757D069A4F84793","title":"永宁台球","lon":"121.4814","lat":"31.22917","category":"171","category_name":"台球厅","address":"上海黄浦区永寿路11号4楼(近延安路高架)  "},{"poiid":"B2094757D068A4F9489B","title":"京都拉面太郎","lon":"121.48188083","lat":"31.229529914","category":"95","category_name":"日本料理","address":"黄浦区浙江南路48号(近宁海东路)"},{"poiid":"B2094757D16DA5FE479E","title":"正宗新疆烤肉串","lon":"121.480703138","lat":"31.2278364491","category":"68","category_name":"快餐厅","address":"黄浦区淮海东路52号(近云南南路)"},{"poiid":"B2094654DB6AA3F5409D","title":"图门郎特色烧烤(云南南路店)","lon":"121.4816","lat":"31.22662","category":"247","category_name":"餐饮美食","address":"黄浦区云南南路127号(近金陵东路)"},{"poiid":"B2094757D06FA0FC4193","title":"三宝粥铺","lon":"121.480977","lat":"31.22688","category":"68","category_name":"快餐厅","address":"黄浦区金陵东路569号汇都国际2楼(近西藏南路)"},{"poiid":"B2094757D06EABF54499","title":"鼎辣重庆老火锅店","lon":"121.480830738","lat":"31.2271672348","category":"86","category_name":"火锅店","address":"黄浦区金陵东路460号撰食城3楼(近云南南路预计7月30日营业)"},{"poiid":"B2094654DB64A4FC449E","title":"三人行骨头王火锅(浙江路店)","lon":"121.48163","lat":"31.22993","category":"86","category_name":"火锅店","address":"黄浦区浙江南路8号(近延安东路)"},{"poiid":"B2094753D76FAAFA449C","title":"上海滩国泰旗舰店","lon":"121.466011","lat":"31.216125","category":"249","category_name":"购物服务","address":"淮海中路868号"},{"poiid":"B209475CD564A7F84292","title":"上海滩新天地店","lon":"121.47463","lat":"31.22164","category":"119","category_name":"商场","address":"\"太仓路181弄新天地北里15号\r\n\""},{"poiid":"B209475CD564A7F8439E","title":"上海滩中信泰富店","lon":"121.45602","lat":"31.22851","category":"119","category_name":"商场","address":"\"南京西路1168号中信泰富广场，店铺号221.\r\n\""},{"poiid":"B209475CD564A7F84392","title":"上海滩浦东香格里拉店","lon":"121.50058","lat":"31.23634","category":"119","category_name":"商场","address":"浦东富成路33号香格里拉酒店内大堂层"},{"poiid":"B2094654DB69A4F4479D","title":"纯k（浙江路店）","lon":"121.48193","lat":"31.22918","category":"170","category_name":"KTV","address":"黄浦区浙江南路68号(近宁海东路)"},{"poiid":"B2094757D06EAAF8459D","title":"月圆火锅(宁海东路一店)","lon":"121.48041","lat":"31.22789","category":"86","category_name":"火锅店","address":"黄浦区宁海东路270号(云南南路口)"},{"poiid":"B2094750DA68ABFE4898","title":"台北纯K(浙江路店)","lon":"121.482363726181","lat":"31.2290736899797","category":"170","category_name":"KTV","address":"黄浦区浙江南路68号(宁海东路口)"},{"poiid":"B2094752D265A7F9459D","title":"阿姨奶茶专卖","lon":"121.480883","lat":"31.227716","category":"247","category_name":"餐饮美食","address":"黄浦区云南南路79号(近金陵东路)"},{"poiid":"B2094757D06FA1FA419A","title":"洪长兴羊肉馆(云南南路店)","lon":"121.48008","lat":"31.22884","category":"86","category_name":"火锅店","address":"黄浦区云南南路1号(近延安东路)"},{"poiid":"B2094757D06FA2FE459D","title":"小绍兴(云南店)","lon":"121.480623106","lat":"31.2279221135","category":"68","category_name":"快餐厅","address":"黄浦区云南南路69-75号(近宁海东路)"},{"poiid":"B2094757D06EAAF5419D","title":"重庆小天鹅(云南南路店)","lon":"121.481","lat":"31.22718","category":"86","category_name":"火锅店","address":"黄浦区云南南路118号朗润商务楼4楼(近金陵东路)"},{"poiid":"B2094757D06FA1FB409B","title":"新梅居(云南南路店)","lon":"121.47999","lat":"31.22838","category":"86","category_name":"火锅店","address":"黄浦区云南南路16号(近延安路)"},{"poiid":"B2094757D06FA3FA4192","title":"瑞安广场","lon":"121.481","lat":"31.2284","category":"119","category_name":"商场","address":"格林SOHO位于和平十三纬路云集街10号甲(东北炊具城西侧)"},{"poiid":"B2094655D26AABFD4699","title":"三顾牛蛙馆西藏南路店","lon":"121.48091","lat":"31.22694","category":"71","category_name":"四川菜","address":"黄浦区金陵东路569号汇都大厦302室(近西藏南路)"},{"poiid":"B2094655D26BA6FB439D","title":"豆捞坊(金陵东路店)","lon":"121.48094","lat":"31.22696","category":"86","category_name":"火锅店","address":"黄浦区金陵东路569号汇通大厦3楼(近西藏南路)"},{"poiid":"B2094757D06FA2F8419B","title":"燕云楼(云南路店)","lon":"121.480266825","lat":"31.2279954151","category":"260","category_name":"其他","address":"黄浦区云南南路100号(宁海东路口)"},{"poiid":"B2094757D06FA2F5469D","title":"大壶春(云南南路店)","lon":"121.48114","lat":"31.2273","category":"68","category_name":"快餐厅","address":"黄浦区云南南路71号(近金陵东路)"},{"poiid":"B209475DD265A2FD469C","title":"很久以前只是家串店","lon":"121.481468","lat":"31.22673","category":"257","category_name":"中餐厅","address":"上海市 云南南路180号"},{"poiid":"B2094655D268A5FB4092","title":"云南南路美食街","lon":"121.4807","lat":"31.22771","category":"116","category_name":"特色商业街","address":""},{"poiid":"B2094757D06FA1F54598","title":"德兴馆(金陵路店)","lon":"121.48173","lat":"31.2273","category":"76","category_name":"上海菜","address":"黄浦区金陵东路416号1楼(广西南路金陵东路)"},{"poiid":"B2094757D068A4FD469A","title":"金陵东路浙江南路","lon":"121.482636","lat":"31.22811","category":"38","category_name":"公交车站","address":"上海金陵东路浙江南路"},{"poiid":"B2094757D16DA6F84098","title":"彩云南","lon":"121.480391738","lat":"31.2282712583","category":"68","category_name":"快餐厅","address":"黄浦区云南南路51号(近宁海东路)"},{"poiid":"B2094752D16CA2FB429B","title":"阿姨奶茶","lon":"121.480652","lat":"31.22702","category":"247","category_name":"餐饮美食","address":"云南南路79号"},{"poiid":"B2094757D068A6FF4598","title":"延福绿地篮球场","lon":"121.48202","lat":"31.22915","category":"220","category_name":"运动场所","address":"黄浦区延安东路(近福建南路)"},{"poiid":"B2094753D464A1FE4593","title":"HOUSE浩思音乐餐厅","lon":"121.480857","lat":"31.227321","category":"247","category_name":"餐饮美食","address":"黄浦区金陵东路460号撰食城3楼(近云南南路)"},{"poiid":"B2094757D06FA1FC449A","title":"港东盛宴","lon":"121.480747","lat":"31.226876","category":"72","category_name":"广东菜","address":"黄浦区金陵东路621号(近西藏南路)"},{"poiid":"B2094757D068A4F5459E","title":"ONLY ONE日式造型","lon":"121.48077","lat":"31.22814","category":"148","category_name":"美容美发店","address":"上海黄浦区宁海东路262号(近云南南路)  "},{"poiid":"B2094757D464A5F9489C","title":"小金陵盐水鸭店","lon":"121.4800955317","lat":"31.228691491158","category":"68","category_name":"快餐厅","address":"黄浦区云南南路55号(近宁海东路)"},{"poiid":"B2094757D065A3FA459B","title":"萨莉亚(金陵东路店)","lon":"121.4805939","lat":"31.2270441","category":"94","category_name":"西餐厅","address":"黄浦区金陵东路450-464号2楼(近西藏南路)"},{"poiid":"B2094752D768AAFF4398","title":"阿宝炸猪排","lon":"121.480561","lat":"31.227032","category":"247","category_name":"餐饮美食","address":"云南南路95号"},{"poiid":"B2094750D76DA7FD429C","title":"宝寿司(广西南路店)","lon":"121.482","lat":"31.2267","category":"95","category_name":"日本料理","address":"黄浦区广西南路98号(近淮海东路)"},{"poiid":"B2094757D064A7FA449D","title":"群力中医门诊部","lon":"121.48233","lat":"31.22767","category":"162","category_name":"医院","address":"上海黄浦区金陵东路396号  "},{"poiid":"B2094654DB6AA6FF4492","title":"上海新黄浦酒店公寓","lon":"121.48145","lat":"31.22835","category":"214","category_name":"四星级宾馆","address":"浦发绿城位于浦东浦发绿城永泰路2079弄"},{"poiid":"B2094757D06AA2FD4299","title":"舟山海鲜","lon":"121.480024654","lat":"31.228309393","category":"75","category_name":"浙江菜","address":"黄浦区云南南路48号(近宁海路)"},{"poiid":"B2094750D76EA7FF469A","title":"云南南路炸猪排","lon":"121.481","lat":"31.2278","category":"68","category_name":"快餐厅","address":"黄浦区云南南路111弄内(近金陵东路)"},{"poiid":"B2094757D06AAAF54992","title":"组合发型(金陵东路店)","lon":"121.48051","lat":"31.22704","category":"148","category_name":"美容美发店","address":"上海黄浦区金陵东路500号(近西藏南路)"},{"poiid":"B2094757D56EA6F8409E","title":"大麦售票处（宁海路申鑫大厦）","lon":"121.48169875145","lat":"31.2291054861415","category":"248","category_name":"生活娱乐","address":"上海市黄浦区宁海东路200号8楼"},{"poiid":"B2094655D26AA1F44392","title":"明堂青年旅舍","lon":"121.48131","lat":"31.22923","category":"217","category_name":"旅馆招待所","address":"黄浦区永寿路35号(近延安东路)"},{"poiid":"B2094654DB64ABFC4592","title":"新世界假日豪都酒店","lon":"121.48165","lat":"31.22786","category":"250","category_name":"公园户外","address":"黄浦区广西南路41号(近金陵东路)"},{"poiid":"B2094757D068A3FD469A","title":"埃洛美甲","lon":"121.482538","lat":"31.229008","category":"149","category_name":"洗浴推拿场所","address":"上海浙江南路69号"},{"poiid":"B2094655D26AAAFA4492","title":"上游社会桌游俱乐部","lon":"121.48243","lat":"31.22873","category":"248","category_name":"生活娱乐","address":"黄浦区浙江南路88号东新大厦216商铺(近宁海东路)"},{"poiid":"B2094757D06BA7FA489B","title":"成昌园子店","lon":"121.481348","lat":"31.227146","category":"68","category_name":"快餐厅","address":"黄浦区云南南路87号(近金陵中路)"},{"poiid":"B2094654DA6EA6FD449D","title":"钱柜(浪达包装(上海)有限公司东)","lon":"121.48193","lat":"31.22918","category":"170","category_name":"KTV","address":"浙江南路68"},{"poiid":"B2094757D069A4F84793","title":"永宁台球","lon":"121.4814","lat":"31.22917","category":"171","category_name":"台球厅","address":"上海黄浦区永寿路11号4楼(近延安路高架)  "},{"poiid":"B2094757D068A4F9489B","title":"京都拉面太郎","lon":"121.48188083","lat":"31.229529914","category":"95","category_name":"日本料理","address":"黄浦区浙江南路48号(近宁海东路)"},{"poiid":"B2094757D16DA5FE479E","title":"正宗新疆烤肉串","lon":"121.480703138","lat":"31.2278364491","category":"68","category_name":"快餐厅","address":"黄浦区淮海东路52号(近云南南路)"},{"poiid":"B2094654DB6AA3F5409D","title":"图门郎特色烧烤(云南南路店)","lon":"121.4816","lat":"31.22662","category":"247","category_name":"餐饮美食","address":"黄浦区云南南路127号(近金陵东路)"}]