[{"poiid":"B2094655D26AA0FC4793","title":"星光摄影器材城鲁班路店","lon":"121.47448","lat":"31.20316","category":"126","category_name":"摄影器材店","address":"卢湾区鲁班路300号(近斜土路)"},{"poiid":"B2094654DB6AA6F8439E","title":"上海华美达和平大酒店","lon":"121.47293","lat":"31.20216","category":"214","category_name":"四星级宾馆","address":"上海市黄浦区斜土路688号(近打浦路)"},{"poiid":"B2094757D06FA0FD4599","title":"玛格萝妮比萨屋(卢湾店)","lon":"121.47116","lat":"31.20111","category":"94","category_name":"西餐厅","address":"卢湾区打浦路200弄1号(近斜土路)"},{"poiid":"B2094753D76FAAFA449C","title":"上海滩国泰旗舰店","lon":"121.466011","lat":"31.216125","category":"249","category_name":"购物服务","address":"淮海中路868号"},{"poiid":"B209475CD564A7F84292","title":"上海滩新天地店","lon":"121.47463","lat":"31.22164","category":"119","category_name":"商场","address":"\"太仓路181弄新天地北里15号\r\n\""},{"poiid":"B2094757D06FA2F5499D","title":"世纪联华(鲁班店)","lon":"121.47412","lat":"31.20269","category":"118","category_name":"超级市场","address":"卢湾区斜土路645号(近打浦路)"},{"poiid":"B2094757D069A7F84498","title":"铭圣养生素餐厅","lon":"121.47142","lat":"31.20176","category":"89","category_name":"中式素餐馆","address":"卢湾区斜土路768号(打浦路口)"},{"poiid":"B2094757D068A2FF4992","title":"海悦花园","lon":"121.47459","lat":"31.201345","category":"47","category_name":"住宅区","address":"上海鲁班路388弄-16号"},{"poiid":"B2094757D06FA4FA4493","title":"南北高架路","lon":"121.47530585","lat":"31.202839131","category":"500","category_name":"未知分类","address":"上海鲁班路斜土路"},{"poiid":"B2094655D36CA5FD4098","title":"打浦路斜土路","lon":"121.47119","lat":"31.20111","category":"38","category_name":"公交车站","address":"打浦路"},{"poiid":"B2094757D069AAFC4992","title":"佬湘楼","lon":"121.47239","lat":"31.20172","category":"77","category_name":"湖南菜","address":"卢湾区斜土路730号(打浦路口)"},{"poiid":"B2094751D568A5FA499A","title":"东方医院","lon":"121.471038","lat":"31.201765","category":"162","category_name":"医院","address":"浦东大道即墨路150号"},{"poiid":"B2094757D16CABF5489C","title":"斯格威铂尔曼","lon":"121.47579365","lat":"31.201505989","category":"500","category_name":"未知分类","address":"上海打浦路15号"},{"poiid":"B2094757D16BA3FD4999","title":"上海浦東國際機場","lon":"121.474915738","lat":"31.2013196842","category":"500","category_name":"未知分类","address":"上海"},{"poiid":"B2094757D16CAAF84693","title":"米兰护肤造型中心(斜土路店)","lon":"121.47398973","lat":"31.201712692","category":"148","category_name":"美容美发店","address":"徐汇区斜土路792号(近打浦路)"},{"poiid":"B2094655D268A4F5469D","title":"皇府","lon":"121.472192054","lat":"31.202413793","category":"72","category_name":"广东菜","address":"卢湾区斜土路688弄华美达和平宾馆3楼(近打浦路)"},{"poiid":"B2094654DA6EA3FE489C","title":"明德坊","lon":"121.47341","lat":"31.201897","category":"47","category_name":"住宅区","address":"斜土路678弄1-3"},{"poiid":"B2094757D06FA6FF4793","title":"红宝石(打浦路店)","lon":"121.4723","lat":"31.19916","category":"67","category_name":"甜品店","address":"卢湾区打浦路333号(近瞿溪路)"},{"poiid":"B2094757D069AAFC4598","title":"东泰花苑","lon":"121.47208","lat":"31.200804","category":"47","category_name":"住宅区","address":"上海市卢湾区打浦路299弄"},{"poiid":"B2094757D069A7F94799","title":"coco都可茶饮(打浦路店)","lon":"121.47204363","lat":"31.202857617","category":"113","category_name":"冷饮店","address":"卢湾区打浦路92-3号格林豪泰酒店(近斜土路)"},{"poiid":"B2094654DA6EA3FE499B","title":"同德教育专修学院","lon":"121.47276","lat":"31.20159","category":"52","category_name":"高等院校","address":"斜土路716号2号楼3层"},{"poiid":"B2094655D36CA3FE409D","title":"丝庐花语三期","lon":"121.472662","lat":"31.201529","category":"47","category_name":"住宅区","address":"上海市徐汇区零陵路29弄6号"},{"poiid":"B2094750D569ABFC499C","title":"海悦花园一期","lon":"121.47409","lat":"31.201042","category":"47","category_name":"住宅区","address":"上海市卢湾区鲁班路388号"},{"poiid":"B2094655D268A4F5469F","title":"明德坊(北门)","lon":"121.47331","lat":"31.20234","category":"47","category_name":"住宅区","address":""},{"poiid":"B2094757D665A2F44592","title":"蓝色海岸西餐厅","lon":"121.472192054","lat":"31.202413793","category":"268","category_name":"自助","address":"卢湾区斜土路688号华美达和平大酒店1楼(近鲁班路)"},{"poiid":"B2094454D26FA7F8459B","title":"王子公主奇遇记","lon":"121.474678","lat":"31.202732","category":"248","category_name":"生活娱乐","address":"上海市 打浦桥"},{"poiid":"B2094757D56CABFA449B","title":"金盘子新朝菜","lon":"121.4712633","lat":"31.2020223","category":"87","category_name":"特色／地方风味餐厅","address":"上海卢湾区斜土路768号致远大厦2楼(近打浦路)  "},{"poiid":"B2094655D26FAAF54392","title":"同德教育专修学院(北门)","lon":"121.47246","lat":"31.20214","category":"52","category_name":"高等院校","address":"斜土路716号2号楼3层"},{"poiid":"B2094757D66CA3FA4093","title":"上海理工大学燃烧学与尸体焚化技术研究所一教201分所","lon":"121.47294893","lat":"31.201775593","category":"500","category_name":"未知分类","address":"上海军工路516号上理一教"},{"poiid":"B2094654DA6EA3FE4893","title":"上海第二医科大学分部","lon":"121.47238","lat":"31.20213","category":"52","category_name":"高等院校","address":"斜土路716"},{"poiid":"B2094655D26AA6FB4293","title":"重庆奔吃麻辣烫斜土路店","lon":"121.47142","lat":"31.20176","category":"68","category_name":"快餐厅","address":"卢湾区斜土路768-4号致远大厦1楼(打浦路口)"},{"poiid":"B2094654DB65A5FB449F","title":"中国电信(斜土路第一营业厅)","lon":"121.47186","lat":"31.202","category":"151","category_name":"电讯营业厅","address":"卢湾区斜土路760号(打浦路口)"},{"poiid":"B2094655D268A1FC489B","title":"斜土路734弄小区","lon":"121.47228","lat":"31.20196","category":"47","category_name":"住宅区","address":"斜土路734弄1-2号"},{"poiid":"B2094757D76EA3FC439D","title":"顺丰面馆","lon":"121.47127","lat":"31.20287","category":"68","category_name":"快餐厅","address":"卢湾区南塘浜路126号(近打浦路)"},{"poiid":"B2094757D064A7FE489F","title":"上海老年大学","lon":"121.47308","lat":"31.20323","category":"53","category_name":"成人教育","address":"卢湾区南塘浜路117号(近打浦路)"},{"poiid":"B2094654DB65A3F9489E","title":"教师公寓楼","lon":"121.47229","lat":"31.20124","category":"47","category_name":"住宅区","address":"斜土路766弄2号-3号"},{"poiid":"B2094654DA6EA3FE4692","title":"莱兴公寓","lon":"121.472","lat":"31.201628","category":"47","category_name":"住宅区","address":"卢湾区斜土路766弄"},{"poiid":"B2094753D76BA0F54698","title":"燕庭下午茶","lon":"121.472953","lat":"31.204437","category":"247","category_name":"餐饮美食","address":"上海市 日月光广场（徐家汇路618号）"},{"poiid":"B2094757D169A6FD4998","title":"五芳面馆","lon":"121.47124265","lat":"31.201167886","category":"68","category_name":"快餐厅","address":"卢湾区打浦路318号(近瞿溪路)"},{"poiid":"B2094757D66EA6FB429E","title":"佳佳汤包","lon":"121.475238738","lat":"31.2028957178","category":"247","category_name":"餐饮美食","address":"上海市卢湾区丽园路"},{"poiid":"B2094757D16EA2FC429B","title":"好美家(斜土店)","lon":"121.47455","lat":"31.20221","category":"500","category_name":"未知分类","address":"卢湾区斜土路645号(近打浦路)"},{"poiid":"B2094655D268A1FC4898","title":"斜土路734弄小区(北门)","lon":"121.47212","lat":"31.20208","category":"47","category_name":"住宅区","address":"斜土路734弄1-2号"},{"poiid":"B2094757D06FA5FA449F","title":"农工商(打浦店)","lon":"121.4721521","lat":"31.1992501775","category":"118","category_name":"超级市场","address":"卢湾区打浦路603号(近中山南一路)"},{"poiid":"B2094757D16FA6FA499F","title":"柏森养生馆","lon":"121.47137133","lat":"31.200446765","category":"148","category_name":"美容美发店","address":"上海打浦路299弄东泰花苑9号楼二楼"},{"poiid":"B2094757D16EA4FE429F","title":"合富置业海悦分行","lon":"121.47431748","lat":"31.201995228","category":"500","category_name":"未知分类","address":"上海卢湾区斜土路636号"},{"poiid":"B2094654DA6EA3FF419D","title":"上海市卢湾区老干部大学","lon":"121.47229","lat":"31.20256","category":"53","category_name":"成人教育","address":"斜土路717号"},{"poiid":"B2094654DB6BABF94399","title":"沧浪亭(斜土路)","lon":"121.4757","lat":"31.20295","category":"87","category_name":"特色／地方风味餐厅","address":"卢湾区斜土路(鲁班路口)"},{"poiid":"B2094751D569A7FB469F","title":"上海长海医院","lon":"121.474481","lat":"31.200091","category":"162","category_name":"医院","address":null},{"poiid":"B2094757D16FAAFC4499","title":"中国联通斜土路营业厅","lon":"121.474473","lat":"31.202627","category":"500","category_name":"未知分类","address":"徐汇区斜土路608号"},{"poiid":"B2094751DA64A6F8459E","title":"上海出入境管理局卢湾分局","lon":"121.475488","lat":"31.200465","category":"252","category_name":"楼宇机构","address":"蒙自路701号"},{"poiid":"B2094655D26AA0FC4793","title":"星光摄影器材城鲁班路店","lon":"121.47448","lat":"31.20316","category":"126","category_name":"摄影器材店","address":"卢湾区鲁班路300号(近斜土路)"},{"poiid":"B2094654DB6AA6F8439E","title":"上海华美达和平大酒店","lon":"121.47293","lat":"31.20216","category":"214","category_name":"四星级宾馆","address":"上海市黄浦区斜土路688号(近打浦路)"},{"poiid":"B2094757D06FA0FD4599","title":"玛格萝妮比萨屋(卢湾店)","lon":"121.47116","lat":"31.20111","category":"94","category_name":"西餐厅","address":"卢湾区打浦路200弄1号(近斜土路)"},{"poiid":"B2094753D76FAAFA449C","title":"上海滩国泰旗舰店","lon":"121.466011","lat":"31.216125","category":"249","category_name":"购物服务","address":"淮海中路868号"},{"poiid":"B209475CD564A7F84292","title":"上海滩新天地店","lon":"121.47463","lat":"31.22164","category":"119","category_name":"商场","address":"\"太仓路181弄新天地北里15号\r\n\""},{"poiid":"B2094757D06FA2F5499D","title":"世纪联华(鲁班店)","lon":"121.47412","lat":"31.20269","category":"118","category_name":"超级市场","address":"卢湾区斜土路645号(近打浦路)"},{"poiid":"B2094757D069A7F84498","title":"铭圣养生素餐厅","lon":"121.47142","lat":"31.20176","category":"89","category_name":"中式素餐馆","address":"卢湾区斜土路768号(打浦路口)"},{"poiid":"B2094757D068A2FF4992","title":"海悦花园","lon":"121.47459","lat":"31.201345","category":"47","category_name":"住宅区","address":"上海鲁班路388弄-16号"},{"poiid":"B2094757D06FA4FA4493","title":"南北高架路","lon":"121.47530585","lat":"31.202839131","category":"500","category_name":"未知分类","address":"上海鲁班路斜土路"},{"poiid":"B2094655D36CA5FD4098","title":"打浦路斜土路","lon":"121.47119","lat":"31.20111","category":"38","category_name":"公交车站","address":"打浦路"},{"poiid":"B2094757D069AAFC4992","title":"佬湘楼","lon":"121.47239","lat":"31.20172","category":"77","category_name":"湖南菜","address":"卢湾区斜土路730号(打浦路口)"},{"poiid":"B2094751D568A5FA499A","title":"东方医院","lon":"121.471038","lat":"31.201765","category":"162","category_name":"医院","address":"浦东大道即墨路150号"},{"poiid":"B2094757D16CABF5489C","title":"斯格威铂尔曼","lon":"121.47579365","lat":"31.201505989","category":"500","category_name":"未知分类","address":"上海打浦路15号"},{"poiid":"B2094757D16BA3FD4999","title":"上海浦東國際機場","lon":"121.474915738","lat":"31.2013196842","category":"500","category_name":"未知分类","address":"上海"},{"poiid":"B2094757D16CAAF84693","title":"米兰护肤造型中心(斜土路店)","lon":"121.47398973","lat":"31.201712692","category":"148","category_name":"美容美发店","address":"徐汇区斜土路792号(近打浦路)"},{"poiid":"B2094655D268A4F5469D","title":"皇府","lon":"121.472192054","lat":"31.202413793","category":"72","category_name":"广东菜","address":"卢湾区斜土路688弄华美达和平宾馆3楼(近打浦路)"},{"poiid":"B2094654DA6EA3FE489C","title":"明德坊","lon":"121.47341","lat":"31.201897","category":"47","category_name":"住宅区","address":"斜土路678弄1-3"},{"poiid":"B2094757D06FA6FF4793","title":"红宝石(打浦路店)","lon":"121.4723","lat":"31.19916","category":"67","category_name":"甜品店","address":"卢湾区打浦路333号(近瞿溪路)"},{"poiid":"B2094757D069AAFC4598","title":"东泰花苑","lon":"121.47208","lat":"31.200804","category":"47","category_name":"住宅区","address":"上海市卢湾区打浦路299弄"},{"poiid":"B2094757D069A7F94799","title":"coco都可茶饮(打浦路店)","lon":"121.47204363","lat":"31.202857617","category":"113","category_name":"冷饮店","address":"卢湾区打浦路92-3号格林豪泰酒店(近斜土路)"},{"poiid":"B2094654DA6EA3FE499B","title":"同德教育专修学院","lon":"121.47276","lat":"31.20159","category":"52","category_name":"高等院校","address":"斜土路716号2号楼3层"},{"poiid":"B2094655D36CA3FE409D","title":"丝庐花语三期","lon":"121.472662","lat":"31.201529","category":"47","category_name":"住宅区","address":"上海市徐汇区零陵路29弄6号"},{"poiid":"B2094750D569ABFC499C","title":"海悦花园一期","lon":"121.47409","lat":"31.201042","category":"47","category_name":"住宅区","address":"上海市卢湾区鲁班路388号"},{"poiid":"B2094655D268A4F5469F","title":"明德坊(北门)","lon":"121.47331","lat":"31.20234","category":"47","category_name":"住宅区","address":""},{"poiid":"B2094757D665A2F44592","title":"蓝色海岸西餐厅","lon":"121.472192054","lat":"31.202413793","category":"268","category_name":"自助","address":"卢湾区斜土路688号华美达和平大酒店1楼(近鲁班路)"},{"poiid":"B2094454D26FA7F8459B","title":"王子公主奇遇记","lon":"121.474678","lat":"31.202732","category":"248","category_name":"生活娱乐","address":"上海市 打浦桥"},{"poiid":"B2094757D56CABFA449B","title":"金盘子新朝菜","lon":"121.4712633","lat":"31.2020223","category":"87","category_name":"特色／地方风味餐厅","address":"上海卢湾区斜土路768号致远大厦2楼(近打浦路)  "},{"poiid":"B2094655D26FAAF54392","title":"同德教育专修学院(北门)","lon":"121.47246","lat":"31.20214","category":"52","category_name":"高等院校","address":"斜土路716号2号楼3层"},{"poiid":"B2094757D66CA3FA4093","title":"上海理工大学燃烧学与尸体焚化技术研究所一教201分所","lon":"121.47294893","lat":"31.201775593","category":"500","category_name":"未知分类","address":"上海军工路516号上理一教"},{"poiid":"B2094654DA6EA3FE4893","title":"上海第二医科大学分部","lon":"121.47238","lat":"31.20213","category":"52","category_name":"高等院校","address":"斜土路716"},{"poiid":"B2094655D26AA6FB4293","title":"重庆奔吃麻辣烫斜土路店","lon":"121.47142","lat":"31.20176","category":"68","category_name":"快餐厅","address":"卢湾区斜土路768-4号致远大厦1楼(打浦路口)"},{"poiid":"B2094654DB65A5FB449F","title":"中国电信(斜土路第一营业厅)","lon":"121.47186","lat":"31.202","category":"151","category_name":"电讯营业厅","address":"卢湾区斜土路760号(打浦路口)"},{"poiid":"B2094655D268A1FC489B","title":"斜土路734弄小区","lon":"121.47228","lat":"31.20196","category":"47","category_name":"住宅区","address":"斜土路734弄1-2号"},{"poiid":"B2094757D76EA3FC439D","title":"顺丰面馆","lon":"121.47127","lat":"31.20287","category":"68","category_name":"快餐厅","address":"卢湾区南塘浜路126号(近打浦路)"},{"poiid":"B2094757D064A7FE489F","title":"上海老年大学","lon":"121.47308","lat":"31.20323","category":"53","category_name":"成人教育","address":"卢湾区南塘浜路117号(近打浦路)"},{"poiid":"B2094654DB65A3F9489E","title":"教师公寓楼","lon":"121.47229","lat":"31.20124","category":"47","category_name":"住宅区","address":"斜土路766弄2号-3号"},{"poiid":"B2094654DA6EA3FE4692","title":"莱兴公寓","lon":"121.472","lat":"31.201628","category":"47","category_name":"住宅区","address":"卢湾区斜土路766弄"},{"poiid":"B2094753D76BA0F54698","title":"燕庭下午茶","lon":"121.472953","lat":"31.204437","category":"247","category_name":"餐饮美食","address":"上海市 日月光广场（徐家汇路618号）"},{"poiid":"B2094757D169A6FD4998","title":"五芳面馆","lon":"121.47124265","lat":"31.201167886","category":"68","category_name":"快餐厅","address":"卢湾区打浦路318号(近瞿溪路)"},{"poiid":"B2094757D66EA6FB429E","title":"佳佳汤包","lon":"121.475238738","lat":"31.2028957178","category":"247","category_name":"餐饮美食","address":"上海市卢湾区丽园路"},{"poiid":"B2094757D16EA2FC429B","title":"好美家(斜土店)","lon":"121.47455","lat":"31.20221","category":"500","category_name":"未知分类","address":"卢湾区斜土路645号(近打浦路)"},{"poiid":"B2094655D268A1FC4898","title":"斜土路734弄小区(北门)","lon":"121.47212","lat":"31.20208","category":"47","category_name":"住宅区","address":"斜土路734弄1-2号"},{"poiid":"B2094757D06FA5FA449F","title":"农工商(打浦店)","lon":"121.4721521","lat":"31.1992501775","category":"118","category_name":"超级市场","address":"卢湾区打浦路603号(近中山南一路)"},{"poiid":"B2094757D16FA6FA499F","title":"柏森养生馆","lon":"121.47137133","lat":"31.200446765","category":"148","category_name":"美容美发店","address":"上海打浦路299弄东泰花苑9号楼二楼"},{"poiid":"B2094757D16EA4FE429F","title":"合富置业海悦分行","lon":"121.47431748","lat":"31.201995228","category":"500","category_name":"未知分类","address":"上海卢湾区斜土路636号"},{"poiid":"B2094654DA6EA3FF419D","title":"上海市卢湾区老干部大学","lon":"121.47229","lat":"31.20256","category":"53","category_name":"成人教育","address":"斜土路717号"},{"poiid":"B2094654DB6BABF94399","title":"沧浪亭(斜土路)","lon":"121.4757","lat":"31.20295","category":"87","category_name":"特色／地方风味餐厅","address":"卢湾区斜土路(鲁班路口)"},{"poiid":"B2094751D569A7FB469F","title":"上海长海医院","lon":"121.474481","lat":"31.200091","category":"162","category_name":"医院","address":null},{"poiid":"B2094757D16FAAFC4499","title":"中国联通斜土路营业厅","lon":"121.474473","lat":"31.202627","category":"500","category_name":"未知分类","address":"徐汇区斜土路608号"},{"poiid":"B2094751DA64A6F8459E","title":"上海出入境管理局卢湾分局","lon":"121.475488","lat":"31.200465","category":"252","category_name":"楼宇机构","address":"蒙自路701号"},{"poiid":"B2094655D26AA0FC4793","title":"星光摄影器材城鲁班路店","lon":"121.47448","lat":"31.20316","category":"126","category_name":"摄影器材店","address":"卢湾区鲁班路300号(近斜土路)"},{"poiid":"B2094654DB6AA6F8439E","title":"上海华美达和平大酒店","lon":"121.47293","lat":"31.20216","category":"214","category_name":"四星级宾馆","address":"上海市黄浦区斜土路688号(近打浦路)"},{"poiid":"B2094757D06FA0FD4599","title":"玛格萝妮比萨屋(卢湾店)","lon":"121.47116","lat":"31.20111","category":"94","category_name":"西餐厅","address":"卢湾区打浦路200弄1号(近斜土路)"},{"poiid":"B2094753D76FAAFA449C","title":"上海滩国泰旗舰店","lon":"121.466011","lat":"31.216125","category":"249","category_name":"购物服务","address":"淮海中路868号"},{"poiid":"B209475CD564A7F84292","title":"上海滩新天地店","lon":"121.47463","lat":"31.22164","category":"119","category_name":"商场","address":"\"太仓路181弄新天地北里15号\r\n\""},{"poiid":"B2094757D06FA2F5499D","title":"世纪联华(鲁班店)","lon":"121.47412","lat":"31.20269","category":"118","category_name":"超级市场","address":"卢湾区斜土路645号(近打浦路)"},{"poiid":"B2094757D069A7F84498","title":"铭圣养生素餐厅","lon":"121.47142","lat":"31.20176","category":"89","category_name":"中式素餐馆","address":"卢湾区斜土路768号(打浦路口)"},{"poiid":"B2094757D068A2FF4992","title":"海悦花园","lon":"121.47459","lat":"31.201345","category":"47","category_name":"住宅区","address":"上海鲁班路388弄-16号"},{"poiid":"B2094757D06FA4FA4493","title":"南北高架路","lon":"121.47530585","lat":"31.202839131","category":"500","category_name":"未知分类","address":"上海鲁班路斜土路"},{"poiid":"B2094655D36CA5FD4098","title":"打浦路斜土路","lon":"121.47119","lat":"31.20111","category":"38","category_name":"公交车站","address":"打浦路"},{"poiid":"B2094757D069AAFC4992","title":"佬湘楼","lon":"121.47239","lat":"31.20172","category":"77","category_name":"湖南菜","address":"卢湾区斜土路730号(打浦路口)"},{"poiid":"B2094751D568A5FA499A","title":"东方医院","lon":"121.471038","lat":"31.201765","category":"162","category_name":"医院","address":"浦东大道即墨路150号"},{"poiid":"B2094757D16CABF5489C","title":"斯格威铂尔曼","lon":"121.47579365","lat":"31.201505989","category":"500","category_name":"未知分类","address":"上海打浦路15号"},{"poiid":"B2094757D16BA3FD4999","title":"上海浦東國際機場","lon":"121.474915738","lat":"31.2013196842","category":"500","category_name":"未知分类","address":"上海"},{"poiid":"B2094757D16CAAF84693","title":"米兰护肤造型中心(斜土路店)","lon":"121.47398973","lat":"31.201712692","category":"148","category_name":"美容美发店","address":"徐汇区斜土路792号(近打浦路)"},{"poiid":"B2094655D268A4F5469D","title":"皇府","lon":"121.472192054","lat":"31.202413793","category":"72","category_name":"广东菜","address":"卢湾区斜土路688弄华美达和平宾馆3楼(近打浦路)"},{"poiid":"B2094654DA6EA3FE489C","title":"明德坊","lon":"121.47341","lat":"31.201897","category":"47","category_name":"住宅区","address":"斜土路678弄1-3"},{"poiid":"B2094757D06FA6FF4793","title":"红宝石(打浦路店)","lon":"121.4723","lat":"31.19916","category":"67","category_name":"甜品店","address":"卢湾区打浦路333号(近瞿溪路)"},{"poiid":"B2094757D069AAFC4598","title":"东泰花苑","lon":"121.47208","lat":"31.200804","category":"47","category_name":"住宅区","address":"上海市卢湾区打浦路299弄"},{"poiid":"B2094757D069A7F94799","title":"coco都可茶饮(打浦路店)","lon":"121.47204363","lat":"31.202857617","category":"113","category_name":"冷饮店","address":"卢湾区打浦路92-3号格林豪泰酒店(近斜土路)"},{"poiid":"B2094654DA6EA3FE499B","title":"同德教育专修学院","lon":"121.47276","lat":"31.20159","category":"52","category_name":"高等院校","address":"斜土路716号2号楼3层"},{"poiid":"B2094655D36CA3FE409D","title":"丝庐花语三期","lon":"121.472662","lat":"31.201529","category":"47","category_name":"住宅区","address":"上海市徐汇区零陵路29弄6号"},{"poiid":"B2094750D569ABFC499C","title":"海悦花园一期","lon":"121.47409","lat":"31.201042","category":"47","category_name":"住宅区","address":"上海市卢湾区鲁班路388号"},{"poiid":"B2094655D268A4F5469F","title":"明德坊(北门)","lon":"121.47331","lat":"31.20234","category":"47","category_name":"住宅区","address":""},{"poiid":"B2094757D665A2F44592","title":"蓝色海岸西餐厅","lon":"121.472192054","lat":"31.202413793","category":"268","category_name":"自助","address":"卢湾区斜土路688号华美达和平大酒店1楼(近鲁班路)"},{"poiid":"B2094454D26FA7F8459B","title":"王子公主奇遇记","lon":"121.474678","lat":"31.202732","category":"248","category_name":"生活娱乐","address":"上海市 打浦桥"},{"poiid":"B2094757D56CABFA449B","title":"金盘子新朝菜","lon":"121.4712633","lat":"31.2020223","category":"87","category_name":"特色／地方风味餐厅","address":"上海卢湾区斜土路768号致远大厦2楼(近打浦路)  "},{"poiid":"B2094655D26FAAF54392","title":"同德教育专修学院(北门)","lon":"121.47246","lat":"31.20214","category":"52","category_name":"高等院校","address":"斜土路716号2号楼3层"},{"poiid":"B2094757D66CA3FA4093","title":"上海理工大学燃烧学与尸体焚化技术研究所一教201分所","lon":"121.47294893","lat":"31.201775593","category":"500","category_name":"未知分类","address":"上海军工路516号上理一教"},{"poiid":"B2094654DA6EA3FE4893","title":"上海第二医科大学分部","lon":"121.47238","lat":"31.20213","category":"52","category_name":"高等院校","address":"斜土路716"},{"poiid":"B2094655D26AA6FB4293","title":"重庆奔吃麻辣烫斜土路店","lon":"121.47142","lat":"31.20176","category":"68","category_name":"快餐厅","address":"卢湾区斜土路768-4号致远大厦1楼(打浦路口)"},{"poiid":"B2094654DB65A5FB449F","title":"中国电信(斜土路第一营业厅)","lon":"121.47186","lat":"31.202","category":"151","category_name":"电讯营业厅","address":"卢湾区斜土路760号(打浦路口)"},{"poiid":"B2094655D268A1FC489B","title":"斜土路734弄小区","lon":"121.47228","lat":"31.20196","category":"47","category_name":"住宅区","address":"斜土路734弄1-2号"},{"poiid":"B2094757D76EA3FC439D","title":"顺丰面馆","lon":"121.47127","lat":"31.20287","category":"68","category_name":"快餐厅","address":"卢湾区南塘浜路126号(近打浦路)"},{"poiid":"B2094757D064A7FE489F","title":"上海老年大学","lon":"121.47308","lat":"31.20323","category":"53","category_name":"成人教育","address":"卢湾区南塘浜路117号(近打浦路)"},{"poiid":"B2094654DB65A3F9489E","title":"教师公寓楼","lon":"121.47229","lat":"31.20124","category":"47","category_name":"住宅区","address":"斜土路766弄2号-3号"},{"poiid":"B2094654DA6EA3FE4692","title":"莱兴公寓","lon":"121.472","lat":"31.201628","category":"47","category_name":"住宅区","address":"卢湾区斜土路766弄"},{"poiid":"B2094753D76BA0F54698","title":"燕庭下午茶","lon":"121.472953","lat":"31.204437","category":"247","category_name":"餐饮美食","address":"上海市 日月光广场（徐家汇路618号）"},{"poiid":"B2094757D169A6FD4998","title":"五芳面馆","lon":"121.47124265","lat":"31.201167886","category":"68","category_name":"快餐厅","address":"卢湾区打浦路318号(近瞿溪路)"},{"poiid":"B2094757D66EA6FB429E","title":"佳佳汤包","lon":"121.475238738","lat":"31.2028957178","category":"247","category_name":"餐饮美食","address":"上海市卢湾区丽园路"},{"poiid":"B2094757D16EA2FC429B","title":"好美家(斜土店)","lon":"121.47455","lat":"31.20221","category":"500","category_name":"未知分类","address":"卢湾区斜土路645号(近打浦路)"},{"poiid":"B2094655D268A1FC4898","title":"斜土路734弄小区(北门)","lon":"121.47212","lat":"31.20208","category":"47","category_name":"住宅区","address":"斜土路734弄1-2号"},{"poiid":"B2094757D06FA5FA449F","title":"农工商(打浦店)","lon":"121.4721521","lat":"31.1992501775","category":"118","category_name":"超级市场","address":"卢湾区打浦路603号(近中山南一路)"},{"poiid":"B2094757D16FA6FA499F","title":"柏森养生馆","lon":"121.47137133","lat":"31.200446765","category":"148","category_name":"美容美发店","address":"上海打浦路299弄东泰花苑9号楼二楼"},{"poiid":"B2094757D16EA4FE429F","title":"合富置业海悦分行","lon":"121.47431748","lat":"31.201995228","category":"500","category_name":"未知分类","address":"上海卢湾区斜土路636号"},{"poiid":"B2094654DA6EA3FF419D","title":"上海市卢湾区老干部大学","lon":"121.47229","lat":"31.20256","category":"53","category_name":"成人教育","address":"斜土路717号"},{"poiid":"B2094654DB6BABF94399","title":"沧浪亭(斜土路)","lon":"121.4757","lat":"31.20295","category":"87","category_name":"特色／地方风味餐厅","address":"卢湾区斜土路(鲁班路口)"},{"poiid":"B2094751D569A7FB469F","title":"上海长海医院","lon":"121.474481","lat":"31.200091","category":"162","category_name":"医院","address":null},{"poiid":"B2094757D16FAAFC4499","title":"中国联通斜土路营业厅","lon":"121.474473","lat":"31.202627","category":"500","category_name":"未知分类","address":"徐汇区斜土路608号"},{"poiid":"B2094751DA64A6F8459E","title":"上海出入境管理局卢湾分局","lon":"121.475488","lat":"31.200465","category":"252","category_name":"楼宇机构","address":"蒙自路701号"},{"poiid":"B2094655D26AA0FC4793","title":"星光摄影器材城鲁班路店","lon":"121.47448","lat":"31.20316","category":"126","category_name":"摄影器材店","address":"卢湾区鲁班路300号(近斜土路)"},{"poiid":"B2094654DB6AA6F8439E","title":"上海华美达和平大酒店","lon":"121.47293","lat":"31.20216","category":"214","category_name":"四星级宾馆","address":"上海市黄浦区斜土路688号(近打浦路)"},{"poiid":"B2094757D06FA0FD4599","title":"玛格萝妮比萨屋(卢湾店)","lon":"121.47116","lat":"31.20111","category":"94","category_name":"西餐厅","address":"卢湾区打浦路200弄1号(近斜土路)"},{"poiid":"B2094753D76FAAFA449C","title":"上海滩国泰旗舰店","lon":"121.466011","lat":"31.216125","category":"249","category_name":"购物服务","address":"淮海中路868号"},{"poiid":"B209475CD564A7F84292","title":"上海滩新天地店","lon":"121.47463","lat":"31.22164","category":"119","category_name":"商场","address":"\"太仓路181弄新天地北里15号\r\n\""},{"poiid":"B2094757D06FA2F5499D","title":"世纪联华(鲁班店)","lon":"121.47412","lat":"31.20269","category":"118","category_name":"超级市场","address":"卢湾区斜土路645号(近打浦路)"},{"poiid":"B2094757D069A7F84498","title":"铭圣养生素餐厅","lon":"121.47142","lat":"31.20176","category":"89","category_name":"中式素餐馆","address":"卢湾区斜土路768号(打浦路口)"},{"poiid":"B2094757D068A2FF4992","title":"海悦花园","lon":"121.47459","lat":"31.201345","category":"47","category_name":"住宅区","address":"上海鲁班路388弄-16号"},{"poiid":"B2094757D06FA4FA4493","title":"南北高架路","lon":"121.47530585","lat":"31.202839131","category":"500","category_name":"未知分类","address":"上海鲁班路斜土路"},{"poiid":"B2094655D36CA5FD4098","title":"打浦路斜土路","lon":"121.47119","lat":"31.20111","category":"38","category_name":"公交车站","address":"打浦路"},{"poiid":"B2094757D069AAFC4992","title":"佬湘楼","lon":"121.47239","lat":"31.20172","category":"77","category_name":"湖南菜","address":"卢湾区斜土路730号(打浦路口)"},{"poiid":"B2094751D568A5FA499A","title":"东方医院","lon":"121.471038","lat":"31.201765","category":"162","category_name":"医院","address":"浦东大道即墨路150号"},{"poiid":"B2094757D16CABF5489C","title":"斯格威铂尔曼","lon":"121.47579365","lat":"31.201505989","category":"500","category_name":"未知分类","address":"上海打浦路15号"},{"poiid":"B2094757D16BA3FD4999","title":"上海浦東國際機場","lon":"121.474915738","lat":"31.2013196842","category":"500","category_name":"未知分类","address":"上海"},{"poiid":"B2094757D16CAAF84693","title":"米兰护肤造型中心(斜土路店)","lon":"121.47398973","lat":"31.201712692","category":"148","category_name":"美容美发店","address":"徐汇区斜土路792号(近打浦路)"},{"poiid":"B2094655D268A4F5469D","title":"皇府","lon":"121.472192054","lat":"31.202413793","category":"72","category_name":"广东菜","address":"卢湾区斜土路688弄华美达和平宾馆3楼(近打浦路)"},{"poiid":"B2094654DA6EA3FE489C","title":"明德坊","lon":"121.47341","lat":"31.201897","category":"47","category_name":"住宅区","address":"斜土路678弄1-3"},{"poiid":"B2094757D06FA6FF4793","title":"红宝石(打浦路店)","lon":"121.4723","lat":"31.19916","category":"67","category_name":"甜品店","address":"卢湾区打浦路333号(近瞿溪路)"},{"poiid":"B2094757D069AAFC4598","title":"东泰花苑","lon":"121.47208","lat":"31.200804","category":"47","category_name":"住宅区","address":"上海市卢湾区打浦路299弄"},{"poiid":"B2094757D069A7F94799","title":"coco都可茶饮(打浦路店)","lon":"121.47204363","lat":"31.202857617","category":"113","category_name":"冷饮店","address":"卢湾区打浦路92-3号格林豪泰酒店(近斜土路)"},{"poiid":"B2094654DA6EA3FE499B","title":"同德教育专修学院","lon":"121.47276","lat":"31.20159","category":"52","category_name":"高等院校","address":"斜土路716号2号楼3层"},{"poiid":"B2094655D36CA3FE409D","title":"丝庐花语三期","lon":"121.472662","lat":"31.201529","category":"47","category_name":"住宅区","address":"上海市徐汇区零陵路29弄6号"},{"poiid":"B2094750D569ABFC499C","title":"海悦花园一期","lon":"121.47409","lat":"31.201042","category":"47","category_name":"住宅区","address":"上海市卢湾区鲁班路388号"},{"poiid":"B2094655D268A4F5469F","title":"明德坊(北门)","lon":"121.47331","lat":"31.20234","category":"47","category_name":"住宅区","address":""},{"poiid":"B2094757D665A2F44592","title":"蓝色海岸西餐厅","lon":"121.472192054","lat":"31.202413793","category":"268","category_name":"自助","address":"卢湾区斜土路688号华美达和平大酒店1楼(近鲁班路)"},{"poiid":"B2094454D26FA7F8459B","title":"王子公主奇遇记","lon":"121.474678","lat":"31.202732","category":"248","category_name":"生活娱乐","address":"上海市 打浦桥"},{"poiid":"B2094757D56CABFA449B","title":"金盘子新朝菜","lon":"121.4712633","lat":"31.2020223","category":"87","category_name":"特色／地方风味餐厅","address":"上海卢湾区斜土路768号致远大厦2楼(近打浦路)  "},{"poiid":"B2094655D26FAAF54392","title":"同德教育专修学院(北门)","lon":"121.47246","lat":"31.20214","category":"52","category_name":"高等院校","address":"斜土路716号2号楼3层"},{"poiid":"B2094757D66CA3FA4093","title":"上海理工大学燃烧学与尸体焚化技术研究所一教201分所","lon":"121.47294893","lat":"31.201775593","category":"500","category_name":"未知分类","address":"上海军工路516号上理一教"},{"poiid":"B2094654DA6EA3FE4893","title":"上海第二医科大学分部","lon":"121.47238","lat":"31.20213","category":"52","category_name":"高等院校","address":"斜土路716"},{"poiid":"B2094655D26AA6FB4293","title":"重庆奔吃麻辣烫斜土路店","lon":"121.47142","lat":"31.20176","category":"68","category_name":"快餐厅","address":"卢湾区斜土路768-4号致远大厦1楼(打浦路口)"},{"poiid":"B2094654DB65A5FB449F","title":"中国电信(斜土路第一营业厅)","lon":"121.47186","lat":"31.202","category":"151","category_name":"电讯营业厅","address":"卢湾区斜土路760号(打浦路口)"},{"poiid":"B2094655D268A1FC489B","title":"斜土路734弄小区","lon":"121.47228","lat":"31.20196","category":"47","category_name":"住宅区","address":"斜土路734弄1-2号"},{"poiid":"B2094757D76EA3FC439D","title":"顺丰面馆","lon":"121.47127","lat":"31.20287","category":"68","category_name":"快餐厅","address":"卢湾区南塘浜路126号(近打浦路)"},{"poiid":"B2094757D064A7FE489F","title":"上海老年大学","lon":"121.47308","lat":"31.20323","category":"53","category_name":"成人教育","address":"卢湾区南塘浜路117号(近打浦路)"},{"poiid":"B2094654DB65A3F9489E","title":"教师公寓楼","lon":"121.47229","lat":"31.20124","category":"47","category_name":"住宅区","address":"斜土路766弄2号-3号"},{"poiid":"B2094654DA6EA3FE4692","title":"莱兴公寓","lon":"121.472","lat":"31.201628","category":"47","category_name":"住宅区","address":"卢湾区斜土路766弄"},{"poiid":"B2094753D76BA0F54698","title":"燕庭下午茶","lon":"121.472953","lat":"31.204437","category":"247","category_name":"餐饮美食","address":"上海市 日月光广场（徐家汇路618号）"},{"poiid":"B2094757D169A6FD4998","title":"五芳面馆","lon":"121.47124265","lat":"31.201167886","category":"68","category_name":"快餐厅","address":"卢湾区打浦路318号(近瞿溪路)"},{"poiid":"B2094757D66EA6FB429E","title":"佳佳汤包","lon":"121.475238738","lat":"31.2028957178","category":"247","category_name":"餐饮美食","address":"上海市卢湾区丽园路"},{"poiid":"B2094757D16EA2FC429B","title":"好美家(斜土店)","lon":"121.47455","lat":"31.20221","category":"500","category_name":"未知分类","address":"卢湾区斜土路645号(近打浦路)"},{"poiid":"B2094655D268A1FC4898","title":"斜土路734弄小区(北门)","lon":"121.47212","lat":"31.20208","category":"47","category_name":"住宅区","address":"斜土路734弄1-2号"},{"poiid":"B2094757D06FA5FA449F","title":"农工商(打浦店)","lon":"121.4721521","lat":"31.1992501775","category":"118","category_name":"超级市场","address":"卢湾区打浦路603号(近中山南一路)"},{"poiid":"B2094757D16FA6FA499F","title":"柏森养生馆","lon":"121.47137133","lat":"31.200446765","category":"148","category_name":"美容美发店","address":"上海打浦路299弄东泰花苑9号楼二楼"},{"poiid":"B2094757D16EA4FE429F","title":"合富置业海悦分行","lon":"121.47431748","lat":"31.201995228","category":"500","category_name":"未知分类","address":"上海卢湾区斜土路636号"},{"poiid":"B2094654DA6EA3FF419D","title":"上海市卢湾区老干部大学","lon":"121.47229","lat":"31.20256","category":"53","category_name":"成人教育","address":"斜土路717号"},{"poiid":"B2094654DB6BABF94399","title":"沧浪亭(斜土路)","lon":"121.4757","lat":"31.20295","category":"87","category_name":"特色／地方风味餐厅","address":"卢湾区斜土路(鲁班路口)"},{"poiid":"B2094751D569A7FB469F","title":"上海长海医院","lon":"121.474481","lat":"31.200091","category":"162","category_name":"医院","address":null},{"poiid":"B2094757D16FAAFC4499","title":"中国联通斜土路营业厅","lon":"121.474473","lat":"31.202627","category":"500","category_name":"未知分类","address":"徐汇区斜土路608号"},{"poiid":"B2094751DA64A6F8459E","title":"上海出入境管理局卢湾分局","lon":"121.475488","lat":"31.200465","category":"252","category_name":"楼宇机构","address":"蒙自路701号"}]