[{"poiid":"B2094757D16CA3FB4692","title":"930私房菜(欧阳路店)","lon":"121.489328103","lat":"31.2680273722","category":"76","category_name":"上海菜","address":"虹口区欧阳路196号1号楼3楼(近四达路)"},{"poiid":"B2094757D06EAAFB4398","title":"邮电新村地铁站","lon":"121.49450107","lat":"31.268612797","category":"36","category_name":"地铁站","address":"上海轨道交通 十号线 轨交邮电新村站 10"},{"poiid":"B2094757D069A3FB4798","title":"四平路临平北路","lon":"121.4908431","lat":"31.264171","category":"260","category_name":"其他","address":"上海虹口区四平路临平北路"},{"poiid":"B2094757D06FABFD459D","title":"荣欣大厦","lon":"121.490138","lat":"31.26684","category":"252","category_name":"楼宇机构","address":"上海市四川北路1851号"},{"poiid":"B2094757D16EA1F4449B","title":"法兰桥创意园区","lon":"121.488876103","lat":"31.2667803462","category":"119","category_name":"商场","address":"上海虹口区欧阳路196号"},{"poiid":"B2094751D56CABF8409A","title":"上海大饭堂(四平路店)","lon":"121.49058","lat":"31.26357","category":"76","category_name":"上海菜","address":"虹口区四平路216号新能源大厦内(近临平北路)"},{"poiid":"B2094654D56DAAF4449D","title":"上海市地方税务局虹口区分局","lon":"121.49301","lat":"31.26348","category":"250","category_name":"公园户外","address":"虹口区临平北路35号"},{"poiid":"B2094655D26AAAFD4492","title":"上海莫泰168连锁酒店四平路店","lon":"121.49122","lat":"31.26606","category":"250","category_name":"公园户外","address":"上海市虹口区四平路333号（近四达路）"},{"poiid":"B2094654D56CA0FB419C","title":"绿洲紫荆花园","lon":"121.48959","lat":"31.268484","category":"47","category_name":"住宅区","address":"上海市虹口区欧阳路289号"},{"poiid":"B2094654D56CA7FF499C","title":"红城阁","lon":"121.49215","lat":"31.27108","category":"76","category_name":"上海菜","address":"虹口区曲阳路239号(近四平路)"},{"poiid":"B2094757D06BAAF4409F","title":"巨麦KTV","lon":"121.4916901","lat":"31.264270293","category":"170","category_name":"KTV","address":"虹口区物华路300号(近四平路)"},{"poiid":"B2094654DB6BA3F84993","title":"致真酒家 虹口店 Sincere Restaurant","lon":"121.490685054","lat":"31.263551793","category":"76","category_name":"上海菜","address":"虹口区四平路208号(近物华路)"},{"poiid":"B2094757D069A2F84693","title":"巴黎贝甜(欧阳店)","lon":"121.48845857","lat":"31.266445989","category":"67","category_name":"甜品店","address":"虹口区欧阳路198号(近吉祥路)"},{"poiid":"B2094654D56DAAF44592","title":"渡边国际商务楼","lon":"121.49254932887084","lat":"31.263657606365875","category":"46","category_name":"楼宇","address":"上海市虹口区临平北路55号"},{"poiid":"B2094757D068A7FD4193","title":"上海市社会保险基金管理中心","lon":"121.492274","lat":"31.270805","category":"500","category_name":"未知分类","address":"上海曲阳路179号"},{"poiid":"B2094757D06FABF9409F","title":"虹口区青少年活动中心","lon":"121.48973131","lat":"31.265364815","category":"260","category_name":"其他","address":"虹口区欧阳路67号(近四平路)"},{"poiid":"B2094757D66AA5FD4793","title":"次郎日式快餐 四平店","lon":"121.49134445846","lat":"31.265653123995","category":"68","category_name":"快餐厅","address":"虹口区四平路170号(近溧阳路)"},{"poiid":"B2094757D169A5FF439E","title":"知茵坊","lon":"121.4891937","lat":"31.266933649","category":"76","category_name":"上海菜","address":"虹口区欧阳路196弄22-23号"},{"poiid":"B2094757D06FA5F4409E","title":"JEANS108SALON(京世曲阳店)","lon":"121.49333","lat":"31.27012","category":"148","category_name":"美容美发店","address":"上海虹口区曲阳路108号(近四平路)"},{"poiid":"B2094757D06AAAF54798","title":"欧洲花园","lon":"121.492105","lat":"31.26443","category":"47","category_name":"住宅区","address":"上海临平北路89弄"},{"poiid":"B2094753D56AA3F84393","title":"五角场","lon":"121.492378","lat":"31.26682","category":"500","category_name":"未知分类","address":"上海市 淞沪路"},{"poiid":"B2094654D56CA7FE4392","title":"龙邸大厦","lon":"121.495557","lat":"31.266546","category":"46","category_name":"楼宇","address":"徐汇区田林路388号"},{"poiid":"B2094757D468A4F8449A","title":"海尚香","lon":"121.488248","lat":"31.267171","category":"76","category_name":"上海菜","address":"虹口区欧阳路196号法兰桥创意园(近四平路)"},{"poiid":"B2094655D265A1F4479B","title":"新陸花苑(北2号门)","lon":"121.49311","lat":"31.26705","category":"47","category_name":"住宅区","address":"四平路480弄1-2号"},{"poiid":"B2094757D76CA3F84298","title":"卧云茶敘","lon":"121.493871","lat":"31.268995","category":"66","category_name":"茶艺馆","address":"虹口区曲阳路26号(近四平路)"},{"poiid":"B2094654DB6BA3F9469C","title":"可的","lon":"121.49245","lat":"31.26651","category":"117","category_name":"便民商店/便利店","address":"虹口区四平路324号(近临平北路)"},{"poiid":"B2094757D16CA3FA4992","title":"同济大学雅憩","lon":"121.49458812","lat":"31.266952489","category":"253","category_name":"校园生活","address":"上海同济大学四平路建筑与城规学苑"},{"poiid":"B2094757D069A3FB459D","title":"一品干锅蛙","lon":"121.48837","lat":"31.26689","category":"71","category_name":"四川菜","address":"虹口区欧阳路196号法兰桥创意园1号楼2楼(近四达路)"},{"poiid":"B2094655D26CA0FF4898","title":"四达路25弄小区(北门)","lon":"121.49127","lat":"31.26681","category":"47","category_name":"住宅区","address":"四达路25弄1-4号"},{"poiid":"B2094757D06AA0FF479C","title":"85度C(欧阳店)","lon":"121.489107","lat":"31.2660613","category":"112","category_name":"糕饼店","address":"虹口区欧阳路196号1号楼1楼4-20室(近吉祥路)"},{"poiid":"B2094654D56DAAF5439C","title":"新陆花苑","lon":"121.49319","lat":"31.266626","category":"47","category_name":"住宅区","address":"莘华世家南园位于闵行莘西南路沁春路口"},{"poiid":"B2094655D26AA4F5429B","title":"玛萨SPA专业美容香熏生活馆曲阳店","lon":"121.49359","lat":"31.26848","category":"247","category_name":"餐饮美食","address":"虹口区曲阳路1号(近四平路)"},{"poiid":"B2094655D26AA4F84198","title":"上海市人才服务中心虹口区分部","lon":"121.49258","lat":"31.26798","category":"247","category_name":"餐饮美食","address":"虹口区四平路421弄20号(近临平路)"},{"poiid":"B2094654D56CA0FB449C","title":"虹口区第三中心小学分部","lon":"121.49035","lat":"31.26765","category":"56","category_name":"小学","address":"四达路96"},{"poiid":"B2094757D16CA0FE439C","title":"世博花园二期 馥敦坊","lon":"121.490123743","lat":"31.2679906114","category":"47","category_name":"住宅区","address":"上海市虹口区四达路58弄"},{"poiid":"B2094757D16EA2FF469B","title":"8号线曲阳路站","lon":"121.489662103","lat":"31.264428297","category":"500","category_name":"未知分类","address":"上海曲阳路大连路"},{"poiid":"B2094757D06FA4FD439E","title":"余庆坊","lon":"121.491","lat":"31.2679","category":"500","category_name":"未知分类","address":"上海虹口区四川北路1906号"},{"poiid":"B2094654D56CA7FF4799","title":"上海市虹口公证处","lon":"121.4928","lat":"31.26815","category":"250","category_name":"公园户外","address":"四平路421弄20号民通科技大楼"},{"poiid":"B2094654D56CA0F44299","title":"美玫美发","lon":"121.48892","lat":"31.26576","category":"148","category_name":"美容美发店","address":"欧阳路88"},{"poiid":"B2094757D06BA0FC429E","title":"玛萨SPA专业美容香熏生活馆(旗舰店)","lon":"121.4926","lat":"31.26603","category":"149","category_name":"洗浴推拿场所","address":"上海虹口区四平路293号(近临平路)  "},{"poiid":"B2094655D26FA0FA4898","title":"宏祥花苑","lon":"121.49262","lat":"31.26956","category":"47","category_name":"住宅区","address":"宏祥花苑位于虹口曲阳路69弄"},{"poiid":"B2094654D56DAAFC4298","title":"虹诚大厦","lon":"121.49148","lat":"31.263783","category":"47","category_name":"住宅区","address":"上海虹诚大厦位于虹口临平北路88号"},{"poiid":"B2094757D168A5F8419B","title":"卧雲茶叙","lon":"121.494169103","lat":"31.2695124032","category":"247","category_name":"餐饮美食","address":"上海市虹口区曲阳路"},{"poiid":"B2094757D16FA5FE439C","title":"摩斯娜养生堂","lon":"121.4924731","lat":"31.266188333","category":"500","category_name":"未知分类","address":"虹口区欧阳路220号(近鲁迅公园)"},{"poiid":"B2094655D26CA1FA4098","title":"四达路99弄小区","lon":"121.49016","lat":"31.26697","category":"47","category_name":"住宅区","address":"四达路99弄1-10号"},{"poiid":"B2094757D16BA6F5449F","title":"四达路25弄","lon":"121.491079","lat":"31.266557","category":"252","category_name":"楼宇机构","address":"四达路25弄1-4号"},{"poiid":"B2094757D06FA6F84899","title":"四平路临平北路公交车站","lon":"121.49063873","lat":"31.264434814","category":"38","category_name":"公交车站","address":"上海四平路311号"},{"poiid":"B2094757D165ABF8419A","title":"凯蒂美甲屋","lon":"121.49072503","lat":"31.26698423","category":"148","category_name":"美容美发店","address":"虹口区欧阳路196号法兰桥创意园步行街(四达路口)"},{"poiid":"B2094757D064A2F8489A","title":"上海电信北区电信局四平支局","lon":"121.493195103","lat":"31.2670923527","category":"500","category_name":"未知分类","address":"上海四平路470号"},{"poiid":"B2094655D26CA0F9429F","title":"四达路99弄小区(西门)","lon":"121.48992","lat":"31.26693","category":"47","category_name":"住宅区","address":"四达路99弄1-10号"},{"poiid":"B2094757D16CA3FB4692","title":"930私房菜(欧阳路店)","lon":"121.489328103","lat":"31.2680273722","category":"76","category_name":"上海菜","address":"虹口区欧阳路196号1号楼3楼(近四达路)"},{"poiid":"B2094757D06EAAFB4398","title":"邮电新村地铁站","lon":"121.49450107","lat":"31.268612797","category":"36","category_name":"地铁站","address":"上海轨道交通 十号线 轨交邮电新村站 10"},{"poiid":"B2094757D069A3FB4798","title":"四平路临平北路","lon":"121.4908431","lat":"31.264171","category":"260","category_name":"其他","address":"上海虹口区四平路临平北路"},{"poiid":"B2094757D06FABFD459D","title":"荣欣大厦","lon":"121.490138","lat":"31.26684","category":"252","category_name":"楼宇机构","address":"上海市四川北路1851号"},{"poiid":"B2094757D16EA1F4449B","title":"法兰桥创意园区","lon":"121.488876103","lat":"31.2667803462","category":"119","category_name":"商场","address":"上海虹口区欧阳路196号"},{"poiid":"B2094751D56CABF8409A","title":"上海大饭堂(四平路店)","lon":"121.49058","lat":"31.26357","category":"76","category_name":"上海菜","address":"虹口区四平路216号新能源大厦内(近临平北路)"},{"poiid":"B2094654D56DAAF4449D","title":"上海市地方税务局虹口区分局","lon":"121.49301","lat":"31.26348","category":"250","category_name":"公园户外","address":"虹口区临平北路35号"},{"poiid":"B2094655D26AAAFD4492","title":"上海莫泰168连锁酒店四平路店","lon":"121.49122","lat":"31.26606","category":"250","category_name":"公园户外","address":"上海市虹口区四平路333号（近四达路）"},{"poiid":"B2094654D56CA0FB419C","title":"绿洲紫荆花园","lon":"121.48959","lat":"31.268484","category":"47","category_name":"住宅区","address":"上海市虹口区欧阳路289号"},{"poiid":"B2094654D56CA7FF499C","title":"红城阁","lon":"121.49215","lat":"31.27108","category":"76","category_name":"上海菜","address":"虹口区曲阳路239号(近四平路)"},{"poiid":"B2094757D06BAAF4409F","title":"巨麦KTV","lon":"121.4916901","lat":"31.264270293","category":"170","category_name":"KTV","address":"虹口区物华路300号(近四平路)"},{"poiid":"B2094654DB6BA3F84993","title":"致真酒家 虹口店 Sincere Restaurant","lon":"121.490685054","lat":"31.263551793","category":"76","category_name":"上海菜","address":"虹口区四平路208号(近物华路)"},{"poiid":"B2094757D069A2F84693","title":"巴黎贝甜(欧阳店)","lon":"121.48845857","lat":"31.266445989","category":"67","category_name":"甜品店","address":"虹口区欧阳路198号(近吉祥路)"},{"poiid":"B2094654D56DAAF44592","title":"渡边国际商务楼","lon":"121.49254932887084","lat":"31.263657606365875","category":"46","category_name":"楼宇","address":"上海市虹口区临平北路55号"},{"poiid":"B2094757D068A7FD4193","title":"上海市社会保险基金管理中心","lon":"121.492274","lat":"31.270805","category":"500","category_name":"未知分类","address":"上海曲阳路179号"},{"poiid":"B2094757D06FABF9409F","title":"虹口区青少年活动中心","lon":"121.48973131","lat":"31.265364815","category":"260","category_name":"其他","address":"虹口区欧阳路67号(近四平路)"},{"poiid":"B2094757D66AA5FD4793","title":"次郎日式快餐 四平店","lon":"121.49134445846","lat":"31.265653123995","category":"68","category_name":"快餐厅","address":"虹口区四平路170号(近溧阳路)"},{"poiid":"B2094757D169A5FF439E","title":"知茵坊","lon":"121.4891937","lat":"31.266933649","category":"76","category_name":"上海菜","address":"虹口区欧阳路196弄22-23号"},{"poiid":"B2094757D06FA5F4409E","title":"JEANS108SALON(京世曲阳店)","lon":"121.49333","lat":"31.27012","category":"148","category_name":"美容美发店","address":"上海虹口区曲阳路108号(近四平路)"},{"poiid":"B2094757D06AAAF54798","title":"欧洲花园","lon":"121.492105","lat":"31.26443","category":"47","category_name":"住宅区","address":"上海临平北路89弄"},{"poiid":"B2094753D56AA3F84393","title":"五角场","lon":"121.492378","lat":"31.26682","category":"500","category_name":"未知分类","address":"上海市 淞沪路"},{"poiid":"B2094654D56CA7FE4392","title":"龙邸大厦","lon":"121.495557","lat":"31.266546","category":"46","category_name":"楼宇","address":"徐汇区田林路388号"},{"poiid":"B2094757D468A4F8449A","title":"海尚香","lon":"121.488248","lat":"31.267171","category":"76","category_name":"上海菜","address":"虹口区欧阳路196号法兰桥创意园(近四平路)"},{"poiid":"B2094655D265A1F4479B","title":"新陸花苑(北2号门)","lon":"121.49311","lat":"31.26705","category":"47","category_name":"住宅区","address":"四平路480弄1-2号"},{"poiid":"B2094757D76CA3F84298","title":"卧云茶敘","lon":"121.493871","lat":"31.268995","category":"66","category_name":"茶艺馆","address":"虹口区曲阳路26号(近四平路)"},{"poiid":"B2094654DB6BA3F9469C","title":"可的","lon":"121.49245","lat":"31.26651","category":"117","category_name":"便民商店/便利店","address":"虹口区四平路324号(近临平北路)"},{"poiid":"B2094757D16CA3FA4992","title":"同济大学雅憩","lon":"121.49458812","lat":"31.266952489","category":"253","category_name":"校园生活","address":"上海同济大学四平路建筑与城规学苑"},{"poiid":"B2094757D069A3FB459D","title":"一品干锅蛙","lon":"121.48837","lat":"31.26689","category":"71","category_name":"四川菜","address":"虹口区欧阳路196号法兰桥创意园1号楼2楼(近四达路)"},{"poiid":"B2094655D26CA0FF4898","title":"四达路25弄小区(北门)","lon":"121.49127","lat":"31.26681","category":"47","category_name":"住宅区","address":"四达路25弄1-4号"},{"poiid":"B2094757D06AA0FF479C","title":"85度C(欧阳店)","lon":"121.489107","lat":"31.2660613","category":"112","category_name":"糕饼店","address":"虹口区欧阳路196号1号楼1楼4-20室(近吉祥路)"},{"poiid":"B2094654D56DAAF5439C","title":"新陆花苑","lon":"121.49319","lat":"31.266626","category":"47","category_name":"住宅区","address":"莘华世家南园位于闵行莘西南路沁春路口"},{"poiid":"B2094655D26AA4F5429B","title":"玛萨SPA专业美容香熏生活馆曲阳店","lon":"121.49359","lat":"31.26848","category":"247","category_name":"餐饮美食","address":"虹口区曲阳路1号(近四平路)"},{"poiid":"B2094655D26AA4F84198","title":"上海市人才服务中心虹口区分部","lon":"121.49258","lat":"31.26798","category":"247","category_name":"餐饮美食","address":"虹口区四平路421弄20号(近临平路)"},{"poiid":"B2094654D56CA0FB449C","title":"虹口区第三中心小学分部","lon":"121.49035","lat":"31.26765","category":"56","category_name":"小学","address":"四达路96"},{"poiid":"B2094757D16CA0FE439C","title":"世博花园二期 馥敦坊","lon":"121.490123743","lat":"31.2679906114","category":"47","category_name":"住宅区","address":"上海市虹口区四达路58弄"},{"poiid":"B2094757D16EA2FF469B","title":"8号线曲阳路站","lon":"121.489662103","lat":"31.264428297","category":"500","category_name":"未知分类","address":"上海曲阳路大连路"},{"poiid":"B2094757D06FA4FD439E","title":"余庆坊","lon":"121.491","lat":"31.2679","category":"500","category_name":"未知分类","address":"上海虹口区四川北路1906号"},{"poiid":"B2094654D56CA7FF4799","title":"上海市虹口公证处","lon":"121.4928","lat":"31.26815","category":"250","category_name":"公园户外","address":"四平路421弄20号民通科技大楼"},{"poiid":"B2094654D56CA0F44299","title":"美玫美发","lon":"121.48892","lat":"31.26576","category":"148","category_name":"美容美发店","address":"欧阳路88"},{"poiid":"B2094757D06BA0FC429E","title":"玛萨SPA专业美容香熏生活馆(旗舰店)","lon":"121.4926","lat":"31.26603","category":"149","category_name":"洗浴推拿场所","address":"上海虹口区四平路293号(近临平路)  "},{"poiid":"B2094655D26FA0FA4898","title":"宏祥花苑","lon":"121.49262","lat":"31.26956","category":"47","category_name":"住宅区","address":"宏祥花苑位于虹口曲阳路69弄"},{"poiid":"B2094654D56DAAFC4298","title":"虹诚大厦","lon":"121.49148","lat":"31.263783","category":"47","category_name":"住宅区","address":"上海虹诚大厦位于虹口临平北路88号"},{"poiid":"B2094757D168A5F8419B","title":"卧雲茶叙","lon":"121.494169103","lat":"31.2695124032","category":"247","category_name":"餐饮美食","address":"上海市虹口区曲阳路"},{"poiid":"B2094757D16FA5FE439C","title":"摩斯娜养生堂","lon":"121.4924731","lat":"31.266188333","category":"500","category_name":"未知分类","address":"虹口区欧阳路220号(近鲁迅公园)"},{"poiid":"B2094655D26CA1FA4098","title":"四达路99弄小区","lon":"121.49016","lat":"31.26697","category":"47","category_name":"住宅区","address":"四达路99弄1-10号"},{"poiid":"B2094757D16BA6F5449F","title":"四达路25弄","lon":"121.491079","lat":"31.266557","category":"252","category_name":"楼宇机构","address":"四达路25弄1-4号"},{"poiid":"B2094757D06FA6F84899","title":"四平路临平北路公交车站","lon":"121.49063873","lat":"31.264434814","category":"38","category_name":"公交车站","address":"上海四平路311号"},{"poiid":"B2094757D165ABF8419A","title":"凯蒂美甲屋","lon":"121.49072503","lat":"31.26698423","category":"148","category_name":"美容美发店","address":"虹口区欧阳路196号法兰桥创意园步行街(四达路口)"},{"poiid":"B2094757D064A2F8489A","title":"上海电信北区电信局四平支局","lon":"121.493195103","lat":"31.2670923527","category":"500","category_name":"未知分类","address":"上海四平路470号"},{"poiid":"B2094655D26CA0F9429F","title":"四达路99弄小区(西门)","lon":"121.48992","lat":"31.26693","category":"47","category_name":"住宅区","address":"四达路99弄1-10号"},{"poiid":"B2094757D16CA3FB4692","title":"930私房菜(欧阳路店)","lon":"121.489328103","lat":"31.2680273722","category":"76","category_name":"上海菜","address":"虹口区欧阳路196号1号楼3楼(近四达路)"},{"poiid":"B2094757D06EAAFB4398","title":"邮电新村地铁站","lon":"121.49450107","lat":"31.268612797","category":"36","category_name":"地铁站","address":"上海轨道交通 十号线 轨交邮电新村站 10"},{"poiid":"B2094757D069A3FB4798","title":"四平路临平北路","lon":"121.4908431","lat":"31.264171","category":"260","category_name":"其他","address":"上海虹口区四平路临平北路"},{"poiid":"B2094757D06FABFD459D","title":"荣欣大厦","lon":"121.490138","lat":"31.26684","category":"252","category_name":"楼宇机构","address":"上海市四川北路1851号"},{"poiid":"B2094757D16EA1F4449B","title":"法兰桥创意园区","lon":"121.488876103","lat":"31.2667803462","category":"119","category_name":"商场","address":"上海虹口区欧阳路196号"},{"poiid":"B2094751D56CABF8409A","title":"上海大饭堂(四平路店)","lon":"121.49058","lat":"31.26357","category":"76","category_name":"上海菜","address":"虹口区四平路216号新能源大厦内(近临平北路)"},{"poiid":"B2094654D56DAAF4449D","title":"上海市地方税务局虹口区分局","lon":"121.49301","lat":"31.26348","category":"250","category_name":"公园户外","address":"虹口区临平北路35号"},{"poiid":"B2094655D26AAAFD4492","title":"上海莫泰168连锁酒店四平路店","lon":"121.49122","lat":"31.26606","category":"250","category_name":"公园户外","address":"上海市虹口区四平路333号（近四达路）"},{"poiid":"B2094654D56CA0FB419C","title":"绿洲紫荆花园","lon":"121.48959","lat":"31.268484","category":"47","category_name":"住宅区","address":"上海市虹口区欧阳路289号"},{"poiid":"B2094654D56CA7FF499C","title":"红城阁","lon":"121.49215","lat":"31.27108","category":"76","category_name":"上海菜","address":"虹口区曲阳路239号(近四平路)"},{"poiid":"B2094757D06BAAF4409F","title":"巨麦KTV","lon":"121.4916901","lat":"31.264270293","category":"170","category_name":"KTV","address":"虹口区物华路300号(近四平路)"},{"poiid":"B2094654DB6BA3F84993","title":"致真酒家 虹口店 Sincere Restaurant","lon":"121.490685054","lat":"31.263551793","category":"76","category_name":"上海菜","address":"虹口区四平路208号(近物华路)"},{"poiid":"B2094757D069A2F84693","title":"巴黎贝甜(欧阳店)","lon":"121.48845857","lat":"31.266445989","category":"67","category_name":"甜品店","address":"虹口区欧阳路198号(近吉祥路)"},{"poiid":"B2094654D56DAAF44592","title":"渡边国际商务楼","lon":"121.49254932887084","lat":"31.263657606365875","category":"46","category_name":"楼宇","address":"上海市虹口区临平北路55号"},{"poiid":"B2094757D068A7FD4193","title":"上海市社会保险基金管理中心","lon":"121.492274","lat":"31.270805","category":"500","category_name":"未知分类","address":"上海曲阳路179号"},{"poiid":"B2094757D06FABF9409F","title":"虹口区青少年活动中心","lon":"121.48973131","lat":"31.265364815","category":"260","category_name":"其他","address":"虹口区欧阳路67号(近四平路)"},{"poiid":"B2094757D66AA5FD4793","title":"次郎日式快餐 四平店","lon":"121.49134445846","lat":"31.265653123995","category":"68","category_name":"快餐厅","address":"虹口区四平路170号(近溧阳路)"},{"poiid":"B2094757D169A5FF439E","title":"知茵坊","lon":"121.4891937","lat":"31.266933649","category":"76","category_name":"上海菜","address":"虹口区欧阳路196弄22-23号"},{"poiid":"B2094757D06FA5F4409E","title":"JEANS108SALON(京世曲阳店)","lon":"121.49333","lat":"31.27012","category":"148","category_name":"美容美发店","address":"上海虹口区曲阳路108号(近四平路)"},{"poiid":"B2094757D06AAAF54798","title":"欧洲花园","lon":"121.492105","lat":"31.26443","category":"47","category_name":"住宅区","address":"上海临平北路89弄"},{"poiid":"B2094753D56AA3F84393","title":"五角场","lon":"121.492378","lat":"31.26682","category":"500","category_name":"未知分类","address":"上海市 淞沪路"},{"poiid":"B2094654D56CA7FE4392","title":"龙邸大厦","lon":"121.495557","lat":"31.266546","category":"46","category_name":"楼宇","address":"徐汇区田林路388号"},{"poiid":"B2094757D468A4F8449A","title":"海尚香","lon":"121.488248","lat":"31.267171","category":"76","category_name":"上海菜","address":"虹口区欧阳路196号法兰桥创意园(近四平路)"},{"poiid":"B2094655D265A1F4479B","title":"新陸花苑(北2号门)","lon":"121.49311","lat":"31.26705","category":"47","category_name":"住宅区","address":"四平路480弄1-2号"},{"poiid":"B2094757D76CA3F84298","title":"卧云茶敘","lon":"121.493871","lat":"31.268995","category":"66","category_name":"茶艺馆","address":"虹口区曲阳路26号(近四平路)"},{"poiid":"B2094654DB6BA3F9469C","title":"可的","lon":"121.49245","lat":"31.26651","category":"117","category_name":"便民商店/便利店","address":"虹口区四平路324号(近临平北路)"},{"poiid":"B2094757D16CA3FA4992","title":"同济大学雅憩","lon":"121.49458812","lat":"31.266952489","category":"253","category_name":"校园生活","address":"上海同济大学四平路建筑与城规学苑"},{"poiid":"B2094757D069A3FB459D","title":"一品干锅蛙","lon":"121.48837","lat":"31.26689","category":"71","category_name":"四川菜","address":"虹口区欧阳路196号法兰桥创意园1号楼2楼(近四达路)"},{"poiid":"B2094655D26CA0FF4898","title":"四达路25弄小区(北门)","lon":"121.49127","lat":"31.26681","category":"47","category_name":"住宅区","address":"四达路25弄1-4号"},{"poiid":"B2094757D06AA0FF479C","title":"85度C(欧阳店)","lon":"121.489107","lat":"31.2660613","category":"112","category_name":"糕饼店","address":"虹口区欧阳路196号1号楼1楼4-20室(近吉祥路)"},{"poiid":"B2094654D56DAAF5439C","title":"新陆花苑","lon":"121.49319","lat":"31.266626","category":"47","category_name":"住宅区","address":"莘华世家南园位于闵行莘西南路沁春路口"},{"poiid":"B2094655D26AA4F5429B","title":"玛萨SPA专业美容香熏生活馆曲阳店","lon":"121.49359","lat":"31.26848","category":"247","category_name":"餐饮美食","address":"虹口区曲阳路1号(近四平路)"},{"poiid":"B2094655D26AA4F84198","title":"上海市人才服务中心虹口区分部","lon":"121.49258","lat":"31.26798","category":"247","category_name":"餐饮美食","address":"虹口区四平路421弄20号(近临平路)"},{"poiid":"B2094654D56CA0FB449C","title":"虹口区第三中心小学分部","lon":"121.49035","lat":"31.26765","category":"56","category_name":"小学","address":"四达路96"},{"poiid":"B2094757D16CA0FE439C","title":"世博花园二期 馥敦坊","lon":"121.490123743","lat":"31.2679906114","category":"47","category_name":"住宅区","address":"上海市虹口区四达路58弄"},{"poiid":"B2094757D16EA2FF469B","title":"8号线曲阳路站","lon":"121.489662103","lat":"31.264428297","category":"500","category_name":"未知分类","address":"上海曲阳路大连路"},{"poiid":"B2094757D06FA4FD439E","title":"余庆坊","lon":"121.491","lat":"31.2679","category":"500","category_name":"未知分类","address":"上海虹口区四川北路1906号"},{"poiid":"B2094654D56CA7FF4799","title":"上海市虹口公证处","lon":"121.4928","lat":"31.26815","category":"250","category_name":"公园户外","address":"四平路421弄20号民通科技大楼"},{"poiid":"B2094654D56CA0F44299","title":"美玫美发","lon":"121.48892","lat":"31.26576","category":"148","category_name":"美容美发店","address":"欧阳路88"},{"poiid":"B2094757D06BA0FC429E","title":"玛萨SPA专业美容香熏生活馆(旗舰店)","lon":"121.4926","lat":"31.26603","category":"149","category_name":"洗浴推拿场所","address":"上海虹口区四平路293号(近临平路)  "},{"poiid":"B2094655D26FA0FA4898","title":"宏祥花苑","lon":"121.49262","lat":"31.26956","category":"47","category_name":"住宅区","address":"宏祥花苑位于虹口曲阳路69弄"},{"poiid":"B2094654D56DAAFC4298","title":"虹诚大厦","lon":"121.49148","lat":"31.263783","category":"47","category_name":"住宅区","address":"上海虹诚大厦位于虹口临平北路88号"},{"poiid":"B2094757D168A5F8419B","title":"卧雲茶叙","lon":"121.494169103","lat":"31.2695124032","category":"247","category_name":"餐饮美食","address":"上海市虹口区曲阳路"},{"poiid":"B2094757D16FA5FE439C","title":"摩斯娜养生堂","lon":"121.4924731","lat":"31.266188333","category":"500","category_name":"未知分类","address":"虹口区欧阳路220号(近鲁迅公园)"},{"poiid":"B2094655D26CA1FA4098","title":"四达路99弄小区","lon":"121.49016","lat":"31.26697","category":"47","category_name":"住宅区","address":"四达路99弄1-10号"},{"poiid":"B2094757D16BA6F5449F","title":"四达路25弄","lon":"121.491079","lat":"31.266557","category":"252","category_name":"楼宇机构","address":"四达路25弄1-4号"},{"poiid":"B2094757D06FA6F84899","title":"四平路临平北路公交车站","lon":"121.49063873","lat":"31.264434814","category":"38","category_name":"公交车站","address":"上海四平路311号"},{"poiid":"B2094757D165ABF8419A","title":"凯蒂美甲屋","lon":"121.49072503","lat":"31.26698423","category":"148","category_name":"美容美发店","address":"虹口区欧阳路196号法兰桥创意园步行街(四达路口)"},{"poiid":"B2094757D064A2F8489A","title":"上海电信北区电信局四平支局","lon":"121.493195103","lat":"31.2670923527","category":"500","category_name":"未知分类","address":"上海四平路470号"},{"poiid":"B2094655D26CA0F9429F","title":"四达路99弄小区(西门)","lon":"121.48992","lat":"31.26693","category":"47","category_name":"住宅区","address":"四达路99弄1-10号"},{"poiid":"B2094757D16CA3FB4692","title":"930私房菜(欧阳路店)","lon":"121.489328103","lat":"31.2680273722","category":"76","category_name":"上海菜","address":"虹口区欧阳路196号1号楼3楼(近四达路)"},{"poiid":"B2094757D06EAAFB4398","title":"邮电新村地铁站","lon":"121.49450107","lat":"31.268612797","category":"36","category_name":"地铁站","address":"上海轨道交通 十号线 轨交邮电新村站 10"},{"poiid":"B2094757D069A3FB4798","title":"四平路临平北路","lon":"121.4908431","lat":"31.264171","category":"260","category_name":"其他","address":"上海虹口区四平路临平北路"},{"poiid":"B2094757D06FABFD459D","title":"荣欣大厦","lon":"121.490138","lat":"31.26684","category":"252","category_name":"楼宇机构","address":"上海市四川北路1851号"},{"poiid":"B2094757D16EA1F4449B","title":"法兰桥创意园区","lon":"121.488876103","lat":"31.2667803462","category":"119","category_name":"商场","address":"上海虹口区欧阳路196号"},{"poiid":"B2094751D56CABF8409A","title":"上海大饭堂(四平路店)","lon":"121.49058","lat":"31.26357","category":"76","category_name":"上海菜","address":"虹口区四平路216号新能源大厦内(近临平北路)"},{"poiid":"B2094654D56DAAF4449D","title":"上海市地方税务局虹口区分局","lon":"121.49301","lat":"31.26348","category":"250","category_name":"公园户外","address":"虹口区临平北路35号"},{"poiid":"B2094655D26AAAFD4492","title":"上海莫泰168连锁酒店四平路店","lon":"121.49122","lat":"31.26606","category":"250","category_name":"公园户外","address":"上海市虹口区四平路333号（近四达路）"},{"poiid":"B2094654D56CA0FB419C","title":"绿洲紫荆花园","lon":"121.48959","lat":"31.268484","category":"47","category_name":"住宅区","address":"上海市虹口区欧阳路289号"},{"poiid":"B2094654D56CA7FF499C","title":"红城阁","lon":"121.49215","lat":"31.27108","category":"76","category_name":"上海菜","address":"虹口区曲阳路239号(近四平路)"},{"poiid":"B2094757D06BAAF4409F","title":"巨麦KTV","lon":"121.4916901","lat":"31.264270293","category":"170","category_name":"KTV","address":"虹口区物华路300号(近四平路)"},{"poiid":"B2094654DB6BA3F84993","title":"致真酒家 虹口店 Sincere Restaurant","lon":"121.490685054","lat":"31.263551793","category":"76","category_name":"上海菜","address":"虹口区四平路208号(近物华路)"},{"poiid":"B2094757D069A2F84693","title":"巴黎贝甜(欧阳店)","lon":"121.48845857","lat":"31.266445989","category":"67","category_name":"甜品店","address":"虹口区欧阳路198号(近吉祥路)"},{"poiid":"B2094654D56DAAF44592","title":"渡边国际商务楼","lon":"121.49254932887084","lat":"31.263657606365875","category":"46","category_name":"楼宇","address":"上海市虹口区临平北路55号"},{"poiid":"B2094757D068A7FD4193","title":"上海市社会保险基金管理中心","lon":"121.492274","lat":"31.270805","category":"500","category_name":"未知分类","address":"上海曲阳路179号"},{"poiid":"B2094757D06FABF9409F","title":"虹口区青少年活动中心","lon":"121.48973131","lat":"31.265364815","category":"260","category_name":"其他","address":"虹口区欧阳路67号(近四平路)"},{"poiid":"B2094757D66AA5FD4793","title":"次郎日式快餐 四平店","lon":"121.49134445846","lat":"31.265653123995","category":"68","category_name":"快餐厅","address":"虹口区四平路170号(近溧阳路)"},{"poiid":"B2094757D169A5FF439E","title":"知茵坊","lon":"121.4891937","lat":"31.266933649","category":"76","category_name":"上海菜","address":"虹口区欧阳路196弄22-23号"},{"poiid":"B2094757D06FA5F4409E","title":"JEANS108SALON(京世曲阳店)","lon":"121.49333","lat":"31.27012","category":"148","category_name":"美容美发店","address":"上海虹口区曲阳路108号(近四平路)"},{"poiid":"B2094757D06AAAF54798","title":"欧洲花园","lon":"121.492105","lat":"31.26443","category":"47","category_name":"住宅区","address":"上海临平北路89弄"},{"poiid":"B2094753D56AA3F84393","title":"五角场","lon":"121.492378","lat":"31.26682","category":"500","category_name":"未知分类","address":"上海市 淞沪路"},{"poiid":"B2094654D56CA7FE4392","title":"龙邸大厦","lon":"121.495557","lat":"31.266546","category":"46","category_name":"楼宇","address":"徐汇区田林路388号"},{"poiid":"B2094757D468A4F8449A","title":"海尚香","lon":"121.488248","lat":"31.267171","category":"76","category_name":"上海菜","address":"虹口区欧阳路196号法兰桥创意园(近四平路)"},{"poiid":"B2094655D265A1F4479B","title":"新陸花苑(北2号门)","lon":"121.49311","lat":"31.26705","category":"47","category_name":"住宅区","address":"四平路480弄1-2号"},{"poiid":"B2094757D76CA3F84298","title":"卧云茶敘","lon":"121.493871","lat":"31.268995","category":"66","category_name":"茶艺馆","address":"虹口区曲阳路26号(近四平路)"},{"poiid":"B2094654DB6BA3F9469C","title":"可的","lon":"121.49245","lat":"31.26651","category":"117","category_name":"便民商店/便利店","address":"虹口区四平路324号(近临平北路)"},{"poiid":"B2094757D16CA3FA4992","title":"同济大学雅憩","lon":"121.49458812","lat":"31.266952489","category":"253","category_name":"校园生活","address":"上海同济大学四平路建筑与城规学苑"},{"poiid":"B2094757D069A3FB459D","title":"一品干锅蛙","lon":"121.48837","lat":"31.26689","category":"71","category_name":"四川菜","address":"虹口区欧阳路196号法兰桥创意园1号楼2楼(近四达路)"},{"poiid":"B2094655D26CA0FF4898","title":"四达路25弄小区(北门)","lon":"121.49127","lat":"31.26681","category":"47","category_name":"住宅区","address":"四达路25弄1-4号"},{"poiid":"B2094757D06AA0FF479C","title":"85度C(欧阳店)","lon":"121.489107","lat":"31.2660613","category":"112","category_name":"糕饼店","address":"虹口区欧阳路196号1号楼1楼4-20室(近吉祥路)"},{"poiid":"B2094654D56DAAF5439C","title":"新陆花苑","lon":"121.49319","lat":"31.266626","category":"47","category_name":"住宅区","address":"莘华世家南园位于闵行莘西南路沁春路口"},{"poiid":"B2094655D26AA4F5429B","title":"玛萨SPA专业美容香熏生活馆曲阳店","lon":"121.49359","lat":"31.26848","category":"247","category_name":"餐饮美食","address":"虹口区曲阳路1号(近四平路)"},{"poiid":"B2094655D26AA4F84198","title":"上海市人才服务中心虹口区分部","lon":"121.49258","lat":"31.26798","category":"247","category_name":"餐饮美食","address":"虹口区四平路421弄20号(近临平路)"},{"poiid":"B2094654D56CA0FB449C","title":"虹口区第三中心小学分部","lon":"121.49035","lat":"31.26765","category":"56","category_name":"小学","address":"四达路96"},{"poiid":"B2094757D16CA0FE439C","title":"世博花园二期 馥敦坊","lon":"121.490123743","lat":"31.2679906114","category":"47","category_name":"住宅区","address":"上海市虹口区四达路58弄"},{"poiid":"B2094757D16EA2FF469B","title":"8号线曲阳路站","lon":"121.489662103","lat":"31.264428297","category":"500","category_name":"未知分类","address":"上海曲阳路大连路"},{"poiid":"B2094757D06FA4FD439E","title":"余庆坊","lon":"121.491","lat":"31.2679","category":"500","category_name":"未知分类","address":"上海虹口区四川北路1906号"},{"poiid":"B2094654D56CA7FF4799","title":"上海市虹口公证处","lon":"121.4928","lat":"31.26815","category":"250","category_name":"公园户外","address":"四平路421弄20号民通科技大楼"},{"poiid":"B2094654D56CA0F44299","title":"美玫美发","lon":"121.48892","lat":"31.26576","category":"148","category_name":"美容美发店","address":"欧阳路88"},{"poiid":"B2094757D06BA0FC429E","title":"玛萨SPA专业美容香熏生活馆(旗舰店)","lon":"121.4926","lat":"31.26603","category":"149","category_name":"洗浴推拿场所","address":"上海虹口区四平路293号(近临平路)  "},{"poiid":"B2094655D26FA0FA4898","title":"宏祥花苑","lon":"121.49262","lat":"31.26956","category":"47","category_name":"住宅区","address":"宏祥花苑位于虹口曲阳路69弄"},{"poiid":"B2094654D56DAAFC4298","title":"虹诚大厦","lon":"121.49148","lat":"31.263783","category":"47","category_name":"住宅区","address":"上海虹诚大厦位于虹口临平北路88号"},{"poiid":"B2094757D168A5F8419B","title":"卧雲茶叙","lon":"121.494169103","lat":"31.2695124032","category":"247","category_name":"餐饮美食","address":"上海市虹口区曲阳路"},{"poiid":"B2094757D16FA5FE439C","title":"摩斯娜养生堂","lon":"121.4924731","lat":"31.266188333","category":"500","category_name":"未知分类","address":"虹口区欧阳路220号(近鲁迅公园)"},{"poiid":"B2094655D26CA1FA4098","title":"四达路99弄小区","lon":"121.49016","lat":"31.26697","category":"47","category_name":"住宅区","address":"四达路99弄1-10号"},{"poiid":"B2094757D16BA6F5449F","title":"四达路25弄","lon":"121.491079","lat":"31.266557","category":"252","category_name":"楼宇机构","address":"四达路25弄1-4号"},{"poiid":"B2094757D06FA6F84899","title":"四平路临平北路公交车站","lon":"121.49063873","lat":"31.264434814","category":"38","category_name":"公交车站","address":"上海四平路311号"},{"poiid":"B2094757D165ABF8419A","title":"凯蒂美甲屋","lon":"121.49072503","lat":"31.26698423","category":"148","category_name":"美容美发店","address":"虹口区欧阳路196号法兰桥创意园步行街(四达路口)"},{"poiid":"B2094757D064A2F8489A","title":"上海电信北区电信局四平支局","lon":"121.493195103","lat":"31.2670923527","category":"500","category_name":"未知分类","address":"上海四平路470号"},{"poiid":"B2094655D26CA0F9429F","title":"四达路99弄小区(西门)","lon":"121.48992","lat":"31.26693","category":"47","category_name":"住宅区","address":"四达路99弄1-10号"}]