[{"poiid":"B2094654D569AAFC449B","title":"上海动物园","lon":"121.36272202550413","lat":"31.194404631992096","category":"197","category_name":"动物园","address":"虹桥路2381号。"},{"poiid":"B2094757D06FA7FA4699","title":"上海市交通警察总队车辆管理所(一分所)","lon":"121.366082","lat":"31.2012371","category":"252","category_name":"楼宇机构","address":"上海长宁区哈密路1330号"},{"poiid":"B2094757D06FA5F9469C","title":"西郊公园","lon":"121.366499424","lat":"31.1906089622","category":"196","category_name":"公园","address":"上海虹桥路"},{"poiid":"B2094757D068A5F9469D","title":"上海国际旅行卫生保健中心","lon":"121.36435699","lat":"31.198169708","category":"162","category_name":"医院","address":"长宁区金浜路15号(近哈密路)"},{"poiid":"B2094757D06FA3FC4599","title":"上海动物园地铁站","lon":"121.36693938","lat":"31.19022555","category":"36","category_name":"地铁站","address":"上海轨道交通 十号线 轨交上海动物园站 10"},{"poiid":"B2094757D165A1F44792","title":"上海动物园大猩猩馆","lon":"121.362465586","lat":"31.1930057032","category":"500","category_name":"未知分类","address":"上海动物园"},{"poiid":"B2094757D068A0FB4892","title":"鼎邦俪池","lon":"121.37372","lat":"31.19683","category":"500","category_name":"未知分类","address":"上海长宁区青溪路288弄(近龙溪路)  "},{"poiid":"B2094757D06FA5F5469B","title":"顽皮家族宠物医院(虹桥路总店)","lon":"121.36548934","lat":"31.190155323","category":"162","category_name":"医院","address":"长宁区虹桥路2393号(近动物园)"},{"poiid":"B2094757D068A7FA419A","title":"绿谷别墅","lon":"121.365924","lat":"31.198598","category":"47","category_name":"住宅区","address":"上海哈密路1500号"},{"poiid":"B2094654D569AAFC429C","title":"阿山饭店","lon":"121.36647159056","lat":"31.189958417134","category":"76","category_name":"上海菜","address":"长宁区虹桥路2378号(近动物园)"},{"poiid":"B2094757D069A3FE419A","title":"上海出入境检验检疫局/上海国际旅行卫生保健中心","lon":"121.36445758","lat":"31.197729795","category":"162","category_name":"医院","address":"上海市长宁区金浜路15号"},{"poiid":"B2094655D26EA3FA4593","title":"格林豪泰(上海虹桥机场酒店公寓)","lon":"121.36744","lat":"31.19583","category":"216","category_name":"经济型连锁酒店","address":"长宁区哈密路1721号(近虹桥路)"},{"poiid":"B2094750D66FA6FB4092","title":"医院","lon":"121.364761","lat":"31.195802","category":"162","category_name":"医院","address":"哈密路青溪路"},{"poiid":"B2094757D069ABFA4498","title":"中国人民解放军第四五五医院(哈密路分院)","lon":"121.36747","lat":"31.19587","category":"162","category_name":"医院","address":"长宁区哈密路1713号(近虹桥路)"},{"poiid":"B2094757D069A3F94898","title":"特警总队","lon":"121.366982","lat":"31.202182","category":"500","category_name":"未知分类","address":"上海哈密路1330号"},{"poiid":"B2094757D068A1FC459E","title":"天鹅轩","lon":"121.36951","lat":"31.1903","category":"75","category_name":"浙江菜","address":"长宁区虹桥路2395号(近虹井路)查看地图"},{"poiid":"B2094757D065A1FD4298","title":"老虎山","lon":"121.360507586","lat":"31.1949827418","category":"500","category_name":"未知分类","address":"上海西郊公园"},{"poiid":"B2094752D36DABFF4599","title":"Geneva","lon":"121.364115","lat":"31.196543","category":"247","category_name":"餐饮美食","address":"哈密路1876弄6号"},{"poiid":"B2094655D26AA4FD459A","title":"海立阁哈密路店","lon":"121.36662","lat":"31.19685","category":"247","category_name":"餐饮美食","address":"长宁区哈密路2010号(近虹桥路)"},{"poiid":"B2094757D06AA0FB4099","title":"人民公社农家菜","lon":"121.37031","lat":"31.19103","category":"87","category_name":"特色／地方风味餐厅","address":"长宁区哈密路2028号(近虹桥路)"},{"poiid":"B2094757D16EA3F5469B","title":"名颂人家","lon":"121.36799","lat":"31.19575","category":"76","category_name":"上海菜","address":"长宁区哈密路1799号(近青溪路)"},{"poiid":"B2094654DB6BA1F4419C","title":"虹桥龙柏公寓","lon":"121.36544851952","lat":"31.193572126218","category":"47","category_name":"住宅区","address":"绿苑路21弄识别"},{"poiid":"B2094757D16FA1F9409A","title":"锦江之星(哈密路店)","lon":"121.36583","lat":"31.19993","category":"500","category_name":"未知分类","address":"上海长宁区哈密路1358号(近金滨路)  "},{"poiid":"B2094757D66BA4F5419C","title":"pizzasun","lon":"121.36725256124","lat":"31.189778276359","category":"94","category_name":"西餐厅","address":"长宁区虹井路989号(近虹桥路)"},{"poiid":"B2094654D569AAFE479F","title":"新泾苑","lon":"121.36304","lat":"31.200182","category":"47","category_name":"住宅区","address":"中泾路18弄1-85号"},{"poiid":"B2094654D569AAFD4293","title":"张泾小区","lon":"121.37108","lat":"31.194754","category":"47","category_name":"住宅区","address":"上海剑河路2001弄"},{"poiid":"B2094757D66DABF4499C","title":"浦东机场T1航站楼VVIP A区","lon":"121.361251336","lat":"31.198727265","category":"21","category_name":"飞机场","address":"上海浦东机场T1航站楼VVIP A区"},{"poiid":"B2094757D465ABFE429A","title":"满月","lon":"121.360967","lat":"31.198553","category":"269","category_name":"烧烤","address":"长宁区金浜路112号(近福泉路)"},{"poiid":"B2094654D569AAFE449B","title":"快客No.1252","lon":"121.36711","lat":"31.19632","category":"117","category_name":"便民商店/便利店","address":"哈密路1713-7识别"},{"poiid":"B2094654D569AAFE439D","title":"春花苑(东门)","lon":"121.36726","lat":"31.19614","category":"47","category_name":"住宅区","address":"哈密路1719"},{"poiid":"B2094752D46DA3FA419C","title":"108医院","lon":"121.366393","lat":"31.195627","category":"162","category_name":"医院","address":"上海市哈密路1713号"},{"poiid":"B2094654DB6BA0FD499C","title":"竹园餐厅(舟山海鲜坊)","lon":"121.36894","lat":"31.19466","category":"257","category_name":"中餐厅","address":"长宁区哈密路1896号"},{"poiid":"B2094757D069A1F84898","title":"车管所一分所","lon":"121.36568521","lat":"31.202140621","category":"500","category_name":"未知分类","address":"上海哈密路"},{"poiid":"B2094757D568A5F5479C","title":"御笼坊(哈密路店)","lon":"121.3692931","lat":"31.19420806","category":"68","category_name":"快餐厅","address":"长宁区哈密路1896弄(近青溪路)"},{"poiid":"B2094654D569AAFE439C","title":"新律花园","lon":"121.3684","lat":"31.196394","category":"47","category_name":"住宅区","address":"哈密路1680号"},{"poiid":"B2094757D16DA6F54293","title":"虹桥中园","lon":"121.36947258","lat":"31.194007722","category":"500","category_name":"未知分类","address":"上海市长宁区哈密路1999弄"},{"poiid":"B2094654D569AAFE4393","title":"春花苑","lon":"121.36626","lat":"31.195711","category":"47","category_name":"住宅区","address":"哈密路1719弄"},{"poiid":"B2094751DA65A4FD4399","title":"酒藏","lon":"121.371378","lat":"31.192276","category":"247","category_name":"餐饮美食","address":"长宁区剑河路(近延安西路)"},{"poiid":"B2094655D269A4F5439A","title":"宝隆居家酒店哈密路店","lon":"121.36978","lat":"31.19221","category":"247","category_name":"餐饮美食","address":"上海市长宁区哈密路2010号（近虹桥路）"},{"poiid":"B2094654D569AAFE459A","title":"松园别墅","lon":"121.36489","lat":"31.19793","category":"47","category_name":"住宅区","address":"长宁区哈密路1705号(哈密路金浜路)"},{"poiid":"B2094757D06BA1F9459F","title":"西郊宝成花苑","lon":"121.36429595","lat":"31.199365615","category":"252","category_name":"楼宇机构","address":"上海市长宁区金浜路100号"},{"poiid":"B2094654D569AAFE429B","title":"长青公寓","lon":"121.36961","lat":"31.195154","category":"47","category_name":"住宅区","address":"长青公寓位于长宁哈密路1896号16号楼"},{"poiid":"B2094751DA6BA7FB419B","title":"日内瓦酒吧","lon":"121.363965","lat":"31.19656","category":"247","category_name":"餐饮美食","address":"哈密路1876号"},{"poiid":"B2094757D569A7FB469C","title":"绿谷餐厅","lon":"121.3695794","lat":"31.19295667","category":"247","category_name":"餐饮美食","address":"长宁区哈密路1500号(近虹桥路)"},{"poiid":"B2094757D66DA1FC4693","title":"哈密路青溪路","lon":"121.368376986","lat":"31.1947325369","category":"500","category_name":"未知分类","address":"上海哈密路青溪路"},{"poiid":"B2094757D16DA4F54098","title":"虹桥枢纽9路","lon":"121.367981","lat":"31.195267","category":"500","category_name":"未知分类","address":"上海嘉定西站-虹桥枢纽东交通中心"},{"poiid":"B2094655D36CA0FA4092","title":"剑河路青溪路","lon":"121.36955","lat":"31.19904","category":"38","category_name":"公交车站","address":""},{"poiid":"B2094654D569AAFB4193","title":"北顾小区","lon":"121.37067","lat":"31.19923","category":"47","category_name":"住宅区","address":"上海剑河路998弄"},{"poiid":"B2094655D26AA2F9459E","title":"飞蛋超市哈密路店","lon":"121.36929","lat":"31.1942","category":"247","category_name":"餐饮美食","address":"长宁区哈密路1896号(近青溪路)"},{"poiid":"B2094655D26CA4FC4792","title":"王满小区","lon":"121.37051","lat":"31.195459","category":"47","category_name":"住宅区","address":"哈密路1800弄1-23号"},{"poiid":"B2094654D569AAFC449B","title":"上海动物园","lon":"121.36272202550413","lat":"31.194404631992096","category":"197","category_name":"动物园","address":"虹桥路2381号。"},{"poiid":"B2094757D06FA7FA4699","title":"上海市交通警察总队车辆管理所(一分所)","lon":"121.366082","lat":"31.2012371","category":"252","category_name":"楼宇机构","address":"上海长宁区哈密路1330号"},{"poiid":"B2094757D06FA5F9469C","title":"西郊公园","lon":"121.366499424","lat":"31.1906089622","category":"196","category_name":"公园","address":"上海虹桥路"},{"poiid":"B2094757D068A5F9469D","title":"上海国际旅行卫生保健中心","lon":"121.36435699","lat":"31.198169708","category":"162","category_name":"医院","address":"长宁区金浜路15号(近哈密路)"},{"poiid":"B2094757D06FA3FC4599","title":"上海动物园地铁站","lon":"121.36693938","lat":"31.19022555","category":"36","category_name":"地铁站","address":"上海轨道交通 十号线 轨交上海动物园站 10"},{"poiid":"B2094757D165A1F44792","title":"上海动物园大猩猩馆","lon":"121.362465586","lat":"31.1930057032","category":"500","category_name":"未知分类","address":"上海动物园"},{"poiid":"B2094757D068A0FB4892","title":"鼎邦俪池","lon":"121.37372","lat":"31.19683","category":"500","category_name":"未知分类","address":"上海长宁区青溪路288弄(近龙溪路)  "},{"poiid":"B2094757D06FA5F5469B","title":"顽皮家族宠物医院(虹桥路总店)","lon":"121.36548934","lat":"31.190155323","category":"162","category_name":"医院","address":"长宁区虹桥路2393号(近动物园)"},{"poiid":"B2094757D068A7FA419A","title":"绿谷别墅","lon":"121.365924","lat":"31.198598","category":"47","category_name":"住宅区","address":"上海哈密路1500号"},{"poiid":"B2094654D569AAFC429C","title":"阿山饭店","lon":"121.36647159056","lat":"31.189958417134","category":"76","category_name":"上海菜","address":"长宁区虹桥路2378号(近动物园)"},{"poiid":"B2094757D069A3FE419A","title":"上海出入境检验检疫局/上海国际旅行卫生保健中心","lon":"121.36445758","lat":"31.197729795","category":"162","category_name":"医院","address":"上海市长宁区金浜路15号"},{"poiid":"B2094655D26EA3FA4593","title":"格林豪泰(上海虹桥机场酒店公寓)","lon":"121.36744","lat":"31.19583","category":"216","category_name":"经济型连锁酒店","address":"长宁区哈密路1721号(近虹桥路)"},{"poiid":"B2094750D66FA6FB4092","title":"医院","lon":"121.364761","lat":"31.195802","category":"162","category_name":"医院","address":"哈密路青溪路"},{"poiid":"B2094757D069ABFA4498","title":"中国人民解放军第四五五医院(哈密路分院)","lon":"121.36747","lat":"31.19587","category":"162","category_name":"医院","address":"长宁区哈密路1713号(近虹桥路)"},{"poiid":"B2094757D069A3F94898","title":"特警总队","lon":"121.366982","lat":"31.202182","category":"500","category_name":"未知分类","address":"上海哈密路1330号"},{"poiid":"B2094757D068A1FC459E","title":"天鹅轩","lon":"121.36951","lat":"31.1903","category":"75","category_name":"浙江菜","address":"长宁区虹桥路2395号(近虹井路)查看地图"},{"poiid":"B2094757D065A1FD4298","title":"老虎山","lon":"121.360507586","lat":"31.1949827418","category":"500","category_name":"未知分类","address":"上海西郊公园"},{"poiid":"B2094752D36DABFF4599","title":"Geneva","lon":"121.364115","lat":"31.196543","category":"247","category_name":"餐饮美食","address":"哈密路1876弄6号"},{"poiid":"B2094655D26AA4FD459A","title":"海立阁哈密路店","lon":"121.36662","lat":"31.19685","category":"247","category_name":"餐饮美食","address":"长宁区哈密路2010号(近虹桥路)"},{"poiid":"B2094757D06AA0FB4099","title":"人民公社农家菜","lon":"121.37031","lat":"31.19103","category":"87","category_name":"特色／地方风味餐厅","address":"长宁区哈密路2028号(近虹桥路)"},{"poiid":"B2094757D16EA3F5469B","title":"名颂人家","lon":"121.36799","lat":"31.19575","category":"76","category_name":"上海菜","address":"长宁区哈密路1799号(近青溪路)"},{"poiid":"B2094654DB6BA1F4419C","title":"虹桥龙柏公寓","lon":"121.36544851952","lat":"31.193572126218","category":"47","category_name":"住宅区","address":"绿苑路21弄识别"},{"poiid":"B2094757D16FA1F9409A","title":"锦江之星(哈密路店)","lon":"121.36583","lat":"31.19993","category":"500","category_name":"未知分类","address":"上海长宁区哈密路1358号(近金滨路)  "},{"poiid":"B2094757D66BA4F5419C","title":"pizzasun","lon":"121.36725256124","lat":"31.189778276359","category":"94","category_name":"西餐厅","address":"长宁区虹井路989号(近虹桥路)"},{"poiid":"B2094654D569AAFE479F","title":"新泾苑","lon":"121.36304","lat":"31.200182","category":"47","category_name":"住宅区","address":"中泾路18弄1-85号"},{"poiid":"B2094654D569AAFD4293","title":"张泾小区","lon":"121.37108","lat":"31.194754","category":"47","category_name":"住宅区","address":"上海剑河路2001弄"},{"poiid":"B2094757D66DABF4499C","title":"浦东机场T1航站楼VVIP A区","lon":"121.361251336","lat":"31.198727265","category":"21","category_name":"飞机场","address":"上海浦东机场T1航站楼VVIP A区"},{"poiid":"B2094757D465ABFE429A","title":"满月","lon":"121.360967","lat":"31.198553","category":"269","category_name":"烧烤","address":"长宁区金浜路112号(近福泉路)"},{"poiid":"B2094654D569AAFE449B","title":"快客No.1252","lon":"121.36711","lat":"31.19632","category":"117","category_name":"便民商店/便利店","address":"哈密路1713-7识别"},{"poiid":"B2094654D569AAFE439D","title":"春花苑(东门)","lon":"121.36726","lat":"31.19614","category":"47","category_name":"住宅区","address":"哈密路1719"},{"poiid":"B2094752D46DA3FA419C","title":"108医院","lon":"121.366393","lat":"31.195627","category":"162","category_name":"医院","address":"上海市哈密路1713号"},{"poiid":"B2094654DB6BA0FD499C","title":"竹园餐厅(舟山海鲜坊)","lon":"121.36894","lat":"31.19466","category":"257","category_name":"中餐厅","address":"长宁区哈密路1896号"},{"poiid":"B2094757D069A1F84898","title":"车管所一分所","lon":"121.36568521","lat":"31.202140621","category":"500","category_name":"未知分类","address":"上海哈密路"},{"poiid":"B2094757D568A5F5479C","title":"御笼坊(哈密路店)","lon":"121.3692931","lat":"31.19420806","category":"68","category_name":"快餐厅","address":"长宁区哈密路1896弄(近青溪路)"},{"poiid":"B2094654D569AAFE439C","title":"新律花园","lon":"121.3684","lat":"31.196394","category":"47","category_name":"住宅区","address":"哈密路1680号"},{"poiid":"B2094757D16DA6F54293","title":"虹桥中园","lon":"121.36947258","lat":"31.194007722","category":"500","category_name":"未知分类","address":"上海市长宁区哈密路1999弄"},{"poiid":"B2094654D569AAFE4393","title":"春花苑","lon":"121.36626","lat":"31.195711","category":"47","category_name":"住宅区","address":"哈密路1719弄"},{"poiid":"B2094751DA65A4FD4399","title":"酒藏","lon":"121.371378","lat":"31.192276","category":"247","category_name":"餐饮美食","address":"长宁区剑河路(近延安西路)"},{"poiid":"B2094655D269A4F5439A","title":"宝隆居家酒店哈密路店","lon":"121.36978","lat":"31.19221","category":"247","category_name":"餐饮美食","address":"上海市长宁区哈密路2010号（近虹桥路）"},{"poiid":"B2094654D569AAFE459A","title":"松园别墅","lon":"121.36489","lat":"31.19793","category":"47","category_name":"住宅区","address":"长宁区哈密路1705号(哈密路金浜路)"},{"poiid":"B2094757D06BA1F9459F","title":"西郊宝成花苑","lon":"121.36429595","lat":"31.199365615","category":"252","category_name":"楼宇机构","address":"上海市长宁区金浜路100号"},{"poiid":"B2094654D569AAFE429B","title":"长青公寓","lon":"121.36961","lat":"31.195154","category":"47","category_name":"住宅区","address":"长青公寓位于长宁哈密路1896号16号楼"},{"poiid":"B2094751DA6BA7FB419B","title":"日内瓦酒吧","lon":"121.363965","lat":"31.19656","category":"247","category_name":"餐饮美食","address":"哈密路1876号"},{"poiid":"B2094757D569A7FB469C","title":"绿谷餐厅","lon":"121.3695794","lat":"31.19295667","category":"247","category_name":"餐饮美食","address":"长宁区哈密路1500号(近虹桥路)"},{"poiid":"B2094757D66DA1FC4693","title":"哈密路青溪路","lon":"121.368376986","lat":"31.1947325369","category":"500","category_name":"未知分类","address":"上海哈密路青溪路"},{"poiid":"B2094757D16DA4F54098","title":"虹桥枢纽9路","lon":"121.367981","lat":"31.195267","category":"500","category_name":"未知分类","address":"上海嘉定西站-虹桥枢纽东交通中心"},{"poiid":"B2094655D36CA0FA4092","title":"剑河路青溪路","lon":"121.36955","lat":"31.19904","category":"38","category_name":"公交车站","address":""},{"poiid":"B2094654D569AAFB4193","title":"北顾小区","lon":"121.37067","lat":"31.19923","category":"47","category_name":"住宅区","address":"上海剑河路998弄"},{"poiid":"B2094655D26AA2F9459E","title":"飞蛋超市哈密路店","lon":"121.36929","lat":"31.1942","category":"247","category_name":"餐饮美食","address":"长宁区哈密路1896号(近青溪路)"},{"poiid":"B2094655D26CA4FC4792","title":"王满小区","lon":"121.37051","lat":"31.195459","category":"47","category_name":"住宅区","address":"哈密路1800弄1-23号"},{"poiid":"B2094654D569AAFC449B","title":"上海动物园","lon":"121.36272202550413","lat":"31.194404631992096","category":"197","category_name":"动物园","address":"虹桥路2381号。"},{"poiid":"B2094757D06FA7FA4699","title":"上海市交通警察总队车辆管理所(一分所)","lon":"121.366082","lat":"31.2012371","category":"252","category_name":"楼宇机构","address":"上海长宁区哈密路1330号"},{"poiid":"B2094757D06FA5F9469C","title":"西郊公园","lon":"121.366499424","lat":"31.1906089622","category":"196","category_name":"公园","address":"上海虹桥路"},{"poiid":"B2094757D068A5F9469D","title":"上海国际旅行卫生保健中心","lon":"121.36435699","lat":"31.198169708","category":"162","category_name":"医院","address":"长宁区金浜路15号(近哈密路)"},{"poiid":"B2094757D06FA3FC4599","title":"上海动物园地铁站","lon":"121.36693938","lat":"31.19022555","category":"36","category_name":"地铁站","address":"上海轨道交通 十号线 轨交上海动物园站 10"},{"poiid":"B2094757D165A1F44792","title":"上海动物园大猩猩馆","lon":"121.362465586","lat":"31.1930057032","category":"500","category_name":"未知分类","address":"上海动物园"},{"poiid":"B2094757D068A0FB4892","title":"鼎邦俪池","lon":"121.37372","lat":"31.19683","category":"500","category_name":"未知分类","address":"上海长宁区青溪路288弄(近龙溪路)  "},{"poiid":"B2094757D06FA5F5469B","title":"顽皮家族宠物医院(虹桥路总店)","lon":"121.36548934","lat":"31.190155323","category":"162","category_name":"医院","address":"长宁区虹桥路2393号(近动物园)"},{"poiid":"B2094757D068A7FA419A","title":"绿谷别墅","lon":"121.365924","lat":"31.198598","category":"47","category_name":"住宅区","address":"上海哈密路1500号"},{"poiid":"B2094654D569AAFC429C","title":"阿山饭店","lon":"121.36647159056","lat":"31.189958417134","category":"76","category_name":"上海菜","address":"长宁区虹桥路2378号(近动物园)"},{"poiid":"B2094757D069A3FE419A","title":"上海出入境检验检疫局/上海国际旅行卫生保健中心","lon":"121.36445758","lat":"31.197729795","category":"162","category_name":"医院","address":"上海市长宁区金浜路15号"},{"poiid":"B2094655D26EA3FA4593","title":"格林豪泰(上海虹桥机场酒店公寓)","lon":"121.36744","lat":"31.19583","category":"216","category_name":"经济型连锁酒店","address":"长宁区哈密路1721号(近虹桥路)"},{"poiid":"B2094750D66FA6FB4092","title":"医院","lon":"121.364761","lat":"31.195802","category":"162","category_name":"医院","address":"哈密路青溪路"},{"poiid":"B2094757D069ABFA4498","title":"中国人民解放军第四五五医院(哈密路分院)","lon":"121.36747","lat":"31.19587","category":"162","category_name":"医院","address":"长宁区哈密路1713号(近虹桥路)"},{"poiid":"B2094757D069A3F94898","title":"特警总队","lon":"121.366982","lat":"31.202182","category":"500","category_name":"未知分类","address":"上海哈密路1330号"},{"poiid":"B2094757D068A1FC459E","title":"天鹅轩","lon":"121.36951","lat":"31.1903","category":"75","category_name":"浙江菜","address":"长宁区虹桥路2395号(近虹井路)查看地图"},{"poiid":"B2094757D065A1FD4298","title":"老虎山","lon":"121.360507586","lat":"31.1949827418","category":"500","category_name":"未知分类","address":"上海西郊公园"},{"poiid":"B2094752D36DABFF4599","title":"Geneva","lon":"121.364115","lat":"31.196543","category":"247","category_name":"餐饮美食","address":"哈密路1876弄6号"},{"poiid":"B2094655D26AA4FD459A","title":"海立阁哈密路店","lon":"121.36662","lat":"31.19685","category":"247","category_name":"餐饮美食","address":"长宁区哈密路2010号(近虹桥路)"},{"poiid":"B2094757D06AA0FB4099","title":"人民公社农家菜","lon":"121.37031","lat":"31.19103","category":"87","category_name":"特色／地方风味餐厅","address":"长宁区哈密路2028号(近虹桥路)"},{"poiid":"B2094757D16EA3F5469B","title":"名颂人家","lon":"121.36799","lat":"31.19575","category":"76","category_name":"上海菜","address":"长宁区哈密路1799号(近青溪路)"},{"poiid":"B2094654DB6BA1F4419C","title":"虹桥龙柏公寓","lon":"121.36544851952","lat":"31.193572126218","category":"47","category_name":"住宅区","address":"绿苑路21弄识别"},{"poiid":"B2094757D16FA1F9409A","title":"锦江之星(哈密路店)","lon":"121.36583","lat":"31.19993","category":"500","category_name":"未知分类","address":"上海长宁区哈密路1358号(近金滨路)  "},{"poiid":"B2094757D66BA4F5419C","title":"pizzasun","lon":"121.36725256124","lat":"31.189778276359","category":"94","category_name":"西餐厅","address":"长宁区虹井路989号(近虹桥路)"},{"poiid":"B2094654D569AAFE479F","title":"新泾苑","lon":"121.36304","lat":"31.200182","category":"47","category_name":"住宅区","address":"中泾路18弄1-85号"},{"poiid":"B2094654D569AAFD4293","title":"张泾小区","lon":"121.37108","lat":"31.194754","category":"47","category_name":"住宅区","address":"上海剑河路2001弄"},{"poiid":"B2094757D66DABF4499C","title":"浦东机场T1航站楼VVIP A区","lon":"121.361251336","lat":"31.198727265","category":"21","category_name":"飞机场","address":"上海浦东机场T1航站楼VVIP A区"},{"poiid":"B2094757D465ABFE429A","title":"满月","lon":"121.360967","lat":"31.198553","category":"269","category_name":"烧烤","address":"长宁区金浜路112号(近福泉路)"},{"poiid":"B2094654D569AAFE449B","title":"快客No.1252","lon":"121.36711","lat":"31.19632","category":"117","category_name":"便民商店/便利店","address":"哈密路1713-7识别"},{"poiid":"B2094654D569AAFE439D","title":"春花苑(东门)","lon":"121.36726","lat":"31.19614","category":"47","category_name":"住宅区","address":"哈密路1719"},{"poiid":"B2094752D46DA3FA419C","title":"108医院","lon":"121.366393","lat":"31.195627","category":"162","category_name":"医院","address":"上海市哈密路1713号"},{"poiid":"B2094654DB6BA0FD499C","title":"竹园餐厅(舟山海鲜坊)","lon":"121.36894","lat":"31.19466","category":"257","category_name":"中餐厅","address":"长宁区哈密路1896号"},{"poiid":"B2094757D069A1F84898","title":"车管所一分所","lon":"121.36568521","lat":"31.202140621","category":"500","category_name":"未知分类","address":"上海哈密路"},{"poiid":"B2094757D568A5F5479C","title":"御笼坊(哈密路店)","lon":"121.3692931","lat":"31.19420806","category":"68","category_name":"快餐厅","address":"长宁区哈密路1896弄(近青溪路)"},{"poiid":"B2094654D569AAFE439C","title":"新律花园","lon":"121.3684","lat":"31.196394","category":"47","category_name":"住宅区","address":"哈密路1680号"},{"poiid":"B2094757D16DA6F54293","title":"虹桥中园","lon":"121.36947258","lat":"31.194007722","category":"500","category_name":"未知分类","address":"上海市长宁区哈密路1999弄"},{"poiid":"B2094654D569AAFE4393","title":"春花苑","lon":"121.36626","lat":"31.195711","category":"47","category_name":"住宅区","address":"哈密路1719弄"},{"poiid":"B2094751DA65A4FD4399","title":"酒藏","lon":"121.371378","lat":"31.192276","category":"247","category_name":"餐饮美食","address":"长宁区剑河路(近延安西路)"},{"poiid":"B2094655D269A4F5439A","title":"宝隆居家酒店哈密路店","lon":"121.36978","lat":"31.19221","category":"247","category_name":"餐饮美食","address":"上海市长宁区哈密路2010号（近虹桥路）"},{"poiid":"B2094654D569AAFE459A","title":"松园别墅","lon":"121.36489","lat":"31.19793","category":"47","category_name":"住宅区","address":"长宁区哈密路1705号(哈密路金浜路)"},{"poiid":"B2094757D06BA1F9459F","title":"西郊宝成花苑","lon":"121.36429595","lat":"31.199365615","category":"252","category_name":"楼宇机构","address":"上海市长宁区金浜路100号"},{"poiid":"B2094654D569AAFE429B","title":"长青公寓","lon":"121.36961","lat":"31.195154","category":"47","category_name":"住宅区","address":"长青公寓位于长宁哈密路1896号16号楼"},{"poiid":"B2094751DA6BA7FB419B","title":"日内瓦酒吧","lon":"121.363965","lat":"31.19656","category":"247","category_name":"餐饮美食","address":"哈密路1876号"},{"poiid":"B2094757D569A7FB469C","title":"绿谷餐厅","lon":"121.3695794","lat":"31.19295667","category":"247","category_name":"餐饮美食","address":"长宁区哈密路1500号(近虹桥路)"},{"poiid":"B2094757D66DA1FC4693","title":"哈密路青溪路","lon":"121.368376986","lat":"31.1947325369","category":"500","category_name":"未知分类","address":"上海哈密路青溪路"},{"poiid":"B2094757D16DA4F54098","title":"虹桥枢纽9路","lon":"121.367981","lat":"31.195267","category":"500","category_name":"未知分类","address":"上海嘉定西站-虹桥枢纽东交通中心"},{"poiid":"B2094655D36CA0FA4092","title":"剑河路青溪路","lon":"121.36955","lat":"31.19904","category":"38","category_name":"公交车站","address":""},{"poiid":"B2094654D569AAFB4193","title":"北顾小区","lon":"121.37067","lat":"31.19923","category":"47","category_name":"住宅区","address":"上海剑河路998弄"},{"poiid":"B2094655D26AA2F9459E","title":"飞蛋超市哈密路店","lon":"121.36929","lat":"31.1942","category":"247","category_name":"餐饮美食","address":"长宁区哈密路1896号(近青溪路)"},{"poiid":"B2094655D26CA4FC4792","title":"王满小区","lon":"121.37051","lat":"31.195459","category":"47","category_name":"住宅区","address":"哈密路1800弄1-23号"},{"poiid":"B2094654D569AAFC449B","title":"上海动物园","lon":"121.36272202550413","lat":"31.194404631992096","category":"197","category_name":"动物园","address":"虹桥路2381号。"},{"poiid":"B2094757D06FA7FA4699","title":"上海市交通警察总队车辆管理所(一分所)","lon":"121.366082","lat":"31.2012371","category":"252","category_name":"楼宇机构","address":"上海长宁区哈密路1330号"},{"poiid":"B2094757D06FA5F9469C","title":"西郊公园","lon":"121.366499424","lat":"31.1906089622","category":"196","category_name":"公园","address":"上海虹桥路"},{"poiid":"B2094757D068A5F9469D","title":"上海国际旅行卫生保健中心","lon":"121.36435699","lat":"31.198169708","category":"162","category_name":"医院","address":"长宁区金浜路15号(近哈密路)"},{"poiid":"B2094757D06FA3FC4599","title":"上海动物园地铁站","lon":"121.36693938","lat":"31.19022555","category":"36","category_name":"地铁站","address":"上海轨道交通 十号线 轨交上海动物园站 10"},{"poiid":"B2094757D165A1F44792","title":"上海动物园大猩猩馆","lon":"121.362465586","lat":"31.1930057032","category":"500","category_name":"未知分类","address":"上海动物园"},{"poiid":"B2094757D068A0FB4892","title":"鼎邦俪池","lon":"121.37372","lat":"31.19683","category":"500","category_name":"未知分类","address":"上海长宁区青溪路288弄(近龙溪路)  "},{"poiid":"B2094757D06FA5F5469B","title":"顽皮家族宠物医院(虹桥路总店)","lon":"121.36548934","lat":"31.190155323","category":"162","category_name":"医院","address":"长宁区虹桥路2393号(近动物园)"},{"poiid":"B2094757D068A7FA419A","title":"绿谷别墅","lon":"121.365924","lat":"31.198598","category":"47","category_name":"住宅区","address":"上海哈密路1500号"},{"poiid":"B2094654D569AAFC429C","title":"阿山饭店","lon":"121.36647159056","lat":"31.189958417134","category":"76","category_name":"上海菜","address":"长宁区虹桥路2378号(近动物园)"},{"poiid":"B2094757D069A3FE419A","title":"上海出入境检验检疫局/上海国际旅行卫生保健中心","lon":"121.36445758","lat":"31.197729795","category":"162","category_name":"医院","address":"上海市长宁区金浜路15号"},{"poiid":"B2094655D26EA3FA4593","title":"格林豪泰(上海虹桥机场酒店公寓)","lon":"121.36744","lat":"31.19583","category":"216","category_name":"经济型连锁酒店","address":"长宁区哈密路1721号(近虹桥路)"},{"poiid":"B2094750D66FA6FB4092","title":"医院","lon":"121.364761","lat":"31.195802","category":"162","category_name":"医院","address":"哈密路青溪路"},{"poiid":"B2094757D069ABFA4498","title":"中国人民解放军第四五五医院(哈密路分院)","lon":"121.36747","lat":"31.19587","category":"162","category_name":"医院","address":"长宁区哈密路1713号(近虹桥路)"},{"poiid":"B2094757D069A3F94898","title":"特警总队","lon":"121.366982","lat":"31.202182","category":"500","category_name":"未知分类","address":"上海哈密路1330号"},{"poiid":"B2094757D068A1FC459E","title":"天鹅轩","lon":"121.36951","lat":"31.1903","category":"75","category_name":"浙江菜","address":"长宁区虹桥路2395号(近虹井路)查看地图"},{"poiid":"B2094757D065A1FD4298","title":"老虎山","lon":"121.360507586","lat":"31.1949827418","category":"500","category_name":"未知分类","address":"上海西郊公园"},{"poiid":"B2094752D36DABFF4599","title":"Geneva","lon":"121.364115","lat":"31.196543","category":"247","category_name":"餐饮美食","address":"哈密路1876弄6号"},{"poiid":"B2094655D26AA4FD459A","title":"海立阁哈密路店","lon":"121.36662","lat":"31.19685","category":"247","category_name":"餐饮美食","address":"长宁区哈密路2010号(近虹桥路)"},{"poiid":"B2094757D06AA0FB4099","title":"人民公社农家菜","lon":"121.37031","lat":"31.19103","category":"87","category_name":"特色／地方风味餐厅","address":"长宁区哈密路2028号(近虹桥路)"},{"poiid":"B2094757D16EA3F5469B","title":"名颂人家","lon":"121.36799","lat":"31.19575","category":"76","category_name":"上海菜","address":"长宁区哈密路1799号(近青溪路)"},{"poiid":"B2094654DB6BA1F4419C","title":"虹桥龙柏公寓","lon":"121.36544851952","lat":"31.193572126218","category":"47","category_name":"住宅区","address":"绿苑路21弄识别"},{"poiid":"B2094757D16FA1F9409A","title":"锦江之星(哈密路店)","lon":"121.36583","lat":"31.19993","category":"500","category_name":"未知分类","address":"上海长宁区哈密路1358号(近金滨路)  "},{"poiid":"B2094757D66BA4F5419C","title":"pizzasun","lon":"121.36725256124","lat":"31.189778276359","category":"94","category_name":"西餐厅","address":"长宁区虹井路989号(近虹桥路)"},{"poiid":"B2094654D569AAFE479F","title":"新泾苑","lon":"121.36304","lat":"31.200182","category":"47","category_name":"住宅区","address":"中泾路18弄1-85号"},{"poiid":"B2094654D569AAFD4293","title":"张泾小区","lon":"121.37108","lat":"31.194754","category":"47","category_name":"住宅区","address":"上海剑河路2001弄"},{"poiid":"B2094757D66DABF4499C","title":"浦东机场T1航站楼VVIP A区","lon":"121.361251336","lat":"31.198727265","category":"21","category_name":"飞机场","address":"上海浦东机场T1航站楼VVIP A区"},{"poiid":"B2094757D465ABFE429A","title":"满月","lon":"121.360967","lat":"31.198553","category":"269","category_name":"烧烤","address":"长宁区金浜路112号(近福泉路)"},{"poiid":"B2094654D569AAFE449B","title":"快客No.1252","lon":"121.36711","lat":"31.19632","category":"117","category_name":"便民商店/便利店","address":"哈密路1713-7识别"},{"poiid":"B2094654D569AAFE439D","title":"春花苑(东门)","lon":"121.36726","lat":"31.19614","category":"47","category_name":"住宅区","address":"哈密路1719"},{"poiid":"B2094752D46DA3FA419C","title":"108医院","lon":"121.366393","lat":"31.195627","category":"162","category_name":"医院","address":"上海市哈密路1713号"},{"poiid":"B2094654DB6BA0FD499C","title":"竹园餐厅(舟山海鲜坊)","lon":"121.36894","lat":"31.19466","category":"257","category_name":"中餐厅","address":"长宁区哈密路1896号"},{"poiid":"B2094757D069A1F84898","title":"车管所一分所","lon":"121.36568521","lat":"31.202140621","category":"500","category_name":"未知分类","address":"上海哈密路"},{"poiid":"B2094757D568A5F5479C","title":"御笼坊(哈密路店)","lon":"121.3692931","lat":"31.19420806","category":"68","category_name":"快餐厅","address":"长宁区哈密路1896弄(近青溪路)"},{"poiid":"B2094654D569AAFE439C","title":"新律花园","lon":"121.3684","lat":"31.196394","category":"47","category_name":"住宅区","address":"哈密路1680号"},{"poiid":"B2094757D16DA6F54293","title":"虹桥中园","lon":"121.36947258","lat":"31.194007722","category":"500","category_name":"未知分类","address":"上海市长宁区哈密路1999弄"},{"poiid":"B2094654D569AAFE4393","title":"春花苑","lon":"121.36626","lat":"31.195711","category":"47","category_name":"住宅区","address":"哈密路1719弄"},{"poiid":"B2094751DA65A4FD4399","title":"酒藏","lon":"121.371378","lat":"31.192276","category":"247","category_name":"餐饮美食","address":"长宁区剑河路(近延安西路)"},{"poiid":"B2094655D269A4F5439A","title":"宝隆居家酒店哈密路店","lon":"121.36978","lat":"31.19221","category":"247","category_name":"餐饮美食","address":"上海市长宁区哈密路2010号（近虹桥路）"},{"poiid":"B2094654D569AAFE459A","title":"松园别墅","lon":"121.36489","lat":"31.19793","category":"47","category_name":"住宅区","address":"长宁区哈密路1705号(哈密路金浜路)"},{"poiid":"B2094757D06BA1F9459F","title":"西郊宝成花苑","lon":"121.36429595","lat":"31.199365615","category":"252","category_name":"楼宇机构","address":"上海市长宁区金浜路100号"},{"poiid":"B2094654D569AAFE429B","title":"长青公寓","lon":"121.36961","lat":"31.195154","category":"47","category_name":"住宅区","address":"长青公寓位于长宁哈密路1896号16号楼"},{"poiid":"B2094751DA6BA7FB419B","title":"日内瓦酒吧","lon":"121.363965","lat":"31.19656","category":"247","category_name":"餐饮美食","address":"哈密路1876号"},{"poiid":"B2094757D569A7FB469C","title":"绿谷餐厅","lon":"121.3695794","lat":"31.19295667","category":"247","category_name":"餐饮美食","address":"长宁区哈密路1500号(近虹桥路)"},{"poiid":"B2094757D66DA1FC4693","title":"哈密路青溪路","lon":"121.368376986","lat":"31.1947325369","category":"500","category_name":"未知分类","address":"上海哈密路青溪路"},{"poiid":"B2094757D16DA4F54098","title":"虹桥枢纽9路","lon":"121.367981","lat":"31.195267","category":"500","category_name":"未知分类","address":"上海嘉定西站-虹桥枢纽东交通中心"},{"poiid":"B2094655D36CA0FA4092","title":"剑河路青溪路","lon":"121.36955","lat":"31.19904","category":"38","category_name":"公交车站","address":""},{"poiid":"B2094654D569AAFB4193","title":"北顾小区","lon":"121.37067","lat":"31.19923","category":"47","category_name":"住宅区","address":"上海剑河路998弄"},{"poiid":"B2094655D26AA2F9459E","title":"飞蛋超市哈密路店","lon":"121.36929","lat":"31.1942","category":"247","category_name":"餐饮美食","address":"长宁区哈密路1896号(近青溪路)"},{"poiid":"B2094655D26CA4FC4792","title":"王满小区","lon":"121.37051","lat":"31.195459","category":"47","category_name":"住宅区","address":"哈密路1800弄1-23号"}]