[{"poiid":"B2094757D06EAAF9409E","title":"常熟路地铁站","lon":"121.451084","lat":"31.213396","category":"36","category_name":"地铁站","address":"上海轨道交通 一号线 七号线 轨交常熟路站 1 7"},{"poiid":"B2094757D06EAAFD4692","title":"Whisk","lon":"121.45298","lat":"31.21402","category":"67","category_name":"甜品店","address":"徐汇区淮海中路1250号(地铁1号线常熟路地铁站2号出口对面)"},{"poiid":"B2094654DB65A4F4489E","title":"星巴克(爱美高大厦店)","lon":"121.449713","lat":"31.212659","category":"65","category_name":"咖啡厅","address":"徐汇区淮海中路1325号爱美高大厦1楼103室(近宝庆路)"},{"poiid":"B2094753D76FAAFA449C","title":"上海滩国泰旗舰店","lon":"121.466011","lat":"31.216125","category":"249","category_name":"购物服务","address":"淮海中路868号"},{"poiid":"B209475CD564A7F84292","title":"上海滩新天地店","lon":"121.47463","lat":"31.22164","category":"119","category_name":"商场","address":"\"太仓路181弄新天地北里15号\r\n\""},{"poiid":"B209475CD564A7F8439E","title":"上海滩中信泰富店","lon":"121.45602","lat":"31.22851","category":"119","category_name":"商场","address":"\"南京西路1168号中信泰富广场，店铺号221.\r\n\""},{"poiid":"B2094757D068A0FD469D","title":"Bella Napoli(长乐路店)","lon":"121.4457","lat":"31.21567","category":"94","category_name":"西餐厅","address":"徐汇区长乐路946弄4号(近乌鲁木齐中路)"},{"poiid":"B2094757D06FA2F8489B","title":"MT Club(淮海路店)","lon":"121.44947125","lat":"31.211846925","category":"260","category_name":"其他","address":"徐汇区淮海中路1329号云海大厦3楼(近常熟路)"},{"poiid":"B2094757D069A3FA429E","title":"Aura Restaurant","lon":"121.45183358","lat":"31.212174077","category":"500","category_name":"未知分类","address":"上海市 汾阳路 复兴中路"},{"poiid":"B2094757D06FA4F94799","title":"淮海中路常熟路","lon":"121.451735","lat":"31.21375","category":"38","category_name":"公交车站","address":"上海911, 920, 926, 911区间车, 320路 公交车站"},{"poiid":"B2094757D16AA4FD409B","title":"虹桥火车站(上海西站)地铁站","lon":"121.449664786","lat":"31.2127608894","category":"36","category_name":"地铁站","address":"上海轨道交通二、十号线虹桥火车站"},{"poiid":"B2094757D06FA2FB489F","title":"肯德基 KFC (常熟路站店)","lon":"121.450813","lat":"31.213614","category":"68","category_name":"快餐厅","address":"徐汇区淮海中路1298号(近常熟路地铁站)"},{"poiid":"B2094750DB6DA6FE479E","title":"Maya Club","lon":"121.44942","lat":"31.21178","category":"260","category_name":"其他","address":"徐汇区淮海中路1329号云海大厦3楼(宝庆路口)"},{"poiid":"B2094752D16FA3F8439C","title":"petit paris小巴黎咖啡厅","lon":"121.45103","lat":"31.21387","category":"247","category_name":"餐饮美食","address":"淮海中路1288号，华亭路93弄"},{"poiid":"B2094757D06FA2F4499F","title":"董大师金牌稻香蛙(延庆路店)","lon":"121.4514","lat":"31.21504","category":"71","category_name":"四川菜","address":"徐汇区延庆路92号(近华亭路)"},{"poiid":"B2094757D06FA4F84599","title":"上方花园","lon":"121.45129","lat":"31.212694","category":"47","category_name":"住宅区","address":"淮海中路1285弄1-77号"},{"poiid":"B2094757D16AABF9459E","title":"PAULANER","lon":"121.450187586","lat":"31.2119282731","category":"500","category_name":"未知分类","address":"上海汾阳路"},{"poiid":"B2094750D26EA7FE479D","title":"人民广场地铁站","lon":"121.452407","lat":"31.213254","category":"36","category_name":"地铁站","address":null},{"poiid":"B2094753D464AAF8489D","title":"上海交响乐团音乐厅","lon":"121.451896","lat":"31.21169","category":"500","category_name":"未知分类","address":"复兴中路1380号"},{"poiid":"B2094654DA6DAAFB4098","title":"湾仔中国餐馆宝庆路店","lon":"121.44974","lat":"31.21117","category":"71","category_name":"四川菜","address":"徐汇区宝庆路10号(近复兴中路)"},{"poiid":"B2094757D068A4F5449C","title":"淮海路宝庆路口","lon":"121.449333191","lat":"31.2118606567","category":"260","category_name":"其他","address":"上海淮海路1329号"},{"poiid":"B2094655D264A0FB419D","title":"淮海公寓","lon":"121.45298","lat":"31.214819","category":"47","category_name":"住宅区","address":"上海市卢湾区淮海中路1202号"},{"poiid":"B2094750DB69A4FD479C","title":"浦西一妇婴","lon":"121.449172","lat":"31.212591","category":"627","category_name":"一般地点标志","address":"长乐路536号"},{"poiid":"B2094654DA6DAAFB429A","title":"玛雅俱乐部","lon":"121.44926763864044","lat":"31.21184508914139","category":"248","category_name":"生活娱乐","address":"淮海中路1329号云海大厦4层"},{"poiid":"B2094757D06BA2F9409C","title":"正圆烩面","lon":"121.44937258","lat":"31.211990074","category":"68","category_name":"快餐厅","address":"徐汇区乌鲁木齐中路247号(近五原路)"},{"poiid":"B209475DD76AAAFA4298","title":"Captain Rooster","lon":"121.451354","lat":"31.214776","category":"247","category_name":"餐饮美食","address":"上海市 上海市常熟路75号，靠近巨鹿路"},{"poiid":"B2094757D069A7FC489F","title":"十号名邸","lon":"121.45163243","lat":"31.212480733","category":"47","category_name":"住宅区","address":"宝庆路10号2-4楼近复兴中路"},{"poiid":"B2094655D26AA0F94699","title":"地铁常熟路站","lon":"121.45107","lat":"31.2134","category":"36","category_name":"地铁站","address":""},{"poiid":"B2094750DA68A5FA459B","title":"时光花园咖啡","lon":"121.45081181083674","lat":"31.21339009806651","category":"65","category_name":"咖啡厅","address":"徐汇区淮海中路1285弄上方花园51号1楼(近华亭路)"},{"poiid":"B2094757D66DA4FF479F","title":"御香粥","lon":"121.450179586","lat":"31.2125590854","category":"68","category_name":"快餐厅","address":"徐汇区淮海中路1323号(近宝庆路)"},{"poiid":"B2094655D36CA5F9479D","title":"常熟路","lon":"121.45126","lat":"31.21355","category":"38","category_name":"公交车站","address":""},{"poiid":"B2094757D06FABF5409C","title":"Lapis Sky Garden","lon":"121.45001797","lat":"31.210844028","category":"94","category_name":"西餐厅","address":"徐汇区宝庆路10号7楼(复兴中路口)"},{"poiid":"B2094757D06AA5FC419F","title":"happy face coffe","lon":"121.45177058","lat":"31.214046114","category":"500","category_name":"未知分类","address":"上海市淮海中路1288号"},{"poiid":"B2094757D06EAAF5499F","title":"延庆路董大师","lon":"121.451077","lat":"31.215218","category":"52","category_name":"高等院校","address":"上海延庆路92号"},{"poiid":"B2094751D264A5FD489E","title":"陕西南路1号线地铁站","lon":"121.4521672","lat":"31.2152085","category":"36","category_name":"地铁站","address":null},{"poiid":"B2094757D168A2FF499C","title":"衡山路酒吧一条街","lon":"121.450377486","lat":"31.2132739994","category":"260","category_name":"其他","address":"上海衡山路"},{"poiid":"B2094757D06BA1FD429B","title":"南十字星","lon":"121.451812245","lat":"31.2138919748","category":"260","category_name":"其他","address":"徐汇区淮海中路1276号(近华亭路)"},{"poiid":"B2094757D16AAAFC4499","title":"千鹤寿司","lon":"121.450005","lat":"31.212797","category":"95","category_name":"日本料理","address":"卢湾区淮海中路1323号"},{"poiid":"B2094750D665A4FB479F","title":"皓廊","lon":"121.451","lat":"31.2142","category":"260","category_name":"其他","address":"徐汇区华亭路71弄4号(近淮海中路)"},{"poiid":"B2094750D36BABFA4692","title":"致尚生活的爱","lon":"121.45278908724","lat":"31.211112767704","category":"247","category_name":"餐饮美食","address":"徐汇区复兴中路1335号(近音乐学院)"},{"poiid":"B2094757D06FA6F4429B","title":"7-ELEVEN(常熟路店)","lon":"121.449559","lat":"31.21338","category":"117","category_name":"便民商店/便利店","address":"静安区常熟路83号时尚前瞻大楼1楼(近巨鹿路)"},{"poiid":"B2094757D66DA3FE449C","title":"地鐵1號綫","lon":"121.451383","lat":"31.213704","category":"500","category_name":"未知分类","address":"上海邊走邊換！"},{"poiid":"B2094655D36CA5F54998","title":"宝庆路淮海中路","lon":"121.44977","lat":"31.21177","category":"38","category_name":"公交车站","address":""},{"poiid":"B2094757D06AA3FB4199","title":"中国银行(淮海支行)","lon":"121.4530235","lat":"31.2143001","category":"150","category_name":"银行","address":"徐汇区淮海中路1216号(近常熟路)"},{"poiid":"B2094757D16AABF9419E","title":"Happy Face","lon":"121.45109958","lat":"31.213467103","category":"500","category_name":"未知分类","address":"上海市淮海中路1288号"},{"poiid":"B2094757D06EAAFE469F","title":"微听Waiting Cafe(复兴中路近汾阳路)","lon":"121.453418","lat":"31.211411","category":"65","category_name":"咖啡厅","address":"上海复兴中路1323号，近汾阳路"},{"poiid":"B2094655D268A5F9409A","title":"克莱门公寓","lon":"121.4518","lat":"31.21051","category":"47","category_name":"住宅区","address":"复兴中路1363弄1-38号"},{"poiid":"B2094757D065A1F9499D","title":"华亭路延庆路","lon":"121.451167","lat":"31.215257","category":"260","category_name":"其他","address":"上海华亭路延庆路"},{"poiid":"B209475CD06CA6F4479E","title":"恒春元食堂","lon":"121.45144","lat":"31.21363","category":"68","category_name":"快餐厅","address":"淮海中路1280号1楼(近华亭路)"},{"poiid":"B2094757D06EAAF4449F","title":"Jiepang SH Office Garden","lon":"121.4509543","lat":"31.2132879","category":"197","category_name":"动物园","address":"上海徐汇区淮海中路1285弄小院子"},{"poiid":"B2094757D064A3FC459C","title":"复兴中路近汾阳路","lon":"121.4519967","lat":"31.211072371","category":"500","category_name":"未知分类","address":"上海1333弄"},{"poiid":"B2094752D56AA7FB469A","title":"Perrys淮海中路店","lon":"121.449625","lat":"31.211541","category":"247","category_name":"餐饮美食","address":"淮海中路1333号3楼"},{"poiid":"B2094655D265A7FC4699","title":"美美百货","lon":"121.44998","lat":"31.21295","category":"119","category_name":"商场","address":"淮海中路1312号"},{"poiid":"B2094654D564A4FE449B","title":"红玫瑰美容院","lon":"121.44908","lat":"31.2121","category":"148","category_name":"美容美发店","address":"淮海中路1352"},{"poiid":"B2094655D26EAAF5499B","title":"张元济故居","lon":"121.45128","lat":"31.21269","category":"66","category_name":"茶艺馆","address":"徐汇区淮海中路1285号上方花园24号(近常熟路地铁站)"},{"poiid":"B209475CD069A7F5409C","title":"小巴黎花园咖啡馆","lon":"121.451061","lat":"31.213728","category":"65","category_name":"咖啡厅","address":"淮海中路1288号(近常熟路地铁站)"},{"poiid":"B209475DD66AA0F44493","title":"多云咖啡馆","lon":"121.45005","lat":"31.210855","category":"247","category_name":"餐饮美食","address":"上海市 上海市宝庆路9弄1号"},{"poiid":"B2094655D268A6F5439D","title":"延庆路123弄小区(西门)","lon":"121.45176","lat":"31.21524","category":"47","category_name":"住宅区","address":"延庆路123弄1-34号"},{"poiid":"B2094654D564ABFD4799","title":"永隆大厦","lon":"121.45062","lat":"31.21348","category":"46","category_name":"楼宇","address":"淮海中路1298号"},{"poiid":"B209475CD26DA1F5419F","title":"the TERRACE","lon":"121.452026","lat":"31.21331","category":"500","category_name":"未知分类","address":"上海市 安福路23号"},{"poiid":"B2094757D06FA0FE469B","title":"全家便利(常熟路站店)","lon":"121.45071689","lat":"31.213162114","category":"117","category_name":"便民商店/便利店","address":"上海徐汇区地铁一、七号线常熟路站换乘通道"},{"poiid":"B2094757D16AA2FC479D","title":"宝庆路淮海中路公交车站","lon":"121.449909","lat":"31.211091","category":"38","category_name":"公交车站","address":"上海宝庆路淮海中路"},{"poiid":"B2094753D66BA7FF479A","title":"福记港式茶粥面","lon":"121.451179","lat":"31.213457","category":"247","category_name":"餐饮美食","address":"上海市 陕西南路11号"},{"poiid":"B209475CD16DA7FD4292","title":"El Amor De La Vida","lon":"121.452","lat":"31.21115","category":"65","category_name":"咖啡厅","address":"复兴中路1335号(近音乐学院)"},{"poiid":"B2094655D26FA7F8459F","title":"新康花园","lon":"121.45245","lat":"31.21299","category":"47","category_name":"住宅区","address":"淮海中路1273弄1-25,26,28号"},{"poiid":"B2094753D569A4F44798","title":"DoroqGarden 多洛库花园","lon":"121.453735","lat":"31.212795","category":"47","category_name":"住宅区","address":"上海市 上海市徐汇区延庆路140号"},{"poiid":"B2094752D76CA3FF4698","title":"Casa Cafe","lon":"121.452558","lat":"31.211965","category":"247","category_name":"餐饮美食","address":"63 永康路"},{"poiid":"B2094655D268A6F5439C","title":"延庆路123弄小区","lon":"121.45226","lat":"31.21505","category":"47","category_name":"住宅区","address":"延庆路123弄1-34号"},{"poiid":"B2094753D468A5F8419D","title":"Grace studio","lon":"121.451896","lat":"31.212638","category":"500","category_name":"未知分类","address":"上海市 五原路96弄1号(近常熟路地铁站)"},{"poiid":"B2094753DA64A6FA4399","title":"上海图书馆","lon":"121.450431","lat":"31.21208","category":"500","category_name":"未知分类","address":"上海市 高安路"},{"poiid":"B2094757D66AAAFA449E","title":"欢颜咖啡馆 HAPPYFACE COFFEE","lon":"121.451048","lat":"31.213797","category":"260","category_name":"其他","address":"徐汇区淮海中路1288号(近常熟路地铁站)"},{"poiid":"B2094757D069A6F54698","title":"雅诗兰黛（上海）商贸有限公司","lon":"121.44979095","lat":"31.21395111","category":"500","category_name":"未知分类","address":"上海长乐路989号世纪商贸广场38楼"},{"poiid":"B2094757D16CA4FB4499","title":"上海星公馆","lon":"121.449789","lat":"31.212136","category":"500","category_name":"未知分类","address":"上海淮海中路1045号45楼"},{"poiid":"B2094654D564ABFE4299","title":"好德便利No.789","lon":"121.45108","lat":"31.21521","category":"117","category_name":"便民商店/便利店","address":"湖南路"},{"poiid":"B2094655D268A2FA469D","title":"音苑小区","lon":"121.45316","lat":"31.211926","category":"47","category_name":"住宅区","address":"复兴中路1350弄1-23号"},{"poiid":"B2094757D568A7F9469D","title":"华亭公寓","lon":"121.450111","lat":"31.214246","category":"47","category_name":"住宅区","address":"华亭路76"},{"poiid":"B2094654DA6EA2FB4799","title":"历峰商业有限公司","lon":"121.45005","lat":"31.21231","category":"263","category_name":"公司","address":"淮海中路1325号爱美高大厦5层501"},{"poiid":"B2094655D268A7F8489C","title":"宝庆路9弄小区","lon":"121.45045","lat":"31.21155","category":"47","category_name":"住宅区","address":"宝庆路9弄1-6号"},{"poiid":"B2094655D26CA4FA4592","title":"克莱门公寓（北门）","lon":"121.4517","lat":"31.21087","category":"47","category_name":"住宅区","address":"复兴中路1363弄1-38号"},{"poiid":"B2094757D165A5FA4193","title":"水木多多","lon":"121.4525299","lat":"31.215013504","category":"247","category_name":"餐饮美食","address":"上海常熟路83号4层"},{"poiid":"B2094757D16BA2F4469F","title":"汇丰大药房(药妆店)","lon":"121.44996","lat":"31.21297","category":"162","category_name":"医院","address":"静安区常熟路237号(常熟路淮海中路)"},{"poiid":"B2094757D168A6F8489F","title":"农记特色桂林米粉","lon":"121.45002072","lat":"31.212654667","category":"247","category_name":"餐饮美食","address":"上海淮海中路1305号"},{"poiid":"B2094655D26FA6F44298","title":"光明公寓","lon":"121.45264","lat":"31.214552","category":"47","category_name":"住宅区","address":"淮海中路1224,1228-1230"},{"poiid":"B2094655D268A2FA4692","title":"音苑小区(南门)","lon":"121.45324","lat":"31.2116","category":"47","category_name":"住宅区","address":"复兴中路1350弄1-23号"},{"poiid":"B2094655D268A6F54398","title":"延庆路96弄小区(南门)","lon":"121.45102","lat":"31.21518","category":"47","category_name":"住宅区","address":"延庆路96弄1-11号"},{"poiid":"B2094655D268A5F5449D","title":"永福第三小区","lon":"121.45175","lat":"31.21426","category":"47","category_name":"住宅区","address":"淮海中路1270弄1-31号"},{"poiid":"B2094655D268A7F8489F","title":"新康花园(南门)","lon":"121.45298","lat":"31.2115","category":"47","category_name":"住宅区","address":"复兴中路1360弄1-4号"},{"poiid":"B2094757D165A5FC4098","title":"上海维亚幼儿园(徐汇华亭园)","lon":"121.45048242","lat":"31.214393629","category":"57","category_name":"幼儿园","address":"上海徐汇区华亭路71弄1号(近淮海中路)"},{"poiid":"B209475CD66CA2FA4198","title":"茶の彩","lon":"121.45243","lat":"31.214504","category":"249","category_name":"购物服务","address":"上海市 静安区南京西路1618号久光百货B1"},{"poiid":"B2094654D564ABFD4992","title":"瑞华公寓(西门)","lon":"121.44918","lat":"31.21377","category":"47","category_name":"住宅区","address":"常熟路209号"},{"poiid":"B2094655D268A7F8489D","title":"宝庆路9弄小区(西门)","lon":"121.45008","lat":"31.21124","category":"47","category_name":"住宅区","address":"宝庆路9弄1-6号"},{"poiid":"B2094655D26CA4FA459D","title":"珊珊小区（北门）","lon":"121.45219","lat":"31.21103","category":"47","category_name":"住宅区","address":"复兴中路1333弄1-6号"},{"poiid":"B2094654DA6DAAFB4093","title":"上海市无线电监测站","lon":"121.44933","lat":"31.21186","category":"250","category_name":"公园户外","address":"淮海中路1329号云海大厦22-23层"},{"poiid":"B2094655D268A1FC4593","title":"盖司康公寓","lon":"121.45303","lat":"31.214455","category":"47","category_name":"住宅区","address":"淮海中路1212号"},{"poiid":"B2094654D564ABFD4598","title":"光明公寓(南门)","lon":"121.45271","lat":"31.21425","category":"47","category_name":"住宅区","address":"淮海中路1224、1228-1230"},{"poiid":"B2094655D268A5F84993","title":"珊珊小区","lon":"121.45242","lat":"31.21065","category":"47","category_name":"住宅区","address":"复兴中路1333弄1-6号"},{"poiid":"B2094655D268A5FF429F","title":"盖司康公寓(南门)","lon":"121.45295","lat":"31.21438","category":"47","category_name":"住宅区","address":"淮海中路1212"},{"poiid":"B2094655D268A5F54492","title":"永福第三小区(南门)","lon":"121.45182","lat":"31.21386","category":"47","category_name":"住宅区","address":"淮海中路1270弄1-31号"},{"poiid":"B2094757D16CA0F5479D","title":"徐汇区公积金中心","lon":"121.452474586","lat":"31.2112557968","category":"500","category_name":"未知分类","address":"上海复兴中路1331号"},{"poiid":"B2094654D564ABFD4592","title":"Azure Blu(淮海中路)","lon":"121.45289","lat":"31.21432","category":"141","category_name":"服装鞋帽皮具店","address":""},{"poiid":"B2094654DA6EA2FB479A","title":"月牙泉女子专业美容护肤","lon":"121.45004","lat":"31.21231","category":"148","category_name":"美容美发店","address":"淮海中路1325号爱美高大厦B104"},{"poiid":"B2094757D568A7F5459B","title":"快客便利店(淮海中路)","lon":"121.45177816","lat":"31.21352403","category":"117","category_name":"便民商店/便利店","address":"淮海中路1285弄6-1"},{"poiid":"B2094654DA6DABFD429F","title":"上海市物业管理行业协会","lon":"121.45242","lat":"31.21065","category":"250","category_name":"公园户外","address":"复兴中路1333弄1之6-7号"},{"poiid":"B2094757D16DA3FC449F","title":"STAR PLACE(宝庆路店)","lon":"121.44988","lat":"31.21149","category":"141","category_name":"服装鞋帽皮具店","address":"上海徐汇区宝庆路8号(近淮海中路)  "},{"poiid":"B2094757D065A2FD489D","title":"工商银行淮海中路支行","lon":"121.44968558","lat":"31.212974093","category":"500","category_name":"未知分类","address":"上海市徐汇区淮海中路1312路"},{"poiid":"B2094654DA6EA2FB4493","title":"复兴音乐书店","lon":"121.45348","lat":"31.21175","category":"125","category_name":"书店","address":"复兴中路1350号"},{"poiid":"B2094757D66CA0F5419C","title":"复兴中路衡山路东平路桃江路跑步","lon":"121.45194158","lat":"31.21079205","category":"500","category_name":"未知分类","address":"上海复兴中路衡山路"},{"poiid":"B2094757D164A1F8459C","title":"100 percent","lon":"121.45041346","lat":"31.210767039","category":"123","category_name":"家具建材市场","address":"上海徐汇区五原路72号1层"},{"poiid":"B2094654DA6EA2F44099","title":"亨事利(淮海中路)","lon":"121.45232","lat":"31.21379","category":"141","category_name":"服装鞋帽皮具店","address":"徐汇区淮海中路1251弄"},{"poiid":"B2094654D564ABFD459B","title":"上海真丝商厦淮海店","lon":"121.45279","lat":"31.2143","category":"141","category_name":"服装鞋帽皮具店","address":"淮海中路1226"},{"poiid":"B2094757D568A5FC469F","title":"浅蓝书坊淮海中路店","lon":"121.4508761","lat":"31.21334917","category":"125","category_name":"书店","address":"徐汇区淮海中路1288号(近常熟路地铁站)"},{"poiid":"B2094752D56AA2F5469C","title":"MAYA CLUB","lon":"121.449689","lat":"31.211938","category":"248","category_name":"生活娱乐","address":null},{"poiid":"B2094750D26EAAFC4993","title":"Pink酒吧","lon":"121.449684","lat":"31.211944","category":"260","category_name":"其他","address":"徐汇区淮海中路1329号云海大厦内(近常熟路)"},{"poiid":"B2094757D06BAAFF4992","title":"宝庆路8号","lon":"121.449681722","lat":"31.212354585","category":"500","category_name":"未知分类","address":"上海宝庆路8号"},{"poiid":"B2094750DB6BA0FE4798","title":"中国平安财产保险股份有限公司上海分公司车险理赔大厅","lon":"121.452423","lat":"31.214492","category":"500","category_name":"未知分类","address":"静安区常熟路8号"},{"poiid":"B2094757D06BA5F8439B","title":"宝庆路10号Oasis","lon":"121.449584","lat":"31.211496","category":"500","category_name":"未知分类","address":"上海宝庆路10号"},{"poiid":"B2094753D66DABFC419B","title":"Dream Yard","lon":"121.452743","lat":"31.213843","category":"500","category_name":"未知分类","address":"上海市 卢湾区襄阳南路222号"},{"poiid":"B2094757D66EA3FB4198","title":"跃spa","lon":"121.44932658","lat":"31.212879091","category":"500","category_name":"未知分类","address":"上海市徐汇区乌鲁木齐中路"},{"poiid":"B2094753D26EAAFC419A","title":"1933微剧场","lon":"121.449334","lat":"31.213645","category":"500","category_name":"未知分类","address":"上海市 溧阳路"},{"poiid":"B2094654DB6BA4FD469E","title":"亚振家具","lon":"121.4522","lat":"31.21364","category":"123","category_name":"家具建材市场","address":"徐汇区淮海中路1253号(华亭路淮海中路)"},{"poiid":"B2094757D66FA0FA4599","title":"Jazz Du Funk","lon":"121.44954858","lat":"31.212942092","category":"500","category_name":"未知分类","address":"上海市徐汇区乌鲁木齐中路"},{"poiid":"B2094751D268A5FD4099","title":"Frank Provost","lon":"121.449104","lat":"31.212347","category":"500","category_name":"未知分类","address":"安福路"},{"poiid":"B2094654DB64A6FD439F","title":"上海银行淮海支行","lon":"121.45004","lat":"31.2123","category":"150","category_name":"银行","address":"淮海中路1325号爱美高大厦104-105"},{"poiid":"B2094757D068A1F44993","title":"淮海中路华亭路口","lon":"121.45058558","lat":"31.213098096","category":"260","category_name":"其他","address":"上海市徐汇区淮海中路"},{"poiid":"B2094757D164A0FF499C","title":"长宁路","lon":"121.45200403","lat":"31.21458882","category":"500","category_name":"未知分类","address":"上海长宁路155弄"},{"poiid":"B2094757D66FA0FA429B","title":"KFC常熟路站店","lon":"121.451109586","lat":"31.2107270496","category":"500","category_name":"未知分类","address":"上海常熟路地铁站"},{"poiid":"B2094757D16AA6FF439B","title":"iniphoto","lon":"121.45105358","lat":"31.213562105","category":"500","category_name":"未知分类","address":"上海市淮河中路1288号"},{"poiid":"B2094757D165A7F9479F","title":"青浦区崧泽大道","lon":"121.449329","lat":"31.211856","category":"500","category_name":"未知分类","address":"上海MT"},{"poiid":"B2094757D165A3FE4198","title":"荆棘鸟书会","lon":"121.45114658","lat":"31.212665087","category":"260","category_name":"其他","address":"徐汇区淮海中路1285弄16号(近1号线常熟路地铁站)"},{"poiid":"B2094757D065A4FB459A","title":"OgilvyOne","lon":"121.452948322","lat":"31.2136250687","category":"500","category_name":"未知分类","address":"上海市长乐路989号26楼"},{"poiid":"B2094757D16CA1F94893","title":"Jenny's blue bar","lon":"121.45295458","lat":"31.213430102","category":"500","category_name":"未知分类","address":"上海东湖路"},{"poiid":"B2094757D16DA6FC439D","title":"广发银行(淮海支行)","lon":"121.44945","lat":"31.21175","category":"500","category_name":"未知分类","address":"上海徐汇区淮海中路1360号  "},{"poiid":"B2094757D165AAFE4399","title":"衡安大楼","lon":"121.453","lat":"31.2112","category":"252","category_name":"楼宇机构","address":"上海徐汇区衡山路20号"},{"poiid":"B2094757D06BA7FD419E","title":"Neo@Ogilvy SH","lon":"121.45214843","lat":"31.212257385","category":"500","category_name":"未知分类","address":"上海长乐路989号世纪商贸广场22楼"},{"poiid":"B2094757D164A0F4409E","title":"926","lon":"121.45233474","lat":"31.21371487","category":"500","category_name":"未知分类","address":"上海公车"},{"poiid":"B2094654D564ABFD479E","title":"世尊·名俱廊","lon":"121.45062","lat":"31.21348","category":"263","category_name":"公司","address":"卢湾区淮海中路1298号(近华亭路)"},{"poiid":"B2094757D66DABFD459B","title":"1288","lon":"121.45182758","lat":"31.214019114","category":"500","category_name":"未知分类","address":null},{"poiid":"B2094757D16AA3F9449C","title":"50弄","lon":"121.45279817","lat":"31.212267195","category":"500","category_name":"未知分类","address":"上海徐汇区五原路"},{"poiid":"B2094757D16CABF8449D","title":"田禾","lon":"121.44963048","lat":"31.212505084","category":"500","category_name":"未知分类","address":"上海长宁区890号"},{"poiid":"B2094757D569A3FD4399","title":"Amour Cache(淮海中路店)","lon":"121.4518431","lat":"31.21388194","category":"249","category_name":"购物服务","address":"淮海中路1260号"},{"poiid":"B2094654DA6DAAFB4199","title":"德希尼布天辰化学工程(天津)有限公司","lon":"121.44933","lat":"31.21186","category":"263","category_name":"公司","address":"淮海中路1329号云海大厦13、17层"},{"poiid":"B2094654DA6DABFD4193","title":"音乐之声(复兴中路)","lon":"121.45281","lat":"31.21122","category":"127","category_name":"音像店","address":"复兴中路1327"},{"poiid":"B2094654D564ABFD489A","title":"世尊家具(上海)有限公司","lon":"121.45062","lat":"31.21347","category":"263","category_name":"公司","address":"淮海中路1298号永隆大厦6层"},{"poiid":"B2094757D568A0FA479B","title":"爱其佰蓝淮海中路店","lon":"121.4528475","lat":"31.21442167","category":"249","category_name":"购物服务","address":"卢湾区淮海中路1220号(近华亭路)"},{"poiid":"B2094757D569A7F4479F","title":"Jackie Young","lon":"121.4492681","lat":"31.21314139","category":"249","category_name":"购物服务","address":"常熟路294号"},{"poiid":"B2094757D569A1FF439F","title":"Maison Mode","lon":"121.449905","lat":"31.21339694","category":"249","category_name":"购物服务","address":"淮海中路1326号"},{"poiid":"B2094757D164A7F94392","title":"海阔天空","lon":"121.45308733","lat":"31.214700527","category":"249","category_name":"购物服务","address":"上海柳州路300"},{"poiid":"B2094757D569A3F8439C","title":"汉生服饰","lon":"121.4496717","lat":"31.21327333","category":"249","category_name":"购物服务","address":"常熟路233号"},{"poiid":"B2094757D16BA6FD419E","title":"亦圆","lon":"121.452255186","lat":"31.2146392261","category":"217","category_name":"旅馆招待所","address":"上海安福路１６８号"},{"poiid":"B2094757D568A1F5439F","title":"宝姿美美店","lon":"121.4499822","lat":"31.21294694","category":"249","category_name":"购物服务","address":"淮海中路1312号美美百货2层"},{"poiid":"B2094757D568AAFA4692","title":"时装零售","lon":"121.4496167","lat":"31.21176","category":"249","category_name":"购物服务","address":"宝庆路8号"},{"poiid":"B2094654DA6DAAFB4092","title":"上海电动工具研究所","lon":"121.44967","lat":"31.21147","category":"191","category_name":"科研机构","address":"宝庆路10"},{"poiid":"B2094654DA6EA2FB4593","title":"葛乔治设计咨询(上海)有限公司","lon":"121.45005","lat":"31.2123","category":"263","category_name":"公司","address":"淮海中路1325号爱美高大厦9层01、07-08、22层01-03、07-08"},{"poiid":"B2094654DB6BA6FC419E","title":"上海市住安建设发展股份有限公司(淮海中路)","lon":"121.45236","lat":"31.21415","category":"263","category_name":"公司","address":"淮海中路1250"},{"poiid":"B2094654D564ABFD4793","title":"上海地铁盾构设备工程有限公司","lon":"121.45062","lat":"31.21347","category":"263","category_name":"公司","address":"淮海中路1298号永隆大厦4层"},{"poiid":"B2094654DB64A4FB449A","title":"英标管理体系认证(北京)有限公司上海分公司","lon":"121.45004","lat":"31.21231","category":"263","category_name":"公司","address":"淮海中路1325号爱美高大厦23"},{"poiid":"B2094654DA6EA2F4409E","title":"佳映快印","lon":"121.45175","lat":"31.2135","category":"248","category_name":"生活娱乐","address":"徐汇区淮海中路1273弄门口(近华亭路)"},{"poiid":"B2094655D36CA3FE409C","title":"东泽雀馆","lon":"121.44936","lat":"31.21187","category":"248","category_name":"生活娱乐","address":"徐汇区淮海中路1333号3－4楼(近宝庆路)"},{"poiid":"B2094655D268A7F84893","title":"爱美高大厦(西门)","lon":"121.44973","lat":"31.21219","category":"656","category_name":"大门","address":"宝庆路1号"},{"poiid":"B2094655D268A5FB489B","title":"爱美高大厦(北门)","lon":"121.44989","lat":"31.2126","category":"656","category_name":"大门","address":"淮海中路1325号"}]