[{"poiid":"B2094654DA6FAAFD4799","title":"外滩3号","lon":"121.49114","lat":"31.23409","category":"47","category_name":"住宅区","address":"中山东一路3"},{"poiid":"B2094757D06FA6F4479E","title":"Jean Georges","lon":"121.490883296","lat":"31.2341583825","category":"94","category_name":"西餐厅","address":"黄浦区中山东一路3号外滩3号4楼(近广东路)"},{"poiid":"B2094757D068A3FC499F","title":"外滩6号","lon":"121.49022765","lat":"31.235021152","category":"119","category_name":"商场","address":"上海外滩六号"},{"poiid":"B2094753D76FAAFA449C","title":"上海滩国泰旗舰店","lon":"121.466011","lat":"31.216125","category":"249","category_name":"购物服务","address":"淮海中路868号"},{"poiid":"B209475CD564A7F84292","title":"上海滩新天地店","lon":"121.47463","lat":"31.22164","category":"119","category_name":"商场","address":"\"太仓路181弄新天地北里15号\r\n\""},{"poiid":"B209475CD564A7F84392","title":"上海滩浦东香格里拉店","lon":"121.50058","lat":"31.23634","category":"119","category_name":"商场","address":"浦东富成路33号香格里拉酒店内大堂层"},{"poiid":"B2094654DA6FAAFC499F","title":"黄浦区中心医院","lon":"121.48899","lat":"31.23428","category":"162","category_name":"医院","address":"黄浦区四川中路109号(近广东路)"},{"poiid":"B2094757D06FA6FD4699","title":"The Glamour Bar","lon":"121.49109627","lat":"31.2341656143","category":"172","category_name":"酒吧","address":"黄浦区广东路20号外滩5号6楼(近中山东一路)"},{"poiid":"B2094654DA6FAAFD449E","title":"船长青年酒店","lon":"121.48965","lat":"31.23539","category":"250","category_name":"公园户外","address":"黄浦区福州路37号(近四川中路)"},{"poiid":"B2094654DA6FAAFD4593","title":"M on the Bund","lon":"121.49079","lat":"31.2345","category":"263","category_name":"公司","address":"中山东一路5号外滩5号7层"},{"poiid":"B209475CD769A0FC449C","title":"万岛日式料理（外滩店）","lon":"121.489715","lat":"31.23306","category":"247","category_name":"餐饮美食","address":"上海市 四川中路33号1楼"},{"poiid":"B2094757D06FA7FF449F","title":"东京和食","lon":"121.49104","lat":"31.23457","category":"95","category_name":"日本料理","address":"黄浦区中山东一路6号外滩6号2楼(近广东路)"},{"poiid":"B2094757D068A2F4459A","title":"船长酒吧","lon":"121.49016","lat":"31.23529","category":"260","category_name":"其他","address":"黄浦区福州路37号船长酒店6搂(近中山东一路)"},{"poiid":"B2094654DA6FAAFD4592","title":"外滩5号","lon":"121.49078","lat":"31.2345","category":"47","category_name":"住宅区","address":"中山东一路5号"},{"poiid":"B2094757D06FAAFC419B","title":"猫的天空之城概念书店","lon":"121.489654","lat":"31.235389","category":"260","category_name":"其他","address":"黄浦区福州路37号船长青年酒店1楼(近中山东一路)"},{"poiid":"B2094757D06FABFF479B","title":"新城饭店","lon":"121.4878","lat":"31.23495","category":"216","category_name":"经济型连锁酒店","address":"黄浦区江西中路180号(近福州路)"},{"poiid":"B2094757D068A6F54593","title":"lost heaven","lon":"121.49070111","lat":"31.232868432","category":"500","category_name":"未知分类","address":"上海延安东路17号"},{"poiid":"B2094757D06AA1F4489F","title":"上海姥姥 原吉禾餐饮","lon":"121.48908099613","lat":"31.235419801894","category":"76","category_name":"上海菜","address":"黄浦区福州路70号(近四川中路永和豆浆对面)"},{"poiid":"B2094757D065AAFC459B","title":"赤板亭(名人大厦)","lon":"121.489254138","lat":"31.2339395791","category":"500","category_name":"未知分类","address":"上海南京路步行街"},{"poiid":"B2094757D664A3FF4599","title":"外滩华尔道夫酒店 中式餐厅","lon":"121.48994","lat":"31.23399","category":"72","category_name":"广东菜","address":"广东路51号5楼近四川中路"},{"poiid":"B2094757D068A1F8449B","title":"House of Blues & Jazz","lon":"121.4892425","lat":"31.235561077","category":"172","category_name":"酒吧","address":"上海市黄浦区福州路60号(近四川中路)"},{"poiid":"B2094757D068A0F5439E","title":"上海国际商品拍卖有限公司","lon":"121.488583332","lat":"31.2353396094","category":"46","category_name":"楼宇","address":"黄浦区福州路108号(近四川中路)"},{"poiid":"B2094757D06FA3FD439C","title":"LAN蘭","lon":"121.48943561","lat":"31.233968149","category":"72","category_name":"广东菜","address":"黄浦区广东路102号(广东路四川中路)"},{"poiid":"B2094655D26FA2FA4099","title":"月影铁板烧景观餐厅酒廊","lon":"121.49079","lat":"31.2345","category":"97","category_name":"法式菜品餐厅","address":"黄浦区中山东一路外滩5号3楼"},{"poiid":"B2094751D56CA4FD419C","title":"Mercato","lon":"121.49088","lat":"31.23417","category":"94","category_name":"西餐厅","address":"黄浦区中山东一路3号外滩3号6楼(近广东路)"},{"poiid":"B2094757D66BA1FC489B","title":"华尔道夫酒店廊吧","lon":"121.491231","lat":"31.23389","category":"260","category_name":"其他","address":"黄浦区中山东一路2号华尔道夫酒店L层(近延安东路)"},{"poiid":"B2094757D06FA6F9459A","title":"米氏西餐厅","lon":"121.48839983","lat":"31.235365447","category":"94","category_name":"西餐厅","address":"黄浦区广东路20号外滩5号7楼(近中山东一路)"},{"poiid":"B2094750D66FA3F9489E","title":"UNICO & COLAGRECO","lon":"121.49067870373528","lat":"31.23452732944748","category":"101","category_name":"美式风味","address":"黄浦区中山东一路3号外滩3号2楼(近广东路)"},{"poiid":"B2094757D06FAAF84399","title":"申鑫大厦","lon":"121.488143","lat":"31.234771","category":"46","category_name":"楼宇","address":"上海市黄浦区宁海东路200号(北依南京路,南临淮海路)"},{"poiid":"B2094751D56BA3F9469E","title":"南麓浙里","lon":"121.488525","lat":"31.235992","category":"76","category_name":"上海菜","address":"黄浦区四川中路216号(近福州路)"},{"poiid":"B2094654DA6FABFE4598","title":"联谊大厦","lon":"121.48997","lat":"31.23307","category":"46","category_name":"楼宇","address":"希尔斯联邦位于沈河北站路117号(北站家乐福东北角)"},{"poiid":"B2094757D06FABFC469A","title":"上海浦东发展银行大楼(外滩12号)","lon":"121.489894","lat":"31.236","category":"150","category_name":"银行","address":"上海黄浦区中山东一路12号 汇丰银行大楼 (原市府大楼)"},{"poiid":"B2094757D069A4FF499F","title":"老船长青年旅舍(外滩店)","lon":"121.48979","lat":"31.23509","category":"216","category_name":"经济型连锁酒店","address":"上海黄浦区延安东路7号甲(近外滩)"},{"poiid":"B2094757D06FA3FB4199","title":"外滩隧道","lon":"121.491135705","lat":"31.2345035269","category":"260","category_name":"其他","address":"上海海宁路长治路——延安东路中山南路"},{"poiid":"B2094655D26EAAF8469B","title":"望江阁","lon":"121.491266","lat":"31.234322","category":"94","category_name":"西餐厅","address":"黄浦区中山东一路3号外滩3号7楼(近广东路)"},{"poiid":"B2094654DA6EA6FA4898","title":"汇通大厦","lon":"121.488","lat":"31.2328","category":"46","category_name":"楼宇","address":"金陵东路369号"},{"poiid":"B2094757D069A5FA429F","title":"国拍大楼","lon":"121.488578","lat":"31.234969","category":"46","category_name":"楼宇","address":"上海福州路108号"},{"poiid":"B2094757D06FABF5479F","title":"Dai's  Kitchen","lon":"121.48997","lat":"31.23235","category":"94","category_name":"西餐厅","address":"黄浦区延安东路110号四川大楼1楼门口弄堂(四川路口)"},{"poiid":"B2094757D069ABFA459A","title":"上海电信博物馆","lon":"121.490941","lat":"31.233238","category":"182","category_name":"博物馆","address":"黄浦区延安东路34号(近中山东一路)"},{"poiid":"B2094750DA6BA1FD469D","title":"forever21","lon":"121.489219","lat":"31.235349","category":"500","category_name":"未知分类","address":"南京東路"},{"poiid":"B2094757D16DA6FF4599","title":"月影","lon":"121.490579738","lat":"31.234685395","category":"249","category_name":"购物服务","address":"上海外滩5号3楼"},{"poiid":"B209475CDA68A0FC4492","title":"万岛日本料理铁板烧","lon":"121.489685","lat":"31.233085","category":"500","category_name":"未知分类","address":"上海市 四川中路33号"},{"poiid":"B2094757D069A0FE469D","title":"黄浦区中心医院中医门诊部","lon":"121.48898882","lat":"31.2342839927","category":"162","category_name":"医院","address":"上海黄浦区宁波路109号(近河南中路)"},{"poiid":"B2094655D26DAAFC4798","title":"宜兰贵斯酒店","lon":"121.48826","lat":"31.23394","category":"250","category_name":"公园户外","address":"黄浦区广东路138号(近河南中路)"},{"poiid":"B2094655D268A6F8439C","title":"宾龙商务酒店","lon":"121.48831","lat":"31.23514","category":"250","category_name":"公园户外","address":"黄浦区福州路105-1号(近四川中路)"},{"poiid":"B2094757DA65A5FB419F","title":"海上小喔（上海外滩店）","lon":"121.4882863","lat":"31.23535294","category":"216","category_name":"经济型连锁酒店","address":"黄浦区福州路120号4-5楼(近江西中路)"},{"poiid":"B2094757D068ABFB409C","title":"五芳斋 四川中路店","lon":"121.48965177918","lat":"31.233533830051","category":"68","category_name":"快餐厅","address":"黄浦区四川中路136号(近广东路)"},{"poiid":"B2094750D26CA1FA449B","title":"蔚景阁","lon":"121.491231","lat":"31.23389","category":"76","category_name":"上海菜","address":"黄浦区中山东一路2号华尔道夫酒店5楼(近延安东路)"},{"poiid":"B209475CD168A0FC4299","title":"万岛日本料理","lon":"121.489006","lat":"31.233108","category":"500","category_name":"未知分类","address":"上海市 上海市四川中路33号一楼"},{"poiid":"B2094757DB68A5F44998","title":"新视角餐厅","lon":"121.49088356107","lat":"31.234764723142","category":"247","category_name":"餐饮美食","address":"中山东一路3号外滩3号7楼近广东路"},{"poiid":"B2094654DA6FAAFD4799","title":"外滩3号","lon":"121.49114","lat":"31.23409","category":"47","category_name":"住宅区","address":"中山东一路3"},{"poiid":"B2094757D06FA6F4479E","title":"Jean Georges","lon":"121.490883296","lat":"31.2341583825","category":"94","category_name":"西餐厅","address":"黄浦区中山东一路3号外滩3号4楼(近广东路)"},{"poiid":"B2094757D068A3FC499F","title":"外滩6号","lon":"121.49022765","lat":"31.235021152","category":"119","category_name":"商场","address":"上海外滩六号"},{"poiid":"B2094753D76FAAFA449C","title":"上海滩国泰旗舰店","lon":"121.466011","lat":"31.216125","category":"249","category_name":"购物服务","address":"淮海中路868号"},{"poiid":"B209475CD564A7F84292","title":"上海滩新天地店","lon":"121.47463","lat":"31.22164","category":"119","category_name":"商场","address":"\"太仓路181弄新天地北里15号\r\n\""},{"poiid":"B209475CD564A7F84392","title":"上海滩浦东香格里拉店","lon":"121.50058","lat":"31.23634","category":"119","category_name":"商场","address":"浦东富成路33号香格里拉酒店内大堂层"},{"poiid":"B2094654DA6FAAFC499F","title":"黄浦区中心医院","lon":"121.48899","lat":"31.23428","category":"162","category_name":"医院","address":"黄浦区四川中路109号(近广东路)"},{"poiid":"B2094757D06FA6FD4699","title":"The Glamour Bar","lon":"121.49109627","lat":"31.2341656143","category":"172","category_name":"酒吧","address":"黄浦区广东路20号外滩5号6楼(近中山东一路)"},{"poiid":"B2094654DA6FAAFD449E","title":"船长青年酒店","lon":"121.48965","lat":"31.23539","category":"250","category_name":"公园户外","address":"黄浦区福州路37号(近四川中路)"},{"poiid":"B2094654DA6FAAFD4593","title":"M on the Bund","lon":"121.49079","lat":"31.2345","category":"263","category_name":"公司","address":"中山东一路5号外滩5号7层"},{"poiid":"B209475CD769A0FC449C","title":"万岛日式料理（外滩店）","lon":"121.489715","lat":"31.23306","category":"247","category_name":"餐饮美食","address":"上海市 四川中路33号1楼"},{"poiid":"B2094757D06FA7FF449F","title":"东京和食","lon":"121.49104","lat":"31.23457","category":"95","category_name":"日本料理","address":"黄浦区中山东一路6号外滩6号2楼(近广东路)"},{"poiid":"B2094757D068A2F4459A","title":"船长酒吧","lon":"121.49016","lat":"31.23529","category":"260","category_name":"其他","address":"黄浦区福州路37号船长酒店6搂(近中山东一路)"},{"poiid":"B2094654DA6FAAFD4592","title":"外滩5号","lon":"121.49078","lat":"31.2345","category":"47","category_name":"住宅区","address":"中山东一路5号"},{"poiid":"B2094757D06FAAFC419B","title":"猫的天空之城概念书店","lon":"121.489654","lat":"31.235389","category":"260","category_name":"其他","address":"黄浦区福州路37号船长青年酒店1楼(近中山东一路)"},{"poiid":"B2094757D06FABFF479B","title":"新城饭店","lon":"121.4878","lat":"31.23495","category":"216","category_name":"经济型连锁酒店","address":"黄浦区江西中路180号(近福州路)"},{"poiid":"B2094757D068A6F54593","title":"lost heaven","lon":"121.49070111","lat":"31.232868432","category":"500","category_name":"未知分类","address":"上海延安东路17号"},{"poiid":"B2094757D06AA1F4489F","title":"上海姥姥 原吉禾餐饮","lon":"121.48908099613","lat":"31.235419801894","category":"76","category_name":"上海菜","address":"黄浦区福州路70号(近四川中路永和豆浆对面)"},{"poiid":"B2094757D065AAFC459B","title":"赤板亭(名人大厦)","lon":"121.489254138","lat":"31.2339395791","category":"500","category_name":"未知分类","address":"上海南京路步行街"},{"poiid":"B2094757D664A3FF4599","title":"外滩华尔道夫酒店 中式餐厅","lon":"121.48994","lat":"31.23399","category":"72","category_name":"广东菜","address":"广东路51号5楼近四川中路"},{"poiid":"B2094757D068A1F8449B","title":"House of Blues & Jazz","lon":"121.4892425","lat":"31.235561077","category":"172","category_name":"酒吧","address":"上海市黄浦区福州路60号(近四川中路)"},{"poiid":"B2094757D068A0F5439E","title":"上海国际商品拍卖有限公司","lon":"121.488583332","lat":"31.2353396094","category":"46","category_name":"楼宇","address":"黄浦区福州路108号(近四川中路)"},{"poiid":"B2094757D06FA3FD439C","title":"LAN蘭","lon":"121.48943561","lat":"31.233968149","category":"72","category_name":"广东菜","address":"黄浦区广东路102号(广东路四川中路)"},{"poiid":"B2094655D26FA2FA4099","title":"月影铁板烧景观餐厅酒廊","lon":"121.49079","lat":"31.2345","category":"97","category_name":"法式菜品餐厅","address":"黄浦区中山东一路外滩5号3楼"},{"poiid":"B2094751D56CA4FD419C","title":"Mercato","lon":"121.49088","lat":"31.23417","category":"94","category_name":"西餐厅","address":"黄浦区中山东一路3号外滩3号6楼(近广东路)"},{"poiid":"B2094757D66BA1FC489B","title":"华尔道夫酒店廊吧","lon":"121.491231","lat":"31.23389","category":"260","category_name":"其他","address":"黄浦区中山东一路2号华尔道夫酒店L层(近延安东路)"},{"poiid":"B2094757D06FA6F9459A","title":"米氏西餐厅","lon":"121.48839983","lat":"31.235365447","category":"94","category_name":"西餐厅","address":"黄浦区广东路20号外滩5号7楼(近中山东一路)"},{"poiid":"B2094750D66FA3F9489E","title":"UNICO & COLAGRECO","lon":"121.49067870373528","lat":"31.23452732944748","category":"101","category_name":"美式风味","address":"黄浦区中山东一路3号外滩3号2楼(近广东路)"},{"poiid":"B2094757D06FAAF84399","title":"申鑫大厦","lon":"121.488143","lat":"31.234771","category":"46","category_name":"楼宇","address":"上海市黄浦区宁海东路200号(北依南京路,南临淮海路)"},{"poiid":"B2094751D56BA3F9469E","title":"南麓浙里","lon":"121.488525","lat":"31.235992","category":"76","category_name":"上海菜","address":"黄浦区四川中路216号(近福州路)"},{"poiid":"B2094654DA6FABFE4598","title":"联谊大厦","lon":"121.48997","lat":"31.23307","category":"46","category_name":"楼宇","address":"希尔斯联邦位于沈河北站路117号(北站家乐福东北角)"},{"poiid":"B2094757D06FABFC469A","title":"上海浦东发展银行大楼(外滩12号)","lon":"121.489894","lat":"31.236","category":"150","category_name":"银行","address":"上海黄浦区中山东一路12号 汇丰银行大楼 (原市府大楼)"},{"poiid":"B2094757D069A4FF499F","title":"老船长青年旅舍(外滩店)","lon":"121.48979","lat":"31.23509","category":"216","category_name":"经济型连锁酒店","address":"上海黄浦区延安东路7号甲(近外滩)"},{"poiid":"B2094757D06FA3FB4199","title":"外滩隧道","lon":"121.491135705","lat":"31.2345035269","category":"260","category_name":"其他","address":"上海海宁路长治路——延安东路中山南路"},{"poiid":"B2094655D26EAAF8469B","title":"望江阁","lon":"121.491266","lat":"31.234322","category":"94","category_name":"西餐厅","address":"黄浦区中山东一路3号外滩3号7楼(近广东路)"},{"poiid":"B2094654DA6EA6FA4898","title":"汇通大厦","lon":"121.488","lat":"31.2328","category":"46","category_name":"楼宇","address":"金陵东路369号"},{"poiid":"B2094757D069A5FA429F","title":"国拍大楼","lon":"121.488578","lat":"31.234969","category":"46","category_name":"楼宇","address":"上海福州路108号"},{"poiid":"B2094757D06FABF5479F","title":"Dai's  Kitchen","lon":"121.48997","lat":"31.23235","category":"94","category_name":"西餐厅","address":"黄浦区延安东路110号四川大楼1楼门口弄堂(四川路口)"},{"poiid":"B2094757D069ABFA459A","title":"上海电信博物馆","lon":"121.490941","lat":"31.233238","category":"182","category_name":"博物馆","address":"黄浦区延安东路34号(近中山东一路)"},{"poiid":"B2094750DA6BA1FD469D","title":"forever21","lon":"121.489219","lat":"31.235349","category":"500","category_name":"未知分类","address":"南京東路"},{"poiid":"B2094757D16DA6FF4599","title":"月影","lon":"121.490579738","lat":"31.234685395","category":"249","category_name":"购物服务","address":"上海外滩5号3楼"},{"poiid":"B209475CDA68A0FC4492","title":"万岛日本料理铁板烧","lon":"121.489685","lat":"31.233085","category":"500","category_name":"未知分类","address":"上海市 四川中路33号"},{"poiid":"B2094757D069A0FE469D","title":"黄浦区中心医院中医门诊部","lon":"121.48898882","lat":"31.2342839927","category":"162","category_name":"医院","address":"上海黄浦区宁波路109号(近河南中路)"},{"poiid":"B2094655D26DAAFC4798","title":"宜兰贵斯酒店","lon":"121.48826","lat":"31.23394","category":"250","category_name":"公园户外","address":"黄浦区广东路138号(近河南中路)"},{"poiid":"B2094655D268A6F8439C","title":"宾龙商务酒店","lon":"121.48831","lat":"31.23514","category":"250","category_name":"公园户外","address":"黄浦区福州路105-1号(近四川中路)"},{"poiid":"B2094757DA65A5FB419F","title":"海上小喔（上海外滩店）","lon":"121.4882863","lat":"31.23535294","category":"216","category_name":"经济型连锁酒店","address":"黄浦区福州路120号4-5楼(近江西中路)"},{"poiid":"B2094757D068ABFB409C","title":"五芳斋 四川中路店","lon":"121.48965177918","lat":"31.233533830051","category":"68","category_name":"快餐厅","address":"黄浦区四川中路136号(近广东路)"},{"poiid":"B2094750D26CA1FA449B","title":"蔚景阁","lon":"121.491231","lat":"31.23389","category":"76","category_name":"上海菜","address":"黄浦区中山东一路2号华尔道夫酒店5楼(近延安东路)"},{"poiid":"B209475CD168A0FC4299","title":"万岛日本料理","lon":"121.489006","lat":"31.233108","category":"500","category_name":"未知分类","address":"上海市 上海市四川中路33号一楼"},{"poiid":"B2094757DB68A5F44998","title":"新视角餐厅","lon":"121.49088356107","lat":"31.234764723142","category":"247","category_name":"餐饮美食","address":"中山东一路3号外滩3号7楼近广东路"},{"poiid":"B2094654DA6FAAFD4799","title":"外滩3号","lon":"121.49114","lat":"31.23409","category":"47","category_name":"住宅区","address":"中山东一路3"},{"poiid":"B2094757D06FA6F4479E","title":"Jean Georges","lon":"121.490883296","lat":"31.2341583825","category":"94","category_name":"西餐厅","address":"黄浦区中山东一路3号外滩3号4楼(近广东路)"},{"poiid":"B2094757D068A3FC499F","title":"外滩6号","lon":"121.49022765","lat":"31.235021152","category":"119","category_name":"商场","address":"上海外滩六号"},{"poiid":"B2094753D76FAAFA449C","title":"上海滩国泰旗舰店","lon":"121.466011","lat":"31.216125","category":"249","category_name":"购物服务","address":"淮海中路868号"},{"poiid":"B209475CD564A7F84292","title":"上海滩新天地店","lon":"121.47463","lat":"31.22164","category":"119","category_name":"商场","address":"\"太仓路181弄新天地北里15号\r\n\""},{"poiid":"B209475CD564A7F84392","title":"上海滩浦东香格里拉店","lon":"121.50058","lat":"31.23634","category":"119","category_name":"商场","address":"浦东富成路33号香格里拉酒店内大堂层"},{"poiid":"B2094654DA6FAAFC499F","title":"黄浦区中心医院","lon":"121.48899","lat":"31.23428","category":"162","category_name":"医院","address":"黄浦区四川中路109号(近广东路)"},{"poiid":"B2094757D06FA6FD4699","title":"The Glamour Bar","lon":"121.49109627","lat":"31.2341656143","category":"172","category_name":"酒吧","address":"黄浦区广东路20号外滩5号6楼(近中山东一路)"},{"poiid":"B2094654DA6FAAFD449E","title":"船长青年酒店","lon":"121.48965","lat":"31.23539","category":"250","category_name":"公园户外","address":"黄浦区福州路37号(近四川中路)"},{"poiid":"B2094654DA6FAAFD4593","title":"M on the Bund","lon":"121.49079","lat":"31.2345","category":"263","category_name":"公司","address":"中山东一路5号外滩5号7层"},{"poiid":"B209475CD769A0FC449C","title":"万岛日式料理（外滩店）","lon":"121.489715","lat":"31.23306","category":"247","category_name":"餐饮美食","address":"上海市 四川中路33号1楼"},{"poiid":"B2094757D06FA7FF449F","title":"东京和食","lon":"121.49104","lat":"31.23457","category":"95","category_name":"日本料理","address":"黄浦区中山东一路6号外滩6号2楼(近广东路)"},{"poiid":"B2094757D068A2F4459A","title":"船长酒吧","lon":"121.49016","lat":"31.23529","category":"260","category_name":"其他","address":"黄浦区福州路37号船长酒店6搂(近中山东一路)"},{"poiid":"B2094654DA6FAAFD4592","title":"外滩5号","lon":"121.49078","lat":"31.2345","category":"47","category_name":"住宅区","address":"中山东一路5号"},{"poiid":"B2094757D06FAAFC419B","title":"猫的天空之城概念书店","lon":"121.489654","lat":"31.235389","category":"260","category_name":"其他","address":"黄浦区福州路37号船长青年酒店1楼(近中山东一路)"},{"poiid":"B2094757D06FABFF479B","title":"新城饭店","lon":"121.4878","lat":"31.23495","category":"216","category_name":"经济型连锁酒店","address":"黄浦区江西中路180号(近福州路)"},{"poiid":"B2094757D068A6F54593","title":"lost heaven","lon":"121.49070111","lat":"31.232868432","category":"500","category_name":"未知分类","address":"上海延安东路17号"},{"poiid":"B2094757D06AA1F4489F","title":"上海姥姥 原吉禾餐饮","lon":"121.48908099613","lat":"31.235419801894","category":"76","category_name":"上海菜","address":"黄浦区福州路70号(近四川中路永和豆浆对面)"},{"poiid":"B2094757D065AAFC459B","title":"赤板亭(名人大厦)","lon":"121.489254138","lat":"31.2339395791","category":"500","category_name":"未知分类","address":"上海南京路步行街"},{"poiid":"B2094757D664A3FF4599","title":"外滩华尔道夫酒店 中式餐厅","lon":"121.48994","lat":"31.23399","category":"72","category_name":"广东菜","address":"广东路51号5楼近四川中路"},{"poiid":"B2094757D068A1F8449B","title":"House of Blues & Jazz","lon":"121.4892425","lat":"31.235561077","category":"172","category_name":"酒吧","address":"上海市黄浦区福州路60号(近四川中路)"},{"poiid":"B2094757D068A0F5439E","title":"上海国际商品拍卖有限公司","lon":"121.488583332","lat":"31.2353396094","category":"46","category_name":"楼宇","address":"黄浦区福州路108号(近四川中路)"},{"poiid":"B2094757D06FA3FD439C","title":"LAN蘭","lon":"121.48943561","lat":"31.233968149","category":"72","category_name":"广东菜","address":"黄浦区广东路102号(广东路四川中路)"},{"poiid":"B2094655D26FA2FA4099","title":"月影铁板烧景观餐厅酒廊","lon":"121.49079","lat":"31.2345","category":"97","category_name":"法式菜品餐厅","address":"黄浦区中山东一路外滩5号3楼"},{"poiid":"B2094751D56CA4FD419C","title":"Mercato","lon":"121.49088","lat":"31.23417","category":"94","category_name":"西餐厅","address":"黄浦区中山东一路3号外滩3号6楼(近广东路)"},{"poiid":"B2094757D66BA1FC489B","title":"华尔道夫酒店廊吧","lon":"121.491231","lat":"31.23389","category":"260","category_name":"其他","address":"黄浦区中山东一路2号华尔道夫酒店L层(近延安东路)"},{"poiid":"B2094757D06FA6F9459A","title":"米氏西餐厅","lon":"121.48839983","lat":"31.235365447","category":"94","category_name":"西餐厅","address":"黄浦区广东路20号外滩5号7楼(近中山东一路)"},{"poiid":"B2094750D66FA3F9489E","title":"UNICO & COLAGRECO","lon":"121.49067870373528","lat":"31.23452732944748","category":"101","category_name":"美式风味","address":"黄浦区中山东一路3号外滩3号2楼(近广东路)"},{"poiid":"B2094757D06FAAF84399","title":"申鑫大厦","lon":"121.488143","lat":"31.234771","category":"46","category_name":"楼宇","address":"上海市黄浦区宁海东路200号(北依南京路,南临淮海路)"},{"poiid":"B2094751D56BA3F9469E","title":"南麓浙里","lon":"121.488525","lat":"31.235992","category":"76","category_name":"上海菜","address":"黄浦区四川中路216号(近福州路)"},{"poiid":"B2094654DA6FABFE4598","title":"联谊大厦","lon":"121.48997","lat":"31.23307","category":"46","category_name":"楼宇","address":"希尔斯联邦位于沈河北站路117号(北站家乐福东北角)"},{"poiid":"B2094757D06FABFC469A","title":"上海浦东发展银行大楼(外滩12号)","lon":"121.489894","lat":"31.236","category":"150","category_name":"银行","address":"上海黄浦区中山东一路12号 汇丰银行大楼 (原市府大楼)"},{"poiid":"B2094757D069A4FF499F","title":"老船长青年旅舍(外滩店)","lon":"121.48979","lat":"31.23509","category":"216","category_name":"经济型连锁酒店","address":"上海黄浦区延安东路7号甲(近外滩)"},{"poiid":"B2094757D06FA3FB4199","title":"外滩隧道","lon":"121.491135705","lat":"31.2345035269","category":"260","category_name":"其他","address":"上海海宁路长治路——延安东路中山南路"},{"poiid":"B2094655D26EAAF8469B","title":"望江阁","lon":"121.491266","lat":"31.234322","category":"94","category_name":"西餐厅","address":"黄浦区中山东一路3号外滩3号7楼(近广东路)"},{"poiid":"B2094654DA6EA6FA4898","title":"汇通大厦","lon":"121.488","lat":"31.2328","category":"46","category_name":"楼宇","address":"金陵东路369号"},{"poiid":"B2094757D069A5FA429F","title":"国拍大楼","lon":"121.488578","lat":"31.234969","category":"46","category_name":"楼宇","address":"上海福州路108号"},{"poiid":"B2094757D06FABF5479F","title":"Dai's  Kitchen","lon":"121.48997","lat":"31.23235","category":"94","category_name":"西餐厅","address":"黄浦区延安东路110号四川大楼1楼门口弄堂(四川路口)"},{"poiid":"B2094757D069ABFA459A","title":"上海电信博物馆","lon":"121.490941","lat":"31.233238","category":"182","category_name":"博物馆","address":"黄浦区延安东路34号(近中山东一路)"},{"poiid":"B2094750DA6BA1FD469D","title":"forever21","lon":"121.489219","lat":"31.235349","category":"500","category_name":"未知分类","address":"南京東路"},{"poiid":"B2094757D16DA6FF4599","title":"月影","lon":"121.490579738","lat":"31.234685395","category":"249","category_name":"购物服务","address":"上海外滩5号3楼"},{"poiid":"B209475CDA68A0FC4492","title":"万岛日本料理铁板烧","lon":"121.489685","lat":"31.233085","category":"500","category_name":"未知分类","address":"上海市 四川中路33号"},{"poiid":"B2094757D069A0FE469D","title":"黄浦区中心医院中医门诊部","lon":"121.48898882","lat":"31.2342839927","category":"162","category_name":"医院","address":"上海黄浦区宁波路109号(近河南中路)"},{"poiid":"B2094655D26DAAFC4798","title":"宜兰贵斯酒店","lon":"121.48826","lat":"31.23394","category":"250","category_name":"公园户外","address":"黄浦区广东路138号(近河南中路)"},{"poiid":"B2094655D268A6F8439C","title":"宾龙商务酒店","lon":"121.48831","lat":"31.23514","category":"250","category_name":"公园户外","address":"黄浦区福州路105-1号(近四川中路)"},{"poiid":"B2094757DA65A5FB419F","title":"海上小喔（上海外滩店）","lon":"121.4882863","lat":"31.23535294","category":"216","category_name":"经济型连锁酒店","address":"黄浦区福州路120号4-5楼(近江西中路)"},{"poiid":"B2094757D068ABFB409C","title":"五芳斋 四川中路店","lon":"121.48965177918","lat":"31.233533830051","category":"68","category_name":"快餐厅","address":"黄浦区四川中路136号(近广东路)"},{"poiid":"B2094750D26CA1FA449B","title":"蔚景阁","lon":"121.491231","lat":"31.23389","category":"76","category_name":"上海菜","address":"黄浦区中山东一路2号华尔道夫酒店5楼(近延安东路)"},{"poiid":"B209475CD168A0FC4299","title":"万岛日本料理","lon":"121.489006","lat":"31.233108","category":"500","category_name":"未知分类","address":"上海市 上海市四川中路33号一楼"},{"poiid":"B2094757DB68A5F44998","title":"新视角餐厅","lon":"121.49088356107","lat":"31.234764723142","category":"247","category_name":"餐饮美食","address":"中山东一路3号外滩3号7楼近广东路"},{"poiid":"B2094654DA6FAAFD4799","title":"外滩3号","lon":"121.49114","lat":"31.23409","category":"47","category_name":"住宅区","address":"中山东一路3"},{"poiid":"B2094757D06FA6F4479E","title":"Jean Georges","lon":"121.490883296","lat":"31.2341583825","category":"94","category_name":"西餐厅","address":"黄浦区中山东一路3号外滩3号4楼(近广东路)"},{"poiid":"B2094757D068A3FC499F","title":"外滩6号","lon":"121.49022765","lat":"31.235021152","category":"119","category_name":"商场","address":"上海外滩六号"},{"poiid":"B2094753D76FAAFA449C","title":"上海滩国泰旗舰店","lon":"121.466011","lat":"31.216125","category":"249","category_name":"购物服务","address":"淮海中路868号"},{"poiid":"B209475CD564A7F84292","title":"上海滩新天地店","lon":"121.47463","lat":"31.22164","category":"119","category_name":"商场","address":"\"太仓路181弄新天地北里15号\r\n\""},{"poiid":"B209475CD564A7F84392","title":"上海滩浦东香格里拉店","lon":"121.50058","lat":"31.23634","category":"119","category_name":"商场","address":"浦东富成路33号香格里拉酒店内大堂层"},{"poiid":"B2094654DA6FAAFC499F","title":"黄浦区中心医院","lon":"121.48899","lat":"31.23428","category":"162","category_name":"医院","address":"黄浦区四川中路109号(近广东路)"},{"poiid":"B2094757D06FA6FD4699","title":"The Glamour Bar","lon":"121.49109627","lat":"31.2341656143","category":"172","category_name":"酒吧","address":"黄浦区广东路20号外滩5号6楼(近中山东一路)"},{"poiid":"B2094654DA6FAAFD449E","title":"船长青年酒店","lon":"121.48965","lat":"31.23539","category":"250","category_name":"公园户外","address":"黄浦区福州路37号(近四川中路)"},{"poiid":"B2094654DA6FAAFD4593","title":"M on the Bund","lon":"121.49079","lat":"31.2345","category":"263","category_name":"公司","address":"中山东一路5号外滩5号7层"},{"poiid":"B209475CD769A0FC449C","title":"万岛日式料理（外滩店）","lon":"121.489715","lat":"31.23306","category":"247","category_name":"餐饮美食","address":"上海市 四川中路33号1楼"},{"poiid":"B2094757D06FA7FF449F","title":"东京和食","lon":"121.49104","lat":"31.23457","category":"95","category_name":"日本料理","address":"黄浦区中山东一路6号外滩6号2楼(近广东路)"},{"poiid":"B2094757D068A2F4459A","title":"船长酒吧","lon":"121.49016","lat":"31.23529","category":"260","category_name":"其他","address":"黄浦区福州路37号船长酒店6搂(近中山东一路)"},{"poiid":"B2094654DA6FAAFD4592","title":"外滩5号","lon":"121.49078","lat":"31.2345","category":"47","category_name":"住宅区","address":"中山东一路5号"},{"poiid":"B2094757D06FAAFC419B","title":"猫的天空之城概念书店","lon":"121.489654","lat":"31.235389","category":"260","category_name":"其他","address":"黄浦区福州路37号船长青年酒店1楼(近中山东一路)"},{"poiid":"B2094757D06FABFF479B","title":"新城饭店","lon":"121.4878","lat":"31.23495","category":"216","category_name":"经济型连锁酒店","address":"黄浦区江西中路180号(近福州路)"},{"poiid":"B2094757D068A6F54593","title":"lost heaven","lon":"121.49070111","lat":"31.232868432","category":"500","category_name":"未知分类","address":"上海延安东路17号"},{"poiid":"B2094757D06AA1F4489F","title":"上海姥姥 原吉禾餐饮","lon":"121.48908099613","lat":"31.235419801894","category":"76","category_name":"上海菜","address":"黄浦区福州路70号(近四川中路永和豆浆对面)"},{"poiid":"B2094757D065AAFC459B","title":"赤板亭(名人大厦)","lon":"121.489254138","lat":"31.2339395791","category":"500","category_name":"未知分类","address":"上海南京路步行街"},{"poiid":"B2094757D664A3FF4599","title":"外滩华尔道夫酒店 中式餐厅","lon":"121.48994","lat":"31.23399","category":"72","category_name":"广东菜","address":"广东路51号5楼近四川中路"},{"poiid":"B2094757D068A1F8449B","title":"House of Blues & Jazz","lon":"121.4892425","lat":"31.235561077","category":"172","category_name":"酒吧","address":"上海市黄浦区福州路60号(近四川中路)"},{"poiid":"B2094757D068A0F5439E","title":"上海国际商品拍卖有限公司","lon":"121.488583332","lat":"31.2353396094","category":"46","category_name":"楼宇","address":"黄浦区福州路108号(近四川中路)"},{"poiid":"B2094757D06FA3FD439C","title":"LAN蘭","lon":"121.48943561","lat":"31.233968149","category":"72","category_name":"广东菜","address":"黄浦区广东路102号(广东路四川中路)"},{"poiid":"B2094655D26FA2FA4099","title":"月影铁板烧景观餐厅酒廊","lon":"121.49079","lat":"31.2345","category":"97","category_name":"法式菜品餐厅","address":"黄浦区中山东一路外滩5号3楼"},{"poiid":"B2094751D56CA4FD419C","title":"Mercato","lon":"121.49088","lat":"31.23417","category":"94","category_name":"西餐厅","address":"黄浦区中山东一路3号外滩3号6楼(近广东路)"},{"poiid":"B2094757D66BA1FC489B","title":"华尔道夫酒店廊吧","lon":"121.491231","lat":"31.23389","category":"260","category_name":"其他","address":"黄浦区中山东一路2号华尔道夫酒店L层(近延安东路)"},{"poiid":"B2094757D06FA6F9459A","title":"米氏西餐厅","lon":"121.48839983","lat":"31.235365447","category":"94","category_name":"西餐厅","address":"黄浦区广东路20号外滩5号7楼(近中山东一路)"},{"poiid":"B2094750D66FA3F9489E","title":"UNICO & COLAGRECO","lon":"121.49067870373528","lat":"31.23452732944748","category":"101","category_name":"美式风味","address":"黄浦区中山东一路3号外滩3号2楼(近广东路)"},{"poiid":"B2094757D06FAAF84399","title":"申鑫大厦","lon":"121.488143","lat":"31.234771","category":"46","category_name":"楼宇","address":"上海市黄浦区宁海东路200号(北依南京路,南临淮海路)"},{"poiid":"B2094751D56BA3F9469E","title":"南麓浙里","lon":"121.488525","lat":"31.235992","category":"76","category_name":"上海菜","address":"黄浦区四川中路216号(近福州路)"},{"poiid":"B2094654DA6FABFE4598","title":"联谊大厦","lon":"121.48997","lat":"31.23307","category":"46","category_name":"楼宇","address":"希尔斯联邦位于沈河北站路117号(北站家乐福东北角)"},{"poiid":"B2094757D06FABFC469A","title":"上海浦东发展银行大楼(外滩12号)","lon":"121.489894","lat":"31.236","category":"150","category_name":"银行","address":"上海黄浦区中山东一路12号 汇丰银行大楼 (原市府大楼)"},{"poiid":"B2094757D069A4FF499F","title":"老船长青年旅舍(外滩店)","lon":"121.48979","lat":"31.23509","category":"216","category_name":"经济型连锁酒店","address":"上海黄浦区延安东路7号甲(近外滩)"},{"poiid":"B2094757D06FA3FB4199","title":"外滩隧道","lon":"121.491135705","lat":"31.2345035269","category":"260","category_name":"其他","address":"上海海宁路长治路——延安东路中山南路"},{"poiid":"B2094655D26EAAF8469B","title":"望江阁","lon":"121.491266","lat":"31.234322","category":"94","category_name":"西餐厅","address":"黄浦区中山东一路3号外滩3号7楼(近广东路)"},{"poiid":"B2094654DA6EA6FA4898","title":"汇通大厦","lon":"121.488","lat":"31.2328","category":"46","category_name":"楼宇","address":"金陵东路369号"},{"poiid":"B2094757D069A5FA429F","title":"国拍大楼","lon":"121.488578","lat":"31.234969","category":"46","category_name":"楼宇","address":"上海福州路108号"},{"poiid":"B2094757D06FABF5479F","title":"Dai's  Kitchen","lon":"121.48997","lat":"31.23235","category":"94","category_name":"西餐厅","address":"黄浦区延安东路110号四川大楼1楼门口弄堂(四川路口)"},{"poiid":"B2094757D069ABFA459A","title":"上海电信博物馆","lon":"121.490941","lat":"31.233238","category":"182","category_name":"博物馆","address":"黄浦区延安东路34号(近中山东一路)"},{"poiid":"B2094750DA6BA1FD469D","title":"forever21","lon":"121.489219","lat":"31.235349","category":"500","category_name":"未知分类","address":"南京東路"},{"poiid":"B2094757D16DA6FF4599","title":"月影","lon":"121.490579738","lat":"31.234685395","category":"249","category_name":"购物服务","address":"上海外滩5号3楼"},{"poiid":"B209475CDA68A0FC4492","title":"万岛日本料理铁板烧","lon":"121.489685","lat":"31.233085","category":"500","category_name":"未知分类","address":"上海市 四川中路33号"},{"poiid":"B2094757D069A0FE469D","title":"黄浦区中心医院中医门诊部","lon":"121.48898882","lat":"31.2342839927","category":"162","category_name":"医院","address":"上海黄浦区宁波路109号(近河南中路)"},{"poiid":"B2094655D26DAAFC4798","title":"宜兰贵斯酒店","lon":"121.48826","lat":"31.23394","category":"250","category_name":"公园户外","address":"黄浦区广东路138号(近河南中路)"},{"poiid":"B2094655D268A6F8439C","title":"宾龙商务酒店","lon":"121.48831","lat":"31.23514","category":"250","category_name":"公园户外","address":"黄浦区福州路105-1号(近四川中路)"},{"poiid":"B2094757DA65A5FB419F","title":"海上小喔（上海外滩店）","lon":"121.4882863","lat":"31.23535294","category":"216","category_name":"经济型连锁酒店","address":"黄浦区福州路120号4-5楼(近江西中路)"},{"poiid":"B2094757D068ABFB409C","title":"五芳斋 四川中路店","lon":"121.48965177918","lat":"31.233533830051","category":"68","category_name":"快餐厅","address":"黄浦区四川中路136号(近广东路)"},{"poiid":"B2094750D26CA1FA449B","title":"蔚景阁","lon":"121.491231","lat":"31.23389","category":"76","category_name":"上海菜","address":"黄浦区中山东一路2号华尔道夫酒店5楼(近延安东路)"},{"poiid":"B209475CD168A0FC4299","title":"万岛日本料理","lon":"121.489006","lat":"31.233108","category":"500","category_name":"未知分类","address":"上海市 上海市四川中路33号一楼"},{"poiid":"B2094757DB68A5F44998","title":"新视角餐厅","lon":"121.49088356107","lat":"31.234764723142","category":"247","category_name":"餐饮美食","address":"中山东一路3号外滩3号7楼近广东路"},{"poiid":"B2094654DA6FAAFD4799","title":"外滩3号","lon":"121.49114","lat":"31.23409","category":"47","category_name":"住宅区","address":"中山东一路3"},{"poiid":"B2094757D06FA6F4479E","title":"Jean Georges","lon":"121.490883296","lat":"31.2341583825","category":"94","category_name":"西餐厅","address":"黄浦区中山东一路3号外滩3号4楼(近广东路)"},{"poiid":"B2094757D068A3FC499F","title":"外滩6号","lon":"121.49022765","lat":"31.235021152","category":"119","category_name":"商场","address":"上海外滩六号"},{"poiid":"B2094753D76FAAFA449C","title":"上海滩国泰旗舰店","lon":"121.466011","lat":"31.216125","category":"249","category_name":"购物服务","address":"淮海中路868号"},{"poiid":"B209475CD564A7F84292","title":"上海滩新天地店","lon":"121.47463","lat":"31.22164","category":"119","category_name":"商场","address":"\"太仓路181弄新天地北里15号\r\n\""},{"poiid":"B209475CD564A7F84392","title":"上海滩浦东香格里拉店","lon":"121.50058","lat":"31.23634","category":"119","category_name":"商场","address":"浦东富成路33号香格里拉酒店内大堂层"},{"poiid":"B2094654DA6FAAFC499F","title":"黄浦区中心医院","lon":"121.48899","lat":"31.23428","category":"162","category_name":"医院","address":"黄浦区四川中路109号(近广东路)"},{"poiid":"B2094757D06FA6FD4699","title":"The Glamour Bar","lon":"121.49109627","lat":"31.2341656143","category":"172","category_name":"酒吧","address":"黄浦区广东路20号外滩5号6楼(近中山东一路)"},{"poiid":"B2094654DA6FAAFD449E","title":"船长青年酒店","lon":"121.48965","lat":"31.23539","category":"250","category_name":"公园户外","address":"黄浦区福州路37号(近四川中路)"},{"poiid":"B2094654DA6FAAFD4593","title":"M on the Bund","lon":"121.49079","lat":"31.2345","category":"263","category_name":"公司","address":"中山东一路5号外滩5号7层"},{"poiid":"B209475CD769A0FC449C","title":"万岛日式料理（外滩店）","lon":"121.489715","lat":"31.23306","category":"247","category_name":"餐饮美食","address":"上海市 四川中路33号1楼"},{"poiid":"B2094757D06FA7FF449F","title":"东京和食","lon":"121.49104","lat":"31.23457","category":"95","category_name":"日本料理","address":"黄浦区中山东一路6号外滩6号2楼(近广东路)"},{"poiid":"B2094757D068A2F4459A","title":"船长酒吧","lon":"121.49016","lat":"31.23529","category":"260","category_name":"其他","address":"黄浦区福州路37号船长酒店6搂(近中山东一路)"},{"poiid":"B2094654DA6FAAFD4592","title":"外滩5号","lon":"121.49078","lat":"31.2345","category":"47","category_name":"住宅区","address":"中山东一路5号"},{"poiid":"B2094757D06FAAFC419B","title":"猫的天空之城概念书店","lon":"121.489654","lat":"31.235389","category":"260","category_name":"其他","address":"黄浦区福州路37号船长青年酒店1楼(近中山东一路)"},{"poiid":"B2094757D06FABFF479B","title":"新城饭店","lon":"121.4878","lat":"31.23495","category":"216","category_name":"经济型连锁酒店","address":"黄浦区江西中路180号(近福州路)"},{"poiid":"B2094757D068A6F54593","title":"lost heaven","lon":"121.49070111","lat":"31.232868432","category":"500","category_name":"未知分类","address":"上海延安东路17号"},{"poiid":"B2094757D06AA1F4489F","title":"上海姥姥 原吉禾餐饮","lon":"121.48908099613","lat":"31.235419801894","category":"76","category_name":"上海菜","address":"黄浦区福州路70号(近四川中路永和豆浆对面)"},{"poiid":"B2094757D065AAFC459B","title":"赤板亭(名人大厦)","lon":"121.489254138","lat":"31.2339395791","category":"500","category_name":"未知分类","address":"上海南京路步行街"},{"poiid":"B2094757D664A3FF4599","title":"外滩华尔道夫酒店 中式餐厅","lon":"121.48994","lat":"31.23399","category":"72","category_name":"广东菜","address":"广东路51号5楼近四川中路"},{"poiid":"B2094757D068A1F8449B","title":"House of Blues & Jazz","lon":"121.4892425","lat":"31.235561077","category":"172","category_name":"酒吧","address":"上海市黄浦区福州路60号(近四川中路)"},{"poiid":"B2094757D068A0F5439E","title":"上海国际商品拍卖有限公司","lon":"121.488583332","lat":"31.2353396094","category":"46","category_name":"楼宇","address":"黄浦区福州路108号(近四川中路)"},{"poiid":"B2094757D06FA3FD439C","title":"LAN蘭","lon":"121.48943561","lat":"31.233968149","category":"72","category_name":"广东菜","address":"黄浦区广东路102号(广东路四川中路)"},{"poiid":"B2094655D26FA2FA4099","title":"月影铁板烧景观餐厅酒廊","lon":"121.49079","lat":"31.2345","category":"97","category_name":"法式菜品餐厅","address":"黄浦区中山东一路外滩5号3楼"},{"poiid":"B2094751D56CA4FD419C","title":"Mercato","lon":"121.49088","lat":"31.23417","category":"94","category_name":"西餐厅","address":"黄浦区中山东一路3号外滩3号6楼(近广东路)"},{"poiid":"B2094757D66BA1FC489B","title":"华尔道夫酒店廊吧","lon":"121.491231","lat":"31.23389","category":"260","category_name":"其他","address":"黄浦区中山东一路2号华尔道夫酒店L层(近延安东路)"},{"poiid":"B2094757D06FA6F9459A","title":"米氏西餐厅","lon":"121.48839983","lat":"31.235365447","category":"94","category_name":"西餐厅","address":"黄浦区广东路20号外滩5号7楼(近中山东一路)"},{"poiid":"B2094750D66FA3F9489E","title":"UNICO & COLAGRECO","lon":"121.49067870373528","lat":"31.23452732944748","category":"101","category_name":"美式风味","address":"黄浦区中山东一路3号外滩3号2楼(近广东路)"},{"poiid":"B2094757D06FAAF84399","title":"申鑫大厦","lon":"121.488143","lat":"31.234771","category":"46","category_name":"楼宇","address":"上海市黄浦区宁海东路200号(北依南京路,南临淮海路)"},{"poiid":"B2094751D56BA3F9469E","title":"南麓浙里","lon":"121.488525","lat":"31.235992","category":"76","category_name":"上海菜","address":"黄浦区四川中路216号(近福州路)"},{"poiid":"B2094654DA6FABFE4598","title":"联谊大厦","lon":"121.48997","lat":"31.23307","category":"46","category_name":"楼宇","address":"希尔斯联邦位于沈河北站路117号(北站家乐福东北角)"},{"poiid":"B2094757D06FABFC469A","title":"上海浦东发展银行大楼(外滩12号)","lon":"121.489894","lat":"31.236","category":"150","category_name":"银行","address":"上海黄浦区中山东一路12号 汇丰银行大楼 (原市府大楼)"},{"poiid":"B2094757D069A4FF499F","title":"老船长青年旅舍(外滩店)","lon":"121.48979","lat":"31.23509","category":"216","category_name":"经济型连锁酒店","address":"上海黄浦区延安东路7号甲(近外滩)"},{"poiid":"B2094757D06FA3FB4199","title":"外滩隧道","lon":"121.491135705","lat":"31.2345035269","category":"260","category_name":"其他","address":"上海海宁路长治路——延安东路中山南路"},{"poiid":"B2094655D26EAAF8469B","title":"望江阁","lon":"121.491266","lat":"31.234322","category":"94","category_name":"西餐厅","address":"黄浦区中山东一路3号外滩3号7楼(近广东路)"},{"poiid":"B2094654DA6EA6FA4898","title":"汇通大厦","lon":"121.488","lat":"31.2328","category":"46","category_name":"楼宇","address":"金陵东路369号"},{"poiid":"B2094757D069A5FA429F","title":"国拍大楼","lon":"121.488578","lat":"31.234969","category":"46","category_name":"楼宇","address":"上海福州路108号"},{"poiid":"B2094757D06FABF5479F","title":"Dai's  Kitchen","lon":"121.48997","lat":"31.23235","category":"94","category_name":"西餐厅","address":"黄浦区延安东路110号四川大楼1楼门口弄堂(四川路口)"},{"poiid":"B2094757D069ABFA459A","title":"上海电信博物馆","lon":"121.490941","lat":"31.233238","category":"182","category_name":"博物馆","address":"黄浦区延安东路34号(近中山东一路)"},{"poiid":"B2094750DA6BA1FD469D","title":"forever21","lon":"121.489219","lat":"31.235349","category":"500","category_name":"未知分类","address":"南京東路"},{"poiid":"B2094757D16DA6FF4599","title":"月影","lon":"121.490579738","lat":"31.234685395","category":"249","category_name":"购物服务","address":"上海外滩5号3楼"},{"poiid":"B209475CDA68A0FC4492","title":"万岛日本料理铁板烧","lon":"121.489685","lat":"31.233085","category":"500","category_name":"未知分类","address":"上海市 四川中路33号"},{"poiid":"B2094757D069A0FE469D","title":"黄浦区中心医院中医门诊部","lon":"121.48898882","lat":"31.2342839927","category":"162","category_name":"医院","address":"上海黄浦区宁波路109号(近河南中路)"},{"poiid":"B2094655D26DAAFC4798","title":"宜兰贵斯酒店","lon":"121.48826","lat":"31.23394","category":"250","category_name":"公园户外","address":"黄浦区广东路138号(近河南中路)"},{"poiid":"B2094655D268A6F8439C","title":"宾龙商务酒店","lon":"121.48831","lat":"31.23514","category":"250","category_name":"公园户外","address":"黄浦区福州路105-1号(近四川中路)"},{"poiid":"B2094757DA65A5FB419F","title":"海上小喔（上海外滩店）","lon":"121.4882863","lat":"31.23535294","category":"216","category_name":"经济型连锁酒店","address":"黄浦区福州路120号4-5楼(近江西中路)"},{"poiid":"B2094757D068ABFB409C","title":"五芳斋 四川中路店","lon":"121.48965177918","lat":"31.233533830051","category":"68","category_name":"快餐厅","address":"黄浦区四川中路136号(近广东路)"},{"poiid":"B2094750D26CA1FA449B","title":"蔚景阁","lon":"121.491231","lat":"31.23389","category":"76","category_name":"上海菜","address":"黄浦区中山东一路2号华尔道夫酒店5楼(近延安东路)"},{"poiid":"B209475CD168A0FC4299","title":"万岛日本料理","lon":"121.489006","lat":"31.233108","category":"500","category_name":"未知分类","address":"上海市 上海市四川中路33号一楼"},{"poiid":"B2094757DB68A5F44998","title":"新视角餐厅","lon":"121.49088356107","lat":"31.234764723142","category":"247","category_name":"餐饮美食","address":"中山东一路3号外滩3号7楼近广东路"}]