[{"poiid":"B2094757D06EAAFA4799","title":"吴江路美食街","lon":"121.45953","lat":"31.22911","category":"68","category_name":"快餐厅","address":"静安区吴江路美食休闲购物(近石门一路)"},{"poiid":"B2094757D06EAAF94192","title":"伊秀手握寿司(吴江路店)","lon":"121.45843146","lat":"31.229081993","category":"95","category_name":"日本料理","address":"静安区吴江路269号湟普汇3楼304-305单元(泰兴路吴江路)"},{"poiid":"B2094757D06EAAF9449E","title":"掌上韩品 吴江路店","lon":"121.4598384","lat":"31.2297555","category":"96","category_name":"韩国料理","address":"静安区吴江路200号(近南京西路)"},{"poiid":"B2094753D76FAAFA449C","title":"上海滩国泰旗舰店","lon":"121.466011","lat":"31.216125","category":"249","category_name":"购物服务","address":"淮海中路868号"},{"poiid":"B209475CD564A7F84292","title":"上海滩新天地店","lon":"121.47463","lat":"31.22164","category":"119","category_name":"商场","address":"\"太仓路181弄新天地北里15号\r\n\""},{"poiid":"B209475CD564A7F8439E","title":"上海滩中信泰富店","lon":"121.45602","lat":"31.22851","category":"119","category_name":"商场","address":"\"南京西路1168号中信泰富广场，店铺号221.\r\n\""},{"poiid":"B2094757D66FA6FB4198","title":"COSTA COFFEE(吴江路店)","lon":"121.45886","lat":"31.22874","category":"65","category_name":"咖啡厅","address":"静安区吴江路269号(近茂名北路)"},{"poiid":"B2094655D268A3FB479D","title":"葡京茶餐厅(吴江路店)","lon":"121.45934","lat":"31.22889","category":"72","category_name":"广东菜","address":"静安区吴江路269号湟普汇303号商铺(近茂名北路)"},{"poiid":"B2094655D26FABFF419D","title":"静安小亭麻辣烫 吴江路店","lon":"121.459811054","lat":"31.229479793","category":"68","category_name":"快餐厅","address":"静安区吴江路269号湟普汇2楼(近茂名北路)"},{"poiid":"B2094757D465A4FA489B","title":"牛阵日式火锅 四季坊店","lon":"121.46003","lat":"31.22982","category":"95","category_name":"日本料理","address":"静安区吴江路169号四季坊242单元(近石门一路)"},{"poiid":"B2094750DA6BA1F54598","title":"斯利美SLM","lon":"121.45935","lat":"31.229806","category":"112","category_name":"糕饼店","address":"静安区吴江路169号四季坊149单元(近地铁2号线南京西路站)"},{"poiid":"B2094757D06EAAFE419A","title":"优衣库(南京西路店)","lon":"121.458728","lat":"31.229372","category":"141","category_name":"服装鞋帽皮具店","address":"上海市静安区南京西路969号（地铁2号线南京西路站1、4号出口）"},{"poiid":"B2094757D06EAAFF4298","title":"南京西路地铁站","lon":"121.459723","lat":"31.229734","category":"36","category_name":"地铁站","address":"上海轨道交通 二号线 轨交南京西路站 2"},{"poiid":"B2094757D16CA3F94793","title":"卡乐星","lon":"121.458848738","lat":"31.2292552793","category":"94","category_name":"西餐厅","address":"静安区吴江路169号四季坊150单元(近泰兴路)"},{"poiid":"B2094757D06EABF5469F","title":"COCO壱番屋(吴江路店)","lon":"121.45894768","lat":"31.228867623","category":"95","category_name":"日本料理","address":"静安区吴江路269号湟普汇2楼(近茂名北路)"},{"poiid":"B2094757D06EABF54199","title":"洋面屋五右卫门 吴江路店","lon":"121.4595113","lat":"31.2295151","category":"98","category_name":"意式菜品餐厅","address":"静安区吴江路169号四季坊2楼(近吴江路美食街)"},{"poiid":"B2094655D268A3FB479C","title":"小杨生煎 湟普汇店","lon":"121.459811054","lat":"31.229479793","category":"68","category_name":"快餐厅","address":"静安区吴江路269号2楼(近茂名北路)"},{"poiid":"B2094757D06AA5FE429E","title":"滋滋星","lon":"121.46021973","lat":"31.229662288","category":"99","category_name":"泰国／越南菜品餐厅","address":"静安区吴江路200号2楼(近南京西路)"},{"poiid":"B2094757D06FA6F9489C","title":"代官山(南京西路店)","lon":"121.45798903","lat":"31.228981173","category":"260","category_name":"其他","address":"静安区吴江路269号湟普汇208单元(近吴江路南京西路)"},{"poiid":"B2094757D469A2F9449D","title":"锅品面吧 吴江路店 Noodle Bar","lon":"121.460099","lat":"31.229882","category":"68","category_name":"快餐厅","address":"静安区吴江路202号(近泰兴路)"},{"poiid":"B2094757D06FA1FA4093","title":"伊秀寿司","lon":"121.45877773","lat":"31.229138276","category":"247","category_name":"餐饮美食","address":"上海市静安区吴江路"},{"poiid":"B2094752D56DAAF9469B","title":"点点心茶餐厅","lon":"121.459487","lat":"31.230247","category":"247","category_name":"餐饮美食","address":"南京西路889号2楼"},{"poiid":"B2094757D065AAFC419E","title":"力士相撲焼肉","lon":"121.459747738","lat":"31.2295532857","category":"500","category_name":"未知分类","address":"上海静安区江宁路四季坊"},{"poiid":"B2094757D06FA2FA449F","title":"西北郎烧烤(吴江路店)","lon":"121.46028","lat":"31.22956","category":"68","category_name":"快餐厅","address":"静安区吴江路休闲街200号2楼(近泰兴路)"},{"poiid":"B2094757D06FA2F5409F","title":"弄堂小馄饨","lon":"121.45834","lat":"31.22876","category":"68","category_name":"快餐厅","address":"静安区南京西路1025弄静安别墅107号(近茂名北路)"},{"poiid":"B2094757D06FA1F84492","title":"棒约翰比萨(四季坊店)","lon":"121.460259767","lat":"31.2294456435","category":"94","category_name":"西餐厅","address":"静安区吴江路169号四季坊108(泰兴路吴江路)"},{"poiid":"B2094757D06FA0F5479D","title":"蝶园(吴江路店)","lon":"121.45954","lat":"31.22913","category":"76","category_name":"上海菜","address":"静安区吴江路269号301-302室(近茂名北路)"},{"poiid":"B2094757D56CABFB419A","title":"顺风港湾","lon":"121.45971","lat":"31.229015","category":"76","category_name":"上海菜","address":"静安区泰兴路175号经典茂名裙房4楼(近吴江路)"},{"poiid":"B2094757D069A2FC439B","title":"稻•绿洲泰国时尚餐厅","lon":"121.45864873","lat":"31.228559264","category":"99","category_name":"泰国／越南菜品餐厅","address":"上海市静安区茂名北路吴江路269号皇普汇1楼"},{"poiid":"B2094654DB69A0FA499E","title":"凯司令西餐馆","lon":"121.45799135349","lat":"31.228824346383","category":"247","category_name":"餐饮美食","address":"静安区南京西路1001号3楼(近江宁路)"},{"poiid":"B2094757D06FA2F84198","title":"早安巴黎(吴江路店)","lon":"121.45957","lat":"31.22929","category":"112","category_name":"糕饼店","address":"静安区吴江路169号四季坊1楼114号单元(近石门一路)"},{"poiid":"B2094654DB6AA2FC459D","title":"一茶一坐(南京西路店)","lon":"121.458","lat":"31.22918","category":"260","category_name":"其他","address":"静安区南京西路996号2楼(近南汇路)"},{"poiid":"B2094757D06AA1FB429D","title":"上海少年儿童图书馆","lon":"121.458372567","lat":"31.2296641258","category":"181","category_name":"图书馆","address":"静安区南京西路962号(近茂名北路)"},{"poiid":"B2094757DB6FA1FF429A","title":"鲜芋仙(四季坊店)","lon":"121.4586149423584","lat":"31.229132465841996","category":"67","category_name":"甜品店","address":"静安区吴江路269号湟普汇1楼(近茂名北路)"},{"poiid":"B2094654DB64A6FE409D","title":"吉野家  吴江路店","lon":"121.45898087483408","lat":"31.22916178880581","category":"95","category_name":"日本料理","address":"静安区吴江路277号(近茂名北路)"},{"poiid":"B2094654DB6AA7F54993","title":"赛百味 吴江路店 Subway","lon":"121.459811054","lat":"31.229479793","category":"94","category_name":"西餐厅","address":"吴江路269号湟普汇1A101单元近茂名路"},{"poiid":"B2094757D06FA2FD4392","title":"卡卡圈坊","lon":"121.46009198","lat":"31.229713623","category":"67","category_name":"甜品店","address":"上海吴江路169号四季坊142单元"},{"poiid":"B2094757D06FA6F5439B","title":"炖品世家(吴江路店)","lon":"121.459060738","lat":"31.229006274","category":"72","category_name":"广东菜","address":"静安区吴江路269号湟普汇2楼204号商铺(近茂名北路)"},{"poiid":"B2094654DA6CA1F8429B","title":"沈家鱼头王","lon":"121.45962","lat":"31.22982","category":"76","category_name":"上海菜","address":"静安区泰兴路178号瑞泰大酒店2-3楼(近吴江路)"},{"poiid":"B2094757D06FA2FD449E","title":"85度C(吴江路店)","lon":"121.45957964","lat":"31.229537246","category":"112","category_name":"糕饼店","address":"静安区吴江路269号(近茂名北路)"},{"poiid":"B2094757D06FAAFE4192","title":"奥茉优格(吴江路店)","lon":"121.460049195","lat":"31.2294765546","category":"113","category_name":"冷饮店","address":"徐汇区石龙路569号2号楼(近上海南站)"},{"poiid":"B2094757D06FA2FC469F","title":"诚屋拉面","lon":"121.459298834","lat":"31.2292530263","category":"95","category_name":"日本料理","address":"静安区吴江路269号湟普汇212单元(近茂名北路)"},{"poiid":"B2094757D56DAAF44398","title":"代官山吴江路店","lon":"121.458543738","lat":"31.2291892779","category":"96","category_name":"韩国料理","address":"上海吴江路湟普汇"},{"poiid":"B2094757D469A2FD419F","title":"肯德基 吴江路店 KFC","lon":"121.458911054","lat":"31.229248793","category":"68","category_name":"快餐厅","address":"静安区吴江路269号经典茂名商城2楼(近茂名北路)"},{"poiid":"B2094752D26FA4F9489B","title":"点点心 港式茶餐厅","lon":"121.45932","lat":"31.230103","category":"500","category_name":"未知分类","address":null},{"poiid":"B2094655D26CAAFD469F","title":"Issimo","lon":"121.45899194611","lat":"31.229678177388","category":"94","category_name":"西餐厅","address":"静安区南京西路931号家合酒店2楼(近泰兴路)"},{"poiid":"B2094454D26BA2FB439D","title":"乐伯部队锅","lon":"121.459518","lat":"31.229896","category":"247","category_name":"餐饮美食","address":"上海市 吴江路四季坊"},{"poiid":"B2094757D065A6FD429F","title":"2号线南京西路站","lon":"121.458881738","lat":"31.2285002632","category":"500","category_name":"未知分类","address":"上海市静安区南京西路"},{"poiid":"B2094757D069A6FB4292","title":"中国移动南京西路营业厅","lon":"121.458921","lat":"31.230025","category":"151","category_name":"电讯营业厅","address":"南京西路936-938"},{"poiid":"B2094757DA68A0FB409A","title":"CHOCOOLATE（南京西路旗舰店）","lon":"121.458075866103","lat":"31.2290917247828","category":"255","category_name":"专卖店","address":"上海市静安区南京西路1009-1021号2-3层"},{"poiid":"B2094757D468ABFF469C","title":"麻辣捞烫","lon":"121.459637054","lat":"31.229507793","category":"87","category_name":"特色／地方风味餐厅","address":"静安区吴江路202号2楼(近泰兴路)"},{"poiid":"B2094752D26EA2FC479F","title":"意麵屋","lon":"121.45948","lat":"31.23007","category":"94","category_name":"西餐厅","address":"静安区南京西路819号507室"},{"poiid":"B2094757D064A6FA419F","title":"JIA Shanghai","lon":"121.45959","lat":"31.22981","category":"500","category_name":"未知分类","address":"上海静安区南京西路931号  "},{"poiid":"B2094654DB6BA6F54398","title":"四季坊(西门)","lon":"121.4598","lat":"31.22935","category":"119","category_name":"商场","address":""},{"poiid":"B2094757D06FA3FA4198","title":"香瓮烤肉","lon":"121.45909272","lat":"31.229544545","category":"96","category_name":"韩国料理","address":"静安区吴江路169号四季坊(近南京西路)"},{"poiid":"B2094757D06FA6FA4092","title":"三叶草(南京西路店)","lon":"121.459247925","lat":"31.2300268154","category":"140","category_name":"体育用品店","address":"静安区南京西路939号(江宁路南京西路)"},{"poiid":"B2094750D268A1FB449F","title":"豪廚粵菜吴江店","lon":"121.458778","lat":"31.229549","category":"247","category_name":"餐饮美食","address":"静安区吴江路269号湟普汇306号"},{"poiid":"B2094655D268A3FB489A","title":"湟普汇","lon":"121.45933","lat":"31.22889","category":"119","category_name":"商场","address":"静安区吴江路269号(近茂名北路)"},{"poiid":"B209475CD66EA5FF409E","title":"Gelato Pique Cafe","lon":"121.457931","lat":"31.229568","category":"500","category_name":"未知分类","address":"上海市 梅龍鎮伊勢丹"},{"poiid":"B2094752DB6FA1F4429D","title":"藍瑪赫","lon":"121.459806","lat":"31.228891","category":"247","category_name":"餐饮美食","address":"上海市 梅龍鎮廣場"},{"poiid":"B209475CD668A6FD429A","title":"Gelato Pique Cafe","lon":"121.457817","lat":"31.229608","category":"500","category_name":"未知分类","address":"上海市 南京西里梅龙镇伊势丹"},{"poiid":"B2094757D068AAF5499F","title":"LA咖啡","lon":"121.45933669","lat":"31.229109769","category":"65","category_name":"咖啡厅","address":"人民路855号(淮海中华大厦)"},{"poiid":"B2094654DA6CA1FF4793","title":"中国工商银行南京西路支行","lon":"121.4582","lat":"31.22899","category":"150","category_name":"银行","address":"静安区南京西路999号近茂名路(南汇路南京西路)"},{"poiid":"B2094757D06FA4FC419B","title":"贝儿多爸爸的泡芙工房(吴江路店)","lon":"121.45991073","lat":"31.229563285","category":"67","category_name":"甜品店","address":"上海市静安区吴江路198-2"},{"poiid":"B2094757D06AA1FB429F","title":"Cvrve蔻芙","lon":"121.458964","lat":"31.229383","category":"500","category_name":"未知分类","address":"上海206A Shanghai Centre, Nanjing Road West"},{"poiid":"B2094757D46FA1F9419A","title":"力士烤肉","lon":"121.4595113","lat":"31.2295151","category":"95","category_name":"日本料理","address":"吴江路169号四季坊南京西路地铁站近石门一路"},{"poiid":"B2094655D26AA1FA479C","title":"强生国际旅行社南京西路分部","lon":"121.45914","lat":"31.23055","category":"247","category_name":"餐饮美食","address":"静安区南京西路920号南泰大厦内(近泰兴路)"},{"poiid":"B2094654DA6CA1F8429F","title":"帕多瓦多媒体KTV","lon":"121.45986","lat":"31.23016","category":"170","category_name":"KTV","address":"南京西路889"},{"poiid":"B2094654DA6CA2FF4193","title":"南泰大厦(边门)","lon":"121.4592","lat":"31.23046","category":"49","category_name":"无中心点楼宇大门","address":"南京西路920"},{"poiid":"B2094757D06FAAFF4899","title":"索非蜜斯(吴江路店)","lon":"121.45843682","lat":"31.229028107","category":"113","category_name":"冷饮店","address":"吴江路269号湟普汇1楼109号商铺近茂名北路"},{"poiid":"B2094750DA6CABF84998","title":"环艺影院","lon":"121.458099","lat":"31.22899","category":"178","category_name":"电影院","address":null},{"poiid":"B2094757D06AA5F44998","title":"ASOBIO(南京西路旗舰店)","lon":"121.458842065","lat":"31.2299083507","category":"141","category_name":"服装鞋帽皮具店","address":"上海南京西路942-952号"},{"poiid":"B2094757D069ABFF4592","title":"都可茶饮 四季坊店 CoCo","lon":"121.461022054","lat":"31.229906793","category":"113","category_name":"冷饮店","address":"静安区吴江路169号四季坊B1楼B104(近石门一路)"},{"poiid":"B2094757D065ABF54299","title":"Hana and GangMin","lon":"121.458900838","lat":"31.2290187743","category":"500","category_name":"未知分类","address":"静安区吴江路(近锅品面吧)"},{"poiid":"B2094655D26AA1F5469F","title":"瑞泰酒店泰兴路店","lon":"121.45962","lat":"31.22982","category":"247","category_name":"餐饮美食","address":"静安区泰兴路178号(近南京西路)"},{"poiid":"B2094655D36CA3FF429C","title":"茂名北路山东煎饼摊","lon":"121.45917","lat":"31.22842","category":"68","category_name":"快餐厅","address":"静安区茂名北路144号(近威海路)"},{"poiid":"B2094654DA6CA1F4419E","title":"经典茂名公寓","lon":"121.45948","lat":"31.22879","category":"47","category_name":"住宅区","address":"上海市静安区茂名北路318弄"},{"poiid":"B2094757DA68A0FA4993","title":"izzue(南京西路店)","lon":"121.458075866103","lat":"31.2290917247828","category":"255","category_name":"专卖店","address":"静安区南京西路1009号(近江宁路)"},{"poiid":"B2094757D164A7F9419D","title":"吴江路泰兴路","lon":"121.45859573","lat":"31.229253279","category":"500","category_name":"未知分类","address":"上海吴江路泰兴路"},{"poiid":"B2094654DB6BA6F5419A","title":"复旦大学附属华山医院第二门诊部","lon":"121.45837","lat":"31.22856","category":"162","category_name":"医院","address":"南京西路995弄3-21号"},{"poiid":"B2094753D569A3FD489F","title":"GELATOPIQUE CAFE","lon":"121.458","lat":"31.22891","category":"500","category_name":"未知分类","address":"上海市 南京西路1038号"},{"poiid":"B2094654DA6CA1FA489E","title":"华山医院皮肤科专家门诊部","lon":"121.45837","lat":"31.22856","category":"162","category_name":"医院","address":"南京西路995弄5"},{"poiid":"B2094753D065A3FE419A","title":"禾绿回转寿司(吴江路店)","lon":"121.45946","lat":"31.22926","category":"95","category_name":"日本料理","address":"静安区吴江路269号(近南京西路)"},{"poiid":"B209475CD564A7FE4592","title":"COSTA COFFEE（上海吴江路店）","lon":"121.458938","lat":"31.229128","category":"65","category_name":"咖啡厅","address":"上海市静安区吴江路269号(近茂名路)"},{"poiid":"B2094655D26AA0FB409A","title":"强生票务中心","lon":"121.45914","lat":"31.23055","category":"247","category_name":"餐饮美食","address":"静安区南京西路920号(近泰兴路)"},{"poiid":"B2094757D06FA5FA419B","title":"一茶一坐(吴江路店)","lon":"121.460048","lat":"31.229282","category":"91","category_name":"台湾菜","address":"上海静安区吴江路169号四季坊1-2楼(近石门一路)"},{"poiid":"B2094655D265AAFF4893","title":"少儿图书馆","lon":"121.45844","lat":"31.22982","category":"248","category_name":"生活娱乐","address":"南京西路962号"},{"poiid":"B2094750D564AAF5469E","title":"上海悦达889广场","lon":"121.459518","lat":"31.229225","category":"500","category_name":"未知分类","address":"万航渡路889号靠近长寿路"},{"poiid":"B2094757D16AA0F94092","title":"張園","lon":"121.459138738","lat":"31.2283532601","category":"500","category_name":"未知分类","address":"上海静安区泰興路"},{"poiid":"B2094757DA69A1FE4899","title":"优衣库南京西路旗舰店","lon":"121.45874","lat":"31.22936","category":"640","category_name":"服装服饰类公司","address":"南京西路969号"},{"poiid":"B2094753D46BA6FB469A","title":"满记甜品","lon":"121.458023","lat":"31.229085","category":"247","category_name":"餐饮美食","address":"上海市 南京西路"},{"poiid":"B2094757D165A4FA459B","title":"太阳星辰KTV","lon":"121.45979","lat":"31.22992","category":"170","category_name":"KTV","address":"静安区南京西路920号南泰大厦6楼(近泰兴路)"},{"poiid":"B2094757D16DA0FE479E","title":"台北吳記","lon":"121.459627388","lat":"31.2284982832","category":"500","category_name":"未知分类","address":"上海江寧路77号"},{"poiid":"B2094751D26DA0FA419A","title":"万寿斋","lon":"121.459472","lat":"31.228435","category":"247","category_name":"餐饮美食","address":"虹口区山阴路123号"},{"poiid":"B2094757D16CA2FE479C","title":"莉莲蛋挞(南京西路店)","lon":"121.45826","lat":"31.22888","category":"247","category_name":"餐饮美食","address":"上海静安区南京西路988号(近茂名北路)  "},{"poiid":"B2094757D16CA6FB419E","title":"向阳993商场","lon":"121.4587","lat":"31.22882","category":"119","category_name":"商场","address":"静安区南京西路993号锦江向阳大厦内(近茂名北路)"},{"poiid":"B2094757D06AA1F84399","title":"G2000(南京西路店)","lon":"121.45981","lat":"31.22996","category":"141","category_name":"服装鞋帽皮具店","address":"上海静安区南京西路858号(近石门一路)"},{"poiid":"B2094757D16AA0F5479B","title":"常州火车站北广场候车室","lon":"121.459438938","lat":"31.2295986866","category":"22","category_name":"火车站","address":"常州不详"},{"poiid":"B2094654DA6CA1FF489B","title":"鸿禧摩士达商厦","lon":"121.45953","lat":"31.22997","category":"46","category_name":"楼宇","address":"静安区南京西路889号(近石门一路)"},{"poiid":"B2094655D26BAAFE469B","title":"延安中路955弄","lon":"121.458","lat":"31.2286","category":"47","category_name":"住宅区","address":"延安中路955弄1-67号"},{"poiid":"B2094757D16BA4FA409D","title":"奉贤路南汇路","lon":"121.458755738","lat":"31.2292252787","category":"500","category_name":"未知分类","address":"上海奉贤路南汇路"},{"poiid":"B2094757D16EA2F94092","title":"贝尔多爸爸泡芙","lon":"121.460012738","lat":"31.2295812863","category":"247","category_name":"餐饮美食","address":"上海市吴江路"},{"poiid":"B2094757D068A4FC459F","title":"全家便利(泰兴店)","lon":"121.45876312","lat":"31.2306494892","category":"117","category_name":"便民商店/便利店","address":"上海静安区泰兴路217号(近奉贤路)"},{"poiid":"B209475CDB69A6F54799","title":"骨谷面（吴江店）","lon":"121.458892","lat":"31.229204","category":"247","category_name":"餐饮美食","address":"上海市 静安区吴江路269号212单元（潢普汇2F）"},{"poiid":"B2094757D16BA6F8489C","title":"阿一鮑魚","lon":"121.4589765","lat":"31.229293613","category":"247","category_name":"餐饮美食","address":"上海四季坊"},{"poiid":"B2094655D26DA4F84399","title":"向阳胜道","lon":"121.45845","lat":"31.22915","category":"119","category_name":"商场","address":""},{"poiid":"B2094750D365A7FF419C","title":"静安别墅雅瓷","lon":"121.458892","lat":"31.228269","category":"47","category_name":"住宅区","address":"南京西路1025弄166号"},{"poiid":"B2094757D16AA4F9479B","title":"上海电信","lon":"121.45875746","lat":"31.230340657","category":"500","category_name":"未知分类","address":"上海泰兴路北京西路"},{"poiid":"B2094750D164A2F5469F","title":"上海JIA酒店","lon":"121.459243297577","lat":"31.2299311639933","category":"214","category_name":"四星级宾馆","address":"上海静安区南京西路931号"},{"poiid":"B2094757D468A4FC489E","title":"Tivoli","lon":"121.459725","lat":"31.230119","category":"98","category_name":"意式菜品餐厅","address":"南京西路889号2楼近泰兴路"},{"poiid":"B209475CD06BA5FA469F","title":"凯司令西点房 南京西路店","lon":"121.4581","lat":"31.22893","category":"67","category_name":"甜品店","address":"南京西路1001号(茂名北路口)"},{"poiid":"B2094757D06FA3FB449B","title":"杯子布丁(吴江路店)","lon":"121.45974","lat":"31.22895","category":"67","category_name":"甜品店","address":"上海静安区吴江路269号湟普汇1楼(近泰兴路)"},{"poiid":"B2094655D26AA2FA4199","title":"茂昌眼镜店南西店","lon":"121.4578","lat":"31.22905","category":"247","category_name":"餐饮美食","address":"静安区南京西路1010号(近江宁路)"},{"poiid":"B2094757D06BA7FE4998","title":"Next City 下一城","lon":"121.46029693","lat":"31.229393882","category":"47","category_name":"住宅区","address":"上海吴江路267号"},{"poiid":"B2094757D068ABFA499D","title":"移动泰兴路营业厅","lon":"121.45892334","lat":"31.230024337","category":"150","category_name":"银行","address":"上海静安区南京西路938号"},{"poiid":"B2094655D269ABF44593","title":"豪雅表","lon":"121.45809","lat":"31.22923","category":"247","category_name":"餐饮美食","address":"静安区南京西路990-992号(近茂名北路)"},{"poiid":"B2094757D068A1FD409C","title":"我爱番薯","lon":"121.460046738","lat":"31.2296322873","category":"247","category_name":"餐饮美食","address":"上海静安区吴江路198-2"},{"poiid":"B2094757D16DA4F54099","title":"耐克旗舰店","lon":"121.458439","lat":"31.229095","category":"141","category_name":"服装鞋帽皮具店","address":"上海南京西路993号"},{"poiid":"B2094654DB69A5FA499A","title":"中国电信(信息服务台店)","lon":"121.45914","lat":"31.23052","category":"151","category_name":"电讯营业厅","address":"静安区南京西路920号20楼"},{"poiid":"B2094757DA6BA0FA439B","title":"锦江向阳大楼写字楼","lon":"121.458621","lat":"31.228977","category":"252","category_name":"楼宇机构","address":"上海市徐汇区衡山路922号、918号"},{"poiid":"B2094757D16CA3FE429B","title":"OASIS泰式餐廳","lon":"121.458706738","lat":"31.228536264","category":"500","category_name":"未知分类","address":"上海市静安区南京西路"},{"poiid":"B209475DD26FA6F9429F","title":"Naia gelato冰淇淋","lon":"121.460166","lat":"31.229825","category":"500","category_name":"未知分类","address":"上海市 吴江路四季坊商场1层111单元"},{"poiid":"B2094757D168ABF54392","title":"哈果乐(吴江路店)","lon":"121.45795353","lat":"31.228994373","category":"247","category_name":"餐饮美食","address":"上海吴江路289号经典茂名商场"},{"poiid":"B2094655D26BA3F8409A","title":"全家便利店南京西路2店","lon":"121.45844","lat":"31.22927","category":"118","category_name":"超级市场","address":"静安区南京西路993号锦江向阳大厦9楼(近茂名北路)"},{"poiid":"B2094654DA6CA1F4429E","title":"尊龙","lon":"121.45935","lat":"31.2282","category":"141","category_name":"服装鞋帽皮具店","address":"茂名北路264弄3-3临"},{"poiid":"B2094757D068A6FA469D","title":"全家便利(吴江路店)","lon":"121.459512","lat":"31.229515","category":"117","category_name":"便民商店/便利店","address":"上海市吴江路169号130单元"},{"poiid":"B2094654DA6CA1F44192","title":"德庆里","lon":"121.4595","lat":"31.228333","category":"47","category_name":"住宅区","address":"茂名北路264弄1-21号"},{"poiid":"B2094654DA6CA1FB499A","title":"蕃祉里六街","lon":"121.4586","lat":"31.22861","category":"47","category_name":"住宅区","address":"茂名北路303弄4-8号"},{"poiid":"B2094655D26DA7FE4298","title":"蕃祉里三街(东门)","lon":"121.45912","lat":"31.22817","category":"47","category_name":"住宅区","address":"茂名北路277弄4-8号"},{"poiid":"B2094655D26FA4FF4493","title":"德庆里(二门)","lon":"121.45933","lat":"31.22823","category":"47","category_name":"住宅区","address":"茂名北路274弄3-19号"},{"poiid":"B2094655D264A6F5439E","title":"皇家世尊KTV私人会所","lon":"121.45987","lat":"31.23012","category":"170","category_name":"KTV","address":""},{"poiid":"B2094655D26DA7FE479C","title":"蕃祉里四街(东门)","lon":"121.45901","lat":"31.22842","category":"47","category_name":"住宅区","address":"茂名北路285弄4-8号"},{"poiid":"B2094655D26FA7FA469C","title":"德庆里(三门)","lon":"121.45925","lat":"31.22846","category":"47","category_name":"住宅区","address":"茂名北路282弄3-19号"},{"poiid":"B2094655D26DA7FE429B","title":"蕃祉里五街(东门)","lon":"121.4589","lat":"31.22862","category":"47","category_name":"住宅区","address":"茂名北路293弄4-8号"},{"poiid":"B2094655D26DA7FE4899","title":"蕃祉里六街(东门)","lon":"121.4588","lat":"31.22875","category":"47","category_name":"住宅区","address":"茂名北路303弄4-8号"},{"poiid":"B2094757D06FA4F5439B","title":"全家便利(南京西路站店)","lon":"121.459681","lat":"31.229765","category":"117","category_name":"便民商店/便利店","address":"上海静安区南京西路地铁二号线2-120室(茂名北路吴江路)"},{"poiid":"B2094757D064A7FC429F","title":"麻辣烫捞~","lon":"121.4598999","lat":"31.229562759","category":"500","category_name":"未知分类","address":"上海吴江路202号"},{"poiid":"B2094654DA6CA1F5469F","title":"龙凤旗袍","lon":"121.45888","lat":"31.22999","category":"141","category_name":"服装鞋帽皮具店","address":"静安区南京西路942号"},{"poiid":"B2094757D06BAAFA4699","title":"Sebraner丝柏娜美甲中心","lon":"121.45995573","lat":"31.229629287","category":"148","category_name":"美容美发店","address":"上海吴江路169号四季坊146单元"},{"poiid":"B2094757D065A6F9479E","title":"艾手艾脚(吴江路店)","lon":"121.46014","lat":"31.22971","category":"122","category_name":"个人用品/化妆品店","address":"上海静安区吴江路步行街(近石门一路)"},{"poiid":"B2094757D66EA7FA4398","title":"老虎脚掌","lon":"121.45918873","lat":"31.229365281","category":"141","category_name":"服装鞋帽皮具店","address":"卢湾区长乐路67号(近重庆南路)"},{"poiid":"B2094655D265A0F54498","title":"英国格林威治大学中国代表处","lon":"121.45854","lat":"31.22892","category":"253","category_name":"校园生活","address":"南京西路993-995号锦江向阳大楼18层B座"},{"poiid":"B2094757D06AA0FD419D","title":"上行线(南京西路店)","lon":"121.45971359","lat":"31.229512281","category":"125","category_name":"书店","address":"上海静安区地铁二号线南京西路站"},{"poiid":"B2094655D26CAAFB4698","title":"缪斯","lon":"121.458","lat":"31.23004","category":"141","category_name":"服装鞋帽皮具店","address":""},{"poiid":"B2094655D26EA2F94499","title":"史努比","lon":"121.4595","lat":"31.23002","category":"141","category_name":"服装鞋帽皮具店","address":"南京西路893-1"},{"poiid":"B2094757D16AA4F4469D","title":"上海评弹团","lon":"121.458395738","lat":"31.2293662817","category":"500","category_name":"未知分类","address":"上海南京西路860号"},{"poiid":"B2094753DB69A1F9409A","title":"许留山","lon":"121.45877","lat":"31.229215","category":"500","category_name":"未知分类","address":"上海市 吴江路"},{"poiid":"B2094655D265AAFB4798","title":"俪晶上门保健会所","lon":"121.45984","lat":"31.2303","category":"208","category_name":"休闲场所","address":"南京西路888号"},{"poiid":"B2094654DA6CA1FB489A","title":"MS.","lon":"121.45915","lat":"31.22813","category":"141","category_name":"服装鞋帽皮具店","address":"茂名北路267弄4"},{"poiid":"B2094655D265AAFC4493","title":"Levi's(静安四季北)","lon":"121.45989","lat":"31.22927","category":"141","category_name":"服装鞋帽皮具店","address":""},{"poiid":"B2094757D66DA5FD409B","title":"I Do Nails","lon":"121.45794","lat":"31.22878","category":"122","category_name":"个人用品/化妆品店","address":"上海静安区南汇路10弄7号(梅龙镇伊势丹对面)  "},{"poiid":"B2094654DA6CA1F4419D","title":"BABY","lon":"121.45925","lat":"31.2285","category":"141","category_name":"服装鞋帽皮具店","address":"茂名北路282弄3-2"},{"poiid":"B2094655D26DA6F5429F","title":"MOOJOO TM","lon":"121.45814","lat":"31.2303","category":"141","category_name":"服装鞋帽皮具店","address":"奉贤路194"},{"poiid":"B2094655D26EA2FB469E","title":"静安置业进修学校职业见习基地","lon":"121.45854","lat":"31.22841","category":"253","category_name":"校园生活","address":"南京西路995弄23号"},{"poiid":"B2094757D06FA2FD499D","title":"PUMA(南京西路店)","lon":"121.45863","lat":"31.2288","category":"140","category_name":"体育用品店","address":"上海静安区南京西路993号(近茂名北路)"},{"poiid":"B2094757D16DA1F8409B","title":"188 Trade Center (188商务广场)","lon":"121.46007148","lat":"31.229930543","category":"500","category_name":"未知分类","address":"上海市静安区南京西路881号静安新时代大厦13楼"},{"poiid":"B209475CD56CAAFA4792","title":"etude house","lon":"121.458862","lat":"31.2303","category":"500","category_name":"未知分类","address":"上海市 四季坊104号"},{"poiid":"B2094654DA68A6FB4198","title":"青少年儿童世界","lon":"121.45845","lat":"31.22916","category":"208","category_name":"休闲场所","address":"南京西路993号"},{"poiid":"B209475CD469A4F4419B","title":"Nike Employee Store","lon":"121.458534","lat":"31.230304","category":"500","category_name":"未知分类","address":"上海市 江宁路293号201室"},{"poiid":"B2094757D16AA1F84893","title":"索菲密思","lon":"121.45921573","lat":"31.229620287","category":"500","category_name":"未知分类","address":"上海市静安区吳江路四季坊"},{"poiid":"B2094757D06FA1FD4898","title":"Nike放肆跑涂鸦墙","lon":"121.458838","lat":"31.229124","category":"500","category_name":"未知分类","address":"上海吴江路近茂名北路"},{"poiid":"B2094757D16FA0F5479E","title":"稻绿洲","lon":"121.45878473","lat":"31.22885727","category":"500","category_name":"未知分类","address":"上海吴江路湟普汇一楼"},{"poiid":"B2094757D168AAF4409F","title":"瑞泰大酒店3楼会议中心","lon":"121.459765","lat":"31.229702","category":"217","category_name":"旅馆招待所","address":"上海泰兴路178号"},{"poiid":"B2094654DA6CA2FF429A","title":"深圳发展银行上海南京西路支行","lon":"121.45935","lat":"31.23035","category":"150","category_name":"银行","address":"南京西路920"},{"poiid":"B2094757D164A0FF439A","title":"Bikram yoga shanghai","lon":"121.458523738","lat":"31.2293582815","category":"500","category_name":"未知分类","address":"上海市静安区江宁路81号三楼"},{"poiid":"B2094757D064A4FB429F","title":"名线","lon":"121.45977","lat":"31.22988","category":"500","category_name":"未知分类","address":"静安区南京西路891号(近泰兴路)"},{"poiid":"B2094757D065A4FA449A","title":"凯司令(定西路店)","lon":"121.45806817","lat":"31.228880367","category":"500","category_name":"未知分类","address":"上海定西路1035号靠近延安西路"},{"poiid":"B2094757D06AA0F84793","title":"上海儿童食品商店","lon":"121.45844","lat":"31.22901","category":"260","category_name":"其他","address":"静安区南京西路984-986号(近茂名北路)"},{"poiid":"B2094757D16DA3FD489D","title":"克丽缇娜(奉贤路店)","lon":"121.45813","lat":"31.22995","category":"148","category_name":"美容美发店","address":"静安区奉贤路218号(近梅龙镇广场后门)"},{"poiid":"B2094757D16DA2F5429D","title":"雁荡山","lon":"121.45943893","lat":"31.229598686","category":"500","category_name":"未知分类","address":"温州乐清境内  "},{"poiid":"B2094654DA6CA1F5479B","title":"上海市东方弘韵少儿艺术团","lon":"121.45838","lat":"31.22974","category":"189","category_name":"文艺团体","address":"南京西路962"},{"poiid":"B2094757D16BA0FF479D","title":"优科豪马轮胎","lon":"121.45863173","lat":"31.229220278","category":"500","category_name":"未知分类","address":"上海市宝山区一二八纪念路723号"},{"poiid":"B2094654DA6CA1FB499B","title":"通利琴行(茂名北路)","lon":"121.45852","lat":"31.22909","category":"255","category_name":"专卖店","address":"南京西路993-995号锦江向阳大楼B1层"},{"poiid":"B2094753DA65A0FE429D","title":"上海无尚刺青工作室","lon":"121.458004","lat":"31.230404","category":"248","category_name":"生活娱乐","address":"奉贤路194号西（梅陇镇广场后门）"},{"poiid":"B2094757D164A2FB489E","title":"喜力许愿树","lon":"121.458896932","lat":"31.2292132815","category":"500","category_name":"未知分类","address":"上海市吴江路四季坊商业街"},{"poiid":"B2094757D16DA4FB449E","title":"Shinning美甲沙龙","lon":"121.45809173","lat":"31.229592286","category":"148","category_name":"美容美发店","address":"上海市静安区奉贤路196号东间"},{"poiid":"B2094757D66DA0F4499C","title":"锦江向阳停车场","lon":"121.458735738","lat":"31.2287422684","category":"500","category_name":"未知分类","address":"上海茂明北路吴江路口"},{"poiid":"B2094757D065A1F5459F","title":"bossini","lon":"121.457893","lat":"31.22883","category":"500","category_name":"未知分类","address":"上海南京西路1009号"},{"poiid":"B2094757D165A6F54592","title":"国雄餐厅","lon":"121.45907973","lat":"31.229399282","category":"500","category_name":"未知分类","address":"上海市静安区奉贤路南汇路"},{"poiid":"B2094757D568A0F54093","title":"中国2010年上海世博会特许商品零售店(南京西路)","lon":"121.45971246","lat":"31.23038818","category":"255","category_name":"专卖店","address":"中国上海市静安区南京西路896"},{"poiid":"B2094655D26AAAFC459A","title":"强生汽车租赁南京西路店","lon":"121.45914","lat":"31.23055","category":"161","category_name":"汽车租赁","address":"静安区南京西路920号南泰大厦8楼;;"},{"poiid":"B2094757D169AAFF459C","title":"瑞慈假日酒店","lon":"121.45874473","lat":"31.229366281","category":"217","category_name":"旅馆招待所","address":"南通市"},{"poiid":"B2094757D568ABFD4992","title":"塞拉维","lon":"121.4596631","lat":"31.23008889","category":"249","category_name":"购物服务","address":"静安区南京西路891号(近泰兴路)"},{"poiid":"B2094757D569A6FE4698","title":"COBO南京西路店","lon":"121.4598689","lat":"31.23015889","category":"249","category_name":"购物服务","address":"静安区南京西路889号A4商铺(近石门一路)"},{"poiid":"B2094655D26FA5FB439C","title":"锦江向阳大楼(东门)","lon":"121.45874","lat":"31.22882","category":"48","category_name":"楼宇大门","address":""},{"poiid":"B2094757D064A7F54299","title":"华建二街坊","lon":"121.460189738","lat":"31.2291262766","category":"252","category_name":"楼宇机构","address":"上海徐汇区老沪闵路1290弄"},{"poiid":"B2094757D568A7FF489D","title":"艾·希尔","lon":"121.4596631","lat":"31.23008889","category":"249","category_name":"购物服务","address":"南京西路891号"},{"poiid":"B2094757D568A6F5429B","title":"Cos Mart","lon":"121.46014893","lat":"31.22945584","category":"249","category_name":"购物服务","address":"中国上海市静安区吴江路160"},{"poiid":"B2094757D66CA3F54998","title":"鸥美药妆(吴江路店)","lon":"121.46006353","lat":"31.229408582","category":"249","category_name":"购物服务","address":"静安区吴江路169号四季坊1楼119号(近石门一路)"},{"poiid":"B2094757D065AAFE4992","title":"Hooper狐朋","lon":"121.45836473","lat":"31.229189277","category":"260","category_name":"其他","address":"静安区南京西路1025弄静安别墅41号(近茂名路)"},{"poiid":"B2094654DB69ABF8429E","title":"欧罗咖啡(南京西路店)","lon":"121.45809","lat":"31.22893","category":"260","category_name":"其他","address":"静安区南京西路1001号1楼(茂名北路口)"},{"poiid":"B2094654DA6CA1F4409C","title":"上海利仕达投资管理有限公司(茂名北路)","lon":"121.45854","lat":"31.22891","category":"263","category_name":"公司","address":"南京西路993-995号锦江向阳大楼14层"},{"poiid":"B2094757D569A6FA489E","title":"雷诺瓦拼图文化坊(四季店)","lon":"121.459055","lat":"31.229197","category":"248","category_name":"生活娱乐","address":"吴江路169号四季坊236室"},{"poiid":"B2094655D26DA2FD409C","title":"皇家壹号No.1","lon":"121.45986","lat":"31.23015","category":"248","category_name":"生活娱乐","address":"南京西路889号"},{"poiid":"B2094654DA6CA2FF4298","title":"强生国际旅行社","lon":"121.45922","lat":"31.2304","category":"248","category_name":"生活娱乐","address":""},{"poiid":"B2094757D16BABF5449D","title":"海天网联","lon":"121.460082738","lat":"31.2299552942","category":"248","category_name":"生活娱乐","address":"上海市静安区吴江路188号8楼"},{"poiid":"B2094752D36DAAF8449D","title":"上海静安瑞泰酒店","lon":"121.459","lat":"31.228287","category":"251","category_name":"出行住宿","address":"上海静安区泰兴路178号"},{"poiid":"B2094757D069A3F9429E","title":"1/2 Eternity","lon":"121.45849173","lat":"31.229548285","category":"260","category_name":"其他","address":"静安区南京西路1025弄静安别墅123号"},{"poiid":"B2094757D06BABF5439E","title":"小鸡啄米","lon":"121.458897406","lat":"31.2293278879","category":"260","category_name":"其他","address":"静安店：南京西路1025弄81号1楼徐汇店：乌鲁木齐南路75弄2号-1"},{"poiid":"B2094757D16EA3FF429C","title":"强生票务中心(南西店)","lon":"121.45962","lat":"31.23008","category":"260","category_name":"其他","address":"静安区南京西路920号南泰大厦内(近泰兴路)"},{"poiid":"B2094654DA6CA1F54598","title":"静安四季(西门)","lon":"121.45999","lat":"31.22901","category":"656","category_name":"大门","address":"泰兴路158号"},{"poiid":"B2094655D26FA7FB409C","title":"经典茂名公寓(西门)","lon":"121.45918","lat":"31.22862","category":"656","category_name":"大门","address":"茂名北路318"},{"poiid":"B2094655D268ABFC489A","title":"经典茂名公寓(东门)","lon":"121.45977","lat":"31.2289","category":"656","category_name":"大门","address":""}]