[{"poiid":"B2094757D06FA2FA429B","title":"上海国际时尚中心","lon":"121.55726862","lat":"31.270837313","category":"260","category_name":"其他","address":"杨浦区杨树浦路2866号(近内江路)"},{"poiid":"B2094654D56FA7F44298","title":"上海市杨浦区中心医院","lon":"121.55075","lat":"31.27167","category":"162","category_name":"医院","address":"杨浦区腾越路450号(海州路腾越路)"},{"poiid":"B2094750D76CA3FC4492","title":"金钱豹(杨树浦路店)","lon":"121.557","lat":"31.2714","category":"87","category_name":"特色／地方风味餐厅","address":"杨树浦路2866号(近内江路6月开业)"},{"poiid":"B2094757D06FA2FC409F","title":"上海电力学院(平凉路校区)","lon":"121.5476","lat":"31.27139","category":"671","category_name":"高校中心点","address":"杨浦区平凉路2103号(近隆昌路)"},{"poiid":"B2094752D36BA0F8479F","title":"星巴克(杨树浦路店)","lon":"121.557357","lat":"31.271385","category":"247","category_name":"餐饮美食","address":"杨浦区杨树浦路2866号(近内江路)"},{"poiid":"B2094655D36CA1FF4698","title":"隆昌路平凉路","lon":"121.54691","lat":"31.27038","category":"38","category_name":"公交车站","address":""},{"poiid":"B2094757D06FA5FD439C","title":"定海路","lon":"121.553181","lat":"31.27667","category":"500","category_name":"未知分类","address":"上海定海路"},{"poiid":"B2094750DB6DA0F5409A","title":"米瑟 MIXER","lon":"121.557283","lat":"31.271839","category":"67","category_name":"甜品店","address":"杨浦区杨树浦路2866号国际时尚中心(近内江路)"},{"poiid":"B2094654DB6BA2F84393","title":"上海市杨浦区中心医院门诊","lon":"121.54994","lat":"31.27151","category":"162","category_name":"医院","address":"腾越路450号"},{"poiid":"B2094757D06AA5FD459A","title":"杨浦区中心医院急诊室","lon":"121.549722203","lat":"31.2726692692","category":"902","category_name":"楼宇机构","address":null},{"poiid":"B2094757D06FA1FE4198","title":"上海市杨浦区公安分局","lon":"121.5467706","lat":"31.270775033","category":"260","category_name":"其他","address":"上海市杨浦区平凉路2049号"},{"poiid":"B2094655D36DA0F9429A","title":"杨树浦路内江路","lon":"121.55652","lat":"31.2711","category":"38","category_name":"公交车站","address":""},{"poiid":"B2094750DB6DA1FC4293","title":"杨浦 奥特莱斯","lon":"121.55368","lat":"31.272339","category":"249","category_name":"购物服务","address":"杨树浦路"},{"poiid":"B2094757D16CA0F44193","title":"东外滩一号","lon":"121.5498301","lat":"31.271440443","category":"500","category_name":"未知分类","address":"上海市杨浦区内江路(近杨树浦路)"},{"poiid":"B2094750D26FA5FC499D","title":"阁楼足球会所","lon":"121.554924","lat":"31.271301","category":"248","category_name":"生活娱乐","address":"杨浦区贵阳路38号(近杨树浦路)"},{"poiid":"B2094750D56AA0FC479C","title":"东外滩1号","lon":"121.554301","lat":"31.273948","category":"47","category_name":"住宅区","address":"杨浦区内江路16弄(近杨树浦路)"},{"poiid":"B2094751DA6AAAF54099","title":"星巴克时尚中心店","lon":"121.558759","lat":"31.271","category":"247","category_name":"餐饮美食","address":null},{"poiid":"B2094757D164A7FB459F","title":"杨树浦路隆昌路","lon":"121.553443903","lat":"31.2691503957","category":"47","category_name":"住宅区","address":"上海杨树浦路2569弄"},{"poiid":"B2094757D16BA6FC429E","title":"上海国家保密局","lon":"121.55471453","lat":"31.269237939","category":"247","category_name":"餐饮美食","address":"上海凉州路381号"},{"poiid":"B2094757D068A6FD4998","title":"益民小区","lon":"121.55239","lat":"31.277092","category":"47","category_name":"住宅区","address":"上海平凉路2545弄"},{"poiid":"B2094757D66DAAF4409F","title":"同濟大學附屬楊浦中心醫院","lon":"121.554519339","lat":"31.2694552445","category":"500","category_name":"未知分类","address":"上海楊浦區隆昌路"},{"poiid":"B2094654D56FA7F4429D","title":"波阳公园","lon":"121.55166","lat":"31.27222","category":"196","category_name":"公园","address":"杨浦区波阳路200号(近贵阳路)"},{"poiid":"B2094757D069A5F84192","title":"新亚大包 腾越路店","lon":"121.549597054","lat":"31.271465793","category":"68","category_name":"快餐厅","address":"杨浦区腾越路467号(波阳路腾越路)"},{"poiid":"B2094757D069A6F9479E","title":"靛卧阁","lon":"121.5535736","lat":"31.272186279","category":"46","category_name":"楼宇","address":"上海靛苑深处"},{"poiid":"B2094655D36CA1FF459D","title":"隆昌路杨树浦路","lon":"121.55057","lat":"31.26848","category":"38","category_name":"公交车站","address":""},{"poiid":"B2094757D66EA3F9499D","title":"腾越路兰州拉面","lon":"121.55096","lat":"31.27041","category":"68","category_name":"快餐厅","address":"杨浦区腾越路(近海州路)"},{"poiid":"B2094655D26BA1FC4898","title":"平凉路贵阳路","lon":"121.5497","lat":"31.27382","category":"38","category_name":"公交车站","address":""},{"poiid":"B2094752D26DA6FF4599","title":"珍得巧克力剧院","lon":"121.55661","lat":"31.2713","category":"67","category_name":"甜品店","address":"杨浦区杨树浦路2866号上海国际时尚中心内(近内江路)"},{"poiid":"B2094654D56FA7F44799","title":"上海市辛灵中学","lon":"121.55094","lat":"31.26942","category":"55","category_name":"中学","address":"海州路268"},{"poiid":"B2094757D165A7FD4593","title":"海州路418弄小区","lon":"121.551634575","lat":"31.2713594555","category":"47","category_name":"住宅区","address":"上海市杨浦区海州路"},{"poiid":"B2094757D16DABF94099","title":"定海桥","lon":"121.56081333","lat":"31.271165283","category":"500","category_name":"未知分类","address":"上海杨浦区定海路"},{"poiid":"B2094757D069A6F44493","title":"海州路105弄小区","lon":"121.55370315599","lat":"31.273427940307","category":"47","category_name":"住宅区","address":"上海海州路105弄"},{"poiid":"B2094751DA65A4F5479E","title":"星巴克","lon":"121.556102","lat":"31.274213","category":"247","category_name":"餐饮美食","address":"杨树浦路店"},{"poiid":"B2094655D264AAFC459E","title":"裕康里","lon":"121.55602","lat":"31.27126","category":"47","category_name":"住宅区","address":""},{"poiid":"B2094655D26BA5FF499A","title":"裕康里(东南门)","lon":"121.5562","lat":"31.27108","category":"47","category_name":"住宅区","address":""},{"poiid":"B2094757D16BA2FA489F","title":"贵阳路143弄","lon":"121.552094403","lat":"31.2710232348","category":"500","category_name":"未知分类","address":"上海贵阳路143弄83之弄8号"},{"poiid":"B2094757D06BA1FD469E","title":"强强熟食店","lon":"121.54965","lat":"31.26891","category":"68","category_name":"快餐厅","address":"杨浦区隆昌路164号(近海州路)"},{"poiid":"B2094655D26CA5F9439D","title":"大德里小区","lon":"121.55157891683","lat":"31.269477004249","category":"47","category_name":"住宅区","address":"宜山北路9弄"},{"poiid":"B2094654D56FA7F4429E","title":"波阳小吃店","lon":"121.552","lat":"31.26904","category":"68","category_name":"快餐厅","address":"杨浦区腾越路(近杨浦区中心医院)"},{"poiid":"B2094655D265A3FE459D","title":"上海市东辽阳中学","lon":"121.55149","lat":"31.27343","category":"55","category_name":"中学","address":"贵阳路254"},{"poiid":"B2094757D16BAAFC489D","title":"老公家","lon":"121.55514533","lat":"31.270516268","category":"500","category_name":"未知分类","address":"海洲路105弄"},{"poiid":"B2094757D465A0FB459D","title":"福根餐厅","lon":"121.549595054","lat":"31.269061793","category":"76","category_name":"上海菜","address":"杨浦区海州路199号(近隆昌路)"},{"poiid":"B2094654DB64AAF4429D","title":"上海市贵阳中学","lon":"121.55149","lat":"31.27342","category":"55","category_name":"中学","address":"贵阳路254"},{"poiid":"B2094655D26CA3FC459F","title":"上海五州轴承座厂","lon":"121.55537","lat":"31.27069","category":"263","category_name":"公司","address":"贵阳路30弄2号"},{"poiid":"B2094757D66CAAFB4498","title":"波阳路冷库","lon":"121.5524201","lat":"31.270150416","category":"500","category_name":"未知分类","address":"上海市杨浦区平凉路"},{"poiid":"B2094655D265A3F9459A","title":"腾越路465弄小区(东北门)","lon":"121.54979","lat":"31.27114","category":"47","category_name":"住宅区","address":"腾越路465弄"},{"poiid":"B2094655D26BA4FF439F","title":"香樟苑","lon":"121.55647","lat":"31.27227","category":"47","category_name":"住宅区","address":""},{"poiid":"B2094654D56FA7F5499E","title":"隆昌路88弄小区","lon":"121.55026","lat":"31.26895","category":"47","category_name":"住宅区","address":"隆昌路88弄"},{"poiid":"B2094654D56FA6FC4699","title":"天天唱吧No.03","lon":"121.5541","lat":"31.27341","category":"170","category_name":"KTV","address":""},{"poiid":"B2094757D169A1FF439B","title":"隆昌路东方书报亭","lon":"121.553543091","lat":"31.2721672058","category":"500","category_name":"未知分类","address":"上海隆昌路542弄口（近长阳路）"},{"poiid":"B2094757D06FA2FA429B","title":"上海国际时尚中心","lon":"121.55726862","lat":"31.270837313","category":"260","category_name":"其他","address":"杨浦区杨树浦路2866号(近内江路)"},{"poiid":"B2094654D56FA7F44298","title":"上海市杨浦区中心医院","lon":"121.55075","lat":"31.27167","category":"162","category_name":"医院","address":"杨浦区腾越路450号(海州路腾越路)"},{"poiid":"B2094750D76CA3FC4492","title":"金钱豹(杨树浦路店)","lon":"121.557","lat":"31.2714","category":"87","category_name":"特色／地方风味餐厅","address":"杨树浦路2866号(近内江路6月开业)"},{"poiid":"B2094757D06FA2FC409F","title":"上海电力学院(平凉路校区)","lon":"121.5476","lat":"31.27139","category":"671","category_name":"高校中心点","address":"杨浦区平凉路2103号(近隆昌路)"},{"poiid":"B2094752D36BA0F8479F","title":"星巴克(杨树浦路店)","lon":"121.557357","lat":"31.271385","category":"247","category_name":"餐饮美食","address":"杨浦区杨树浦路2866号(近内江路)"},{"poiid":"B2094655D36CA1FF4698","title":"隆昌路平凉路","lon":"121.54691","lat":"31.27038","category":"38","category_name":"公交车站","address":""},{"poiid":"B2094757D06FA5FD439C","title":"定海路","lon":"121.553181","lat":"31.27667","category":"500","category_name":"未知分类","address":"上海定海路"},{"poiid":"B2094750DB6DA0F5409A","title":"米瑟 MIXER","lon":"121.557283","lat":"31.271839","category":"67","category_name":"甜品店","address":"杨浦区杨树浦路2866号国际时尚中心(近内江路)"},{"poiid":"B2094654DB6BA2F84393","title":"上海市杨浦区中心医院门诊","lon":"121.54994","lat":"31.27151","category":"162","category_name":"医院","address":"腾越路450号"},{"poiid":"B2094757D06AA5FD459A","title":"杨浦区中心医院急诊室","lon":"121.549722203","lat":"31.2726692692","category":"902","category_name":"楼宇机构","address":null},{"poiid":"B2094757D06FA1FE4198","title":"上海市杨浦区公安分局","lon":"121.5467706","lat":"31.270775033","category":"260","category_name":"其他","address":"上海市杨浦区平凉路2049号"},{"poiid":"B2094655D36DA0F9429A","title":"杨树浦路内江路","lon":"121.55652","lat":"31.2711","category":"38","category_name":"公交车站","address":""},{"poiid":"B2094750DB6DA1FC4293","title":"杨浦 奥特莱斯","lon":"121.55368","lat":"31.272339","category":"249","category_name":"购物服务","address":"杨树浦路"},{"poiid":"B2094757D16CA0F44193","title":"东外滩一号","lon":"121.5498301","lat":"31.271440443","category":"500","category_name":"未知分类","address":"上海市杨浦区内江路(近杨树浦路)"},{"poiid":"B2094750D26FA5FC499D","title":"阁楼足球会所","lon":"121.554924","lat":"31.271301","category":"248","category_name":"生活娱乐","address":"杨浦区贵阳路38号(近杨树浦路)"},{"poiid":"B2094750D56AA0FC479C","title":"东外滩1号","lon":"121.554301","lat":"31.273948","category":"47","category_name":"住宅区","address":"杨浦区内江路16弄(近杨树浦路)"},{"poiid":"B2094751DA6AAAF54099","title":"星巴克时尚中心店","lon":"121.558759","lat":"31.271","category":"247","category_name":"餐饮美食","address":null},{"poiid":"B2094757D164A7FB459F","title":"杨树浦路隆昌路","lon":"121.553443903","lat":"31.2691503957","category":"47","category_name":"住宅区","address":"上海杨树浦路2569弄"},{"poiid":"B2094757D16BA6FC429E","title":"上海国家保密局","lon":"121.55471453","lat":"31.269237939","category":"247","category_name":"餐饮美食","address":"上海凉州路381号"},{"poiid":"B2094757D068A6FD4998","title":"益民小区","lon":"121.55239","lat":"31.277092","category":"47","category_name":"住宅区","address":"上海平凉路2545弄"},{"poiid":"B2094757D66DAAF4409F","title":"同濟大學附屬楊浦中心醫院","lon":"121.554519339","lat":"31.2694552445","category":"500","category_name":"未知分类","address":"上海楊浦區隆昌路"},{"poiid":"B2094654D56FA7F4429D","title":"波阳公园","lon":"121.55166","lat":"31.27222","category":"196","category_name":"公园","address":"杨浦区波阳路200号(近贵阳路)"},{"poiid":"B2094757D069A5F84192","title":"新亚大包 腾越路店","lon":"121.549597054","lat":"31.271465793","category":"68","category_name":"快餐厅","address":"杨浦区腾越路467号(波阳路腾越路)"},{"poiid":"B2094757D069A6F9479E","title":"靛卧阁","lon":"121.5535736","lat":"31.272186279","category":"46","category_name":"楼宇","address":"上海靛苑深处"},{"poiid":"B2094655D36CA1FF459D","title":"隆昌路杨树浦路","lon":"121.55057","lat":"31.26848","category":"38","category_name":"公交车站","address":""},{"poiid":"B2094757D66EA3F9499D","title":"腾越路兰州拉面","lon":"121.55096","lat":"31.27041","category":"68","category_name":"快餐厅","address":"杨浦区腾越路(近海州路)"},{"poiid":"B2094655D26BA1FC4898","title":"平凉路贵阳路","lon":"121.5497","lat":"31.27382","category":"38","category_name":"公交车站","address":""},{"poiid":"B2094752D26DA6FF4599","title":"珍得巧克力剧院","lon":"121.55661","lat":"31.2713","category":"67","category_name":"甜品店","address":"杨浦区杨树浦路2866号上海国际时尚中心内(近内江路)"},{"poiid":"B2094654D56FA7F44799","title":"上海市辛灵中学","lon":"121.55094","lat":"31.26942","category":"55","category_name":"中学","address":"海州路268"},{"poiid":"B2094757D165A7FD4593","title":"海州路418弄小区","lon":"121.551634575","lat":"31.2713594555","category":"47","category_name":"住宅区","address":"上海市杨浦区海州路"},{"poiid":"B2094757D16DABF94099","title":"定海桥","lon":"121.56081333","lat":"31.271165283","category":"500","category_name":"未知分类","address":"上海杨浦区定海路"},{"poiid":"B2094757D069A6F44493","title":"海州路105弄小区","lon":"121.55370315599","lat":"31.273427940307","category":"47","category_name":"住宅区","address":"上海海州路105弄"},{"poiid":"B2094751DA65A4F5479E","title":"星巴克","lon":"121.556102","lat":"31.274213","category":"247","category_name":"餐饮美食","address":"杨树浦路店"},{"poiid":"B2094655D264AAFC459E","title":"裕康里","lon":"121.55602","lat":"31.27126","category":"47","category_name":"住宅区","address":""},{"poiid":"B2094655D26BA5FF499A","title":"裕康里(东南门)","lon":"121.5562","lat":"31.27108","category":"47","category_name":"住宅区","address":""},{"poiid":"B2094757D16BA2FA489F","title":"贵阳路143弄","lon":"121.552094403","lat":"31.2710232348","category":"500","category_name":"未知分类","address":"上海贵阳路143弄83之弄8号"},{"poiid":"B2094757D06BA1FD469E","title":"强强熟食店","lon":"121.54965","lat":"31.26891","category":"68","category_name":"快餐厅","address":"杨浦区隆昌路164号(近海州路)"},{"poiid":"B2094655D26CA5F9439D","title":"大德里小区","lon":"121.55157891683","lat":"31.269477004249","category":"47","category_name":"住宅区","address":"宜山北路9弄"},{"poiid":"B2094654D56FA7F4429E","title":"波阳小吃店","lon":"121.552","lat":"31.26904","category":"68","category_name":"快餐厅","address":"杨浦区腾越路(近杨浦区中心医院)"},{"poiid":"B2094655D265A3FE459D","title":"上海市东辽阳中学","lon":"121.55149","lat":"31.27343","category":"55","category_name":"中学","address":"贵阳路254"},{"poiid":"B2094757D16BAAFC489D","title":"老公家","lon":"121.55514533","lat":"31.270516268","category":"500","category_name":"未知分类","address":"海洲路105弄"},{"poiid":"B2094757D465A0FB459D","title":"福根餐厅","lon":"121.549595054","lat":"31.269061793","category":"76","category_name":"上海菜","address":"杨浦区海州路199号(近隆昌路)"},{"poiid":"B2094654DB64AAF4429D","title":"上海市贵阳中学","lon":"121.55149","lat":"31.27342","category":"55","category_name":"中学","address":"贵阳路254"},{"poiid":"B2094655D26CA3FC459F","title":"上海五州轴承座厂","lon":"121.55537","lat":"31.27069","category":"263","category_name":"公司","address":"贵阳路30弄2号"},{"poiid":"B2094757D66CAAFB4498","title":"波阳路冷库","lon":"121.5524201","lat":"31.270150416","category":"500","category_name":"未知分类","address":"上海市杨浦区平凉路"},{"poiid":"B2094655D265A3F9459A","title":"腾越路465弄小区(东北门)","lon":"121.54979","lat":"31.27114","category":"47","category_name":"住宅区","address":"腾越路465弄"},{"poiid":"B2094655D26BA4FF439F","title":"香樟苑","lon":"121.55647","lat":"31.27227","category":"47","category_name":"住宅区","address":""},{"poiid":"B2094654D56FA7F5499E","title":"隆昌路88弄小区","lon":"121.55026","lat":"31.26895","category":"47","category_name":"住宅区","address":"隆昌路88弄"},{"poiid":"B2094654D56FA6FC4699","title":"天天唱吧No.03","lon":"121.5541","lat":"31.27341","category":"170","category_name":"KTV","address":""},{"poiid":"B2094757D169A1FF439B","title":"隆昌路东方书报亭","lon":"121.553543091","lat":"31.2721672058","category":"500","category_name":"未知分类","address":"上海隆昌路542弄口（近长阳路）"},{"poiid":"B2094757D06FA2FA429B","title":"上海国际时尚中心","lon":"121.55726862","lat":"31.270837313","category":"260","category_name":"其他","address":"杨浦区杨树浦路2866号(近内江路)"},{"poiid":"B2094654D56FA7F44298","title":"上海市杨浦区中心医院","lon":"121.55075","lat":"31.27167","category":"162","category_name":"医院","address":"杨浦区腾越路450号(海州路腾越路)"},{"poiid":"B2094750D76CA3FC4492","title":"金钱豹(杨树浦路店)","lon":"121.557","lat":"31.2714","category":"87","category_name":"特色／地方风味餐厅","address":"杨树浦路2866号(近内江路6月开业)"},{"poiid":"B2094757D06FA2FC409F","title":"上海电力学院(平凉路校区)","lon":"121.5476","lat":"31.27139","category":"671","category_name":"高校中心点","address":"杨浦区平凉路2103号(近隆昌路)"},{"poiid":"B2094752D36BA0F8479F","title":"星巴克(杨树浦路店)","lon":"121.557357","lat":"31.271385","category":"247","category_name":"餐饮美食","address":"杨浦区杨树浦路2866号(近内江路)"},{"poiid":"B2094655D36CA1FF4698","title":"隆昌路平凉路","lon":"121.54691","lat":"31.27038","category":"38","category_name":"公交车站","address":""},{"poiid":"B2094757D06FA5FD439C","title":"定海路","lon":"121.553181","lat":"31.27667","category":"500","category_name":"未知分类","address":"上海定海路"},{"poiid":"B2094750DB6DA0F5409A","title":"米瑟 MIXER","lon":"121.557283","lat":"31.271839","category":"67","category_name":"甜品店","address":"杨浦区杨树浦路2866号国际时尚中心(近内江路)"},{"poiid":"B2094654DB6BA2F84393","title":"上海市杨浦区中心医院门诊","lon":"121.54994","lat":"31.27151","category":"162","category_name":"医院","address":"腾越路450号"},{"poiid":"B2094757D06AA5FD459A","title":"杨浦区中心医院急诊室","lon":"121.549722203","lat":"31.2726692692","category":"902","category_name":"楼宇机构","address":null},{"poiid":"B2094757D06FA1FE4198","title":"上海市杨浦区公安分局","lon":"121.5467706","lat":"31.270775033","category":"260","category_name":"其他","address":"上海市杨浦区平凉路2049号"},{"poiid":"B2094655D36DA0F9429A","title":"杨树浦路内江路","lon":"121.55652","lat":"31.2711","category":"38","category_name":"公交车站","address":""},{"poiid":"B2094750DB6DA1FC4293","title":"杨浦 奥特莱斯","lon":"121.55368","lat":"31.272339","category":"249","category_name":"购物服务","address":"杨树浦路"},{"poiid":"B2094757D16CA0F44193","title":"东外滩一号","lon":"121.5498301","lat":"31.271440443","category":"500","category_name":"未知分类","address":"上海市杨浦区内江路(近杨树浦路)"},{"poiid":"B2094750D26FA5FC499D","title":"阁楼足球会所","lon":"121.554924","lat":"31.271301","category":"248","category_name":"生活娱乐","address":"杨浦区贵阳路38号(近杨树浦路)"},{"poiid":"B2094750D56AA0FC479C","title":"东外滩1号","lon":"121.554301","lat":"31.273948","category":"47","category_name":"住宅区","address":"杨浦区内江路16弄(近杨树浦路)"},{"poiid":"B2094751DA6AAAF54099","title":"星巴克时尚中心店","lon":"121.558759","lat":"31.271","category":"247","category_name":"餐饮美食","address":null},{"poiid":"B2094757D164A7FB459F","title":"杨树浦路隆昌路","lon":"121.553443903","lat":"31.2691503957","category":"47","category_name":"住宅区","address":"上海杨树浦路2569弄"},{"poiid":"B2094757D16BA6FC429E","title":"上海国家保密局","lon":"121.55471453","lat":"31.269237939","category":"247","category_name":"餐饮美食","address":"上海凉州路381号"},{"poiid":"B2094757D068A6FD4998","title":"益民小区","lon":"121.55239","lat":"31.277092","category":"47","category_name":"住宅区","address":"上海平凉路2545弄"},{"poiid":"B2094757D66DAAF4409F","title":"同濟大學附屬楊浦中心醫院","lon":"121.554519339","lat":"31.2694552445","category":"500","category_name":"未知分类","address":"上海楊浦區隆昌路"},{"poiid":"B2094654D56FA7F4429D","title":"波阳公园","lon":"121.55166","lat":"31.27222","category":"196","category_name":"公园","address":"杨浦区波阳路200号(近贵阳路)"},{"poiid":"B2094757D069A5F84192","title":"新亚大包 腾越路店","lon":"121.549597054","lat":"31.271465793","category":"68","category_name":"快餐厅","address":"杨浦区腾越路467号(波阳路腾越路)"},{"poiid":"B2094757D069A6F9479E","title":"靛卧阁","lon":"121.5535736","lat":"31.272186279","category":"46","category_name":"楼宇","address":"上海靛苑深处"},{"poiid":"B2094655D36CA1FF459D","title":"隆昌路杨树浦路","lon":"121.55057","lat":"31.26848","category":"38","category_name":"公交车站","address":""},{"poiid":"B2094757D66EA3F9499D","title":"腾越路兰州拉面","lon":"121.55096","lat":"31.27041","category":"68","category_name":"快餐厅","address":"杨浦区腾越路(近海州路)"},{"poiid":"B2094655D26BA1FC4898","title":"平凉路贵阳路","lon":"121.5497","lat":"31.27382","category":"38","category_name":"公交车站","address":""},{"poiid":"B2094752D26DA6FF4599","title":"珍得巧克力剧院","lon":"121.55661","lat":"31.2713","category":"67","category_name":"甜品店","address":"杨浦区杨树浦路2866号上海国际时尚中心内(近内江路)"},{"poiid":"B2094654D56FA7F44799","title":"上海市辛灵中学","lon":"121.55094","lat":"31.26942","category":"55","category_name":"中学","address":"海州路268"},{"poiid":"B2094757D165A7FD4593","title":"海州路418弄小区","lon":"121.551634575","lat":"31.2713594555","category":"47","category_name":"住宅区","address":"上海市杨浦区海州路"},{"poiid":"B2094757D16DABF94099","title":"定海桥","lon":"121.56081333","lat":"31.271165283","category":"500","category_name":"未知分类","address":"上海杨浦区定海路"},{"poiid":"B2094757D069A6F44493","title":"海州路105弄小区","lon":"121.55370315599","lat":"31.273427940307","category":"47","category_name":"住宅区","address":"上海海州路105弄"},{"poiid":"B2094751DA65A4F5479E","title":"星巴克","lon":"121.556102","lat":"31.274213","category":"247","category_name":"餐饮美食","address":"杨树浦路店"},{"poiid":"B2094655D264AAFC459E","title":"裕康里","lon":"121.55602","lat":"31.27126","category":"47","category_name":"住宅区","address":""},{"poiid":"B2094655D26BA5FF499A","title":"裕康里(东南门)","lon":"121.5562","lat":"31.27108","category":"47","category_name":"住宅区","address":""},{"poiid":"B2094757D16BA2FA489F","title":"贵阳路143弄","lon":"121.552094403","lat":"31.2710232348","category":"500","category_name":"未知分类","address":"上海贵阳路143弄83之弄8号"},{"poiid":"B2094757D06BA1FD469E","title":"强强熟食店","lon":"121.54965","lat":"31.26891","category":"68","category_name":"快餐厅","address":"杨浦区隆昌路164号(近海州路)"},{"poiid":"B2094655D26CA5F9439D","title":"大德里小区","lon":"121.55157891683","lat":"31.269477004249","category":"47","category_name":"住宅区","address":"宜山北路9弄"},{"poiid":"B2094654D56FA7F4429E","title":"波阳小吃店","lon":"121.552","lat":"31.26904","category":"68","category_name":"快餐厅","address":"杨浦区腾越路(近杨浦区中心医院)"},{"poiid":"B2094655D265A3FE459D","title":"上海市东辽阳中学","lon":"121.55149","lat":"31.27343","category":"55","category_name":"中学","address":"贵阳路254"},{"poiid":"B2094757D16BAAFC489D","title":"老公家","lon":"121.55514533","lat":"31.270516268","category":"500","category_name":"未知分类","address":"海洲路105弄"},{"poiid":"B2094757D465A0FB459D","title":"福根餐厅","lon":"121.549595054","lat":"31.269061793","category":"76","category_name":"上海菜","address":"杨浦区海州路199号(近隆昌路)"},{"poiid":"B2094654DB64AAF4429D","title":"上海市贵阳中学","lon":"121.55149","lat":"31.27342","category":"55","category_name":"中学","address":"贵阳路254"},{"poiid":"B2094655D26CA3FC459F","title":"上海五州轴承座厂","lon":"121.55537","lat":"31.27069","category":"263","category_name":"公司","address":"贵阳路30弄2号"},{"poiid":"B2094757D66CAAFB4498","title":"波阳路冷库","lon":"121.5524201","lat":"31.270150416","category":"500","category_name":"未知分类","address":"上海市杨浦区平凉路"},{"poiid":"B2094655D265A3F9459A","title":"腾越路465弄小区(东北门)","lon":"121.54979","lat":"31.27114","category":"47","category_name":"住宅区","address":"腾越路465弄"},{"poiid":"B2094655D26BA4FF439F","title":"香樟苑","lon":"121.55647","lat":"31.27227","category":"47","category_name":"住宅区","address":""},{"poiid":"B2094654D56FA7F5499E","title":"隆昌路88弄小区","lon":"121.55026","lat":"31.26895","category":"47","category_name":"住宅区","address":"隆昌路88弄"},{"poiid":"B2094654D56FA6FC4699","title":"天天唱吧No.03","lon":"121.5541","lat":"31.27341","category":"170","category_name":"KTV","address":""},{"poiid":"B2094757D169A1FF439B","title":"隆昌路东方书报亭","lon":"121.553543091","lat":"31.2721672058","category":"500","category_name":"未知分类","address":"上海隆昌路542弄口（近长阳路）"},{"poiid":"B2094757D06FA2FA429B","title":"上海国际时尚中心","lon":"121.55726862","lat":"31.270837313","category":"260","category_name":"其他","address":"杨浦区杨树浦路2866号(近内江路)"},{"poiid":"B2094654D56FA7F44298","title":"上海市杨浦区中心医院","lon":"121.55075","lat":"31.27167","category":"162","category_name":"医院","address":"杨浦区腾越路450号(海州路腾越路)"},{"poiid":"B2094750D76CA3FC4492","title":"金钱豹(杨树浦路店)","lon":"121.557","lat":"31.2714","category":"87","category_name":"特色／地方风味餐厅","address":"杨树浦路2866号(近内江路6月开业)"},{"poiid":"B2094757D06FA2FC409F","title":"上海电力学院(平凉路校区)","lon":"121.5476","lat":"31.27139","category":"671","category_name":"高校中心点","address":"杨浦区平凉路2103号(近隆昌路)"},{"poiid":"B2094752D36BA0F8479F","title":"星巴克(杨树浦路店)","lon":"121.557357","lat":"31.271385","category":"247","category_name":"餐饮美食","address":"杨浦区杨树浦路2866号(近内江路)"},{"poiid":"B2094655D36CA1FF4698","title":"隆昌路平凉路","lon":"121.54691","lat":"31.27038","category":"38","category_name":"公交车站","address":""},{"poiid":"B2094757D06FA5FD439C","title":"定海路","lon":"121.553181","lat":"31.27667","category":"500","category_name":"未知分类","address":"上海定海路"},{"poiid":"B2094750DB6DA0F5409A","title":"米瑟 MIXER","lon":"121.557283","lat":"31.271839","category":"67","category_name":"甜品店","address":"杨浦区杨树浦路2866号国际时尚中心(近内江路)"},{"poiid":"B2094654DB6BA2F84393","title":"上海市杨浦区中心医院门诊","lon":"121.54994","lat":"31.27151","category":"162","category_name":"医院","address":"腾越路450号"},{"poiid":"B2094757D06AA5FD459A","title":"杨浦区中心医院急诊室","lon":"121.549722203","lat":"31.2726692692","category":"902","category_name":"楼宇机构","address":null},{"poiid":"B2094757D06FA1FE4198","title":"上海市杨浦区公安分局","lon":"121.5467706","lat":"31.270775033","category":"260","category_name":"其他","address":"上海市杨浦区平凉路2049号"},{"poiid":"B2094655D36DA0F9429A","title":"杨树浦路内江路","lon":"121.55652","lat":"31.2711","category":"38","category_name":"公交车站","address":""},{"poiid":"B2094750DB6DA1FC4293","title":"杨浦 奥特莱斯","lon":"121.55368","lat":"31.272339","category":"249","category_name":"购物服务","address":"杨树浦路"},{"poiid":"B2094757D16CA0F44193","title":"东外滩一号","lon":"121.5498301","lat":"31.271440443","category":"500","category_name":"未知分类","address":"上海市杨浦区内江路(近杨树浦路)"},{"poiid":"B2094750D26FA5FC499D","title":"阁楼足球会所","lon":"121.554924","lat":"31.271301","category":"248","category_name":"生活娱乐","address":"杨浦区贵阳路38号(近杨树浦路)"},{"poiid":"B2094750D56AA0FC479C","title":"东外滩1号","lon":"121.554301","lat":"31.273948","category":"47","category_name":"住宅区","address":"杨浦区内江路16弄(近杨树浦路)"},{"poiid":"B2094751DA6AAAF54099","title":"星巴克时尚中心店","lon":"121.558759","lat":"31.271","category":"247","category_name":"餐饮美食","address":null},{"poiid":"B2094757D164A7FB459F","title":"杨树浦路隆昌路","lon":"121.553443903","lat":"31.2691503957","category":"47","category_name":"住宅区","address":"上海杨树浦路2569弄"},{"poiid":"B2094757D16BA6FC429E","title":"上海国家保密局","lon":"121.55471453","lat":"31.269237939","category":"247","category_name":"餐饮美食","address":"上海凉州路381号"},{"poiid":"B2094757D068A6FD4998","title":"益民小区","lon":"121.55239","lat":"31.277092","category":"47","category_name":"住宅区","address":"上海平凉路2545弄"},{"poiid":"B2094757D66DAAF4409F","title":"同濟大學附屬楊浦中心醫院","lon":"121.554519339","lat":"31.2694552445","category":"500","category_name":"未知分类","address":"上海楊浦區隆昌路"},{"poiid":"B2094654D56FA7F4429D","title":"波阳公园","lon":"121.55166","lat":"31.27222","category":"196","category_name":"公园","address":"杨浦区波阳路200号(近贵阳路)"},{"poiid":"B2094757D069A5F84192","title":"新亚大包 腾越路店","lon":"121.549597054","lat":"31.271465793","category":"68","category_name":"快餐厅","address":"杨浦区腾越路467号(波阳路腾越路)"},{"poiid":"B2094757D069A6F9479E","title":"靛卧阁","lon":"121.5535736","lat":"31.272186279","category":"46","category_name":"楼宇","address":"上海靛苑深处"},{"poiid":"B2094655D36CA1FF459D","title":"隆昌路杨树浦路","lon":"121.55057","lat":"31.26848","category":"38","category_name":"公交车站","address":""},{"poiid":"B2094757D66EA3F9499D","title":"腾越路兰州拉面","lon":"121.55096","lat":"31.27041","category":"68","category_name":"快餐厅","address":"杨浦区腾越路(近海州路)"},{"poiid":"B2094655D26BA1FC4898","title":"平凉路贵阳路","lon":"121.5497","lat":"31.27382","category":"38","category_name":"公交车站","address":""},{"poiid":"B2094752D26DA6FF4599","title":"珍得巧克力剧院","lon":"121.55661","lat":"31.2713","category":"67","category_name":"甜品店","address":"杨浦区杨树浦路2866号上海国际时尚中心内(近内江路)"},{"poiid":"B2094654D56FA7F44799","title":"上海市辛灵中学","lon":"121.55094","lat":"31.26942","category":"55","category_name":"中学","address":"海州路268"},{"poiid":"B2094757D165A7FD4593","title":"海州路418弄小区","lon":"121.551634575","lat":"31.2713594555","category":"47","category_name":"住宅区","address":"上海市杨浦区海州路"},{"poiid":"B2094757D16DABF94099","title":"定海桥","lon":"121.56081333","lat":"31.271165283","category":"500","category_name":"未知分类","address":"上海杨浦区定海路"},{"poiid":"B2094757D069A6F44493","title":"海州路105弄小区","lon":"121.55370315599","lat":"31.273427940307","category":"47","category_name":"住宅区","address":"上海海州路105弄"},{"poiid":"B2094751DA65A4F5479E","title":"星巴克","lon":"121.556102","lat":"31.274213","category":"247","category_name":"餐饮美食","address":"杨树浦路店"},{"poiid":"B2094655D264AAFC459E","title":"裕康里","lon":"121.55602","lat":"31.27126","category":"47","category_name":"住宅区","address":""},{"poiid":"B2094655D26BA5FF499A","title":"裕康里(东南门)","lon":"121.5562","lat":"31.27108","category":"47","category_name":"住宅区","address":""},{"poiid":"B2094757D16BA2FA489F","title":"贵阳路143弄","lon":"121.552094403","lat":"31.2710232348","category":"500","category_name":"未知分类","address":"上海贵阳路143弄83之弄8号"},{"poiid":"B2094757D06BA1FD469E","title":"强强熟食店","lon":"121.54965","lat":"31.26891","category":"68","category_name":"快餐厅","address":"杨浦区隆昌路164号(近海州路)"},{"poiid":"B2094655D26CA5F9439D","title":"大德里小区","lon":"121.55157891683","lat":"31.269477004249","category":"47","category_name":"住宅区","address":"宜山北路9弄"},{"poiid":"B2094654D56FA7F4429E","title":"波阳小吃店","lon":"121.552","lat":"31.26904","category":"68","category_name":"快餐厅","address":"杨浦区腾越路(近杨浦区中心医院)"},{"poiid":"B2094655D265A3FE459D","title":"上海市东辽阳中学","lon":"121.55149","lat":"31.27343","category":"55","category_name":"中学","address":"贵阳路254"},{"poiid":"B2094757D16BAAFC489D","title":"老公家","lon":"121.55514533","lat":"31.270516268","category":"500","category_name":"未知分类","address":"海洲路105弄"},{"poiid":"B2094757D465A0FB459D","title":"福根餐厅","lon":"121.549595054","lat":"31.269061793","category":"76","category_name":"上海菜","address":"杨浦区海州路199号(近隆昌路)"},{"poiid":"B2094654DB64AAF4429D","title":"上海市贵阳中学","lon":"121.55149","lat":"31.27342","category":"55","category_name":"中学","address":"贵阳路254"},{"poiid":"B2094655D26CA3FC459F","title":"上海五州轴承座厂","lon":"121.55537","lat":"31.27069","category":"263","category_name":"公司","address":"贵阳路30弄2号"},{"poiid":"B2094757D66CAAFB4498","title":"波阳路冷库","lon":"121.5524201","lat":"31.270150416","category":"500","category_name":"未知分类","address":"上海市杨浦区平凉路"},{"poiid":"B2094655D265A3F9459A","title":"腾越路465弄小区(东北门)","lon":"121.54979","lat":"31.27114","category":"47","category_name":"住宅区","address":"腾越路465弄"},{"poiid":"B2094655D26BA4FF439F","title":"香樟苑","lon":"121.55647","lat":"31.27227","category":"47","category_name":"住宅区","address":""},{"poiid":"B2094654D56FA7F5499E","title":"隆昌路88弄小区","lon":"121.55026","lat":"31.26895","category":"47","category_name":"住宅区","address":"隆昌路88弄"},{"poiid":"B2094654D56FA6FC4699","title":"天天唱吧No.03","lon":"121.5541","lat":"31.27341","category":"170","category_name":"KTV","address":""},{"poiid":"B2094757D169A1FF439B","title":"隆昌路东方书报亭","lon":"121.553543091","lat":"31.2721672058","category":"500","category_name":"未知分类","address":"上海隆昌路542弄口（近长阳路）"}]