[{"poiid":"B2094655D26AABFD499F","title":"好乐迪量贩式KTV（淮海中路店）","lon":"121.47092","lat":"31.22199","category":"170","category_name":"KTV","address":"卢湾区淮海中路438号4楼近重庆南路;;"},{"poiid":"B2094757D06FA2F54392","title":"淮海中路雁荡路","lon":"121.469795542","lat":"31.2212911035","category":"260","category_name":"其他","address":"上海淮海中路雁荡路"},{"poiid":"B2094757D06FA6FC419C","title":"Wagas 中环广场店","lon":"121.47261473","lat":"31.22224613","category":"94","category_name":"西餐厅","address":"上海卢湾区淮海中路淡水路中环广场"},{"poiid":"B2094753D76FAAFA449C","title":"上海滩国泰旗舰店","lon":"121.466011","lat":"31.216125","category":"249","category_name":"购物服务","address":"淮海中路868号"},{"poiid":"B209475CD564A7F84292","title":"上海滩新天地店","lon":"121.47463","lat":"31.22164","category":"119","category_name":"商场","address":"\"太仓路181弄新天地北里15号\r\n\""},{"poiid":"B209475CD564A7F8439E","title":"上海滩中信泰富店","lon":"121.45602","lat":"31.22851","category":"119","category_name":"商场","address":"\"南京西路1168号中信泰富广场，店铺号221.\r\n\""},{"poiid":"B2094757D06FA3FC489D","title":"屋企汤馆 淮海店","lon":"121.4708246443","lat":"31.221864028321","category":"72","category_name":"广东菜","address":"卢湾区淮海中路438号2楼(近重庆南路)"},{"poiid":"B2094757D064A5FD489B","title":"典谟新知咖啡馆","lon":"121.470884738","lat":"31.2210811051","category":"260","category_name":"其他","address":"卢湾区兴安路139号(近淮海路雁荡路)"},{"poiid":"B2094655D26BA3FC469D","title":"揽香精萃时尚餐厅","lon":"121.47306","lat":"31.2221","category":"260","category_name":"其他","address":"卢湾区淮海中路381号中环广场2-3楼(近重庆南路)"},{"poiid":"B2094753D76CA2F4449C","title":"查厘士","lon":"121.471084","lat":"31.221948","category":"247","category_name":"餐饮美食","address":"上海市 淮海路438号"},{"poiid":"B2094757D06FA2F8489C","title":"金牛苑(淮海中路店)","lon":"121.47315","lat":"31.22208","category":"47","category_name":"住宅区","address":"卢湾区淮海中路381号中环广场3楼(近马当路)"},{"poiid":"B2094757D06EAAF4429C","title":"黄陂南路地铁站","lon":"121.473293","lat":"31.222725","category":"36","category_name":"地铁站","address":"上海轨道交通,一号线,轨交黄陂南路站,1"},{"poiid":"B2094757D06FA2F44299","title":"喜锅饭","lon":"121.472966918","lat":"31.2232093036","category":"68","category_name":"快餐厅","address":"卢湾区淮海中路358弄尚贤坊27号(近马当路)"},{"poiid":"B2094757D16FA2FF499E","title":"颐东海港名厨","lon":"121.472683038","lat":"31.222152028","category":"72","category_name":"广东菜","address":"卢湾区淮海中路381号中环广场4楼(近淡水路)"},{"poiid":"B2094751D56FABFF469F","title":"g  极食（上海K11店）","lon":"121.471882","lat":"31.220876","category":"247","category_name":"餐饮美食","address":"上海市 淮海中路300号上海K11购物艺术中心303"},{"poiid":"B2094757D168A5FB469D","title":"Initial新天地","lon":"121.47131183","lat":"31.221172036","category":"500","category_name":"未知分类","address":"上海新天地UME 1楼"},{"poiid":"B2094654DB69A5FD409B","title":"好乐迪(淮海中路店)","lon":"121.47101","lat":"31.222","category":"170","category_name":"KTV","address":"卢湾区淮海中路438号4-5楼(近重庆南路)"},{"poiid":"B2094757D06FA2FC489D","title":"禾绿回转寿司(淮海店)","lon":"121.471866738","lat":"31.2220071249","category":"95","category_name":"日本料理","address":"卢湾区淮海中路352号(近马当路)"},{"poiid":"B2094757D068A2F5449F","title":"世纪巴士大厦","lon":"121.47163462","lat":"31.222440357","category":"46","category_name":"楼宇","address":"上海淮海中路398号"},{"poiid":"B2094655D26AAAF54398","title":"东田造型淮海中路店","lon":"121.47306","lat":"31.2221","category":"148","category_name":"美容美发店","address":"卢湾区淮海中路381号中环广场2楼208室(近马当路)"},{"poiid":"B2094757D06AA3F8489C","title":"中環廣場Delifrance","lon":"121.472848","lat":"31.222364","category":"119","category_name":"商场","address":"上海中環廣場"},{"poiid":"B2094750D26DA7F84799","title":"清风人家","lon":"121.47091","lat":"31.22203","category":"260","category_name":"其他","address":"卢湾区淮海中路438号B1楼(近重庆南路)"},{"poiid":"B2094654DB6BA4FA419F","title":"伊藤家(中环店)","lon":"121.47282","lat":"31.22196","category":"95","category_name":"日本料理","address":"卢湾区淮海中路381号中环广场3楼(近马当路)"},{"poiid":"B2094757DB6CA5F84593","title":"Element Fresh","lon":"121.470734","lat":"31.223412","category":"247","category_name":"餐饮美食","address":"Xin tian Di"},{"poiid":"B2094757D06FA6FC449B","title":"京世造型(雁荡店)","lon":"121.469967","lat":"31.221091","category":"148","category_name":"美容美发店","address":"上海卢湾区雁荡路5号2楼(淮海中路口)"},{"poiid":"B2094757D66FA1F5449C","title":"好乐的(淮海店)","lon":"121.47069161","lat":"31.221906582","category":"249","category_name":"购物服务","address":"上海淮海中路1543号"},{"poiid":"B2094750DB6AA5F84798","title":"一町奶茶(淮海路店)","lon":"121.470686","lat":"31.221858","category":"113","category_name":"冷饮店","address":"卢湾区老重庆中路54号(近长乐路)"},{"poiid":"B2094757D068A3FD459F","title":"沧浪亭(重庆路店)","lon":"121.47132","lat":"31.2213","category":"87","category_name":"特色／地方风味餐厅","address":"卢湾区老重庆中路好乐迪对面(淮海中路口)"},{"poiid":"B2094757D069A4FF4699","title":"lv旗舰店","lon":"121.47127873","lat":"31.220801099","category":"500","category_name":"未知分类","address":"上海淮海路嵩山路"},{"poiid":"B2094757D464ABF4459A","title":"金城酒家","lon":"121.47037211893","lat":"31.220679186676","category":"76","category_name":"上海菜","address":"卢湾区兴安路149号(近雁荡路)"},{"poiid":"B2094757D16FA6FB459A","title":"雁荡路","lon":"121.47324523","lat":"31.222686139","category":"500","category_name":"未知分类","address":"上海雁荡路"},{"poiid":"B209475CD76EA0F54692","title":"环贸iapm","lon":"121.469993","lat":"31.223688","category":"500","category_name":"未知分类","address":"上海市 卢湾区淮海中路999号"},{"poiid":"B2094751D56FABFB4093","title":"Tuttimelon（上海K11店）","lon":"121.47274","lat":"31.221169","category":"247","category_name":"餐饮美食","address":"上海市 淮海中路300号上海K11购物艺术中心B213/B246"},{"poiid":"B2094757D068A5FA4192","title":"北万新(淮海店)","lon":"121.47041414","lat":"31.221747502","category":"68","category_name":"快餐厅","address":"卢湾区淮海中路462号(近重庆南路)"},{"poiid":"B2094757D16CAAF94992","title":"南昌路","lon":"121.47206173","lat":"31.221032104","category":"500","category_name":"未知分类","address":"上海卢湾区南昌路"},{"poiid":"B2094654DA6DABFB479A","title":"兴安餐厅","lon":"121.470078054","lat":"31.220802793","category":"68","category_name":"快餐厅","address":"卢湾区兴安路145号(近雁荡路)"},{"poiid":"B2094757D069A6F94393","title":"马当路","lon":"121.473116","lat":"31.222885","category":"500","category_name":"未知分类","address":"上海淮海中路马当路"},{"poiid":"B2094655D36CA6F54598","title":"淡水路","lon":"121.47198","lat":"31.22328","category":"38","category_name":"公交车站","address":""},{"poiid":"B2094757D06FA7F54399","title":"香黛广场","lon":"121.47153","lat":"31.2218","category":"249","category_name":"购物服务","address":"卢湾区淮海中路417号(近重庆南路)"},{"poiid":"B2094757D06EAAFE479E","title":"刘娟美甲(淮海中路一店)","lon":"121.47222","lat":"31.22163","category":"122","category_name":"个人用品/化妆品店","address":"卢湾区淮海中路417号香黛广场73号(近重庆南路)"},{"poiid":"B2094757D06AA5F44693","title":"10号线新天地站","lon":"121.473128738","lat":"31.22224613","category":"36","category_name":"地铁站","address":"上海市黄浦区延安中路"},{"poiid":"B2094654DA6EABFD4898","title":"帼苑桌球俱乐部","lon":"121.47306","lat":"31.2228","category":"171","category_name":"台球厅","address":"淮海中路344号3层"},{"poiid":"B209475CD26BA5F5499D","title":"查理士","lon":"121.471008","lat":"31.221706","category":"247","category_name":"餐饮美食","address":"上海市 淮海中路447号"},{"poiid":"B2094757D068A4F9429C","title":"徐其修凉茶","lon":"121.47148973","lat":"31.222897143","category":"113","category_name":"冷饮店","address":"卢湾区兴安路98弄10号(近雁荡路)"},{"poiid":"B2094757D06AAAFE4499","title":"佳鸣海鲜火锅楼","lon":"121.470263","lat":"31.220876","category":"86","category_name":"火锅店","address":"卢湾区兴安路167号(近雁荡路)"},{"poiid":"B2094757D068A0FA419F","title":"招商银行(淮中支行)","lon":"121.47235","lat":"31.2223","category":"46","category_name":"楼宇","address":"卢湾区淮海中路398号(淡水路淮海中路)"},{"poiid":"B2094750D76DA6F5439C","title":"阿姨虾肉馄饨","lon":"121.473","lat":"31.2228","category":"68","category_name":"快餐厅","address":"卢湾区淮海中路358弄28号(近热风)"},{"poiid":"B2094654DB64AAFB4299","title":"大旺旺特色馄饨 淮海中路店","lon":"121.473097054","lat":"31.222434793","category":"68","category_name":"快餐厅","address":"卢湾区淮海中路358弄20号(招商银行对面)"},{"poiid":"B2094757D06FA4FA469A","title":"大花桌游(淮海中路店)","lon":"121.46994","lat":"31.22109","category":"175","category_name":"棋牌室","address":"上海卢湾区淮海中路461号9楼68室"},{"poiid":"B2094757DB6AA5F54293","title":"东田造型（上海中环广场店）","lon":"121.473","lat":"31.2223","category":"148","category_name":"美容美发店","address":"上海卢湾区淮海中路381号 上海中环广场二层"},{"poiid":"B2094655D26AABFD499F","title":"好乐迪量贩式KTV（淮海中路店）","lon":"121.47092","lat":"31.22199","category":"170","category_name":"KTV","address":"卢湾区淮海中路438号4楼近重庆南路;;"},{"poiid":"B2094757D06FA2F54392","title":"淮海中路雁荡路","lon":"121.469795542","lat":"31.2212911035","category":"260","category_name":"其他","address":"上海淮海中路雁荡路"},{"poiid":"B2094757D06FA6FC419C","title":"Wagas 中环广场店","lon":"121.47261473","lat":"31.22224613","category":"94","category_name":"西餐厅","address":"上海卢湾区淮海中路淡水路中环广场"},{"poiid":"B2094753D76FAAFA449C","title":"上海滩国泰旗舰店","lon":"121.466011","lat":"31.216125","category":"249","category_name":"购物服务","address":"淮海中路868号"},{"poiid":"B209475CD564A7F84292","title":"上海滩新天地店","lon":"121.47463","lat":"31.22164","category":"119","category_name":"商场","address":"\"太仓路181弄新天地北里15号\r\n\""},{"poiid":"B209475CD564A7F8439E","title":"上海滩中信泰富店","lon":"121.45602","lat":"31.22851","category":"119","category_name":"商场","address":"\"南京西路1168号中信泰富广场，店铺号221.\r\n\""},{"poiid":"B2094757D06FA3FC489D","title":"屋企汤馆 淮海店","lon":"121.4708246443","lat":"31.221864028321","category":"72","category_name":"广东菜","address":"卢湾区淮海中路438号2楼(近重庆南路)"},{"poiid":"B2094757D064A5FD489B","title":"典谟新知咖啡馆","lon":"121.470884738","lat":"31.2210811051","category":"260","category_name":"其他","address":"卢湾区兴安路139号(近淮海路雁荡路)"},{"poiid":"B2094655D26BA3FC469D","title":"揽香精萃时尚餐厅","lon":"121.47306","lat":"31.2221","category":"260","category_name":"其他","address":"卢湾区淮海中路381号中环广场2-3楼(近重庆南路)"},{"poiid":"B2094753D76CA2F4449C","title":"查厘士","lon":"121.471084","lat":"31.221948","category":"247","category_name":"餐饮美食","address":"上海市 淮海路438号"},{"poiid":"B2094757D06FA2F8489C","title":"金牛苑(淮海中路店)","lon":"121.47315","lat":"31.22208","category":"47","category_name":"住宅区","address":"卢湾区淮海中路381号中环广场3楼(近马当路)"},{"poiid":"B2094757D06EAAF4429C","title":"黄陂南路地铁站","lon":"121.473293","lat":"31.222725","category":"36","category_name":"地铁站","address":"上海轨道交通,一号线,轨交黄陂南路站,1"},{"poiid":"B2094757D06FA2F44299","title":"喜锅饭","lon":"121.472966918","lat":"31.2232093036","category":"68","category_name":"快餐厅","address":"卢湾区淮海中路358弄尚贤坊27号(近马当路)"},{"poiid":"B2094757D16FA2FF499E","title":"颐东海港名厨","lon":"121.472683038","lat":"31.222152028","category":"72","category_name":"广东菜","address":"卢湾区淮海中路381号中环广场4楼(近淡水路)"},{"poiid":"B2094751D56FABFF469F","title":"g  极食（上海K11店）","lon":"121.471882","lat":"31.220876","category":"247","category_name":"餐饮美食","address":"上海市 淮海中路300号上海K11购物艺术中心303"},{"poiid":"B2094757D168A5FB469D","title":"Initial新天地","lon":"121.47131183","lat":"31.221172036","category":"500","category_name":"未知分类","address":"上海新天地UME 1楼"},{"poiid":"B2094654DB69A5FD409B","title":"好乐迪(淮海中路店)","lon":"121.47101","lat":"31.222","category":"170","category_name":"KTV","address":"卢湾区淮海中路438号4-5楼(近重庆南路)"},{"poiid":"B2094757D06FA2FC489D","title":"禾绿回转寿司(淮海店)","lon":"121.471866738","lat":"31.2220071249","category":"95","category_name":"日本料理","address":"卢湾区淮海中路352号(近马当路)"},{"poiid":"B2094757D068A2F5449F","title":"世纪巴士大厦","lon":"121.47163462","lat":"31.222440357","category":"46","category_name":"楼宇","address":"上海淮海中路398号"},{"poiid":"B2094655D26AAAF54398","title":"东田造型淮海中路店","lon":"121.47306","lat":"31.2221","category":"148","category_name":"美容美发店","address":"卢湾区淮海中路381号中环广场2楼208室(近马当路)"},{"poiid":"B2094757D06AA3F8489C","title":"中環廣場Delifrance","lon":"121.472848","lat":"31.222364","category":"119","category_name":"商场","address":"上海中環廣場"},{"poiid":"B2094750D26DA7F84799","title":"清风人家","lon":"121.47091","lat":"31.22203","category":"260","category_name":"其他","address":"卢湾区淮海中路438号B1楼(近重庆南路)"},{"poiid":"B2094654DB6BA4FA419F","title":"伊藤家(中环店)","lon":"121.47282","lat":"31.22196","category":"95","category_name":"日本料理","address":"卢湾区淮海中路381号中环广场3楼(近马当路)"},{"poiid":"B2094757DB6CA5F84593","title":"Element Fresh","lon":"121.470734","lat":"31.223412","category":"247","category_name":"餐饮美食","address":"Xin tian Di"},{"poiid":"B2094757D06FA6FC449B","title":"京世造型(雁荡店)","lon":"121.469967","lat":"31.221091","category":"148","category_name":"美容美发店","address":"上海卢湾区雁荡路5号2楼(淮海中路口)"},{"poiid":"B2094757D66FA1F5449C","title":"好乐的(淮海店)","lon":"121.47069161","lat":"31.221906582","category":"249","category_name":"购物服务","address":"上海淮海中路1543号"},{"poiid":"B2094750DB6AA5F84798","title":"一町奶茶(淮海路店)","lon":"121.470686","lat":"31.221858","category":"113","category_name":"冷饮店","address":"卢湾区老重庆中路54号(近长乐路)"},{"poiid":"B2094757D068A3FD459F","title":"沧浪亭(重庆路店)","lon":"121.47132","lat":"31.2213","category":"87","category_name":"特色／地方风味餐厅","address":"卢湾区老重庆中路好乐迪对面(淮海中路口)"},{"poiid":"B2094757D069A4FF4699","title":"lv旗舰店","lon":"121.47127873","lat":"31.220801099","category":"500","category_name":"未知分类","address":"上海淮海路嵩山路"},{"poiid":"B2094757D464ABF4459A","title":"金城酒家","lon":"121.47037211893","lat":"31.220679186676","category":"76","category_name":"上海菜","address":"卢湾区兴安路149号(近雁荡路)"},{"poiid":"B2094757D16FA6FB459A","title":"雁荡路","lon":"121.47324523","lat":"31.222686139","category":"500","category_name":"未知分类","address":"上海雁荡路"},{"poiid":"B209475CD76EA0F54692","title":"环贸iapm","lon":"121.469993","lat":"31.223688","category":"500","category_name":"未知分类","address":"上海市 卢湾区淮海中路999号"},{"poiid":"B2094751D56FABFB4093","title":"Tuttimelon（上海K11店）","lon":"121.47274","lat":"31.221169","category":"247","category_name":"餐饮美食","address":"上海市 淮海中路300号上海K11购物艺术中心B213/B246"},{"poiid":"B2094757D068A5FA4192","title":"北万新(淮海店)","lon":"121.47041414","lat":"31.221747502","category":"68","category_name":"快餐厅","address":"卢湾区淮海中路462号(近重庆南路)"},{"poiid":"B2094757D16CAAF94992","title":"南昌路","lon":"121.47206173","lat":"31.221032104","category":"500","category_name":"未知分类","address":"上海卢湾区南昌路"},{"poiid":"B2094654DA6DABFB479A","title":"兴安餐厅","lon":"121.470078054","lat":"31.220802793","category":"68","category_name":"快餐厅","address":"卢湾区兴安路145号(近雁荡路)"},{"poiid":"B2094757D069A6F94393","title":"马当路","lon":"121.473116","lat":"31.222885","category":"500","category_name":"未知分类","address":"上海淮海中路马当路"},{"poiid":"B2094655D36CA6F54598","title":"淡水路","lon":"121.47198","lat":"31.22328","category":"38","category_name":"公交车站","address":""},{"poiid":"B2094757D06FA7F54399","title":"香黛广场","lon":"121.47153","lat":"31.2218","category":"249","category_name":"购物服务","address":"卢湾区淮海中路417号(近重庆南路)"},{"poiid":"B2094757D06EAAFE479E","title":"刘娟美甲(淮海中路一店)","lon":"121.47222","lat":"31.22163","category":"122","category_name":"个人用品/化妆品店","address":"卢湾区淮海中路417号香黛广场73号(近重庆南路)"},{"poiid":"B2094757D06AA5F44693","title":"10号线新天地站","lon":"121.473128738","lat":"31.22224613","category":"36","category_name":"地铁站","address":"上海市黄浦区延安中路"},{"poiid":"B2094654DA6EABFD4898","title":"帼苑桌球俱乐部","lon":"121.47306","lat":"31.2228","category":"171","category_name":"台球厅","address":"淮海中路344号3层"},{"poiid":"B209475CD26BA5F5499D","title":"查理士","lon":"121.471008","lat":"31.221706","category":"247","category_name":"餐饮美食","address":"上海市 淮海中路447号"},{"poiid":"B2094757D068A4F9429C","title":"徐其修凉茶","lon":"121.47148973","lat":"31.222897143","category":"113","category_name":"冷饮店","address":"卢湾区兴安路98弄10号(近雁荡路)"},{"poiid":"B2094757D06AAAFE4499","title":"佳鸣海鲜火锅楼","lon":"121.470263","lat":"31.220876","category":"86","category_name":"火锅店","address":"卢湾区兴安路167号(近雁荡路)"},{"poiid":"B2094757D068A0FA419F","title":"招商银行(淮中支行)","lon":"121.47235","lat":"31.2223","category":"46","category_name":"楼宇","address":"卢湾区淮海中路398号(淡水路淮海中路)"},{"poiid":"B2094750D76DA6F5439C","title":"阿姨虾肉馄饨","lon":"121.473","lat":"31.2228","category":"68","category_name":"快餐厅","address":"卢湾区淮海中路358弄28号(近热风)"},{"poiid":"B2094654DB64AAFB4299","title":"大旺旺特色馄饨 淮海中路店","lon":"121.473097054","lat":"31.222434793","category":"68","category_name":"快餐厅","address":"卢湾区淮海中路358弄20号(招商银行对面)"},{"poiid":"B2094757D06FA4FA469A","title":"大花桌游(淮海中路店)","lon":"121.46994","lat":"31.22109","category":"175","category_name":"棋牌室","address":"上海卢湾区淮海中路461号9楼68室"},{"poiid":"B2094757DB6AA5F54293","title":"东田造型（上海中环广场店）","lon":"121.473","lat":"31.2223","category":"148","category_name":"美容美发店","address":"上海卢湾区淮海中路381号 上海中环广场二层"},{"poiid":"B2094655D26AABFD499F","title":"好乐迪量贩式KTV（淮海中路店）","lon":"121.47092","lat":"31.22199","category":"170","category_name":"KTV","address":"卢湾区淮海中路438号4楼近重庆南路;;"},{"poiid":"B2094757D06FA2F54392","title":"淮海中路雁荡路","lon":"121.469795542","lat":"31.2212911035","category":"260","category_name":"其他","address":"上海淮海中路雁荡路"},{"poiid":"B2094757D06FA6FC419C","title":"Wagas 中环广场店","lon":"121.47261473","lat":"31.22224613","category":"94","category_name":"西餐厅","address":"上海卢湾区淮海中路淡水路中环广场"},{"poiid":"B2094753D76FAAFA449C","title":"上海滩国泰旗舰店","lon":"121.466011","lat":"31.216125","category":"249","category_name":"购物服务","address":"淮海中路868号"},{"poiid":"B209475CD564A7F84292","title":"上海滩新天地店","lon":"121.47463","lat":"31.22164","category":"119","category_name":"商场","address":"\"太仓路181弄新天地北里15号\r\n\""},{"poiid":"B209475CD564A7F8439E","title":"上海滩中信泰富店","lon":"121.45602","lat":"31.22851","category":"119","category_name":"商场","address":"\"南京西路1168号中信泰富广场，店铺号221.\r\n\""},{"poiid":"B2094757D06FA3FC489D","title":"屋企汤馆 淮海店","lon":"121.4708246443","lat":"31.221864028321","category":"72","category_name":"广东菜","address":"卢湾区淮海中路438号2楼(近重庆南路)"},{"poiid":"B2094757D064A5FD489B","title":"典谟新知咖啡馆","lon":"121.470884738","lat":"31.2210811051","category":"260","category_name":"其他","address":"卢湾区兴安路139号(近淮海路雁荡路)"},{"poiid":"B2094655D26BA3FC469D","title":"揽香精萃时尚餐厅","lon":"121.47306","lat":"31.2221","category":"260","category_name":"其他","address":"卢湾区淮海中路381号中环广场2-3楼(近重庆南路)"},{"poiid":"B2094753D76CA2F4449C","title":"查厘士","lon":"121.471084","lat":"31.221948","category":"247","category_name":"餐饮美食","address":"上海市 淮海路438号"},{"poiid":"B2094757D06FA2F8489C","title":"金牛苑(淮海中路店)","lon":"121.47315","lat":"31.22208","category":"47","category_name":"住宅区","address":"卢湾区淮海中路381号中环广场3楼(近马当路)"},{"poiid":"B2094757D06EAAF4429C","title":"黄陂南路地铁站","lon":"121.473293","lat":"31.222725","category":"36","category_name":"地铁站","address":"上海轨道交通,一号线,轨交黄陂南路站,1"},{"poiid":"B2094757D06FA2F44299","title":"喜锅饭","lon":"121.472966918","lat":"31.2232093036","category":"68","category_name":"快餐厅","address":"卢湾区淮海中路358弄尚贤坊27号(近马当路)"},{"poiid":"B2094757D16FA2FF499E","title":"颐东海港名厨","lon":"121.472683038","lat":"31.222152028","category":"72","category_name":"广东菜","address":"卢湾区淮海中路381号中环广场4楼(近淡水路)"},{"poiid":"B2094751D56FABFF469F","title":"g  极食（上海K11店）","lon":"121.471882","lat":"31.220876","category":"247","category_name":"餐饮美食","address":"上海市 淮海中路300号上海K11购物艺术中心303"},{"poiid":"B2094757D168A5FB469D","title":"Initial新天地","lon":"121.47131183","lat":"31.221172036","category":"500","category_name":"未知分类","address":"上海新天地UME 1楼"},{"poiid":"B2094654DB69A5FD409B","title":"好乐迪(淮海中路店)","lon":"121.47101","lat":"31.222","category":"170","category_name":"KTV","address":"卢湾区淮海中路438号4-5楼(近重庆南路)"},{"poiid":"B2094757D06FA2FC489D","title":"禾绿回转寿司(淮海店)","lon":"121.471866738","lat":"31.2220071249","category":"95","category_name":"日本料理","address":"卢湾区淮海中路352号(近马当路)"},{"poiid":"B2094757D068A2F5449F","title":"世纪巴士大厦","lon":"121.47163462","lat":"31.222440357","category":"46","category_name":"楼宇","address":"上海淮海中路398号"},{"poiid":"B2094655D26AAAF54398","title":"东田造型淮海中路店","lon":"121.47306","lat":"31.2221","category":"148","category_name":"美容美发店","address":"卢湾区淮海中路381号中环广场2楼208室(近马当路)"},{"poiid":"B2094757D06AA3F8489C","title":"中環廣場Delifrance","lon":"121.472848","lat":"31.222364","category":"119","category_name":"商场","address":"上海中環廣場"},{"poiid":"B2094750D26DA7F84799","title":"清风人家","lon":"121.47091","lat":"31.22203","category":"260","category_name":"其他","address":"卢湾区淮海中路438号B1楼(近重庆南路)"},{"poiid":"B2094654DB6BA4FA419F","title":"伊藤家(中环店)","lon":"121.47282","lat":"31.22196","category":"95","category_name":"日本料理","address":"卢湾区淮海中路381号中环广场3楼(近马当路)"},{"poiid":"B2094757DB6CA5F84593","title":"Element Fresh","lon":"121.470734","lat":"31.223412","category":"247","category_name":"餐饮美食","address":"Xin tian Di"},{"poiid":"B2094757D06FA6FC449B","title":"京世造型(雁荡店)","lon":"121.469967","lat":"31.221091","category":"148","category_name":"美容美发店","address":"上海卢湾区雁荡路5号2楼(淮海中路口)"},{"poiid":"B2094757D66FA1F5449C","title":"好乐的(淮海店)","lon":"121.47069161","lat":"31.221906582","category":"249","category_name":"购物服务","address":"上海淮海中路1543号"},{"poiid":"B2094750DB6AA5F84798","title":"一町奶茶(淮海路店)","lon":"121.470686","lat":"31.221858","category":"113","category_name":"冷饮店","address":"卢湾区老重庆中路54号(近长乐路)"},{"poiid":"B2094757D068A3FD459F","title":"沧浪亭(重庆路店)","lon":"121.47132","lat":"31.2213","category":"87","category_name":"特色／地方风味餐厅","address":"卢湾区老重庆中路好乐迪对面(淮海中路口)"},{"poiid":"B2094757D069A4FF4699","title":"lv旗舰店","lon":"121.47127873","lat":"31.220801099","category":"500","category_name":"未知分类","address":"上海淮海路嵩山路"},{"poiid":"B2094757D464ABF4459A","title":"金城酒家","lon":"121.47037211893","lat":"31.220679186676","category":"76","category_name":"上海菜","address":"卢湾区兴安路149号(近雁荡路)"},{"poiid":"B2094757D16FA6FB459A","title":"雁荡路","lon":"121.47324523","lat":"31.222686139","category":"500","category_name":"未知分类","address":"上海雁荡路"},{"poiid":"B209475CD76EA0F54692","title":"环贸iapm","lon":"121.469993","lat":"31.223688","category":"500","category_name":"未知分类","address":"上海市 卢湾区淮海中路999号"},{"poiid":"B2094751D56FABFB4093","title":"Tuttimelon（上海K11店）","lon":"121.47274","lat":"31.221169","category":"247","category_name":"餐饮美食","address":"上海市 淮海中路300号上海K11购物艺术中心B213/B246"},{"poiid":"B2094757D068A5FA4192","title":"北万新(淮海店)","lon":"121.47041414","lat":"31.221747502","category":"68","category_name":"快餐厅","address":"卢湾区淮海中路462号(近重庆南路)"},{"poiid":"B2094757D16CAAF94992","title":"南昌路","lon":"121.47206173","lat":"31.221032104","category":"500","category_name":"未知分类","address":"上海卢湾区南昌路"},{"poiid":"B2094654DA6DABFB479A","title":"兴安餐厅","lon":"121.470078054","lat":"31.220802793","category":"68","category_name":"快餐厅","address":"卢湾区兴安路145号(近雁荡路)"},{"poiid":"B2094757D069A6F94393","title":"马当路","lon":"121.473116","lat":"31.222885","category":"500","category_name":"未知分类","address":"上海淮海中路马当路"},{"poiid":"B2094655D36CA6F54598","title":"淡水路","lon":"121.47198","lat":"31.22328","category":"38","category_name":"公交车站","address":""},{"poiid":"B2094757D06FA7F54399","title":"香黛广场","lon":"121.47153","lat":"31.2218","category":"249","category_name":"购物服务","address":"卢湾区淮海中路417号(近重庆南路)"},{"poiid":"B2094757D06EAAFE479E","title":"刘娟美甲(淮海中路一店)","lon":"121.47222","lat":"31.22163","category":"122","category_name":"个人用品/化妆品店","address":"卢湾区淮海中路417号香黛广场73号(近重庆南路)"},{"poiid":"B2094757D06AA5F44693","title":"10号线新天地站","lon":"121.473128738","lat":"31.22224613","category":"36","category_name":"地铁站","address":"上海市黄浦区延安中路"},{"poiid":"B2094654DA6EABFD4898","title":"帼苑桌球俱乐部","lon":"121.47306","lat":"31.2228","category":"171","category_name":"台球厅","address":"淮海中路344号3层"},{"poiid":"B209475CD26BA5F5499D","title":"查理士","lon":"121.471008","lat":"31.221706","category":"247","category_name":"餐饮美食","address":"上海市 淮海中路447号"},{"poiid":"B2094757D068A4F9429C","title":"徐其修凉茶","lon":"121.47148973","lat":"31.222897143","category":"113","category_name":"冷饮店","address":"卢湾区兴安路98弄10号(近雁荡路)"},{"poiid":"B2094757D06AAAFE4499","title":"佳鸣海鲜火锅楼","lon":"121.470263","lat":"31.220876","category":"86","category_name":"火锅店","address":"卢湾区兴安路167号(近雁荡路)"},{"poiid":"B2094757D068A0FA419F","title":"招商银行(淮中支行)","lon":"121.47235","lat":"31.2223","category":"46","category_name":"楼宇","address":"卢湾区淮海中路398号(淡水路淮海中路)"},{"poiid":"B2094750D76DA6F5439C","title":"阿姨虾肉馄饨","lon":"121.473","lat":"31.2228","category":"68","category_name":"快餐厅","address":"卢湾区淮海中路358弄28号(近热风)"},{"poiid":"B2094654DB64AAFB4299","title":"大旺旺特色馄饨 淮海中路店","lon":"121.473097054","lat":"31.222434793","category":"68","category_name":"快餐厅","address":"卢湾区淮海中路358弄20号(招商银行对面)"},{"poiid":"B2094757D06FA4FA469A","title":"大花桌游(淮海中路店)","lon":"121.46994","lat":"31.22109","category":"175","category_name":"棋牌室","address":"上海卢湾区淮海中路461号9楼68室"},{"poiid":"B2094757DB6AA5F54293","title":"东田造型（上海中环广场店）","lon":"121.473","lat":"31.2223","category":"148","category_name":"美容美发店","address":"上海卢湾区淮海中路381号 上海中环广场二层"},{"poiid":"B2094655D26AABFD499F","title":"好乐迪量贩式KTV（淮海中路店）","lon":"121.47092","lat":"31.22199","category":"170","category_name":"KTV","address":"卢湾区淮海中路438号4楼近重庆南路;;"},{"poiid":"B2094757D06FA2F54392","title":"淮海中路雁荡路","lon":"121.469795542","lat":"31.2212911035","category":"260","category_name":"其他","address":"上海淮海中路雁荡路"},{"poiid":"B2094757D06FA6FC419C","title":"Wagas 中环广场店","lon":"121.47261473","lat":"31.22224613","category":"94","category_name":"西餐厅","address":"上海卢湾区淮海中路淡水路中环广场"},{"poiid":"B2094753D76FAAFA449C","title":"上海滩国泰旗舰店","lon":"121.466011","lat":"31.216125","category":"249","category_name":"购物服务","address":"淮海中路868号"},{"poiid":"B209475CD564A7F84292","title":"上海滩新天地店","lon":"121.47463","lat":"31.22164","category":"119","category_name":"商场","address":"\"太仓路181弄新天地北里15号\r\n\""},{"poiid":"B209475CD564A7F8439E","title":"上海滩中信泰富店","lon":"121.45602","lat":"31.22851","category":"119","category_name":"商场","address":"\"南京西路1168号中信泰富广场，店铺号221.\r\n\""},{"poiid":"B2094757D06FA3FC489D","title":"屋企汤馆 淮海店","lon":"121.4708246443","lat":"31.221864028321","category":"72","category_name":"广东菜","address":"卢湾区淮海中路438号2楼(近重庆南路)"},{"poiid":"B2094757D064A5FD489B","title":"典谟新知咖啡馆","lon":"121.470884738","lat":"31.2210811051","category":"260","category_name":"其他","address":"卢湾区兴安路139号(近淮海路雁荡路)"},{"poiid":"B2094655D26BA3FC469D","title":"揽香精萃时尚餐厅","lon":"121.47306","lat":"31.2221","category":"260","category_name":"其他","address":"卢湾区淮海中路381号中环广场2-3楼(近重庆南路)"},{"poiid":"B2094753D76CA2F4449C","title":"查厘士","lon":"121.471084","lat":"31.221948","category":"247","category_name":"餐饮美食","address":"上海市 淮海路438号"},{"poiid":"B2094757D06FA2F8489C","title":"金牛苑(淮海中路店)","lon":"121.47315","lat":"31.22208","category":"47","category_name":"住宅区","address":"卢湾区淮海中路381号中环广场3楼(近马当路)"},{"poiid":"B2094757D06EAAF4429C","title":"黄陂南路地铁站","lon":"121.473293","lat":"31.222725","category":"36","category_name":"地铁站","address":"上海轨道交通,一号线,轨交黄陂南路站,1"},{"poiid":"B2094757D06FA2F44299","title":"喜锅饭","lon":"121.472966918","lat":"31.2232093036","category":"68","category_name":"快餐厅","address":"卢湾区淮海中路358弄尚贤坊27号(近马当路)"},{"poiid":"B2094757D16FA2FF499E","title":"颐东海港名厨","lon":"121.472683038","lat":"31.222152028","category":"72","category_name":"广东菜","address":"卢湾区淮海中路381号中环广场4楼(近淡水路)"},{"poiid":"B2094751D56FABFF469F","title":"g  极食（上海K11店）","lon":"121.471882","lat":"31.220876","category":"247","category_name":"餐饮美食","address":"上海市 淮海中路300号上海K11购物艺术中心303"},{"poiid":"B2094757D168A5FB469D","title":"Initial新天地","lon":"121.47131183","lat":"31.221172036","category":"500","category_name":"未知分类","address":"上海新天地UME 1楼"},{"poiid":"B2094654DB69A5FD409B","title":"好乐迪(淮海中路店)","lon":"121.47101","lat":"31.222","category":"170","category_name":"KTV","address":"卢湾区淮海中路438号4-5楼(近重庆南路)"},{"poiid":"B2094757D06FA2FC489D","title":"禾绿回转寿司(淮海店)","lon":"121.471866738","lat":"31.2220071249","category":"95","category_name":"日本料理","address":"卢湾区淮海中路352号(近马当路)"},{"poiid":"B2094757D068A2F5449F","title":"世纪巴士大厦","lon":"121.47163462","lat":"31.222440357","category":"46","category_name":"楼宇","address":"上海淮海中路398号"},{"poiid":"B2094655D26AAAF54398","title":"东田造型淮海中路店","lon":"121.47306","lat":"31.2221","category":"148","category_name":"美容美发店","address":"卢湾区淮海中路381号中环广场2楼208室(近马当路)"},{"poiid":"B2094757D06AA3F8489C","title":"中環廣場Delifrance","lon":"121.472848","lat":"31.222364","category":"119","category_name":"商场","address":"上海中環廣場"},{"poiid":"B2094750D26DA7F84799","title":"清风人家","lon":"121.47091","lat":"31.22203","category":"260","category_name":"其他","address":"卢湾区淮海中路438号B1楼(近重庆南路)"},{"poiid":"B2094654DB6BA4FA419F","title":"伊藤家(中环店)","lon":"121.47282","lat":"31.22196","category":"95","category_name":"日本料理","address":"卢湾区淮海中路381号中环广场3楼(近马当路)"},{"poiid":"B2094757DB6CA5F84593","title":"Element Fresh","lon":"121.470734","lat":"31.223412","category":"247","category_name":"餐饮美食","address":"Xin tian Di"},{"poiid":"B2094757D06FA6FC449B","title":"京世造型(雁荡店)","lon":"121.469967","lat":"31.221091","category":"148","category_name":"美容美发店","address":"上海卢湾区雁荡路5号2楼(淮海中路口)"},{"poiid":"B2094757D66FA1F5449C","title":"好乐的(淮海店)","lon":"121.47069161","lat":"31.221906582","category":"249","category_name":"购物服务","address":"上海淮海中路1543号"},{"poiid":"B2094750DB6AA5F84798","title":"一町奶茶(淮海路店)","lon":"121.470686","lat":"31.221858","category":"113","category_name":"冷饮店","address":"卢湾区老重庆中路54号(近长乐路)"},{"poiid":"B2094757D068A3FD459F","title":"沧浪亭(重庆路店)","lon":"121.47132","lat":"31.2213","category":"87","category_name":"特色／地方风味餐厅","address":"卢湾区老重庆中路好乐迪对面(淮海中路口)"},{"poiid":"B2094757D069A4FF4699","title":"lv旗舰店","lon":"121.47127873","lat":"31.220801099","category":"500","category_name":"未知分类","address":"上海淮海路嵩山路"},{"poiid":"B2094757D464ABF4459A","title":"金城酒家","lon":"121.47037211893","lat":"31.220679186676","category":"76","category_name":"上海菜","address":"卢湾区兴安路149号(近雁荡路)"},{"poiid":"B2094757D16FA6FB459A","title":"雁荡路","lon":"121.47324523","lat":"31.222686139","category":"500","category_name":"未知分类","address":"上海雁荡路"},{"poiid":"B209475CD76EA0F54692","title":"环贸iapm","lon":"121.469993","lat":"31.223688","category":"500","category_name":"未知分类","address":"上海市 卢湾区淮海中路999号"},{"poiid":"B2094751D56FABFB4093","title":"Tuttimelon（上海K11店）","lon":"121.47274","lat":"31.221169","category":"247","category_name":"餐饮美食","address":"上海市 淮海中路300号上海K11购物艺术中心B213/B246"},{"poiid":"B2094757D068A5FA4192","title":"北万新(淮海店)","lon":"121.47041414","lat":"31.221747502","category":"68","category_name":"快餐厅","address":"卢湾区淮海中路462号(近重庆南路)"},{"poiid":"B2094757D16CAAF94992","title":"南昌路","lon":"121.47206173","lat":"31.221032104","category":"500","category_name":"未知分类","address":"上海卢湾区南昌路"},{"poiid":"B2094654DA6DABFB479A","title":"兴安餐厅","lon":"121.470078054","lat":"31.220802793","category":"68","category_name":"快餐厅","address":"卢湾区兴安路145号(近雁荡路)"},{"poiid":"B2094757D069A6F94393","title":"马当路","lon":"121.473116","lat":"31.222885","category":"500","category_name":"未知分类","address":"上海淮海中路马当路"},{"poiid":"B2094655D36CA6F54598","title":"淡水路","lon":"121.47198","lat":"31.22328","category":"38","category_name":"公交车站","address":""},{"poiid":"B2094757D06FA7F54399","title":"香黛广场","lon":"121.47153","lat":"31.2218","category":"249","category_name":"购物服务","address":"卢湾区淮海中路417号(近重庆南路)"},{"poiid":"B2094757D06EAAFE479E","title":"刘娟美甲(淮海中路一店)","lon":"121.47222","lat":"31.22163","category":"122","category_name":"个人用品/化妆品店","address":"卢湾区淮海中路417号香黛广场73号(近重庆南路)"},{"poiid":"B2094757D06AA5F44693","title":"10号线新天地站","lon":"121.473128738","lat":"31.22224613","category":"36","category_name":"地铁站","address":"上海市黄浦区延安中路"},{"poiid":"B2094654DA6EABFD4898","title":"帼苑桌球俱乐部","lon":"121.47306","lat":"31.2228","category":"171","category_name":"台球厅","address":"淮海中路344号3层"},{"poiid":"B209475CD26BA5F5499D","title":"查理士","lon":"121.471008","lat":"31.221706","category":"247","category_name":"餐饮美食","address":"上海市 淮海中路447号"},{"poiid":"B2094757D068A4F9429C","title":"徐其修凉茶","lon":"121.47148973","lat":"31.222897143","category":"113","category_name":"冷饮店","address":"卢湾区兴安路98弄10号(近雁荡路)"},{"poiid":"B2094757D06AAAFE4499","title":"佳鸣海鲜火锅楼","lon":"121.470263","lat":"31.220876","category":"86","category_name":"火锅店","address":"卢湾区兴安路167号(近雁荡路)"},{"poiid":"B2094757D068A0FA419F","title":"招商银行(淮中支行)","lon":"121.47235","lat":"31.2223","category":"46","category_name":"楼宇","address":"卢湾区淮海中路398号(淡水路淮海中路)"},{"poiid":"B2094750D76DA6F5439C","title":"阿姨虾肉馄饨","lon":"121.473","lat":"31.2228","category":"68","category_name":"快餐厅","address":"卢湾区淮海中路358弄28号(近热风)"},{"poiid":"B2094654DB64AAFB4299","title":"大旺旺特色馄饨 淮海中路店","lon":"121.473097054","lat":"31.222434793","category":"68","category_name":"快餐厅","address":"卢湾区淮海中路358弄20号(招商银行对面)"},{"poiid":"B2094757D06FA4FA469A","title":"大花桌游(淮海中路店)","lon":"121.46994","lat":"31.22109","category":"175","category_name":"棋牌室","address":"上海卢湾区淮海中路461号9楼68室"},{"poiid":"B2094757DB6AA5F54293","title":"东田造型（上海中环广场店）","lon":"121.473","lat":"31.2223","category":"148","category_name":"美容美发店","address":"上海卢湾区淮海中路381号 上海中环广场二层"},{"poiid":"B2094655D26AABFD499F","title":"好乐迪量贩式KTV（淮海中路店）","lon":"121.47092","lat":"31.22199","category":"170","category_name":"KTV","address":"卢湾区淮海中路438号4楼近重庆南路;;"},{"poiid":"B2094757D06FA2F54392","title":"淮海中路雁荡路","lon":"121.469795542","lat":"31.2212911035","category":"260","category_name":"其他","address":"上海淮海中路雁荡路"},{"poiid":"B2094757D06FA6FC419C","title":"Wagas 中环广场店","lon":"121.47261473","lat":"31.22224613","category":"94","category_name":"西餐厅","address":"上海卢湾区淮海中路淡水路中环广场"},{"poiid":"B2094753D76FAAFA449C","title":"上海滩国泰旗舰店","lon":"121.466011","lat":"31.216125","category":"249","category_name":"购物服务","address":"淮海中路868号"},{"poiid":"B209475CD564A7F84292","title":"上海滩新天地店","lon":"121.47463","lat":"31.22164","category":"119","category_name":"商场","address":"\"太仓路181弄新天地北里15号\r\n\""},{"poiid":"B209475CD564A7F8439E","title":"上海滩中信泰富店","lon":"121.45602","lat":"31.22851","category":"119","category_name":"商场","address":"\"南京西路1168号中信泰富广场，店铺号221.\r\n\""},{"poiid":"B2094757D06FA3FC489D","title":"屋企汤馆 淮海店","lon":"121.4708246443","lat":"31.221864028321","category":"72","category_name":"广东菜","address":"卢湾区淮海中路438号2楼(近重庆南路)"},{"poiid":"B2094757D064A5FD489B","title":"典谟新知咖啡馆","lon":"121.470884738","lat":"31.2210811051","category":"260","category_name":"其他","address":"卢湾区兴安路139号(近淮海路雁荡路)"},{"poiid":"B2094655D26BA3FC469D","title":"揽香精萃时尚餐厅","lon":"121.47306","lat":"31.2221","category":"260","category_name":"其他","address":"卢湾区淮海中路381号中环广场2-3楼(近重庆南路)"},{"poiid":"B2094753D76CA2F4449C","title":"查厘士","lon":"121.471084","lat":"31.221948","category":"247","category_name":"餐饮美食","address":"上海市 淮海路438号"},{"poiid":"B2094757D06FA2F8489C","title":"金牛苑(淮海中路店)","lon":"121.47315","lat":"31.22208","category":"47","category_name":"住宅区","address":"卢湾区淮海中路381号中环广场3楼(近马当路)"},{"poiid":"B2094757D06EAAF4429C","title":"黄陂南路地铁站","lon":"121.473293","lat":"31.222725","category":"36","category_name":"地铁站","address":"上海轨道交通,一号线,轨交黄陂南路站,1"},{"poiid":"B2094757D06FA2F44299","title":"喜锅饭","lon":"121.472966918","lat":"31.2232093036","category":"68","category_name":"快餐厅","address":"卢湾区淮海中路358弄尚贤坊27号(近马当路)"},{"poiid":"B2094757D16FA2FF499E","title":"颐东海港名厨","lon":"121.472683038","lat":"31.222152028","category":"72","category_name":"广东菜","address":"卢湾区淮海中路381号中环广场4楼(近淡水路)"},{"poiid":"B2094751D56FABFF469F","title":"g  极食（上海K11店）","lon":"121.471882","lat":"31.220876","category":"247","category_name":"餐饮美食","address":"上海市 淮海中路300号上海K11购物艺术中心303"},{"poiid":"B2094757D168A5FB469D","title":"Initial新天地","lon":"121.47131183","lat":"31.221172036","category":"500","category_name":"未知分类","address":"上海新天地UME 1楼"},{"poiid":"B2094654DB69A5FD409B","title":"好乐迪(淮海中路店)","lon":"121.47101","lat":"31.222","category":"170","category_name":"KTV","address":"卢湾区淮海中路438号4-5楼(近重庆南路)"},{"poiid":"B2094757D06FA2FC489D","title":"禾绿回转寿司(淮海店)","lon":"121.471866738","lat":"31.2220071249","category":"95","category_name":"日本料理","address":"卢湾区淮海中路352号(近马当路)"},{"poiid":"B2094757D068A2F5449F","title":"世纪巴士大厦","lon":"121.47163462","lat":"31.222440357","category":"46","category_name":"楼宇","address":"上海淮海中路398号"},{"poiid":"B2094655D26AAAF54398","title":"东田造型淮海中路店","lon":"121.47306","lat":"31.2221","category":"148","category_name":"美容美发店","address":"卢湾区淮海中路381号中环广场2楼208室(近马当路)"},{"poiid":"B2094757D06AA3F8489C","title":"中環廣場Delifrance","lon":"121.472848","lat":"31.222364","category":"119","category_name":"商场","address":"上海中環廣場"},{"poiid":"B2094750D26DA7F84799","title":"清风人家","lon":"121.47091","lat":"31.22203","category":"260","category_name":"其他","address":"卢湾区淮海中路438号B1楼(近重庆南路)"},{"poiid":"B2094654DB6BA4FA419F","title":"伊藤家(中环店)","lon":"121.47282","lat":"31.22196","category":"95","category_name":"日本料理","address":"卢湾区淮海中路381号中环广场3楼(近马当路)"},{"poiid":"B2094757DB6CA5F84593","title":"Element Fresh","lon":"121.470734","lat":"31.223412","category":"247","category_name":"餐饮美食","address":"Xin tian Di"},{"poiid":"B2094757D06FA6FC449B","title":"京世造型(雁荡店)","lon":"121.469967","lat":"31.221091","category":"148","category_name":"美容美发店","address":"上海卢湾区雁荡路5号2楼(淮海中路口)"},{"poiid":"B2094757D66FA1F5449C","title":"好乐的(淮海店)","lon":"121.47069161","lat":"31.221906582","category":"249","category_name":"购物服务","address":"上海淮海中路1543号"},{"poiid":"B2094750DB6AA5F84798","title":"一町奶茶(淮海路店)","lon":"121.470686","lat":"31.221858","category":"113","category_name":"冷饮店","address":"卢湾区老重庆中路54号(近长乐路)"},{"poiid":"B2094757D068A3FD459F","title":"沧浪亭(重庆路店)","lon":"121.47132","lat":"31.2213","category":"87","category_name":"特色／地方风味餐厅","address":"卢湾区老重庆中路好乐迪对面(淮海中路口)"},{"poiid":"B2094757D069A4FF4699","title":"lv旗舰店","lon":"121.47127873","lat":"31.220801099","category":"500","category_name":"未知分类","address":"上海淮海路嵩山路"},{"poiid":"B2094757D464ABF4459A","title":"金城酒家","lon":"121.47037211893","lat":"31.220679186676","category":"76","category_name":"上海菜","address":"卢湾区兴安路149号(近雁荡路)"},{"poiid":"B2094757D16FA6FB459A","title":"雁荡路","lon":"121.47324523","lat":"31.222686139","category":"500","category_name":"未知分类","address":"上海雁荡路"},{"poiid":"B209475CD76EA0F54692","title":"环贸iapm","lon":"121.469993","lat":"31.223688","category":"500","category_name":"未知分类","address":"上海市 卢湾区淮海中路999号"},{"poiid":"B2094751D56FABFB4093","title":"Tuttimelon（上海K11店）","lon":"121.47274","lat":"31.221169","category":"247","category_name":"餐饮美食","address":"上海市 淮海中路300号上海K11购物艺术中心B213/B246"},{"poiid":"B2094757D068A5FA4192","title":"北万新(淮海店)","lon":"121.47041414","lat":"31.221747502","category":"68","category_name":"快餐厅","address":"卢湾区淮海中路462号(近重庆南路)"},{"poiid":"B2094757D16CAAF94992","title":"南昌路","lon":"121.47206173","lat":"31.221032104","category":"500","category_name":"未知分类","address":"上海卢湾区南昌路"},{"poiid":"B2094654DA6DABFB479A","title":"兴安餐厅","lon":"121.470078054","lat":"31.220802793","category":"68","category_name":"快餐厅","address":"卢湾区兴安路145号(近雁荡路)"},{"poiid":"B2094757D069A6F94393","title":"马当路","lon":"121.473116","lat":"31.222885","category":"500","category_name":"未知分类","address":"上海淮海中路马当路"},{"poiid":"B2094655D36CA6F54598","title":"淡水路","lon":"121.47198","lat":"31.22328","category":"38","category_name":"公交车站","address":""},{"poiid":"B2094757D06FA7F54399","title":"香黛广场","lon":"121.47153","lat":"31.2218","category":"249","category_name":"购物服务","address":"卢湾区淮海中路417号(近重庆南路)"},{"poiid":"B2094757D06EAAFE479E","title":"刘娟美甲(淮海中路一店)","lon":"121.47222","lat":"31.22163","category":"122","category_name":"个人用品/化妆品店","address":"卢湾区淮海中路417号香黛广场73号(近重庆南路)"},{"poiid":"B2094757D06AA5F44693","title":"10号线新天地站","lon":"121.473128738","lat":"31.22224613","category":"36","category_name":"地铁站","address":"上海市黄浦区延安中路"},{"poiid":"B2094654DA6EABFD4898","title":"帼苑桌球俱乐部","lon":"121.47306","lat":"31.2228","category":"171","category_name":"台球厅","address":"淮海中路344号3层"},{"poiid":"B209475CD26BA5F5499D","title":"查理士","lon":"121.471008","lat":"31.221706","category":"247","category_name":"餐饮美食","address":"上海市 淮海中路447号"},{"poiid":"B2094757D068A4F9429C","title":"徐其修凉茶","lon":"121.47148973","lat":"31.222897143","category":"113","category_name":"冷饮店","address":"卢湾区兴安路98弄10号(近雁荡路)"},{"poiid":"B2094757D06AAAFE4499","title":"佳鸣海鲜火锅楼","lon":"121.470263","lat":"31.220876","category":"86","category_name":"火锅店","address":"卢湾区兴安路167号(近雁荡路)"},{"poiid":"B2094757D068A0FA419F","title":"招商银行(淮中支行)","lon":"121.47235","lat":"31.2223","category":"46","category_name":"楼宇","address":"卢湾区淮海中路398号(淡水路淮海中路)"},{"poiid":"B2094750D76DA6F5439C","title":"阿姨虾肉馄饨","lon":"121.473","lat":"31.2228","category":"68","category_name":"快餐厅","address":"卢湾区淮海中路358弄28号(近热风)"},{"poiid":"B2094654DB64AAFB4299","title":"大旺旺特色馄饨 淮海中路店","lon":"121.473097054","lat":"31.222434793","category":"68","category_name":"快餐厅","address":"卢湾区淮海中路358弄20号(招商银行对面)"},{"poiid":"B2094757D06FA4FA469A","title":"大花桌游(淮海中路店)","lon":"121.46994","lat":"31.22109","category":"175","category_name":"棋牌室","address":"上海卢湾区淮海中路461号9楼68室"},{"poiid":"B2094757DB6AA5F54293","title":"东田造型（上海中环广场店）","lon":"121.473","lat":"31.2223","category":"148","category_name":"美容美发店","address":"上海卢湾区淮海中路381号 上海中环广场二层"}]