[{"poiid":"B2094757D06EAAF84399","title":"广兰路地铁站","lon":"121.61999759","lat":"31.210776628","category":"36","category_name":"地铁站","address":"上海轨道交通二号线广兰路站"},{"poiid":"B2094654DA6AA4FE4793","title":"玉兰香苑","lon":"121.63323","lat":"31.200127","category":"47","category_name":"住宅区","address":"上海市浦东新区益江路126弄、益江路286弄"},{"poiid":"B2094757D06EAAF94799","title":"妈妈糖休闲咖啡馆 mamatown","lon":"121.62242","lat":"31.21869","category":"94","category_name":"西餐厅","address":"浦东新区青桐路199弄中芯花园23号"},{"poiid":"B2094757D06FABFD439A","title":"张江集电港二期","lon":"121.635397","lat":"31.216483","category":"47","category_name":"住宅区","address":"浦东新区张东路1387号"},{"poiid":"B2094654DB64A3FA4799","title":"张江集电港","lon":"121.63318","lat":"31.22205","category":"252","category_name":"楼宇机构","address":"卫清西路139_149号等"},{"poiid":"B2094757D068A7F8409D","title":"展讯豪生酒店","lon":"121.62515517","lat":"31.206159597","category":"217","category_name":"旅馆招待所","address":"上海市浦东新区祖冲之路2288弄（近申江路）"},{"poiid":"B2094757D06FA0FF409F","title":"阳光花城","lon":"121.62379","lat":"31.207195","category":"500","category_name":"未知分类","address":"上海市浦东新区紫薇路667弄"},{"poiid":"B2094757D06FA1F54498","title":"永达国际汽车广场","lon":"121.62713285","lat":"31.222678767","category":"500","category_name":"未知分类","address":"上海龙东大道2777号"},{"poiid":"B2094757D06AA4FA4692","title":"展讯中心","lon":"121.634","lat":"31.2169","category":"500","category_name":"未知分类","address":"上海浦东新区张江高科祖冲之路2288弄1号楼"},{"poiid":"B2094750DA6DA0FB429E","title":"张江家乐福","lon":"121.638771","lat":"31.203567","category":"249","category_name":"购物服务","address":"浦东新区张江高科中路2860号(近张东路)"},{"poiid":"B2094757D068A0F5479E","title":"宝诚宝马4S店(龙东大道店)","lon":"121.630592","lat":"31.224612","category":"158","category_name":"汽车销售","address":"浦东新区龙东大道2777号(近申江路)"},{"poiid":"B2094655D36DA6FD439B","title":"广兰路","lon":"121.61996","lat":"31.21077","category":"38","category_name":"公交车站","address":""},{"poiid":"B2094757D068A2FB4592","title":"台北雅厨","lon":"121.62232","lat":"31.21868","category":"91","category_name":"台湾菜","address":"浦东新区青桐路199弄中芯花园15号(近广兰路)"},{"poiid":"B2094757D068AAF84893","title":"龙东商务酒店","lon":"121.633540458","lat":"31.2227017056","category":"214","category_name":"四星级宾馆","address":"浦东新区龙东大道3000号(张东路口)"},{"poiid":"B2094757D069A5FE489C","title":"威尔士健身会所(张江店)","lon":"121.62643","lat":"31.20966","category":"221","category_name":"健身中心","address":"浦东新区祖冲之路2288号(近申江路)"},{"poiid":"B2094750D568ABF84299","title":"上海天之骄子","lon":"121.62937","lat":"31.211645","category":"47","category_name":"住宅区","address":"浦东祖冲之路2305号(盛夏路口)"},{"poiid":"B2094757D46BA5FE4492","title":"妈妈糖休闲咖啡馆 张东路店","lon":"121.6361072","lat":"31.2006146","category":"65","category_name":"咖啡厅","address":"浦东新区张东路1387号集电子社区中心2楼"},{"poiid":"B2094655D36DA0F54292","title":"玉兰香苑二期A块","lon":"121.63422596141","lat":"31.202460117491","category":"38","category_name":"公交车站","address":"益江路511弄"},{"poiid":"B2094757D06FA4F4479E","title":"友乐达台北精致面馆(张江店)","lon":"121.62252","lat":"31.21871","category":"68","category_name":"快餐厅","address":"浦东新区青桐路199弄中芯花园17号(近广兰路)"},{"poiid":"B2094750D76CA4FC479C","title":"妈妈糖2.0(张东路店)","lon":"121.634","lat":"31.2187","category":"94","category_name":"西餐厅","address":"浦东新区张东路1387号集电子社区中心2楼"},{"poiid":"B2094757D064AAF5499F","title":"瑞慈健康管理中心(张东路店)","lon":"121.6329","lat":"31.21723","category":"162","category_name":"医院","address":"上海浦东新区张东路1388号15幢(近丹桂路)"},{"poiid":"B2094757D164AAF54999","title":"肯德基","lon":"121.63701427","lat":"31.203571737","category":"68","category_name":"快餐厅","address":"浦东新区高科中路2860号家乐福(近外环线)"},{"poiid":"B2094655D36DA0F54293","title":"玉兰香苑二期C块","lon":"121.63363854614","lat":"31.203943272246","category":"38","category_name":"公交车站","address":"益江路396弄"},{"poiid":"B2094757D069A1FB439B","title":"容源大酒店","lon":"121.620157963","lat":"31.2053299054","category":"72","category_name":"广东菜","address":"浦东新区广兰路1080号(紫薇路口)"},{"poiid":"B2094757D06BAAFD479C","title":"中共上海市浦东新区区委党校","lon":"121.62418597","lat":"31.219276804","category":"260","category_name":"其他","address":"上海市浦东新区龙东大道"},{"poiid":"B2094655D36DA7FB449E","title":"祖冲之路申江路","lon":"121.6266","lat":"31.21147","category":"38","category_name":"公交车站","address":""},{"poiid":"B2094757D06BA5FD4499","title":"永和大王(张江家乐福店)","lon":"121.63938","lat":"31.20406","category":"68","category_name":"快餐厅","address":"浦东新区高科中路2860号家乐福2楼"},{"poiid":"B2094757D06AA3FB479E","title":"感恩堂","lon":"121.62321","lat":"31.21502","category":"500","category_name":"未知分类","address":"浦东新区丹桂路700号(丹桂路青桐路)"},{"poiid":"B2094654DA6AA5FD409F","title":"中芯花园","lon":"121.6208","lat":"31.218477","category":"47","category_name":"住宅区","address":"浦东新区丹桂路345弄"},{"poiid":"B2094757D06FAAFB449D","title":"玉兰香苑一期","lon":"121.633535","lat":"31.200113","category":"47","category_name":"住宅区","address":"上海浦东新区益江路126弄"},{"poiid":"B2094757D16FA3FC439B","title":"世和商务中心","lon":"121.62624997","lat":"31.213459668","category":"500","category_name":"未知分类","address":"上海市浦东新区祖冲之路2277弄"},{"poiid":"B2094654DA6AA5F94892","title":"兰沁苑","lon":"121.62245","lat":"31.205448","category":"47","category_name":"住宅区","address":"紫薇路750弄"},{"poiid":"B2094655D36DA7FD4299","title":"张东路祖冲之路","lon":"121.63276","lat":"31.21281","category":"38","category_name":"公交车站","address":""},{"poiid":"B2094750D26FA1FB469E","title":"上海船舶研究设计院","lon":"121.632415","lat":"31.211235","category":"252","category_name":"楼宇机构","address":"祖冲之路2633号"},{"poiid":"B2094757D465A0FB4593","title":"东北家乡菜浦东店","lon":"121.628631054","lat":"31.211942793","category":"82","category_name":"东北菜","address":"浦东新区益江路135弄2号(近盛夏路)"},{"poiid":"B2094757D069A6FE429B","title":"51job","lon":"121.633905","lat":"31.217677","category":"500","category_name":"未知分类","address":"上海张东路1387弄3号"},{"poiid":"B2094757D069AAF5459A","title":"外汇交易中心","lon":"121.63539886","lat":"31.216482162","category":"500","category_name":"未知分类","address":"上海张东路1387号"},{"poiid":"B2094757DA6FA2F5469E","title":"张江国家数字出版基地","lon":"121.62893056869507","lat":"31.21069099597688","category":"252","category_name":"楼宇机构","address":"上海 上海市 盛夏路570号"},{"poiid":"B2094757D16BA5FA4899","title":"红廊","lon":"121.62895","lat":"31.21183","category":"268","category_name":"自助","address":"浦东新区祖冲之路2288弄上海展讯豪生酒店1楼(近申江路)"},{"poiid":"B2094655D265A5F4459D","title":"格林豪泰酒店上海张江店","lon":"121.62062","lat":"31.20499","category":"216","category_name":"经济型连锁酒店","address":"浦东新区广兰路1090号"},{"poiid":"B209475CD26AAAFB459E","title":"星巴克（展想广场店）","lon":"121.631019","lat":"31.208768","category":"500","category_name":"未知分类","address":"上海市 上海市浦东新区张江高科祖冲之路2288号展想广场"},{"poiid":"B2094654DB64A3FA469D","title":"张江集电港·会展中心(张东路)","lon":"121.63236","lat":"31.22277","category":"185","category_name":"会展中心","address":"龙东大道3000号"},{"poiid":"B2094655D26BA0FE4293","title":"日月光水岸花园","lon":"121.62192","lat":"31.216284","category":"47","category_name":"住宅区","address":"浦东新区张江青桐路408弄(近丹桂路)"},{"poiid":"B2094757D16EA5F4459B","title":"申江路祖冲之路","lon":"121.626783","lat":"31.211311","category":"500","category_name":"未知分类","address":"上海申江路祖冲之路"},{"poiid":"B2094757D064A5F8489C","title":"阿玛达量贩式歌城","lon":"121.63179397","lat":"31.199798349","category":"170","category_name":"KTV","address":"浦东新区盛夏路1053号(近休闲广场)"},{"poiid":"B2094757D164A3FB4392","title":"迦拿咖啡","lon":"121.63431","lat":"31.21658","category":"94","category_name":"西餐厅","address":"浦东新区张东路1387号张江集电港二期21幢101室"},{"poiid":"B2094655D36DA7FD429B","title":"张东路高科中路","lon":"121.63504","lat":"31.20261","category":"38","category_name":"公交车站","address":""},{"poiid":"B2094757D16DA0FB459F","title":"张记台味","lon":"121.62629389","lat":"31.2164938005","category":"500","category_name":"未知分类","address":"浦东新区张江科技园区青桐路199弄18号"},{"poiid":"B2094757D16BA6F94199","title":"钱万隆大酒店","lon":"121.624439975","lat":"31.207584531","category":"247","category_name":"餐饮美食","address":"上海广兰路778号"},{"poiid":"B2094757D16AABFA419A","title":"will's 张江店","lon":"121.626645","lat":"31.210287","category":"500","category_name":"未知分类","address":"上海张江高科技园区祖冲之路2288号(展讯豪生酒店)"},{"poiid":"B2094757D06EAAF84399","title":"广兰路地铁站","lon":"121.61999759","lat":"31.210776628","category":"36","category_name":"地铁站","address":"上海轨道交通二号线广兰路站"},{"poiid":"B2094654DA6AA4FE4793","title":"玉兰香苑","lon":"121.63323","lat":"31.200127","category":"47","category_name":"住宅区","address":"上海市浦东新区益江路126弄、益江路286弄"},{"poiid":"B2094757D06EAAF94799","title":"妈妈糖休闲咖啡馆 mamatown","lon":"121.62242","lat":"31.21869","category":"94","category_name":"西餐厅","address":"浦东新区青桐路199弄中芯花园23号"},{"poiid":"B2094757D06FABFD439A","title":"张江集电港二期","lon":"121.635397","lat":"31.216483","category":"47","category_name":"住宅区","address":"浦东新区张东路1387号"},{"poiid":"B2094654DB64A3FA4799","title":"张江集电港","lon":"121.63318","lat":"31.22205","category":"252","category_name":"楼宇机构","address":"卫清西路139_149号等"},{"poiid":"B2094757D068A7F8409D","title":"展讯豪生酒店","lon":"121.62515517","lat":"31.206159597","category":"217","category_name":"旅馆招待所","address":"上海市浦东新区祖冲之路2288弄（近申江路）"},{"poiid":"B2094757D06FA0FF409F","title":"阳光花城","lon":"121.62379","lat":"31.207195","category":"500","category_name":"未知分类","address":"上海市浦东新区紫薇路667弄"},{"poiid":"B2094757D06FA1F54498","title":"永达国际汽车广场","lon":"121.62713285","lat":"31.222678767","category":"500","category_name":"未知分类","address":"上海龙东大道2777号"},{"poiid":"B2094757D06AA4FA4692","title":"展讯中心","lon":"121.634","lat":"31.2169","category":"500","category_name":"未知分类","address":"上海浦东新区张江高科祖冲之路2288弄1号楼"},{"poiid":"B2094750DA6DA0FB429E","title":"张江家乐福","lon":"121.638771","lat":"31.203567","category":"249","category_name":"购物服务","address":"浦东新区张江高科中路2860号(近张东路)"},{"poiid":"B2094757D068A0F5479E","title":"宝诚宝马4S店(龙东大道店)","lon":"121.630592","lat":"31.224612","category":"158","category_name":"汽车销售","address":"浦东新区龙东大道2777号(近申江路)"},{"poiid":"B2094655D36DA6FD439B","title":"广兰路","lon":"121.61996","lat":"31.21077","category":"38","category_name":"公交车站","address":""},{"poiid":"B2094757D068A2FB4592","title":"台北雅厨","lon":"121.62232","lat":"31.21868","category":"91","category_name":"台湾菜","address":"浦东新区青桐路199弄中芯花园15号(近广兰路)"},{"poiid":"B2094757D068AAF84893","title":"龙东商务酒店","lon":"121.633540458","lat":"31.2227017056","category":"214","category_name":"四星级宾馆","address":"浦东新区龙东大道3000号(张东路口)"},{"poiid":"B2094757D069A5FE489C","title":"威尔士健身会所(张江店)","lon":"121.62643","lat":"31.20966","category":"221","category_name":"健身中心","address":"浦东新区祖冲之路2288号(近申江路)"},{"poiid":"B2094750D568ABF84299","title":"上海天之骄子","lon":"121.62937","lat":"31.211645","category":"47","category_name":"住宅区","address":"浦东祖冲之路2305号(盛夏路口)"},{"poiid":"B2094757D46BA5FE4492","title":"妈妈糖休闲咖啡馆 张东路店","lon":"121.6361072","lat":"31.2006146","category":"65","category_name":"咖啡厅","address":"浦东新区张东路1387号集电子社区中心2楼"},{"poiid":"B2094655D36DA0F54292","title":"玉兰香苑二期A块","lon":"121.63422596141","lat":"31.202460117491","category":"38","category_name":"公交车站","address":"益江路511弄"},{"poiid":"B2094757D06FA4F4479E","title":"友乐达台北精致面馆(张江店)","lon":"121.62252","lat":"31.21871","category":"68","category_name":"快餐厅","address":"浦东新区青桐路199弄中芯花园17号(近广兰路)"},{"poiid":"B2094750D76CA4FC479C","title":"妈妈糖2.0(张东路店)","lon":"121.634","lat":"31.2187","category":"94","category_name":"西餐厅","address":"浦东新区张东路1387号集电子社区中心2楼"},{"poiid":"B2094757D064AAF5499F","title":"瑞慈健康管理中心(张东路店)","lon":"121.6329","lat":"31.21723","category":"162","category_name":"医院","address":"上海浦东新区张东路1388号15幢(近丹桂路)"},{"poiid":"B2094757D164AAF54999","title":"肯德基","lon":"121.63701427","lat":"31.203571737","category":"68","category_name":"快餐厅","address":"浦东新区高科中路2860号家乐福(近外环线)"},{"poiid":"B2094655D36DA0F54293","title":"玉兰香苑二期C块","lon":"121.63363854614","lat":"31.203943272246","category":"38","category_name":"公交车站","address":"益江路396弄"},{"poiid":"B2094757D069A1FB439B","title":"容源大酒店","lon":"121.620157963","lat":"31.2053299054","category":"72","category_name":"广东菜","address":"浦东新区广兰路1080号(紫薇路口)"},{"poiid":"B2094757D06BAAFD479C","title":"中共上海市浦东新区区委党校","lon":"121.62418597","lat":"31.219276804","category":"260","category_name":"其他","address":"上海市浦东新区龙东大道"},{"poiid":"B2094655D36DA7FB449E","title":"祖冲之路申江路","lon":"121.6266","lat":"31.21147","category":"38","category_name":"公交车站","address":""},{"poiid":"B2094757D06BA5FD4499","title":"永和大王(张江家乐福店)","lon":"121.63938","lat":"31.20406","category":"68","category_name":"快餐厅","address":"浦东新区高科中路2860号家乐福2楼"},{"poiid":"B2094757D06AA3FB479E","title":"感恩堂","lon":"121.62321","lat":"31.21502","category":"500","category_name":"未知分类","address":"浦东新区丹桂路700号(丹桂路青桐路)"},{"poiid":"B2094654DA6AA5FD409F","title":"中芯花园","lon":"121.6208","lat":"31.218477","category":"47","category_name":"住宅区","address":"浦东新区丹桂路345弄"},{"poiid":"B2094757D06FAAFB449D","title":"玉兰香苑一期","lon":"121.633535","lat":"31.200113","category":"47","category_name":"住宅区","address":"上海浦东新区益江路126弄"},{"poiid":"B2094757D16FA3FC439B","title":"世和商务中心","lon":"121.62624997","lat":"31.213459668","category":"500","category_name":"未知分类","address":"上海市浦东新区祖冲之路2277弄"},{"poiid":"B2094654DA6AA5F94892","title":"兰沁苑","lon":"121.62245","lat":"31.205448","category":"47","category_name":"住宅区","address":"紫薇路750弄"},{"poiid":"B2094655D36DA7FD4299","title":"张东路祖冲之路","lon":"121.63276","lat":"31.21281","category":"38","category_name":"公交车站","address":""},{"poiid":"B2094750D26FA1FB469E","title":"上海船舶研究设计院","lon":"121.632415","lat":"31.211235","category":"252","category_name":"楼宇机构","address":"祖冲之路2633号"},{"poiid":"B2094757D465A0FB4593","title":"东北家乡菜浦东店","lon":"121.628631054","lat":"31.211942793","category":"82","category_name":"东北菜","address":"浦东新区益江路135弄2号(近盛夏路)"},{"poiid":"B2094757D069A6FE429B","title":"51job","lon":"121.633905","lat":"31.217677","category":"500","category_name":"未知分类","address":"上海张东路1387弄3号"},{"poiid":"B2094757D069AAF5459A","title":"外汇交易中心","lon":"121.63539886","lat":"31.216482162","category":"500","category_name":"未知分类","address":"上海张东路1387号"},{"poiid":"B2094757DA6FA2F5469E","title":"张江国家数字出版基地","lon":"121.62893056869507","lat":"31.21069099597688","category":"252","category_name":"楼宇机构","address":"上海 上海市 盛夏路570号"},{"poiid":"B2094757D16BA5FA4899","title":"红廊","lon":"121.62895","lat":"31.21183","category":"268","category_name":"自助","address":"浦东新区祖冲之路2288弄上海展讯豪生酒店1楼(近申江路)"},{"poiid":"B2094655D265A5F4459D","title":"格林豪泰酒店上海张江店","lon":"121.62062","lat":"31.20499","category":"216","category_name":"经济型连锁酒店","address":"浦东新区广兰路1090号"},{"poiid":"B209475CD26AAAFB459E","title":"星巴克（展想广场店）","lon":"121.631019","lat":"31.208768","category":"500","category_name":"未知分类","address":"上海市 上海市浦东新区张江高科祖冲之路2288号展想广场"},{"poiid":"B2094654DB64A3FA469D","title":"张江集电港·会展中心(张东路)","lon":"121.63236","lat":"31.22277","category":"185","category_name":"会展中心","address":"龙东大道3000号"},{"poiid":"B2094655D26BA0FE4293","title":"日月光水岸花园","lon":"121.62192","lat":"31.216284","category":"47","category_name":"住宅区","address":"浦东新区张江青桐路408弄(近丹桂路)"},{"poiid":"B2094757D16EA5F4459B","title":"申江路祖冲之路","lon":"121.626783","lat":"31.211311","category":"500","category_name":"未知分类","address":"上海申江路祖冲之路"},{"poiid":"B2094757D064A5F8489C","title":"阿玛达量贩式歌城","lon":"121.63179397","lat":"31.199798349","category":"170","category_name":"KTV","address":"浦东新区盛夏路1053号(近休闲广场)"},{"poiid":"B2094757D164A3FB4392","title":"迦拿咖啡","lon":"121.63431","lat":"31.21658","category":"94","category_name":"西餐厅","address":"浦东新区张东路1387号张江集电港二期21幢101室"},{"poiid":"B2094655D36DA7FD429B","title":"张东路高科中路","lon":"121.63504","lat":"31.20261","category":"38","category_name":"公交车站","address":""},{"poiid":"B2094757D16DA0FB459F","title":"张记台味","lon":"121.62629389","lat":"31.2164938005","category":"500","category_name":"未知分类","address":"浦东新区张江科技园区青桐路199弄18号"},{"poiid":"B2094757D16BA6F94199","title":"钱万隆大酒店","lon":"121.624439975","lat":"31.207584531","category":"247","category_name":"餐饮美食","address":"上海广兰路778号"},{"poiid":"B2094757D16AABFA419A","title":"will's 张江店","lon":"121.626645","lat":"31.210287","category":"500","category_name":"未知分类","address":"上海张江高科技园区祖冲之路2288号(展讯豪生酒店)"},{"poiid":"B2094757D06EAAF84399","title":"广兰路地铁站","lon":"121.61999759","lat":"31.210776628","category":"36","category_name":"地铁站","address":"上海轨道交通二号线广兰路站"},{"poiid":"B2094654DA6AA4FE4793","title":"玉兰香苑","lon":"121.63323","lat":"31.200127","category":"47","category_name":"住宅区","address":"上海市浦东新区益江路126弄、益江路286弄"},{"poiid":"B2094757D06EAAF94799","title":"妈妈糖休闲咖啡馆 mamatown","lon":"121.62242","lat":"31.21869","category":"94","category_name":"西餐厅","address":"浦东新区青桐路199弄中芯花园23号"},{"poiid":"B2094757D06FABFD439A","title":"张江集电港二期","lon":"121.635397","lat":"31.216483","category":"47","category_name":"住宅区","address":"浦东新区张东路1387号"},{"poiid":"B2094654DB64A3FA4799","title":"张江集电港","lon":"121.63318","lat":"31.22205","category":"252","category_name":"楼宇机构","address":"卫清西路139_149号等"},{"poiid":"B2094757D068A7F8409D","title":"展讯豪生酒店","lon":"121.62515517","lat":"31.206159597","category":"217","category_name":"旅馆招待所","address":"上海市浦东新区祖冲之路2288弄（近申江路）"},{"poiid":"B2094757D06FA0FF409F","title":"阳光花城","lon":"121.62379","lat":"31.207195","category":"500","category_name":"未知分类","address":"上海市浦东新区紫薇路667弄"},{"poiid":"B2094757D06FA1F54498","title":"永达国际汽车广场","lon":"121.62713285","lat":"31.222678767","category":"500","category_name":"未知分类","address":"上海龙东大道2777号"},{"poiid":"B2094757D06AA4FA4692","title":"展讯中心","lon":"121.634","lat":"31.2169","category":"500","category_name":"未知分类","address":"上海浦东新区张江高科祖冲之路2288弄1号楼"},{"poiid":"B2094750DA6DA0FB429E","title":"张江家乐福","lon":"121.638771","lat":"31.203567","category":"249","category_name":"购物服务","address":"浦东新区张江高科中路2860号(近张东路)"},{"poiid":"B2094757D068A0F5479E","title":"宝诚宝马4S店(龙东大道店)","lon":"121.630592","lat":"31.224612","category":"158","category_name":"汽车销售","address":"浦东新区龙东大道2777号(近申江路)"},{"poiid":"B2094655D36DA6FD439B","title":"广兰路","lon":"121.61996","lat":"31.21077","category":"38","category_name":"公交车站","address":""},{"poiid":"B2094757D068A2FB4592","title":"台北雅厨","lon":"121.62232","lat":"31.21868","category":"91","category_name":"台湾菜","address":"浦东新区青桐路199弄中芯花园15号(近广兰路)"},{"poiid":"B2094757D068AAF84893","title":"龙东商务酒店","lon":"121.633540458","lat":"31.2227017056","category":"214","category_name":"四星级宾馆","address":"浦东新区龙东大道3000号(张东路口)"},{"poiid":"B2094757D069A5FE489C","title":"威尔士健身会所(张江店)","lon":"121.62643","lat":"31.20966","category":"221","category_name":"健身中心","address":"浦东新区祖冲之路2288号(近申江路)"},{"poiid":"B2094750D568ABF84299","title":"上海天之骄子","lon":"121.62937","lat":"31.211645","category":"47","category_name":"住宅区","address":"浦东祖冲之路2305号(盛夏路口)"},{"poiid":"B2094757D46BA5FE4492","title":"妈妈糖休闲咖啡馆 张东路店","lon":"121.6361072","lat":"31.2006146","category":"65","category_name":"咖啡厅","address":"浦东新区张东路1387号集电子社区中心2楼"},{"poiid":"B2094655D36DA0F54292","title":"玉兰香苑二期A块","lon":"121.63422596141","lat":"31.202460117491","category":"38","category_name":"公交车站","address":"益江路511弄"},{"poiid":"B2094757D06FA4F4479E","title":"友乐达台北精致面馆(张江店)","lon":"121.62252","lat":"31.21871","category":"68","category_name":"快餐厅","address":"浦东新区青桐路199弄中芯花园17号(近广兰路)"},{"poiid":"B2094750D76CA4FC479C","title":"妈妈糖2.0(张东路店)","lon":"121.634","lat":"31.2187","category":"94","category_name":"西餐厅","address":"浦东新区张东路1387号集电子社区中心2楼"},{"poiid":"B2094757D064AAF5499F","title":"瑞慈健康管理中心(张东路店)","lon":"121.6329","lat":"31.21723","category":"162","category_name":"医院","address":"上海浦东新区张东路1388号15幢(近丹桂路)"},{"poiid":"B2094757D164AAF54999","title":"肯德基","lon":"121.63701427","lat":"31.203571737","category":"68","category_name":"快餐厅","address":"浦东新区高科中路2860号家乐福(近外环线)"},{"poiid":"B2094655D36DA0F54293","title":"玉兰香苑二期C块","lon":"121.63363854614","lat":"31.203943272246","category":"38","category_name":"公交车站","address":"益江路396弄"},{"poiid":"B2094757D069A1FB439B","title":"容源大酒店","lon":"121.620157963","lat":"31.2053299054","category":"72","category_name":"广东菜","address":"浦东新区广兰路1080号(紫薇路口)"},{"poiid":"B2094757D06BAAFD479C","title":"中共上海市浦东新区区委党校","lon":"121.62418597","lat":"31.219276804","category":"260","category_name":"其他","address":"上海市浦东新区龙东大道"},{"poiid":"B2094655D36DA7FB449E","title":"祖冲之路申江路","lon":"121.6266","lat":"31.21147","category":"38","category_name":"公交车站","address":""},{"poiid":"B2094757D06BA5FD4499","title":"永和大王(张江家乐福店)","lon":"121.63938","lat":"31.20406","category":"68","category_name":"快餐厅","address":"浦东新区高科中路2860号家乐福2楼"},{"poiid":"B2094757D06AA3FB479E","title":"感恩堂","lon":"121.62321","lat":"31.21502","category":"500","category_name":"未知分类","address":"浦东新区丹桂路700号(丹桂路青桐路)"},{"poiid":"B2094654DA6AA5FD409F","title":"中芯花园","lon":"121.6208","lat":"31.218477","category":"47","category_name":"住宅区","address":"浦东新区丹桂路345弄"},{"poiid":"B2094757D06FAAFB449D","title":"玉兰香苑一期","lon":"121.633535","lat":"31.200113","category":"47","category_name":"住宅区","address":"上海浦东新区益江路126弄"},{"poiid":"B2094757D16FA3FC439B","title":"世和商务中心","lon":"121.62624997","lat":"31.213459668","category":"500","category_name":"未知分类","address":"上海市浦东新区祖冲之路2277弄"},{"poiid":"B2094654DA6AA5F94892","title":"兰沁苑","lon":"121.62245","lat":"31.205448","category":"47","category_name":"住宅区","address":"紫薇路750弄"},{"poiid":"B2094655D36DA7FD4299","title":"张东路祖冲之路","lon":"121.63276","lat":"31.21281","category":"38","category_name":"公交车站","address":""},{"poiid":"B2094750D26FA1FB469E","title":"上海船舶研究设计院","lon":"121.632415","lat":"31.211235","category":"252","category_name":"楼宇机构","address":"祖冲之路2633号"},{"poiid":"B2094757D465A0FB4593","title":"东北家乡菜浦东店","lon":"121.628631054","lat":"31.211942793","category":"82","category_name":"东北菜","address":"浦东新区益江路135弄2号(近盛夏路)"},{"poiid":"B2094757D069A6FE429B","title":"51job","lon":"121.633905","lat":"31.217677","category":"500","category_name":"未知分类","address":"上海张东路1387弄3号"},{"poiid":"B2094757D069AAF5459A","title":"外汇交易中心","lon":"121.63539886","lat":"31.216482162","category":"500","category_name":"未知分类","address":"上海张东路1387号"},{"poiid":"B2094757DA6FA2F5469E","title":"张江国家数字出版基地","lon":"121.62893056869507","lat":"31.21069099597688","category":"252","category_name":"楼宇机构","address":"上海 上海市 盛夏路570号"},{"poiid":"B2094757D16BA5FA4899","title":"红廊","lon":"121.62895","lat":"31.21183","category":"268","category_name":"自助","address":"浦东新区祖冲之路2288弄上海展讯豪生酒店1楼(近申江路)"},{"poiid":"B2094655D265A5F4459D","title":"格林豪泰酒店上海张江店","lon":"121.62062","lat":"31.20499","category":"216","category_name":"经济型连锁酒店","address":"浦东新区广兰路1090号"},{"poiid":"B209475CD26AAAFB459E","title":"星巴克（展想广场店）","lon":"121.631019","lat":"31.208768","category":"500","category_name":"未知分类","address":"上海市 上海市浦东新区张江高科祖冲之路2288号展想广场"},{"poiid":"B2094654DB64A3FA469D","title":"张江集电港·会展中心(张东路)","lon":"121.63236","lat":"31.22277","category":"185","category_name":"会展中心","address":"龙东大道3000号"},{"poiid":"B2094655D26BA0FE4293","title":"日月光水岸花园","lon":"121.62192","lat":"31.216284","category":"47","category_name":"住宅区","address":"浦东新区张江青桐路408弄(近丹桂路)"},{"poiid":"B2094757D16EA5F4459B","title":"申江路祖冲之路","lon":"121.626783","lat":"31.211311","category":"500","category_name":"未知分类","address":"上海申江路祖冲之路"},{"poiid":"B2094757D064A5F8489C","title":"阿玛达量贩式歌城","lon":"121.63179397","lat":"31.199798349","category":"170","category_name":"KTV","address":"浦东新区盛夏路1053号(近休闲广场)"},{"poiid":"B2094757D164A3FB4392","title":"迦拿咖啡","lon":"121.63431","lat":"31.21658","category":"94","category_name":"西餐厅","address":"浦东新区张东路1387号张江集电港二期21幢101室"},{"poiid":"B2094655D36DA7FD429B","title":"张东路高科中路","lon":"121.63504","lat":"31.20261","category":"38","category_name":"公交车站","address":""},{"poiid":"B2094757D16DA0FB459F","title":"张记台味","lon":"121.62629389","lat":"31.2164938005","category":"500","category_name":"未知分类","address":"浦东新区张江科技园区青桐路199弄18号"},{"poiid":"B2094757D16BA6F94199","title":"钱万隆大酒店","lon":"121.624439975","lat":"31.207584531","category":"247","category_name":"餐饮美食","address":"上海广兰路778号"},{"poiid":"B2094757D16AABFA419A","title":"will's 张江店","lon":"121.626645","lat":"31.210287","category":"500","category_name":"未知分类","address":"上海张江高科技园区祖冲之路2288号(展讯豪生酒店)"},{"poiid":"B2094757D06EAAF84399","title":"广兰路地铁站","lon":"121.61999759","lat":"31.210776628","category":"36","category_name":"地铁站","address":"上海轨道交通二号线广兰路站"},{"poiid":"B2094654DA6AA4FE4793","title":"玉兰香苑","lon":"121.63323","lat":"31.200127","category":"47","category_name":"住宅区","address":"上海市浦东新区益江路126弄、益江路286弄"},{"poiid":"B2094757D06EAAF94799","title":"妈妈糖休闲咖啡馆 mamatown","lon":"121.62242","lat":"31.21869","category":"94","category_name":"西餐厅","address":"浦东新区青桐路199弄中芯花园23号"},{"poiid":"B2094757D06FABFD439A","title":"张江集电港二期","lon":"121.635397","lat":"31.216483","category":"47","category_name":"住宅区","address":"浦东新区张东路1387号"},{"poiid":"B2094654DB64A3FA4799","title":"张江集电港","lon":"121.63318","lat":"31.22205","category":"252","category_name":"楼宇机构","address":"卫清西路139_149号等"},{"poiid":"B2094757D068A7F8409D","title":"展讯豪生酒店","lon":"121.62515517","lat":"31.206159597","category":"217","category_name":"旅馆招待所","address":"上海市浦东新区祖冲之路2288弄（近申江路）"},{"poiid":"B2094757D06FA0FF409F","title":"阳光花城","lon":"121.62379","lat":"31.207195","category":"500","category_name":"未知分类","address":"上海市浦东新区紫薇路667弄"},{"poiid":"B2094757D06FA1F54498","title":"永达国际汽车广场","lon":"121.62713285","lat":"31.222678767","category":"500","category_name":"未知分类","address":"上海龙东大道2777号"},{"poiid":"B2094757D06AA4FA4692","title":"展讯中心","lon":"121.634","lat":"31.2169","category":"500","category_name":"未知分类","address":"上海浦东新区张江高科祖冲之路2288弄1号楼"},{"poiid":"B2094750DA6DA0FB429E","title":"张江家乐福","lon":"121.638771","lat":"31.203567","category":"249","category_name":"购物服务","address":"浦东新区张江高科中路2860号(近张东路)"},{"poiid":"B2094757D068A0F5479E","title":"宝诚宝马4S店(龙东大道店)","lon":"121.630592","lat":"31.224612","category":"158","category_name":"汽车销售","address":"浦东新区龙东大道2777号(近申江路)"},{"poiid":"B2094655D36DA6FD439B","title":"广兰路","lon":"121.61996","lat":"31.21077","category":"38","category_name":"公交车站","address":""},{"poiid":"B2094757D068A2FB4592","title":"台北雅厨","lon":"121.62232","lat":"31.21868","category":"91","category_name":"台湾菜","address":"浦东新区青桐路199弄中芯花园15号(近广兰路)"},{"poiid":"B2094757D068AAF84893","title":"龙东商务酒店","lon":"121.633540458","lat":"31.2227017056","category":"214","category_name":"四星级宾馆","address":"浦东新区龙东大道3000号(张东路口)"},{"poiid":"B2094757D069A5FE489C","title":"威尔士健身会所(张江店)","lon":"121.62643","lat":"31.20966","category":"221","category_name":"健身中心","address":"浦东新区祖冲之路2288号(近申江路)"},{"poiid":"B2094750D568ABF84299","title":"上海天之骄子","lon":"121.62937","lat":"31.211645","category":"47","category_name":"住宅区","address":"浦东祖冲之路2305号(盛夏路口)"},{"poiid":"B2094757D46BA5FE4492","title":"妈妈糖休闲咖啡馆 张东路店","lon":"121.6361072","lat":"31.2006146","category":"65","category_name":"咖啡厅","address":"浦东新区张东路1387号集电子社区中心2楼"},{"poiid":"B2094655D36DA0F54292","title":"玉兰香苑二期A块","lon":"121.63422596141","lat":"31.202460117491","category":"38","category_name":"公交车站","address":"益江路511弄"},{"poiid":"B2094757D06FA4F4479E","title":"友乐达台北精致面馆(张江店)","lon":"121.62252","lat":"31.21871","category":"68","category_name":"快餐厅","address":"浦东新区青桐路199弄中芯花园17号(近广兰路)"},{"poiid":"B2094750D76CA4FC479C","title":"妈妈糖2.0(张东路店)","lon":"121.634","lat":"31.2187","category":"94","category_name":"西餐厅","address":"浦东新区张东路1387号集电子社区中心2楼"},{"poiid":"B2094757D064AAF5499F","title":"瑞慈健康管理中心(张东路店)","lon":"121.6329","lat":"31.21723","category":"162","category_name":"医院","address":"上海浦东新区张东路1388号15幢(近丹桂路)"},{"poiid":"B2094757D164AAF54999","title":"肯德基","lon":"121.63701427","lat":"31.203571737","category":"68","category_name":"快餐厅","address":"浦东新区高科中路2860号家乐福(近外环线)"},{"poiid":"B2094655D36DA0F54293","title":"玉兰香苑二期C块","lon":"121.63363854614","lat":"31.203943272246","category":"38","category_name":"公交车站","address":"益江路396弄"},{"poiid":"B2094757D069A1FB439B","title":"容源大酒店","lon":"121.620157963","lat":"31.2053299054","category":"72","category_name":"广东菜","address":"浦东新区广兰路1080号(紫薇路口)"},{"poiid":"B2094757D06BAAFD479C","title":"中共上海市浦东新区区委党校","lon":"121.62418597","lat":"31.219276804","category":"260","category_name":"其他","address":"上海市浦东新区龙东大道"},{"poiid":"B2094655D36DA7FB449E","title":"祖冲之路申江路","lon":"121.6266","lat":"31.21147","category":"38","category_name":"公交车站","address":""},{"poiid":"B2094757D06BA5FD4499","title":"永和大王(张江家乐福店)","lon":"121.63938","lat":"31.20406","category":"68","category_name":"快餐厅","address":"浦东新区高科中路2860号家乐福2楼"},{"poiid":"B2094757D06AA3FB479E","title":"感恩堂","lon":"121.62321","lat":"31.21502","category":"500","category_name":"未知分类","address":"浦东新区丹桂路700号(丹桂路青桐路)"},{"poiid":"B2094654DA6AA5FD409F","title":"中芯花园","lon":"121.6208","lat":"31.218477","category":"47","category_name":"住宅区","address":"浦东新区丹桂路345弄"},{"poiid":"B2094757D06FAAFB449D","title":"玉兰香苑一期","lon":"121.633535","lat":"31.200113","category":"47","category_name":"住宅区","address":"上海浦东新区益江路126弄"},{"poiid":"B2094757D16FA3FC439B","title":"世和商务中心","lon":"121.62624997","lat":"31.213459668","category":"500","category_name":"未知分类","address":"上海市浦东新区祖冲之路2277弄"},{"poiid":"B2094654DA6AA5F94892","title":"兰沁苑","lon":"121.62245","lat":"31.205448","category":"47","category_name":"住宅区","address":"紫薇路750弄"},{"poiid":"B2094655D36DA7FD4299","title":"张东路祖冲之路","lon":"121.63276","lat":"31.21281","category":"38","category_name":"公交车站","address":""},{"poiid":"B2094750D26FA1FB469E","title":"上海船舶研究设计院","lon":"121.632415","lat":"31.211235","category":"252","category_name":"楼宇机构","address":"祖冲之路2633号"},{"poiid":"B2094757D465A0FB4593","title":"东北家乡菜浦东店","lon":"121.628631054","lat":"31.211942793","category":"82","category_name":"东北菜","address":"浦东新区益江路135弄2号(近盛夏路)"},{"poiid":"B2094757D069A6FE429B","title":"51job","lon":"121.633905","lat":"31.217677","category":"500","category_name":"未知分类","address":"上海张东路1387弄3号"},{"poiid":"B2094757D069AAF5459A","title":"外汇交易中心","lon":"121.63539886","lat":"31.216482162","category":"500","category_name":"未知分类","address":"上海张东路1387号"},{"poiid":"B2094757DA6FA2F5469E","title":"张江国家数字出版基地","lon":"121.62893056869507","lat":"31.21069099597688","category":"252","category_name":"楼宇机构","address":"上海 上海市 盛夏路570号"},{"poiid":"B2094757D16BA5FA4899","title":"红廊","lon":"121.62895","lat":"31.21183","category":"268","category_name":"自助","address":"浦东新区祖冲之路2288弄上海展讯豪生酒店1楼(近申江路)"},{"poiid":"B2094655D265A5F4459D","title":"格林豪泰酒店上海张江店","lon":"121.62062","lat":"31.20499","category":"216","category_name":"经济型连锁酒店","address":"浦东新区广兰路1090号"},{"poiid":"B209475CD26AAAFB459E","title":"星巴克（展想广场店）","lon":"121.631019","lat":"31.208768","category":"500","category_name":"未知分类","address":"上海市 上海市浦东新区张江高科祖冲之路2288号展想广场"},{"poiid":"B2094654DB64A3FA469D","title":"张江集电港·会展中心(张东路)","lon":"121.63236","lat":"31.22277","category":"185","category_name":"会展中心","address":"龙东大道3000号"},{"poiid":"B2094655D26BA0FE4293","title":"日月光水岸花园","lon":"121.62192","lat":"31.216284","category":"47","category_name":"住宅区","address":"浦东新区张江青桐路408弄(近丹桂路)"},{"poiid":"B2094757D16EA5F4459B","title":"申江路祖冲之路","lon":"121.626783","lat":"31.211311","category":"500","category_name":"未知分类","address":"上海申江路祖冲之路"},{"poiid":"B2094757D064A5F8489C","title":"阿玛达量贩式歌城","lon":"121.63179397","lat":"31.199798349","category":"170","category_name":"KTV","address":"浦东新区盛夏路1053号(近休闲广场)"},{"poiid":"B2094757D164A3FB4392","title":"迦拿咖啡","lon":"121.63431","lat":"31.21658","category":"94","category_name":"西餐厅","address":"浦东新区张东路1387号张江集电港二期21幢101室"},{"poiid":"B2094655D36DA7FD429B","title":"张东路高科中路","lon":"121.63504","lat":"31.20261","category":"38","category_name":"公交车站","address":""},{"poiid":"B2094757D16DA0FB459F","title":"张记台味","lon":"121.62629389","lat":"31.2164938005","category":"500","category_name":"未知分类","address":"浦东新区张江科技园区青桐路199弄18号"},{"poiid":"B2094757D16BA6F94199","title":"钱万隆大酒店","lon":"121.624439975","lat":"31.207584531","category":"247","category_name":"餐饮美食","address":"上海广兰路778号"},{"poiid":"B2094757D16AABFA419A","title":"will's 张江店","lon":"121.626645","lat":"31.210287","category":"500","category_name":"未知分类","address":"上海张江高科技园区祖冲之路2288号(展讯豪生酒店)"}]