[{"poiid":"B2094654D564A3F8459C","title":"辛香汇(漕溪路)","lon":"121.43425","lat":"31.16899","category":"71","category_name":"四川菜","address":"徐汇区漕溪路280号(近漕宝路)"},{"poiid":"B2094654DB65A6FA429A","title":"上海市第八人民医院","lon":"121.43375046511653","lat":"31.167588930222983","category":"162","category_name":"医院","address":"徐汇区漕宝路8号(近漕溪路)"},{"poiid":"B2094757D06FA2F9479C","title":"光大会展中心国际大酒店","lon":"121.429373","lat":"31.168133","category":"214","category_name":"四星级宾馆","address":"上海市徐汇区漕宝路66号(光大会展中心旁)"},{"poiid":"B2094757D06EABF5429D","title":"漕宝路地铁站","lon":"121.43500667","lat":"31.168222633","category":"36","category_name":"地铁站","address":"上海轨道交通,一号线,轨交漕宝路站,1"},{"poiid":"B2094757D66EA2FE449B","title":"上海大饭堂","lon":"121.43188458","lat":"31.165935174","category":"76","category_name":"上海菜","address":"徐汇区康健路28号(近钦州路)"},{"poiid":"B2094752D669A0FA499D","title":"3Quarks真密室","lon":"121.430414","lat":"31.170023","category":"248","category_name":"生活娱乐","address":"上海市钦州路518号"},{"poiid":"B2094655D269AAFC439A","title":"华夏宾馆","lon":"121.42989","lat":"31.1678","category":"217","category_name":"旅馆招待所","address":"徐汇区漕宝路38号华夏宾馆2楼(近钦州路)"},{"poiid":"B2094757D16CA6F84693","title":"沪闵高架南站上匝道","lon":"121.43315058","lat":"31.164494146","category":"500","category_name":"未知分类","address":"上海市徐汇区漕宝路"},{"poiid":"B2094654D564A0F4429A","title":"上海市第八人民医院门诊部","lon":"121.4341","lat":"31.16753","category":"162","category_name":"医院","address":"沪闵路9802"},{"poiid":"B2094757D16EABFE469D","title":"一号线漕宝路站","lon":"121.434171986","lat":"31.1680311153","category":"500","category_name":"未知分类","address":"上海漕宝路"},{"poiid":"B2094654D564A0F4419A","title":"上海市第八人民医院(北门)","lon":"121.43288","lat":"31.16809","category":"656","category_name":"大门","address":"漕宝路8号"},{"poiid":"B2094654DB64A6F4409A","title":"汉庭快捷(光大店)","lon":"121.43547","lat":"31.16827","category":"216","category_name":"经济型连锁酒店","address":"徐汇区龙漕路2号(地铁1号线漕宝路站4号口)"},{"poiid":"B2094757D06BA6FD4792","title":"五木铁板烧(漕宝路店)","lon":"121.43019458","lat":"31.168261219","category":"269","category_name":"烧烤","address":"徐汇区漕宝路38号华夏宾馆1楼(近钦州路)"},{"poiid":"B2094757D16EA5F9439D","title":"卡好日本料理","lon":"121.42932","lat":"31.16821","category":"95","category_name":"日本料理","address":"徐汇区漕宝路59号(近光大会展中心)"},{"poiid":"B2094655D36DA6FC419F","title":"漕河泾","lon":"121.4326","lat":"31.16836","category":"38","category_name":"公交车站","address":""},{"poiid":"B2094757D06FA5F44498","title":"宜芝多(漕宝路店)","lon":"121.434270467","lat":"31.1685158217","category":"112","category_name":"糕饼店","address":"徐汇区漕宝路36号(漕溪路口)"},{"poiid":"B2094757D068A0FA429C","title":"全家便利(漕宝路店)","lon":"121.43216296","lat":"31.168398727","category":"117","category_name":"便民商店/便利店","address":"上海徐汇区漕宝路36号1楼(近钦州路)"},{"poiid":"B2094757D16AA4FF4093","title":"八五医院","lon":"121.435044586","lat":"31.1669841949","category":"162","category_name":"医院","address":"上海漕溪路"},{"poiid":"B2094757D465A3FE489C","title":"四季草堂 漕溪路店","lon":"121.434560054","lat":"31.168550793","category":"76","category_name":"上海菜","address":"徐汇区漕溪路251弄望族城内(近漕宝路)"},{"poiid":"B2094757D66AA0F9469D","title":"漕龙沈记酒楼","lon":"121.43443832498","lat":"31.168168938409","category":"76","category_name":"上海菜","address":"徐汇区漕溪路121号(近宜家)"},{"poiid":"B2094654DB6CA6F84093","title":"创意阁","lon":"121.433","lat":"31.169","category":"46","category_name":"楼宇","address":"上海徐汇区冠生园路231号徐汇创意阁"},{"poiid":"B2094654D564A3F8449F","title":"街客 漕宝店 Jack Hut","lon":"121.433699054","lat":"31.168074793","category":"113","category_name":"冷饮店","address":"徐汇区漕宝路25号(近漕宝路地铁口)"},{"poiid":"B2094757D464AAF9469B","title":"集集小镇 龙漕店 Jijitown","lon":"121.434757054","lat":"31.168068793","category":"68","category_name":"快餐厅","address":"徐汇区龙漕路2号(近漕宝路)"},{"poiid":"B2094757D065A4FB429B","title":"卢大姐四川简阳羊肉汤","lon":"121.436490586","lat":"31.1694412428","category":"71","category_name":"四川菜","address":"徐汇区龙漕路63号(近漕溪路)"},{"poiid":"B2094757D06BA0F54892","title":"老凤祥","lon":"121.433883","lat":"31.169883","category":"500","category_name":"未知分类","address":"上海漕溪路258弄26号"},{"poiid":"B2094655D265A1FB409D","title":"皇中皇大饼漕宝路店","lon":"121.43301","lat":"31.16812","category":"247","category_name":"餐饮美食","address":"漕宝路6号"},{"poiid":"B2094757D069A4FE4998","title":"浪漫满屋礼服馆","lon":"121.436008172","lat":"31.1681104698","category":"141","category_name":"服装鞋帽皮具店","address":"徐汇区华石路95号(近宜家家居)查看地图"},{"poiid":"B2094757D569A3FA4898","title":"博望坡餐厅漕溪路店","lon":"121.4343939","lat":"31.169975","category":"260","category_name":"其他","address":"徐汇区漕溪路260号(近漕宝路)"},{"poiid":"B2094654D564A0FB489A","title":"九彩天大酒楼","lon":"121.43016","lat":"31.16786","category":"76","category_name":"上海菜","address":"徐汇区漕宝路38号华夏宾馆2楼(漕溪路口)"},{"poiid":"B2094750DA6EABFC469C","title":"徐家汇美罗城","lon":"121.4346","lat":"31.165288","category":"500","category_name":"未知分类","address":null},{"poiid":"B2094757D069A1F9409B","title":"拉夏贝尔服饰股份有限公司","lon":"121.43353651","lat":"31.169711699","category":"46","category_name":"楼宇","address":"上海徐汇区漕溪路270号小白楼1楼"},{"poiid":"B2094654D564A0FB4899","title":"全家(漕宝路)","lon":"121.43181","lat":"31.16807","category":"117","category_name":"便民商店/便利店","address":"漕宝路36-1"},{"poiid":"B209475CD06AA3F54599","title":"星巴克 上海体育馆店 Starbucks Cafe","lon":"121.434141054","lat":"31.167799793","category":"65","category_name":"咖啡厅","address":"漕溪路1111号上海体育馆1楼近漕宝路"},{"poiid":"B2094654D564A0F4429B","title":"上海市血液中心徐汇爱心献血屋","lon":"121.43411","lat":"31.16734","category":"162","category_name":"医院","address":"沪闵路9816"},{"poiid":"B2094654DB6BA7FB4093","title":"和信商务大楼","lon":"121.4317","lat":"31.16787","category":"46","category_name":"楼宇","address":"漕宝路36"},{"poiid":"B2094654DB6BA7F84993","title":"上海新纪元大酒店","lon":"121.4342","lat":"31.1691","category":"215","category_name":"三星级宾馆","address":"徐汇区漕溪路280号(近龙漕路)"},{"poiid":"B2094654D564A0F4429E","title":"市八医院发热门诊","lon":"121.43397","lat":"31.16693","category":"162","category_name":"医院","address":""},{"poiid":"B2094654DB65A3FF419B","title":"避风塘茶楼漕溪北路店","lon":"121.43512","lat":"31.16964","category":"66","category_name":"茶艺馆","address":"漕溪路249"},{"poiid":"B2094757D06BA0FC4693","title":"中国工商银行上海市徐汇支行习勤路分理处","lon":"121.43229853","lat":"31.168245184","category":"500","category_name":"未知分类","address":"上海漕宝路36号"},{"poiid":"B2094757D06BA4FE429B","title":"口吅品牛肉面馆 漕宝路店","lon":"121.430776054","lat":"31.168222793","category":"68","category_name":"快餐厅","address":"徐汇区漕宝路43号(近钦州路)"},{"poiid":"B2094757D16AA1FC4092","title":"玲珑面馆","lon":"121.432861086","lat":"31.1654510983","category":"68","category_name":"快餐厅","address":"徐汇区康健路11号(近沪闵路)"},{"poiid":"B2094655D36CA7FD4599","title":"沪闵路漕宝路","lon":"121.43454","lat":"31.16777","category":"38","category_name":"公交车站","address":""},{"poiid":"B2094757D168A0FC4893","title":"西瓜庄园(光大店)","lon":"121.432651991","lat":"31.1682659549","category":"500","category_name":"未知分类","address":"上海漕宝路51号"},{"poiid":"B2094654DB65A5F5419F","title":"上海银行漕河泾支行营业部","lon":"121.43328","lat":"31.16811","category":"150","category_name":"银行","address":"漕宝路6临"},{"poiid":"B2094654D564A0F4429D","title":"泰成商务楼","lon":"121.43392","lat":"31.16632","category":"46","category_name":"楼宇","address":"上海,上海市,沪闵路9510号"},{"poiid":"B2094757D064A2FF4899","title":"上海市环境科学研究院","lon":"121.43038177","lat":"31.169113159","category":"500","category_name":"未知分类","address":"上海徐汇区钦州路508号"},{"poiid":"B2094654DB69ABFE459C","title":"农工商超市(漕宝店)","lon":"121.43399","lat":"31.16804","category":"118","category_name":"超级市场","address":"徐汇区漕宝路8号桥3237号(近漕溪路)"},{"poiid":"B2094654D564A0F4409D","title":"中国工商银行上海市习勤路支行","lon":"121.43228","lat":"31.16806","category":"150","category_name":"银行","address":"漕宝路36"},{"poiid":"B2094654DB69A5F5409F","title":"避风塘(漕溪店)","lon":"121.43579","lat":"31.16936","category":"66","category_name":"茶艺馆","address":"徐汇区漕溪路121号(近中山西路)"},{"poiid":"B2094654D564A3F84598","title":"赛妮尔商厦","lon":"121.43418","lat":"31.16876","category":"119","category_name":"商场","address":"漕溪路280"},{"poiid":"B2094654D564A3F8459C","title":"辛香汇(漕溪路)","lon":"121.43425","lat":"31.16899","category":"71","category_name":"四川菜","address":"徐汇区漕溪路280号(近漕宝路)"},{"poiid":"B2094654DB65A6FA429A","title":"上海市第八人民医院","lon":"121.43375046511653","lat":"31.167588930222983","category":"162","category_name":"医院","address":"徐汇区漕宝路8号(近漕溪路)"},{"poiid":"B2094757D06FA2F9479C","title":"光大会展中心国际大酒店","lon":"121.429373","lat":"31.168133","category":"214","category_name":"四星级宾馆","address":"上海市徐汇区漕宝路66号(光大会展中心旁)"},{"poiid":"B2094757D06EABF5429D","title":"漕宝路地铁站","lon":"121.43500667","lat":"31.168222633","category":"36","category_name":"地铁站","address":"上海轨道交通,一号线,轨交漕宝路站,1"},{"poiid":"B2094757D66EA2FE449B","title":"上海大饭堂","lon":"121.43188458","lat":"31.165935174","category":"76","category_name":"上海菜","address":"徐汇区康健路28号(近钦州路)"},{"poiid":"B2094752D669A0FA499D","title":"3Quarks真密室","lon":"121.430414","lat":"31.170023","category":"248","category_name":"生活娱乐","address":"上海市钦州路518号"},{"poiid":"B2094655D269AAFC439A","title":"华夏宾馆","lon":"121.42989","lat":"31.1678","category":"217","category_name":"旅馆招待所","address":"徐汇区漕宝路38号华夏宾馆2楼(近钦州路)"},{"poiid":"B2094757D16CA6F84693","title":"沪闵高架南站上匝道","lon":"121.43315058","lat":"31.164494146","category":"500","category_name":"未知分类","address":"上海市徐汇区漕宝路"},{"poiid":"B2094654D564A0F4429A","title":"上海市第八人民医院门诊部","lon":"121.4341","lat":"31.16753","category":"162","category_name":"医院","address":"沪闵路9802"},{"poiid":"B2094757D16EABFE469D","title":"一号线漕宝路站","lon":"121.434171986","lat":"31.1680311153","category":"500","category_name":"未知分类","address":"上海漕宝路"},{"poiid":"B2094654D564A0F4419A","title":"上海市第八人民医院(北门)","lon":"121.43288","lat":"31.16809","category":"656","category_name":"大门","address":"漕宝路8号"},{"poiid":"B2094654DB64A6F4409A","title":"汉庭快捷(光大店)","lon":"121.43547","lat":"31.16827","category":"216","category_name":"经济型连锁酒店","address":"徐汇区龙漕路2号(地铁1号线漕宝路站4号口)"},{"poiid":"B2094757D06BA6FD4792","title":"五木铁板烧(漕宝路店)","lon":"121.43019458","lat":"31.168261219","category":"269","category_name":"烧烤","address":"徐汇区漕宝路38号华夏宾馆1楼(近钦州路)"},{"poiid":"B2094757D16EA5F9439D","title":"卡好日本料理","lon":"121.42932","lat":"31.16821","category":"95","category_name":"日本料理","address":"徐汇区漕宝路59号(近光大会展中心)"},{"poiid":"B2094655D36DA6FC419F","title":"漕河泾","lon":"121.4326","lat":"31.16836","category":"38","category_name":"公交车站","address":""},{"poiid":"B2094757D06FA5F44498","title":"宜芝多(漕宝路店)","lon":"121.434270467","lat":"31.1685158217","category":"112","category_name":"糕饼店","address":"徐汇区漕宝路36号(漕溪路口)"},{"poiid":"B2094757D068A0FA429C","title":"全家便利(漕宝路店)","lon":"121.43216296","lat":"31.168398727","category":"117","category_name":"便民商店/便利店","address":"上海徐汇区漕宝路36号1楼(近钦州路)"},{"poiid":"B2094757D16AA4FF4093","title":"八五医院","lon":"121.435044586","lat":"31.1669841949","category":"162","category_name":"医院","address":"上海漕溪路"},{"poiid":"B2094757D465A3FE489C","title":"四季草堂 漕溪路店","lon":"121.434560054","lat":"31.168550793","category":"76","category_name":"上海菜","address":"徐汇区漕溪路251弄望族城内(近漕宝路)"},{"poiid":"B2094757D66AA0F9469D","title":"漕龙沈记酒楼","lon":"121.43443832498","lat":"31.168168938409","category":"76","category_name":"上海菜","address":"徐汇区漕溪路121号(近宜家)"},{"poiid":"B2094654DB6CA6F84093","title":"创意阁","lon":"121.433","lat":"31.169","category":"46","category_name":"楼宇","address":"上海徐汇区冠生园路231号徐汇创意阁"},{"poiid":"B2094654D564A3F8449F","title":"街客 漕宝店 Jack Hut","lon":"121.433699054","lat":"31.168074793","category":"113","category_name":"冷饮店","address":"徐汇区漕宝路25号(近漕宝路地铁口)"},{"poiid":"B2094757D464AAF9469B","title":"集集小镇 龙漕店 Jijitown","lon":"121.434757054","lat":"31.168068793","category":"68","category_name":"快餐厅","address":"徐汇区龙漕路2号(近漕宝路)"},{"poiid":"B2094757D065A4FB429B","title":"卢大姐四川简阳羊肉汤","lon":"121.436490586","lat":"31.1694412428","category":"71","category_name":"四川菜","address":"徐汇区龙漕路63号(近漕溪路)"},{"poiid":"B2094757D06BA0F54892","title":"老凤祥","lon":"121.433883","lat":"31.169883","category":"500","category_name":"未知分类","address":"上海漕溪路258弄26号"},{"poiid":"B2094655D265A1FB409D","title":"皇中皇大饼漕宝路店","lon":"121.43301","lat":"31.16812","category":"247","category_name":"餐饮美食","address":"漕宝路6号"},{"poiid":"B2094757D069A4FE4998","title":"浪漫满屋礼服馆","lon":"121.436008172","lat":"31.1681104698","category":"141","category_name":"服装鞋帽皮具店","address":"徐汇区华石路95号(近宜家家居)查看地图"},{"poiid":"B2094757D569A3FA4898","title":"博望坡餐厅漕溪路店","lon":"121.4343939","lat":"31.169975","category":"260","category_name":"其他","address":"徐汇区漕溪路260号(近漕宝路)"},{"poiid":"B2094654D564A0FB489A","title":"九彩天大酒楼","lon":"121.43016","lat":"31.16786","category":"76","category_name":"上海菜","address":"徐汇区漕宝路38号华夏宾馆2楼(漕溪路口)"},{"poiid":"B2094750DA6EABFC469C","title":"徐家汇美罗城","lon":"121.4346","lat":"31.165288","category":"500","category_name":"未知分类","address":null},{"poiid":"B2094757D069A1F9409B","title":"拉夏贝尔服饰股份有限公司","lon":"121.43353651","lat":"31.169711699","category":"46","category_name":"楼宇","address":"上海徐汇区漕溪路270号小白楼1楼"},{"poiid":"B2094654D564A0FB4899","title":"全家(漕宝路)","lon":"121.43181","lat":"31.16807","category":"117","category_name":"便民商店/便利店","address":"漕宝路36-1"},{"poiid":"B209475CD06AA3F54599","title":"星巴克 上海体育馆店 Starbucks Cafe","lon":"121.434141054","lat":"31.167799793","category":"65","category_name":"咖啡厅","address":"漕溪路1111号上海体育馆1楼近漕宝路"},{"poiid":"B2094654D564A0F4429B","title":"上海市血液中心徐汇爱心献血屋","lon":"121.43411","lat":"31.16734","category":"162","category_name":"医院","address":"沪闵路9816"},{"poiid":"B2094654DB6BA7FB4093","title":"和信商务大楼","lon":"121.4317","lat":"31.16787","category":"46","category_name":"楼宇","address":"漕宝路36"},{"poiid":"B2094654DB6BA7F84993","title":"上海新纪元大酒店","lon":"121.4342","lat":"31.1691","category":"215","category_name":"三星级宾馆","address":"徐汇区漕溪路280号(近龙漕路)"},{"poiid":"B2094654D564A0F4429E","title":"市八医院发热门诊","lon":"121.43397","lat":"31.16693","category":"162","category_name":"医院","address":""},{"poiid":"B2094654DB65A3FF419B","title":"避风塘茶楼漕溪北路店","lon":"121.43512","lat":"31.16964","category":"66","category_name":"茶艺馆","address":"漕溪路249"},{"poiid":"B2094757D06BA0FC4693","title":"中国工商银行上海市徐汇支行习勤路分理处","lon":"121.43229853","lat":"31.168245184","category":"500","category_name":"未知分类","address":"上海漕宝路36号"},{"poiid":"B2094757D06BA4FE429B","title":"口吅品牛肉面馆 漕宝路店","lon":"121.430776054","lat":"31.168222793","category":"68","category_name":"快餐厅","address":"徐汇区漕宝路43号(近钦州路)"},{"poiid":"B2094757D16AA1FC4092","title":"玲珑面馆","lon":"121.432861086","lat":"31.1654510983","category":"68","category_name":"快餐厅","address":"徐汇区康健路11号(近沪闵路)"},{"poiid":"B2094655D36CA7FD4599","title":"沪闵路漕宝路","lon":"121.43454","lat":"31.16777","category":"38","category_name":"公交车站","address":""},{"poiid":"B2094757D168A0FC4893","title":"西瓜庄园(光大店)","lon":"121.432651991","lat":"31.1682659549","category":"500","category_name":"未知分类","address":"上海漕宝路51号"},{"poiid":"B2094654DB65A5F5419F","title":"上海银行漕河泾支行营业部","lon":"121.43328","lat":"31.16811","category":"150","category_name":"银行","address":"漕宝路6临"},{"poiid":"B2094654D564A0F4429D","title":"泰成商务楼","lon":"121.43392","lat":"31.16632","category":"46","category_name":"楼宇","address":"上海,上海市,沪闵路9510号"},{"poiid":"B2094757D064A2FF4899","title":"上海市环境科学研究院","lon":"121.43038177","lat":"31.169113159","category":"500","category_name":"未知分类","address":"上海徐汇区钦州路508号"},{"poiid":"B2094654DB69ABFE459C","title":"农工商超市(漕宝店)","lon":"121.43399","lat":"31.16804","category":"118","category_name":"超级市场","address":"徐汇区漕宝路8号桥3237号(近漕溪路)"},{"poiid":"B2094654D564A0F4409D","title":"中国工商银行上海市习勤路支行","lon":"121.43228","lat":"31.16806","category":"150","category_name":"银行","address":"漕宝路36"},{"poiid":"B2094654DB69A5F5409F","title":"避风塘(漕溪店)","lon":"121.43579","lat":"31.16936","category":"66","category_name":"茶艺馆","address":"徐汇区漕溪路121号(近中山西路)"},{"poiid":"B2094654D564A3F84598","title":"赛妮尔商厦","lon":"121.43418","lat":"31.16876","category":"119","category_name":"商场","address":"漕溪路280"},{"poiid":"B2094654D564A3F8459C","title":"辛香汇(漕溪路)","lon":"121.43425","lat":"31.16899","category":"71","category_name":"四川菜","address":"徐汇区漕溪路280号(近漕宝路)"},{"poiid":"B2094654DB65A6FA429A","title":"上海市第八人民医院","lon":"121.43375046511653","lat":"31.167588930222983","category":"162","category_name":"医院","address":"徐汇区漕宝路8号(近漕溪路)"},{"poiid":"B2094757D06FA2F9479C","title":"光大会展中心国际大酒店","lon":"121.429373","lat":"31.168133","category":"214","category_name":"四星级宾馆","address":"上海市徐汇区漕宝路66号(光大会展中心旁)"},{"poiid":"B2094757D06EABF5429D","title":"漕宝路地铁站","lon":"121.43500667","lat":"31.168222633","category":"36","category_name":"地铁站","address":"上海轨道交通,一号线,轨交漕宝路站,1"},{"poiid":"B2094757D66EA2FE449B","title":"上海大饭堂","lon":"121.43188458","lat":"31.165935174","category":"76","category_name":"上海菜","address":"徐汇区康健路28号(近钦州路)"},{"poiid":"B2094752D669A0FA499D","title":"3Quarks真密室","lon":"121.430414","lat":"31.170023","category":"248","category_name":"生活娱乐","address":"上海市钦州路518号"},{"poiid":"B2094655D269AAFC439A","title":"华夏宾馆","lon":"121.42989","lat":"31.1678","category":"217","category_name":"旅馆招待所","address":"徐汇区漕宝路38号华夏宾馆2楼(近钦州路)"},{"poiid":"B2094757D16CA6F84693","title":"沪闵高架南站上匝道","lon":"121.43315058","lat":"31.164494146","category":"500","category_name":"未知分类","address":"上海市徐汇区漕宝路"},{"poiid":"B2094654D564A0F4429A","title":"上海市第八人民医院门诊部","lon":"121.4341","lat":"31.16753","category":"162","category_name":"医院","address":"沪闵路9802"},{"poiid":"B2094757D16EABFE469D","title":"一号线漕宝路站","lon":"121.434171986","lat":"31.1680311153","category":"500","category_name":"未知分类","address":"上海漕宝路"},{"poiid":"B2094654D564A0F4419A","title":"上海市第八人民医院(北门)","lon":"121.43288","lat":"31.16809","category":"656","category_name":"大门","address":"漕宝路8号"},{"poiid":"B2094654DB64A6F4409A","title":"汉庭快捷(光大店)","lon":"121.43547","lat":"31.16827","category":"216","category_name":"经济型连锁酒店","address":"徐汇区龙漕路2号(地铁1号线漕宝路站4号口)"},{"poiid":"B2094757D06BA6FD4792","title":"五木铁板烧(漕宝路店)","lon":"121.43019458","lat":"31.168261219","category":"269","category_name":"烧烤","address":"徐汇区漕宝路38号华夏宾馆1楼(近钦州路)"},{"poiid":"B2094757D16EA5F9439D","title":"卡好日本料理","lon":"121.42932","lat":"31.16821","category":"95","category_name":"日本料理","address":"徐汇区漕宝路59号(近光大会展中心)"},{"poiid":"B2094655D36DA6FC419F","title":"漕河泾","lon":"121.4326","lat":"31.16836","category":"38","category_name":"公交车站","address":""},{"poiid":"B2094757D06FA5F44498","title":"宜芝多(漕宝路店)","lon":"121.434270467","lat":"31.1685158217","category":"112","category_name":"糕饼店","address":"徐汇区漕宝路36号(漕溪路口)"},{"poiid":"B2094757D068A0FA429C","title":"全家便利(漕宝路店)","lon":"121.43216296","lat":"31.168398727","category":"117","category_name":"便民商店/便利店","address":"上海徐汇区漕宝路36号1楼(近钦州路)"},{"poiid":"B2094757D16AA4FF4093","title":"八五医院","lon":"121.435044586","lat":"31.1669841949","category":"162","category_name":"医院","address":"上海漕溪路"},{"poiid":"B2094757D465A3FE489C","title":"四季草堂 漕溪路店","lon":"121.434560054","lat":"31.168550793","category":"76","category_name":"上海菜","address":"徐汇区漕溪路251弄望族城内(近漕宝路)"},{"poiid":"B2094757D66AA0F9469D","title":"漕龙沈记酒楼","lon":"121.43443832498","lat":"31.168168938409","category":"76","category_name":"上海菜","address":"徐汇区漕溪路121号(近宜家)"},{"poiid":"B2094654DB6CA6F84093","title":"创意阁","lon":"121.433","lat":"31.169","category":"46","category_name":"楼宇","address":"上海徐汇区冠生园路231号徐汇创意阁"},{"poiid":"B2094654D564A3F8449F","title":"街客 漕宝店 Jack Hut","lon":"121.433699054","lat":"31.168074793","category":"113","category_name":"冷饮店","address":"徐汇区漕宝路25号(近漕宝路地铁口)"},{"poiid":"B2094757D464AAF9469B","title":"集集小镇 龙漕店 Jijitown","lon":"121.434757054","lat":"31.168068793","category":"68","category_name":"快餐厅","address":"徐汇区龙漕路2号(近漕宝路)"},{"poiid":"B2094757D065A4FB429B","title":"卢大姐四川简阳羊肉汤","lon":"121.436490586","lat":"31.1694412428","category":"71","category_name":"四川菜","address":"徐汇区龙漕路63号(近漕溪路)"},{"poiid":"B2094757D06BA0F54892","title":"老凤祥","lon":"121.433883","lat":"31.169883","category":"500","category_name":"未知分类","address":"上海漕溪路258弄26号"},{"poiid":"B2094655D265A1FB409D","title":"皇中皇大饼漕宝路店","lon":"121.43301","lat":"31.16812","category":"247","category_name":"餐饮美食","address":"漕宝路6号"},{"poiid":"B2094757D069A4FE4998","title":"浪漫满屋礼服馆","lon":"121.436008172","lat":"31.1681104698","category":"141","category_name":"服装鞋帽皮具店","address":"徐汇区华石路95号(近宜家家居)查看地图"},{"poiid":"B2094757D569A3FA4898","title":"博望坡餐厅漕溪路店","lon":"121.4343939","lat":"31.169975","category":"260","category_name":"其他","address":"徐汇区漕溪路260号(近漕宝路)"},{"poiid":"B2094654D564A0FB489A","title":"九彩天大酒楼","lon":"121.43016","lat":"31.16786","category":"76","category_name":"上海菜","address":"徐汇区漕宝路38号华夏宾馆2楼(漕溪路口)"},{"poiid":"B2094750DA6EABFC469C","title":"徐家汇美罗城","lon":"121.4346","lat":"31.165288","category":"500","category_name":"未知分类","address":null},{"poiid":"B2094757D069A1F9409B","title":"拉夏贝尔服饰股份有限公司","lon":"121.43353651","lat":"31.169711699","category":"46","category_name":"楼宇","address":"上海徐汇区漕溪路270号小白楼1楼"},{"poiid":"B2094654D564A0FB4899","title":"全家(漕宝路)","lon":"121.43181","lat":"31.16807","category":"117","category_name":"便民商店/便利店","address":"漕宝路36-1"},{"poiid":"B209475CD06AA3F54599","title":"星巴克 上海体育馆店 Starbucks Cafe","lon":"121.434141054","lat":"31.167799793","category":"65","category_name":"咖啡厅","address":"漕溪路1111号上海体育馆1楼近漕宝路"},{"poiid":"B2094654D564A0F4429B","title":"上海市血液中心徐汇爱心献血屋","lon":"121.43411","lat":"31.16734","category":"162","category_name":"医院","address":"沪闵路9816"},{"poiid":"B2094654DB6BA7FB4093","title":"和信商务大楼","lon":"121.4317","lat":"31.16787","category":"46","category_name":"楼宇","address":"漕宝路36"},{"poiid":"B2094654DB6BA7F84993","title":"上海新纪元大酒店","lon":"121.4342","lat":"31.1691","category":"215","category_name":"三星级宾馆","address":"徐汇区漕溪路280号(近龙漕路)"},{"poiid":"B2094654D564A0F4429E","title":"市八医院发热门诊","lon":"121.43397","lat":"31.16693","category":"162","category_name":"医院","address":""},{"poiid":"B2094654DB65A3FF419B","title":"避风塘茶楼漕溪北路店","lon":"121.43512","lat":"31.16964","category":"66","category_name":"茶艺馆","address":"漕溪路249"},{"poiid":"B2094757D06BA0FC4693","title":"中国工商银行上海市徐汇支行习勤路分理处","lon":"121.43229853","lat":"31.168245184","category":"500","category_name":"未知分类","address":"上海漕宝路36号"},{"poiid":"B2094757D06BA4FE429B","title":"口吅品牛肉面馆 漕宝路店","lon":"121.430776054","lat":"31.168222793","category":"68","category_name":"快餐厅","address":"徐汇区漕宝路43号(近钦州路)"},{"poiid":"B2094757D16AA1FC4092","title":"玲珑面馆","lon":"121.432861086","lat":"31.1654510983","category":"68","category_name":"快餐厅","address":"徐汇区康健路11号(近沪闵路)"},{"poiid":"B2094655D36CA7FD4599","title":"沪闵路漕宝路","lon":"121.43454","lat":"31.16777","category":"38","category_name":"公交车站","address":""},{"poiid":"B2094757D168A0FC4893","title":"西瓜庄园(光大店)","lon":"121.432651991","lat":"31.1682659549","category":"500","category_name":"未知分类","address":"上海漕宝路51号"},{"poiid":"B2094654DB65A5F5419F","title":"上海银行漕河泾支行营业部","lon":"121.43328","lat":"31.16811","category":"150","category_name":"银行","address":"漕宝路6临"},{"poiid":"B2094654D564A0F4429D","title":"泰成商务楼","lon":"121.43392","lat":"31.16632","category":"46","category_name":"楼宇","address":"上海,上海市,沪闵路9510号"},{"poiid":"B2094757D064A2FF4899","title":"上海市环境科学研究院","lon":"121.43038177","lat":"31.169113159","category":"500","category_name":"未知分类","address":"上海徐汇区钦州路508号"},{"poiid":"B2094654DB69ABFE459C","title":"农工商超市(漕宝店)","lon":"121.43399","lat":"31.16804","category":"118","category_name":"超级市场","address":"徐汇区漕宝路8号桥3237号(近漕溪路)"},{"poiid":"B2094654D564A0F4409D","title":"中国工商银行上海市习勤路支行","lon":"121.43228","lat":"31.16806","category":"150","category_name":"银行","address":"漕宝路36"},{"poiid":"B2094654DB69A5F5409F","title":"避风塘(漕溪店)","lon":"121.43579","lat":"31.16936","category":"66","category_name":"茶艺馆","address":"徐汇区漕溪路121号(近中山西路)"},{"poiid":"B2094654D564A3F84598","title":"赛妮尔商厦","lon":"121.43418","lat":"31.16876","category":"119","category_name":"商场","address":"漕溪路280"},{"poiid":"B2094654D564A3F8459C","title":"辛香汇(漕溪路)","lon":"121.43425","lat":"31.16899","category":"71","category_name":"四川菜","address":"徐汇区漕溪路280号(近漕宝路)"},{"poiid":"B2094654DB65A6FA429A","title":"上海市第八人民医院","lon":"121.43375046511653","lat":"31.167588930222983","category":"162","category_name":"医院","address":"徐汇区漕宝路8号(近漕溪路)"},{"poiid":"B2094757D06FA2F9479C","title":"光大会展中心国际大酒店","lon":"121.429373","lat":"31.168133","category":"214","category_name":"四星级宾馆","address":"上海市徐汇区漕宝路66号(光大会展中心旁)"},{"poiid":"B2094757D06EABF5429D","title":"漕宝路地铁站","lon":"121.43500667","lat":"31.168222633","category":"36","category_name":"地铁站","address":"上海轨道交通,一号线,轨交漕宝路站,1"},{"poiid":"B2094757D66EA2FE449B","title":"上海大饭堂","lon":"121.43188458","lat":"31.165935174","category":"76","category_name":"上海菜","address":"徐汇区康健路28号(近钦州路)"},{"poiid":"B2094752D669A0FA499D","title":"3Quarks真密室","lon":"121.430414","lat":"31.170023","category":"248","category_name":"生活娱乐","address":"上海市钦州路518号"},{"poiid":"B2094655D269AAFC439A","title":"华夏宾馆","lon":"121.42989","lat":"31.1678","category":"217","category_name":"旅馆招待所","address":"徐汇区漕宝路38号华夏宾馆2楼(近钦州路)"},{"poiid":"B2094757D16CA6F84693","title":"沪闵高架南站上匝道","lon":"121.43315058","lat":"31.164494146","category":"500","category_name":"未知分类","address":"上海市徐汇区漕宝路"},{"poiid":"B2094654D564A0F4429A","title":"上海市第八人民医院门诊部","lon":"121.4341","lat":"31.16753","category":"162","category_name":"医院","address":"沪闵路9802"},{"poiid":"B2094757D16EABFE469D","title":"一号线漕宝路站","lon":"121.434171986","lat":"31.1680311153","category":"500","category_name":"未知分类","address":"上海漕宝路"},{"poiid":"B2094654D564A0F4419A","title":"上海市第八人民医院(北门)","lon":"121.43288","lat":"31.16809","category":"656","category_name":"大门","address":"漕宝路8号"},{"poiid":"B2094654DB64A6F4409A","title":"汉庭快捷(光大店)","lon":"121.43547","lat":"31.16827","category":"216","category_name":"经济型连锁酒店","address":"徐汇区龙漕路2号(地铁1号线漕宝路站4号口)"},{"poiid":"B2094757D06BA6FD4792","title":"五木铁板烧(漕宝路店)","lon":"121.43019458","lat":"31.168261219","category":"269","category_name":"烧烤","address":"徐汇区漕宝路38号华夏宾馆1楼(近钦州路)"},{"poiid":"B2094757D16EA5F9439D","title":"卡好日本料理","lon":"121.42932","lat":"31.16821","category":"95","category_name":"日本料理","address":"徐汇区漕宝路59号(近光大会展中心)"},{"poiid":"B2094655D36DA6FC419F","title":"漕河泾","lon":"121.4326","lat":"31.16836","category":"38","category_name":"公交车站","address":""},{"poiid":"B2094757D06FA5F44498","title":"宜芝多(漕宝路店)","lon":"121.434270467","lat":"31.1685158217","category":"112","category_name":"糕饼店","address":"徐汇区漕宝路36号(漕溪路口)"},{"poiid":"B2094757D068A0FA429C","title":"全家便利(漕宝路店)","lon":"121.43216296","lat":"31.168398727","category":"117","category_name":"便民商店/便利店","address":"上海徐汇区漕宝路36号1楼(近钦州路)"},{"poiid":"B2094757D16AA4FF4093","title":"八五医院","lon":"121.435044586","lat":"31.1669841949","category":"162","category_name":"医院","address":"上海漕溪路"},{"poiid":"B2094757D465A3FE489C","title":"四季草堂 漕溪路店","lon":"121.434560054","lat":"31.168550793","category":"76","category_name":"上海菜","address":"徐汇区漕溪路251弄望族城内(近漕宝路)"},{"poiid":"B2094757D66AA0F9469D","title":"漕龙沈记酒楼","lon":"121.43443832498","lat":"31.168168938409","category":"76","category_name":"上海菜","address":"徐汇区漕溪路121号(近宜家)"},{"poiid":"B2094654DB6CA6F84093","title":"创意阁","lon":"121.433","lat":"31.169","category":"46","category_name":"楼宇","address":"上海徐汇区冠生园路231号徐汇创意阁"},{"poiid":"B2094654D564A3F8449F","title":"街客 漕宝店 Jack Hut","lon":"121.433699054","lat":"31.168074793","category":"113","category_name":"冷饮店","address":"徐汇区漕宝路25号(近漕宝路地铁口)"},{"poiid":"B2094757D464AAF9469B","title":"集集小镇 龙漕店 Jijitown","lon":"121.434757054","lat":"31.168068793","category":"68","category_name":"快餐厅","address":"徐汇区龙漕路2号(近漕宝路)"},{"poiid":"B2094757D065A4FB429B","title":"卢大姐四川简阳羊肉汤","lon":"121.436490586","lat":"31.1694412428","category":"71","category_name":"四川菜","address":"徐汇区龙漕路63号(近漕溪路)"},{"poiid":"B2094757D06BA0F54892","title":"老凤祥","lon":"121.433883","lat":"31.169883","category":"500","category_name":"未知分类","address":"上海漕溪路258弄26号"},{"poiid":"B2094655D265A1FB409D","title":"皇中皇大饼漕宝路店","lon":"121.43301","lat":"31.16812","category":"247","category_name":"餐饮美食","address":"漕宝路6号"},{"poiid":"B2094757D069A4FE4998","title":"浪漫满屋礼服馆","lon":"121.436008172","lat":"31.1681104698","category":"141","category_name":"服装鞋帽皮具店","address":"徐汇区华石路95号(近宜家家居)查看地图"},{"poiid":"B2094757D569A3FA4898","title":"博望坡餐厅漕溪路店","lon":"121.4343939","lat":"31.169975","category":"260","category_name":"其他","address":"徐汇区漕溪路260号(近漕宝路)"},{"poiid":"B2094654D564A0FB489A","title":"九彩天大酒楼","lon":"121.43016","lat":"31.16786","category":"76","category_name":"上海菜","address":"徐汇区漕宝路38号华夏宾馆2楼(漕溪路口)"},{"poiid":"B2094750DA6EABFC469C","title":"徐家汇美罗城","lon":"121.4346","lat":"31.165288","category":"500","category_name":"未知分类","address":null},{"poiid":"B2094757D069A1F9409B","title":"拉夏贝尔服饰股份有限公司","lon":"121.43353651","lat":"31.169711699","category":"46","category_name":"楼宇","address":"上海徐汇区漕溪路270号小白楼1楼"},{"poiid":"B2094654D564A0FB4899","title":"全家(漕宝路)","lon":"121.43181","lat":"31.16807","category":"117","category_name":"便民商店/便利店","address":"漕宝路36-1"},{"poiid":"B209475CD06AA3F54599","title":"星巴克 上海体育馆店 Starbucks Cafe","lon":"121.434141054","lat":"31.167799793","category":"65","category_name":"咖啡厅","address":"漕溪路1111号上海体育馆1楼近漕宝路"},{"poiid":"B2094654D564A0F4429B","title":"上海市血液中心徐汇爱心献血屋","lon":"121.43411","lat":"31.16734","category":"162","category_name":"医院","address":"沪闵路9816"},{"poiid":"B2094654DB6BA7FB4093","title":"和信商务大楼","lon":"121.4317","lat":"31.16787","category":"46","category_name":"楼宇","address":"漕宝路36"},{"poiid":"B2094654DB6BA7F84993","title":"上海新纪元大酒店","lon":"121.4342","lat":"31.1691","category":"215","category_name":"三星级宾馆","address":"徐汇区漕溪路280号(近龙漕路)"},{"poiid":"B2094654D564A0F4429E","title":"市八医院发热门诊","lon":"121.43397","lat":"31.16693","category":"162","category_name":"医院","address":""},{"poiid":"B2094654DB65A3FF419B","title":"避风塘茶楼漕溪北路店","lon":"121.43512","lat":"31.16964","category":"66","category_name":"茶艺馆","address":"漕溪路249"},{"poiid":"B2094757D06BA0FC4693","title":"中国工商银行上海市徐汇支行习勤路分理处","lon":"121.43229853","lat":"31.168245184","category":"500","category_name":"未知分类","address":"上海漕宝路36号"},{"poiid":"B2094757D06BA4FE429B","title":"口吅品牛肉面馆 漕宝路店","lon":"121.430776054","lat":"31.168222793","category":"68","category_name":"快餐厅","address":"徐汇区漕宝路43号(近钦州路)"},{"poiid":"B2094757D16AA1FC4092","title":"玲珑面馆","lon":"121.432861086","lat":"31.1654510983","category":"68","category_name":"快餐厅","address":"徐汇区康健路11号(近沪闵路)"},{"poiid":"B2094655D36CA7FD4599","title":"沪闵路漕宝路","lon":"121.43454","lat":"31.16777","category":"38","category_name":"公交车站","address":""},{"poiid":"B2094757D168A0FC4893","title":"西瓜庄园(光大店)","lon":"121.432651991","lat":"31.1682659549","category":"500","category_name":"未知分类","address":"上海漕宝路51号"},{"poiid":"B2094654DB65A5F5419F","title":"上海银行漕河泾支行营业部","lon":"121.43328","lat":"31.16811","category":"150","category_name":"银行","address":"漕宝路6临"},{"poiid":"B2094654D564A0F4429D","title":"泰成商务楼","lon":"121.43392","lat":"31.16632","category":"46","category_name":"楼宇","address":"上海,上海市,沪闵路9510号"},{"poiid":"B2094757D064A2FF4899","title":"上海市环境科学研究院","lon":"121.43038177","lat":"31.169113159","category":"500","category_name":"未知分类","address":"上海徐汇区钦州路508号"},{"poiid":"B2094654DB69ABFE459C","title":"农工商超市(漕宝店)","lon":"121.43399","lat":"31.16804","category":"118","category_name":"超级市场","address":"徐汇区漕宝路8号桥3237号(近漕溪路)"},{"poiid":"B2094654D564A0F4409D","title":"中国工商银行上海市习勤路支行","lon":"121.43228","lat":"31.16806","category":"150","category_name":"银行","address":"漕宝路36"},{"poiid":"B2094654DB69A5F5409F","title":"避风塘(漕溪店)","lon":"121.43579","lat":"31.16936","category":"66","category_name":"茶艺馆","address":"徐汇区漕溪路121号(近中山西路)"},{"poiid":"B2094654D564A3F84598","title":"赛妮尔商厦","lon":"121.43418","lat":"31.16876","category":"119","category_name":"商场","address":"漕溪路280"}]