[{"poiid":"B2094750DA65A5FA419C","title":"辣串门","lon":"121.419754","lat":"31.158313","category":"71","category_name":"四川菜","address":"徐汇区钦州南路607号(近桂林路)"},{"poiid":"B2094751D36FA0F5459D","title":"家在塔啦蒙古特色餐厅","lon":"121.42051","lat":"31.15728","category":"84","category_name":"西北菜","address":"徐汇区桂林路37号2楼(近钦州南路)"},{"poiid":"B2094757D069A3FB4593","title":"上海师范大学 四教","lon":"121.421108086","lat":"31.1598083047","category":"253","category_name":"校园生活","address":"上海师范大学徐汇校区第四教学楼"},{"poiid":"B2094757D06FA6F4409F","title":"桂林路沪闵路","lon":"121.423251","lat":"31.153142","category":"260","category_name":"其他","address":"上海徐汇区桂林路沪闵路口"},{"poiid":"B2094757D06FA6F44293","title":"肯德基 KFC (钦州南路店)","lon":"121.420366474","lat":"31.1577847392","category":"68","category_name":"快餐厅","address":"徐汇区桂林路39号(近钦州南路)"},{"poiid":"B2094757D068ABF4449F","title":"桂林东街","lon":"121.422745","lat":"31.157641","category":"260","category_name":"其他","address":"上海徐汇区桂林东街"},{"poiid":"B2094757DB6DA5F94699","title":"维也纳酒店（上海南站光大店）","lon":"121.419868469","lat":"31.156417596","category":"216","category_name":"经济型连锁酒店","address":"徐汇区桂林路46号徐汇工人文化中心内(近桂林西街)"},{"poiid":"B2094757D06AABFC409D","title":"mayli's coffee","lon":"121.41984958","lat":"31.159027039","category":"260","category_name":"其他","address":"徐汇区桂林路64号(近钦州南路)"},{"poiid":"B2094757D66EA6FD489C","title":"浦北路桂林西街","lon":"121.418991586","lat":"31.153776937","category":"260","category_name":"其他","address":"上海徐汇区浦北路桂林西街"},{"poiid":"B2094757D464A7F4439E","title":"香乡村大龙虾 浦北路店","lon":"121.421373054","lat":"31.154949793","category":"68","category_name":"快餐厅","address":"徐汇区浦北路331号(桂林路口)"},{"poiid":"B2094654DB6AA6FF459A","title":"上海教育国际交流中心","lon":"121.42129","lat":"31.15932","category":"250","category_name":"公园户外","address":"上海市徐汇区桂林路55号(近钦州南路)"},{"poiid":"B2094757D065A6F44799","title":"上海市徐汇区委党校","lon":"121.42081353","lat":"31.158989613","category":"500","category_name":"未知分类","address":"上海钦州南路567号"},{"poiid":"B2094757D068A6FC4492","title":"海上名邸","lon":"121.423313","lat":"31.154853","category":"47","category_name":"住宅区","address":"上海桂林东街28弄"},{"poiid":"B2094654DB6CA7F44299","title":"上海市康东网球馆","lon":"121.42217","lat":"31.15607","category":"226","category_name":"网球场","address":"徐汇区浦北路270号(近桂林路)"},{"poiid":"B2094757D168A3FA439A","title":"浦北路桂林路","lon":"121.42126578","lat":"31.154662754","category":"500","category_name":"未知分类","address":"上海浦北路桂林路"},{"poiid":"B2094655D26AA0F4459E","title":"五月苑健身俱乐部","lon":"121.42041","lat":"31.15607","category":"247","category_name":"餐饮美食","address":"徐汇区桂林路46号徐汇工人文化中心4楼(近桂林西街)"},{"poiid":"B2094654DB6CA7F44593","title":"湘轩湖南乡土风味桂林店","lon":"121.42044","lat":"31.15766","category":"77","category_name":"湖南菜","address":"徐汇区桂林路37号(近钦州南路)"},{"poiid":"B2094757D06AA7F54998","title":"沧浪亭(桂林路店)","lon":"121.42065","lat":"31.15585","category":"87","category_name":"特色／地方风味餐厅","address":"徐汇区桂林路46号徐汇工人文化中心内(近桂林西街)"},{"poiid":"B2094655D26FAAFD469F","title":"紫竹园","lon":"121.421","lat":"31.1583","category":"47","category_name":"住宅区","address":"上海徐汇区浦北路948弄"},{"poiid":"B2094757D06FA6FB4193","title":"西樱花园","lon":"121.419","lat":"31.1531","category":"500","category_name":"未知分类","address":"上海桂平支路35弄"},{"poiid":"B2094757D665A2F4429B","title":"巴麦隆烤肉 桂林路店","lon":"121.419963","lat":"31.157932","category":"68","category_name":"快餐厅","address":"徐汇区桂林路50号(钦州南路口)"},{"poiid":"B2094654DB6CA7F44392","title":"东北四季饺子王 桂林路店","lon":"121.422744054","lat":"31.157219793","category":"82","category_name":"东北菜","address":"徐汇区桂林东街245号康乐小区内(近桂林路)"},{"poiid":"B2094655D268A5FB499E","title":"上海师范大学美术学院","lon":"121.42185","lat":"31.16028","category":"52","category_name":"高等院校","address":"上海桂林路100号"},{"poiid":"B2094757D66CA6FE479E","title":"莫泰168","lon":"121.422375586","lat":"31.1542439461","category":"500","category_name":"未知分类","address":"徐汇区桂林路17号"},{"poiid":"B2094757D465ABFC429E","title":"东北人家 桂林东街店","lon":"121.424180054","lat":"31.157375793","category":"82","category_name":"东北菜","address":"徐汇区桂林东街231号"},{"poiid":"B2094655D26AA6F4499D","title":"新亚大包 桂林路店","lon":"121.419540054","lat":"31.156233793","category":"68","category_name":"快餐厅","address":"徐汇区桂林西街2号(近桂林路)"},{"poiid":"B2094757D064A4F4499D","title":"晶玉港粤时尚餐厅","lon":"121.420274","lat":"31.156005","category":"72","category_name":"广东菜","address":"徐汇区桂林路46号泓和宾馆3楼(近桂林西街)"},{"poiid":"B2094655D265A3FC469C","title":"星洋超市","lon":"121.42237","lat":"31.15477","category":"118","category_name":"超级市场","address":"桂林路21"},{"poiid":"B2094655D268A1FB4693","title":"喜多超市","lon":"121.42236","lat":"31.15476","category":"118","category_name":"超级市场","address":"石龙路832临"},{"poiid":"B2094654DB6CA7F44498","title":"康健公寓","lon":"121.42145","lat":"31.156689","category":"47","category_name":"住宅区","address":"桂林东街218弄"},{"poiid":"B2094752D464AAFB4899","title":"上海体育馆","lon":"121.421919","lat":"31.154227","category":"500","category_name":"未知分类","address":null},{"poiid":"B2094654DB65A3FE4092","title":"长顺坊","lon":"121.41912","lat":"31.155554","category":"47","category_name":"住宅区","address":"桂林西街14弄1-24号"},{"poiid":"B2094655D26FA5FE479E","title":"健安坊","lon":"121.42378","lat":"31.157061","category":"47","category_name":"住宅区","address":"桂林东街150弄1-50号"},{"poiid":"B2094757D469A7F54092","title":"农香园农家菜","lon":"121.4253345","lat":"31.1573825","category":"76","category_name":"上海菜","address":"徐汇区桂平路188号康健休闲广场2楼"},{"poiid":"B2094757D06BAAF8409C","title":"巴麦隆自助烤肉","lon":"121.42039058","lat":"31.157493009","category":"247","category_name":"餐饮美食","address":"上海桂林路店"},{"poiid":"B2094655D36CA7F4449C","title":"桂林西街","lon":"121.42326","lat":"31.15322","category":"38","category_name":"公交车站","address":""},{"poiid":"B2094654DB6CA6FA449D","title":"徐汇区工人文化体育中心","lon":"121.42028","lat":"31.156","category":"224","category_name":"综合体育馆","address":"桂林路46"},{"poiid":"B2094757D06FA2FB469D","title":"美丽咖啡馆","lon":"121.41975647","lat":"31.158919741","category":"217","category_name":"旅馆招待所","address":"上海徐汇区桂林路64-2号"},{"poiid":"B2094655D26FA6FA469D","title":"寿山坊","lon":"121.4224","lat":"31.15266","category":"47","category_name":"住宅区","address":"桂林西街201弄1-51号"},{"poiid":"B2094654DB6CA7F4439C","title":"华氏大药房(桂林东街)","lon":"121.42221","lat":"31.15753","category":"162","category_name":"医院","address":"徐汇区桂林东街233号"},{"poiid":"B209475CD26FA0FA429B","title":"田子坊","lon":"121.424812","lat":"31.154321","category":"500","category_name":"未知分类","address":"上海市 上海泰康路"},{"poiid":"B2094655D268A4F5499F","title":"康健公寓(北门)","lon":"121.42153","lat":"31.15695","category":"47","category_name":"住宅区","address":"桂林东街218弄"},{"poiid":"B2094655D26BA1FC419B","title":"浦北路柳州路","lon":"121.42653","lat":"31.15796","category":"38","category_name":"公交车站","address":""},{"poiid":"B2094757D16CABFD409C","title":"PAPA JOHN'S(FOXTOWN店)","lon":"121.422924286","lat":"31.15418682","category":"500","category_name":"未知分类","address":"上海飞洲国际广场"},{"poiid":"B2094655D265A5FA439D","title":"中国农业银行24小时自助银行","lon":"121.42305","lat":"31.15536","category":"152","category_name":"ATM","address":"浦北路217-221"},{"poiid":"B2094654DB64A1FE4792","title":"昂立教育师大学校","lon":"121.42027","lat":"31.156","category":"52","category_name":"高等院校","address":"桂林路46"},{"poiid":"B2094655D26FA6FA4398","title":"寿德坊","lon":"121.42154","lat":"31.153938","category":"47","category_name":"住宅区","address":"桂林西街400弄1-42号"},{"poiid":"B2094655D268A1FF4198","title":"上海东州好马汇进口摩托车分公司","lon":"121.42395","lat":"31.15608","category":"159","category_name":"汽车维修","address":"浦北路189号"},{"poiid":"B2094757D06FA4FC409D","title":"康乐小区","lon":"121.4234286","lat":"31.1593397","category":"47","category_name":"住宅区","address":"上海钦州南路451弄"},{"poiid":"B2094757D56DA3FE479F","title":"光头湘菜 桂林路店","lon":"121.42034627158","lat":"31.156851323011","category":"247","category_name":"餐饮美食","address":"桂林路35号近钦州南路"},{"poiid":"B2094750DA65A5FA419C","title":"辣串门","lon":"121.419754","lat":"31.158313","category":"71","category_name":"四川菜","address":"徐汇区钦州南路607号(近桂林路)"},{"poiid":"B2094751D36FA0F5459D","title":"家在塔啦蒙古特色餐厅","lon":"121.42051","lat":"31.15728","category":"84","category_name":"西北菜","address":"徐汇区桂林路37号2楼(近钦州南路)"},{"poiid":"B2094757D069A3FB4593","title":"上海师范大学 四教","lon":"121.421108086","lat":"31.1598083047","category":"253","category_name":"校园生活","address":"上海师范大学徐汇校区第四教学楼"},{"poiid":"B2094757D06FA6F4409F","title":"桂林路沪闵路","lon":"121.423251","lat":"31.153142","category":"260","category_name":"其他","address":"上海徐汇区桂林路沪闵路口"},{"poiid":"B2094757D06FA6F44293","title":"肯德基 KFC (钦州南路店)","lon":"121.420366474","lat":"31.1577847392","category":"68","category_name":"快餐厅","address":"徐汇区桂林路39号(近钦州南路)"},{"poiid":"B2094757D068ABF4449F","title":"桂林东街","lon":"121.422745","lat":"31.157641","category":"260","category_name":"其他","address":"上海徐汇区桂林东街"},{"poiid":"B2094757DB6DA5F94699","title":"维也纳酒店（上海南站光大店）","lon":"121.419868469","lat":"31.156417596","category":"216","category_name":"经济型连锁酒店","address":"徐汇区桂林路46号徐汇工人文化中心内(近桂林西街)"},{"poiid":"B2094757D06AABFC409D","title":"mayli's coffee","lon":"121.41984958","lat":"31.159027039","category":"260","category_name":"其他","address":"徐汇区桂林路64号(近钦州南路)"},{"poiid":"B2094757D66EA6FD489C","title":"浦北路桂林西街","lon":"121.418991586","lat":"31.153776937","category":"260","category_name":"其他","address":"上海徐汇区浦北路桂林西街"},{"poiid":"B2094757D464A7F4439E","title":"香乡村大龙虾 浦北路店","lon":"121.421373054","lat":"31.154949793","category":"68","category_name":"快餐厅","address":"徐汇区浦北路331号(桂林路口)"},{"poiid":"B2094654DB6AA6FF459A","title":"上海教育国际交流中心","lon":"121.42129","lat":"31.15932","category":"250","category_name":"公园户外","address":"上海市徐汇区桂林路55号(近钦州南路)"},{"poiid":"B2094757D065A6F44799","title":"上海市徐汇区委党校","lon":"121.42081353","lat":"31.158989613","category":"500","category_name":"未知分类","address":"上海钦州南路567号"},{"poiid":"B2094757D068A6FC4492","title":"海上名邸","lon":"121.423313","lat":"31.154853","category":"47","category_name":"住宅区","address":"上海桂林东街28弄"},{"poiid":"B2094654DB6CA7F44299","title":"上海市康东网球馆","lon":"121.42217","lat":"31.15607","category":"226","category_name":"网球场","address":"徐汇区浦北路270号(近桂林路)"},{"poiid":"B2094757D168A3FA439A","title":"浦北路桂林路","lon":"121.42126578","lat":"31.154662754","category":"500","category_name":"未知分类","address":"上海浦北路桂林路"},{"poiid":"B2094655D26AA0F4459E","title":"五月苑健身俱乐部","lon":"121.42041","lat":"31.15607","category":"247","category_name":"餐饮美食","address":"徐汇区桂林路46号徐汇工人文化中心4楼(近桂林西街)"},{"poiid":"B2094654DB6CA7F44593","title":"湘轩湖南乡土风味桂林店","lon":"121.42044","lat":"31.15766","category":"77","category_name":"湖南菜","address":"徐汇区桂林路37号(近钦州南路)"},{"poiid":"B2094757D06AA7F54998","title":"沧浪亭(桂林路店)","lon":"121.42065","lat":"31.15585","category":"87","category_name":"特色／地方风味餐厅","address":"徐汇区桂林路46号徐汇工人文化中心内(近桂林西街)"},{"poiid":"B2094655D26FAAFD469F","title":"紫竹园","lon":"121.421","lat":"31.1583","category":"47","category_name":"住宅区","address":"上海徐汇区浦北路948弄"},{"poiid":"B2094757D06FA6FB4193","title":"西樱花园","lon":"121.419","lat":"31.1531","category":"500","category_name":"未知分类","address":"上海桂平支路35弄"},{"poiid":"B2094757D665A2F4429B","title":"巴麦隆烤肉 桂林路店","lon":"121.419963","lat":"31.157932","category":"68","category_name":"快餐厅","address":"徐汇区桂林路50号(钦州南路口)"},{"poiid":"B2094654DB6CA7F44392","title":"东北四季饺子王 桂林路店","lon":"121.422744054","lat":"31.157219793","category":"82","category_name":"东北菜","address":"徐汇区桂林东街245号康乐小区内(近桂林路)"},{"poiid":"B2094655D268A5FB499E","title":"上海师范大学美术学院","lon":"121.42185","lat":"31.16028","category":"52","category_name":"高等院校","address":"上海桂林路100号"},{"poiid":"B2094757D66CA6FE479E","title":"莫泰168","lon":"121.422375586","lat":"31.1542439461","category":"500","category_name":"未知分类","address":"徐汇区桂林路17号"},{"poiid":"B2094757D465ABFC429E","title":"东北人家 桂林东街店","lon":"121.424180054","lat":"31.157375793","category":"82","category_name":"东北菜","address":"徐汇区桂林东街231号"},{"poiid":"B2094655D26AA6F4499D","title":"新亚大包 桂林路店","lon":"121.419540054","lat":"31.156233793","category":"68","category_name":"快餐厅","address":"徐汇区桂林西街2号(近桂林路)"},{"poiid":"B2094757D064A4F4499D","title":"晶玉港粤时尚餐厅","lon":"121.420274","lat":"31.156005","category":"72","category_name":"广东菜","address":"徐汇区桂林路46号泓和宾馆3楼(近桂林西街)"},{"poiid":"B2094655D265A3FC469C","title":"星洋超市","lon":"121.42237","lat":"31.15477","category":"118","category_name":"超级市场","address":"桂林路21"},{"poiid":"B2094655D268A1FB4693","title":"喜多超市","lon":"121.42236","lat":"31.15476","category":"118","category_name":"超级市场","address":"石龙路832临"},{"poiid":"B2094654DB6CA7F44498","title":"康健公寓","lon":"121.42145","lat":"31.156689","category":"47","category_name":"住宅区","address":"桂林东街218弄"},{"poiid":"B2094752D464AAFB4899","title":"上海体育馆","lon":"121.421919","lat":"31.154227","category":"500","category_name":"未知分类","address":null},{"poiid":"B2094654DB65A3FE4092","title":"长顺坊","lon":"121.41912","lat":"31.155554","category":"47","category_name":"住宅区","address":"桂林西街14弄1-24号"},{"poiid":"B2094655D26FA5FE479E","title":"健安坊","lon":"121.42378","lat":"31.157061","category":"47","category_name":"住宅区","address":"桂林东街150弄1-50号"},{"poiid":"B2094757D469A7F54092","title":"农香园农家菜","lon":"121.4253345","lat":"31.1573825","category":"76","category_name":"上海菜","address":"徐汇区桂平路188号康健休闲广场2楼"},{"poiid":"B2094757D06BAAF8409C","title":"巴麦隆自助烤肉","lon":"121.42039058","lat":"31.157493009","category":"247","category_name":"餐饮美食","address":"上海桂林路店"},{"poiid":"B2094655D36CA7F4449C","title":"桂林西街","lon":"121.42326","lat":"31.15322","category":"38","category_name":"公交车站","address":""},{"poiid":"B2094654DB6CA6FA449D","title":"徐汇区工人文化体育中心","lon":"121.42028","lat":"31.156","category":"224","category_name":"综合体育馆","address":"桂林路46"},{"poiid":"B2094757D06FA2FB469D","title":"美丽咖啡馆","lon":"121.41975647","lat":"31.158919741","category":"217","category_name":"旅馆招待所","address":"上海徐汇区桂林路64-2号"},{"poiid":"B2094655D26FA6FA469D","title":"寿山坊","lon":"121.4224","lat":"31.15266","category":"47","category_name":"住宅区","address":"桂林西街201弄1-51号"},{"poiid":"B2094654DB6CA7F4439C","title":"华氏大药房(桂林东街)","lon":"121.42221","lat":"31.15753","category":"162","category_name":"医院","address":"徐汇区桂林东街233号"},{"poiid":"B209475CD26FA0FA429B","title":"田子坊","lon":"121.424812","lat":"31.154321","category":"500","category_name":"未知分类","address":"上海市 上海泰康路"},{"poiid":"B2094655D268A4F5499F","title":"康健公寓(北门)","lon":"121.42153","lat":"31.15695","category":"47","category_name":"住宅区","address":"桂林东街218弄"},{"poiid":"B2094655D26BA1FC419B","title":"浦北路柳州路","lon":"121.42653","lat":"31.15796","category":"38","category_name":"公交车站","address":""},{"poiid":"B2094757D16CABFD409C","title":"PAPA JOHN'S(FOXTOWN店)","lon":"121.422924286","lat":"31.15418682","category":"500","category_name":"未知分类","address":"上海飞洲国际广场"},{"poiid":"B2094655D265A5FA439D","title":"中国农业银行24小时自助银行","lon":"121.42305","lat":"31.15536","category":"152","category_name":"ATM","address":"浦北路217-221"},{"poiid":"B2094654DB64A1FE4792","title":"昂立教育师大学校","lon":"121.42027","lat":"31.156","category":"52","category_name":"高等院校","address":"桂林路46"},{"poiid":"B2094655D26FA6FA4398","title":"寿德坊","lon":"121.42154","lat":"31.153938","category":"47","category_name":"住宅区","address":"桂林西街400弄1-42号"},{"poiid":"B2094655D268A1FF4198","title":"上海东州好马汇进口摩托车分公司","lon":"121.42395","lat":"31.15608","category":"159","category_name":"汽车维修","address":"浦北路189号"},{"poiid":"B2094757D06FA4FC409D","title":"康乐小区","lon":"121.4234286","lat":"31.1593397","category":"47","category_name":"住宅区","address":"上海钦州南路451弄"},{"poiid":"B2094757D56DA3FE479F","title":"光头湘菜 桂林路店","lon":"121.42034627158","lat":"31.156851323011","category":"247","category_name":"餐饮美食","address":"桂林路35号近钦州南路"},{"poiid":"B2094750DA65A5FA419C","title":"辣串门","lon":"121.419754","lat":"31.158313","category":"71","category_name":"四川菜","address":"徐汇区钦州南路607号(近桂林路)"},{"poiid":"B2094751D36FA0F5459D","title":"家在塔啦蒙古特色餐厅","lon":"121.42051","lat":"31.15728","category":"84","category_name":"西北菜","address":"徐汇区桂林路37号2楼(近钦州南路)"},{"poiid":"B2094757D069A3FB4593","title":"上海师范大学 四教","lon":"121.421108086","lat":"31.1598083047","category":"253","category_name":"校园生活","address":"上海师范大学徐汇校区第四教学楼"},{"poiid":"B2094757D06FA6F4409F","title":"桂林路沪闵路","lon":"121.423251","lat":"31.153142","category":"260","category_name":"其他","address":"上海徐汇区桂林路沪闵路口"},{"poiid":"B2094757D06FA6F44293","title":"肯德基 KFC (钦州南路店)","lon":"121.420366474","lat":"31.1577847392","category":"68","category_name":"快餐厅","address":"徐汇区桂林路39号(近钦州南路)"},{"poiid":"B2094757D068ABF4449F","title":"桂林东街","lon":"121.422745","lat":"31.157641","category":"260","category_name":"其他","address":"上海徐汇区桂林东街"},{"poiid":"B2094757DB6DA5F94699","title":"维也纳酒店（上海南站光大店）","lon":"121.419868469","lat":"31.156417596","category":"216","category_name":"经济型连锁酒店","address":"徐汇区桂林路46号徐汇工人文化中心内(近桂林西街)"},{"poiid":"B2094757D06AABFC409D","title":"mayli's coffee","lon":"121.41984958","lat":"31.159027039","category":"260","category_name":"其他","address":"徐汇区桂林路64号(近钦州南路)"},{"poiid":"B2094757D66EA6FD489C","title":"浦北路桂林西街","lon":"121.418991586","lat":"31.153776937","category":"260","category_name":"其他","address":"上海徐汇区浦北路桂林西街"},{"poiid":"B2094757D464A7F4439E","title":"香乡村大龙虾 浦北路店","lon":"121.421373054","lat":"31.154949793","category":"68","category_name":"快餐厅","address":"徐汇区浦北路331号(桂林路口)"},{"poiid":"B2094654DB6AA6FF459A","title":"上海教育国际交流中心","lon":"121.42129","lat":"31.15932","category":"250","category_name":"公园户外","address":"上海市徐汇区桂林路55号(近钦州南路)"},{"poiid":"B2094757D065A6F44799","title":"上海市徐汇区委党校","lon":"121.42081353","lat":"31.158989613","category":"500","category_name":"未知分类","address":"上海钦州南路567号"},{"poiid":"B2094757D068A6FC4492","title":"海上名邸","lon":"121.423313","lat":"31.154853","category":"47","category_name":"住宅区","address":"上海桂林东街28弄"},{"poiid":"B2094654DB6CA7F44299","title":"上海市康东网球馆","lon":"121.42217","lat":"31.15607","category":"226","category_name":"网球场","address":"徐汇区浦北路270号(近桂林路)"},{"poiid":"B2094757D168A3FA439A","title":"浦北路桂林路","lon":"121.42126578","lat":"31.154662754","category":"500","category_name":"未知分类","address":"上海浦北路桂林路"},{"poiid":"B2094655D26AA0F4459E","title":"五月苑健身俱乐部","lon":"121.42041","lat":"31.15607","category":"247","category_name":"餐饮美食","address":"徐汇区桂林路46号徐汇工人文化中心4楼(近桂林西街)"},{"poiid":"B2094654DB6CA7F44593","title":"湘轩湖南乡土风味桂林店","lon":"121.42044","lat":"31.15766","category":"77","category_name":"湖南菜","address":"徐汇区桂林路37号(近钦州南路)"},{"poiid":"B2094757D06AA7F54998","title":"沧浪亭(桂林路店)","lon":"121.42065","lat":"31.15585","category":"87","category_name":"特色／地方风味餐厅","address":"徐汇区桂林路46号徐汇工人文化中心内(近桂林西街)"},{"poiid":"B2094655D26FAAFD469F","title":"紫竹园","lon":"121.421","lat":"31.1583","category":"47","category_name":"住宅区","address":"上海徐汇区浦北路948弄"},{"poiid":"B2094757D06FA6FB4193","title":"西樱花园","lon":"121.419","lat":"31.1531","category":"500","category_name":"未知分类","address":"上海桂平支路35弄"},{"poiid":"B2094757D665A2F4429B","title":"巴麦隆烤肉 桂林路店","lon":"121.419963","lat":"31.157932","category":"68","category_name":"快餐厅","address":"徐汇区桂林路50号(钦州南路口)"},{"poiid":"B2094654DB6CA7F44392","title":"东北四季饺子王 桂林路店","lon":"121.422744054","lat":"31.157219793","category":"82","category_name":"东北菜","address":"徐汇区桂林东街245号康乐小区内(近桂林路)"},{"poiid":"B2094655D268A5FB499E","title":"上海师范大学美术学院","lon":"121.42185","lat":"31.16028","category":"52","category_name":"高等院校","address":"上海桂林路100号"},{"poiid":"B2094757D66CA6FE479E","title":"莫泰168","lon":"121.422375586","lat":"31.1542439461","category":"500","category_name":"未知分类","address":"徐汇区桂林路17号"},{"poiid":"B2094757D465ABFC429E","title":"东北人家 桂林东街店","lon":"121.424180054","lat":"31.157375793","category":"82","category_name":"东北菜","address":"徐汇区桂林东街231号"},{"poiid":"B2094655D26AA6F4499D","title":"新亚大包 桂林路店","lon":"121.419540054","lat":"31.156233793","category":"68","category_name":"快餐厅","address":"徐汇区桂林西街2号(近桂林路)"},{"poiid":"B2094757D064A4F4499D","title":"晶玉港粤时尚餐厅","lon":"121.420274","lat":"31.156005","category":"72","category_name":"广东菜","address":"徐汇区桂林路46号泓和宾馆3楼(近桂林西街)"},{"poiid":"B2094655D265A3FC469C","title":"星洋超市","lon":"121.42237","lat":"31.15477","category":"118","category_name":"超级市场","address":"桂林路21"},{"poiid":"B2094655D268A1FB4693","title":"喜多超市","lon":"121.42236","lat":"31.15476","category":"118","category_name":"超级市场","address":"石龙路832临"},{"poiid":"B2094654DB6CA7F44498","title":"康健公寓","lon":"121.42145","lat":"31.156689","category":"47","category_name":"住宅区","address":"桂林东街218弄"},{"poiid":"B2094752D464AAFB4899","title":"上海体育馆","lon":"121.421919","lat":"31.154227","category":"500","category_name":"未知分类","address":null},{"poiid":"B2094654DB65A3FE4092","title":"长顺坊","lon":"121.41912","lat":"31.155554","category":"47","category_name":"住宅区","address":"桂林西街14弄1-24号"},{"poiid":"B2094655D26FA5FE479E","title":"健安坊","lon":"121.42378","lat":"31.157061","category":"47","category_name":"住宅区","address":"桂林东街150弄1-50号"},{"poiid":"B2094757D469A7F54092","title":"农香园农家菜","lon":"121.4253345","lat":"31.1573825","category":"76","category_name":"上海菜","address":"徐汇区桂平路188号康健休闲广场2楼"},{"poiid":"B2094757D06BAAF8409C","title":"巴麦隆自助烤肉","lon":"121.42039058","lat":"31.157493009","category":"247","category_name":"餐饮美食","address":"上海桂林路店"},{"poiid":"B2094655D36CA7F4449C","title":"桂林西街","lon":"121.42326","lat":"31.15322","category":"38","category_name":"公交车站","address":""},{"poiid":"B2094654DB6CA6FA449D","title":"徐汇区工人文化体育中心","lon":"121.42028","lat":"31.156","category":"224","category_name":"综合体育馆","address":"桂林路46"},{"poiid":"B2094757D06FA2FB469D","title":"美丽咖啡馆","lon":"121.41975647","lat":"31.158919741","category":"217","category_name":"旅馆招待所","address":"上海徐汇区桂林路64-2号"},{"poiid":"B2094655D26FA6FA469D","title":"寿山坊","lon":"121.4224","lat":"31.15266","category":"47","category_name":"住宅区","address":"桂林西街201弄1-51号"},{"poiid":"B2094654DB6CA7F4439C","title":"华氏大药房(桂林东街)","lon":"121.42221","lat":"31.15753","category":"162","category_name":"医院","address":"徐汇区桂林东街233号"},{"poiid":"B209475CD26FA0FA429B","title":"田子坊","lon":"121.424812","lat":"31.154321","category":"500","category_name":"未知分类","address":"上海市 上海泰康路"},{"poiid":"B2094655D268A4F5499F","title":"康健公寓(北门)","lon":"121.42153","lat":"31.15695","category":"47","category_name":"住宅区","address":"桂林东街218弄"},{"poiid":"B2094655D26BA1FC419B","title":"浦北路柳州路","lon":"121.42653","lat":"31.15796","category":"38","category_name":"公交车站","address":""},{"poiid":"B2094757D16CABFD409C","title":"PAPA JOHN'S(FOXTOWN店)","lon":"121.422924286","lat":"31.15418682","category":"500","category_name":"未知分类","address":"上海飞洲国际广场"},{"poiid":"B2094655D265A5FA439D","title":"中国农业银行24小时自助银行","lon":"121.42305","lat":"31.15536","category":"152","category_name":"ATM","address":"浦北路217-221"},{"poiid":"B2094654DB64A1FE4792","title":"昂立教育师大学校","lon":"121.42027","lat":"31.156","category":"52","category_name":"高等院校","address":"桂林路46"},{"poiid":"B2094655D26FA6FA4398","title":"寿德坊","lon":"121.42154","lat":"31.153938","category":"47","category_name":"住宅区","address":"桂林西街400弄1-42号"},{"poiid":"B2094655D268A1FF4198","title":"上海东州好马汇进口摩托车分公司","lon":"121.42395","lat":"31.15608","category":"159","category_name":"汽车维修","address":"浦北路189号"},{"poiid":"B2094757D06FA4FC409D","title":"康乐小区","lon":"121.4234286","lat":"31.1593397","category":"47","category_name":"住宅区","address":"上海钦州南路451弄"},{"poiid":"B2094757D56DA3FE479F","title":"光头湘菜 桂林路店","lon":"121.42034627158","lat":"31.156851323011","category":"247","category_name":"餐饮美食","address":"桂林路35号近钦州南路"},{"poiid":"B2094750DA65A5FA419C","title":"辣串门","lon":"121.419754","lat":"31.158313","category":"71","category_name":"四川菜","address":"徐汇区钦州南路607号(近桂林路)"},{"poiid":"B2094751D36FA0F5459D","title":"家在塔啦蒙古特色餐厅","lon":"121.42051","lat":"31.15728","category":"84","category_name":"西北菜","address":"徐汇区桂林路37号2楼(近钦州南路)"},{"poiid":"B2094757D069A3FB4593","title":"上海师范大学 四教","lon":"121.421108086","lat":"31.1598083047","category":"253","category_name":"校园生活","address":"上海师范大学徐汇校区第四教学楼"},{"poiid":"B2094757D06FA6F4409F","title":"桂林路沪闵路","lon":"121.423251","lat":"31.153142","category":"260","category_name":"其他","address":"上海徐汇区桂林路沪闵路口"},{"poiid":"B2094757D06FA6F44293","title":"肯德基 KFC (钦州南路店)","lon":"121.420366474","lat":"31.1577847392","category":"68","category_name":"快餐厅","address":"徐汇区桂林路39号(近钦州南路)"},{"poiid":"B2094757D068ABF4449F","title":"桂林东街","lon":"121.422745","lat":"31.157641","category":"260","category_name":"其他","address":"上海徐汇区桂林东街"},{"poiid":"B2094757DB6DA5F94699","title":"维也纳酒店（上海南站光大店）","lon":"121.419868469","lat":"31.156417596","category":"216","category_name":"经济型连锁酒店","address":"徐汇区桂林路46号徐汇工人文化中心内(近桂林西街)"},{"poiid":"B2094757D06AABFC409D","title":"mayli's coffee","lon":"121.41984958","lat":"31.159027039","category":"260","category_name":"其他","address":"徐汇区桂林路64号(近钦州南路)"},{"poiid":"B2094757D66EA6FD489C","title":"浦北路桂林西街","lon":"121.418991586","lat":"31.153776937","category":"260","category_name":"其他","address":"上海徐汇区浦北路桂林西街"},{"poiid":"B2094757D464A7F4439E","title":"香乡村大龙虾 浦北路店","lon":"121.421373054","lat":"31.154949793","category":"68","category_name":"快餐厅","address":"徐汇区浦北路331号(桂林路口)"},{"poiid":"B2094654DB6AA6FF459A","title":"上海教育国际交流中心","lon":"121.42129","lat":"31.15932","category":"250","category_name":"公园户外","address":"上海市徐汇区桂林路55号(近钦州南路)"},{"poiid":"B2094757D065A6F44799","title":"上海市徐汇区委党校","lon":"121.42081353","lat":"31.158989613","category":"500","category_name":"未知分类","address":"上海钦州南路567号"},{"poiid":"B2094757D068A6FC4492","title":"海上名邸","lon":"121.423313","lat":"31.154853","category":"47","category_name":"住宅区","address":"上海桂林东街28弄"},{"poiid":"B2094654DB6CA7F44299","title":"上海市康东网球馆","lon":"121.42217","lat":"31.15607","category":"226","category_name":"网球场","address":"徐汇区浦北路270号(近桂林路)"},{"poiid":"B2094757D168A3FA439A","title":"浦北路桂林路","lon":"121.42126578","lat":"31.154662754","category":"500","category_name":"未知分类","address":"上海浦北路桂林路"},{"poiid":"B2094655D26AA0F4459E","title":"五月苑健身俱乐部","lon":"121.42041","lat":"31.15607","category":"247","category_name":"餐饮美食","address":"徐汇区桂林路46号徐汇工人文化中心4楼(近桂林西街)"},{"poiid":"B2094654DB6CA7F44593","title":"湘轩湖南乡土风味桂林店","lon":"121.42044","lat":"31.15766","category":"77","category_name":"湖南菜","address":"徐汇区桂林路37号(近钦州南路)"},{"poiid":"B2094757D06AA7F54998","title":"沧浪亭(桂林路店)","lon":"121.42065","lat":"31.15585","category":"87","category_name":"特色／地方风味餐厅","address":"徐汇区桂林路46号徐汇工人文化中心内(近桂林西街)"},{"poiid":"B2094655D26FAAFD469F","title":"紫竹园","lon":"121.421","lat":"31.1583","category":"47","category_name":"住宅区","address":"上海徐汇区浦北路948弄"},{"poiid":"B2094757D06FA6FB4193","title":"西樱花园","lon":"121.419","lat":"31.1531","category":"500","category_name":"未知分类","address":"上海桂平支路35弄"},{"poiid":"B2094757D665A2F4429B","title":"巴麦隆烤肉 桂林路店","lon":"121.419963","lat":"31.157932","category":"68","category_name":"快餐厅","address":"徐汇区桂林路50号(钦州南路口)"},{"poiid":"B2094654DB6CA7F44392","title":"东北四季饺子王 桂林路店","lon":"121.422744054","lat":"31.157219793","category":"82","category_name":"东北菜","address":"徐汇区桂林东街245号康乐小区内(近桂林路)"},{"poiid":"B2094655D268A5FB499E","title":"上海师范大学美术学院","lon":"121.42185","lat":"31.16028","category":"52","category_name":"高等院校","address":"上海桂林路100号"},{"poiid":"B2094757D66CA6FE479E","title":"莫泰168","lon":"121.422375586","lat":"31.1542439461","category":"500","category_name":"未知分类","address":"徐汇区桂林路17号"},{"poiid":"B2094757D465ABFC429E","title":"东北人家 桂林东街店","lon":"121.424180054","lat":"31.157375793","category":"82","category_name":"东北菜","address":"徐汇区桂林东街231号"},{"poiid":"B2094655D26AA6F4499D","title":"新亚大包 桂林路店","lon":"121.419540054","lat":"31.156233793","category":"68","category_name":"快餐厅","address":"徐汇区桂林西街2号(近桂林路)"},{"poiid":"B2094757D064A4F4499D","title":"晶玉港粤时尚餐厅","lon":"121.420274","lat":"31.156005","category":"72","category_name":"广东菜","address":"徐汇区桂林路46号泓和宾馆3楼(近桂林西街)"},{"poiid":"B2094655D265A3FC469C","title":"星洋超市","lon":"121.42237","lat":"31.15477","category":"118","category_name":"超级市场","address":"桂林路21"},{"poiid":"B2094655D268A1FB4693","title":"喜多超市","lon":"121.42236","lat":"31.15476","category":"118","category_name":"超级市场","address":"石龙路832临"},{"poiid":"B2094654DB6CA7F44498","title":"康健公寓","lon":"121.42145","lat":"31.156689","category":"47","category_name":"住宅区","address":"桂林东街218弄"},{"poiid":"B2094752D464AAFB4899","title":"上海体育馆","lon":"121.421919","lat":"31.154227","category":"500","category_name":"未知分类","address":null},{"poiid":"B2094654DB65A3FE4092","title":"长顺坊","lon":"121.41912","lat":"31.155554","category":"47","category_name":"住宅区","address":"桂林西街14弄1-24号"},{"poiid":"B2094655D26FA5FE479E","title":"健安坊","lon":"121.42378","lat":"31.157061","category":"47","category_name":"住宅区","address":"桂林东街150弄1-50号"},{"poiid":"B2094757D469A7F54092","title":"农香园农家菜","lon":"121.4253345","lat":"31.1573825","category":"76","category_name":"上海菜","address":"徐汇区桂平路188号康健休闲广场2楼"},{"poiid":"B2094757D06BAAF8409C","title":"巴麦隆自助烤肉","lon":"121.42039058","lat":"31.157493009","category":"247","category_name":"餐饮美食","address":"上海桂林路店"},{"poiid":"B2094655D36CA7F4449C","title":"桂林西街","lon":"121.42326","lat":"31.15322","category":"38","category_name":"公交车站","address":""},{"poiid":"B2094654DB6CA6FA449D","title":"徐汇区工人文化体育中心","lon":"121.42028","lat":"31.156","category":"224","category_name":"综合体育馆","address":"桂林路46"},{"poiid":"B2094757D06FA2FB469D","title":"美丽咖啡馆","lon":"121.41975647","lat":"31.158919741","category":"217","category_name":"旅馆招待所","address":"上海徐汇区桂林路64-2号"},{"poiid":"B2094655D26FA6FA469D","title":"寿山坊","lon":"121.4224","lat":"31.15266","category":"47","category_name":"住宅区","address":"桂林西街201弄1-51号"},{"poiid":"B2094654DB6CA7F4439C","title":"华氏大药房(桂林东街)","lon":"121.42221","lat":"31.15753","category":"162","category_name":"医院","address":"徐汇区桂林东街233号"},{"poiid":"B209475CD26FA0FA429B","title":"田子坊","lon":"121.424812","lat":"31.154321","category":"500","category_name":"未知分类","address":"上海市 上海泰康路"},{"poiid":"B2094655D268A4F5499F","title":"康健公寓(北门)","lon":"121.42153","lat":"31.15695","category":"47","category_name":"住宅区","address":"桂林东街218弄"},{"poiid":"B2094655D26BA1FC419B","title":"浦北路柳州路","lon":"121.42653","lat":"31.15796","category":"38","category_name":"公交车站","address":""},{"poiid":"B2094757D16CABFD409C","title":"PAPA JOHN'S(FOXTOWN店)","lon":"121.422924286","lat":"31.15418682","category":"500","category_name":"未知分类","address":"上海飞洲国际广场"},{"poiid":"B2094655D265A5FA439D","title":"中国农业银行24小时自助银行","lon":"121.42305","lat":"31.15536","category":"152","category_name":"ATM","address":"浦北路217-221"},{"poiid":"B2094654DB64A1FE4792","title":"昂立教育师大学校","lon":"121.42027","lat":"31.156","category":"52","category_name":"高等院校","address":"桂林路46"},{"poiid":"B2094655D26FA6FA4398","title":"寿德坊","lon":"121.42154","lat":"31.153938","category":"47","category_name":"住宅区","address":"桂林西街400弄1-42号"},{"poiid":"B2094655D268A1FF4198","title":"上海东州好马汇进口摩托车分公司","lon":"121.42395","lat":"31.15608","category":"159","category_name":"汽车维修","address":"浦北路189号"},{"poiid":"B2094757D06FA4FC409D","title":"康乐小区","lon":"121.4234286","lat":"31.1593397","category":"47","category_name":"住宅区","address":"上海钦州南路451弄"},{"poiid":"B2094757D56DA3FE479F","title":"光头湘菜 桂林路店","lon":"121.42034627158","lat":"31.156851323011","category":"247","category_name":"餐饮美食","address":"桂林路35号近钦州南路"}]