[{"poiid":"B2094655D36CA1F4469B","title":"廊下","lon":"121.1938","lat":"30.78787","category":"38","category_name":"公交车站","address":""},{"poiid":"B2094655D36CA0FD4193","title":"景展家园","lon":"121.201","lat":"30.794","category":"38","category_name":"公交车站","address":"春虹路208弄"},{"poiid":"B2094757D069A4FB419C","title":"中华村农家乐","lon":"121.192909","lat":"30.790003","category":"75","category_name":"浙江菜","address":"上海金山区廊下镇"},{"poiid":"B2094757DA65A5F4469D","title":"上海岑仙苑会所","lon":"121.220025122","lat":"30.788585132","category":"216","category_name":"经济型连锁酒店","address":"上海市金山区廊下镇漕廊公路7199号(近秦湾路(万春苑旁))"},{"poiid":"B2094654DB68ABF54898","title":"金山区廊下镇社区卫生服务中心","lon":"121.19474","lat":"30.78779","category":"162","category_name":"医院","address":"廊下镇"},{"poiid":"B2094654DB6AA1FA499A","title":"金山区廊下中学","lon":"121.19168","lat":"30.78816","category":"55","category_name":"中学","address":"金山区廊下镇金张支线路49号"},{"poiid":"B2094654DB68AAFC4292","title":"廊下中心幼儿园","lon":"121.19492","lat":"30.78702","category":"57","category_name":"幼儿园","address":""},{"poiid":"B2094654DB68ABF54593","title":"凯威大酒店","lon":"121.19011","lat":"30.78733","category":"70","category_name":"综合酒楼","address":""},{"poiid":"B2094654DB68ABF5479D","title":"金山区廊下镇工业区","lon":"121.18998","lat":"30.78697","category":"45","category_name":"产业园区","address":""},{"poiid":"B2094654DB68AAFC4099","title":"上海农村商业银行(廊下镇)","lon":"121.18944","lat":"30.78675","category":"150","category_name":"银行","address":""},{"poiid":"B2094655D36DA3F94592","title":"漕廊公路惠高泾桥","lon":"121.18741","lat":"30.78679","category":"250","category_name":"公园户外","address":""},{"poiid":"B2094654DB68AAFC419B","title":"上海景利制衣有限公司","lon":"121.18829","lat":"30.78185","category":"263","category_name":"公司","address":"景阳村新建丰1006"}]