[{"poiid":"B2094654DB64A6F8419A","title":"星巴克(新天地店)","lon":"121.4746801","lat":"31.221476","category":"65","category_name":"咖啡厅","address":"卢湾区太仓路181弄新天地北里18号楼(近马当路)"},{"poiid":"B2094654DA6EABFC4292","title":"上海新天地(马当路)","lon":"121.47434","lat":"31.22081","category":"46","category_name":"楼宇","address":"太仓路181弄/兴业路123弄"},{"poiid":"B209475CD564A7F84292","title":"上海滩新天地店","lon":"121.47463","lat":"31.22164","category":"119","category_name":"商场","address":"\"太仓路181弄新天地北里15号\r\n\""},{"poiid":"B2094753D76FAAFA449C","title":"上海滩国泰旗舰店","lon":"121.466011","lat":"31.216125","category":"249","category_name":"购物服务","address":"淮海中路868号"},{"poiid":"B209475CD564A7F8439E","title":"上海滩中信泰富店","lon":"121.45602","lat":"31.22851","category":"119","category_name":"商场","address":"\"南京西路1168号中信泰富广场，店铺号221.\r\n\""},{"poiid":"B2094654DB64AAFC439E","title":"宝莱纳餐厅新天地餐厅","lon":"121.47386218823908","lat":"31.221275058883233","category":"257","category_name":"中餐厅","address":"卢湾区太仓路181弄新天地北里19-20号(近马当路)"},{"poiid":"B2094757D06EAAF5429D","title":"上海新天地朗廷酒店","lon":"121.474023342","lat":"31.2216057631","category":"217","category_name":"旅馆招待所","address":"上海市黄浦区马当路99号(近太仓路)"},{"poiid":"B2094757D06EAAFB409D","title":"璐娜餐厅 LUNA BAR &amp; RESTAURANT","lon":"121.47460259","lat":"31.221137178","category":"172","category_name":"酒吧","address":"卢湾区太仓路181弄16号1单元(近马当路)"},{"poiid":"B2094757DB69A7FE4693","title":"新元素 新天地店","lon":"121.4746721","lat":"31.2214896","category":"94","category_name":"西餐厅","address":"卢湾区太仓路181弄新天地北里广场(近马当路)"},{"poiid":"B2094757D06EAAFC409B","title":"新町 Shinmachi","lon":"121.47429","lat":"31.21996","category":"95","category_name":"日本料理","address":"卢湾区马当路159号新天地北里1-2楼(近兴业路)"},{"poiid":"B2094757D168A2FE4798","title":"TMSK","lon":"121.474503038","lat":"31.2208515002","category":"172","category_name":"酒吧","address":"卢湾区太仓路181弄新天地北里11号2单元(近马当路)"},{"poiid":"B2094655D26FA4FE4099","title":"香啡缤 新天地店 Coffee Bean&Tea Leaf","lon":"121.474229054","lat":"31.221022793","category":"65","category_name":"咖啡厅","address":"卢湾区太仓路181弄新天地北里10号楼02-03单元(近马当路)"},{"poiid":"B2094757D06EAAF54498","title":"Fountain","lon":"121.47480011","lat":"31.220687866","category":"94","category_name":"西餐厅","address":"卢湾区太仓路181弄新天地北里10-12楼04单元(近马当路)"},{"poiid":"B2094757D06EAAFF469E","title":"BROWN SUGAR","lon":"121.47444913","lat":"31.220552726","category":"94","category_name":"西餐厅","address":"卢湾区太仓路181弄新天地北里15号楼(近马当路)"},{"poiid":"B2094757DB64A3F84892","title":"哈根达斯（上海新天地店）","lon":"121.474","lat":"31.2208","category":"113","category_name":"冷饮店","address":"卢湾区太仓路181号新天地北里22-23号楼02A单元(老第坊旁)"},{"poiid":"B2094654DB65A3F5409D","title":"凯博西餐厅 新天地店 Kabb","lon":"121.474229054","lat":"31.221022793","category":"94","category_name":"西餐厅","address":"卢湾区太仓路181弄新天地北里5号楼(近马当路)"},{"poiid":"B2094757D068ABFA4998","title":"COVA 新天地店","lon":"121.474032898","lat":"31.2212762093","category":"67","category_name":"甜品店","address":"卢湾区太仓路181弄新天地北里内(近马当路)"},{"poiid":"B2094757D06FA3F4489D","title":"simply thai","lon":"121.47445678","lat":"31.220090866","category":"110","category_name":"其他亚洲菜","address":"上海马当路159号"},{"poiid":"B2094757D06FA4F44699","title":"宝莱纳","lon":"121.47467673","lat":"31.22133311","category":"249","category_name":"购物服务","address":"上海新天地"},{"poiid":"B2094654DA6FA3F4489A","title":"中共一大会址","lon":"121.47501","lat":"31.22045","category":"250","category_name":"公园户外","address":"上海市卢湾区黄陂南路374号"},{"poiid":"B2094655D26BA3FC469D","title":"揽香精萃时尚餐厅","lon":"121.47306","lat":"31.2221","category":"260","category_name":"其他","address":"卢湾区淮海中路381号中环广场2-3楼(近重庆南路)"},{"poiid":"B2094757D06FA2F8489C","title":"金牛苑(淮海中路店)","lon":"121.47315","lat":"31.22208","category":"47","category_name":"住宅区","address":"卢湾区淮海中路381号中环广场3楼(近马当路)"},{"poiid":"B2094654DB6BA4FA4299","title":"天泰餐厅(新天地店)","lon":"121.47449","lat":"31.22003","category":"99","category_name":"泰国／越南菜品餐厅","address":"卢湾区马当路159号(近太仓路)"},{"poiid":"B2094757D069A1F94699","title":"海逸海鲜酒家","lon":"121.474845738","lat":"31.2211241061","category":"88","category_name":"海鲜酒楼","address":"卢湾区太仓路181弄17号C01号店铺"},{"poiid":"B2094757D06FA5FB4092","title":"梧桐居(香港美心)","lon":"121.47457373","lat":"31.220666096","category":"111","category_name":"休闲餐饮场所","address":"卢湾区太仓路181弄22-23号1-3楼01单元"},{"poiid":"B2094750D464AAFE449A","title":"1930酒吧","lon":"121.475028","lat":"31.220422","category":"247","category_name":"餐饮美食","address":"卢湾区太仓路181弄新天地北里广场23-03号(近太仓路)"},{"poiid":"B2094654DB69A0F94992","title":"老第坊","lon":"121.47464","lat":"31.22035","category":"260","category_name":"其他","address":"卢湾区太仓路181号新天地北里内(近马当路)"},{"poiid":"B2094757D068ABFC4699","title":"Shanghai Tang Cafe (上海滩咖啡)","lon":"121.47448014","lat":"31.220778358","category":"65","category_name":"咖啡厅","address":"卢湾区黄陂南路333号2-3楼(近太仓路)"},{"poiid":"B2094751D56FABFF469F","title":"g  极食（上海K11店）","lon":"121.471882","lat":"31.220876","category":"247","category_name":"餐饮美食","address":"上海市 淮海中路300号上海K11购物艺术中心303"},{"poiid":"B2094757D069A0FF4492","title":"Dr. Bar","lon":"121.47491502","lat":"31.221128392","category":"260","category_name":"其他","address":"卢湾区太仓路181弄新天地北里15号楼(近马当路)"},{"poiid":"B2094750D76DA6F8449F","title":"新天地朗廷酒店凯旋餐厅","lon":"121.474","lat":"31.2214","category":"268","category_name":"自助","address":"卢湾区马当路99号新天地朗廷酒店1楼(近太仓路)"},{"poiid":"B2094757D06AA6FC4198","title":"香港广场M2","lon":"121.474451738","lat":"31.2206710964","category":"500","category_name":"未知分类","address":"上海市卢湾区"},{"poiid":"B2094757D06AA4FE4599","title":"Haagen-Dazs","lon":"121.47451873","lat":"31.220787098","category":"500","category_name":"未知分类","address":"上海新天地"},{"poiid":"B2094655D26AAAF54398","title":"东田造型淮海中路店","lon":"121.47306","lat":"31.2221","category":"148","category_name":"美容美发店","address":"卢湾区淮海中路381号中环广场2楼208室(近马当路)"},{"poiid":"B2094654DB6BA4FA419F","title":"伊藤家(中环店)","lon":"121.47282","lat":"31.22196","category":"95","category_name":"日本料理","address":"卢湾区淮海中路381号中环广场3楼(近马当路)"},{"poiid":"B2094757D064A0FC4793","title":"小山日式料理","lon":"121.47442268","lat":"31.220181406","category":"247","category_name":"餐饮美食","address":"上海卢湾区兴业路123弄新天地南里6号楼3楼(近马当路)"},{"poiid":"B2094750D565A6FF4993","title":"多謝賞面","lon":"121.47396","lat":"31.219984","category":"247","category_name":"餐饮美食","address":"卢湾区兴业路156弄1号A11号铺(近马当路)"},{"poiid":"B2094751D56FABFB4093","title":"Tuttimelon（上海K11店）","lon":"121.47274","lat":"31.221169","category":"247","category_name":"餐饮美食","address":"上海市 淮海中路300号上海K11购物艺术中心B213/B246"},{"poiid":"B2094655D26EA1FA409E","title":"蒂梵尼造型设计(新天地店)","lon":"121.47405","lat":"31.21983","category":"148","category_name":"美容美发店","address":"卢湾区马当路245号新天地时尚B204-B205单元(近复兴中路)"},{"poiid":"B2094757D16CAAF94992","title":"南昌路","lon":"121.47206173","lat":"31.221032104","category":"500","category_name":"未知分类","address":"上海卢湾区南昌路"},{"poiid":"B2094757D065A4F5419D","title":"Wagas","lon":"121.473691738","lat":"31.2212781093","category":"500","category_name":"未知分类","address":"上海ShanghaiLuwanJulu Rd"},{"poiid":"B2094757D068A1FB419E","title":"上海滩(新天地店)","lon":"121.47434","lat":"31.22103","category":"141","category_name":"服装鞋帽皮具店","address":"卢湾区太仓路181弄新天地北里15号(近马当路)"},{"poiid":"B2094654DB65A5F9459C","title":"华万意 Va Bene","lon":"121.474229054","lat":"31.221022793","category":"94","category_name":"西餐厅","address":"卢湾区太仓路181弄新天地北里7号楼(近马当路)"},{"poiid":"B2094757D06EAAFE479E","title":"刘娟美甲(淮海中路一店)","lon":"121.47222","lat":"31.22163","category":"122","category_name":"个人用品/化妆品店","address":"卢湾区淮海中路417号香黛广场73号(近重庆南路)"},{"poiid":"B2094757D165A2FC489D","title":"康道SPA(新天地店)","lon":"121.47446273","lat":"31.220443091","category":"500","category_name":"未知分类","address":"上海太仓路181弄19号"},{"poiid":"B2094750D26FA5FA419D","title":"de Bellotas","lon":"121.474731","lat":"31.220932","category":"94","category_name":"西餐厅","address":"卢湾区太仓路68号(近顺昌路)"},{"poiid":"B2094757D16CABFA4098","title":"上海医药大厦","lon":"121.47355428","lat":"31.221216408","category":"46","category_name":"楼宇","address":"上海市静安区南京西路555号"},{"poiid":"B2094757D764AAFA439C","title":"OYA","lon":"121.4745819","lat":"31.2214324","category":"67","category_name":"甜品店","address":"太仓路181弄新天地01A单元近黄陂南路"},{"poiid":"B2094757D16FA4FB479A","title":"新西兰中心","lon":"121.47402443","lat":"31.219481371","category":"182","category_name":"博物馆","address":"上海卢湾区马当路190号"},{"poiid":"B2094757D66BA1FC4492","title":"钲酒廊 NU Lounge","lon":"121.474427","lat":"31.219754","category":"94","category_name":"西餐厅","address":"卢湾区兴业路118号2楼(近马当路)"},{"poiid":"B2094654DB64A6F8419A","title":"星巴克(新天地店)","lon":"121.4746801","lat":"31.221476","category":"65","category_name":"咖啡厅","address":"卢湾区太仓路181弄新天地北里18号楼(近马当路)"},{"poiid":"B2094654DA6EABFC4292","title":"上海新天地(马当路)","lon":"121.47434","lat":"31.22081","category":"46","category_name":"楼宇","address":"太仓路181弄/兴业路123弄"},{"poiid":"B209475CD564A7F84292","title":"上海滩新天地店","lon":"121.47463","lat":"31.22164","category":"119","category_name":"商场","address":"\"太仓路181弄新天地北里15号\r\n\""},{"poiid":"B2094753D76FAAFA449C","title":"上海滩国泰旗舰店","lon":"121.466011","lat":"31.216125","category":"249","category_name":"购物服务","address":"淮海中路868号"},{"poiid":"B209475CD564A7F8439E","title":"上海滩中信泰富店","lon":"121.45602","lat":"31.22851","category":"119","category_name":"商场","address":"\"南京西路1168号中信泰富广场，店铺号221.\r\n\""},{"poiid":"B2094654DB64AAFC439E","title":"宝莱纳餐厅新天地餐厅","lon":"121.47386218823908","lat":"31.221275058883233","category":"257","category_name":"中餐厅","address":"卢湾区太仓路181弄新天地北里19-20号(近马当路)"},{"poiid":"B2094757D06EAAF5429D","title":"上海新天地朗廷酒店","lon":"121.474023342","lat":"31.2216057631","category":"217","category_name":"旅馆招待所","address":"上海市黄浦区马当路99号(近太仓路)"},{"poiid":"B2094757D06EAAFB409D","title":"璐娜餐厅 LUNA BAR &amp; RESTAURANT","lon":"121.47460259","lat":"31.221137178","category":"172","category_name":"酒吧","address":"卢湾区太仓路181弄16号1单元(近马当路)"},{"poiid":"B2094757DB69A7FE4693","title":"新元素 新天地店","lon":"121.4746721","lat":"31.2214896","category":"94","category_name":"西餐厅","address":"卢湾区太仓路181弄新天地北里广场(近马当路)"},{"poiid":"B2094757D06EAAFC409B","title":"新町 Shinmachi","lon":"121.47429","lat":"31.21996","category":"95","category_name":"日本料理","address":"卢湾区马当路159号新天地北里1-2楼(近兴业路)"},{"poiid":"B2094757D168A2FE4798","title":"TMSK","lon":"121.474503038","lat":"31.2208515002","category":"172","category_name":"酒吧","address":"卢湾区太仓路181弄新天地北里11号2单元(近马当路)"},{"poiid":"B2094655D26FA4FE4099","title":"香啡缤 新天地店 Coffee Bean&Tea Leaf","lon":"121.474229054","lat":"31.221022793","category":"65","category_name":"咖啡厅","address":"卢湾区太仓路181弄新天地北里10号楼02-03单元(近马当路)"},{"poiid":"B2094757D06EAAF54498","title":"Fountain","lon":"121.47480011","lat":"31.220687866","category":"94","category_name":"西餐厅","address":"卢湾区太仓路181弄新天地北里10-12楼04单元(近马当路)"},{"poiid":"B2094757D06EAAFF469E","title":"BROWN SUGAR","lon":"121.47444913","lat":"31.220552726","category":"94","category_name":"西餐厅","address":"卢湾区太仓路181弄新天地北里15号楼(近马当路)"},{"poiid":"B2094757DB64A3F84892","title":"哈根达斯（上海新天地店）","lon":"121.474","lat":"31.2208","category":"113","category_name":"冷饮店","address":"卢湾区太仓路181号新天地北里22-23号楼02A单元(老第坊旁)"},{"poiid":"B2094654DB65A3F5409D","title":"凯博西餐厅 新天地店 Kabb","lon":"121.474229054","lat":"31.221022793","category":"94","category_name":"西餐厅","address":"卢湾区太仓路181弄新天地北里5号楼(近马当路)"},{"poiid":"B2094757D068ABFA4998","title":"COVA 新天地店","lon":"121.474032898","lat":"31.2212762093","category":"67","category_name":"甜品店","address":"卢湾区太仓路181弄新天地北里内(近马当路)"},{"poiid":"B2094757D06FA3F4489D","title":"simply thai","lon":"121.47445678","lat":"31.220090866","category":"110","category_name":"其他亚洲菜","address":"上海马当路159号"},{"poiid":"B2094757D06FA4F44699","title":"宝莱纳","lon":"121.47467673","lat":"31.22133311","category":"249","category_name":"购物服务","address":"上海新天地"},{"poiid":"B2094654DA6FA3F4489A","title":"中共一大会址","lon":"121.47501","lat":"31.22045","category":"250","category_name":"公园户外","address":"上海市卢湾区黄陂南路374号"},{"poiid":"B2094655D26BA3FC469D","title":"揽香精萃时尚餐厅","lon":"121.47306","lat":"31.2221","category":"260","category_name":"其他","address":"卢湾区淮海中路381号中环广场2-3楼(近重庆南路)"},{"poiid":"B2094757D06FA2F8489C","title":"金牛苑(淮海中路店)","lon":"121.47315","lat":"31.22208","category":"47","category_name":"住宅区","address":"卢湾区淮海中路381号中环广场3楼(近马当路)"},{"poiid":"B2094654DB6BA4FA4299","title":"天泰餐厅(新天地店)","lon":"121.47449","lat":"31.22003","category":"99","category_name":"泰国／越南菜品餐厅","address":"卢湾区马当路159号(近太仓路)"},{"poiid":"B2094757D069A1F94699","title":"海逸海鲜酒家","lon":"121.474845738","lat":"31.2211241061","category":"88","category_name":"海鲜酒楼","address":"卢湾区太仓路181弄17号C01号店铺"},{"poiid":"B2094757D06FA5FB4092","title":"梧桐居(香港美心)","lon":"121.47457373","lat":"31.220666096","category":"111","category_name":"休闲餐饮场所","address":"卢湾区太仓路181弄22-23号1-3楼01单元"},{"poiid":"B2094750D464AAFE449A","title":"1930酒吧","lon":"121.475028","lat":"31.220422","category":"247","category_name":"餐饮美食","address":"卢湾区太仓路181弄新天地北里广场23-03号(近太仓路)"},{"poiid":"B2094654DB69A0F94992","title":"老第坊","lon":"121.47464","lat":"31.22035","category":"260","category_name":"其他","address":"卢湾区太仓路181号新天地北里内(近马当路)"},{"poiid":"B2094757D068ABFC4699","title":"Shanghai Tang Cafe (上海滩咖啡)","lon":"121.47448014","lat":"31.220778358","category":"65","category_name":"咖啡厅","address":"卢湾区黄陂南路333号2-3楼(近太仓路)"},{"poiid":"B2094751D56FABFF469F","title":"g  极食（上海K11店）","lon":"121.471882","lat":"31.220876","category":"247","category_name":"餐饮美食","address":"上海市 淮海中路300号上海K11购物艺术中心303"},{"poiid":"B2094757D069A0FF4492","title":"Dr. Bar","lon":"121.47491502","lat":"31.221128392","category":"260","category_name":"其他","address":"卢湾区太仓路181弄新天地北里15号楼(近马当路)"},{"poiid":"B2094750D76DA6F8449F","title":"新天地朗廷酒店凯旋餐厅","lon":"121.474","lat":"31.2214","category":"268","category_name":"自助","address":"卢湾区马当路99号新天地朗廷酒店1楼(近太仓路)"},{"poiid":"B2094757D06AA6FC4198","title":"香港广场M2","lon":"121.474451738","lat":"31.2206710964","category":"500","category_name":"未知分类","address":"上海市卢湾区"},{"poiid":"B2094757D06AA4FE4599","title":"Haagen-Dazs","lon":"121.47451873","lat":"31.220787098","category":"500","category_name":"未知分类","address":"上海新天地"},{"poiid":"B2094655D26AAAF54398","title":"东田造型淮海中路店","lon":"121.47306","lat":"31.2221","category":"148","category_name":"美容美发店","address":"卢湾区淮海中路381号中环广场2楼208室(近马当路)"},{"poiid":"B2094654DB6BA4FA419F","title":"伊藤家(中环店)","lon":"121.47282","lat":"31.22196","category":"95","category_name":"日本料理","address":"卢湾区淮海中路381号中环广场3楼(近马当路)"},{"poiid":"B2094757D064A0FC4793","title":"小山日式料理","lon":"121.47442268","lat":"31.220181406","category":"247","category_name":"餐饮美食","address":"上海卢湾区兴业路123弄新天地南里6号楼3楼(近马当路)"},{"poiid":"B2094750D565A6FF4993","title":"多謝賞面","lon":"121.47396","lat":"31.219984","category":"247","category_name":"餐饮美食","address":"卢湾区兴业路156弄1号A11号铺(近马当路)"},{"poiid":"B2094751D56FABFB4093","title":"Tuttimelon（上海K11店）","lon":"121.47274","lat":"31.221169","category":"247","category_name":"餐饮美食","address":"上海市 淮海中路300号上海K11购物艺术中心B213/B246"},{"poiid":"B2094655D26EA1FA409E","title":"蒂梵尼造型设计(新天地店)","lon":"121.47405","lat":"31.21983","category":"148","category_name":"美容美发店","address":"卢湾区马当路245号新天地时尚B204-B205单元(近复兴中路)"},{"poiid":"B2094757D16CAAF94992","title":"南昌路","lon":"121.47206173","lat":"31.221032104","category":"500","category_name":"未知分类","address":"上海卢湾区南昌路"},{"poiid":"B2094757D065A4F5419D","title":"Wagas","lon":"121.473691738","lat":"31.2212781093","category":"500","category_name":"未知分类","address":"上海ShanghaiLuwanJulu Rd"},{"poiid":"B2094757D068A1FB419E","title":"上海滩(新天地店)","lon":"121.47434","lat":"31.22103","category":"141","category_name":"服装鞋帽皮具店","address":"卢湾区太仓路181弄新天地北里15号(近马当路)"},{"poiid":"B2094654DB65A5F9459C","title":"华万意 Va Bene","lon":"121.474229054","lat":"31.221022793","category":"94","category_name":"西餐厅","address":"卢湾区太仓路181弄新天地北里7号楼(近马当路)"},{"poiid":"B2094757D06EAAFE479E","title":"刘娟美甲(淮海中路一店)","lon":"121.47222","lat":"31.22163","category":"122","category_name":"个人用品/化妆品店","address":"卢湾区淮海中路417号香黛广场73号(近重庆南路)"},{"poiid":"B2094757D165A2FC489D","title":"康道SPA(新天地店)","lon":"121.47446273","lat":"31.220443091","category":"500","category_name":"未知分类","address":"上海太仓路181弄19号"},{"poiid":"B2094750D26FA5FA419D","title":"de Bellotas","lon":"121.474731","lat":"31.220932","category":"94","category_name":"西餐厅","address":"卢湾区太仓路68号(近顺昌路)"},{"poiid":"B2094757D16CABFA4098","title":"上海医药大厦","lon":"121.47355428","lat":"31.221216408","category":"46","category_name":"楼宇","address":"上海市静安区南京西路555号"},{"poiid":"B2094757D764AAFA439C","title":"OYA","lon":"121.4745819","lat":"31.2214324","category":"67","category_name":"甜品店","address":"太仓路181弄新天地01A单元近黄陂南路"},{"poiid":"B2094757D16FA4FB479A","title":"新西兰中心","lon":"121.47402443","lat":"31.219481371","category":"182","category_name":"博物馆","address":"上海卢湾区马当路190号"},{"poiid":"B2094757D66BA1FC4492","title":"钲酒廊 NU Lounge","lon":"121.474427","lat":"31.219754","category":"94","category_name":"西餐厅","address":"卢湾区兴业路118号2楼(近马当路)"},{"poiid":"B2094654DB64A6F8419A","title":"星巴克(新天地店)","lon":"121.4746801","lat":"31.221476","category":"65","category_name":"咖啡厅","address":"卢湾区太仓路181弄新天地北里18号楼(近马当路)"},{"poiid":"B2094654DA6EABFC4292","title":"上海新天地(马当路)","lon":"121.47434","lat":"31.22081","category":"46","category_name":"楼宇","address":"太仓路181弄/兴业路123弄"},{"poiid":"B209475CD564A7F84292","title":"上海滩新天地店","lon":"121.47463","lat":"31.22164","category":"119","category_name":"商场","address":"\"太仓路181弄新天地北里15号\r\n\""},{"poiid":"B2094753D76FAAFA449C","title":"上海滩国泰旗舰店","lon":"121.466011","lat":"31.216125","category":"249","category_name":"购物服务","address":"淮海中路868号"},{"poiid":"B209475CD564A7F8439E","title":"上海滩中信泰富店","lon":"121.45602","lat":"31.22851","category":"119","category_name":"商场","address":"\"南京西路1168号中信泰富广场，店铺号221.\r\n\""},{"poiid":"B2094654DB64AAFC439E","title":"宝莱纳餐厅新天地餐厅","lon":"121.47386218823908","lat":"31.221275058883233","category":"257","category_name":"中餐厅","address":"卢湾区太仓路181弄新天地北里19-20号(近马当路)"},{"poiid":"B2094757D06EAAF5429D","title":"上海新天地朗廷酒店","lon":"121.474023342","lat":"31.2216057631","category":"217","category_name":"旅馆招待所","address":"上海市黄浦区马当路99号(近太仓路)"},{"poiid":"B2094757D06EAAFB409D","title":"璐娜餐厅 LUNA BAR &amp; RESTAURANT","lon":"121.47460259","lat":"31.221137178","category":"172","category_name":"酒吧","address":"卢湾区太仓路181弄16号1单元(近马当路)"},{"poiid":"B2094757DB69A7FE4693","title":"新元素 新天地店","lon":"121.4746721","lat":"31.2214896","category":"94","category_name":"西餐厅","address":"卢湾区太仓路181弄新天地北里广场(近马当路)"},{"poiid":"B2094757D06EAAFC409B","title":"新町 Shinmachi","lon":"121.47429","lat":"31.21996","category":"95","category_name":"日本料理","address":"卢湾区马当路159号新天地北里1-2楼(近兴业路)"},{"poiid":"B2094757D168A2FE4798","title":"TMSK","lon":"121.474503038","lat":"31.2208515002","category":"172","category_name":"酒吧","address":"卢湾区太仓路181弄新天地北里11号2单元(近马当路)"},{"poiid":"B2094655D26FA4FE4099","title":"香啡缤 新天地店 Coffee Bean&Tea Leaf","lon":"121.474229054","lat":"31.221022793","category":"65","category_name":"咖啡厅","address":"卢湾区太仓路181弄新天地北里10号楼02-03单元(近马当路)"},{"poiid":"B2094757D06EAAF54498","title":"Fountain","lon":"121.47480011","lat":"31.220687866","category":"94","category_name":"西餐厅","address":"卢湾区太仓路181弄新天地北里10-12楼04单元(近马当路)"},{"poiid":"B2094757D06EAAFF469E","title":"BROWN SUGAR","lon":"121.47444913","lat":"31.220552726","category":"94","category_name":"西餐厅","address":"卢湾区太仓路181弄新天地北里15号楼(近马当路)"},{"poiid":"B2094757DB64A3F84892","title":"哈根达斯（上海新天地店）","lon":"121.474","lat":"31.2208","category":"113","category_name":"冷饮店","address":"卢湾区太仓路181号新天地北里22-23号楼02A单元(老第坊旁)"},{"poiid":"B2094654DB65A3F5409D","title":"凯博西餐厅 新天地店 Kabb","lon":"121.474229054","lat":"31.221022793","category":"94","category_name":"西餐厅","address":"卢湾区太仓路181弄新天地北里5号楼(近马当路)"},{"poiid":"B2094757D068ABFA4998","title":"COVA 新天地店","lon":"121.474032898","lat":"31.2212762093","category":"67","category_name":"甜品店","address":"卢湾区太仓路181弄新天地北里内(近马当路)"},{"poiid":"B2094757D06FA3F4489D","title":"simply thai","lon":"121.47445678","lat":"31.220090866","category":"110","category_name":"其他亚洲菜","address":"上海马当路159号"},{"poiid":"B2094757D06FA4F44699","title":"宝莱纳","lon":"121.47467673","lat":"31.22133311","category":"249","category_name":"购物服务","address":"上海新天地"},{"poiid":"B2094654DA6FA3F4489A","title":"中共一大会址","lon":"121.47501","lat":"31.22045","category":"250","category_name":"公园户外","address":"上海市卢湾区黄陂南路374号"},{"poiid":"B2094655D26BA3FC469D","title":"揽香精萃时尚餐厅","lon":"121.47306","lat":"31.2221","category":"260","category_name":"其他","address":"卢湾区淮海中路381号中环广场2-3楼(近重庆南路)"},{"poiid":"B2094757D06FA2F8489C","title":"金牛苑(淮海中路店)","lon":"121.47315","lat":"31.22208","category":"47","category_name":"住宅区","address":"卢湾区淮海中路381号中环广场3楼(近马当路)"},{"poiid":"B2094654DB6BA4FA4299","title":"天泰餐厅(新天地店)","lon":"121.47449","lat":"31.22003","category":"99","category_name":"泰国／越南菜品餐厅","address":"卢湾区马当路159号(近太仓路)"},{"poiid":"B2094757D069A1F94699","title":"海逸海鲜酒家","lon":"121.474845738","lat":"31.2211241061","category":"88","category_name":"海鲜酒楼","address":"卢湾区太仓路181弄17号C01号店铺"},{"poiid":"B2094757D06FA5FB4092","title":"梧桐居(香港美心)","lon":"121.47457373","lat":"31.220666096","category":"111","category_name":"休闲餐饮场所","address":"卢湾区太仓路181弄22-23号1-3楼01单元"},{"poiid":"B2094750D464AAFE449A","title":"1930酒吧","lon":"121.475028","lat":"31.220422","category":"247","category_name":"餐饮美食","address":"卢湾区太仓路181弄新天地北里广场23-03号(近太仓路)"},{"poiid":"B2094654DB69A0F94992","title":"老第坊","lon":"121.47464","lat":"31.22035","category":"260","category_name":"其他","address":"卢湾区太仓路181号新天地北里内(近马当路)"},{"poiid":"B2094757D068ABFC4699","title":"Shanghai Tang Cafe (上海滩咖啡)","lon":"121.47448014","lat":"31.220778358","category":"65","category_name":"咖啡厅","address":"卢湾区黄陂南路333号2-3楼(近太仓路)"},{"poiid":"B2094751D56FABFF469F","title":"g  极食（上海K11店）","lon":"121.471882","lat":"31.220876","category":"247","category_name":"餐饮美食","address":"上海市 淮海中路300号上海K11购物艺术中心303"},{"poiid":"B2094757D069A0FF4492","title":"Dr. Bar","lon":"121.47491502","lat":"31.221128392","category":"260","category_name":"其他","address":"卢湾区太仓路181弄新天地北里15号楼(近马当路)"},{"poiid":"B2094750D76DA6F8449F","title":"新天地朗廷酒店凯旋餐厅","lon":"121.474","lat":"31.2214","category":"268","category_name":"自助","address":"卢湾区马当路99号新天地朗廷酒店1楼(近太仓路)"},{"poiid":"B2094757D06AA6FC4198","title":"香港广场M2","lon":"121.474451738","lat":"31.2206710964","category":"500","category_name":"未知分类","address":"上海市卢湾区"},{"poiid":"B2094757D06AA4FE4599","title":"Haagen-Dazs","lon":"121.47451873","lat":"31.220787098","category":"500","category_name":"未知分类","address":"上海新天地"},{"poiid":"B2094655D26AAAF54398","title":"东田造型淮海中路店","lon":"121.47306","lat":"31.2221","category":"148","category_name":"美容美发店","address":"卢湾区淮海中路381号中环广场2楼208室(近马当路)"},{"poiid":"B2094654DB6BA4FA419F","title":"伊藤家(中环店)","lon":"121.47282","lat":"31.22196","category":"95","category_name":"日本料理","address":"卢湾区淮海中路381号中环广场3楼(近马当路)"},{"poiid":"B2094757D064A0FC4793","title":"小山日式料理","lon":"121.47442268","lat":"31.220181406","category":"247","category_name":"餐饮美食","address":"上海卢湾区兴业路123弄新天地南里6号楼3楼(近马当路)"},{"poiid":"B2094750D565A6FF4993","title":"多謝賞面","lon":"121.47396","lat":"31.219984","category":"247","category_name":"餐饮美食","address":"卢湾区兴业路156弄1号A11号铺(近马当路)"},{"poiid":"B2094751D56FABFB4093","title":"Tuttimelon（上海K11店）","lon":"121.47274","lat":"31.221169","category":"247","category_name":"餐饮美食","address":"上海市 淮海中路300号上海K11购物艺术中心B213/B246"},{"poiid":"B2094655D26EA1FA409E","title":"蒂梵尼造型设计(新天地店)","lon":"121.47405","lat":"31.21983","category":"148","category_name":"美容美发店","address":"卢湾区马当路245号新天地时尚B204-B205单元(近复兴中路)"},{"poiid":"B2094757D16CAAF94992","title":"南昌路","lon":"121.47206173","lat":"31.221032104","category":"500","category_name":"未知分类","address":"上海卢湾区南昌路"},{"poiid":"B2094757D065A4F5419D","title":"Wagas","lon":"121.473691738","lat":"31.2212781093","category":"500","category_name":"未知分类","address":"上海ShanghaiLuwanJulu Rd"},{"poiid":"B2094757D068A1FB419E","title":"上海滩(新天地店)","lon":"121.47434","lat":"31.22103","category":"141","category_name":"服装鞋帽皮具店","address":"卢湾区太仓路181弄新天地北里15号(近马当路)"},{"poiid":"B2094654DB65A5F9459C","title":"华万意 Va Bene","lon":"121.474229054","lat":"31.221022793","category":"94","category_name":"西餐厅","address":"卢湾区太仓路181弄新天地北里7号楼(近马当路)"},{"poiid":"B2094757D06EAAFE479E","title":"刘娟美甲(淮海中路一店)","lon":"121.47222","lat":"31.22163","category":"122","category_name":"个人用品/化妆品店","address":"卢湾区淮海中路417号香黛广场73号(近重庆南路)"},{"poiid":"B2094757D165A2FC489D","title":"康道SPA(新天地店)","lon":"121.47446273","lat":"31.220443091","category":"500","category_name":"未知分类","address":"上海太仓路181弄19号"},{"poiid":"B2094750D26FA5FA419D","title":"de Bellotas","lon":"121.474731","lat":"31.220932","category":"94","category_name":"西餐厅","address":"卢湾区太仓路68号(近顺昌路)"},{"poiid":"B2094757D16CABFA4098","title":"上海医药大厦","lon":"121.47355428","lat":"31.221216408","category":"46","category_name":"楼宇","address":"上海市静安区南京西路555号"},{"poiid":"B2094757D764AAFA439C","title":"OYA","lon":"121.4745819","lat":"31.2214324","category":"67","category_name":"甜品店","address":"太仓路181弄新天地01A单元近黄陂南路"},{"poiid":"B2094757D16FA4FB479A","title":"新西兰中心","lon":"121.47402443","lat":"31.219481371","category":"182","category_name":"博物馆","address":"上海卢湾区马当路190号"},{"poiid":"B2094757D66BA1FC4492","title":"钲酒廊 NU Lounge","lon":"121.474427","lat":"31.219754","category":"94","category_name":"西餐厅","address":"卢湾区兴业路118号2楼(近马当路)"},{"poiid":"B2094654DB64A6F8419A","title":"星巴克(新天地店)","lon":"121.4746801","lat":"31.221476","category":"65","category_name":"咖啡厅","address":"卢湾区太仓路181弄新天地北里18号楼(近马当路)"},{"poiid":"B2094654DA6EABFC4292","title":"上海新天地(马当路)","lon":"121.47434","lat":"31.22081","category":"46","category_name":"楼宇","address":"太仓路181弄/兴业路123弄"},{"poiid":"B209475CD564A7F84292","title":"上海滩新天地店","lon":"121.47463","lat":"31.22164","category":"119","category_name":"商场","address":"\"太仓路181弄新天地北里15号\r\n\""},{"poiid":"B2094753D76FAAFA449C","title":"上海滩国泰旗舰店","lon":"121.466011","lat":"31.216125","category":"249","category_name":"购物服务","address":"淮海中路868号"},{"poiid":"B209475CD564A7F8439E","title":"上海滩中信泰富店","lon":"121.45602","lat":"31.22851","category":"119","category_name":"商场","address":"\"南京西路1168号中信泰富广场，店铺号221.\r\n\""},{"poiid":"B2094654DB64AAFC439E","title":"宝莱纳餐厅新天地餐厅","lon":"121.47386218823908","lat":"31.221275058883233","category":"257","category_name":"中餐厅","address":"卢湾区太仓路181弄新天地北里19-20号(近马当路)"},{"poiid":"B2094757D06EAAF5429D","title":"上海新天地朗廷酒店","lon":"121.474023342","lat":"31.2216057631","category":"217","category_name":"旅馆招待所","address":"上海市黄浦区马当路99号(近太仓路)"},{"poiid":"B2094757D06EAAFB409D","title":"璐娜餐厅 LUNA BAR &amp; RESTAURANT","lon":"121.47460259","lat":"31.221137178","category":"172","category_name":"酒吧","address":"卢湾区太仓路181弄16号1单元(近马当路)"},{"poiid":"B2094757DB69A7FE4693","title":"新元素 新天地店","lon":"121.4746721","lat":"31.2214896","category":"94","category_name":"西餐厅","address":"卢湾区太仓路181弄新天地北里广场(近马当路)"},{"poiid":"B2094757D06EAAFC409B","title":"新町 Shinmachi","lon":"121.47429","lat":"31.21996","category":"95","category_name":"日本料理","address":"卢湾区马当路159号新天地北里1-2楼(近兴业路)"},{"poiid":"B2094757D168A2FE4798","title":"TMSK","lon":"121.474503038","lat":"31.2208515002","category":"172","category_name":"酒吧","address":"卢湾区太仓路181弄新天地北里11号2单元(近马当路)"},{"poiid":"B2094655D26FA4FE4099","title":"香啡缤 新天地店 Coffee Bean&Tea Leaf","lon":"121.474229054","lat":"31.221022793","category":"65","category_name":"咖啡厅","address":"卢湾区太仓路181弄新天地北里10号楼02-03单元(近马当路)"},{"poiid":"B2094757D06EAAF54498","title":"Fountain","lon":"121.47480011","lat":"31.220687866","category":"94","category_name":"西餐厅","address":"卢湾区太仓路181弄新天地北里10-12楼04单元(近马当路)"},{"poiid":"B2094757D06EAAFF469E","title":"BROWN SUGAR","lon":"121.47444913","lat":"31.220552726","category":"94","category_name":"西餐厅","address":"卢湾区太仓路181弄新天地北里15号楼(近马当路)"},{"poiid":"B2094757DB64A3F84892","title":"哈根达斯（上海新天地店）","lon":"121.474","lat":"31.2208","category":"113","category_name":"冷饮店","address":"卢湾区太仓路181号新天地北里22-23号楼02A单元(老第坊旁)"},{"poiid":"B2094654DB65A3F5409D","title":"凯博西餐厅 新天地店 Kabb","lon":"121.474229054","lat":"31.221022793","category":"94","category_name":"西餐厅","address":"卢湾区太仓路181弄新天地北里5号楼(近马当路)"},{"poiid":"B2094757D068ABFA4998","title":"COVA 新天地店","lon":"121.474032898","lat":"31.2212762093","category":"67","category_name":"甜品店","address":"卢湾区太仓路181弄新天地北里内(近马当路)"},{"poiid":"B2094757D06FA3F4489D","title":"simply thai","lon":"121.47445678","lat":"31.220090866","category":"110","category_name":"其他亚洲菜","address":"上海马当路159号"},{"poiid":"B2094757D06FA4F44699","title":"宝莱纳","lon":"121.47467673","lat":"31.22133311","category":"249","category_name":"购物服务","address":"上海新天地"},{"poiid":"B2094654DA6FA3F4489A","title":"中共一大会址","lon":"121.47501","lat":"31.22045","category":"250","category_name":"公园户外","address":"上海市卢湾区黄陂南路374号"},{"poiid":"B2094655D26BA3FC469D","title":"揽香精萃时尚餐厅","lon":"121.47306","lat":"31.2221","category":"260","category_name":"其他","address":"卢湾区淮海中路381号中环广场2-3楼(近重庆南路)"},{"poiid":"B2094757D06FA2F8489C","title":"金牛苑(淮海中路店)","lon":"121.47315","lat":"31.22208","category":"47","category_name":"住宅区","address":"卢湾区淮海中路381号中环广场3楼(近马当路)"},{"poiid":"B2094654DB6BA4FA4299","title":"天泰餐厅(新天地店)","lon":"121.47449","lat":"31.22003","category":"99","category_name":"泰国／越南菜品餐厅","address":"卢湾区马当路159号(近太仓路)"},{"poiid":"B2094757D069A1F94699","title":"海逸海鲜酒家","lon":"121.474845738","lat":"31.2211241061","category":"88","category_name":"海鲜酒楼","address":"卢湾区太仓路181弄17号C01号店铺"},{"poiid":"B2094757D06FA5FB4092","title":"梧桐居(香港美心)","lon":"121.47457373","lat":"31.220666096","category":"111","category_name":"休闲餐饮场所","address":"卢湾区太仓路181弄22-23号1-3楼01单元"},{"poiid":"B2094750D464AAFE449A","title":"1930酒吧","lon":"121.475028","lat":"31.220422","category":"247","category_name":"餐饮美食","address":"卢湾区太仓路181弄新天地北里广场23-03号(近太仓路)"},{"poiid":"B2094654DB69A0F94992","title":"老第坊","lon":"121.47464","lat":"31.22035","category":"260","category_name":"其他","address":"卢湾区太仓路181号新天地北里内(近马当路)"},{"poiid":"B2094757D068ABFC4699","title":"Shanghai Tang Cafe (上海滩咖啡)","lon":"121.47448014","lat":"31.220778358","category":"65","category_name":"咖啡厅","address":"卢湾区黄陂南路333号2-3楼(近太仓路)"},{"poiid":"B2094751D56FABFF469F","title":"g  极食（上海K11店）","lon":"121.471882","lat":"31.220876","category":"247","category_name":"餐饮美食","address":"上海市 淮海中路300号上海K11购物艺术中心303"},{"poiid":"B2094757D069A0FF4492","title":"Dr. Bar","lon":"121.47491502","lat":"31.221128392","category":"260","category_name":"其他","address":"卢湾区太仓路181弄新天地北里15号楼(近马当路)"},{"poiid":"B2094750D76DA6F8449F","title":"新天地朗廷酒店凯旋餐厅","lon":"121.474","lat":"31.2214","category":"268","category_name":"自助","address":"卢湾区马当路99号新天地朗廷酒店1楼(近太仓路)"},{"poiid":"B2094757D06AA6FC4198","title":"香港广场M2","lon":"121.474451738","lat":"31.2206710964","category":"500","category_name":"未知分类","address":"上海市卢湾区"},{"poiid":"B2094757D06AA4FE4599","title":"Haagen-Dazs","lon":"121.47451873","lat":"31.220787098","category":"500","category_name":"未知分类","address":"上海新天地"},{"poiid":"B2094655D26AAAF54398","title":"东田造型淮海中路店","lon":"121.47306","lat":"31.2221","category":"148","category_name":"美容美发店","address":"卢湾区淮海中路381号中环广场2楼208室(近马当路)"},{"poiid":"B2094654DB6BA4FA419F","title":"伊藤家(中环店)","lon":"121.47282","lat":"31.22196","category":"95","category_name":"日本料理","address":"卢湾区淮海中路381号中环广场3楼(近马当路)"},{"poiid":"B2094757D064A0FC4793","title":"小山日式料理","lon":"121.47442268","lat":"31.220181406","category":"247","category_name":"餐饮美食","address":"上海卢湾区兴业路123弄新天地南里6号楼3楼(近马当路)"},{"poiid":"B2094750D565A6FF4993","title":"多謝賞面","lon":"121.47396","lat":"31.219984","category":"247","category_name":"餐饮美食","address":"卢湾区兴业路156弄1号A11号铺(近马当路)"},{"poiid":"B2094751D56FABFB4093","title":"Tuttimelon（上海K11店）","lon":"121.47274","lat":"31.221169","category":"247","category_name":"餐饮美食","address":"上海市 淮海中路300号上海K11购物艺术中心B213/B246"},{"poiid":"B2094655D26EA1FA409E","title":"蒂梵尼造型设计(新天地店)","lon":"121.47405","lat":"31.21983","category":"148","category_name":"美容美发店","address":"卢湾区马当路245号新天地时尚B204-B205单元(近复兴中路)"},{"poiid":"B2094757D16CAAF94992","title":"南昌路","lon":"121.47206173","lat":"31.221032104","category":"500","category_name":"未知分类","address":"上海卢湾区南昌路"},{"poiid":"B2094757D065A4F5419D","title":"Wagas","lon":"121.473691738","lat":"31.2212781093","category":"500","category_name":"未知分类","address":"上海ShanghaiLuwanJulu Rd"},{"poiid":"B2094757D068A1FB419E","title":"上海滩(新天地店)","lon":"121.47434","lat":"31.22103","category":"141","category_name":"服装鞋帽皮具店","address":"卢湾区太仓路181弄新天地北里15号(近马当路)"},{"poiid":"B2094654DB65A5F9459C","title":"华万意 Va Bene","lon":"121.474229054","lat":"31.221022793","category":"94","category_name":"西餐厅","address":"卢湾区太仓路181弄新天地北里7号楼(近马当路)"},{"poiid":"B2094757D06EAAFE479E","title":"刘娟美甲(淮海中路一店)","lon":"121.47222","lat":"31.22163","category":"122","category_name":"个人用品/化妆品店","address":"卢湾区淮海中路417号香黛广场73号(近重庆南路)"},{"poiid":"B2094757D165A2FC489D","title":"康道SPA(新天地店)","lon":"121.47446273","lat":"31.220443091","category":"500","category_name":"未知分类","address":"上海太仓路181弄19号"},{"poiid":"B2094750D26FA5FA419D","title":"de Bellotas","lon":"121.474731","lat":"31.220932","category":"94","category_name":"西餐厅","address":"卢湾区太仓路68号(近顺昌路)"},{"poiid":"B2094757D16CABFA4098","title":"上海医药大厦","lon":"121.47355428","lat":"31.221216408","category":"46","category_name":"楼宇","address":"上海市静安区南京西路555号"},{"poiid":"B2094757D764AAFA439C","title":"OYA","lon":"121.4745819","lat":"31.2214324","category":"67","category_name":"甜品店","address":"太仓路181弄新天地01A单元近黄陂南路"},{"poiid":"B2094757D16FA4FB479A","title":"新西兰中心","lon":"121.47402443","lat":"31.219481371","category":"182","category_name":"博物馆","address":"上海卢湾区马当路190号"},{"poiid":"B2094757D66BA1FC4492","title":"钲酒廊 NU Lounge","lon":"121.474427","lat":"31.219754","category":"94","category_name":"西餐厅","address":"卢湾区兴业路118号2楼(近马当路)"},{"poiid":"B2094654DB64A6F8419A","title":"星巴克(新天地店)","lon":"121.4746801","lat":"31.221476","category":"65","category_name":"咖啡厅","address":"卢湾区太仓路181弄新天地北里18号楼(近马当路)"},{"poiid":"B2094654DA6EABFC4292","title":"上海新天地(马当路)","lon":"121.47434","lat":"31.22081","category":"46","category_name":"楼宇","address":"太仓路181弄/兴业路123弄"},{"poiid":"B209475CD564A7F84292","title":"上海滩新天地店","lon":"121.47463","lat":"31.22164","category":"119","category_name":"商场","address":"\"太仓路181弄新天地北里15号\r\n\""},{"poiid":"B2094753D76FAAFA449C","title":"上海滩国泰旗舰店","lon":"121.466011","lat":"31.216125","category":"249","category_name":"购物服务","address":"淮海中路868号"},{"poiid":"B209475CD564A7F8439E","title":"上海滩中信泰富店","lon":"121.45602","lat":"31.22851","category":"119","category_name":"商场","address":"\"南京西路1168号中信泰富广场，店铺号221.\r\n\""},{"poiid":"B2094654DB64AAFC439E","title":"宝莱纳餐厅新天地餐厅","lon":"121.47386218823908","lat":"31.221275058883233","category":"257","category_name":"中餐厅","address":"卢湾区太仓路181弄新天地北里19-20号(近马当路)"},{"poiid":"B2094757D06EAAF5429D","title":"上海新天地朗廷酒店","lon":"121.474023342","lat":"31.2216057631","category":"217","category_name":"旅馆招待所","address":"上海市黄浦区马当路99号(近太仓路)"},{"poiid":"B2094757D06EAAFB409D","title":"璐娜餐厅 LUNA BAR &amp; RESTAURANT","lon":"121.47460259","lat":"31.221137178","category":"172","category_name":"酒吧","address":"卢湾区太仓路181弄16号1单元(近马当路)"},{"poiid":"B2094757DB69A7FE4693","title":"新元素 新天地店","lon":"121.4746721","lat":"31.2214896","category":"94","category_name":"西餐厅","address":"卢湾区太仓路181弄新天地北里广场(近马当路)"},{"poiid":"B2094757D06EAAFC409B","title":"新町 Shinmachi","lon":"121.47429","lat":"31.21996","category":"95","category_name":"日本料理","address":"卢湾区马当路159号新天地北里1-2楼(近兴业路)"},{"poiid":"B2094757D168A2FE4798","title":"TMSK","lon":"121.474503038","lat":"31.2208515002","category":"172","category_name":"酒吧","address":"卢湾区太仓路181弄新天地北里11号2单元(近马当路)"},{"poiid":"B2094655D26FA4FE4099","title":"香啡缤 新天地店 Coffee Bean&Tea Leaf","lon":"121.474229054","lat":"31.221022793","category":"65","category_name":"咖啡厅","address":"卢湾区太仓路181弄新天地北里10号楼02-03单元(近马当路)"},{"poiid":"B2094757D06EAAF54498","title":"Fountain","lon":"121.47480011","lat":"31.220687866","category":"94","category_name":"西餐厅","address":"卢湾区太仓路181弄新天地北里10-12楼04单元(近马当路)"},{"poiid":"B2094757D06EAAFF469E","title":"BROWN SUGAR","lon":"121.47444913","lat":"31.220552726","category":"94","category_name":"西餐厅","address":"卢湾区太仓路181弄新天地北里15号楼(近马当路)"},{"poiid":"B2094757DB64A3F84892","title":"哈根达斯（上海新天地店）","lon":"121.474","lat":"31.2208","category":"113","category_name":"冷饮店","address":"卢湾区太仓路181号新天地北里22-23号楼02A单元(老第坊旁)"},{"poiid":"B2094654DB65A3F5409D","title":"凯博西餐厅 新天地店 Kabb","lon":"121.474229054","lat":"31.221022793","category":"94","category_name":"西餐厅","address":"卢湾区太仓路181弄新天地北里5号楼(近马当路)"},{"poiid":"B2094757D068ABFA4998","title":"COVA 新天地店","lon":"121.474032898","lat":"31.2212762093","category":"67","category_name":"甜品店","address":"卢湾区太仓路181弄新天地北里内(近马当路)"},{"poiid":"B2094757D06FA3F4489D","title":"simply thai","lon":"121.47445678","lat":"31.220090866","category":"110","category_name":"其他亚洲菜","address":"上海马当路159号"},{"poiid":"B2094757D06FA4F44699","title":"宝莱纳","lon":"121.47467673","lat":"31.22133311","category":"249","category_name":"购物服务","address":"上海新天地"},{"poiid":"B2094654DA6FA3F4489A","title":"中共一大会址","lon":"121.47501","lat":"31.22045","category":"250","category_name":"公园户外","address":"上海市卢湾区黄陂南路374号"},{"poiid":"B2094655D26BA3FC469D","title":"揽香精萃时尚餐厅","lon":"121.47306","lat":"31.2221","category":"260","category_name":"其他","address":"卢湾区淮海中路381号中环广场2-3楼(近重庆南路)"},{"poiid":"B2094757D06FA2F8489C","title":"金牛苑(淮海中路店)","lon":"121.47315","lat":"31.22208","category":"47","category_name":"住宅区","address":"卢湾区淮海中路381号中环广场3楼(近马当路)"},{"poiid":"B2094654DB6BA4FA4299","title":"天泰餐厅(新天地店)","lon":"121.47449","lat":"31.22003","category":"99","category_name":"泰国／越南菜品餐厅","address":"卢湾区马当路159号(近太仓路)"},{"poiid":"B2094757D069A1F94699","title":"海逸海鲜酒家","lon":"121.474845738","lat":"31.2211241061","category":"88","category_name":"海鲜酒楼","address":"卢湾区太仓路181弄17号C01号店铺"},{"poiid":"B2094757D06FA5FB4092","title":"梧桐居(香港美心)","lon":"121.47457373","lat":"31.220666096","category":"111","category_name":"休闲餐饮场所","address":"卢湾区太仓路181弄22-23号1-3楼01单元"},{"poiid":"B2094750D464AAFE449A","title":"1930酒吧","lon":"121.475028","lat":"31.220422","category":"247","category_name":"餐饮美食","address":"卢湾区太仓路181弄新天地北里广场23-03号(近太仓路)"},{"poiid":"B2094654DB69A0F94992","title":"老第坊","lon":"121.47464","lat":"31.22035","category":"260","category_name":"其他","address":"卢湾区太仓路181号新天地北里内(近马当路)"},{"poiid":"B2094757D068ABFC4699","title":"Shanghai Tang Cafe (上海滩咖啡)","lon":"121.47448014","lat":"31.220778358","category":"65","category_name":"咖啡厅","address":"卢湾区黄陂南路333号2-3楼(近太仓路)"},{"poiid":"B2094751D56FABFF469F","title":"g  极食（上海K11店）","lon":"121.471882","lat":"31.220876","category":"247","category_name":"餐饮美食","address":"上海市 淮海中路300号上海K11购物艺术中心303"},{"poiid":"B2094757D069A0FF4492","title":"Dr. Bar","lon":"121.47491502","lat":"31.221128392","category":"260","category_name":"其他","address":"卢湾区太仓路181弄新天地北里15号楼(近马当路)"},{"poiid":"B2094750D76DA6F8449F","title":"新天地朗廷酒店凯旋餐厅","lon":"121.474","lat":"31.2214","category":"268","category_name":"自助","address":"卢湾区马当路99号新天地朗廷酒店1楼(近太仓路)"},{"poiid":"B2094757D06AA6FC4198","title":"香港广场M2","lon":"121.474451738","lat":"31.2206710964","category":"500","category_name":"未知分类","address":"上海市卢湾区"},{"poiid":"B2094757D06AA4FE4599","title":"Haagen-Dazs","lon":"121.47451873","lat":"31.220787098","category":"500","category_name":"未知分类","address":"上海新天地"},{"poiid":"B2094655D26AAAF54398","title":"东田造型淮海中路店","lon":"121.47306","lat":"31.2221","category":"148","category_name":"美容美发店","address":"卢湾区淮海中路381号中环广场2楼208室(近马当路)"},{"poiid":"B2094654DB6BA4FA419F","title":"伊藤家(中环店)","lon":"121.47282","lat":"31.22196","category":"95","category_name":"日本料理","address":"卢湾区淮海中路381号中环广场3楼(近马当路)"},{"poiid":"B2094757D064A0FC4793","title":"小山日式料理","lon":"121.47442268","lat":"31.220181406","category":"247","category_name":"餐饮美食","address":"上海卢湾区兴业路123弄新天地南里6号楼3楼(近马当路)"},{"poiid":"B2094750D565A6FF4993","title":"多謝賞面","lon":"121.47396","lat":"31.219984","category":"247","category_name":"餐饮美食","address":"卢湾区兴业路156弄1号A11号铺(近马当路)"},{"poiid":"B2094751D56FABFB4093","title":"Tuttimelon（上海K11店）","lon":"121.47274","lat":"31.221169","category":"247","category_name":"餐饮美食","address":"上海市 淮海中路300号上海K11购物艺术中心B213/B246"},{"poiid":"B2094655D26EA1FA409E","title":"蒂梵尼造型设计(新天地店)","lon":"121.47405","lat":"31.21983","category":"148","category_name":"美容美发店","address":"卢湾区马当路245号新天地时尚B204-B205单元(近复兴中路)"},{"poiid":"B2094757D16CAAF94992","title":"南昌路","lon":"121.47206173","lat":"31.221032104","category":"500","category_name":"未知分类","address":"上海卢湾区南昌路"},{"poiid":"B2094757D065A4F5419D","title":"Wagas","lon":"121.473691738","lat":"31.2212781093","category":"500","category_name":"未知分类","address":"上海ShanghaiLuwanJulu Rd"},{"poiid":"B2094757D068A1FB419E","title":"上海滩(新天地店)","lon":"121.47434","lat":"31.22103","category":"141","category_name":"服装鞋帽皮具店","address":"卢湾区太仓路181弄新天地北里15号(近马当路)"},{"poiid":"B2094654DB65A5F9459C","title":"华万意 Va Bene","lon":"121.474229054","lat":"31.221022793","category":"94","category_name":"西餐厅","address":"卢湾区太仓路181弄新天地北里7号楼(近马当路)"},{"poiid":"B2094757D06EAAFE479E","title":"刘娟美甲(淮海中路一店)","lon":"121.47222","lat":"31.22163","category":"122","category_name":"个人用品/化妆品店","address":"卢湾区淮海中路417号香黛广场73号(近重庆南路)"},{"poiid":"B2094757D165A2FC489D","title":"康道SPA(新天地店)","lon":"121.47446273","lat":"31.220443091","category":"500","category_name":"未知分类","address":"上海太仓路181弄19号"},{"poiid":"B2094750D26FA5FA419D","title":"de Bellotas","lon":"121.474731","lat":"31.220932","category":"94","category_name":"西餐厅","address":"卢湾区太仓路68号(近顺昌路)"},{"poiid":"B2094757D16CABFA4098","title":"上海医药大厦","lon":"121.47355428","lat":"31.221216408","category":"46","category_name":"楼宇","address":"上海市静安区南京西路555号"},{"poiid":"B2094757D764AAFA439C","title":"OYA","lon":"121.4745819","lat":"31.2214324","category":"67","category_name":"甜品店","address":"太仓路181弄新天地01A单元近黄陂南路"},{"poiid":"B2094757D16FA4FB479A","title":"新西兰中心","lon":"121.47402443","lat":"31.219481371","category":"182","category_name":"博物馆","address":"上海卢湾区马当路190号"},{"poiid":"B2094757D66BA1FC4492","title":"钲酒廊 NU Lounge","lon":"121.474427","lat":"31.219754","category":"94","category_name":"西餐厅","address":"卢湾区兴业路118号2楼(近马当路)"}]