[{"poiid":"B2094654DB65A5FF4492","title":"上海博物馆","lon":"121.47549","lat":"31.22836","category":"182","category_name":"博物馆","address":"黄浦区人民大道201号"},{"poiid":"B2094654DA6FABF94292","title":"上海歌城(西藏中路)","lon":"121.47867","lat":"31.22937","category":"170","category_name":"KTV","address":"黄浦区西藏中路18号港陆广场3楼(近延安东路)"},{"poiid":"B2094654DA6EAAF8479A","title":"上海音乐厅","lon":"121.47785","lat":"31.22698","category":"179","category_name":"音乐厅","address":"黄浦区延安东路523号(近西藏中路)"},{"poiid":"B2094753D76FAAFA449C","title":"上海滩国泰旗舰店","lon":"121.466011","lat":"31.216125","category":"249","category_name":"购物服务","address":"淮海中路868号"},{"poiid":"B209475CD564A7F84292","title":"上海滩新天地店","lon":"121.47463","lat":"31.22164","category":"119","category_name":"商场","address":"\"太仓路181弄新天地北里15号\r\n\""},{"poiid":"B209475CD564A7F8439E","title":"上海滩中信泰富店","lon":"121.45602","lat":"31.22851","category":"119","category_name":"商场","address":"\"南京西路1168号中信泰富广场，店铺号221.\r\n\""},{"poiid":"B209475CD564A7F84392","title":"上海滩浦东香格里拉店","lon":"121.50058","lat":"31.23634","category":"119","category_name":"商场","address":"浦东富成路33号香格里拉酒店内大堂层"},{"poiid":"B2094757D06EAAF4479F","title":"中环广场","lon":"121.479","lat":"31.2283","category":"119","category_name":"商场","address":"卢湾区淮海中路381号(近马当路)"},{"poiid":"B2094654DB69AAF44993","title":"玛格萝妮比萨屋 黄浦店 Magaroni Pizza Studio","lon":"121.47804993281","lat":"31.230551668126","category":"94","category_name":"西餐厅","address":"黄浦区北海路247号(近云南中路)"},{"poiid":"B2094655D268A0F94193","title":"德大咖啡餐厅","lon":"121.47953","lat":"31.2289","category":"65","category_name":"咖啡厅","address":"黄浦区云南南路2号(近延安东路)"},{"poiid":"B2094757D068A2F84098","title":"自由港量贩式KTV(汇都店)","lon":"121.478956838","lat":"31.2277256467","category":"170","category_name":"KTV","address":"卢湾区金陵东路569号汇都大厦4楼(近西藏南路)"},{"poiid":"B2094757D06FA0F84998","title":"上海市工人文化宫","lon":"121.47783","lat":"31.2302","category":"179","category_name":"音乐厅","address":"黄浦区西藏中路120号市工人文化宫内(近北海路)"},{"poiid":"B2094654DA6FABFB479C","title":"茉莉花小剧场","lon":"121.47766","lat":"31.23051","category":"180","category_name":"剧场","address":"西藏中路120号上海市工人文化宫"},{"poiid":"B2094757D06FA6FD439F","title":"嘉顿铁板烧","lon":"121.47846","lat":"31.22963","category":"269","category_name":"烧烤","address":"黄浦区西藏中路90号(近北海路)"},{"poiid":"B2094757D06AA5FE409A","title":"人民廣場博物館","lon":"121.476175683","lat":"31.2274665718","category":"500","category_name":"未知分类","address":"上海博物館西側，武勝路"},{"poiid":"B2094757D06FA1FB4493","title":"上海人家(黄浦店)","lon":"121.47932","lat":"31.2297","category":"247","category_name":"餐饮美食","address":"上海黄浦区云南中路41号(近北海路)"},{"poiid":"B2094757D06FA1F5439D","title":"上海共舞台","lon":"121.47942","lat":"31.22864","category":"260","category_name":"其他","address":"黄浦区延安东路433号(近云南南路)"},{"poiid":"B2094757DB68A4FF499A","title":"鲜得来","lon":"121.476378","lat":"31.229593","category":"247","category_name":"餐饮美食","address":"云南南路46号"},{"poiid":"B2094752DB6DAAFC449B","title":"HOT BOYS芝士年糕","lon":"121.475742","lat":"31.22992","category":"247","category_name":"餐饮美食","address":"上海市 香港名店几点77号店铺"},{"poiid":"B2094753D26BAAF8429A","title":"茉莉花小剧场","lon":"121.478252","lat":"31.230385","category":"500","category_name":"未知分类","address":"上海市 黄浦区北海路251号"},{"poiid":"B2094757D069ABF5429D","title":"芋贵人(亚龙国际广场店)","lon":"121.477901838","lat":"31.2277953482","category":"67","category_name":"甜品店","address":"黄浦区金陵东路500号亚龙国际广场B2楼(近地铁8号线大世界站2号口)"},{"poiid":"B2094757D16DA3F94299","title":"上海浦东国际机场T2航站楼 D69号口 CX365 12K","lon":"121.47737405","lat":"31.229278329","category":"21","category_name":"飞机场","address":"上海浦东国际机场T2航站楼 D69号口"},{"poiid":"B2094757D16FA3F8429B","title":"人民广场香港名店街","lon":"121.477473738","lat":"31.2287382683","category":"500","category_name":"未知分类","address":"上海人民大道九号"},{"poiid":"B2094757D66DA2F4469F","title":"上海大剧院星空宴会厅","lon":"121.47668158","lat":"31.227328899","category":"500","category_name":"未知分类","address":"上海黄陂北路"},{"poiid":"B2094757D06AAAFC449B","title":"人广喷泉","lon":"121.47600073","lat":"31.22837526","category":"607","category_name":"一般景点","address":"上海市黄浦区黄陂北路"},{"poiid":"B2094757D16AABFF479A","title":"stay real","lon":"121.476367438","lat":"31.2301682988","category":"260","category_name":"其他","address":"上海来福士"},{"poiid":"B2094654DA6EA6FD489C","title":"云南南路美食街(北门)","lon":"121.47954","lat":"31.22896","category":"116","category_name":"特色商业街","address":"云南南路"},{"poiid":"B2094757D064A2FA4593","title":"Mago时尚KTV","lon":"121.47819273","lat":"31.227274237","category":"170","category_name":"KTV","address":"上海淮海中路98号3，4楼"},{"poiid":"B2094750D464A3FC499C","title":"松江大学城","lon":"121.478225","lat":"31.228452","category":"253","category_name":"校园生活","address":"松江大学城"},{"poiid":"B2094757D56EA2F5429C","title":"百嘉乐","lon":"121.477946","lat":"31.22746","category":"248","category_name":"生活娱乐","address":"淮海东路99号"},{"poiid":"B2094757D06FABF54099","title":"延安东路西藏中路天桥","lon":"121.47850668","lat":"31.228135564","category":"260","category_name":"其他","address":"上海延安东路西藏中路"},{"poiid":"B2094757D068ABF5469B","title":"952终点站","lon":"121.47775473","lat":"31.228736268","category":"38","category_name":"公交车站","address":"上海武胜路"},{"poiid":"B2094750DA68A2FC4599","title":"徐家汇美罗城","lon":"121.478218","lat":"31.228443","category":"500","category_name":"未知分类","address":null},{"poiid":"B2094757D068A0F4459A","title":"梦园餐厅","lon":"121.47804","lat":"31.23007","category":"76","category_name":"上海菜","address":"黄浦区北海路277号(近西藏中路)"},{"poiid":"B2094757D16DA1FE4498","title":"韓舍","lon":"121.476082738","lat":"31.2302002995","category":"500","category_name":"未知分类","address":"上海市黄浦区南京西路"},{"poiid":"B2094757D06FA5FF489B","title":"隧道六线人民广场终点站","lon":"121.47679248","lat":"31.228685837","category":"38","category_name":"公交车站","address":"上海市黄浦区武胜路38号"},{"poiid":"B2094753D268A4F5429F","title":"S2酒吧","lon":"121.478694","lat":"31.227341","category":"247","category_name":"餐饮美食","address":"上海市 淮海中路柳林路柳林大厦六楼"},{"poiid":"B2094750D26EA6FC459B","title":"重庆小天鹅","lon":"121.478668","lat":"31.229246","category":"500","category_name":"未知分类","address":null},{"poiid":"B2094750D565A0FE4899","title":"南京西路","lon":"121.478225","lat":"31.228448","category":"248","category_name":"生活娱乐","address":"南京西路"},{"poiid":"B2094752D269AAF5429A","title":"蘇浙匯","lon":"121.478505","lat":"31.229571","category":"247","category_name":"餐饮美食","address":"香港广场"},{"poiid":"B2094654DB69A7FE419F","title":"漾乐会","lon":"121.47798","lat":"31.227","category":"94","category_name":"西餐厅","address":"黄浦区延安东路523号上海音乐厅7号门4楼(近普安路)"},{"poiid":"B2094750D66FA0FA4693","title":"金桥国际商业广场","lon":"121.478225","lat":"31.228445","category":"500","category_name":"未知分类","address":null},{"poiid":"B2094750DB6FA1FD4298","title":"apple store香港广场店","lon":"121.477561","lat":"31.227397","category":"627","category_name":"一般地点标志","address":"淮海中路283号"},{"poiid":"B2094751D469A6FB459A","title":"COCO一番屋","lon":"121.4786718880017","lat":"31.22734153234547","category":"247","category_name":"餐饮美食","address":null},{"poiid":"B2094757D064A6F54793","title":"145终点站","lon":"121.477447238","lat":"31.2276744456","category":"500","category_name":"未知分类","address":"上海人民广场"},{"poiid":"B2094757D069A0FB499C","title":"舒蔡记蜃中楼","lon":"121.47918","lat":"31.22966","category":"76","category_name":"上海菜","address":"黄浦区云南中路51号(近北海路)"},{"poiid":"B2094757D16CA2FE4593","title":"广兰路地铁站","lon":"121.620138","lat":"31.210769","category":"36","category_name":"地铁站","address":"祖冲之路"},{"poiid":"B2094757D06FAAFA4798","title":"快乐柠檬(西藏中路店)","lon":"121.47827","lat":"31.22938","category":"113","category_name":"冷饮店","address":"黄浦区西藏中路80号(近北海路)"},{"poiid":"B2094757D065A3F4419D","title":"西藏南路","lon":"121.47787701","lat":"31.22884101","category":"500","category_name":"未知分类","address":"上海延安东路"},{"poiid":"B2094654DA6FABFB459C","title":"上海市工人文化宫展览中心","lon":"121.47766","lat":"31.2305","category":"183","category_name":"展览馆","address":"西藏中路120号上海市工人文化宫3层"},{"poiid":"B2094654DB65A5FF4492","title":"上海博物馆","lon":"121.47549","lat":"31.22836","category":"182","category_name":"博物馆","address":"黄浦区人民大道201号"},{"poiid":"B2094654DA6FABF94292","title":"上海歌城(西藏中路)","lon":"121.47867","lat":"31.22937","category":"170","category_name":"KTV","address":"黄浦区西藏中路18号港陆广场3楼(近延安东路)"},{"poiid":"B2094654DA6EAAF8479A","title":"上海音乐厅","lon":"121.47785","lat":"31.22698","category":"179","category_name":"音乐厅","address":"黄浦区延安东路523号(近西藏中路)"},{"poiid":"B2094753D76FAAFA449C","title":"上海滩国泰旗舰店","lon":"121.466011","lat":"31.216125","category":"249","category_name":"购物服务","address":"淮海中路868号"},{"poiid":"B209475CD564A7F84292","title":"上海滩新天地店","lon":"121.47463","lat":"31.22164","category":"119","category_name":"商场","address":"\"太仓路181弄新天地北里15号\r\n\""},{"poiid":"B209475CD564A7F8439E","title":"上海滩中信泰富店","lon":"121.45602","lat":"31.22851","category":"119","category_name":"商场","address":"\"南京西路1168号中信泰富广场，店铺号221.\r\n\""},{"poiid":"B209475CD564A7F84392","title":"上海滩浦东香格里拉店","lon":"121.50058","lat":"31.23634","category":"119","category_name":"商场","address":"浦东富成路33号香格里拉酒店内大堂层"},{"poiid":"B2094757D06EAAF4479F","title":"中环广场","lon":"121.479","lat":"31.2283","category":"119","category_name":"商场","address":"卢湾区淮海中路381号(近马当路)"},{"poiid":"B2094654DB69AAF44993","title":"玛格萝妮比萨屋 黄浦店 Magaroni Pizza Studio","lon":"121.47804993281","lat":"31.230551668126","category":"94","category_name":"西餐厅","address":"黄浦区北海路247号(近云南中路)"},{"poiid":"B2094655D268A0F94193","title":"德大咖啡餐厅","lon":"121.47953","lat":"31.2289","category":"65","category_name":"咖啡厅","address":"黄浦区云南南路2号(近延安东路)"},{"poiid":"B2094757D068A2F84098","title":"自由港量贩式KTV(汇都店)","lon":"121.478956838","lat":"31.2277256467","category":"170","category_name":"KTV","address":"卢湾区金陵东路569号汇都大厦4楼(近西藏南路)"},{"poiid":"B2094757D06FA0F84998","title":"上海市工人文化宫","lon":"121.47783","lat":"31.2302","category":"179","category_name":"音乐厅","address":"黄浦区西藏中路120号市工人文化宫内(近北海路)"},{"poiid":"B2094654DA6FABFB479C","title":"茉莉花小剧场","lon":"121.47766","lat":"31.23051","category":"180","category_name":"剧场","address":"西藏中路120号上海市工人文化宫"},{"poiid":"B2094757D06FA6FD439F","title":"嘉顿铁板烧","lon":"121.47846","lat":"31.22963","category":"269","category_name":"烧烤","address":"黄浦区西藏中路90号(近北海路)"},{"poiid":"B2094757D06AA5FE409A","title":"人民廣場博物館","lon":"121.476175683","lat":"31.2274665718","category":"500","category_name":"未知分类","address":"上海博物館西側，武勝路"},{"poiid":"B2094757D06FA1FB4493","title":"上海人家(黄浦店)","lon":"121.47932","lat":"31.2297","category":"247","category_name":"餐饮美食","address":"上海黄浦区云南中路41号(近北海路)"},{"poiid":"B2094757D06FA1F5439D","title":"上海共舞台","lon":"121.47942","lat":"31.22864","category":"260","category_name":"其他","address":"黄浦区延安东路433号(近云南南路)"},{"poiid":"B2094757DB68A4FF499A","title":"鲜得来","lon":"121.476378","lat":"31.229593","category":"247","category_name":"餐饮美食","address":"云南南路46号"},{"poiid":"B2094752DB6DAAFC449B","title":"HOT BOYS芝士年糕","lon":"121.475742","lat":"31.22992","category":"247","category_name":"餐饮美食","address":"上海市 香港名店几点77号店铺"},{"poiid":"B2094753D26BAAF8429A","title":"茉莉花小剧场","lon":"121.478252","lat":"31.230385","category":"500","category_name":"未知分类","address":"上海市 黄浦区北海路251号"},{"poiid":"B2094757D069ABF5429D","title":"芋贵人(亚龙国际广场店)","lon":"121.477901838","lat":"31.2277953482","category":"67","category_name":"甜品店","address":"黄浦区金陵东路500号亚龙国际广场B2楼(近地铁8号线大世界站2号口)"},{"poiid":"B2094757D16DA3F94299","title":"上海浦东国际机场T2航站楼 D69号口 CX365 12K","lon":"121.47737405","lat":"31.229278329","category":"21","category_name":"飞机场","address":"上海浦东国际机场T2航站楼 D69号口"},{"poiid":"B2094757D16FA3F8429B","title":"人民广场香港名店街","lon":"121.477473738","lat":"31.2287382683","category":"500","category_name":"未知分类","address":"上海人民大道九号"},{"poiid":"B2094757D66DA2F4469F","title":"上海大剧院星空宴会厅","lon":"121.47668158","lat":"31.227328899","category":"500","category_name":"未知分类","address":"上海黄陂北路"},{"poiid":"B2094757D06AAAFC449B","title":"人广喷泉","lon":"121.47600073","lat":"31.22837526","category":"607","category_name":"一般景点","address":"上海市黄浦区黄陂北路"},{"poiid":"B2094757D16AABFF479A","title":"stay real","lon":"121.476367438","lat":"31.2301682988","category":"260","category_name":"其他","address":"上海来福士"},{"poiid":"B2094654DA6EA6FD489C","title":"云南南路美食街(北门)","lon":"121.47954","lat":"31.22896","category":"116","category_name":"特色商业街","address":"云南南路"},{"poiid":"B2094757D064A2FA4593","title":"Mago时尚KTV","lon":"121.47819273","lat":"31.227274237","category":"170","category_name":"KTV","address":"上海淮海中路98号3，4楼"},{"poiid":"B2094750D464A3FC499C","title":"松江大学城","lon":"121.478225","lat":"31.228452","category":"253","category_name":"校园生活","address":"松江大学城"},{"poiid":"B2094757D56EA2F5429C","title":"百嘉乐","lon":"121.477946","lat":"31.22746","category":"248","category_name":"生活娱乐","address":"淮海东路99号"},{"poiid":"B2094757D06FABF54099","title":"延安东路西藏中路天桥","lon":"121.47850668","lat":"31.228135564","category":"260","category_name":"其他","address":"上海延安东路西藏中路"},{"poiid":"B2094757D068ABF5469B","title":"952终点站","lon":"121.47775473","lat":"31.228736268","category":"38","category_name":"公交车站","address":"上海武胜路"},{"poiid":"B2094750DA68A2FC4599","title":"徐家汇美罗城","lon":"121.478218","lat":"31.228443","category":"500","category_name":"未知分类","address":null},{"poiid":"B2094757D068A0F4459A","title":"梦园餐厅","lon":"121.47804","lat":"31.23007","category":"76","category_name":"上海菜","address":"黄浦区北海路277号(近西藏中路)"},{"poiid":"B2094757D16DA1FE4498","title":"韓舍","lon":"121.476082738","lat":"31.2302002995","category":"500","category_name":"未知分类","address":"上海市黄浦区南京西路"},{"poiid":"B2094757D06FA5FF489B","title":"隧道六线人民广场终点站","lon":"121.47679248","lat":"31.228685837","category":"38","category_name":"公交车站","address":"上海市黄浦区武胜路38号"},{"poiid":"B2094753D268A4F5429F","title":"S2酒吧","lon":"121.478694","lat":"31.227341","category":"247","category_name":"餐饮美食","address":"上海市 淮海中路柳林路柳林大厦六楼"},{"poiid":"B2094750D26EA6FC459B","title":"重庆小天鹅","lon":"121.478668","lat":"31.229246","category":"500","category_name":"未知分类","address":null},{"poiid":"B2094750D565A0FE4899","title":"南京西路","lon":"121.478225","lat":"31.228448","category":"248","category_name":"生活娱乐","address":"南京西路"},{"poiid":"B2094752D269AAF5429A","title":"蘇浙匯","lon":"121.478505","lat":"31.229571","category":"247","category_name":"餐饮美食","address":"香港广场"},{"poiid":"B2094654DB69A7FE419F","title":"漾乐会","lon":"121.47798","lat":"31.227","category":"94","category_name":"西餐厅","address":"黄浦区延安东路523号上海音乐厅7号门4楼(近普安路)"},{"poiid":"B2094750D66FA0FA4693","title":"金桥国际商业广场","lon":"121.478225","lat":"31.228445","category":"500","category_name":"未知分类","address":null},{"poiid":"B2094750DB6FA1FD4298","title":"apple store香港广场店","lon":"121.477561","lat":"31.227397","category":"627","category_name":"一般地点标志","address":"淮海中路283号"},{"poiid":"B2094751D469A6FB459A","title":"COCO一番屋","lon":"121.4786718880017","lat":"31.22734153234547","category":"247","category_name":"餐饮美食","address":null},{"poiid":"B2094757D064A6F54793","title":"145终点站","lon":"121.477447238","lat":"31.2276744456","category":"500","category_name":"未知分类","address":"上海人民广场"},{"poiid":"B2094757D069A0FB499C","title":"舒蔡记蜃中楼","lon":"121.47918","lat":"31.22966","category":"76","category_name":"上海菜","address":"黄浦区云南中路51号(近北海路)"},{"poiid":"B2094757D16CA2FE4593","title":"广兰路地铁站","lon":"121.620138","lat":"31.210769","category":"36","category_name":"地铁站","address":"祖冲之路"},{"poiid":"B2094757D06FAAFA4798","title":"快乐柠檬(西藏中路店)","lon":"121.47827","lat":"31.22938","category":"113","category_name":"冷饮店","address":"黄浦区西藏中路80号(近北海路)"},{"poiid":"B2094757D065A3F4419D","title":"西藏南路","lon":"121.47787701","lat":"31.22884101","category":"500","category_name":"未知分类","address":"上海延安东路"},{"poiid":"B2094654DA6FABFB459C","title":"上海市工人文化宫展览中心","lon":"121.47766","lat":"31.2305","category":"183","category_name":"展览馆","address":"西藏中路120号上海市工人文化宫3层"},{"poiid":"B2094654DB65A5FF4492","title":"上海博物馆","lon":"121.47549","lat":"31.22836","category":"182","category_name":"博物馆","address":"黄浦区人民大道201号"},{"poiid":"B2094654DA6FABF94292","title":"上海歌城(西藏中路)","lon":"121.47867","lat":"31.22937","category":"170","category_name":"KTV","address":"黄浦区西藏中路18号港陆广场3楼(近延安东路)"},{"poiid":"B2094654DA6EAAF8479A","title":"上海音乐厅","lon":"121.47785","lat":"31.22698","category":"179","category_name":"音乐厅","address":"黄浦区延安东路523号(近西藏中路)"},{"poiid":"B2094753D76FAAFA449C","title":"上海滩国泰旗舰店","lon":"121.466011","lat":"31.216125","category":"249","category_name":"购物服务","address":"淮海中路868号"},{"poiid":"B209475CD564A7F84292","title":"上海滩新天地店","lon":"121.47463","lat":"31.22164","category":"119","category_name":"商场","address":"\"太仓路181弄新天地北里15号\r\n\""},{"poiid":"B209475CD564A7F8439E","title":"上海滩中信泰富店","lon":"121.45602","lat":"31.22851","category":"119","category_name":"商场","address":"\"南京西路1168号中信泰富广场，店铺号221.\r\n\""},{"poiid":"B209475CD564A7F84392","title":"上海滩浦东香格里拉店","lon":"121.50058","lat":"31.23634","category":"119","category_name":"商场","address":"浦东富成路33号香格里拉酒店内大堂层"},{"poiid":"B2094757D06EAAF4479F","title":"中环广场","lon":"121.479","lat":"31.2283","category":"119","category_name":"商场","address":"卢湾区淮海中路381号(近马当路)"},{"poiid":"B2094654DB69AAF44993","title":"玛格萝妮比萨屋 黄浦店 Magaroni Pizza Studio","lon":"121.47804993281","lat":"31.230551668126","category":"94","category_name":"西餐厅","address":"黄浦区北海路247号(近云南中路)"},{"poiid":"B2094655D268A0F94193","title":"德大咖啡餐厅","lon":"121.47953","lat":"31.2289","category":"65","category_name":"咖啡厅","address":"黄浦区云南南路2号(近延安东路)"},{"poiid":"B2094757D068A2F84098","title":"自由港量贩式KTV(汇都店)","lon":"121.478956838","lat":"31.2277256467","category":"170","category_name":"KTV","address":"卢湾区金陵东路569号汇都大厦4楼(近西藏南路)"},{"poiid":"B2094757D06FA0F84998","title":"上海市工人文化宫","lon":"121.47783","lat":"31.2302","category":"179","category_name":"音乐厅","address":"黄浦区西藏中路120号市工人文化宫内(近北海路)"},{"poiid":"B2094654DA6FABFB479C","title":"茉莉花小剧场","lon":"121.47766","lat":"31.23051","category":"180","category_name":"剧场","address":"西藏中路120号上海市工人文化宫"},{"poiid":"B2094757D06FA6FD439F","title":"嘉顿铁板烧","lon":"121.47846","lat":"31.22963","category":"269","category_name":"烧烤","address":"黄浦区西藏中路90号(近北海路)"},{"poiid":"B2094757D06AA5FE409A","title":"人民廣場博物館","lon":"121.476175683","lat":"31.2274665718","category":"500","category_name":"未知分类","address":"上海博物館西側，武勝路"},{"poiid":"B2094757D06FA1FB4493","title":"上海人家(黄浦店)","lon":"121.47932","lat":"31.2297","category":"247","category_name":"餐饮美食","address":"上海黄浦区云南中路41号(近北海路)"},{"poiid":"B2094757D06FA1F5439D","title":"上海共舞台","lon":"121.47942","lat":"31.22864","category":"260","category_name":"其他","address":"黄浦区延安东路433号(近云南南路)"},{"poiid":"B2094757DB68A4FF499A","title":"鲜得来","lon":"121.476378","lat":"31.229593","category":"247","category_name":"餐饮美食","address":"云南南路46号"},{"poiid":"B2094752DB6DAAFC449B","title":"HOT BOYS芝士年糕","lon":"121.475742","lat":"31.22992","category":"247","category_name":"餐饮美食","address":"上海市 香港名店几点77号店铺"},{"poiid":"B2094753D26BAAF8429A","title":"茉莉花小剧场","lon":"121.478252","lat":"31.230385","category":"500","category_name":"未知分类","address":"上海市 黄浦区北海路251号"},{"poiid":"B2094757D069ABF5429D","title":"芋贵人(亚龙国际广场店)","lon":"121.477901838","lat":"31.2277953482","category":"67","category_name":"甜品店","address":"黄浦区金陵东路500号亚龙国际广场B2楼(近地铁8号线大世界站2号口)"},{"poiid":"B2094757D16DA3F94299","title":"上海浦东国际机场T2航站楼 D69号口 CX365 12K","lon":"121.47737405","lat":"31.229278329","category":"21","category_name":"飞机场","address":"上海浦东国际机场T2航站楼 D69号口"},{"poiid":"B2094757D16FA3F8429B","title":"人民广场香港名店街","lon":"121.477473738","lat":"31.2287382683","category":"500","category_name":"未知分类","address":"上海人民大道九号"},{"poiid":"B2094757D66DA2F4469F","title":"上海大剧院星空宴会厅","lon":"121.47668158","lat":"31.227328899","category":"500","category_name":"未知分类","address":"上海黄陂北路"},{"poiid":"B2094757D06AAAFC449B","title":"人广喷泉","lon":"121.47600073","lat":"31.22837526","category":"607","category_name":"一般景点","address":"上海市黄浦区黄陂北路"},{"poiid":"B2094757D16AABFF479A","title":"stay real","lon":"121.476367438","lat":"31.2301682988","category":"260","category_name":"其他","address":"上海来福士"},{"poiid":"B2094654DA6EA6FD489C","title":"云南南路美食街(北门)","lon":"121.47954","lat":"31.22896","category":"116","category_name":"特色商业街","address":"云南南路"},{"poiid":"B2094757D064A2FA4593","title":"Mago时尚KTV","lon":"121.47819273","lat":"31.227274237","category":"170","category_name":"KTV","address":"上海淮海中路98号3，4楼"},{"poiid":"B2094750D464A3FC499C","title":"松江大学城","lon":"121.478225","lat":"31.228452","category":"253","category_name":"校园生活","address":"松江大学城"},{"poiid":"B2094757D56EA2F5429C","title":"百嘉乐","lon":"121.477946","lat":"31.22746","category":"248","category_name":"生活娱乐","address":"淮海东路99号"},{"poiid":"B2094757D06FABF54099","title":"延安东路西藏中路天桥","lon":"121.47850668","lat":"31.228135564","category":"260","category_name":"其他","address":"上海延安东路西藏中路"},{"poiid":"B2094757D068ABF5469B","title":"952终点站","lon":"121.47775473","lat":"31.228736268","category":"38","category_name":"公交车站","address":"上海武胜路"},{"poiid":"B2094750DA68A2FC4599","title":"徐家汇美罗城","lon":"121.478218","lat":"31.228443","category":"500","category_name":"未知分类","address":null},{"poiid":"B2094757D068A0F4459A","title":"梦园餐厅","lon":"121.47804","lat":"31.23007","category":"76","category_name":"上海菜","address":"黄浦区北海路277号(近西藏中路)"},{"poiid":"B2094757D16DA1FE4498","title":"韓舍","lon":"121.476082738","lat":"31.2302002995","category":"500","category_name":"未知分类","address":"上海市黄浦区南京西路"},{"poiid":"B2094757D06FA5FF489B","title":"隧道六线人民广场终点站","lon":"121.47679248","lat":"31.228685837","category":"38","category_name":"公交车站","address":"上海市黄浦区武胜路38号"},{"poiid":"B2094753D268A4F5429F","title":"S2酒吧","lon":"121.478694","lat":"31.227341","category":"247","category_name":"餐饮美食","address":"上海市 淮海中路柳林路柳林大厦六楼"},{"poiid":"B2094750D26EA6FC459B","title":"重庆小天鹅","lon":"121.478668","lat":"31.229246","category":"500","category_name":"未知分类","address":null},{"poiid":"B2094750D565A0FE4899","title":"南京西路","lon":"121.478225","lat":"31.228448","category":"248","category_name":"生活娱乐","address":"南京西路"},{"poiid":"B2094752D269AAF5429A","title":"蘇浙匯","lon":"121.478505","lat":"31.229571","category":"247","category_name":"餐饮美食","address":"香港广场"},{"poiid":"B2094654DB69A7FE419F","title":"漾乐会","lon":"121.47798","lat":"31.227","category":"94","category_name":"西餐厅","address":"黄浦区延安东路523号上海音乐厅7号门4楼(近普安路)"},{"poiid":"B2094750D66FA0FA4693","title":"金桥国际商业广场","lon":"121.478225","lat":"31.228445","category":"500","category_name":"未知分类","address":null},{"poiid":"B2094750DB6FA1FD4298","title":"apple store香港广场店","lon":"121.477561","lat":"31.227397","category":"627","category_name":"一般地点标志","address":"淮海中路283号"},{"poiid":"B2094751D469A6FB459A","title":"COCO一番屋","lon":"121.4786718880017","lat":"31.22734153234547","category":"247","category_name":"餐饮美食","address":null},{"poiid":"B2094757D064A6F54793","title":"145终点站","lon":"121.477447238","lat":"31.2276744456","category":"500","category_name":"未知分类","address":"上海人民广场"},{"poiid":"B2094757D069A0FB499C","title":"舒蔡记蜃中楼","lon":"121.47918","lat":"31.22966","category":"76","category_name":"上海菜","address":"黄浦区云南中路51号(近北海路)"},{"poiid":"B2094757D16CA2FE4593","title":"广兰路地铁站","lon":"121.620138","lat":"31.210769","category":"36","category_name":"地铁站","address":"祖冲之路"},{"poiid":"B2094757D06FAAFA4798","title":"快乐柠檬(西藏中路店)","lon":"121.47827","lat":"31.22938","category":"113","category_name":"冷饮店","address":"黄浦区西藏中路80号(近北海路)"},{"poiid":"B2094757D065A3F4419D","title":"西藏南路","lon":"121.47787701","lat":"31.22884101","category":"500","category_name":"未知分类","address":"上海延安东路"},{"poiid":"B2094654DA6FABFB459C","title":"上海市工人文化宫展览中心","lon":"121.47766","lat":"31.2305","category":"183","category_name":"展览馆","address":"西藏中路120号上海市工人文化宫3层"},{"poiid":"B2094654DB65A5FF4492","title":"上海博物馆","lon":"121.47549","lat":"31.22836","category":"182","category_name":"博物馆","address":"黄浦区人民大道201号"},{"poiid":"B2094654DA6FABF94292","title":"上海歌城(西藏中路)","lon":"121.47867","lat":"31.22937","category":"170","category_name":"KTV","address":"黄浦区西藏中路18号港陆广场3楼(近延安东路)"},{"poiid":"B2094654DA6EAAF8479A","title":"上海音乐厅","lon":"121.47785","lat":"31.22698","category":"179","category_name":"音乐厅","address":"黄浦区延安东路523号(近西藏中路)"},{"poiid":"B2094753D76FAAFA449C","title":"上海滩国泰旗舰店","lon":"121.466011","lat":"31.216125","category":"249","category_name":"购物服务","address":"淮海中路868号"},{"poiid":"B209475CD564A7F84292","title":"上海滩新天地店","lon":"121.47463","lat":"31.22164","category":"119","category_name":"商场","address":"\"太仓路181弄新天地北里15号\r\n\""},{"poiid":"B209475CD564A7F8439E","title":"上海滩中信泰富店","lon":"121.45602","lat":"31.22851","category":"119","category_name":"商场","address":"\"南京西路1168号中信泰富广场，店铺号221.\r\n\""},{"poiid":"B209475CD564A7F84392","title":"上海滩浦东香格里拉店","lon":"121.50058","lat":"31.23634","category":"119","category_name":"商场","address":"浦东富成路33号香格里拉酒店内大堂层"},{"poiid":"B2094757D06EAAF4479F","title":"中环广场","lon":"121.479","lat":"31.2283","category":"119","category_name":"商场","address":"卢湾区淮海中路381号(近马当路)"},{"poiid":"B2094654DB69AAF44993","title":"玛格萝妮比萨屋 黄浦店 Magaroni Pizza Studio","lon":"121.47804993281","lat":"31.230551668126","category":"94","category_name":"西餐厅","address":"黄浦区北海路247号(近云南中路)"},{"poiid":"B2094655D268A0F94193","title":"德大咖啡餐厅","lon":"121.47953","lat":"31.2289","category":"65","category_name":"咖啡厅","address":"黄浦区云南南路2号(近延安东路)"},{"poiid":"B2094757D068A2F84098","title":"自由港量贩式KTV(汇都店)","lon":"121.478956838","lat":"31.2277256467","category":"170","category_name":"KTV","address":"卢湾区金陵东路569号汇都大厦4楼(近西藏南路)"},{"poiid":"B2094757D06FA0F84998","title":"上海市工人文化宫","lon":"121.47783","lat":"31.2302","category":"179","category_name":"音乐厅","address":"黄浦区西藏中路120号市工人文化宫内(近北海路)"},{"poiid":"B2094654DA6FABFB479C","title":"茉莉花小剧场","lon":"121.47766","lat":"31.23051","category":"180","category_name":"剧场","address":"西藏中路120号上海市工人文化宫"},{"poiid":"B2094757D06FA6FD439F","title":"嘉顿铁板烧","lon":"121.47846","lat":"31.22963","category":"269","category_name":"烧烤","address":"黄浦区西藏中路90号(近北海路)"},{"poiid":"B2094757D06AA5FE409A","title":"人民廣場博物館","lon":"121.476175683","lat":"31.2274665718","category":"500","category_name":"未知分类","address":"上海博物館西側，武勝路"},{"poiid":"B2094757D06FA1FB4493","title":"上海人家(黄浦店)","lon":"121.47932","lat":"31.2297","category":"247","category_name":"餐饮美食","address":"上海黄浦区云南中路41号(近北海路)"},{"poiid":"B2094757D06FA1F5439D","title":"上海共舞台","lon":"121.47942","lat":"31.22864","category":"260","category_name":"其他","address":"黄浦区延安东路433号(近云南南路)"},{"poiid":"B2094757DB68A4FF499A","title":"鲜得来","lon":"121.476378","lat":"31.229593","category":"247","category_name":"餐饮美食","address":"云南南路46号"},{"poiid":"B2094752DB6DAAFC449B","title":"HOT BOYS芝士年糕","lon":"121.475742","lat":"31.22992","category":"247","category_name":"餐饮美食","address":"上海市 香港名店几点77号店铺"},{"poiid":"B2094753D26BAAF8429A","title":"茉莉花小剧场","lon":"121.478252","lat":"31.230385","category":"500","category_name":"未知分类","address":"上海市 黄浦区北海路251号"},{"poiid":"B2094757D069ABF5429D","title":"芋贵人(亚龙国际广场店)","lon":"121.477901838","lat":"31.2277953482","category":"67","category_name":"甜品店","address":"黄浦区金陵东路500号亚龙国际广场B2楼(近地铁8号线大世界站2号口)"},{"poiid":"B2094757D16DA3F94299","title":"上海浦东国际机场T2航站楼 D69号口 CX365 12K","lon":"121.47737405","lat":"31.229278329","category":"21","category_name":"飞机场","address":"上海浦东国际机场T2航站楼 D69号口"},{"poiid":"B2094757D16FA3F8429B","title":"人民广场香港名店街","lon":"121.477473738","lat":"31.2287382683","category":"500","category_name":"未知分类","address":"上海人民大道九号"},{"poiid":"B2094757D66DA2F4469F","title":"上海大剧院星空宴会厅","lon":"121.47668158","lat":"31.227328899","category":"500","category_name":"未知分类","address":"上海黄陂北路"},{"poiid":"B2094757D06AAAFC449B","title":"人广喷泉","lon":"121.47600073","lat":"31.22837526","category":"607","category_name":"一般景点","address":"上海市黄浦区黄陂北路"},{"poiid":"B2094757D16AABFF479A","title":"stay real","lon":"121.476367438","lat":"31.2301682988","category":"260","category_name":"其他","address":"上海来福士"},{"poiid":"B2094654DA6EA6FD489C","title":"云南南路美食街(北门)","lon":"121.47954","lat":"31.22896","category":"116","category_name":"特色商业街","address":"云南南路"},{"poiid":"B2094757D064A2FA4593","title":"Mago时尚KTV","lon":"121.47819273","lat":"31.227274237","category":"170","category_name":"KTV","address":"上海淮海中路98号3，4楼"},{"poiid":"B2094750D464A3FC499C","title":"松江大学城","lon":"121.478225","lat":"31.228452","category":"253","category_name":"校园生活","address":"松江大学城"},{"poiid":"B2094757D56EA2F5429C","title":"百嘉乐","lon":"121.477946","lat":"31.22746","category":"248","category_name":"生活娱乐","address":"淮海东路99号"},{"poiid":"B2094757D06FABF54099","title":"延安东路西藏中路天桥","lon":"121.47850668","lat":"31.228135564","category":"260","category_name":"其他","address":"上海延安东路西藏中路"},{"poiid":"B2094757D068ABF5469B","title":"952终点站","lon":"121.47775473","lat":"31.228736268","category":"38","category_name":"公交车站","address":"上海武胜路"},{"poiid":"B2094750DA68A2FC4599","title":"徐家汇美罗城","lon":"121.478218","lat":"31.228443","category":"500","category_name":"未知分类","address":null},{"poiid":"B2094757D068A0F4459A","title":"梦园餐厅","lon":"121.47804","lat":"31.23007","category":"76","category_name":"上海菜","address":"黄浦区北海路277号(近西藏中路)"},{"poiid":"B2094757D16DA1FE4498","title":"韓舍","lon":"121.476082738","lat":"31.2302002995","category":"500","category_name":"未知分类","address":"上海市黄浦区南京西路"},{"poiid":"B2094757D06FA5FF489B","title":"隧道六线人民广场终点站","lon":"121.47679248","lat":"31.228685837","category":"38","category_name":"公交车站","address":"上海市黄浦区武胜路38号"},{"poiid":"B2094753D268A4F5429F","title":"S2酒吧","lon":"121.478694","lat":"31.227341","category":"247","category_name":"餐饮美食","address":"上海市 淮海中路柳林路柳林大厦六楼"},{"poiid":"B2094750D26EA6FC459B","title":"重庆小天鹅","lon":"121.478668","lat":"31.229246","category":"500","category_name":"未知分类","address":null},{"poiid":"B2094750D565A0FE4899","title":"南京西路","lon":"121.478225","lat":"31.228448","category":"248","category_name":"生活娱乐","address":"南京西路"},{"poiid":"B2094752D269AAF5429A","title":"蘇浙匯","lon":"121.478505","lat":"31.229571","category":"247","category_name":"餐饮美食","address":"香港广场"},{"poiid":"B2094654DB69A7FE419F","title":"漾乐会","lon":"121.47798","lat":"31.227","category":"94","category_name":"西餐厅","address":"黄浦区延安东路523号上海音乐厅7号门4楼(近普安路)"},{"poiid":"B2094750D66FA0FA4693","title":"金桥国际商业广场","lon":"121.478225","lat":"31.228445","category":"500","category_name":"未知分类","address":null},{"poiid":"B2094750DB6FA1FD4298","title":"apple store香港广场店","lon":"121.477561","lat":"31.227397","category":"627","category_name":"一般地点标志","address":"淮海中路283号"},{"poiid":"B2094751D469A6FB459A","title":"COCO一番屋","lon":"121.4786718880017","lat":"31.22734153234547","category":"247","category_name":"餐饮美食","address":null},{"poiid":"B2094757D064A6F54793","title":"145终点站","lon":"121.477447238","lat":"31.2276744456","category":"500","category_name":"未知分类","address":"上海人民广场"},{"poiid":"B2094757D069A0FB499C","title":"舒蔡记蜃中楼","lon":"121.47918","lat":"31.22966","category":"76","category_name":"上海菜","address":"黄浦区云南中路51号(近北海路)"},{"poiid":"B2094757D16CA2FE4593","title":"广兰路地铁站","lon":"121.620138","lat":"31.210769","category":"36","category_name":"地铁站","address":"祖冲之路"},{"poiid":"B2094757D06FAAFA4798","title":"快乐柠檬(西藏中路店)","lon":"121.47827","lat":"31.22938","category":"113","category_name":"冷饮店","address":"黄浦区西藏中路80号(近北海路)"},{"poiid":"B2094757D065A3F4419D","title":"西藏南路","lon":"121.47787701","lat":"31.22884101","category":"500","category_name":"未知分类","address":"上海延安东路"},{"poiid":"B2094654DA6FABFB459C","title":"上海市工人文化宫展览中心","lon":"121.47766","lat":"31.2305","category":"183","category_name":"展览馆","address":"西藏中路120号上海市工人文化宫3层"},{"poiid":"B2094654DB65A5FF4492","title":"上海博物馆","lon":"121.47549","lat":"31.22836","category":"182","category_name":"博物馆","address":"黄浦区人民大道201号"},{"poiid":"B2094654DA6FABF94292","title":"上海歌城(西藏中路)","lon":"121.47867","lat":"31.22937","category":"170","category_name":"KTV","address":"黄浦区西藏中路18号港陆广场3楼(近延安东路)"},{"poiid":"B2094654DA6EAAF8479A","title":"上海音乐厅","lon":"121.47785","lat":"31.22698","category":"179","category_name":"音乐厅","address":"黄浦区延安东路523号(近西藏中路)"},{"poiid":"B2094753D76FAAFA449C","title":"上海滩国泰旗舰店","lon":"121.466011","lat":"31.216125","category":"249","category_name":"购物服务","address":"淮海中路868号"},{"poiid":"B209475CD564A7F84292","title":"上海滩新天地店","lon":"121.47463","lat":"31.22164","category":"119","category_name":"商场","address":"\"太仓路181弄新天地北里15号\r\n\""},{"poiid":"B209475CD564A7F8439E","title":"上海滩中信泰富店","lon":"121.45602","lat":"31.22851","category":"119","category_name":"商场","address":"\"南京西路1168号中信泰富广场，店铺号221.\r\n\""},{"poiid":"B209475CD564A7F84392","title":"上海滩浦东香格里拉店","lon":"121.50058","lat":"31.23634","category":"119","category_name":"商场","address":"浦东富成路33号香格里拉酒店内大堂层"},{"poiid":"B2094757D06EAAF4479F","title":"中环广场","lon":"121.479","lat":"31.2283","category":"119","category_name":"商场","address":"卢湾区淮海中路381号(近马当路)"},{"poiid":"B2094654DB69AAF44993","title":"玛格萝妮比萨屋 黄浦店 Magaroni Pizza Studio","lon":"121.47804993281","lat":"31.230551668126","category":"94","category_name":"西餐厅","address":"黄浦区北海路247号(近云南中路)"},{"poiid":"B2094655D268A0F94193","title":"德大咖啡餐厅","lon":"121.47953","lat":"31.2289","category":"65","category_name":"咖啡厅","address":"黄浦区云南南路2号(近延安东路)"},{"poiid":"B2094757D068A2F84098","title":"自由港量贩式KTV(汇都店)","lon":"121.478956838","lat":"31.2277256467","category":"170","category_name":"KTV","address":"卢湾区金陵东路569号汇都大厦4楼(近西藏南路)"},{"poiid":"B2094757D06FA0F84998","title":"上海市工人文化宫","lon":"121.47783","lat":"31.2302","category":"179","category_name":"音乐厅","address":"黄浦区西藏中路120号市工人文化宫内(近北海路)"},{"poiid":"B2094654DA6FABFB479C","title":"茉莉花小剧场","lon":"121.47766","lat":"31.23051","category":"180","category_name":"剧场","address":"西藏中路120号上海市工人文化宫"},{"poiid":"B2094757D06FA6FD439F","title":"嘉顿铁板烧","lon":"121.47846","lat":"31.22963","category":"269","category_name":"烧烤","address":"黄浦区西藏中路90号(近北海路)"},{"poiid":"B2094757D06AA5FE409A","title":"人民廣場博物館","lon":"121.476175683","lat":"31.2274665718","category":"500","category_name":"未知分类","address":"上海博物館西側，武勝路"},{"poiid":"B2094757D06FA1FB4493","title":"上海人家(黄浦店)","lon":"121.47932","lat":"31.2297","category":"247","category_name":"餐饮美食","address":"上海黄浦区云南中路41号(近北海路)"},{"poiid":"B2094757D06FA1F5439D","title":"上海共舞台","lon":"121.47942","lat":"31.22864","category":"260","category_name":"其他","address":"黄浦区延安东路433号(近云南南路)"},{"poiid":"B2094757DB68A4FF499A","title":"鲜得来","lon":"121.476378","lat":"31.229593","category":"247","category_name":"餐饮美食","address":"云南南路46号"},{"poiid":"B2094752DB6DAAFC449B","title":"HOT BOYS芝士年糕","lon":"121.475742","lat":"31.22992","category":"247","category_name":"餐饮美食","address":"上海市 香港名店几点77号店铺"},{"poiid":"B2094753D26BAAF8429A","title":"茉莉花小剧场","lon":"121.478252","lat":"31.230385","category":"500","category_name":"未知分类","address":"上海市 黄浦区北海路251号"},{"poiid":"B2094757D069ABF5429D","title":"芋贵人(亚龙国际广场店)","lon":"121.477901838","lat":"31.2277953482","category":"67","category_name":"甜品店","address":"黄浦区金陵东路500号亚龙国际广场B2楼(近地铁8号线大世界站2号口)"},{"poiid":"B2094757D16DA3F94299","title":"上海浦东国际机场T2航站楼 D69号口 CX365 12K","lon":"121.47737405","lat":"31.229278329","category":"21","category_name":"飞机场","address":"上海浦东国际机场T2航站楼 D69号口"},{"poiid":"B2094757D16FA3F8429B","title":"人民广场香港名店街","lon":"121.477473738","lat":"31.2287382683","category":"500","category_name":"未知分类","address":"上海人民大道九号"},{"poiid":"B2094757D66DA2F4469F","title":"上海大剧院星空宴会厅","lon":"121.47668158","lat":"31.227328899","category":"500","category_name":"未知分类","address":"上海黄陂北路"},{"poiid":"B2094757D06AAAFC449B","title":"人广喷泉","lon":"121.47600073","lat":"31.22837526","category":"607","category_name":"一般景点","address":"上海市黄浦区黄陂北路"},{"poiid":"B2094757D16AABFF479A","title":"stay real","lon":"121.476367438","lat":"31.2301682988","category":"260","category_name":"其他","address":"上海来福士"},{"poiid":"B2094654DA6EA6FD489C","title":"云南南路美食街(北门)","lon":"121.47954","lat":"31.22896","category":"116","category_name":"特色商业街","address":"云南南路"},{"poiid":"B2094757D064A2FA4593","title":"Mago时尚KTV","lon":"121.47819273","lat":"31.227274237","category":"170","category_name":"KTV","address":"上海淮海中路98号3，4楼"},{"poiid":"B2094750D464A3FC499C","title":"松江大学城","lon":"121.478225","lat":"31.228452","category":"253","category_name":"校园生活","address":"松江大学城"},{"poiid":"B2094757D56EA2F5429C","title":"百嘉乐","lon":"121.477946","lat":"31.22746","category":"248","category_name":"生活娱乐","address":"淮海东路99号"},{"poiid":"B2094757D06FABF54099","title":"延安东路西藏中路天桥","lon":"121.47850668","lat":"31.228135564","category":"260","category_name":"其他","address":"上海延安东路西藏中路"},{"poiid":"B2094757D068ABF5469B","title":"952终点站","lon":"121.47775473","lat":"31.228736268","category":"38","category_name":"公交车站","address":"上海武胜路"},{"poiid":"B2094750DA68A2FC4599","title":"徐家汇美罗城","lon":"121.478218","lat":"31.228443","category":"500","category_name":"未知分类","address":null},{"poiid":"B2094757D068A0F4459A","title":"梦园餐厅","lon":"121.47804","lat":"31.23007","category":"76","category_name":"上海菜","address":"黄浦区北海路277号(近西藏中路)"},{"poiid":"B2094757D16DA1FE4498","title":"韓舍","lon":"121.476082738","lat":"31.2302002995","category":"500","category_name":"未知分类","address":"上海市黄浦区南京西路"},{"poiid":"B2094757D06FA5FF489B","title":"隧道六线人民广场终点站","lon":"121.47679248","lat":"31.228685837","category":"38","category_name":"公交车站","address":"上海市黄浦区武胜路38号"},{"poiid":"B2094753D268A4F5429F","title":"S2酒吧","lon":"121.478694","lat":"31.227341","category":"247","category_name":"餐饮美食","address":"上海市 淮海中路柳林路柳林大厦六楼"},{"poiid":"B2094750D26EA6FC459B","title":"重庆小天鹅","lon":"121.478668","lat":"31.229246","category":"500","category_name":"未知分类","address":null},{"poiid":"B2094750D565A0FE4899","title":"南京西路","lon":"121.478225","lat":"31.228448","category":"248","category_name":"生活娱乐","address":"南京西路"},{"poiid":"B2094752D269AAF5429A","title":"蘇浙匯","lon":"121.478505","lat":"31.229571","category":"247","category_name":"餐饮美食","address":"香港广场"},{"poiid":"B2094654DB69A7FE419F","title":"漾乐会","lon":"121.47798","lat":"31.227","category":"94","category_name":"西餐厅","address":"黄浦区延安东路523号上海音乐厅7号门4楼(近普安路)"},{"poiid":"B2094750D66FA0FA4693","title":"金桥国际商业广场","lon":"121.478225","lat":"31.228445","category":"500","category_name":"未知分类","address":null},{"poiid":"B2094750DB6FA1FD4298","title":"apple store香港广场店","lon":"121.477561","lat":"31.227397","category":"627","category_name":"一般地点标志","address":"淮海中路283号"},{"poiid":"B2094751D469A6FB459A","title":"COCO一番屋","lon":"121.4786718880017","lat":"31.22734153234547","category":"247","category_name":"餐饮美食","address":null},{"poiid":"B2094757D064A6F54793","title":"145终点站","lon":"121.477447238","lat":"31.2276744456","category":"500","category_name":"未知分类","address":"上海人民广场"},{"poiid":"B2094757D069A0FB499C","title":"舒蔡记蜃中楼","lon":"121.47918","lat":"31.22966","category":"76","category_name":"上海菜","address":"黄浦区云南中路51号(近北海路)"},{"poiid":"B2094757D16CA2FE4593","title":"广兰路地铁站","lon":"121.620138","lat":"31.210769","category":"36","category_name":"地铁站","address":"祖冲之路"},{"poiid":"B2094757D06FAAFA4798","title":"快乐柠檬(西藏中路店)","lon":"121.47827","lat":"31.22938","category":"113","category_name":"冷饮店","address":"黄浦区西藏中路80号(近北海路)"},{"poiid":"B2094757D065A3F4419D","title":"西藏南路","lon":"121.47787701","lat":"31.22884101","category":"500","category_name":"未知分类","address":"上海延安东路"},{"poiid":"B2094654DA6FABFB459C","title":"上海市工人文化宫展览中心","lon":"121.47766","lat":"31.2305","category":"183","category_name":"展览馆","address":"西藏中路120号上海市工人文化宫3层"}]