[{"poiid":"B2094654D568A2F84298","title":"上海理工大学(军工路)","lon":"121.55195","lat":"31.29042","category":"671","category_name":"高校中心点","address":"杨浦区军工路516号"},{"poiid":"B2094757D06FA1FC429D","title":"安图医院","lon":"121.54300256","lat":"31.29060381","category":"162","category_name":"医院","address":"杨浦区延吉东路200号(近安图路)"},{"poiid":"B2094757D06FA0FE4292","title":"欧洲豪庭·韵都城(长白路)","lon":"121.545433745","lat":"31.2892559194","category":"47","category_name":"住宅区","address":"上海市杨浦区控江路128弄"},{"poiid":"B2094757D06FA5F8489C","title":"长白三村","lon":"121.54531160867","lat":"31.295015391115","category":"47","category_name":"住宅区","address":"上海杨浦区靖宇东路 水丰路 延吉东路 敦化路"},{"poiid":"B2094757D068A4FA4393","title":"靖宇家园","lon":"121.54266","lat":"31.291809","category":"47","category_name":"住宅区","address":"松江方松街道文诚路2188弄409-413"},{"poiid":"B2094757D06AA3FF4098","title":"延吉东路","lon":"121.54693603","lat":"31.292917251","category":"500","category_name":"未知分类","address":"上海137弄"},{"poiid":"B2094757D16DA1F9479E","title":"上海理工大学新体育馆","lon":"121.551655","lat":"31.289982","category":"253","category_name":"校园生活","address":"上海军工路580号"},{"poiid":"B2094654D56FAAF54699","title":"韵都城","lon":"121.54703","lat":"31.28971","category":"47","category_name":"住宅区","address":"长白路37"},{"poiid":"B2094757D164A5F5439C","title":"延吉东路131弄","lon":"121.543818803","lat":"31.2951247387","category":"47","category_name":"住宅区","address":"上海延吉东路图门路"},{"poiid":"B2094757D66AA4F5469B","title":"和醇","lon":"121.54511","lat":"31.29252","category":"76","category_name":"上海菜","address":"杨浦区延吉东路143号(近图们路)"},{"poiid":"B2094757D06AABFC4792","title":"长白路图们路站(公交6终,22终)","lon":"121.547733","lat":"31.290544","category":"38","category_name":"公交车站","address":"上海市杨浦区长白路138号"},{"poiid":"B2094757D068A5F84293","title":"内江二村","lon":"121.551","lat":"31.2909","category":"47","category_name":"住宅区","address":"上海市杨浦区内江路"},{"poiid":"B2094654DB6BA2FB4898","title":"广远新村小区","lon":"121.54889","lat":"31.28804","category":"47","category_name":"住宅区","address":"上海控江路121弄附近"},{"poiid":"B2094654D56FAAFB4993","title":"上海市延吉初级中学","lon":"121.54585","lat":"31.29231","category":"55","category_name":"中学","address":"延吉东路145"},{"poiid":"B2094654D56FAAFB449D","title":"长华绿苑","lon":"121.54455","lat":"31.292126","category":"47","category_name":"住宅区","address":"上海市杨浦区延吉东路图们路口"},{"poiid":"B2094655D36DA0F84498","title":"延吉东路安图路","lon":"121.5427","lat":"31.28994","category":"38","category_name":"公交车站","address":""},{"poiid":"B2094757D068ABFD4393","title":"东光明中学","lon":"121.544884","lat":"31.29557","category":"55","category_name":"中学","address":"杨浦区延吉东路99号(近靖宇东路)"},{"poiid":"B2094757D064A0F8479D","title":"延吉初级中学","lon":"121.54536","lat":"31.29182","category":"55","category_name":"中学","address":"上海杨浦区延吉东路145号(近图们路)  "},{"poiid":"B2094654D56FAAF4449D","title":"光明便利No.248","lon":"121.54705","lat":"31.29094","category":"117","category_name":"便民商店/便利店","address":"图们路38"},{"poiid":"B2094757D66DA1FA489D","title":"豪大大香鸡排","lon":"121.54154","lat":"31.29115","category":"68","category_name":"快餐厅","address":"杨浦区安图路79号(近靖宇东路)"},{"poiid":"B2094654D56FAAF44598","title":"良友金伴(图们路)","lon":"121.54708","lat":"31.29067","category":"117","category_name":"便民商店/便利店","address":"图们路29"},{"poiid":"B2094655D36DA0F84499","title":"延吉东路靖宇东路","lon":"121.54504","lat":"31.29215","category":"38","category_name":"公交车站","address":""},{"poiid":"B2094757D16CA4FF469E","title":"6路终点站","lon":"121.5452561","lat":"31.290612844","category":"38","category_name":"公交车站","address":"上海市杨浦区安图路"},{"poiid":"B2094655D269AAFD4099","title":"婚礼先生结婚馆延吉东路店","lon":"121.54513","lat":"31.29256","category":"247","category_name":"餐饮美食","address":"杨浦区延吉东路143号东区聚场A栋(近安图路)查看地图"},{"poiid":"B2094757D16FA1F94693","title":"上海理工大学580号","lon":"121.5517131","lat":"31.29089785","category":"500","category_name":"未知分类","address":"上海市杨浦区军工路"},{"poiid":"B2094654D56FAAF44498","title":"云云形象设计","lon":"121.54659","lat":"31.29085","category":"148","category_name":"美容美发店","address":"杨浦区图们路41号(近延吉东路)"},{"poiid":"B2094757D164A0FE409A","title":"元祖(图们路店)","lon":"121.54709","lat":"31.29052","category":"247","category_name":"餐饮美食","address":"上海杨浦区图们路39号(近长白路)  "},{"poiid":"B2094757D065A1F84799","title":"图们路排档","lon":"121.54856","lat":"31.28908","category":"68","category_name":"快餐厅","address":"杨浦区图们路(近控江路)"},{"poiid":"B2094757D065A1FF4299","title":"德汇酒家","lon":"121.550071619","lat":"31.288068947885","category":"76","category_name":"上海菜","address":"杨浦区图们路15号(近控江路)"},{"poiid":"B2094757D069AAF94598","title":"谢荣生摄影艺术培训中心","lon":"121.54542","lat":"31.2921","category":"500","category_name":"未知分类","address":"杨浦区延吉东路143号(近安图路)"},{"poiid":"B2094655D26EA5FB469E","title":"盱眙朱大龙虾王(延吉东路店)","lon":"121.54513","lat":"31.29256","category":"88","category_name":"海鲜酒楼","address":"杨浦区延吉东路143号"},{"poiid":"B2094757D16FA7FD4992","title":"凯琴双语数码幼稚园(杨浦园)","lon":"121.547641103","lat":"31.2920091735","category":"500","category_name":"未知分类","address":"杨浦区延吉东路137弄16号(近靖宇东路)"},{"poiid":"B2094654D56FAAF5469B","title":"中国移动长白路营业厅","lon":"121.54732","lat":"31.29023","category":"151","category_name":"电讯营业厅","address":"杨浦区长白路27号"},{"poiid":"B2094654D56FAAF5459C","title":"永琪美容美发(图们路)","lon":"121.54804","lat":"31.29021","category":"148","category_name":"美容美发店","address":"杨浦区图们路23号(控江路图们路)"},{"poiid":"B2094757D065A7FC459C","title":"军工路控江路站(公交59,124,103,135,874)","lon":"121.550180934","lat":"31.2914169325","category":"38","category_name":"公交车站","address":"上海市杨浦区军工路控江路"},{"poiid":"B2094752D465A1FF4199","title":"上海火车站","lon":"121.548727","lat":"31.291126","category":"500","category_name":"未知分类","address":null},{"poiid":"B2094757D06BA1FC419E","title":"恬乐酒家","lon":"121.54936366531","lat":"31.289596636997","category":"76","category_name":"上海菜","address":"杨浦区控江路57号(近军工路)"},{"poiid":"B2094655D26AA5FB469F","title":"糖果时尚儿童摄影","lon":"121.54513","lat":"31.29256","category":"247","category_name":"餐饮美食","address":"杨浦区延吉东路143号东区聚场D栋(近安图路)"},{"poiid":"B2094654D56FAAF54698","title":"好德便利No.528","lon":"121.54725","lat":"31.29015","category":"117","category_name":"便民商店/便利店","address":"长白路29"},{"poiid":"B2094757D069A4FC4998","title":"吉祥馄饨(控江路店)","lon":"121.55038","lat":"31.28928","category":"68","category_name":"快餐厅","address":"杨浦区控江路51号(近上海理工大学)"},{"poiid":"B2094655D26CA6F4479F","title":"敦化路4弄","lon":"121.548","lat":"31.2936","category":"47","category_name":"住宅区","address":"敦化路4弄"},{"poiid":"B2094654D568A3FC4092","title":"控江路121弄129弄小区","lon":"121.54635","lat":"31.28739","category":"47","category_name":"住宅区","address":"控江路129弄1-18号"},{"poiid":"B2094752D46AA2FB479B","title":"御膳星湖海鲜会馆","lon":"121.550629","lat":"31.291626","category":"247","category_name":"餐饮美食","address":"南通市开发区星湖街区8号"},{"poiid":"B2094655D264A7F9419E","title":"美丽公馆","lon":"121.549","lat":"31.2929","category":"47","category_name":"住宅区","address":"上海市杨浦区控江路568l弄(敦化路口)"},{"poiid":"B2094654D56FAAF54593","title":"中国农业银行杨浦区长白支行","lon":"121.54751","lat":"31.29038","category":"150","category_name":"银行","address":"长白路1"},{"poiid":"B2094757D06BA5FB479D","title":"绿云轩 控江路店","lon":"121.549705054","lat":"31.289494793","category":"76","category_name":"上海菜","address":"杨浦区控江路67号(近图们路)"},{"poiid":"B2094757D064A4FE429B","title":"丰园农田鸡(延吉东路店)","lon":"121.54315","lat":"31.28941","category":"68","category_name":"快餐厅","address":"杨浦区延吉东路309号(近安图路)"},{"poiid":"B2094655D36CA0FC419A","title":"军工路控江路","lon":"121.55018","lat":"31.29142","category":"38","category_name":"公交车站","address":""},{"poiid":"B2094757D16AABF44799","title":"上海理工大学附属初级中学","lon":"121.5431911","lat":"31.290199835","category":"55","category_name":"中学","address":"杨浦区图们路50号(近长白路)"},{"poiid":"B2094655D265A7F8469F","title":"吉发酒家","lon":"121.54914","lat":"31.29291","category":"76","category_name":"上海菜","address":"杨浦区军工路897号(军工路民治路)"},{"poiid":"B2094654D568A2F84298","title":"上海理工大学(军工路)","lon":"121.55195","lat":"31.29042","category":"671","category_name":"高校中心点","address":"杨浦区军工路516号"},{"poiid":"B2094757D06FA1FC429D","title":"安图医院","lon":"121.54300256","lat":"31.29060381","category":"162","category_name":"医院","address":"杨浦区延吉东路200号(近安图路)"},{"poiid":"B2094757D06FA0FE4292","title":"欧洲豪庭·韵都城(长白路)","lon":"121.545433745","lat":"31.2892559194","category":"47","category_name":"住宅区","address":"上海市杨浦区控江路128弄"},{"poiid":"B2094757D06FA5F8489C","title":"长白三村","lon":"121.54531160867","lat":"31.295015391115","category":"47","category_name":"住宅区","address":"上海杨浦区靖宇东路 水丰路 延吉东路 敦化路"},{"poiid":"B2094757D068A4FA4393","title":"靖宇家园","lon":"121.54266","lat":"31.291809","category":"47","category_name":"住宅区","address":"松江方松街道文诚路2188弄409-413"},{"poiid":"B2094757D06AA3FF4098","title":"延吉东路","lon":"121.54693603","lat":"31.292917251","category":"500","category_name":"未知分类","address":"上海137弄"},{"poiid":"B2094757D16DA1F9479E","title":"上海理工大学新体育馆","lon":"121.551655","lat":"31.289982","category":"253","category_name":"校园生活","address":"上海军工路580号"},{"poiid":"B2094654D56FAAF54699","title":"韵都城","lon":"121.54703","lat":"31.28971","category":"47","category_name":"住宅区","address":"长白路37"},{"poiid":"B2094757D164A5F5439C","title":"延吉东路131弄","lon":"121.543818803","lat":"31.2951247387","category":"47","category_name":"住宅区","address":"上海延吉东路图门路"},{"poiid":"B2094757D66AA4F5469B","title":"和醇","lon":"121.54511","lat":"31.29252","category":"76","category_name":"上海菜","address":"杨浦区延吉东路143号(近图们路)"},{"poiid":"B2094757D06AABFC4792","title":"长白路图们路站(公交6终,22终)","lon":"121.547733","lat":"31.290544","category":"38","category_name":"公交车站","address":"上海市杨浦区长白路138号"},{"poiid":"B2094757D068A5F84293","title":"内江二村","lon":"121.551","lat":"31.2909","category":"47","category_name":"住宅区","address":"上海市杨浦区内江路"},{"poiid":"B2094654DB6BA2FB4898","title":"广远新村小区","lon":"121.54889","lat":"31.28804","category":"47","category_name":"住宅区","address":"上海控江路121弄附近"},{"poiid":"B2094654D56FAAFB4993","title":"上海市延吉初级中学","lon":"121.54585","lat":"31.29231","category":"55","category_name":"中学","address":"延吉东路145"},{"poiid":"B2094654D56FAAFB449D","title":"长华绿苑","lon":"121.54455","lat":"31.292126","category":"47","category_name":"住宅区","address":"上海市杨浦区延吉东路图们路口"},{"poiid":"B2094655D36DA0F84498","title":"延吉东路安图路","lon":"121.5427","lat":"31.28994","category":"38","category_name":"公交车站","address":""},{"poiid":"B2094757D068ABFD4393","title":"东光明中学","lon":"121.544884","lat":"31.29557","category":"55","category_name":"中学","address":"杨浦区延吉东路99号(近靖宇东路)"},{"poiid":"B2094757D064A0F8479D","title":"延吉初级中学","lon":"121.54536","lat":"31.29182","category":"55","category_name":"中学","address":"上海杨浦区延吉东路145号(近图们路)  "},{"poiid":"B2094654D56FAAF4449D","title":"光明便利No.248","lon":"121.54705","lat":"31.29094","category":"117","category_name":"便民商店/便利店","address":"图们路38"},{"poiid":"B2094757D66DA1FA489D","title":"豪大大香鸡排","lon":"121.54154","lat":"31.29115","category":"68","category_name":"快餐厅","address":"杨浦区安图路79号(近靖宇东路)"},{"poiid":"B2094654D56FAAF44598","title":"良友金伴(图们路)","lon":"121.54708","lat":"31.29067","category":"117","category_name":"便民商店/便利店","address":"图们路29"},{"poiid":"B2094655D36DA0F84499","title":"延吉东路靖宇东路","lon":"121.54504","lat":"31.29215","category":"38","category_name":"公交车站","address":""},{"poiid":"B2094757D16CA4FF469E","title":"6路终点站","lon":"121.5452561","lat":"31.290612844","category":"38","category_name":"公交车站","address":"上海市杨浦区安图路"},{"poiid":"B2094655D269AAFD4099","title":"婚礼先生结婚馆延吉东路店","lon":"121.54513","lat":"31.29256","category":"247","category_name":"餐饮美食","address":"杨浦区延吉东路143号东区聚场A栋(近安图路)查看地图"},{"poiid":"B2094757D16FA1F94693","title":"上海理工大学580号","lon":"121.5517131","lat":"31.29089785","category":"500","category_name":"未知分类","address":"上海市杨浦区军工路"},{"poiid":"B2094654D56FAAF44498","title":"云云形象设计","lon":"121.54659","lat":"31.29085","category":"148","category_name":"美容美发店","address":"杨浦区图们路41号(近延吉东路)"},{"poiid":"B2094757D164A0FE409A","title":"元祖(图们路店)","lon":"121.54709","lat":"31.29052","category":"247","category_name":"餐饮美食","address":"上海杨浦区图们路39号(近长白路)  "},{"poiid":"B2094757D065A1F84799","title":"图们路排档","lon":"121.54856","lat":"31.28908","category":"68","category_name":"快餐厅","address":"杨浦区图们路(近控江路)"},{"poiid":"B2094757D065A1FF4299","title":"德汇酒家","lon":"121.550071619","lat":"31.288068947885","category":"76","category_name":"上海菜","address":"杨浦区图们路15号(近控江路)"},{"poiid":"B2094757D069AAF94598","title":"谢荣生摄影艺术培训中心","lon":"121.54542","lat":"31.2921","category":"500","category_name":"未知分类","address":"杨浦区延吉东路143号(近安图路)"},{"poiid":"B2094655D26EA5FB469E","title":"盱眙朱大龙虾王(延吉东路店)","lon":"121.54513","lat":"31.29256","category":"88","category_name":"海鲜酒楼","address":"杨浦区延吉东路143号"},{"poiid":"B2094757D16FA7FD4992","title":"凯琴双语数码幼稚园(杨浦园)","lon":"121.547641103","lat":"31.2920091735","category":"500","category_name":"未知分类","address":"杨浦区延吉东路137弄16号(近靖宇东路)"},{"poiid":"B2094654D56FAAF5469B","title":"中国移动长白路营业厅","lon":"121.54732","lat":"31.29023","category":"151","category_name":"电讯营业厅","address":"杨浦区长白路27号"},{"poiid":"B2094654D56FAAF5459C","title":"永琪美容美发(图们路)","lon":"121.54804","lat":"31.29021","category":"148","category_name":"美容美发店","address":"杨浦区图们路23号(控江路图们路)"},{"poiid":"B2094757D065A7FC459C","title":"军工路控江路站(公交59,124,103,135,874)","lon":"121.550180934","lat":"31.2914169325","category":"38","category_name":"公交车站","address":"上海市杨浦区军工路控江路"},{"poiid":"B2094752D465A1FF4199","title":"上海火车站","lon":"121.548727","lat":"31.291126","category":"500","category_name":"未知分类","address":null},{"poiid":"B2094757D06BA1FC419E","title":"恬乐酒家","lon":"121.54936366531","lat":"31.289596636997","category":"76","category_name":"上海菜","address":"杨浦区控江路57号(近军工路)"},{"poiid":"B2094655D26AA5FB469F","title":"糖果时尚儿童摄影","lon":"121.54513","lat":"31.29256","category":"247","category_name":"餐饮美食","address":"杨浦区延吉东路143号东区聚场D栋(近安图路)"},{"poiid":"B2094654D56FAAF54698","title":"好德便利No.528","lon":"121.54725","lat":"31.29015","category":"117","category_name":"便民商店/便利店","address":"长白路29"},{"poiid":"B2094757D069A4FC4998","title":"吉祥馄饨(控江路店)","lon":"121.55038","lat":"31.28928","category":"68","category_name":"快餐厅","address":"杨浦区控江路51号(近上海理工大学)"},{"poiid":"B2094655D26CA6F4479F","title":"敦化路4弄","lon":"121.548","lat":"31.2936","category":"47","category_name":"住宅区","address":"敦化路4弄"},{"poiid":"B2094654D568A3FC4092","title":"控江路121弄129弄小区","lon":"121.54635","lat":"31.28739","category":"47","category_name":"住宅区","address":"控江路129弄1-18号"},{"poiid":"B2094752D46AA2FB479B","title":"御膳星湖海鲜会馆","lon":"121.550629","lat":"31.291626","category":"247","category_name":"餐饮美食","address":"南通市开发区星湖街区8号"},{"poiid":"B2094655D264A7F9419E","title":"美丽公馆","lon":"121.549","lat":"31.2929","category":"47","category_name":"住宅区","address":"上海市杨浦区控江路568l弄(敦化路口)"},{"poiid":"B2094654D56FAAF54593","title":"中国农业银行杨浦区长白支行","lon":"121.54751","lat":"31.29038","category":"150","category_name":"银行","address":"长白路1"},{"poiid":"B2094757D06BA5FB479D","title":"绿云轩 控江路店","lon":"121.549705054","lat":"31.289494793","category":"76","category_name":"上海菜","address":"杨浦区控江路67号(近图们路)"},{"poiid":"B2094757D064A4FE429B","title":"丰园农田鸡(延吉东路店)","lon":"121.54315","lat":"31.28941","category":"68","category_name":"快餐厅","address":"杨浦区延吉东路309号(近安图路)"},{"poiid":"B2094655D36CA0FC419A","title":"军工路控江路","lon":"121.55018","lat":"31.29142","category":"38","category_name":"公交车站","address":""},{"poiid":"B2094757D16AABF44799","title":"上海理工大学附属初级中学","lon":"121.5431911","lat":"31.290199835","category":"55","category_name":"中学","address":"杨浦区图们路50号(近长白路)"},{"poiid":"B2094655D265A7F8469F","title":"吉发酒家","lon":"121.54914","lat":"31.29291","category":"76","category_name":"上海菜","address":"杨浦区军工路897号(军工路民治路)"},{"poiid":"B2094654D568A2F84298","title":"上海理工大学(军工路)","lon":"121.55195","lat":"31.29042","category":"671","category_name":"高校中心点","address":"杨浦区军工路516号"},{"poiid":"B2094757D06FA1FC429D","title":"安图医院","lon":"121.54300256","lat":"31.29060381","category":"162","category_name":"医院","address":"杨浦区延吉东路200号(近安图路)"},{"poiid":"B2094757D06FA0FE4292","title":"欧洲豪庭·韵都城(长白路)","lon":"121.545433745","lat":"31.2892559194","category":"47","category_name":"住宅区","address":"上海市杨浦区控江路128弄"},{"poiid":"B2094757D06FA5F8489C","title":"长白三村","lon":"121.54531160867","lat":"31.295015391115","category":"47","category_name":"住宅区","address":"上海杨浦区靖宇东路 水丰路 延吉东路 敦化路"},{"poiid":"B2094757D068A4FA4393","title":"靖宇家园","lon":"121.54266","lat":"31.291809","category":"47","category_name":"住宅区","address":"松江方松街道文诚路2188弄409-413"},{"poiid":"B2094757D06AA3FF4098","title":"延吉东路","lon":"121.54693603","lat":"31.292917251","category":"500","category_name":"未知分类","address":"上海137弄"},{"poiid":"B2094757D16DA1F9479E","title":"上海理工大学新体育馆","lon":"121.551655","lat":"31.289982","category":"253","category_name":"校园生活","address":"上海军工路580号"},{"poiid":"B2094654D56FAAF54699","title":"韵都城","lon":"121.54703","lat":"31.28971","category":"47","category_name":"住宅区","address":"长白路37"},{"poiid":"B2094757D164A5F5439C","title":"延吉东路131弄","lon":"121.543818803","lat":"31.2951247387","category":"47","category_name":"住宅区","address":"上海延吉东路图门路"},{"poiid":"B2094757D66AA4F5469B","title":"和醇","lon":"121.54511","lat":"31.29252","category":"76","category_name":"上海菜","address":"杨浦区延吉东路143号(近图们路)"},{"poiid":"B2094757D06AABFC4792","title":"长白路图们路站(公交6终,22终)","lon":"121.547733","lat":"31.290544","category":"38","category_name":"公交车站","address":"上海市杨浦区长白路138号"},{"poiid":"B2094757D068A5F84293","title":"内江二村","lon":"121.551","lat":"31.2909","category":"47","category_name":"住宅区","address":"上海市杨浦区内江路"},{"poiid":"B2094654DB6BA2FB4898","title":"广远新村小区","lon":"121.54889","lat":"31.28804","category":"47","category_name":"住宅区","address":"上海控江路121弄附近"},{"poiid":"B2094654D56FAAFB4993","title":"上海市延吉初级中学","lon":"121.54585","lat":"31.29231","category":"55","category_name":"中学","address":"延吉东路145"},{"poiid":"B2094654D56FAAFB449D","title":"长华绿苑","lon":"121.54455","lat":"31.292126","category":"47","category_name":"住宅区","address":"上海市杨浦区延吉东路图们路口"},{"poiid":"B2094655D36DA0F84498","title":"延吉东路安图路","lon":"121.5427","lat":"31.28994","category":"38","category_name":"公交车站","address":""},{"poiid":"B2094757D068ABFD4393","title":"东光明中学","lon":"121.544884","lat":"31.29557","category":"55","category_name":"中学","address":"杨浦区延吉东路99号(近靖宇东路)"},{"poiid":"B2094757D064A0F8479D","title":"延吉初级中学","lon":"121.54536","lat":"31.29182","category":"55","category_name":"中学","address":"上海杨浦区延吉东路145号(近图们路)  "},{"poiid":"B2094654D56FAAF4449D","title":"光明便利No.248","lon":"121.54705","lat":"31.29094","category":"117","category_name":"便民商店/便利店","address":"图们路38"},{"poiid":"B2094757D66DA1FA489D","title":"豪大大香鸡排","lon":"121.54154","lat":"31.29115","category":"68","category_name":"快餐厅","address":"杨浦区安图路79号(近靖宇东路)"},{"poiid":"B2094654D56FAAF44598","title":"良友金伴(图们路)","lon":"121.54708","lat":"31.29067","category":"117","category_name":"便民商店/便利店","address":"图们路29"},{"poiid":"B2094655D36DA0F84499","title":"延吉东路靖宇东路","lon":"121.54504","lat":"31.29215","category":"38","category_name":"公交车站","address":""},{"poiid":"B2094757D16CA4FF469E","title":"6路终点站","lon":"121.5452561","lat":"31.290612844","category":"38","category_name":"公交车站","address":"上海市杨浦区安图路"},{"poiid":"B2094655D269AAFD4099","title":"婚礼先生结婚馆延吉东路店","lon":"121.54513","lat":"31.29256","category":"247","category_name":"餐饮美食","address":"杨浦区延吉东路143号东区聚场A栋(近安图路)查看地图"},{"poiid":"B2094757D16FA1F94693","title":"上海理工大学580号","lon":"121.5517131","lat":"31.29089785","category":"500","category_name":"未知分类","address":"上海市杨浦区军工路"},{"poiid":"B2094654D56FAAF44498","title":"云云形象设计","lon":"121.54659","lat":"31.29085","category":"148","category_name":"美容美发店","address":"杨浦区图们路41号(近延吉东路)"},{"poiid":"B2094757D164A0FE409A","title":"元祖(图们路店)","lon":"121.54709","lat":"31.29052","category":"247","category_name":"餐饮美食","address":"上海杨浦区图们路39号(近长白路)  "},{"poiid":"B2094757D065A1F84799","title":"图们路排档","lon":"121.54856","lat":"31.28908","category":"68","category_name":"快餐厅","address":"杨浦区图们路(近控江路)"},{"poiid":"B2094757D065A1FF4299","title":"德汇酒家","lon":"121.550071619","lat":"31.288068947885","category":"76","category_name":"上海菜","address":"杨浦区图们路15号(近控江路)"},{"poiid":"B2094757D069AAF94598","title":"谢荣生摄影艺术培训中心","lon":"121.54542","lat":"31.2921","category":"500","category_name":"未知分类","address":"杨浦区延吉东路143号(近安图路)"},{"poiid":"B2094655D26EA5FB469E","title":"盱眙朱大龙虾王(延吉东路店)","lon":"121.54513","lat":"31.29256","category":"88","category_name":"海鲜酒楼","address":"杨浦区延吉东路143号"},{"poiid":"B2094757D16FA7FD4992","title":"凯琴双语数码幼稚园(杨浦园)","lon":"121.547641103","lat":"31.2920091735","category":"500","category_name":"未知分类","address":"杨浦区延吉东路137弄16号(近靖宇东路)"},{"poiid":"B2094654D56FAAF5469B","title":"中国移动长白路营业厅","lon":"121.54732","lat":"31.29023","category":"151","category_name":"电讯营业厅","address":"杨浦区长白路27号"},{"poiid":"B2094654D56FAAF5459C","title":"永琪美容美发(图们路)","lon":"121.54804","lat":"31.29021","category":"148","category_name":"美容美发店","address":"杨浦区图们路23号(控江路图们路)"},{"poiid":"B2094757D065A7FC459C","title":"军工路控江路站(公交59,124,103,135,874)","lon":"121.550180934","lat":"31.2914169325","category":"38","category_name":"公交车站","address":"上海市杨浦区军工路控江路"},{"poiid":"B2094752D465A1FF4199","title":"上海火车站","lon":"121.548727","lat":"31.291126","category":"500","category_name":"未知分类","address":null},{"poiid":"B2094757D06BA1FC419E","title":"恬乐酒家","lon":"121.54936366531","lat":"31.289596636997","category":"76","category_name":"上海菜","address":"杨浦区控江路57号(近军工路)"},{"poiid":"B2094655D26AA5FB469F","title":"糖果时尚儿童摄影","lon":"121.54513","lat":"31.29256","category":"247","category_name":"餐饮美食","address":"杨浦区延吉东路143号东区聚场D栋(近安图路)"},{"poiid":"B2094654D56FAAF54698","title":"好德便利No.528","lon":"121.54725","lat":"31.29015","category":"117","category_name":"便民商店/便利店","address":"长白路29"},{"poiid":"B2094757D069A4FC4998","title":"吉祥馄饨(控江路店)","lon":"121.55038","lat":"31.28928","category":"68","category_name":"快餐厅","address":"杨浦区控江路51号(近上海理工大学)"},{"poiid":"B2094655D26CA6F4479F","title":"敦化路4弄","lon":"121.548","lat":"31.2936","category":"47","category_name":"住宅区","address":"敦化路4弄"},{"poiid":"B2094654D568A3FC4092","title":"控江路121弄129弄小区","lon":"121.54635","lat":"31.28739","category":"47","category_name":"住宅区","address":"控江路129弄1-18号"},{"poiid":"B2094752D46AA2FB479B","title":"御膳星湖海鲜会馆","lon":"121.550629","lat":"31.291626","category":"247","category_name":"餐饮美食","address":"南通市开发区星湖街区8号"},{"poiid":"B2094655D264A7F9419E","title":"美丽公馆","lon":"121.549","lat":"31.2929","category":"47","category_name":"住宅区","address":"上海市杨浦区控江路568l弄(敦化路口)"},{"poiid":"B2094654D56FAAF54593","title":"中国农业银行杨浦区长白支行","lon":"121.54751","lat":"31.29038","category":"150","category_name":"银行","address":"长白路1"},{"poiid":"B2094757D06BA5FB479D","title":"绿云轩 控江路店","lon":"121.549705054","lat":"31.289494793","category":"76","category_name":"上海菜","address":"杨浦区控江路67号(近图们路)"},{"poiid":"B2094757D064A4FE429B","title":"丰园农田鸡(延吉东路店)","lon":"121.54315","lat":"31.28941","category":"68","category_name":"快餐厅","address":"杨浦区延吉东路309号(近安图路)"},{"poiid":"B2094655D36CA0FC419A","title":"军工路控江路","lon":"121.55018","lat":"31.29142","category":"38","category_name":"公交车站","address":""},{"poiid":"B2094757D16AABF44799","title":"上海理工大学附属初级中学","lon":"121.5431911","lat":"31.290199835","category":"55","category_name":"中学","address":"杨浦区图们路50号(近长白路)"},{"poiid":"B2094655D265A7F8469F","title":"吉发酒家","lon":"121.54914","lat":"31.29291","category":"76","category_name":"上海菜","address":"杨浦区军工路897号(军工路民治路)"},{"poiid":"B2094654D568A2F84298","title":"上海理工大学(军工路)","lon":"121.55195","lat":"31.29042","category":"671","category_name":"高校中心点","address":"杨浦区军工路516号"},{"poiid":"B2094757D06FA1FC429D","title":"安图医院","lon":"121.54300256","lat":"31.29060381","category":"162","category_name":"医院","address":"杨浦区延吉东路200号(近安图路)"},{"poiid":"B2094757D06FA0FE4292","title":"欧洲豪庭·韵都城(长白路)","lon":"121.545433745","lat":"31.2892559194","category":"47","category_name":"住宅区","address":"上海市杨浦区控江路128弄"},{"poiid":"B2094757D06FA5F8489C","title":"长白三村","lon":"121.54531160867","lat":"31.295015391115","category":"47","category_name":"住宅区","address":"上海杨浦区靖宇东路 水丰路 延吉东路 敦化路"},{"poiid":"B2094757D068A4FA4393","title":"靖宇家园","lon":"121.54266","lat":"31.291809","category":"47","category_name":"住宅区","address":"松江方松街道文诚路2188弄409-413"},{"poiid":"B2094757D06AA3FF4098","title":"延吉东路","lon":"121.54693603","lat":"31.292917251","category":"500","category_name":"未知分类","address":"上海137弄"},{"poiid":"B2094757D16DA1F9479E","title":"上海理工大学新体育馆","lon":"121.551655","lat":"31.289982","category":"253","category_name":"校园生活","address":"上海军工路580号"},{"poiid":"B2094654D56FAAF54699","title":"韵都城","lon":"121.54703","lat":"31.28971","category":"47","category_name":"住宅区","address":"长白路37"},{"poiid":"B2094757D164A5F5439C","title":"延吉东路131弄","lon":"121.543818803","lat":"31.2951247387","category":"47","category_name":"住宅区","address":"上海延吉东路图门路"},{"poiid":"B2094757D66AA4F5469B","title":"和醇","lon":"121.54511","lat":"31.29252","category":"76","category_name":"上海菜","address":"杨浦区延吉东路143号(近图们路)"},{"poiid":"B2094757D06AABFC4792","title":"长白路图们路站(公交6终,22终)","lon":"121.547733","lat":"31.290544","category":"38","category_name":"公交车站","address":"上海市杨浦区长白路138号"},{"poiid":"B2094757D068A5F84293","title":"内江二村","lon":"121.551","lat":"31.2909","category":"47","category_name":"住宅区","address":"上海市杨浦区内江路"},{"poiid":"B2094654DB6BA2FB4898","title":"广远新村小区","lon":"121.54889","lat":"31.28804","category":"47","category_name":"住宅区","address":"上海控江路121弄附近"},{"poiid":"B2094654D56FAAFB4993","title":"上海市延吉初级中学","lon":"121.54585","lat":"31.29231","category":"55","category_name":"中学","address":"延吉东路145"},{"poiid":"B2094654D56FAAFB449D","title":"长华绿苑","lon":"121.54455","lat":"31.292126","category":"47","category_name":"住宅区","address":"上海市杨浦区延吉东路图们路口"},{"poiid":"B2094655D36DA0F84498","title":"延吉东路安图路","lon":"121.5427","lat":"31.28994","category":"38","category_name":"公交车站","address":""},{"poiid":"B2094757D068ABFD4393","title":"东光明中学","lon":"121.544884","lat":"31.29557","category":"55","category_name":"中学","address":"杨浦区延吉东路99号(近靖宇东路)"},{"poiid":"B2094757D064A0F8479D","title":"延吉初级中学","lon":"121.54536","lat":"31.29182","category":"55","category_name":"中学","address":"上海杨浦区延吉东路145号(近图们路)  "},{"poiid":"B2094654D56FAAF4449D","title":"光明便利No.248","lon":"121.54705","lat":"31.29094","category":"117","category_name":"便民商店/便利店","address":"图们路38"},{"poiid":"B2094757D66DA1FA489D","title":"豪大大香鸡排","lon":"121.54154","lat":"31.29115","category":"68","category_name":"快餐厅","address":"杨浦区安图路79号(近靖宇东路)"},{"poiid":"B2094654D56FAAF44598","title":"良友金伴(图们路)","lon":"121.54708","lat":"31.29067","category":"117","category_name":"便民商店/便利店","address":"图们路29"},{"poiid":"B2094655D36DA0F84499","title":"延吉东路靖宇东路","lon":"121.54504","lat":"31.29215","category":"38","category_name":"公交车站","address":""},{"poiid":"B2094757D16CA4FF469E","title":"6路终点站","lon":"121.5452561","lat":"31.290612844","category":"38","category_name":"公交车站","address":"上海市杨浦区安图路"},{"poiid":"B2094655D269AAFD4099","title":"婚礼先生结婚馆延吉东路店","lon":"121.54513","lat":"31.29256","category":"247","category_name":"餐饮美食","address":"杨浦区延吉东路143号东区聚场A栋(近安图路)查看地图"},{"poiid":"B2094757D16FA1F94693","title":"上海理工大学580号","lon":"121.5517131","lat":"31.29089785","category":"500","category_name":"未知分类","address":"上海市杨浦区军工路"},{"poiid":"B2094654D56FAAF44498","title":"云云形象设计","lon":"121.54659","lat":"31.29085","category":"148","category_name":"美容美发店","address":"杨浦区图们路41号(近延吉东路)"},{"poiid":"B2094757D164A0FE409A","title":"元祖(图们路店)","lon":"121.54709","lat":"31.29052","category":"247","category_name":"餐饮美食","address":"上海杨浦区图们路39号(近长白路)  "},{"poiid":"B2094757D065A1F84799","title":"图们路排档","lon":"121.54856","lat":"31.28908","category":"68","category_name":"快餐厅","address":"杨浦区图们路(近控江路)"},{"poiid":"B2094757D065A1FF4299","title":"德汇酒家","lon":"121.550071619","lat":"31.288068947885","category":"76","category_name":"上海菜","address":"杨浦区图们路15号(近控江路)"},{"poiid":"B2094757D069AAF94598","title":"谢荣生摄影艺术培训中心","lon":"121.54542","lat":"31.2921","category":"500","category_name":"未知分类","address":"杨浦区延吉东路143号(近安图路)"},{"poiid":"B2094655D26EA5FB469E","title":"盱眙朱大龙虾王(延吉东路店)","lon":"121.54513","lat":"31.29256","category":"88","category_name":"海鲜酒楼","address":"杨浦区延吉东路143号"},{"poiid":"B2094757D16FA7FD4992","title":"凯琴双语数码幼稚园(杨浦园)","lon":"121.547641103","lat":"31.2920091735","category":"500","category_name":"未知分类","address":"杨浦区延吉东路137弄16号(近靖宇东路)"},{"poiid":"B2094654D56FAAF5469B","title":"中国移动长白路营业厅","lon":"121.54732","lat":"31.29023","category":"151","category_name":"电讯营业厅","address":"杨浦区长白路27号"},{"poiid":"B2094654D56FAAF5459C","title":"永琪美容美发(图们路)","lon":"121.54804","lat":"31.29021","category":"148","category_name":"美容美发店","address":"杨浦区图们路23号(控江路图们路)"},{"poiid":"B2094757D065A7FC459C","title":"军工路控江路站(公交59,124,103,135,874)","lon":"121.550180934","lat":"31.2914169325","category":"38","category_name":"公交车站","address":"上海市杨浦区军工路控江路"},{"poiid":"B2094752D465A1FF4199","title":"上海火车站","lon":"121.548727","lat":"31.291126","category":"500","category_name":"未知分类","address":null},{"poiid":"B2094757D06BA1FC419E","title":"恬乐酒家","lon":"121.54936366531","lat":"31.289596636997","category":"76","category_name":"上海菜","address":"杨浦区控江路57号(近军工路)"},{"poiid":"B2094655D26AA5FB469F","title":"糖果时尚儿童摄影","lon":"121.54513","lat":"31.29256","category":"247","category_name":"餐饮美食","address":"杨浦区延吉东路143号东区聚场D栋(近安图路)"},{"poiid":"B2094654D56FAAF54698","title":"好德便利No.528","lon":"121.54725","lat":"31.29015","category":"117","category_name":"便民商店/便利店","address":"长白路29"},{"poiid":"B2094757D069A4FC4998","title":"吉祥馄饨(控江路店)","lon":"121.55038","lat":"31.28928","category":"68","category_name":"快餐厅","address":"杨浦区控江路51号(近上海理工大学)"},{"poiid":"B2094655D26CA6F4479F","title":"敦化路4弄","lon":"121.548","lat":"31.2936","category":"47","category_name":"住宅区","address":"敦化路4弄"},{"poiid":"B2094654D568A3FC4092","title":"控江路121弄129弄小区","lon":"121.54635","lat":"31.28739","category":"47","category_name":"住宅区","address":"控江路129弄1-18号"},{"poiid":"B2094752D46AA2FB479B","title":"御膳星湖海鲜会馆","lon":"121.550629","lat":"31.291626","category":"247","category_name":"餐饮美食","address":"南通市开发区星湖街区8号"},{"poiid":"B2094655D264A7F9419E","title":"美丽公馆","lon":"121.549","lat":"31.2929","category":"47","category_name":"住宅区","address":"上海市杨浦区控江路568l弄(敦化路口)"},{"poiid":"B2094654D56FAAF54593","title":"中国农业银行杨浦区长白支行","lon":"121.54751","lat":"31.29038","category":"150","category_name":"银行","address":"长白路1"},{"poiid":"B2094757D06BA5FB479D","title":"绿云轩 控江路店","lon":"121.549705054","lat":"31.289494793","category":"76","category_name":"上海菜","address":"杨浦区控江路67号(近图们路)"},{"poiid":"B2094757D064A4FE429B","title":"丰园农田鸡(延吉东路店)","lon":"121.54315","lat":"31.28941","category":"68","category_name":"快餐厅","address":"杨浦区延吉东路309号(近安图路)"},{"poiid":"B2094655D36CA0FC419A","title":"军工路控江路","lon":"121.55018","lat":"31.29142","category":"38","category_name":"公交车站","address":""},{"poiid":"B2094757D16AABF44799","title":"上海理工大学附属初级中学","lon":"121.5431911","lat":"31.290199835","category":"55","category_name":"中学","address":"杨浦区图们路50号(近长白路)"},{"poiid":"B2094655D265A7F8469F","title":"吉发酒家","lon":"121.54914","lat":"31.29291","category":"76","category_name":"上海菜","address":"杨浦区军工路897号(军工路民治路)"}]