[{"poiid":"B2094757D06FA1FD419C","title":"上海扬子江万丽大酒店","lon":"121.40616858","lat":"31.203131901","category":"213","category_name":"五星级宾馆","address":"上海市长宁区延安西路2099号(近遵义路)"},{"poiid":"B2094757D06FA6FB479D","title":"柚子(虹桥店)","lon":"121.40877","lat":"31.20379","category":"95","category_name":"日本料理","address":"长宁区仙霞路8号仲盛金融中心2楼"},{"poiid":"B2094655D26EA5FD4099","title":"虹桥宾馆","lon":"121.41060904662709","lat":"31.20369027936784","category":"214","category_name":"四星级宾馆","address":"上海市长宁区延安西路2000号(近中山西路口)"},{"poiid":"B2094757D06EAAFD429F","title":"虹桥喜来登上海太平洋大饭店 (Sheraton Shanghai Hongqiao Hotel)","lon":"121.405649611","lat":"31.2031937833","category":"217","category_name":"旅馆招待所","address":"长宁区遵义南路5号(近兴义路)"},{"poiid":"B2094757D06FA6FD419F","title":"王品台塑牛排(仙霞店)","lon":"121.406229855","lat":"31.2048639751","category":"94","category_name":"西餐厅","address":"长宁区仙霞路80号(遵义路口)"},{"poiid":"B2094757D06FA1F4419B","title":"Hooters（尚嘉店）","lon":"121.406715","lat":"31.20558","category":"94","category_name":"西餐厅","address":"上海市仙霞路99号尚嘉中心三层"},{"poiid":"B2094757D06FA2FE429E","title":"新元素餐厅 Element Fresh 古北店(上海嘉顿广场)","lon":"121.40749","lat":"31.202811","category":"260","category_name":"其他","address":"延安西路2088号虹桥嘉顿广场1楼近伊犁路"},{"poiid":"B2094757D66CA3F5429E","title":"奥巴马会所","lon":"121.40724958","lat":"31.202753893","category":"500","category_name":"未知分类","address":"上海市娄山关路"},{"poiid":"B2094757D06FA6FA429E","title":"来天华(万都店)","lon":"121.40542","lat":"31.204","category":"76","category_name":"上海菜","address":"上海长宁区兴义路8号万都中心大厦4楼(近遵义路)  "},{"poiid":"B2094757D06FA6F44992","title":"俏江南(虹桥店)","lon":"121.40777","lat":"31.20641","category":"71","category_name":"四川菜","address":"长宁区遵义路100号上海城外围街B7B8(紫云西路口)"},{"poiid":"B2094757D06FA3F84599","title":"顺风大酒店(长宁店)","lon":"121.40805","lat":"31.20687","category":"75","category_name":"浙江菜","address":"长宁区遵义路100号上海城6楼(紫云西路口)"},{"poiid":"B2094751D46BA4FA4498","title":"cat &coffee","lon":"121.40764524098302","lat":"31.20339909727332","category":"65","category_name":"咖啡厅","address":"长宁区延安西路2077号金桥大厦702室"},{"poiid":"B2094757D06FA5F44692","title":"丸山","lon":"121.40541","lat":"31.20434","category":"95","category_name":"日本料理","address":"长宁区兴义路8号万都中心大厦2楼(近遵义路)"},{"poiid":"B2094757D06FA2F8419E","title":"虹桥友谊商城","lon":"121.40708061","lat":"31.202889779","category":"119","category_name":"商场","address":"长宁区遵义南路6号(近仙霞路)"},{"poiid":"B2094654DB64A7FA469B","title":"协泰中心阿一鲍鱼富临海鲜酒家","lon":"121.40624","lat":"31.20427","category":"88","category_name":"海鲜酒楼","address":"长宁区遵义南路88号协泰中心2楼(近仙霞路)"},{"poiid":"B2094654DB6BA7FE4393","title":"澳门豆捞坊(仲盛金融中心)","lon":"121.40811","lat":"31.20396","category":"86","category_name":"火锅店","address":"长宁区延安西路2067号仲盛金融中心2楼(近仙霞路)"},{"poiid":"B2094655D269A4FA4192","title":"哈根达斯 仙霞店 Haagen-Dazs","lon":"121.406970054","lat":"31.202718793","category":"67","category_name":"甜品店","address":"长宁区遵义南路6号虹桥友谊商城1楼(近仙霞路)"},{"poiid":"B2094757D069A7F44493","title":"青叶家","lon":"121.40830655","lat":"31.20325346","category":"95","category_name":"日本料理","address":"长宁区延安西路2071弄9号金桥大厦1楼(近仙霞路)"},{"poiid":"B2094654D56BA5FA459A","title":"交通银行大厦","lon":"121.40772","lat":"31.2043","category":"46","category_name":"楼宇","address":"仙霞路18"},{"poiid":"B209475DD46EA1F4439A","title":"校村Kyochon","lon":"121.407463","lat":"31.202987","category":"247","category_name":"餐饮美食","address":"上海市 上海长宁区延安西路2088号二楼A223单元"},{"poiid":"B209475CD26FA3F8479A","title":"尚嘉中心","lon":"121.407524","lat":"31.206077","category":"500","category_name":"未知分类","address":"上海市 仙霞路99号"},{"poiid":"B2094757D06FA7F9459B","title":"COSTA COFFEE(虹桥百盛店)","lon":"121.40807","lat":"31.20681","category":"65","category_name":"咖啡厅","address":"长宁区遵义路100号上海城2楼2-18单元(紫云西路口)"},{"poiid":"B2094757D464A7FE4492","title":"新元素 嘉顿广场店 Element Fresh","lon":"121.407514054","lat":"31.202745793","category":"101","category_name":"美式风味","address":"长宁区延安西路2088号虹桥嘉顿广场1楼(近伊犁路)"},{"poiid":"B2094757D06AABFE499C","title":"三泰养生铁板烧","lon":"121.40899658","lat":"31.20170021","category":"94","category_name":"西餐厅","address":"长宁区伊犁路135号(近安顺路)"},{"poiid":"B2094757D06BA1F4469C","title":"望湘园(天山店)","lon":"121.407584505","lat":"31.2068271705","category":"500","category_name":"未知分类","address":"长宁区天山路789号百盛购物中心B座5楼(近娄山关路)"},{"poiid":"B2094757D065A7FD479E","title":"青叶家日本料理","lon":"121.408083086","lat":"31.2018559762","category":"500","category_name":"未知分类","address":"上海延安西路2077号金桥大厦一楼"},{"poiid":"B2094655D26AA7FB469E","title":"一兆韦德虹桥店","lon":"121.41033","lat":"31.20403","category":"247","category_name":"餐饮美食","address":"长宁区延安西路2000号虹桥宾馆3楼(近中山西路)"},{"poiid":"B2094750DB65AAF44393","title":"初花日本料理","lon":"121.406784","lat":"31.202966","category":"500","category_name":"未知分类","address":"虹桥路1446号古北湾大酒店三楼"},{"poiid":"B2094757D069A1FB4298","title":"GUSTO","lon":"121.407469","lat":"31.20234","category":"94","category_name":"西餐厅","address":"长宁区延安西路2088号A102-103嘉顿广场1楼(遵义路与伊犁路间)"},{"poiid":"B2094757D068AAFA489C","title":"新锦亭酒家","lon":"121.40666796","lat":"31.20411292","category":"76","category_name":"上海菜","address":"长宁区遵义南路8号锦明大厦1楼(喜来登太平洋大饭店对面)"},{"poiid":"B2094757D068ABFF479E","title":"致真酒家 虹桥店 Sincere Restaurant","lon":"121.405162054","lat":"31.204260793","category":"76","category_name":"上海菜","address":"长宁区兴义路8号万都中心大厦2楼(近遵义路)"},{"poiid":"B2094757D06FA1FC409B","title":"斗香园(遵义路店)","lon":"121.40731","lat":"31.20675","category":"257","category_name":"中餐厅","address":"长宁区遵义路100号虹桥百盛风味坊(紫云西路口)"},{"poiid":"B2094751D26DA0FE409A","title":"古北国际财富中心二期","lon":"121.41","lat":"31.2036","category":"252","category_name":"楼宇机构","address":"红宝石路200号"},{"poiid":"B2094757D06BA3F9439D","title":"会津まる家","lon":"121.406061054","lat":"31.204395793","category":"95","category_name":"日本料理","address":"长宁区遵义南路88号协泰中心1楼(近仙霞路)"},{"poiid":"B2094454D26EA4F44393","title":"kyochon1991校村","lon":"121.406936","lat":"31.202878","category":"247","category_name":"餐饮美食","address":"上海市 延安西路2088号嘉顿商业广场1幢2层A223(伊犁路)"},{"poiid":"B2094655D26AA1F5449D","title":"扬子江万丽酒店宴会厅","lon":"121.40583","lat":"31.20294","category":"247","category_name":"餐饮美食","address":"长宁区延安西路2099号扬子江万丽大酒店内(娄山关路延安西路)查看地图"},{"poiid":"B2094753D765A0FC489F","title":"糯美人韩国年糕火锅","lon":"121.408226","lat":"31.204523","category":"96","category_name":"韩国料理","address":"长宁区仙霞路8号仲盛金融中心2楼(近延安西路口)"},{"poiid":"B2094655D26FA6FB409A","title":"汉庭快捷(伊犁路店)","lon":"121.40904","lat":"31.20235","category":"216","category_name":"经济型连锁酒店","address":"上海市长宁区伊犁路158号(近安顺路)"},{"poiid":"B2094757D16AA2F44698","title":"和之美","lon":"121.40867363","lat":"31.20410942","category":"95","category_name":"日本料理","address":"长宁区仙霞路1号(近延安西路)"},{"poiid":"B2094757D069A1FA439E","title":"Obama","lon":"121.40784818","lat":"31.202628661","category":"172","category_name":"酒吧","address":"上海伊犁路"},{"poiid":"B2094757D065A4F8439C","title":"和さ美(仙霞路店)","lon":"121.40827","lat":"31.20412","category":"95","category_name":"日本料理","address":"长宁区仙霞路1号(近延安西路)"},{"poiid":"B2094654DB65A0FA429F","title":"钵泉日本料理","lon":"121.40725212194","lat":"31.203228941799","category":"95","category_name":"日本料理","address":"长宁区延安西路2077号金桥大厦209B(近仙霞路)"},{"poiid":"B2094757D068A0FD489C","title":"新鲜生活","lon":"121.408667","lat":"31.204266","category":"113","category_name":"冷饮店","address":"上海长宁区仙霞路8号仲盛金融中心一楼(近延安西路)"},{"poiid":"B2094757D16FA3F54392","title":"中国银行","lon":"121.40853171","lat":"31.203635","category":"150","category_name":"银行","address":"上海延安西路2067号"},{"poiid":"B2094655D26FA7FA449E","title":"仲盛金融中心(北二门)","lon":"121.40857","lat":"31.20422","category":"46","category_name":"楼宇","address":"仙霞路8"},{"poiid":"B2094757D065A4FB4898","title":"城日本料理","lon":"121.4104","lat":"31.20364","category":"95","category_name":"日本料理","address":"长宁区延安西路2000号虹桥宾馆1号门1楼(近中山西路)"},{"poiid":"B209475DD26CA4F44192","title":"有喜屋居酒屋","lon":"121.408012","lat":"31.20367","category":"247","category_name":"餐饮美食","address":"上海市 延安西路2073号M101室"},{"poiid":"B2094655D26DA5F9439C","title":"可的","lon":"121.40812","lat":"31.20395","category":"117","category_name":"便民商店/便利店","address":"仙霞路8号仲盛金融中心"},{"poiid":"B2094655D26EA5FE429E","title":"两岸咖啡(仙霞路店)","lon":"121.40843","lat":"31.20411","category":"65","category_name":"咖啡厅","address":"长宁区仙霞路8号仲盛金融中心2楼"},{"poiid":"B2094757D66CA4F9409C","title":"上菜上海菜","lon":"121.408509","lat":"31.204064","category":"247","category_name":"餐饮美食","address":"上海市闵行区莘庄镇仲盛二楼"},{"poiid":"B2094757D06FA1FD419C","title":"上海扬子江万丽大酒店","lon":"121.40616858","lat":"31.203131901","category":"213","category_name":"五星级宾馆","address":"上海市长宁区延安西路2099号(近遵义路)"},{"poiid":"B2094757D06FA6FB479D","title":"柚子(虹桥店)","lon":"121.40877","lat":"31.20379","category":"95","category_name":"日本料理","address":"长宁区仙霞路8号仲盛金融中心2楼"},{"poiid":"B2094655D26EA5FD4099","title":"虹桥宾馆","lon":"121.41060904662709","lat":"31.20369027936784","category":"214","category_name":"四星级宾馆","address":"上海市长宁区延安西路2000号(近中山西路口)"},{"poiid":"B2094757D06EAAFD429F","title":"虹桥喜来登上海太平洋大饭店 (Sheraton Shanghai Hongqiao Hotel)","lon":"121.405649611","lat":"31.2031937833","category":"217","category_name":"旅馆招待所","address":"长宁区遵义南路5号(近兴义路)"},{"poiid":"B2094757D06FA6FD419F","title":"王品台塑牛排(仙霞店)","lon":"121.406229855","lat":"31.2048639751","category":"94","category_name":"西餐厅","address":"长宁区仙霞路80号(遵义路口)"},{"poiid":"B2094757D06FA1F4419B","title":"Hooters（尚嘉店）","lon":"121.406715","lat":"31.20558","category":"94","category_name":"西餐厅","address":"上海市仙霞路99号尚嘉中心三层"},{"poiid":"B2094757D06FA2FE429E","title":"新元素餐厅 Element Fresh 古北店(上海嘉顿广场)","lon":"121.40749","lat":"31.202811","category":"260","category_name":"其他","address":"延安西路2088号虹桥嘉顿广场1楼近伊犁路"},{"poiid":"B2094757D66CA3F5429E","title":"奥巴马会所","lon":"121.40724958","lat":"31.202753893","category":"500","category_name":"未知分类","address":"上海市娄山关路"},{"poiid":"B2094757D06FA6FA429E","title":"来天华(万都店)","lon":"121.40542","lat":"31.204","category":"76","category_name":"上海菜","address":"上海长宁区兴义路8号万都中心大厦4楼(近遵义路)  "},{"poiid":"B2094757D06FA6F44992","title":"俏江南(虹桥店)","lon":"121.40777","lat":"31.20641","category":"71","category_name":"四川菜","address":"长宁区遵义路100号上海城外围街B7B8(紫云西路口)"},{"poiid":"B2094757D06FA3F84599","title":"顺风大酒店(长宁店)","lon":"121.40805","lat":"31.20687","category":"75","category_name":"浙江菜","address":"长宁区遵义路100号上海城6楼(紫云西路口)"},{"poiid":"B2094751D46BA4FA4498","title":"cat &coffee","lon":"121.40764524098302","lat":"31.20339909727332","category":"65","category_name":"咖啡厅","address":"长宁区延安西路2077号金桥大厦702室"},{"poiid":"B2094757D06FA5F44692","title":"丸山","lon":"121.40541","lat":"31.20434","category":"95","category_name":"日本料理","address":"长宁区兴义路8号万都中心大厦2楼(近遵义路)"},{"poiid":"B2094757D06FA2F8419E","title":"虹桥友谊商城","lon":"121.40708061","lat":"31.202889779","category":"119","category_name":"商场","address":"长宁区遵义南路6号(近仙霞路)"},{"poiid":"B2094654DB64A7FA469B","title":"协泰中心阿一鲍鱼富临海鲜酒家","lon":"121.40624","lat":"31.20427","category":"88","category_name":"海鲜酒楼","address":"长宁区遵义南路88号协泰中心2楼(近仙霞路)"},{"poiid":"B2094654DB6BA7FE4393","title":"澳门豆捞坊(仲盛金融中心)","lon":"121.40811","lat":"31.20396","category":"86","category_name":"火锅店","address":"长宁区延安西路2067号仲盛金融中心2楼(近仙霞路)"},{"poiid":"B2094655D269A4FA4192","title":"哈根达斯 仙霞店 Haagen-Dazs","lon":"121.406970054","lat":"31.202718793","category":"67","category_name":"甜品店","address":"长宁区遵义南路6号虹桥友谊商城1楼(近仙霞路)"},{"poiid":"B2094757D069A7F44493","title":"青叶家","lon":"121.40830655","lat":"31.20325346","category":"95","category_name":"日本料理","address":"长宁区延安西路2071弄9号金桥大厦1楼(近仙霞路)"},{"poiid":"B2094654D56BA5FA459A","title":"交通银行大厦","lon":"121.40772","lat":"31.2043","category":"46","category_name":"楼宇","address":"仙霞路18"},{"poiid":"B209475DD46EA1F4439A","title":"校村Kyochon","lon":"121.407463","lat":"31.202987","category":"247","category_name":"餐饮美食","address":"上海市 上海长宁区延安西路2088号二楼A223单元"},{"poiid":"B209475CD26FA3F8479A","title":"尚嘉中心","lon":"121.407524","lat":"31.206077","category":"500","category_name":"未知分类","address":"上海市 仙霞路99号"},{"poiid":"B2094757D06FA7F9459B","title":"COSTA COFFEE(虹桥百盛店)","lon":"121.40807","lat":"31.20681","category":"65","category_name":"咖啡厅","address":"长宁区遵义路100号上海城2楼2-18单元(紫云西路口)"},{"poiid":"B2094757D464A7FE4492","title":"新元素 嘉顿广场店 Element Fresh","lon":"121.407514054","lat":"31.202745793","category":"101","category_name":"美式风味","address":"长宁区延安西路2088号虹桥嘉顿广场1楼(近伊犁路)"},{"poiid":"B2094757D06AABFE499C","title":"三泰养生铁板烧","lon":"121.40899658","lat":"31.20170021","category":"94","category_name":"西餐厅","address":"长宁区伊犁路135号(近安顺路)"},{"poiid":"B2094757D06BA1F4469C","title":"望湘园(天山店)","lon":"121.407584505","lat":"31.2068271705","category":"500","category_name":"未知分类","address":"长宁区天山路789号百盛购物中心B座5楼(近娄山关路)"},{"poiid":"B2094757D065A7FD479E","title":"青叶家日本料理","lon":"121.408083086","lat":"31.2018559762","category":"500","category_name":"未知分类","address":"上海延安西路2077号金桥大厦一楼"},{"poiid":"B2094655D26AA7FB469E","title":"一兆韦德虹桥店","lon":"121.41033","lat":"31.20403","category":"247","category_name":"餐饮美食","address":"长宁区延安西路2000号虹桥宾馆3楼(近中山西路)"},{"poiid":"B2094750DB65AAF44393","title":"初花日本料理","lon":"121.406784","lat":"31.202966","category":"500","category_name":"未知分类","address":"虹桥路1446号古北湾大酒店三楼"},{"poiid":"B2094757D069A1FB4298","title":"GUSTO","lon":"121.407469","lat":"31.20234","category":"94","category_name":"西餐厅","address":"长宁区延安西路2088号A102-103嘉顿广场1楼(遵义路与伊犁路间)"},{"poiid":"B2094757D068AAFA489C","title":"新锦亭酒家","lon":"121.40666796","lat":"31.20411292","category":"76","category_name":"上海菜","address":"长宁区遵义南路8号锦明大厦1楼(喜来登太平洋大饭店对面)"},{"poiid":"B2094757D068ABFF479E","title":"致真酒家 虹桥店 Sincere Restaurant","lon":"121.405162054","lat":"31.204260793","category":"76","category_name":"上海菜","address":"长宁区兴义路8号万都中心大厦2楼(近遵义路)"},{"poiid":"B2094757D06FA1FC409B","title":"斗香园(遵义路店)","lon":"121.40731","lat":"31.20675","category":"257","category_name":"中餐厅","address":"长宁区遵义路100号虹桥百盛风味坊(紫云西路口)"},{"poiid":"B2094751D26DA0FE409A","title":"古北国际财富中心二期","lon":"121.41","lat":"31.2036","category":"252","category_name":"楼宇机构","address":"红宝石路200号"},{"poiid":"B2094757D06BA3F9439D","title":"会津まる家","lon":"121.406061054","lat":"31.204395793","category":"95","category_name":"日本料理","address":"长宁区遵义南路88号协泰中心1楼(近仙霞路)"},{"poiid":"B2094454D26EA4F44393","title":"kyochon1991校村","lon":"121.406936","lat":"31.202878","category":"247","category_name":"餐饮美食","address":"上海市 延安西路2088号嘉顿商业广场1幢2层A223(伊犁路)"},{"poiid":"B2094655D26AA1F5449D","title":"扬子江万丽酒店宴会厅","lon":"121.40583","lat":"31.20294","category":"247","category_name":"餐饮美食","address":"长宁区延安西路2099号扬子江万丽大酒店内(娄山关路延安西路)查看地图"},{"poiid":"B2094753D765A0FC489F","title":"糯美人韩国年糕火锅","lon":"121.408226","lat":"31.204523","category":"96","category_name":"韩国料理","address":"长宁区仙霞路8号仲盛金融中心2楼(近延安西路口)"},{"poiid":"B2094655D26FA6FB409A","title":"汉庭快捷(伊犁路店)","lon":"121.40904","lat":"31.20235","category":"216","category_name":"经济型连锁酒店","address":"上海市长宁区伊犁路158号(近安顺路)"},{"poiid":"B2094757D16AA2F44698","title":"和之美","lon":"121.40867363","lat":"31.20410942","category":"95","category_name":"日本料理","address":"长宁区仙霞路1号(近延安西路)"},{"poiid":"B2094757D069A1FA439E","title":"Obama","lon":"121.40784818","lat":"31.202628661","category":"172","category_name":"酒吧","address":"上海伊犁路"},{"poiid":"B2094757D065A4F8439C","title":"和さ美(仙霞路店)","lon":"121.40827","lat":"31.20412","category":"95","category_name":"日本料理","address":"长宁区仙霞路1号(近延安西路)"},{"poiid":"B2094654DB65A0FA429F","title":"钵泉日本料理","lon":"121.40725212194","lat":"31.203228941799","category":"95","category_name":"日本料理","address":"长宁区延安西路2077号金桥大厦209B(近仙霞路)"},{"poiid":"B2094757D068A0FD489C","title":"新鲜生活","lon":"121.408667","lat":"31.204266","category":"113","category_name":"冷饮店","address":"上海长宁区仙霞路8号仲盛金融中心一楼(近延安西路)"},{"poiid":"B2094757D16FA3F54392","title":"中国银行","lon":"121.40853171","lat":"31.203635","category":"150","category_name":"银行","address":"上海延安西路2067号"},{"poiid":"B2094655D26FA7FA449E","title":"仲盛金融中心(北二门)","lon":"121.40857","lat":"31.20422","category":"46","category_name":"楼宇","address":"仙霞路8"},{"poiid":"B2094757D065A4FB4898","title":"城日本料理","lon":"121.4104","lat":"31.20364","category":"95","category_name":"日本料理","address":"长宁区延安西路2000号虹桥宾馆1号门1楼(近中山西路)"},{"poiid":"B209475DD26CA4F44192","title":"有喜屋居酒屋","lon":"121.408012","lat":"31.20367","category":"247","category_name":"餐饮美食","address":"上海市 延安西路2073号M101室"},{"poiid":"B2094655D26DA5F9439C","title":"可的","lon":"121.40812","lat":"31.20395","category":"117","category_name":"便民商店/便利店","address":"仙霞路8号仲盛金融中心"},{"poiid":"B2094655D26EA5FE429E","title":"两岸咖啡(仙霞路店)","lon":"121.40843","lat":"31.20411","category":"65","category_name":"咖啡厅","address":"长宁区仙霞路8号仲盛金融中心2楼"},{"poiid":"B2094757D66CA4F9409C","title":"上菜上海菜","lon":"121.408509","lat":"31.204064","category":"247","category_name":"餐饮美食","address":"上海市闵行区莘庄镇仲盛二楼"},{"poiid":"B2094757D06FA1FD419C","title":"上海扬子江万丽大酒店","lon":"121.40616858","lat":"31.203131901","category":"213","category_name":"五星级宾馆","address":"上海市长宁区延安西路2099号(近遵义路)"},{"poiid":"B2094757D06FA6FB479D","title":"柚子(虹桥店)","lon":"121.40877","lat":"31.20379","category":"95","category_name":"日本料理","address":"长宁区仙霞路8号仲盛金融中心2楼"},{"poiid":"B2094655D26EA5FD4099","title":"虹桥宾馆","lon":"121.41060904662709","lat":"31.20369027936784","category":"214","category_name":"四星级宾馆","address":"上海市长宁区延安西路2000号(近中山西路口)"},{"poiid":"B2094757D06EAAFD429F","title":"虹桥喜来登上海太平洋大饭店 (Sheraton Shanghai Hongqiao Hotel)","lon":"121.405649611","lat":"31.2031937833","category":"217","category_name":"旅馆招待所","address":"长宁区遵义南路5号(近兴义路)"},{"poiid":"B2094757D06FA6FD419F","title":"王品台塑牛排(仙霞店)","lon":"121.406229855","lat":"31.2048639751","category":"94","category_name":"西餐厅","address":"长宁区仙霞路80号(遵义路口)"},{"poiid":"B2094757D06FA1F4419B","title":"Hooters（尚嘉店）","lon":"121.406715","lat":"31.20558","category":"94","category_name":"西餐厅","address":"上海市仙霞路99号尚嘉中心三层"},{"poiid":"B2094757D06FA2FE429E","title":"新元素餐厅 Element Fresh 古北店(上海嘉顿广场)","lon":"121.40749","lat":"31.202811","category":"260","category_name":"其他","address":"延安西路2088号虹桥嘉顿广场1楼近伊犁路"},{"poiid":"B2094757D66CA3F5429E","title":"奥巴马会所","lon":"121.40724958","lat":"31.202753893","category":"500","category_name":"未知分类","address":"上海市娄山关路"},{"poiid":"B2094757D06FA6FA429E","title":"来天华(万都店)","lon":"121.40542","lat":"31.204","category":"76","category_name":"上海菜","address":"上海长宁区兴义路8号万都中心大厦4楼(近遵义路)  "},{"poiid":"B2094757D06FA6F44992","title":"俏江南(虹桥店)","lon":"121.40777","lat":"31.20641","category":"71","category_name":"四川菜","address":"长宁区遵义路100号上海城外围街B7B8(紫云西路口)"},{"poiid":"B2094757D06FA3F84599","title":"顺风大酒店(长宁店)","lon":"121.40805","lat":"31.20687","category":"75","category_name":"浙江菜","address":"长宁区遵义路100号上海城6楼(紫云西路口)"},{"poiid":"B2094751D46BA4FA4498","title":"cat &coffee","lon":"121.40764524098302","lat":"31.20339909727332","category":"65","category_name":"咖啡厅","address":"长宁区延安西路2077号金桥大厦702室"},{"poiid":"B2094757D06FA5F44692","title":"丸山","lon":"121.40541","lat":"31.20434","category":"95","category_name":"日本料理","address":"长宁区兴义路8号万都中心大厦2楼(近遵义路)"},{"poiid":"B2094757D06FA2F8419E","title":"虹桥友谊商城","lon":"121.40708061","lat":"31.202889779","category":"119","category_name":"商场","address":"长宁区遵义南路6号(近仙霞路)"},{"poiid":"B2094654DB64A7FA469B","title":"协泰中心阿一鲍鱼富临海鲜酒家","lon":"121.40624","lat":"31.20427","category":"88","category_name":"海鲜酒楼","address":"长宁区遵义南路88号协泰中心2楼(近仙霞路)"},{"poiid":"B2094654DB6BA7FE4393","title":"澳门豆捞坊(仲盛金融中心)","lon":"121.40811","lat":"31.20396","category":"86","category_name":"火锅店","address":"长宁区延安西路2067号仲盛金融中心2楼(近仙霞路)"},{"poiid":"B2094655D269A4FA4192","title":"哈根达斯 仙霞店 Haagen-Dazs","lon":"121.406970054","lat":"31.202718793","category":"67","category_name":"甜品店","address":"长宁区遵义南路6号虹桥友谊商城1楼(近仙霞路)"},{"poiid":"B2094757D069A7F44493","title":"青叶家","lon":"121.40830655","lat":"31.20325346","category":"95","category_name":"日本料理","address":"长宁区延安西路2071弄9号金桥大厦1楼(近仙霞路)"},{"poiid":"B2094654D56BA5FA459A","title":"交通银行大厦","lon":"121.40772","lat":"31.2043","category":"46","category_name":"楼宇","address":"仙霞路18"},{"poiid":"B209475DD46EA1F4439A","title":"校村Kyochon","lon":"121.407463","lat":"31.202987","category":"247","category_name":"餐饮美食","address":"上海市 上海长宁区延安西路2088号二楼A223单元"},{"poiid":"B209475CD26FA3F8479A","title":"尚嘉中心","lon":"121.407524","lat":"31.206077","category":"500","category_name":"未知分类","address":"上海市 仙霞路99号"},{"poiid":"B2094757D06FA7F9459B","title":"COSTA COFFEE(虹桥百盛店)","lon":"121.40807","lat":"31.20681","category":"65","category_name":"咖啡厅","address":"长宁区遵义路100号上海城2楼2-18单元(紫云西路口)"},{"poiid":"B2094757D464A7FE4492","title":"新元素 嘉顿广场店 Element Fresh","lon":"121.407514054","lat":"31.202745793","category":"101","category_name":"美式风味","address":"长宁区延安西路2088号虹桥嘉顿广场1楼(近伊犁路)"},{"poiid":"B2094757D06AABFE499C","title":"三泰养生铁板烧","lon":"121.40899658","lat":"31.20170021","category":"94","category_name":"西餐厅","address":"长宁区伊犁路135号(近安顺路)"},{"poiid":"B2094757D06BA1F4469C","title":"望湘园(天山店)","lon":"121.407584505","lat":"31.2068271705","category":"500","category_name":"未知分类","address":"长宁区天山路789号百盛购物中心B座5楼(近娄山关路)"},{"poiid":"B2094757D065A7FD479E","title":"青叶家日本料理","lon":"121.408083086","lat":"31.2018559762","category":"500","category_name":"未知分类","address":"上海延安西路2077号金桥大厦一楼"},{"poiid":"B2094655D26AA7FB469E","title":"一兆韦德虹桥店","lon":"121.41033","lat":"31.20403","category":"247","category_name":"餐饮美食","address":"长宁区延安西路2000号虹桥宾馆3楼(近中山西路)"},{"poiid":"B2094750DB65AAF44393","title":"初花日本料理","lon":"121.406784","lat":"31.202966","category":"500","category_name":"未知分类","address":"虹桥路1446号古北湾大酒店三楼"},{"poiid":"B2094757D069A1FB4298","title":"GUSTO","lon":"121.407469","lat":"31.20234","category":"94","category_name":"西餐厅","address":"长宁区延安西路2088号A102-103嘉顿广场1楼(遵义路与伊犁路间)"},{"poiid":"B2094757D068AAFA489C","title":"新锦亭酒家","lon":"121.40666796","lat":"31.20411292","category":"76","category_name":"上海菜","address":"长宁区遵义南路8号锦明大厦1楼(喜来登太平洋大饭店对面)"},{"poiid":"B2094757D068ABFF479E","title":"致真酒家 虹桥店 Sincere Restaurant","lon":"121.405162054","lat":"31.204260793","category":"76","category_name":"上海菜","address":"长宁区兴义路8号万都中心大厦2楼(近遵义路)"},{"poiid":"B2094757D06FA1FC409B","title":"斗香园(遵义路店)","lon":"121.40731","lat":"31.20675","category":"257","category_name":"中餐厅","address":"长宁区遵义路100号虹桥百盛风味坊(紫云西路口)"},{"poiid":"B2094751D26DA0FE409A","title":"古北国际财富中心二期","lon":"121.41","lat":"31.2036","category":"252","category_name":"楼宇机构","address":"红宝石路200号"},{"poiid":"B2094757D06BA3F9439D","title":"会津まる家","lon":"121.406061054","lat":"31.204395793","category":"95","category_name":"日本料理","address":"长宁区遵义南路88号协泰中心1楼(近仙霞路)"},{"poiid":"B2094454D26EA4F44393","title":"kyochon1991校村","lon":"121.406936","lat":"31.202878","category":"247","category_name":"餐饮美食","address":"上海市 延安西路2088号嘉顿商业广场1幢2层A223(伊犁路)"},{"poiid":"B2094655D26AA1F5449D","title":"扬子江万丽酒店宴会厅","lon":"121.40583","lat":"31.20294","category":"247","category_name":"餐饮美食","address":"长宁区延安西路2099号扬子江万丽大酒店内(娄山关路延安西路)查看地图"},{"poiid":"B2094753D765A0FC489F","title":"糯美人韩国年糕火锅","lon":"121.408226","lat":"31.204523","category":"96","category_name":"韩国料理","address":"长宁区仙霞路8号仲盛金融中心2楼(近延安西路口)"},{"poiid":"B2094655D26FA6FB409A","title":"汉庭快捷(伊犁路店)","lon":"121.40904","lat":"31.20235","category":"216","category_name":"经济型连锁酒店","address":"上海市长宁区伊犁路158号(近安顺路)"},{"poiid":"B2094757D16AA2F44698","title":"和之美","lon":"121.40867363","lat":"31.20410942","category":"95","category_name":"日本料理","address":"长宁区仙霞路1号(近延安西路)"},{"poiid":"B2094757D069A1FA439E","title":"Obama","lon":"121.40784818","lat":"31.202628661","category":"172","category_name":"酒吧","address":"上海伊犁路"},{"poiid":"B2094757D065A4F8439C","title":"和さ美(仙霞路店)","lon":"121.40827","lat":"31.20412","category":"95","category_name":"日本料理","address":"长宁区仙霞路1号(近延安西路)"},{"poiid":"B2094654DB65A0FA429F","title":"钵泉日本料理","lon":"121.40725212194","lat":"31.203228941799","category":"95","category_name":"日本料理","address":"长宁区延安西路2077号金桥大厦209B(近仙霞路)"},{"poiid":"B2094757D068A0FD489C","title":"新鲜生活","lon":"121.408667","lat":"31.204266","category":"113","category_name":"冷饮店","address":"上海长宁区仙霞路8号仲盛金融中心一楼(近延安西路)"},{"poiid":"B2094757D16FA3F54392","title":"中国银行","lon":"121.40853171","lat":"31.203635","category":"150","category_name":"银行","address":"上海延安西路2067号"},{"poiid":"B2094655D26FA7FA449E","title":"仲盛金融中心(北二门)","lon":"121.40857","lat":"31.20422","category":"46","category_name":"楼宇","address":"仙霞路8"},{"poiid":"B2094757D065A4FB4898","title":"城日本料理","lon":"121.4104","lat":"31.20364","category":"95","category_name":"日本料理","address":"长宁区延安西路2000号虹桥宾馆1号门1楼(近中山西路)"},{"poiid":"B209475DD26CA4F44192","title":"有喜屋居酒屋","lon":"121.408012","lat":"31.20367","category":"247","category_name":"餐饮美食","address":"上海市 延安西路2073号M101室"},{"poiid":"B2094655D26DA5F9439C","title":"可的","lon":"121.40812","lat":"31.20395","category":"117","category_name":"便民商店/便利店","address":"仙霞路8号仲盛金融中心"},{"poiid":"B2094655D26EA5FE429E","title":"两岸咖啡(仙霞路店)","lon":"121.40843","lat":"31.20411","category":"65","category_name":"咖啡厅","address":"长宁区仙霞路8号仲盛金融中心2楼"},{"poiid":"B2094757D66CA4F9409C","title":"上菜上海菜","lon":"121.408509","lat":"31.204064","category":"247","category_name":"餐饮美食","address":"上海市闵行区莘庄镇仲盛二楼"},{"poiid":"B2094757D06FA1FD419C","title":"上海扬子江万丽大酒店","lon":"121.40616858","lat":"31.203131901","category":"213","category_name":"五星级宾馆","address":"上海市长宁区延安西路2099号(近遵义路)"},{"poiid":"B2094757D06FA6FB479D","title":"柚子(虹桥店)","lon":"121.40877","lat":"31.20379","category":"95","category_name":"日本料理","address":"长宁区仙霞路8号仲盛金融中心2楼"},{"poiid":"B2094655D26EA5FD4099","title":"虹桥宾馆","lon":"121.41060904662709","lat":"31.20369027936784","category":"214","category_name":"四星级宾馆","address":"上海市长宁区延安西路2000号(近中山西路口)"},{"poiid":"B2094757D06EAAFD429F","title":"虹桥喜来登上海太平洋大饭店 (Sheraton Shanghai Hongqiao Hotel)","lon":"121.405649611","lat":"31.2031937833","category":"217","category_name":"旅馆招待所","address":"长宁区遵义南路5号(近兴义路)"},{"poiid":"B2094757D06FA6FD419F","title":"王品台塑牛排(仙霞店)","lon":"121.406229855","lat":"31.2048639751","category":"94","category_name":"西餐厅","address":"长宁区仙霞路80号(遵义路口)"},{"poiid":"B2094757D06FA1F4419B","title":"Hooters（尚嘉店）","lon":"121.406715","lat":"31.20558","category":"94","category_name":"西餐厅","address":"上海市仙霞路99号尚嘉中心三层"},{"poiid":"B2094757D06FA2FE429E","title":"新元素餐厅 Element Fresh 古北店(上海嘉顿广场)","lon":"121.40749","lat":"31.202811","category":"260","category_name":"其他","address":"延安西路2088号虹桥嘉顿广场1楼近伊犁路"},{"poiid":"B2094757D66CA3F5429E","title":"奥巴马会所","lon":"121.40724958","lat":"31.202753893","category":"500","category_name":"未知分类","address":"上海市娄山关路"},{"poiid":"B2094757D06FA6FA429E","title":"来天华(万都店)","lon":"121.40542","lat":"31.204","category":"76","category_name":"上海菜","address":"上海长宁区兴义路8号万都中心大厦4楼(近遵义路)  "},{"poiid":"B2094757D06FA6F44992","title":"俏江南(虹桥店)","lon":"121.40777","lat":"31.20641","category":"71","category_name":"四川菜","address":"长宁区遵义路100号上海城外围街B7B8(紫云西路口)"},{"poiid":"B2094757D06FA3F84599","title":"顺风大酒店(长宁店)","lon":"121.40805","lat":"31.20687","category":"75","category_name":"浙江菜","address":"长宁区遵义路100号上海城6楼(紫云西路口)"},{"poiid":"B2094751D46BA4FA4498","title":"cat &coffee","lon":"121.40764524098302","lat":"31.20339909727332","category":"65","category_name":"咖啡厅","address":"长宁区延安西路2077号金桥大厦702室"},{"poiid":"B2094757D06FA5F44692","title":"丸山","lon":"121.40541","lat":"31.20434","category":"95","category_name":"日本料理","address":"长宁区兴义路8号万都中心大厦2楼(近遵义路)"},{"poiid":"B2094757D06FA2F8419E","title":"虹桥友谊商城","lon":"121.40708061","lat":"31.202889779","category":"119","category_name":"商场","address":"长宁区遵义南路6号(近仙霞路)"},{"poiid":"B2094654DB64A7FA469B","title":"协泰中心阿一鲍鱼富临海鲜酒家","lon":"121.40624","lat":"31.20427","category":"88","category_name":"海鲜酒楼","address":"长宁区遵义南路88号协泰中心2楼(近仙霞路)"},{"poiid":"B2094654DB6BA7FE4393","title":"澳门豆捞坊(仲盛金融中心)","lon":"121.40811","lat":"31.20396","category":"86","category_name":"火锅店","address":"长宁区延安西路2067号仲盛金融中心2楼(近仙霞路)"},{"poiid":"B2094655D269A4FA4192","title":"哈根达斯 仙霞店 Haagen-Dazs","lon":"121.406970054","lat":"31.202718793","category":"67","category_name":"甜品店","address":"长宁区遵义南路6号虹桥友谊商城1楼(近仙霞路)"},{"poiid":"B2094757D069A7F44493","title":"青叶家","lon":"121.40830655","lat":"31.20325346","category":"95","category_name":"日本料理","address":"长宁区延安西路2071弄9号金桥大厦1楼(近仙霞路)"},{"poiid":"B2094654D56BA5FA459A","title":"交通银行大厦","lon":"121.40772","lat":"31.2043","category":"46","category_name":"楼宇","address":"仙霞路18"},{"poiid":"B209475DD46EA1F4439A","title":"校村Kyochon","lon":"121.407463","lat":"31.202987","category":"247","category_name":"餐饮美食","address":"上海市 上海长宁区延安西路2088号二楼A223单元"},{"poiid":"B209475CD26FA3F8479A","title":"尚嘉中心","lon":"121.407524","lat":"31.206077","category":"500","category_name":"未知分类","address":"上海市 仙霞路99号"},{"poiid":"B2094757D06FA7F9459B","title":"COSTA COFFEE(虹桥百盛店)","lon":"121.40807","lat":"31.20681","category":"65","category_name":"咖啡厅","address":"长宁区遵义路100号上海城2楼2-18单元(紫云西路口)"},{"poiid":"B2094757D464A7FE4492","title":"新元素 嘉顿广场店 Element Fresh","lon":"121.407514054","lat":"31.202745793","category":"101","category_name":"美式风味","address":"长宁区延安西路2088号虹桥嘉顿广场1楼(近伊犁路)"},{"poiid":"B2094757D06AABFE499C","title":"三泰养生铁板烧","lon":"121.40899658","lat":"31.20170021","category":"94","category_name":"西餐厅","address":"长宁区伊犁路135号(近安顺路)"},{"poiid":"B2094757D06BA1F4469C","title":"望湘园(天山店)","lon":"121.407584505","lat":"31.2068271705","category":"500","category_name":"未知分类","address":"长宁区天山路789号百盛购物中心B座5楼(近娄山关路)"},{"poiid":"B2094757D065A7FD479E","title":"青叶家日本料理","lon":"121.408083086","lat":"31.2018559762","category":"500","category_name":"未知分类","address":"上海延安西路2077号金桥大厦一楼"},{"poiid":"B2094655D26AA7FB469E","title":"一兆韦德虹桥店","lon":"121.41033","lat":"31.20403","category":"247","category_name":"餐饮美食","address":"长宁区延安西路2000号虹桥宾馆3楼(近中山西路)"},{"poiid":"B2094750DB65AAF44393","title":"初花日本料理","lon":"121.406784","lat":"31.202966","category":"500","category_name":"未知分类","address":"虹桥路1446号古北湾大酒店三楼"},{"poiid":"B2094757D069A1FB4298","title":"GUSTO","lon":"121.407469","lat":"31.20234","category":"94","category_name":"西餐厅","address":"长宁区延安西路2088号A102-103嘉顿广场1楼(遵义路与伊犁路间)"},{"poiid":"B2094757D068AAFA489C","title":"新锦亭酒家","lon":"121.40666796","lat":"31.20411292","category":"76","category_name":"上海菜","address":"长宁区遵义南路8号锦明大厦1楼(喜来登太平洋大饭店对面)"},{"poiid":"B2094757D068ABFF479E","title":"致真酒家 虹桥店 Sincere Restaurant","lon":"121.405162054","lat":"31.204260793","category":"76","category_name":"上海菜","address":"长宁区兴义路8号万都中心大厦2楼(近遵义路)"},{"poiid":"B2094757D06FA1FC409B","title":"斗香园(遵义路店)","lon":"121.40731","lat":"31.20675","category":"257","category_name":"中餐厅","address":"长宁区遵义路100号虹桥百盛风味坊(紫云西路口)"},{"poiid":"B2094751D26DA0FE409A","title":"古北国际财富中心二期","lon":"121.41","lat":"31.2036","category":"252","category_name":"楼宇机构","address":"红宝石路200号"},{"poiid":"B2094757D06BA3F9439D","title":"会津まる家","lon":"121.406061054","lat":"31.204395793","category":"95","category_name":"日本料理","address":"长宁区遵义南路88号协泰中心1楼(近仙霞路)"},{"poiid":"B2094454D26EA4F44393","title":"kyochon1991校村","lon":"121.406936","lat":"31.202878","category":"247","category_name":"餐饮美食","address":"上海市 延安西路2088号嘉顿商业广场1幢2层A223(伊犁路)"},{"poiid":"B2094655D26AA1F5449D","title":"扬子江万丽酒店宴会厅","lon":"121.40583","lat":"31.20294","category":"247","category_name":"餐饮美食","address":"长宁区延安西路2099号扬子江万丽大酒店内(娄山关路延安西路)查看地图"},{"poiid":"B2094753D765A0FC489F","title":"糯美人韩国年糕火锅","lon":"121.408226","lat":"31.204523","category":"96","category_name":"韩国料理","address":"长宁区仙霞路8号仲盛金融中心2楼(近延安西路口)"},{"poiid":"B2094655D26FA6FB409A","title":"汉庭快捷(伊犁路店)","lon":"121.40904","lat":"31.20235","category":"216","category_name":"经济型连锁酒店","address":"上海市长宁区伊犁路158号(近安顺路)"},{"poiid":"B2094757D16AA2F44698","title":"和之美","lon":"121.40867363","lat":"31.20410942","category":"95","category_name":"日本料理","address":"长宁区仙霞路1号(近延安西路)"},{"poiid":"B2094757D069A1FA439E","title":"Obama","lon":"121.40784818","lat":"31.202628661","category":"172","category_name":"酒吧","address":"上海伊犁路"},{"poiid":"B2094757D065A4F8439C","title":"和さ美(仙霞路店)","lon":"121.40827","lat":"31.20412","category":"95","category_name":"日本料理","address":"长宁区仙霞路1号(近延安西路)"},{"poiid":"B2094654DB65A0FA429F","title":"钵泉日本料理","lon":"121.40725212194","lat":"31.203228941799","category":"95","category_name":"日本料理","address":"长宁区延安西路2077号金桥大厦209B(近仙霞路)"},{"poiid":"B2094757D068A0FD489C","title":"新鲜生活","lon":"121.408667","lat":"31.204266","category":"113","category_name":"冷饮店","address":"上海长宁区仙霞路8号仲盛金融中心一楼(近延安西路)"},{"poiid":"B2094757D16FA3F54392","title":"中国银行","lon":"121.40853171","lat":"31.203635","category":"150","category_name":"银行","address":"上海延安西路2067号"},{"poiid":"B2094655D26FA7FA449E","title":"仲盛金融中心(北二门)","lon":"121.40857","lat":"31.20422","category":"46","category_name":"楼宇","address":"仙霞路8"},{"poiid":"B2094757D065A4FB4898","title":"城日本料理","lon":"121.4104","lat":"31.20364","category":"95","category_name":"日本料理","address":"长宁区延安西路2000号虹桥宾馆1号门1楼(近中山西路)"},{"poiid":"B209475DD26CA4F44192","title":"有喜屋居酒屋","lon":"121.408012","lat":"31.20367","category":"247","category_name":"餐饮美食","address":"上海市 延安西路2073号M101室"},{"poiid":"B2094655D26DA5F9439C","title":"可的","lon":"121.40812","lat":"31.20395","category":"117","category_name":"便民商店/便利店","address":"仙霞路8号仲盛金融中心"},{"poiid":"B2094655D26EA5FE429E","title":"两岸咖啡(仙霞路店)","lon":"121.40843","lat":"31.20411","category":"65","category_name":"咖啡厅","address":"长宁区仙霞路8号仲盛金融中心2楼"},{"poiid":"B2094757D66CA4F9409C","title":"上菜上海菜","lon":"121.408509","lat":"31.204064","category":"247","category_name":"餐饮美食","address":"上海市闵行区莘庄镇仲盛二楼"}]