[{"poiid":"B2094757D06FA3F8429A","title":"上海建桥学院","lon":"121.58411807358334","lat":"31.149442500023756","category":"253","category_name":"校园生活","address":"上海市浦东新区康桥路1500号"},{"poiid":"B2094757D06FA7F8449A","title":"上海浦东盛高假日酒店","lon":"121.58080561","lat":"31.134736401","category":"217","category_name":"旅馆招待所","address":"上海市浦东新区秀沿路1088号(近恒和中路)"},{"poiid":"B2094757D069AAF54093","title":"康桥半岛别墅","lon":"121.580651","lat":"31.139394","category":"47","category_name":"住宅区","address":"上海沪南路2729弄"},{"poiid":"B2094757D06FA3F4429F","title":"大润发(康桥半岛店)","lon":"121.57911","lat":"31.13474","category":"118","category_name":"超级市场","address":"浦东新区康桥镇秀沿路1032-1080号(恒和中路秀沿路)"},{"poiid":"B2094757D16EA7FF469C","title":"建桥学院图书馆","lon":"121.590336","lat":"31.147713","category":"181","category_name":"图书馆","address":"上海康桥路1500号"},{"poiid":"B2094757D06FA7F8429D","title":"康桥半岛","lon":"121.57240515","lat":"31.138604774","category":"47","category_name":"住宅区","address":"上海沪南路康桥半岛"},{"poiid":"B2094757D06FA6FB4198","title":"绿洲康城亲水湾","lon":"121.57542","lat":"31.150099","category":"47","category_name":"住宅区","address":"浦东新区康桥路1388号"},{"poiid":"B2094757D068A5FA409E","title":"上海建桥学院商学院","lon":"121.584642","lat":"31.148636","category":"253","category_name":"校园生活","address":"上海市浦东新区康桥路1500-1700号8号楼"},{"poiid":"B2094654DB64A1F8489E","title":"上海尚德实验学校(秀沿路)","lon":"121.59529","lat":"31.13601","category":"55","category_name":"中学","address":"浦东新区秀沿路1688号(近周园路)"},{"poiid":"B2094757D06FA5F8439A","title":"万科金色城市","lon":"121.57350039","lat":"31.159916717","category":"47","category_name":"住宅区","address":"上海浦东新区御水路150弄"},{"poiid":"B209475CD264A1FC4999","title":"罗山路地铁站","lon":"121.593551","lat":"31.1529","category":"36","category_name":"地铁站","address":"上海市 上海轨道交通11/16号线罗山路站"},{"poiid":"B2094655D268ABFF4198","title":"外环罗山路立交桥","lon":"121.59419","lat":"31.14808","category":"250","category_name":"公园户外","address":""},{"poiid":"B2094757D06BA7F4469A","title":"酒窝日式料理","lon":"121.583445246","lat":"31.1325482697","category":"95","category_name":"日本料理","address":"秀沿路1060号"},{"poiid":"B2094757D068A6F8499B","title":"城中花园","lon":"121.5766","lat":"31.134342","category":"47","category_name":"住宅区","address":"秀沿路1028弄"},{"poiid":"B2094757D06AABFA419B","title":"建桥学院三号楼","lon":"121.59104697","lat":"31.149122165","category":"500","category_name":"未知分类","address":"上海市浦东新区康桥路1500号"},{"poiid":"B2094757D068A1F54398","title":"建桥学院外语系","lon":"121.59036497","lat":"31.150260567","category":"253","category_name":"校园生活","address":"上海康桥路1500号4号楼"},{"poiid":"B2094654DB64A1F94798","title":"地杰国际城D街坊","lon":"121.57273","lat":"31.15635","category":"47","category_name":"住宅区","address":"上海市浦东新区御桥路1978弄"},{"poiid":"B2094757D16BA6F5439A","title":"建桥学院女生宿舍16号楼","lon":"121.58502524","lat":"31.147286621","category":"500","category_name":"未知分类","address":"上海市康桥路1500号"},{"poiid":"B2094757D169A5FA429E","title":"金仕堡康桥店","lon":"121.582225246","lat":"31.1349423269","category":"500","category_name":"未知分类","address":"浦东新区秀沿路1086号下沉式广场5栋楼(近大润发)"},{"poiid":"B2094757D069ABFB4098","title":"建桥学院18号寝室楼","lon":"121.57839962","lat":"31.148286145","category":"500","category_name":"未知分类","address":"上海建桥学院18号寝室楼"},{"poiid":"B2094757D169A4F4499A","title":"建桥学院食堂","lon":"121.588626975","lat":"31.1492771688","category":"68","category_name":"快餐厅","address":"上海近郊南汇区康桥路1500号建桥学院  "},{"poiid":"B2094655D26DA6FC499A","title":"汤巷馨村","lon":"121.60212","lat":"31.138018","category":"47","category_name":"住宅区","address":"秀沿路2501弄"},{"poiid":"B2094757D065A3FE4693","title":"建桥学院二号楼","lon":"121.59034","lat":"31.149386","category":"500","category_name":"未知分类","address":"上海浦东新区康桥路1500号"},{"poiid":"B2094654DB6DA1F84799","title":"上海建桥学院实验实训中心","lon":"121.59033","lat":"31.14764","category":"52","category_name":"高等院校","address":""},{"poiid":"B2094757D068ABFF4193","title":"四季草堂","lon":"121.58067","lat":"31.13539","category":"76","category_name":"上海菜","address":"浦东新区秀沿路1170号(近康桥半岛小区)"},{"poiid":"B2094757D069A3FA4293","title":"建桥学院五号楼","lon":"121.59063342","lat":"31.148246847","category":"500","category_name":"未知分类","address":"上海市浦东新区康桥路1500号五号楼"},{"poiid":"B2094654DB6DA1FB499F","title":"希菲业咖啡屋","lon":"121.58688","lat":"31.14861","category":"65","category_name":"咖啡厅","address":""},{"poiid":"B2094757D06FAAF8409E","title":"康桥老街","lon":"121.56908","lat":"31.144166","category":"500","category_name":"未知分类","address":"沪南路2688弄"},{"poiid":"B2094757D66DA3FD4398","title":"上海建桥学院信息技术学院","lon":"121.590369","lat":"31.150295","category":"500","category_name":"未知分类","address":"上海市浦东新区康桥路1500号1号教学楼"},{"poiid":"B2094757D068AAFD489A","title":"圣鑫苑","lon":"121.5919268027","lat":"31.132167642657","category":"47","category_name":"住宅区","address":"航头沪南路5588号"},{"poiid":"B209475CDA65AAFC449C","title":"上海浦东机场T2航站楼国航飞机上","lon":"121.586006","lat":"31.146997","category":"500","category_name":"未知分类","address":"上海市 上海浦东机场T2航站楼国航飞机上"},{"poiid":"B2094654DB6DA1F84792","title":"上海建桥学院第三学生餐厅","lon":"121.58522","lat":"31.14819","category":"257","category_name":"中餐厅","address":""},{"poiid":"B2094757D568A4FA439B","title":"建桥学院面包房","lon":"121.5903389","lat":"31.14938889","category":"112","category_name":"糕饼店","address":"浦东新区康桥路1500号建桥学院商业街内"},{"poiid":"B2094757D16AA0FD4192","title":"ICoffee","lon":"121.583001407","lat":"31.1354222513","category":"94","category_name":"西餐厅","address":"浦东新区康桥秀沿路1181号106室(近康桥半岛商业街)"},{"poiid":"B2094654DB6DA1F8479E","title":"上海教育超市(罗山绿洲别墅南)","lon":"121.5871","lat":"31.14861","category":"118","category_name":"超级市场","address":""},{"poiid":"B2094757D16BAAF44392","title":"建桥学院六号楼报告厅","lon":"121.59030697","lat":"31.148399148","category":"500","category_name":"未知分类","address":"上海市浦东新区康桥路"},{"poiid":"B2094654DB6DA1F8479F","title":"上海建桥学院医务室","lon":"121.58628","lat":"31.14859","category":"162","category_name":"医院","address":""},{"poiid":"B2094654DB64A1FF499E","title":"上海英国学校","lon":"121.58121","lat":"31.14126","category":"55","category_name":"中学","address":"康桥国际乡村俱乐部东南"},{"poiid":"B2094655D264A4FC4993","title":"味千拉面(康桥大润发店)","lon":"121.57693","lat":"31.135","category":"95","category_name":"日本料理","address":"浦东新区康桥镇秀沿路1132号大润发1楼(近恒河中路)"},{"poiid":"B2094757D16FABFD459C","title":"建桥学院二号食堂","lon":"121.588620175","lat":"31.1493531705","category":"500","category_name":"未知分类","address":"上海二楼"},{"poiid":"B2094750D56AA0FD459C","title":"锦绣华都","lon":"121.58195","lat":"31.153917","category":"47","category_name":"住宅区","address":"浦东新区御衡路68弄(御秀路东侧)"},{"poiid":"B2094757D16FA2FB439B","title":"建桥学院四号楼","lon":"121.58980997","lat":"31.149574392","category":"500","category_name":"未知分类","address":"上海市浦东新区康桥路1500号四号楼"},{"poiid":"B2094654DB64A1F9469D","title":"康桥半岛城中花园(秀沿路)","lon":"121.57716","lat":"31.13219","category":"47","category_name":"住宅区","address":"秀沿路1028弄2支弄"},{"poiid":"B209475CD16AA3FD4798","title":"上海浦东国际机场","lon":"121.584556","lat":"31.148117","category":"500","category_name":"未知分类","address":"上海市 上海浦东国际机场"},{"poiid":"B2094757D168A7F8459B","title":"上海建桥学院综合大楼","lon":"121.58496855","lat":"31.150253753","category":"253","category_name":"校园生活","address":"上海浦东新区康桥路1700号"},{"poiid":"B2094757D168A7F4419C","title":"建桥学院7号楼","lon":"121.58591197","lat":"31.149198166","category":"500","category_name":"未知分类","address":"上海市浦东新区康桥路"},{"poiid":"B2094757D66CA1F4439C","title":"上海建桥学院教工食堂","lon":"121.588558918","lat":"31.149274057","category":"500","category_name":"未知分类","address":"上海康桥路1500号"},{"poiid":"B2094757D069A1FB469C","title":"中环线","lon":"121.594028","lat":"31.148814","category":"500","category_name":"未知分类","address":"上海罗山路"},{"poiid":"B2094757D165A7FA489A","title":"9-1-602","lon":"121.58543464","lat":"31.1464121","category":"500","category_name":"未知分类","address":null},{"poiid":"B2094757D064A2F5429B","title":"建桥学院宿舍楼14号","lon":"121.58429297","lat":"31.148549151","category":"500","category_name":"未知分类","address":"上海市浦东新区康桥路1500号"},{"poiid":"B2094757D06FA3F8429A","title":"上海建桥学院","lon":"121.58411807358334","lat":"31.149442500023756","category":"253","category_name":"校园生活","address":"上海市浦东新区康桥路1500号"},{"poiid":"B2094757D06FA7F8449A","title":"上海浦东盛高假日酒店","lon":"121.58080561","lat":"31.134736401","category":"217","category_name":"旅馆招待所","address":"上海市浦东新区秀沿路1088号(近恒和中路)"},{"poiid":"B2094757D069AAF54093","title":"康桥半岛别墅","lon":"121.580651","lat":"31.139394","category":"47","category_name":"住宅区","address":"上海沪南路2729弄"},{"poiid":"B2094757D06FA3F4429F","title":"大润发(康桥半岛店)","lon":"121.57911","lat":"31.13474","category":"118","category_name":"超级市场","address":"浦东新区康桥镇秀沿路1032-1080号(恒和中路秀沿路)"},{"poiid":"B2094757D16EA7FF469C","title":"建桥学院图书馆","lon":"121.590336","lat":"31.147713","category":"181","category_name":"图书馆","address":"上海康桥路1500号"},{"poiid":"B2094757D06FA7F8429D","title":"康桥半岛","lon":"121.57240515","lat":"31.138604774","category":"47","category_name":"住宅区","address":"上海沪南路康桥半岛"},{"poiid":"B2094757D06FA6FB4198","title":"绿洲康城亲水湾","lon":"121.57542","lat":"31.150099","category":"47","category_name":"住宅区","address":"浦东新区康桥路1388号"},{"poiid":"B2094757D068A5FA409E","title":"上海建桥学院商学院","lon":"121.584642","lat":"31.148636","category":"253","category_name":"校园生活","address":"上海市浦东新区康桥路1500-1700号8号楼"},{"poiid":"B2094654DB64A1F8489E","title":"上海尚德实验学校(秀沿路)","lon":"121.59529","lat":"31.13601","category":"55","category_name":"中学","address":"浦东新区秀沿路1688号(近周园路)"},{"poiid":"B2094757D06FA5F8439A","title":"万科金色城市","lon":"121.57350039","lat":"31.159916717","category":"47","category_name":"住宅区","address":"上海浦东新区御水路150弄"},{"poiid":"B209475CD264A1FC4999","title":"罗山路地铁站","lon":"121.593551","lat":"31.1529","category":"36","category_name":"地铁站","address":"上海市 上海轨道交通11/16号线罗山路站"},{"poiid":"B2094655D268ABFF4198","title":"外环罗山路立交桥","lon":"121.59419","lat":"31.14808","category":"250","category_name":"公园户外","address":""},{"poiid":"B2094757D06BA7F4469A","title":"酒窝日式料理","lon":"121.583445246","lat":"31.1325482697","category":"95","category_name":"日本料理","address":"秀沿路1060号"},{"poiid":"B2094757D068A6F8499B","title":"城中花园","lon":"121.5766","lat":"31.134342","category":"47","category_name":"住宅区","address":"秀沿路1028弄"},{"poiid":"B2094757D06AABFA419B","title":"建桥学院三号楼","lon":"121.59104697","lat":"31.149122165","category":"500","category_name":"未知分类","address":"上海市浦东新区康桥路1500号"},{"poiid":"B2094757D068A1F54398","title":"建桥学院外语系","lon":"121.59036497","lat":"31.150260567","category":"253","category_name":"校园生活","address":"上海康桥路1500号4号楼"},{"poiid":"B2094654DB64A1F94798","title":"地杰国际城D街坊","lon":"121.57273","lat":"31.15635","category":"47","category_name":"住宅区","address":"上海市浦东新区御桥路1978弄"},{"poiid":"B2094757D16BA6F5439A","title":"建桥学院女生宿舍16号楼","lon":"121.58502524","lat":"31.147286621","category":"500","category_name":"未知分类","address":"上海市康桥路1500号"},{"poiid":"B2094757D169A5FA429E","title":"金仕堡康桥店","lon":"121.582225246","lat":"31.1349423269","category":"500","category_name":"未知分类","address":"浦东新区秀沿路1086号下沉式广场5栋楼(近大润发)"},{"poiid":"B2094757D069ABFB4098","title":"建桥学院18号寝室楼","lon":"121.57839962","lat":"31.148286145","category":"500","category_name":"未知分类","address":"上海建桥学院18号寝室楼"},{"poiid":"B2094757D169A4F4499A","title":"建桥学院食堂","lon":"121.588626975","lat":"31.1492771688","category":"68","category_name":"快餐厅","address":"上海近郊南汇区康桥路1500号建桥学院  "},{"poiid":"B2094655D26DA6FC499A","title":"汤巷馨村","lon":"121.60212","lat":"31.138018","category":"47","category_name":"住宅区","address":"秀沿路2501弄"},{"poiid":"B2094757D065A3FE4693","title":"建桥学院二号楼","lon":"121.59034","lat":"31.149386","category":"500","category_name":"未知分类","address":"上海浦东新区康桥路1500号"},{"poiid":"B2094654DB6DA1F84799","title":"上海建桥学院实验实训中心","lon":"121.59033","lat":"31.14764","category":"52","category_name":"高等院校","address":""},{"poiid":"B2094757D068ABFF4193","title":"四季草堂","lon":"121.58067","lat":"31.13539","category":"76","category_name":"上海菜","address":"浦东新区秀沿路1170号(近康桥半岛小区)"},{"poiid":"B2094757D069A3FA4293","title":"建桥学院五号楼","lon":"121.59063342","lat":"31.148246847","category":"500","category_name":"未知分类","address":"上海市浦东新区康桥路1500号五号楼"},{"poiid":"B2094654DB6DA1FB499F","title":"希菲业咖啡屋","lon":"121.58688","lat":"31.14861","category":"65","category_name":"咖啡厅","address":""},{"poiid":"B2094757D06FAAF8409E","title":"康桥老街","lon":"121.56908","lat":"31.144166","category":"500","category_name":"未知分类","address":"沪南路2688弄"},{"poiid":"B2094757D66DA3FD4398","title":"上海建桥学院信息技术学院","lon":"121.590369","lat":"31.150295","category":"500","category_name":"未知分类","address":"上海市浦东新区康桥路1500号1号教学楼"},{"poiid":"B2094757D068AAFD489A","title":"圣鑫苑","lon":"121.5919268027","lat":"31.132167642657","category":"47","category_name":"住宅区","address":"航头沪南路5588号"},{"poiid":"B209475CDA65AAFC449C","title":"上海浦东机场T2航站楼国航飞机上","lon":"121.586006","lat":"31.146997","category":"500","category_name":"未知分类","address":"上海市 上海浦东机场T2航站楼国航飞机上"},{"poiid":"B2094654DB6DA1F84792","title":"上海建桥学院第三学生餐厅","lon":"121.58522","lat":"31.14819","category":"257","category_name":"中餐厅","address":""},{"poiid":"B2094757D568A4FA439B","title":"建桥学院面包房","lon":"121.5903389","lat":"31.14938889","category":"112","category_name":"糕饼店","address":"浦东新区康桥路1500号建桥学院商业街内"},{"poiid":"B2094757D16AA0FD4192","title":"ICoffee","lon":"121.583001407","lat":"31.1354222513","category":"94","category_name":"西餐厅","address":"浦东新区康桥秀沿路1181号106室(近康桥半岛商业街)"},{"poiid":"B2094654DB6DA1F8479E","title":"上海教育超市(罗山绿洲别墅南)","lon":"121.5871","lat":"31.14861","category":"118","category_name":"超级市场","address":""},{"poiid":"B2094757D16BAAF44392","title":"建桥学院六号楼报告厅","lon":"121.59030697","lat":"31.148399148","category":"500","category_name":"未知分类","address":"上海市浦东新区康桥路"},{"poiid":"B2094654DB6DA1F8479F","title":"上海建桥学院医务室","lon":"121.58628","lat":"31.14859","category":"162","category_name":"医院","address":""},{"poiid":"B2094654DB64A1FF499E","title":"上海英国学校","lon":"121.58121","lat":"31.14126","category":"55","category_name":"中学","address":"康桥国际乡村俱乐部东南"},{"poiid":"B2094655D264A4FC4993","title":"味千拉面(康桥大润发店)","lon":"121.57693","lat":"31.135","category":"95","category_name":"日本料理","address":"浦东新区康桥镇秀沿路1132号大润发1楼(近恒河中路)"},{"poiid":"B2094757D16FABFD459C","title":"建桥学院二号食堂","lon":"121.588620175","lat":"31.1493531705","category":"500","category_name":"未知分类","address":"上海二楼"},{"poiid":"B2094750D56AA0FD459C","title":"锦绣华都","lon":"121.58195","lat":"31.153917","category":"47","category_name":"住宅区","address":"浦东新区御衡路68弄(御秀路东侧)"},{"poiid":"B2094757D16FA2FB439B","title":"建桥学院四号楼","lon":"121.58980997","lat":"31.149574392","category":"500","category_name":"未知分类","address":"上海市浦东新区康桥路1500号四号楼"},{"poiid":"B2094654DB64A1F9469D","title":"康桥半岛城中花园(秀沿路)","lon":"121.57716","lat":"31.13219","category":"47","category_name":"住宅区","address":"秀沿路1028弄2支弄"},{"poiid":"B209475CD16AA3FD4798","title":"上海浦东国际机场","lon":"121.584556","lat":"31.148117","category":"500","category_name":"未知分类","address":"上海市 上海浦东国际机场"},{"poiid":"B2094757D168A7F8459B","title":"上海建桥学院综合大楼","lon":"121.58496855","lat":"31.150253753","category":"253","category_name":"校园生活","address":"上海浦东新区康桥路1700号"},{"poiid":"B2094757D168A7F4419C","title":"建桥学院7号楼","lon":"121.58591197","lat":"31.149198166","category":"500","category_name":"未知分类","address":"上海市浦东新区康桥路"},{"poiid":"B2094757D66CA1F4439C","title":"上海建桥学院教工食堂","lon":"121.588558918","lat":"31.149274057","category":"500","category_name":"未知分类","address":"上海康桥路1500号"},{"poiid":"B2094757D069A1FB469C","title":"中环线","lon":"121.594028","lat":"31.148814","category":"500","category_name":"未知分类","address":"上海罗山路"},{"poiid":"B2094757D165A7FA489A","title":"9-1-602","lon":"121.58543464","lat":"31.1464121","category":"500","category_name":"未知分类","address":null},{"poiid":"B2094757D064A2F5429B","title":"建桥学院宿舍楼14号","lon":"121.58429297","lat":"31.148549151","category":"500","category_name":"未知分类","address":"上海市浦东新区康桥路1500号"},{"poiid":"B2094757D06FA3F8429A","title":"上海建桥学院","lon":"121.58411807358334","lat":"31.149442500023756","category":"253","category_name":"校园生活","address":"上海市浦东新区康桥路1500号"},{"poiid":"B2094757D06FA7F8449A","title":"上海浦东盛高假日酒店","lon":"121.58080561","lat":"31.134736401","category":"217","category_name":"旅馆招待所","address":"上海市浦东新区秀沿路1088号(近恒和中路)"},{"poiid":"B2094757D069AAF54093","title":"康桥半岛别墅","lon":"121.580651","lat":"31.139394","category":"47","category_name":"住宅区","address":"上海沪南路2729弄"},{"poiid":"B2094757D06FA3F4429F","title":"大润发(康桥半岛店)","lon":"121.57911","lat":"31.13474","category":"118","category_name":"超级市场","address":"浦东新区康桥镇秀沿路1032-1080号(恒和中路秀沿路)"},{"poiid":"B2094757D16EA7FF469C","title":"建桥学院图书馆","lon":"121.590336","lat":"31.147713","category":"181","category_name":"图书馆","address":"上海康桥路1500号"},{"poiid":"B2094757D06FA7F8429D","title":"康桥半岛","lon":"121.57240515","lat":"31.138604774","category":"47","category_name":"住宅区","address":"上海沪南路康桥半岛"},{"poiid":"B2094757D06FA6FB4198","title":"绿洲康城亲水湾","lon":"121.57542","lat":"31.150099","category":"47","category_name":"住宅区","address":"浦东新区康桥路1388号"},{"poiid":"B2094757D068A5FA409E","title":"上海建桥学院商学院","lon":"121.584642","lat":"31.148636","category":"253","category_name":"校园生活","address":"上海市浦东新区康桥路1500-1700号8号楼"},{"poiid":"B2094654DB64A1F8489E","title":"上海尚德实验学校(秀沿路)","lon":"121.59529","lat":"31.13601","category":"55","category_name":"中学","address":"浦东新区秀沿路1688号(近周园路)"},{"poiid":"B2094757D06FA5F8439A","title":"万科金色城市","lon":"121.57350039","lat":"31.159916717","category":"47","category_name":"住宅区","address":"上海浦东新区御水路150弄"},{"poiid":"B209475CD264A1FC4999","title":"罗山路地铁站","lon":"121.593551","lat":"31.1529","category":"36","category_name":"地铁站","address":"上海市 上海轨道交通11/16号线罗山路站"},{"poiid":"B2094655D268ABFF4198","title":"外环罗山路立交桥","lon":"121.59419","lat":"31.14808","category":"250","category_name":"公园户外","address":""},{"poiid":"B2094757D06BA7F4469A","title":"酒窝日式料理","lon":"121.583445246","lat":"31.1325482697","category":"95","category_name":"日本料理","address":"秀沿路1060号"},{"poiid":"B2094757D068A6F8499B","title":"城中花园","lon":"121.5766","lat":"31.134342","category":"47","category_name":"住宅区","address":"秀沿路1028弄"},{"poiid":"B2094757D06AABFA419B","title":"建桥学院三号楼","lon":"121.59104697","lat":"31.149122165","category":"500","category_name":"未知分类","address":"上海市浦东新区康桥路1500号"},{"poiid":"B2094757D068A1F54398","title":"建桥学院外语系","lon":"121.59036497","lat":"31.150260567","category":"253","category_name":"校园生活","address":"上海康桥路1500号4号楼"},{"poiid":"B2094654DB64A1F94798","title":"地杰国际城D街坊","lon":"121.57273","lat":"31.15635","category":"47","category_name":"住宅区","address":"上海市浦东新区御桥路1978弄"},{"poiid":"B2094757D16BA6F5439A","title":"建桥学院女生宿舍16号楼","lon":"121.58502524","lat":"31.147286621","category":"500","category_name":"未知分类","address":"上海市康桥路1500号"},{"poiid":"B2094757D169A5FA429E","title":"金仕堡康桥店","lon":"121.582225246","lat":"31.1349423269","category":"500","category_name":"未知分类","address":"浦东新区秀沿路1086号下沉式广场5栋楼(近大润发)"},{"poiid":"B2094757D069ABFB4098","title":"建桥学院18号寝室楼","lon":"121.57839962","lat":"31.148286145","category":"500","category_name":"未知分类","address":"上海建桥学院18号寝室楼"},{"poiid":"B2094757D169A4F4499A","title":"建桥学院食堂","lon":"121.588626975","lat":"31.1492771688","category":"68","category_name":"快餐厅","address":"上海近郊南汇区康桥路1500号建桥学院  "},{"poiid":"B2094655D26DA6FC499A","title":"汤巷馨村","lon":"121.60212","lat":"31.138018","category":"47","category_name":"住宅区","address":"秀沿路2501弄"},{"poiid":"B2094757D065A3FE4693","title":"建桥学院二号楼","lon":"121.59034","lat":"31.149386","category":"500","category_name":"未知分类","address":"上海浦东新区康桥路1500号"},{"poiid":"B2094654DB6DA1F84799","title":"上海建桥学院实验实训中心","lon":"121.59033","lat":"31.14764","category":"52","category_name":"高等院校","address":""},{"poiid":"B2094757D068ABFF4193","title":"四季草堂","lon":"121.58067","lat":"31.13539","category":"76","category_name":"上海菜","address":"浦东新区秀沿路1170号(近康桥半岛小区)"},{"poiid":"B2094757D069A3FA4293","title":"建桥学院五号楼","lon":"121.59063342","lat":"31.148246847","category":"500","category_name":"未知分类","address":"上海市浦东新区康桥路1500号五号楼"},{"poiid":"B2094654DB6DA1FB499F","title":"希菲业咖啡屋","lon":"121.58688","lat":"31.14861","category":"65","category_name":"咖啡厅","address":""},{"poiid":"B2094757D06FAAF8409E","title":"康桥老街","lon":"121.56908","lat":"31.144166","category":"500","category_name":"未知分类","address":"沪南路2688弄"},{"poiid":"B2094757D66DA3FD4398","title":"上海建桥学院信息技术学院","lon":"121.590369","lat":"31.150295","category":"500","category_name":"未知分类","address":"上海市浦东新区康桥路1500号1号教学楼"},{"poiid":"B2094757D068AAFD489A","title":"圣鑫苑","lon":"121.5919268027","lat":"31.132167642657","category":"47","category_name":"住宅区","address":"航头沪南路5588号"},{"poiid":"B209475CDA65AAFC449C","title":"上海浦东机场T2航站楼国航飞机上","lon":"121.586006","lat":"31.146997","category":"500","category_name":"未知分类","address":"上海市 上海浦东机场T2航站楼国航飞机上"},{"poiid":"B2094654DB6DA1F84792","title":"上海建桥学院第三学生餐厅","lon":"121.58522","lat":"31.14819","category":"257","category_name":"中餐厅","address":""},{"poiid":"B2094757D568A4FA439B","title":"建桥学院面包房","lon":"121.5903389","lat":"31.14938889","category":"112","category_name":"糕饼店","address":"浦东新区康桥路1500号建桥学院商业街内"},{"poiid":"B2094757D16AA0FD4192","title":"ICoffee","lon":"121.583001407","lat":"31.1354222513","category":"94","category_name":"西餐厅","address":"浦东新区康桥秀沿路1181号106室(近康桥半岛商业街)"},{"poiid":"B2094654DB6DA1F8479E","title":"上海教育超市(罗山绿洲别墅南)","lon":"121.5871","lat":"31.14861","category":"118","category_name":"超级市场","address":""},{"poiid":"B2094757D16BAAF44392","title":"建桥学院六号楼报告厅","lon":"121.59030697","lat":"31.148399148","category":"500","category_name":"未知分类","address":"上海市浦东新区康桥路"},{"poiid":"B2094654DB6DA1F8479F","title":"上海建桥学院医务室","lon":"121.58628","lat":"31.14859","category":"162","category_name":"医院","address":""},{"poiid":"B2094654DB64A1FF499E","title":"上海英国学校","lon":"121.58121","lat":"31.14126","category":"55","category_name":"中学","address":"康桥国际乡村俱乐部东南"},{"poiid":"B2094655D264A4FC4993","title":"味千拉面(康桥大润发店)","lon":"121.57693","lat":"31.135","category":"95","category_name":"日本料理","address":"浦东新区康桥镇秀沿路1132号大润发1楼(近恒河中路)"},{"poiid":"B2094757D16FABFD459C","title":"建桥学院二号食堂","lon":"121.588620175","lat":"31.1493531705","category":"500","category_name":"未知分类","address":"上海二楼"},{"poiid":"B2094750D56AA0FD459C","title":"锦绣华都","lon":"121.58195","lat":"31.153917","category":"47","category_name":"住宅区","address":"浦东新区御衡路68弄(御秀路东侧)"},{"poiid":"B2094757D16FA2FB439B","title":"建桥学院四号楼","lon":"121.58980997","lat":"31.149574392","category":"500","category_name":"未知分类","address":"上海市浦东新区康桥路1500号四号楼"},{"poiid":"B2094654DB64A1F9469D","title":"康桥半岛城中花园(秀沿路)","lon":"121.57716","lat":"31.13219","category":"47","category_name":"住宅区","address":"秀沿路1028弄2支弄"},{"poiid":"B209475CD16AA3FD4798","title":"上海浦东国际机场","lon":"121.584556","lat":"31.148117","category":"500","category_name":"未知分类","address":"上海市 上海浦东国际机场"},{"poiid":"B2094757D168A7F8459B","title":"上海建桥学院综合大楼","lon":"121.58496855","lat":"31.150253753","category":"253","category_name":"校园生活","address":"上海浦东新区康桥路1700号"},{"poiid":"B2094757D168A7F4419C","title":"建桥学院7号楼","lon":"121.58591197","lat":"31.149198166","category":"500","category_name":"未知分类","address":"上海市浦东新区康桥路"},{"poiid":"B2094757D66CA1F4439C","title":"上海建桥学院教工食堂","lon":"121.588558918","lat":"31.149274057","category":"500","category_name":"未知分类","address":"上海康桥路1500号"},{"poiid":"B2094757D069A1FB469C","title":"中环线","lon":"121.594028","lat":"31.148814","category":"500","category_name":"未知分类","address":"上海罗山路"},{"poiid":"B2094757D165A7FA489A","title":"9-1-602","lon":"121.58543464","lat":"31.1464121","category":"500","category_name":"未知分类","address":null},{"poiid":"B2094757D064A2F5429B","title":"建桥学院宿舍楼14号","lon":"121.58429297","lat":"31.148549151","category":"500","category_name":"未知分类","address":"上海市浦东新区康桥路1500号"},{"poiid":"B2094757D06FA3F8429A","title":"上海建桥学院","lon":"121.58411807358334","lat":"31.149442500023756","category":"253","category_name":"校园生活","address":"上海市浦东新区康桥路1500号"},{"poiid":"B2094757D06FA7F8449A","title":"上海浦东盛高假日酒店","lon":"121.58080561","lat":"31.134736401","category":"217","category_name":"旅馆招待所","address":"上海市浦东新区秀沿路1088号(近恒和中路)"},{"poiid":"B2094757D069AAF54093","title":"康桥半岛别墅","lon":"121.580651","lat":"31.139394","category":"47","category_name":"住宅区","address":"上海沪南路2729弄"},{"poiid":"B2094757D06FA3F4429F","title":"大润发(康桥半岛店)","lon":"121.57911","lat":"31.13474","category":"118","category_name":"超级市场","address":"浦东新区康桥镇秀沿路1032-1080号(恒和中路秀沿路)"},{"poiid":"B2094757D16EA7FF469C","title":"建桥学院图书馆","lon":"121.590336","lat":"31.147713","category":"181","category_name":"图书馆","address":"上海康桥路1500号"},{"poiid":"B2094757D06FA7F8429D","title":"康桥半岛","lon":"121.57240515","lat":"31.138604774","category":"47","category_name":"住宅区","address":"上海沪南路康桥半岛"},{"poiid":"B2094757D06FA6FB4198","title":"绿洲康城亲水湾","lon":"121.57542","lat":"31.150099","category":"47","category_name":"住宅区","address":"浦东新区康桥路1388号"},{"poiid":"B2094757D068A5FA409E","title":"上海建桥学院商学院","lon":"121.584642","lat":"31.148636","category":"253","category_name":"校园生活","address":"上海市浦东新区康桥路1500-1700号8号楼"},{"poiid":"B2094654DB64A1F8489E","title":"上海尚德实验学校(秀沿路)","lon":"121.59529","lat":"31.13601","category":"55","category_name":"中学","address":"浦东新区秀沿路1688号(近周园路)"},{"poiid":"B2094757D06FA5F8439A","title":"万科金色城市","lon":"121.57350039","lat":"31.159916717","category":"47","category_name":"住宅区","address":"上海浦东新区御水路150弄"},{"poiid":"B209475CD264A1FC4999","title":"罗山路地铁站","lon":"121.593551","lat":"31.1529","category":"36","category_name":"地铁站","address":"上海市 上海轨道交通11/16号线罗山路站"},{"poiid":"B2094655D268ABFF4198","title":"外环罗山路立交桥","lon":"121.59419","lat":"31.14808","category":"250","category_name":"公园户外","address":""},{"poiid":"B2094757D06BA7F4469A","title":"酒窝日式料理","lon":"121.583445246","lat":"31.1325482697","category":"95","category_name":"日本料理","address":"秀沿路1060号"},{"poiid":"B2094757D068A6F8499B","title":"城中花园","lon":"121.5766","lat":"31.134342","category":"47","category_name":"住宅区","address":"秀沿路1028弄"},{"poiid":"B2094757D06AABFA419B","title":"建桥学院三号楼","lon":"121.59104697","lat":"31.149122165","category":"500","category_name":"未知分类","address":"上海市浦东新区康桥路1500号"},{"poiid":"B2094757D068A1F54398","title":"建桥学院外语系","lon":"121.59036497","lat":"31.150260567","category":"253","category_name":"校园生活","address":"上海康桥路1500号4号楼"},{"poiid":"B2094654DB64A1F94798","title":"地杰国际城D街坊","lon":"121.57273","lat":"31.15635","category":"47","category_name":"住宅区","address":"上海市浦东新区御桥路1978弄"},{"poiid":"B2094757D16BA6F5439A","title":"建桥学院女生宿舍16号楼","lon":"121.58502524","lat":"31.147286621","category":"500","category_name":"未知分类","address":"上海市康桥路1500号"},{"poiid":"B2094757D169A5FA429E","title":"金仕堡康桥店","lon":"121.582225246","lat":"31.1349423269","category":"500","category_name":"未知分类","address":"浦东新区秀沿路1086号下沉式广场5栋楼(近大润发)"},{"poiid":"B2094757D069ABFB4098","title":"建桥学院18号寝室楼","lon":"121.57839962","lat":"31.148286145","category":"500","category_name":"未知分类","address":"上海建桥学院18号寝室楼"},{"poiid":"B2094757D169A4F4499A","title":"建桥学院食堂","lon":"121.588626975","lat":"31.1492771688","category":"68","category_name":"快餐厅","address":"上海近郊南汇区康桥路1500号建桥学院  "},{"poiid":"B2094655D26DA6FC499A","title":"汤巷馨村","lon":"121.60212","lat":"31.138018","category":"47","category_name":"住宅区","address":"秀沿路2501弄"},{"poiid":"B2094757D065A3FE4693","title":"建桥学院二号楼","lon":"121.59034","lat":"31.149386","category":"500","category_name":"未知分类","address":"上海浦东新区康桥路1500号"},{"poiid":"B2094654DB6DA1F84799","title":"上海建桥学院实验实训中心","lon":"121.59033","lat":"31.14764","category":"52","category_name":"高等院校","address":""},{"poiid":"B2094757D068ABFF4193","title":"四季草堂","lon":"121.58067","lat":"31.13539","category":"76","category_name":"上海菜","address":"浦东新区秀沿路1170号(近康桥半岛小区)"},{"poiid":"B2094757D069A3FA4293","title":"建桥学院五号楼","lon":"121.59063342","lat":"31.148246847","category":"500","category_name":"未知分类","address":"上海市浦东新区康桥路1500号五号楼"},{"poiid":"B2094654DB6DA1FB499F","title":"希菲业咖啡屋","lon":"121.58688","lat":"31.14861","category":"65","category_name":"咖啡厅","address":""},{"poiid":"B2094757D06FAAF8409E","title":"康桥老街","lon":"121.56908","lat":"31.144166","category":"500","category_name":"未知分类","address":"沪南路2688弄"},{"poiid":"B2094757D66DA3FD4398","title":"上海建桥学院信息技术学院","lon":"121.590369","lat":"31.150295","category":"500","category_name":"未知分类","address":"上海市浦东新区康桥路1500号1号教学楼"},{"poiid":"B2094757D068AAFD489A","title":"圣鑫苑","lon":"121.5919268027","lat":"31.132167642657","category":"47","category_name":"住宅区","address":"航头沪南路5588号"},{"poiid":"B209475CDA65AAFC449C","title":"上海浦东机场T2航站楼国航飞机上","lon":"121.586006","lat":"31.146997","category":"500","category_name":"未知分类","address":"上海市 上海浦东机场T2航站楼国航飞机上"},{"poiid":"B2094654DB6DA1F84792","title":"上海建桥学院第三学生餐厅","lon":"121.58522","lat":"31.14819","category":"257","category_name":"中餐厅","address":""},{"poiid":"B2094757D568A4FA439B","title":"建桥学院面包房","lon":"121.5903389","lat":"31.14938889","category":"112","category_name":"糕饼店","address":"浦东新区康桥路1500号建桥学院商业街内"},{"poiid":"B2094757D16AA0FD4192","title":"ICoffee","lon":"121.583001407","lat":"31.1354222513","category":"94","category_name":"西餐厅","address":"浦东新区康桥秀沿路1181号106室(近康桥半岛商业街)"},{"poiid":"B2094654DB6DA1F8479E","title":"上海教育超市(罗山绿洲别墅南)","lon":"121.5871","lat":"31.14861","category":"118","category_name":"超级市场","address":""},{"poiid":"B2094757D16BAAF44392","title":"建桥学院六号楼报告厅","lon":"121.59030697","lat":"31.148399148","category":"500","category_name":"未知分类","address":"上海市浦东新区康桥路"},{"poiid":"B2094654DB6DA1F8479F","title":"上海建桥学院医务室","lon":"121.58628","lat":"31.14859","category":"162","category_name":"医院","address":""},{"poiid":"B2094654DB64A1FF499E","title":"上海英国学校","lon":"121.58121","lat":"31.14126","category":"55","category_name":"中学","address":"康桥国际乡村俱乐部东南"},{"poiid":"B2094655D264A4FC4993","title":"味千拉面(康桥大润发店)","lon":"121.57693","lat":"31.135","category":"95","category_name":"日本料理","address":"浦东新区康桥镇秀沿路1132号大润发1楼(近恒河中路)"},{"poiid":"B2094757D16FABFD459C","title":"建桥学院二号食堂","lon":"121.588620175","lat":"31.1493531705","category":"500","category_name":"未知分类","address":"上海二楼"},{"poiid":"B2094750D56AA0FD459C","title":"锦绣华都","lon":"121.58195","lat":"31.153917","category":"47","category_name":"住宅区","address":"浦东新区御衡路68弄(御秀路东侧)"},{"poiid":"B2094757D16FA2FB439B","title":"建桥学院四号楼","lon":"121.58980997","lat":"31.149574392","category":"500","category_name":"未知分类","address":"上海市浦东新区康桥路1500号四号楼"},{"poiid":"B2094654DB64A1F9469D","title":"康桥半岛城中花园(秀沿路)","lon":"121.57716","lat":"31.13219","category":"47","category_name":"住宅区","address":"秀沿路1028弄2支弄"},{"poiid":"B209475CD16AA3FD4798","title":"上海浦东国际机场","lon":"121.584556","lat":"31.148117","category":"500","category_name":"未知分类","address":"上海市 上海浦东国际机场"},{"poiid":"B2094757D168A7F8459B","title":"上海建桥学院综合大楼","lon":"121.58496855","lat":"31.150253753","category":"253","category_name":"校园生活","address":"上海浦东新区康桥路1700号"},{"poiid":"B2094757D168A7F4419C","title":"建桥学院7号楼","lon":"121.58591197","lat":"31.149198166","category":"500","category_name":"未知分类","address":"上海市浦东新区康桥路"},{"poiid":"B2094757D66CA1F4439C","title":"上海建桥学院教工食堂","lon":"121.588558918","lat":"31.149274057","category":"500","category_name":"未知分类","address":"上海康桥路1500号"},{"poiid":"B2094757D069A1FB469C","title":"中环线","lon":"121.594028","lat":"31.148814","category":"500","category_name":"未知分类","address":"上海罗山路"},{"poiid":"B2094757D165A7FA489A","title":"9-1-602","lon":"121.58543464","lat":"31.1464121","category":"500","category_name":"未知分类","address":null},{"poiid":"B2094757D064A2F5429B","title":"建桥学院宿舍楼14号","lon":"121.58429297","lat":"31.148549151","category":"500","category_name":"未知分类","address":"上海市浦东新区康桥路1500号"}]