[{"poiid":"B2094654D564AAFC4998","title":"国泰电影院","lon":"121.46139","lat":"31.21795","category":"178","category_name":"电影院","address":"卢湾区淮海中路870号(茂名南路口)"},{"poiid":"B2094757D06FA3FC4998","title":"锦江饭店","lon":"121.46181369957924","lat":"31.21876480002918","category":"214","category_name":"四星级宾馆","address":"卢湾区茂名南路59号(近长乐路)"},{"poiid":"B2094757D06FA2FD439F","title":"红房子西菜馆","lon":"121.46237","lat":"31.21747","category":"94","category_name":"西餐厅","address":"卢湾区淮海中路845号(近茂名南路)"},{"poiid":"B2094753D76FAAFA449C","title":"上海滩国泰旗舰店","lon":"121.466011","lat":"31.216125","category":"249","category_name":"购物服务","address":"淮海中路868号"},{"poiid":"B209475CD564A7F84292","title":"上海滩新天地店","lon":"121.47463","lat":"31.22164","category":"119","category_name":"商场","address":"\"太仓路181弄新天地北里15号\r\n\""},{"poiid":"B209475CD564A7F8439E","title":"上海滩中信泰富店","lon":"121.45602","lat":"31.22851","category":"119","category_name":"商场","address":"\"南京西路1168号中信泰富广场，店铺号221.\r\n\""},{"poiid":"B2094654DB64A5FD409D","title":"苏浙汇","lon":"121.46125","lat":"31.21837","category":"76","category_name":"上海菜","address":"卢湾区茂名南路127号(近淮海路)"},{"poiid":"B2094757D06EAAF84093","title":"Citta'享咖(淮海中路店)","lon":"121.4627","lat":"31.2178","category":"65","category_name":"咖啡厅","address":"上海卢湾区淮海中路835号(近茂名南路近国泰电影院)  "},{"poiid":"B2094757D06FABFE479E","title":"阿大葱油饼","lon":"121.46193","lat":"31.21593","category":"68","category_name":"快餐厅","address":"卢湾区茂名南路159弄2号后门(近南昌路)"},{"poiid":"B2094757D06FA2FA4393","title":"必胜客(永新店)","lon":"121.461029357","lat":"31.2173208917","category":"94","category_name":"西餐厅","address":"卢湾区淮海中路887号永新百货B1楼(近茂名南路)"},{"poiid":"B2094757D06FA2F94298","title":"索尼上海旗舰店","lon":"121.46051788","lat":"31.217235565","category":"138","category_name":"家电电子卖场","address":"上海卢湾区淮海中路901-909号1-3楼(近陕西南路)"},{"poiid":"B2094757D06FA5F94792","title":"陋室设计书吧","lon":"121.46311623809811","lat":"31.217176613800408","category":"260","category_name":"其他","address":"卢湾区南昌路145号乙(近茂名南路)"},{"poiid":"B2094757D16DA7FF4798","title":"Kee Club","lon":"121.4625799","lat":"31.218268724","category":"260","category_name":"其他","address":"卢湾区淮海中路796号3-4楼(近瑞金一路)"},{"poiid":"B2094757D66BABF84899","title":"美丽岛 Isola Bella","lon":"121.46196456535","lat":"31.218356786131","category":"47","category_name":"住宅区","address":"淮海中路864号2楼近茂名南路"},{"poiid":"B2094757D068ABFD449F","title":"南昌路","lon":"121.46371047","lat":"31.217465104","category":"260","category_name":"其他","address":"上海徐汇区南昌路"},{"poiid":"B2094757D06FA7F44393","title":"甜蜜蜜(茂名南路店)","lon":"121.46152","lat":"31.21648","category":"67","category_name":"甜品店","address":"卢湾区茂名南路80号(近南昌路)"},{"poiid":"B2094757D069A3FF499E","title":"金辰大酒店","lon":"121.463330525","lat":"31.2181942271","category":"76","category_name":"上海菜","address":"卢湾区淮海中路795-809号(近瑞金一路)"},{"poiid":"B2094757D068A7FC459F","title":"巴黎婚纱(淮海中路店)","lon":"121.46342","lat":"31.21838","category":"249","category_name":"购物服务","address":"上海卢湾区淮海中路780号(近瑞金一路)"},{"poiid":"B2094753D56BA5FF429A","title":"贝克街221B福尔摩斯主题咖啡店","lon":"121.462867","lat":"31.216363","category":"500","category_name":"未知分类","address":"上海市 瑞金二路50号"},{"poiid":"B2094757D069A3FC449D","title":"8号线人民广场站","lon":"121.46167173","lat":"31.217903037","category":"36","category_name":"地铁站","address":"上海市黄浦区"},{"poiid":"B2094654DB64A5F54099","title":"松阪烤肉","lon":"121.46118","lat":"31.21912","category":"87","category_name":"特色／地方风味餐厅","address":"卢湾区茂名南路59号锦江宾馆美食街(近长乐路)"},{"poiid":"B2094757DB6FA4F9469A","title":"白木屋","lon":"121.4612600956912","lat":"31.21832756200628","category":"500","category_name":"未知分类","address":"东湖路30号2楼近淮海中路"},{"poiid":"B2094757D06FABFE479D","title":"神田烧肉(淮海店)","lon":"121.46357","lat":"31.21842","category":"269","category_name":"烧烤","address":"卢湾区淮海中路776号锦江淮海大厦2楼(近瑞金一路)"},{"poiid":"B2094655D26AA2FB4598","title":"伊藤家瑞金店","lon":"121.46369","lat":"31.21796","category":"95","category_name":"日本料理","address":"卢湾区瑞金二路24号(近淮海中路)"},{"poiid":"B2094757DA69A1F84393","title":"季风书园陕西南路店","lon":"121.4602369892","lat":"31.217313815256","category":"125","category_name":"书店","address":"卢湾区地铁1号线陕西南路站站厅层(淮海中路陕西南路)"},{"poiid":"B2094654DA6EA1FD4399","title":"iD Hair","lon":"121.46328","lat":"31.21737","category":"148","category_name":"美容美发店","address":"卢湾区南昌路274号"},{"poiid":"B209475CD76EA3FC419B","title":"优衣库全球超级旗舰店","lon":"121.46099","lat":"31.217592","category":"500","category_name":"未知分类","address":"上海市 淮海中路887号"},{"poiid":"B2094752D764A6F54798","title":"蜀公馆成都老火锅(淮海中路店)","lon":"121.46319151","lat":"31.21869215","category":"247","category_name":"餐饮美食","address":"卢湾区淮海中路776号锦江淮海大厦1楼(近瑞金一路)"},{"poiid":"B2094757D168A0F5419D","title":"Sony Store","lon":"121.460197738","lat":"31.217224023","category":"500","category_name":"未知分类","address":"上海淮海中路901號"},{"poiid":"B2094654DA6EA1FF4099","title":"美臣大酒店","lon":"121.45985","lat":"31.21694","category":"215","category_name":"三星级宾馆","address":"卢湾区淮海中路935号(近陕西南路)"},{"poiid":"B209475CD769A1FE449F","title":"Mr.Choi蔡嘉法式甜品","lon":"121.462043","lat":"31.215843","category":"247","category_name":"餐饮美食","address":"上海市 茂名南路112号(南昌路)"},{"poiid":"B2094757D16EA0FB4498","title":"花园饭店33楼欧陆法式餐厅","lon":"121.460312738","lat":"31.2179050375","category":"500","category_name":"未知分类","address":"上海市静安区茂名南路58号"},{"poiid":"B2094757D068A3FE4599","title":"肯德基 KFC (永新店)","lon":"121.46133117","lat":"31.217547569","category":"68","category_name":"快餐厅","address":"卢湾区淮海中路887号永新百货内(近茂名南路)"},{"poiid":"B209475CD56CA1FE4599","title":"优衣库（UNIQLO SHANGHAI 店）","lon":"121.461094","lat":"31.21732","category":"141","category_name":"服装鞋帽皮具店","address":"上海市黄浦区淮海中路887号"},{"poiid":"B2094655D26BA3F8469F","title":"鸭王淮海店","lon":"121.46302","lat":"31.21864","category":"260","category_name":"其他","address":"卢湾区淮海中路786号4楼(近瑞金一路)"},{"poiid":"B2094757D464ABF4449C","title":"享咖 淮海中路店 Citta'","lon":"121.462261054","lat":"31.217926793","category":"65","category_name":"咖啡厅","address":"淮海中路837号近茂名南路"},{"poiid":"B2094752D76CA3FD4393","title":"tap coffee","lon":"121.461437","lat":"31.21855","category":"247","category_name":"餐饮美食","address":"南昌路150号"},{"poiid":"B2094655D36CA0F5419D","title":"淮海中路瑞金二路","lon":"121.46333","lat":"31.2186","category":"38","category_name":"公交车站","address":""},{"poiid":"B2094655D26FA3F84792","title":"巴黎婚纱上海旗舰店","lon":"121.46315","lat":"31.21865","category":"248","category_name":"生活娱乐","address":"上海卢湾区淮海中路780号"},{"poiid":"B2094757D66DA1F8479F","title":"锦梅食府","lon":"121.461082738","lat":"31.2191440639","category":"247","category_name":"餐饮美食","address":"上海市静安区陕西南路"},{"poiid":"B2094753D165A4FB419C","title":"星巴克（人民坊店）","lon":"121.462263","lat":"31.218097","category":"500","category_name":"未知分类","address":"上海市 淮海中路"},{"poiid":"B2094757D06FA5FF449E","title":"宜芝多(淮海精品店)","lon":"121.46244049","lat":"31.218528747","category":"112","category_name":"糕饼店","address":"卢湾区淮海中路843号(近茂名南路)"},{"poiid":"B2094654DA6EA1FF4198","title":"永新百货","lon":"121.46109","lat":"31.2174","category":"119","category_name":"商场","address":"卢湾区淮海中路887号(近茂名南路)"},{"poiid":"B2094757D66EA2FD489D","title":"松板烤肉","lon":"121.460966738","lat":"31.2190270614","category":"247","category_name":"餐饮美食","address":"上海茂名南路"},{"poiid":"B2094757D065A3FA469F","title":"江诗丹顿(淮海中路店)","lon":"121.462865565","lat":"31.2186572511","category":"131","category_name":"珠宝首饰工艺品","address":"上海卢湾区淮海中路796号(近瑞金一路)"},{"poiid":"B2094757D664A6FA469E","title":"老马车桂林米粉店 南昌路店","lon":"121.463039054","lat":"31.217267793","category":"68","category_name":"快餐厅","address":"卢湾区南昌路256号(近瑞金二路)"},{"poiid":"B2094757D465AAF8459A","title":"糖潮食坊 淮海店","lon":"121.46197688897","lat":"31.217881007078","category":"247","category_name":"餐饮美食","address":"淮海中路835号近茂名路"},{"poiid":"B2094654DA6EA1FD419D","title":"雕刻时光","lon":"121.46323","lat":"31.21718","category":"141","category_name":"服装鞋帽皮具店","address":"南昌路143"},{"poiid":"B2094655D268A0FC429F","title":"霞飞阁餐厅","lon":"121.45985","lat":"31.21695","category":"257","category_name":"中餐厅","address":"美臣大酒店8层"},{"poiid":"B2094655D268A5FE459D","title":"茂名南路159弄小区","lon":"121.46259","lat":"31.21637","category":"47","category_name":"住宅区","address":"茂名南路159弄1-22号"},{"poiid":"B2094654D564AAFC4998","title":"国泰电影院","lon":"121.46139","lat":"31.21795","category":"178","category_name":"电影院","address":"卢湾区淮海中路870号(茂名南路口)"},{"poiid":"B2094757D06FA3FC4998","title":"锦江饭店","lon":"121.46181369957924","lat":"31.21876480002918","category":"214","category_name":"四星级宾馆","address":"卢湾区茂名南路59号(近长乐路)"},{"poiid":"B2094757D06FA2FD439F","title":"红房子西菜馆","lon":"121.46237","lat":"31.21747","category":"94","category_name":"西餐厅","address":"卢湾区淮海中路845号(近茂名南路)"},{"poiid":"B2094753D76FAAFA449C","title":"上海滩国泰旗舰店","lon":"121.466011","lat":"31.216125","category":"249","category_name":"购物服务","address":"淮海中路868号"},{"poiid":"B209475CD564A7F84292","title":"上海滩新天地店","lon":"121.47463","lat":"31.22164","category":"119","category_name":"商场","address":"\"太仓路181弄新天地北里15号\r\n\""},{"poiid":"B209475CD564A7F8439E","title":"上海滩中信泰富店","lon":"121.45602","lat":"31.22851","category":"119","category_name":"商场","address":"\"南京西路1168号中信泰富广场，店铺号221.\r\n\""},{"poiid":"B2094654DB64A5FD409D","title":"苏浙汇","lon":"121.46125","lat":"31.21837","category":"76","category_name":"上海菜","address":"卢湾区茂名南路127号(近淮海路)"},{"poiid":"B2094757D06EAAF84093","title":"Citta'享咖(淮海中路店)","lon":"121.4627","lat":"31.2178","category":"65","category_name":"咖啡厅","address":"上海卢湾区淮海中路835号(近茂名南路近国泰电影院)  "},{"poiid":"B2094757D06FABFE479E","title":"阿大葱油饼","lon":"121.46193","lat":"31.21593","category":"68","category_name":"快餐厅","address":"卢湾区茂名南路159弄2号后门(近南昌路)"},{"poiid":"B2094757D06FA2FA4393","title":"必胜客(永新店)","lon":"121.461029357","lat":"31.2173208917","category":"94","category_name":"西餐厅","address":"卢湾区淮海中路887号永新百货B1楼(近茂名南路)"},{"poiid":"B2094757D06FA2F94298","title":"索尼上海旗舰店","lon":"121.46051788","lat":"31.217235565","category":"138","category_name":"家电电子卖场","address":"上海卢湾区淮海中路901-909号1-3楼(近陕西南路)"},{"poiid":"B2094757D06FA5F94792","title":"陋室设计书吧","lon":"121.46311623809811","lat":"31.217176613800408","category":"260","category_name":"其他","address":"卢湾区南昌路145号乙(近茂名南路)"},{"poiid":"B2094757D16DA7FF4798","title":"Kee Club","lon":"121.4625799","lat":"31.218268724","category":"260","category_name":"其他","address":"卢湾区淮海中路796号3-4楼(近瑞金一路)"},{"poiid":"B2094757D66BABF84899","title":"美丽岛 Isola Bella","lon":"121.46196456535","lat":"31.218356786131","category":"47","category_name":"住宅区","address":"淮海中路864号2楼近茂名南路"},{"poiid":"B2094757D068ABFD449F","title":"南昌路","lon":"121.46371047","lat":"31.217465104","category":"260","category_name":"其他","address":"上海徐汇区南昌路"},{"poiid":"B2094757D06FA7F44393","title":"甜蜜蜜(茂名南路店)","lon":"121.46152","lat":"31.21648","category":"67","category_name":"甜品店","address":"卢湾区茂名南路80号(近南昌路)"},{"poiid":"B2094757D069A3FF499E","title":"金辰大酒店","lon":"121.463330525","lat":"31.2181942271","category":"76","category_name":"上海菜","address":"卢湾区淮海中路795-809号(近瑞金一路)"},{"poiid":"B2094757D068A7FC459F","title":"巴黎婚纱(淮海中路店)","lon":"121.46342","lat":"31.21838","category":"249","category_name":"购物服务","address":"上海卢湾区淮海中路780号(近瑞金一路)"},{"poiid":"B2094753D56BA5FF429A","title":"贝克街221B福尔摩斯主题咖啡店","lon":"121.462867","lat":"31.216363","category":"500","category_name":"未知分类","address":"上海市 瑞金二路50号"},{"poiid":"B2094757D069A3FC449D","title":"8号线人民广场站","lon":"121.46167173","lat":"31.217903037","category":"36","category_name":"地铁站","address":"上海市黄浦区"},{"poiid":"B2094654DB64A5F54099","title":"松阪烤肉","lon":"121.46118","lat":"31.21912","category":"87","category_name":"特色／地方风味餐厅","address":"卢湾区茂名南路59号锦江宾馆美食街(近长乐路)"},{"poiid":"B2094757DB6FA4F9469A","title":"白木屋","lon":"121.4612600956912","lat":"31.21832756200628","category":"500","category_name":"未知分类","address":"东湖路30号2楼近淮海中路"},{"poiid":"B2094757D06FABFE479D","title":"神田烧肉(淮海店)","lon":"121.46357","lat":"31.21842","category":"269","category_name":"烧烤","address":"卢湾区淮海中路776号锦江淮海大厦2楼(近瑞金一路)"},{"poiid":"B2094655D26AA2FB4598","title":"伊藤家瑞金店","lon":"121.46369","lat":"31.21796","category":"95","category_name":"日本料理","address":"卢湾区瑞金二路24号(近淮海中路)"},{"poiid":"B2094757DA69A1F84393","title":"季风书园陕西南路店","lon":"121.4602369892","lat":"31.217313815256","category":"125","category_name":"书店","address":"卢湾区地铁1号线陕西南路站站厅层(淮海中路陕西南路)"},{"poiid":"B2094654DA6EA1FD4399","title":"iD Hair","lon":"121.46328","lat":"31.21737","category":"148","category_name":"美容美发店","address":"卢湾区南昌路274号"},{"poiid":"B209475CD76EA3FC419B","title":"优衣库全球超级旗舰店","lon":"121.46099","lat":"31.217592","category":"500","category_name":"未知分类","address":"上海市 淮海中路887号"},{"poiid":"B2094752D764A6F54798","title":"蜀公馆成都老火锅(淮海中路店)","lon":"121.46319151","lat":"31.21869215","category":"247","category_name":"餐饮美食","address":"卢湾区淮海中路776号锦江淮海大厦1楼(近瑞金一路)"},{"poiid":"B2094757D168A0F5419D","title":"Sony Store","lon":"121.460197738","lat":"31.217224023","category":"500","category_name":"未知分类","address":"上海淮海中路901號"},{"poiid":"B2094654DA6EA1FF4099","title":"美臣大酒店","lon":"121.45985","lat":"31.21694","category":"215","category_name":"三星级宾馆","address":"卢湾区淮海中路935号(近陕西南路)"},{"poiid":"B209475CD769A1FE449F","title":"Mr.Choi蔡嘉法式甜品","lon":"121.462043","lat":"31.215843","category":"247","category_name":"餐饮美食","address":"上海市 茂名南路112号(南昌路)"},{"poiid":"B2094757D16EA0FB4498","title":"花园饭店33楼欧陆法式餐厅","lon":"121.460312738","lat":"31.2179050375","category":"500","category_name":"未知分类","address":"上海市静安区茂名南路58号"},{"poiid":"B2094757D068A3FE4599","title":"肯德基 KFC (永新店)","lon":"121.46133117","lat":"31.217547569","category":"68","category_name":"快餐厅","address":"卢湾区淮海中路887号永新百货内(近茂名南路)"},{"poiid":"B209475CD56CA1FE4599","title":"优衣库（UNIQLO SHANGHAI 店）","lon":"121.461094","lat":"31.21732","category":"141","category_name":"服装鞋帽皮具店","address":"上海市黄浦区淮海中路887号"},{"poiid":"B2094655D26BA3F8469F","title":"鸭王淮海店","lon":"121.46302","lat":"31.21864","category":"260","category_name":"其他","address":"卢湾区淮海中路786号4楼(近瑞金一路)"},{"poiid":"B2094757D464ABF4449C","title":"享咖 淮海中路店 Citta'","lon":"121.462261054","lat":"31.217926793","category":"65","category_name":"咖啡厅","address":"淮海中路837号近茂名南路"},{"poiid":"B2094752D76CA3FD4393","title":"tap coffee","lon":"121.461437","lat":"31.21855","category":"247","category_name":"餐饮美食","address":"南昌路150号"},{"poiid":"B2094655D36CA0F5419D","title":"淮海中路瑞金二路","lon":"121.46333","lat":"31.2186","category":"38","category_name":"公交车站","address":""},{"poiid":"B2094655D26FA3F84792","title":"巴黎婚纱上海旗舰店","lon":"121.46315","lat":"31.21865","category":"248","category_name":"生活娱乐","address":"上海卢湾区淮海中路780号"},{"poiid":"B2094757D66DA1F8479F","title":"锦梅食府","lon":"121.461082738","lat":"31.2191440639","category":"247","category_name":"餐饮美食","address":"上海市静安区陕西南路"},{"poiid":"B2094753D165A4FB419C","title":"星巴克（人民坊店）","lon":"121.462263","lat":"31.218097","category":"500","category_name":"未知分类","address":"上海市 淮海中路"},{"poiid":"B2094757D06FA5FF449E","title":"宜芝多(淮海精品店)","lon":"121.46244049","lat":"31.218528747","category":"112","category_name":"糕饼店","address":"卢湾区淮海中路843号(近茂名南路)"},{"poiid":"B2094654DA6EA1FF4198","title":"永新百货","lon":"121.46109","lat":"31.2174","category":"119","category_name":"商场","address":"卢湾区淮海中路887号(近茂名南路)"},{"poiid":"B2094757D66EA2FD489D","title":"松板烤肉","lon":"121.460966738","lat":"31.2190270614","category":"247","category_name":"餐饮美食","address":"上海茂名南路"},{"poiid":"B2094757D065A3FA469F","title":"江诗丹顿(淮海中路店)","lon":"121.462865565","lat":"31.2186572511","category":"131","category_name":"珠宝首饰工艺品","address":"上海卢湾区淮海中路796号(近瑞金一路)"},{"poiid":"B2094757D664A6FA469E","title":"老马车桂林米粉店 南昌路店","lon":"121.463039054","lat":"31.217267793","category":"68","category_name":"快餐厅","address":"卢湾区南昌路256号(近瑞金二路)"},{"poiid":"B2094757D465AAF8459A","title":"糖潮食坊 淮海店","lon":"121.46197688897","lat":"31.217881007078","category":"247","category_name":"餐饮美食","address":"淮海中路835号近茂名路"},{"poiid":"B2094654DA6EA1FD419D","title":"雕刻时光","lon":"121.46323","lat":"31.21718","category":"141","category_name":"服装鞋帽皮具店","address":"南昌路143"},{"poiid":"B2094655D268A0FC429F","title":"霞飞阁餐厅","lon":"121.45985","lat":"31.21695","category":"257","category_name":"中餐厅","address":"美臣大酒店8层"},{"poiid":"B2094655D268A5FE459D","title":"茂名南路159弄小区","lon":"121.46259","lat":"31.21637","category":"47","category_name":"住宅区","address":"茂名南路159弄1-22号"},{"poiid":"B2094654D564AAFC4998","title":"国泰电影院","lon":"121.46139","lat":"31.21795","category":"178","category_name":"电影院","address":"卢湾区淮海中路870号(茂名南路口)"},{"poiid":"B2094757D06FA3FC4998","title":"锦江饭店","lon":"121.46181369957924","lat":"31.21876480002918","category":"214","category_name":"四星级宾馆","address":"卢湾区茂名南路59号(近长乐路)"},{"poiid":"B2094757D06FA2FD439F","title":"红房子西菜馆","lon":"121.46237","lat":"31.21747","category":"94","category_name":"西餐厅","address":"卢湾区淮海中路845号(近茂名南路)"},{"poiid":"B2094753D76FAAFA449C","title":"上海滩国泰旗舰店","lon":"121.466011","lat":"31.216125","category":"249","category_name":"购物服务","address":"淮海中路868号"},{"poiid":"B209475CD564A7F84292","title":"上海滩新天地店","lon":"121.47463","lat":"31.22164","category":"119","category_name":"商场","address":"\"太仓路181弄新天地北里15号\r\n\""},{"poiid":"B209475CD564A7F8439E","title":"上海滩中信泰富店","lon":"121.45602","lat":"31.22851","category":"119","category_name":"商场","address":"\"南京西路1168号中信泰富广场，店铺号221.\r\n\""},{"poiid":"B2094654DB64A5FD409D","title":"苏浙汇","lon":"121.46125","lat":"31.21837","category":"76","category_name":"上海菜","address":"卢湾区茂名南路127号(近淮海路)"},{"poiid":"B2094757D06EAAF84093","title":"Citta'享咖(淮海中路店)","lon":"121.4627","lat":"31.2178","category":"65","category_name":"咖啡厅","address":"上海卢湾区淮海中路835号(近茂名南路近国泰电影院)  "},{"poiid":"B2094757D06FABFE479E","title":"阿大葱油饼","lon":"121.46193","lat":"31.21593","category":"68","category_name":"快餐厅","address":"卢湾区茂名南路159弄2号后门(近南昌路)"},{"poiid":"B2094757D06FA2FA4393","title":"必胜客(永新店)","lon":"121.461029357","lat":"31.2173208917","category":"94","category_name":"西餐厅","address":"卢湾区淮海中路887号永新百货B1楼(近茂名南路)"},{"poiid":"B2094757D06FA2F94298","title":"索尼上海旗舰店","lon":"121.46051788","lat":"31.217235565","category":"138","category_name":"家电电子卖场","address":"上海卢湾区淮海中路901-909号1-3楼(近陕西南路)"},{"poiid":"B2094757D06FA5F94792","title":"陋室设计书吧","lon":"121.46311623809811","lat":"31.217176613800408","category":"260","category_name":"其他","address":"卢湾区南昌路145号乙(近茂名南路)"},{"poiid":"B2094757D16DA7FF4798","title":"Kee Club","lon":"121.4625799","lat":"31.218268724","category":"260","category_name":"其他","address":"卢湾区淮海中路796号3-4楼(近瑞金一路)"},{"poiid":"B2094757D66BABF84899","title":"美丽岛 Isola Bella","lon":"121.46196456535","lat":"31.218356786131","category":"47","category_name":"住宅区","address":"淮海中路864号2楼近茂名南路"},{"poiid":"B2094757D068ABFD449F","title":"南昌路","lon":"121.46371047","lat":"31.217465104","category":"260","category_name":"其他","address":"上海徐汇区南昌路"},{"poiid":"B2094757D06FA7F44393","title":"甜蜜蜜(茂名南路店)","lon":"121.46152","lat":"31.21648","category":"67","category_name":"甜品店","address":"卢湾区茂名南路80号(近南昌路)"},{"poiid":"B2094757D069A3FF499E","title":"金辰大酒店","lon":"121.463330525","lat":"31.2181942271","category":"76","category_name":"上海菜","address":"卢湾区淮海中路795-809号(近瑞金一路)"},{"poiid":"B2094757D068A7FC459F","title":"巴黎婚纱(淮海中路店)","lon":"121.46342","lat":"31.21838","category":"249","category_name":"购物服务","address":"上海卢湾区淮海中路780号(近瑞金一路)"},{"poiid":"B2094753D56BA5FF429A","title":"贝克街221B福尔摩斯主题咖啡店","lon":"121.462867","lat":"31.216363","category":"500","category_name":"未知分类","address":"上海市 瑞金二路50号"},{"poiid":"B2094757D069A3FC449D","title":"8号线人民广场站","lon":"121.46167173","lat":"31.217903037","category":"36","category_name":"地铁站","address":"上海市黄浦区"},{"poiid":"B2094654DB64A5F54099","title":"松阪烤肉","lon":"121.46118","lat":"31.21912","category":"87","category_name":"特色／地方风味餐厅","address":"卢湾区茂名南路59号锦江宾馆美食街(近长乐路)"},{"poiid":"B2094757DB6FA4F9469A","title":"白木屋","lon":"121.4612600956912","lat":"31.21832756200628","category":"500","category_name":"未知分类","address":"东湖路30号2楼近淮海中路"},{"poiid":"B2094757D06FABFE479D","title":"神田烧肉(淮海店)","lon":"121.46357","lat":"31.21842","category":"269","category_name":"烧烤","address":"卢湾区淮海中路776号锦江淮海大厦2楼(近瑞金一路)"},{"poiid":"B2094655D26AA2FB4598","title":"伊藤家瑞金店","lon":"121.46369","lat":"31.21796","category":"95","category_name":"日本料理","address":"卢湾区瑞金二路24号(近淮海中路)"},{"poiid":"B2094757DA69A1F84393","title":"季风书园陕西南路店","lon":"121.4602369892","lat":"31.217313815256","category":"125","category_name":"书店","address":"卢湾区地铁1号线陕西南路站站厅层(淮海中路陕西南路)"},{"poiid":"B2094654DA6EA1FD4399","title":"iD Hair","lon":"121.46328","lat":"31.21737","category":"148","category_name":"美容美发店","address":"卢湾区南昌路274号"},{"poiid":"B209475CD76EA3FC419B","title":"优衣库全球超级旗舰店","lon":"121.46099","lat":"31.217592","category":"500","category_name":"未知分类","address":"上海市 淮海中路887号"},{"poiid":"B2094752D764A6F54798","title":"蜀公馆成都老火锅(淮海中路店)","lon":"121.46319151","lat":"31.21869215","category":"247","category_name":"餐饮美食","address":"卢湾区淮海中路776号锦江淮海大厦1楼(近瑞金一路)"},{"poiid":"B2094757D168A0F5419D","title":"Sony Store","lon":"121.460197738","lat":"31.217224023","category":"500","category_name":"未知分类","address":"上海淮海中路901號"},{"poiid":"B2094654DA6EA1FF4099","title":"美臣大酒店","lon":"121.45985","lat":"31.21694","category":"215","category_name":"三星级宾馆","address":"卢湾区淮海中路935号(近陕西南路)"},{"poiid":"B209475CD769A1FE449F","title":"Mr.Choi蔡嘉法式甜品","lon":"121.462043","lat":"31.215843","category":"247","category_name":"餐饮美食","address":"上海市 茂名南路112号(南昌路)"},{"poiid":"B2094757D16EA0FB4498","title":"花园饭店33楼欧陆法式餐厅","lon":"121.460312738","lat":"31.2179050375","category":"500","category_name":"未知分类","address":"上海市静安区茂名南路58号"},{"poiid":"B2094757D068A3FE4599","title":"肯德基 KFC (永新店)","lon":"121.46133117","lat":"31.217547569","category":"68","category_name":"快餐厅","address":"卢湾区淮海中路887号永新百货内(近茂名南路)"},{"poiid":"B209475CD56CA1FE4599","title":"优衣库（UNIQLO SHANGHAI 店）","lon":"121.461094","lat":"31.21732","category":"141","category_name":"服装鞋帽皮具店","address":"上海市黄浦区淮海中路887号"},{"poiid":"B2094655D26BA3F8469F","title":"鸭王淮海店","lon":"121.46302","lat":"31.21864","category":"260","category_name":"其他","address":"卢湾区淮海中路786号4楼(近瑞金一路)"},{"poiid":"B2094757D464ABF4449C","title":"享咖 淮海中路店 Citta'","lon":"121.462261054","lat":"31.217926793","category":"65","category_name":"咖啡厅","address":"淮海中路837号近茂名南路"},{"poiid":"B2094752D76CA3FD4393","title":"tap coffee","lon":"121.461437","lat":"31.21855","category":"247","category_name":"餐饮美食","address":"南昌路150号"},{"poiid":"B2094655D36CA0F5419D","title":"淮海中路瑞金二路","lon":"121.46333","lat":"31.2186","category":"38","category_name":"公交车站","address":""},{"poiid":"B2094655D26FA3F84792","title":"巴黎婚纱上海旗舰店","lon":"121.46315","lat":"31.21865","category":"248","category_name":"生活娱乐","address":"上海卢湾区淮海中路780号"},{"poiid":"B2094757D66DA1F8479F","title":"锦梅食府","lon":"121.461082738","lat":"31.2191440639","category":"247","category_name":"餐饮美食","address":"上海市静安区陕西南路"},{"poiid":"B2094753D165A4FB419C","title":"星巴克（人民坊店）","lon":"121.462263","lat":"31.218097","category":"500","category_name":"未知分类","address":"上海市 淮海中路"},{"poiid":"B2094757D06FA5FF449E","title":"宜芝多(淮海精品店)","lon":"121.46244049","lat":"31.218528747","category":"112","category_name":"糕饼店","address":"卢湾区淮海中路843号(近茂名南路)"},{"poiid":"B2094654DA6EA1FF4198","title":"永新百货","lon":"121.46109","lat":"31.2174","category":"119","category_name":"商场","address":"卢湾区淮海中路887号(近茂名南路)"},{"poiid":"B2094757D66EA2FD489D","title":"松板烤肉","lon":"121.460966738","lat":"31.2190270614","category":"247","category_name":"餐饮美食","address":"上海茂名南路"},{"poiid":"B2094757D065A3FA469F","title":"江诗丹顿(淮海中路店)","lon":"121.462865565","lat":"31.2186572511","category":"131","category_name":"珠宝首饰工艺品","address":"上海卢湾区淮海中路796号(近瑞金一路)"},{"poiid":"B2094757D664A6FA469E","title":"老马车桂林米粉店 南昌路店","lon":"121.463039054","lat":"31.217267793","category":"68","category_name":"快餐厅","address":"卢湾区南昌路256号(近瑞金二路)"},{"poiid":"B2094757D465AAF8459A","title":"糖潮食坊 淮海店","lon":"121.46197688897","lat":"31.217881007078","category":"247","category_name":"餐饮美食","address":"淮海中路835号近茂名路"},{"poiid":"B2094654DA6EA1FD419D","title":"雕刻时光","lon":"121.46323","lat":"31.21718","category":"141","category_name":"服装鞋帽皮具店","address":"南昌路143"},{"poiid":"B2094655D268A0FC429F","title":"霞飞阁餐厅","lon":"121.45985","lat":"31.21695","category":"257","category_name":"中餐厅","address":"美臣大酒店8层"},{"poiid":"B2094655D268A5FE459D","title":"茂名南路159弄小区","lon":"121.46259","lat":"31.21637","category":"47","category_name":"住宅区","address":"茂名南路159弄1-22号"},{"poiid":"B2094654D564AAFC4998","title":"国泰电影院","lon":"121.46139","lat":"31.21795","category":"178","category_name":"电影院","address":"卢湾区淮海中路870号(茂名南路口)"},{"poiid":"B2094757D06FA3FC4998","title":"锦江饭店","lon":"121.46181369957924","lat":"31.21876480002918","category":"214","category_name":"四星级宾馆","address":"卢湾区茂名南路59号(近长乐路)"},{"poiid":"B2094757D06FA2FD439F","title":"红房子西菜馆","lon":"121.46237","lat":"31.21747","category":"94","category_name":"西餐厅","address":"卢湾区淮海中路845号(近茂名南路)"},{"poiid":"B2094753D76FAAFA449C","title":"上海滩国泰旗舰店","lon":"121.466011","lat":"31.216125","category":"249","category_name":"购物服务","address":"淮海中路868号"},{"poiid":"B209475CD564A7F84292","title":"上海滩新天地店","lon":"121.47463","lat":"31.22164","category":"119","category_name":"商场","address":"\"太仓路181弄新天地北里15号\r\n\""},{"poiid":"B209475CD564A7F8439E","title":"上海滩中信泰富店","lon":"121.45602","lat":"31.22851","category":"119","category_name":"商场","address":"\"南京西路1168号中信泰富广场，店铺号221.\r\n\""},{"poiid":"B2094654DB64A5FD409D","title":"苏浙汇","lon":"121.46125","lat":"31.21837","category":"76","category_name":"上海菜","address":"卢湾区茂名南路127号(近淮海路)"},{"poiid":"B2094757D06EAAF84093","title":"Citta'享咖(淮海中路店)","lon":"121.4627","lat":"31.2178","category":"65","category_name":"咖啡厅","address":"上海卢湾区淮海中路835号(近茂名南路近国泰电影院)  "},{"poiid":"B2094757D06FABFE479E","title":"阿大葱油饼","lon":"121.46193","lat":"31.21593","category":"68","category_name":"快餐厅","address":"卢湾区茂名南路159弄2号后门(近南昌路)"},{"poiid":"B2094757D06FA2FA4393","title":"必胜客(永新店)","lon":"121.461029357","lat":"31.2173208917","category":"94","category_name":"西餐厅","address":"卢湾区淮海中路887号永新百货B1楼(近茂名南路)"},{"poiid":"B2094757D06FA2F94298","title":"索尼上海旗舰店","lon":"121.46051788","lat":"31.217235565","category":"138","category_name":"家电电子卖场","address":"上海卢湾区淮海中路901-909号1-3楼(近陕西南路)"},{"poiid":"B2094757D06FA5F94792","title":"陋室设计书吧","lon":"121.46311623809811","lat":"31.217176613800408","category":"260","category_name":"其他","address":"卢湾区南昌路145号乙(近茂名南路)"},{"poiid":"B2094757D16DA7FF4798","title":"Kee Club","lon":"121.4625799","lat":"31.218268724","category":"260","category_name":"其他","address":"卢湾区淮海中路796号3-4楼(近瑞金一路)"},{"poiid":"B2094757D66BABF84899","title":"美丽岛 Isola Bella","lon":"121.46196456535","lat":"31.218356786131","category":"47","category_name":"住宅区","address":"淮海中路864号2楼近茂名南路"},{"poiid":"B2094757D068ABFD449F","title":"南昌路","lon":"121.46371047","lat":"31.217465104","category":"260","category_name":"其他","address":"上海徐汇区南昌路"},{"poiid":"B2094757D06FA7F44393","title":"甜蜜蜜(茂名南路店)","lon":"121.46152","lat":"31.21648","category":"67","category_name":"甜品店","address":"卢湾区茂名南路80号(近南昌路)"},{"poiid":"B2094757D069A3FF499E","title":"金辰大酒店","lon":"121.463330525","lat":"31.2181942271","category":"76","category_name":"上海菜","address":"卢湾区淮海中路795-809号(近瑞金一路)"},{"poiid":"B2094757D068A7FC459F","title":"巴黎婚纱(淮海中路店)","lon":"121.46342","lat":"31.21838","category":"249","category_name":"购物服务","address":"上海卢湾区淮海中路780号(近瑞金一路)"},{"poiid":"B2094753D56BA5FF429A","title":"贝克街221B福尔摩斯主题咖啡店","lon":"121.462867","lat":"31.216363","category":"500","category_name":"未知分类","address":"上海市 瑞金二路50号"},{"poiid":"B2094757D069A3FC449D","title":"8号线人民广场站","lon":"121.46167173","lat":"31.217903037","category":"36","category_name":"地铁站","address":"上海市黄浦区"},{"poiid":"B2094654DB64A5F54099","title":"松阪烤肉","lon":"121.46118","lat":"31.21912","category":"87","category_name":"特色／地方风味餐厅","address":"卢湾区茂名南路59号锦江宾馆美食街(近长乐路)"},{"poiid":"B2094757DB6FA4F9469A","title":"白木屋","lon":"121.4612600956912","lat":"31.21832756200628","category":"500","category_name":"未知分类","address":"东湖路30号2楼近淮海中路"},{"poiid":"B2094757D06FABFE479D","title":"神田烧肉(淮海店)","lon":"121.46357","lat":"31.21842","category":"269","category_name":"烧烤","address":"卢湾区淮海中路776号锦江淮海大厦2楼(近瑞金一路)"},{"poiid":"B2094655D26AA2FB4598","title":"伊藤家瑞金店","lon":"121.46369","lat":"31.21796","category":"95","category_name":"日本料理","address":"卢湾区瑞金二路24号(近淮海中路)"},{"poiid":"B2094757DA69A1F84393","title":"季风书园陕西南路店","lon":"121.4602369892","lat":"31.217313815256","category":"125","category_name":"书店","address":"卢湾区地铁1号线陕西南路站站厅层(淮海中路陕西南路)"},{"poiid":"B2094654DA6EA1FD4399","title":"iD Hair","lon":"121.46328","lat":"31.21737","category":"148","category_name":"美容美发店","address":"卢湾区南昌路274号"},{"poiid":"B209475CD76EA3FC419B","title":"优衣库全球超级旗舰店","lon":"121.46099","lat":"31.217592","category":"500","category_name":"未知分类","address":"上海市 淮海中路887号"},{"poiid":"B2094752D764A6F54798","title":"蜀公馆成都老火锅(淮海中路店)","lon":"121.46319151","lat":"31.21869215","category":"247","category_name":"餐饮美食","address":"卢湾区淮海中路776号锦江淮海大厦1楼(近瑞金一路)"},{"poiid":"B2094757D168A0F5419D","title":"Sony Store","lon":"121.460197738","lat":"31.217224023","category":"500","category_name":"未知分类","address":"上海淮海中路901號"},{"poiid":"B2094654DA6EA1FF4099","title":"美臣大酒店","lon":"121.45985","lat":"31.21694","category":"215","category_name":"三星级宾馆","address":"卢湾区淮海中路935号(近陕西南路)"},{"poiid":"B209475CD769A1FE449F","title":"Mr.Choi蔡嘉法式甜品","lon":"121.462043","lat":"31.215843","category":"247","category_name":"餐饮美食","address":"上海市 茂名南路112号(南昌路)"},{"poiid":"B2094757D16EA0FB4498","title":"花园饭店33楼欧陆法式餐厅","lon":"121.460312738","lat":"31.2179050375","category":"500","category_name":"未知分类","address":"上海市静安区茂名南路58号"},{"poiid":"B2094757D068A3FE4599","title":"肯德基 KFC (永新店)","lon":"121.46133117","lat":"31.217547569","category":"68","category_name":"快餐厅","address":"卢湾区淮海中路887号永新百货内(近茂名南路)"},{"poiid":"B209475CD56CA1FE4599","title":"优衣库（UNIQLO SHANGHAI 店）","lon":"121.461094","lat":"31.21732","category":"141","category_name":"服装鞋帽皮具店","address":"上海市黄浦区淮海中路887号"},{"poiid":"B2094655D26BA3F8469F","title":"鸭王淮海店","lon":"121.46302","lat":"31.21864","category":"260","category_name":"其他","address":"卢湾区淮海中路786号4楼(近瑞金一路)"},{"poiid":"B2094757D464ABF4449C","title":"享咖 淮海中路店 Citta'","lon":"121.462261054","lat":"31.217926793","category":"65","category_name":"咖啡厅","address":"淮海中路837号近茂名南路"},{"poiid":"B2094752D76CA3FD4393","title":"tap coffee","lon":"121.461437","lat":"31.21855","category":"247","category_name":"餐饮美食","address":"南昌路150号"},{"poiid":"B2094655D36CA0F5419D","title":"淮海中路瑞金二路","lon":"121.46333","lat":"31.2186","category":"38","category_name":"公交车站","address":""},{"poiid":"B2094655D26FA3F84792","title":"巴黎婚纱上海旗舰店","lon":"121.46315","lat":"31.21865","category":"248","category_name":"生活娱乐","address":"上海卢湾区淮海中路780号"},{"poiid":"B2094757D66DA1F8479F","title":"锦梅食府","lon":"121.461082738","lat":"31.2191440639","category":"247","category_name":"餐饮美食","address":"上海市静安区陕西南路"},{"poiid":"B2094753D165A4FB419C","title":"星巴克（人民坊店）","lon":"121.462263","lat":"31.218097","category":"500","category_name":"未知分类","address":"上海市 淮海中路"},{"poiid":"B2094757D06FA5FF449E","title":"宜芝多(淮海精品店)","lon":"121.46244049","lat":"31.218528747","category":"112","category_name":"糕饼店","address":"卢湾区淮海中路843号(近茂名南路)"},{"poiid":"B2094654DA6EA1FF4198","title":"永新百货","lon":"121.46109","lat":"31.2174","category":"119","category_name":"商场","address":"卢湾区淮海中路887号(近茂名南路)"},{"poiid":"B2094757D66EA2FD489D","title":"松板烤肉","lon":"121.460966738","lat":"31.2190270614","category":"247","category_name":"餐饮美食","address":"上海茂名南路"},{"poiid":"B2094757D065A3FA469F","title":"江诗丹顿(淮海中路店)","lon":"121.462865565","lat":"31.2186572511","category":"131","category_name":"珠宝首饰工艺品","address":"上海卢湾区淮海中路796号(近瑞金一路)"},{"poiid":"B2094757D664A6FA469E","title":"老马车桂林米粉店 南昌路店","lon":"121.463039054","lat":"31.217267793","category":"68","category_name":"快餐厅","address":"卢湾区南昌路256号(近瑞金二路)"},{"poiid":"B2094757D465AAF8459A","title":"糖潮食坊 淮海店","lon":"121.46197688897","lat":"31.217881007078","category":"247","category_name":"餐饮美食","address":"淮海中路835号近茂名路"},{"poiid":"B2094654DA6EA1FD419D","title":"雕刻时光","lon":"121.46323","lat":"31.21718","category":"141","category_name":"服装鞋帽皮具店","address":"南昌路143"},{"poiid":"B2094655D268A0FC429F","title":"霞飞阁餐厅","lon":"121.45985","lat":"31.21695","category":"257","category_name":"中餐厅","address":"美臣大酒店8层"},{"poiid":"B2094655D268A5FE459D","title":"茂名南路159弄小区","lon":"121.46259","lat":"31.21637","category":"47","category_name":"住宅区","address":"茂名南路159弄1-22号"},{"poiid":"B2094654D564AAFC4998","title":"国泰电影院","lon":"121.46139","lat":"31.21795","category":"178","category_name":"电影院","address":"卢湾区淮海中路870号(茂名南路口)"},{"poiid":"B2094757D06FA3FC4998","title":"锦江饭店","lon":"121.46181369957924","lat":"31.21876480002918","category":"214","category_name":"四星级宾馆","address":"卢湾区茂名南路59号(近长乐路)"},{"poiid":"B2094757D06FA2FD439F","title":"红房子西菜馆","lon":"121.46237","lat":"31.21747","category":"94","category_name":"西餐厅","address":"卢湾区淮海中路845号(近茂名南路)"},{"poiid":"B2094753D76FAAFA449C","title":"上海滩国泰旗舰店","lon":"121.466011","lat":"31.216125","category":"249","category_name":"购物服务","address":"淮海中路868号"},{"poiid":"B209475CD564A7F84292","title":"上海滩新天地店","lon":"121.47463","lat":"31.22164","category":"119","category_name":"商场","address":"\"太仓路181弄新天地北里15号\r\n\""},{"poiid":"B209475CD564A7F8439E","title":"上海滩中信泰富店","lon":"121.45602","lat":"31.22851","category":"119","category_name":"商场","address":"\"南京西路1168号中信泰富广场，店铺号221.\r\n\""},{"poiid":"B2094654DB64A5FD409D","title":"苏浙汇","lon":"121.46125","lat":"31.21837","category":"76","category_name":"上海菜","address":"卢湾区茂名南路127号(近淮海路)"},{"poiid":"B2094757D06EAAF84093","title":"Citta'享咖(淮海中路店)","lon":"121.4627","lat":"31.2178","category":"65","category_name":"咖啡厅","address":"上海卢湾区淮海中路835号(近茂名南路近国泰电影院)  "},{"poiid":"B2094757D06FABFE479E","title":"阿大葱油饼","lon":"121.46193","lat":"31.21593","category":"68","category_name":"快餐厅","address":"卢湾区茂名南路159弄2号后门(近南昌路)"},{"poiid":"B2094757D06FA2FA4393","title":"必胜客(永新店)","lon":"121.461029357","lat":"31.2173208917","category":"94","category_name":"西餐厅","address":"卢湾区淮海中路887号永新百货B1楼(近茂名南路)"},{"poiid":"B2094757D06FA2F94298","title":"索尼上海旗舰店","lon":"121.46051788","lat":"31.217235565","category":"138","category_name":"家电电子卖场","address":"上海卢湾区淮海中路901-909号1-3楼(近陕西南路)"},{"poiid":"B2094757D06FA5F94792","title":"陋室设计书吧","lon":"121.46311623809811","lat":"31.217176613800408","category":"260","category_name":"其他","address":"卢湾区南昌路145号乙(近茂名南路)"},{"poiid":"B2094757D16DA7FF4798","title":"Kee Club","lon":"121.4625799","lat":"31.218268724","category":"260","category_name":"其他","address":"卢湾区淮海中路796号3-4楼(近瑞金一路)"},{"poiid":"B2094757D66BABF84899","title":"美丽岛 Isola Bella","lon":"121.46196456535","lat":"31.218356786131","category":"47","category_name":"住宅区","address":"淮海中路864号2楼近茂名南路"},{"poiid":"B2094757D068ABFD449F","title":"南昌路","lon":"121.46371047","lat":"31.217465104","category":"260","category_name":"其他","address":"上海徐汇区南昌路"},{"poiid":"B2094757D06FA7F44393","title":"甜蜜蜜(茂名南路店)","lon":"121.46152","lat":"31.21648","category":"67","category_name":"甜品店","address":"卢湾区茂名南路80号(近南昌路)"},{"poiid":"B2094757D069A3FF499E","title":"金辰大酒店","lon":"121.463330525","lat":"31.2181942271","category":"76","category_name":"上海菜","address":"卢湾区淮海中路795-809号(近瑞金一路)"},{"poiid":"B2094757D068A7FC459F","title":"巴黎婚纱(淮海中路店)","lon":"121.46342","lat":"31.21838","category":"249","category_name":"购物服务","address":"上海卢湾区淮海中路780号(近瑞金一路)"},{"poiid":"B2094753D56BA5FF429A","title":"贝克街221B福尔摩斯主题咖啡店","lon":"121.462867","lat":"31.216363","category":"500","category_name":"未知分类","address":"上海市 瑞金二路50号"},{"poiid":"B2094757D069A3FC449D","title":"8号线人民广场站","lon":"121.46167173","lat":"31.217903037","category":"36","category_name":"地铁站","address":"上海市黄浦区"},{"poiid":"B2094654DB64A5F54099","title":"松阪烤肉","lon":"121.46118","lat":"31.21912","category":"87","category_name":"特色／地方风味餐厅","address":"卢湾区茂名南路59号锦江宾馆美食街(近长乐路)"},{"poiid":"B2094757DB6FA4F9469A","title":"白木屋","lon":"121.4612600956912","lat":"31.21832756200628","category":"500","category_name":"未知分类","address":"东湖路30号2楼近淮海中路"},{"poiid":"B2094757D06FABFE479D","title":"神田烧肉(淮海店)","lon":"121.46357","lat":"31.21842","category":"269","category_name":"烧烤","address":"卢湾区淮海中路776号锦江淮海大厦2楼(近瑞金一路)"},{"poiid":"B2094655D26AA2FB4598","title":"伊藤家瑞金店","lon":"121.46369","lat":"31.21796","category":"95","category_name":"日本料理","address":"卢湾区瑞金二路24号(近淮海中路)"},{"poiid":"B2094757DA69A1F84393","title":"季风书园陕西南路店","lon":"121.4602369892","lat":"31.217313815256","category":"125","category_name":"书店","address":"卢湾区地铁1号线陕西南路站站厅层(淮海中路陕西南路)"},{"poiid":"B2094654DA6EA1FD4399","title":"iD Hair","lon":"121.46328","lat":"31.21737","category":"148","category_name":"美容美发店","address":"卢湾区南昌路274号"},{"poiid":"B209475CD76EA3FC419B","title":"优衣库全球超级旗舰店","lon":"121.46099","lat":"31.217592","category":"500","category_name":"未知分类","address":"上海市 淮海中路887号"},{"poiid":"B2094752D764A6F54798","title":"蜀公馆成都老火锅(淮海中路店)","lon":"121.46319151","lat":"31.21869215","category":"247","category_name":"餐饮美食","address":"卢湾区淮海中路776号锦江淮海大厦1楼(近瑞金一路)"},{"poiid":"B2094757D168A0F5419D","title":"Sony Store","lon":"121.460197738","lat":"31.217224023","category":"500","category_name":"未知分类","address":"上海淮海中路901號"},{"poiid":"B2094654DA6EA1FF4099","title":"美臣大酒店","lon":"121.45985","lat":"31.21694","category":"215","category_name":"三星级宾馆","address":"卢湾区淮海中路935号(近陕西南路)"},{"poiid":"B209475CD769A1FE449F","title":"Mr.Choi蔡嘉法式甜品","lon":"121.462043","lat":"31.215843","category":"247","category_name":"餐饮美食","address":"上海市 茂名南路112号(南昌路)"},{"poiid":"B2094757D16EA0FB4498","title":"花园饭店33楼欧陆法式餐厅","lon":"121.460312738","lat":"31.2179050375","category":"500","category_name":"未知分类","address":"上海市静安区茂名南路58号"},{"poiid":"B2094757D068A3FE4599","title":"肯德基 KFC (永新店)","lon":"121.46133117","lat":"31.217547569","category":"68","category_name":"快餐厅","address":"卢湾区淮海中路887号永新百货内(近茂名南路)"},{"poiid":"B209475CD56CA1FE4599","title":"优衣库（UNIQLO SHANGHAI 店）","lon":"121.461094","lat":"31.21732","category":"141","category_name":"服装鞋帽皮具店","address":"上海市黄浦区淮海中路887号"},{"poiid":"B2094655D26BA3F8469F","title":"鸭王淮海店","lon":"121.46302","lat":"31.21864","category":"260","category_name":"其他","address":"卢湾区淮海中路786号4楼(近瑞金一路)"},{"poiid":"B2094757D464ABF4449C","title":"享咖 淮海中路店 Citta'","lon":"121.462261054","lat":"31.217926793","category":"65","category_name":"咖啡厅","address":"淮海中路837号近茂名南路"},{"poiid":"B2094752D76CA3FD4393","title":"tap coffee","lon":"121.461437","lat":"31.21855","category":"247","category_name":"餐饮美食","address":"南昌路150号"},{"poiid":"B2094655D36CA0F5419D","title":"淮海中路瑞金二路","lon":"121.46333","lat":"31.2186","category":"38","category_name":"公交车站","address":""},{"poiid":"B2094655D26FA3F84792","title":"巴黎婚纱上海旗舰店","lon":"121.46315","lat":"31.21865","category":"248","category_name":"生活娱乐","address":"上海卢湾区淮海中路780号"},{"poiid":"B2094757D66DA1F8479F","title":"锦梅食府","lon":"121.461082738","lat":"31.2191440639","category":"247","category_name":"餐饮美食","address":"上海市静安区陕西南路"},{"poiid":"B2094753D165A4FB419C","title":"星巴克（人民坊店）","lon":"121.462263","lat":"31.218097","category":"500","category_name":"未知分类","address":"上海市 淮海中路"},{"poiid":"B2094757D06FA5FF449E","title":"宜芝多(淮海精品店)","lon":"121.46244049","lat":"31.218528747","category":"112","category_name":"糕饼店","address":"卢湾区淮海中路843号(近茂名南路)"},{"poiid":"B2094654DA6EA1FF4198","title":"永新百货","lon":"121.46109","lat":"31.2174","category":"119","category_name":"商场","address":"卢湾区淮海中路887号(近茂名南路)"},{"poiid":"B2094757D66EA2FD489D","title":"松板烤肉","lon":"121.460966738","lat":"31.2190270614","category":"247","category_name":"餐饮美食","address":"上海茂名南路"},{"poiid":"B2094757D065A3FA469F","title":"江诗丹顿(淮海中路店)","lon":"121.462865565","lat":"31.2186572511","category":"131","category_name":"珠宝首饰工艺品","address":"上海卢湾区淮海中路796号(近瑞金一路)"},{"poiid":"B2094757D664A6FA469E","title":"老马车桂林米粉店 南昌路店","lon":"121.463039054","lat":"31.217267793","category":"68","category_name":"快餐厅","address":"卢湾区南昌路256号(近瑞金二路)"},{"poiid":"B2094757D465AAF8459A","title":"糖潮食坊 淮海店","lon":"121.46197688897","lat":"31.217881007078","category":"247","category_name":"餐饮美食","address":"淮海中路835号近茂名路"},{"poiid":"B2094654DA6EA1FD419D","title":"雕刻时光","lon":"121.46323","lat":"31.21718","category":"141","category_name":"服装鞋帽皮具店","address":"南昌路143"},{"poiid":"B2094655D268A0FC429F","title":"霞飞阁餐厅","lon":"121.45985","lat":"31.21695","category":"257","category_name":"中餐厅","address":"美臣大酒店8层"},{"poiid":"B2094655D268A5FE459D","title":"茂名南路159弄小区","lon":"121.46259","lat":"31.21637","category":"47","category_name":"住宅区","address":"茂名南路159弄1-22号"}]