[{"poiid":"B2094654DB64A3F9429C","title":"上海浦东软件园(郭守敬路)","lon":"121.59803","lat":"31.2104","category":"45","category_name":"产业园区","address":"上海浦东新区郭守敬路498号"},{"poiid":"B2094757D06EAAFE489D","title":"金科路地铁站","lon":"121.60199942","lat":"31.204334926","category":"36","category_name":"地铁站","address":"上海轨道交通,二号线,轨交金科路站,2"},{"poiid":"B2094757D06FA2F5449B","title":"张江创新园","lon":"121.59543194719","lat":"31.210169439571","category":"46","category_name":"楼宇","address":"上海市虹口区四川北路1318号"},{"poiid":"B2094757D06FA7FE459D","title":"SAP Labs China","lon":"121.60177497","lat":"31.201272383","category":"46","category_name":"楼宇","address":"上海浦东新区张江软件园晨晖路1001号"},{"poiid":"B2094757D068A3FA4099","title":"华师大二附中","lon":"121.59181","lat":"31.20015","category":"68","category_name":"快餐厅","address":"浦东新区晨晖路555号(近地铁二号线张江高科站)"},{"poiid":"B2094757D06FA4F44493","title":"IBM国际商业机器(中国)有限公司","lon":"121.588928479","lat":"31.204423861","category":"46","category_name":"楼宇","address":"上海浦东新区张江高科技园区科苑路 399号"},{"poiid":"B2094757D06FA7FF419D","title":"索尼中国上海技术中心","lon":"121.597466469","lat":"31.2065818267","category":"46","category_name":"楼宇","address":"上海浦东居里路361号"},{"poiid":"B2094757D068A3FE4292","title":"罗氏制药","lon":"121.595334109","lat":"31.2138314147","category":"46","category_name":"楼宇","address":"上海浦东新区龙东大道1100号"},{"poiid":"B2094757D068A0F4499E","title":"惠普全球软件服务中心","lon":"121.60092563","lat":"31.212782197","category":"500","category_name":"未知分类","address":"上海金科路2557号"},{"poiid":"B2094654DA6AA5F44098","title":"上海市张江高科技园区","lon":"121.59851","lat":"31.21081","category":"45","category_name":"产业园区","address":"郭守敬路498"},{"poiid":"B2094654DA6AA7F54898","title":"盛大网络 Office","lon":"121.59645","lat":"31.20979","category":"263","category_name":"公司","address":"浦东新区张江居里路208号(近李时珍路)"},{"poiid":"B2094757D06AA0F84293","title":"凯顿酒店","lon":"121.59412","lat":"31.21041","category":"76","category_name":"上海菜","address":"浦东新区郭守敬路277号(近牛顿路)"},{"poiid":"B2094655D36CA5FF4993","title":"晨晖路金科路","lon":"121.59992","lat":"31.20095","category":"38","category_name":"公交车站","address":""},{"poiid":"B2094757D068A7FA419D","title":"东方有线网络有限公司","lon":"121.59869856","lat":"31.206576704","category":"46","category_name":"楼宇","address":"上海市浦东新区金科路2860号"},{"poiid":"B2094757D465ABF44399","title":"索尼食堂 张江店","lon":"121.597692","lat":"31.205239","category":"76","category_name":"上海菜","address":"浦东新区居里路361号(近祖冲之路)"},{"poiid":"B2094757D064A7FA479A","title":"潘朵拉城市行动咖啡 张江店 Pandora","lon":"121.59851","lat":"31.21045","category":"113","category_name":"冷饮店","address":"浦东新区郭守敬路498号浦东软件园1楼大堂(近金科路)"},{"poiid":"B2094757D068ABF84893","title":"上海超级计算中心","lon":"121.600575","lat":"31.211526","category":"46","category_name":"楼宇","address":"上海浦东新区郭守敬路585号"},{"poiid":"B2094655D36DA6FD4798","title":"金科路","lon":"121.60198","lat":"31.20435","category":"38","category_name":"公交车站","address":"上海市浦东新区高科中路1176号(哈雷路口)"},{"poiid":"B2094757D168A7F54899","title":"微创医疗器械(上海)有限公司","lon":"121.592512208","lat":"31.2037464413","category":"902","category_name":"楼宇机构","address":"上海牛顿路501号"},{"poiid":"B2094757D169A7F9499E","title":"上海可鲁电气技术有限公司","lon":"121.594772315","lat":"31.2060979663","category":"46","category_name":"楼宇","address":"上海祖冲之路887弄82号"},{"poiid":"B2094757D069A5F44093","title":"真旺餐厅","lon":"121.59939","lat":"31.20863","category":"76","category_name":"上海菜","address":"浦东新区郭守敬路498号浦东软件园14号楼1楼(近金科路)"},{"poiid":"B2094655D36CA7F4429B","title":"郭守敬路居里路","lon":"121.5954","lat":"31.21034","category":"38","category_name":"公交车站","address":""},{"poiid":"B2094757D068ABF8409F","title":"浦东软件园老食堂","lon":"121.59798662","lat":"31.208716206","category":"68","category_name":"快餐厅","address":"上海浦东新区郭守敬路498号浦东软件园1楼西侧(近居里路)"},{"poiid":"B2094655D36CA7F4429A","title":"郭守敬路牛顿路","lon":"121.59158","lat":"31.20951","category":"38","category_name":"公交车站","address":""},{"poiid":"B2094757D06BA2F8429F","title":"杜邦上海分公司","lon":"121.59448349","lat":"31.203688989","category":"263","category_name":"公司","address":"上海科苑路399号"},{"poiid":"B2094655D36DA7FB4498","title":"祖冲之路居里路","lon":"121.59797","lat":"31.20387","category":"38","category_name":"公交车站","address":""},{"poiid":"B2094757D068A7FC439D","title":"张江软件园 SONY附近","lon":"121.59889984","lat":"31.204101562","category":"500","category_name":"未知分类","address":"上海祖冲之路居里路"},{"poiid":"B2094757D06BA6F9409E","title":"凌阳大厦","lon":"121.59737095","lat":"31.203805892","category":"252","category_name":"楼宇机构","address":"上海祖冲之路1077号"},{"poiid":"B2094655D265AAF44693","title":"川味江湖","lon":"121.59815","lat":"31.2043","category":"71","category_name":"四川菜","address":"浦东新区祖冲之路1077号凌阳大厦3楼C区(近张江地铁站)"},{"poiid":"B2094757D06BA7F94398","title":"科苑路郭守敬路建设银行","lon":"121.589169","lat":"31.20903","category":"46","category_name":"楼宇","address":"上海郭守敬路科苑路"},{"poiid":"B2094757D16EA2FC499E","title":"张江高科实验小学(藿香校区)","lon":"121.59458234","lat":"31.201181852","category":"55","category_name":"中学","address":"上海浦东新区藿香路88号"},{"poiid":"B2094654DA6AA0FE419C","title":"宝钢高科技园","lon":"121.59823","lat":"31.2116","category":"45","category_name":"产业园区","address":"郭守敬路515号"},{"poiid":"B2094757D16BA3FD499B","title":"上海法雷奥汽车电器系统有限公司","lon":"121.59355287","lat":"31.203648139","category":"46","category_name":"楼宇","address":"浦东新区科苑路501号"},{"poiid":"B2094757D069ABFC479A","title":"生生开记","lon":"121.58949661","lat":"31.205263231","category":"94","category_name":"西餐厅","address":"浦东新区科苑路399号创新园12号楼101单元(近祖冲之路)"},{"poiid":"B2094654DA6AA0FE429B","title":"全家(祖冲之路)","lon":"121.59405","lat":"31.20329","category":"117","category_name":"便民商店/便利店","address":"祖冲之路899"},{"poiid":"B2094757D16BA2FB4199","title":"AP空气化工72号5楼饭厅","lon":"121.59521897","lat":"31.207282524","category":"500","category_name":"未知分类","address":"上海市浦东新区祖冲之路887弄72号"},{"poiid":"B2094757D164A4F8419F","title":"浦东软件园21号楼","lon":"121.59790962","lat":"31.208754206","category":"46","category_name":"楼宇","address":"上海郭守敬路498号21号楼"},{"poiid":"B2094757D069A6F9479C","title":"畅星大厦","lon":"121.590298","lat":"31.203588","category":"500","category_name":"未知分类","address":"上海碧波路888号"},{"poiid":"B2094757D569A1FE4092","title":"张江软件园老食堂","lon":"121.59851","lat":"31.21080889","category":"68","category_name":"快餐厅","address":"浦东新区郭守敬路498号浦东软件园1楼西侧(近金科路)"},{"poiid":"B2094654DA6AA6FC409E","title":"上海市张江高科技园区(上海市中医科技产业促进中心东)","lon":"121.59384","lat":"31.21024","category":"45","category_name":"产业园区","address":""},{"poiid":"B2094655D26DA6F44199","title":"索尼(中国)有限公司上海技术中心分公司","lon":"121.59741","lat":"31.20701","category":"263","category_name":"公司","address":"居里路361"},{"poiid":"B2094757D168A3FB4193","title":"上海华虹NEC电子有限公司(二厂)","lon":"121.60198263","lat":"31.210970194","category":"46","category_name":"楼宇","address":"上海浦东新区郭守敬路668号"},{"poiid":"B2094655D264A4F9409D","title":"CoffeeForYou","lon":"121.599845054","lat":"31.204646793","category":"65","category_name":"咖啡厅","address":"金科路2966号浙大网新园区北楼1楼近祖冲之路"},{"poiid":"B2094757D465A4FE4499","title":"焙啦 Bella's Bakery & Cafe","lon":"121.589147054","lat":"31.204990793","category":"112","category_name":"糕饼店","address":"浦东新区张江科苑路399号创新园12号楼102单元(近祖冲之路)"},{"poiid":"B2094654DA6AA0FE4193","title":"上海浦东新区光启安老院","lon":"121.59745","lat":"31.20538","category":"207","category_name":"度假疗养场所","address":"浦东新区居里路469"},{"poiid":"B2094654DA6AA6FC4299","title":"上海市张江高科技园区热力中心","lon":"121.59243","lat":"31.2091","category":"45","category_name":"产业园区","address":"郭守敬路178"},{"poiid":"B2094654DA6AA7F54899","title":"上海天士力药业有限公司","lon":"121.59637","lat":"31.20817","category":"263","category_name":"公司","address":"居里路280"},{"poiid":"B2094757D06AA6F5409D","title":"第一三共制药","lon":"121.59593166","lat":"31.204504812","category":"500","category_name":"未知分类","address":"上海居里路500号"},{"poiid":"B2094655D36DA7FB4499","title":"祖冲之路牛顿路","lon":"121.59153","lat":"31.20267","category":"38","category_name":"公交车站","address":""},{"poiid":"B2094757D468AAFA4193","title":"Joyful Joyce","lon":"121.5968007","lat":"31.2106051","category":"98","category_name":"意式菜品餐厅","address":"浦东新区郭守敬路433号(近居里路)"},{"poiid":"B2094654DB64A3F9429C","title":"上海浦东软件园(郭守敬路)","lon":"121.59803","lat":"31.2104","category":"45","category_name":"产业园区","address":"上海浦东新区郭守敬路498号"},{"poiid":"B2094757D06EAAFE489D","title":"金科路地铁站","lon":"121.60199942","lat":"31.204334926","category":"36","category_name":"地铁站","address":"上海轨道交通,二号线,轨交金科路站,2"},{"poiid":"B2094757D06FA2F5449B","title":"张江创新园","lon":"121.59543194719","lat":"31.210169439571","category":"46","category_name":"楼宇","address":"上海市虹口区四川北路1318号"},{"poiid":"B2094757D06FA7FE459D","title":"SAP Labs China","lon":"121.60177497","lat":"31.201272383","category":"46","category_name":"楼宇","address":"上海浦东新区张江软件园晨晖路1001号"},{"poiid":"B2094757D068A3FA4099","title":"华师大二附中","lon":"121.59181","lat":"31.20015","category":"68","category_name":"快餐厅","address":"浦东新区晨晖路555号(近地铁二号线张江高科站)"},{"poiid":"B2094757D06FA4F44493","title":"IBM国际商业机器(中国)有限公司","lon":"121.588928479","lat":"31.204423861","category":"46","category_name":"楼宇","address":"上海浦东新区张江高科技园区科苑路 399号"},{"poiid":"B2094757D06FA7FF419D","title":"索尼中国上海技术中心","lon":"121.597466469","lat":"31.2065818267","category":"46","category_name":"楼宇","address":"上海浦东居里路361号"},{"poiid":"B2094757D068A3FE4292","title":"罗氏制药","lon":"121.595334109","lat":"31.2138314147","category":"46","category_name":"楼宇","address":"上海浦东新区龙东大道1100号"},{"poiid":"B2094757D068A0F4499E","title":"惠普全球软件服务中心","lon":"121.60092563","lat":"31.212782197","category":"500","category_name":"未知分类","address":"上海金科路2557号"},{"poiid":"B2094654DA6AA5F44098","title":"上海市张江高科技园区","lon":"121.59851","lat":"31.21081","category":"45","category_name":"产业园区","address":"郭守敬路498"},{"poiid":"B2094654DA6AA7F54898","title":"盛大网络 Office","lon":"121.59645","lat":"31.20979","category":"263","category_name":"公司","address":"浦东新区张江居里路208号(近李时珍路)"},{"poiid":"B2094757D06AA0F84293","title":"凯顿酒店","lon":"121.59412","lat":"31.21041","category":"76","category_name":"上海菜","address":"浦东新区郭守敬路277号(近牛顿路)"},{"poiid":"B2094655D36CA5FF4993","title":"晨晖路金科路","lon":"121.59992","lat":"31.20095","category":"38","category_name":"公交车站","address":""},{"poiid":"B2094757D068A7FA419D","title":"东方有线网络有限公司","lon":"121.59869856","lat":"31.206576704","category":"46","category_name":"楼宇","address":"上海市浦东新区金科路2860号"},{"poiid":"B2094757D465ABF44399","title":"索尼食堂 张江店","lon":"121.597692","lat":"31.205239","category":"76","category_name":"上海菜","address":"浦东新区居里路361号(近祖冲之路)"},{"poiid":"B2094757D064A7FA479A","title":"潘朵拉城市行动咖啡 张江店 Pandora","lon":"121.59851","lat":"31.21045","category":"113","category_name":"冷饮店","address":"浦东新区郭守敬路498号浦东软件园1楼大堂(近金科路)"},{"poiid":"B2094757D068ABF84893","title":"上海超级计算中心","lon":"121.600575","lat":"31.211526","category":"46","category_name":"楼宇","address":"上海浦东新区郭守敬路585号"},{"poiid":"B2094655D36DA6FD4798","title":"金科路","lon":"121.60198","lat":"31.20435","category":"38","category_name":"公交车站","address":"上海市浦东新区高科中路1176号(哈雷路口)"},{"poiid":"B2094757D168A7F54899","title":"微创医疗器械(上海)有限公司","lon":"121.592512208","lat":"31.2037464413","category":"902","category_name":"楼宇机构","address":"上海牛顿路501号"},{"poiid":"B2094757D169A7F9499E","title":"上海可鲁电气技术有限公司","lon":"121.594772315","lat":"31.2060979663","category":"46","category_name":"楼宇","address":"上海祖冲之路887弄82号"},{"poiid":"B2094757D069A5F44093","title":"真旺餐厅","lon":"121.59939","lat":"31.20863","category":"76","category_name":"上海菜","address":"浦东新区郭守敬路498号浦东软件园14号楼1楼(近金科路)"},{"poiid":"B2094655D36CA7F4429B","title":"郭守敬路居里路","lon":"121.5954","lat":"31.21034","category":"38","category_name":"公交车站","address":""},{"poiid":"B2094757D068ABF8409F","title":"浦东软件园老食堂","lon":"121.59798662","lat":"31.208716206","category":"68","category_name":"快餐厅","address":"上海浦东新区郭守敬路498号浦东软件园1楼西侧(近居里路)"},{"poiid":"B2094655D36CA7F4429A","title":"郭守敬路牛顿路","lon":"121.59158","lat":"31.20951","category":"38","category_name":"公交车站","address":""},{"poiid":"B2094757D06BA2F8429F","title":"杜邦上海分公司","lon":"121.59448349","lat":"31.203688989","category":"263","category_name":"公司","address":"上海科苑路399号"},{"poiid":"B2094655D36DA7FB4498","title":"祖冲之路居里路","lon":"121.59797","lat":"31.20387","category":"38","category_name":"公交车站","address":""},{"poiid":"B2094757D068A7FC439D","title":"张江软件园 SONY附近","lon":"121.59889984","lat":"31.204101562","category":"500","category_name":"未知分类","address":"上海祖冲之路居里路"},{"poiid":"B2094757D06BA6F9409E","title":"凌阳大厦","lon":"121.59737095","lat":"31.203805892","category":"252","category_name":"楼宇机构","address":"上海祖冲之路1077号"},{"poiid":"B2094655D265AAF44693","title":"川味江湖","lon":"121.59815","lat":"31.2043","category":"71","category_name":"四川菜","address":"浦东新区祖冲之路1077号凌阳大厦3楼C区(近张江地铁站)"},{"poiid":"B2094757D06BA7F94398","title":"科苑路郭守敬路建设银行","lon":"121.589169","lat":"31.20903","category":"46","category_name":"楼宇","address":"上海郭守敬路科苑路"},{"poiid":"B2094757D16EA2FC499E","title":"张江高科实验小学(藿香校区)","lon":"121.59458234","lat":"31.201181852","category":"55","category_name":"中学","address":"上海浦东新区藿香路88号"},{"poiid":"B2094654DA6AA0FE419C","title":"宝钢高科技园","lon":"121.59823","lat":"31.2116","category":"45","category_name":"产业园区","address":"郭守敬路515号"},{"poiid":"B2094757D16BA3FD499B","title":"上海法雷奥汽车电器系统有限公司","lon":"121.59355287","lat":"31.203648139","category":"46","category_name":"楼宇","address":"浦东新区科苑路501号"},{"poiid":"B2094757D069ABFC479A","title":"生生开记","lon":"121.58949661","lat":"31.205263231","category":"94","category_name":"西餐厅","address":"浦东新区科苑路399号创新园12号楼101单元(近祖冲之路)"},{"poiid":"B2094654DA6AA0FE429B","title":"全家(祖冲之路)","lon":"121.59405","lat":"31.20329","category":"117","category_name":"便民商店/便利店","address":"祖冲之路899"},{"poiid":"B2094757D16BA2FB4199","title":"AP空气化工72号5楼饭厅","lon":"121.59521897","lat":"31.207282524","category":"500","category_name":"未知分类","address":"上海市浦东新区祖冲之路887弄72号"},{"poiid":"B2094757D164A4F8419F","title":"浦东软件园21号楼","lon":"121.59790962","lat":"31.208754206","category":"46","category_name":"楼宇","address":"上海郭守敬路498号21号楼"},{"poiid":"B2094757D069A6F9479C","title":"畅星大厦","lon":"121.590298","lat":"31.203588","category":"500","category_name":"未知分类","address":"上海碧波路888号"},{"poiid":"B2094757D569A1FE4092","title":"张江软件园老食堂","lon":"121.59851","lat":"31.21080889","category":"68","category_name":"快餐厅","address":"浦东新区郭守敬路498号浦东软件园1楼西侧(近金科路)"},{"poiid":"B2094654DA6AA6FC409E","title":"上海市张江高科技园区(上海市中医科技产业促进中心东)","lon":"121.59384","lat":"31.21024","category":"45","category_name":"产业园区","address":""},{"poiid":"B2094655D26DA6F44199","title":"索尼(中国)有限公司上海技术中心分公司","lon":"121.59741","lat":"31.20701","category":"263","category_name":"公司","address":"居里路361"},{"poiid":"B2094757D168A3FB4193","title":"上海华虹NEC电子有限公司(二厂)","lon":"121.60198263","lat":"31.210970194","category":"46","category_name":"楼宇","address":"上海浦东新区郭守敬路668号"},{"poiid":"B2094655D264A4F9409D","title":"CoffeeForYou","lon":"121.599845054","lat":"31.204646793","category":"65","category_name":"咖啡厅","address":"金科路2966号浙大网新园区北楼1楼近祖冲之路"},{"poiid":"B2094757D465A4FE4499","title":"焙啦 Bella's Bakery & Cafe","lon":"121.589147054","lat":"31.204990793","category":"112","category_name":"糕饼店","address":"浦东新区张江科苑路399号创新园12号楼102单元(近祖冲之路)"},{"poiid":"B2094654DA6AA0FE4193","title":"上海浦东新区光启安老院","lon":"121.59745","lat":"31.20538","category":"207","category_name":"度假疗养场所","address":"浦东新区居里路469"},{"poiid":"B2094654DA6AA6FC4299","title":"上海市张江高科技园区热力中心","lon":"121.59243","lat":"31.2091","category":"45","category_name":"产业园区","address":"郭守敬路178"},{"poiid":"B2094654DA6AA7F54899","title":"上海天士力药业有限公司","lon":"121.59637","lat":"31.20817","category":"263","category_name":"公司","address":"居里路280"},{"poiid":"B2094757D06AA6F5409D","title":"第一三共制药","lon":"121.59593166","lat":"31.204504812","category":"500","category_name":"未知分类","address":"上海居里路500号"},{"poiid":"B2094655D36DA7FB4499","title":"祖冲之路牛顿路","lon":"121.59153","lat":"31.20267","category":"38","category_name":"公交车站","address":""},{"poiid":"B2094757D468AAFA4193","title":"Joyful Joyce","lon":"121.5968007","lat":"31.2106051","category":"98","category_name":"意式菜品餐厅","address":"浦东新区郭守敬路433号(近居里路)"},{"poiid":"B2094654DB64A3F9429C","title":"上海浦东软件园(郭守敬路)","lon":"121.59803","lat":"31.2104","category":"45","category_name":"产业园区","address":"上海浦东新区郭守敬路498号"},{"poiid":"B2094757D06EAAFE489D","title":"金科路地铁站","lon":"121.60199942","lat":"31.204334926","category":"36","category_name":"地铁站","address":"上海轨道交通,二号线,轨交金科路站,2"},{"poiid":"B2094757D06FA2F5449B","title":"张江创新园","lon":"121.59543194719","lat":"31.210169439571","category":"46","category_name":"楼宇","address":"上海市虹口区四川北路1318号"},{"poiid":"B2094757D06FA7FE459D","title":"SAP Labs China","lon":"121.60177497","lat":"31.201272383","category":"46","category_name":"楼宇","address":"上海浦东新区张江软件园晨晖路1001号"},{"poiid":"B2094757D068A3FA4099","title":"华师大二附中","lon":"121.59181","lat":"31.20015","category":"68","category_name":"快餐厅","address":"浦东新区晨晖路555号(近地铁二号线张江高科站)"},{"poiid":"B2094757D06FA4F44493","title":"IBM国际商业机器(中国)有限公司","lon":"121.588928479","lat":"31.204423861","category":"46","category_name":"楼宇","address":"上海浦东新区张江高科技园区科苑路 399号"},{"poiid":"B2094757D06FA7FF419D","title":"索尼中国上海技术中心","lon":"121.597466469","lat":"31.2065818267","category":"46","category_name":"楼宇","address":"上海浦东居里路361号"},{"poiid":"B2094757D068A3FE4292","title":"罗氏制药","lon":"121.595334109","lat":"31.2138314147","category":"46","category_name":"楼宇","address":"上海浦东新区龙东大道1100号"},{"poiid":"B2094757D068A0F4499E","title":"惠普全球软件服务中心","lon":"121.60092563","lat":"31.212782197","category":"500","category_name":"未知分类","address":"上海金科路2557号"},{"poiid":"B2094654DA6AA5F44098","title":"上海市张江高科技园区","lon":"121.59851","lat":"31.21081","category":"45","category_name":"产业园区","address":"郭守敬路498"},{"poiid":"B2094654DA6AA7F54898","title":"盛大网络 Office","lon":"121.59645","lat":"31.20979","category":"263","category_name":"公司","address":"浦东新区张江居里路208号(近李时珍路)"},{"poiid":"B2094757D06AA0F84293","title":"凯顿酒店","lon":"121.59412","lat":"31.21041","category":"76","category_name":"上海菜","address":"浦东新区郭守敬路277号(近牛顿路)"},{"poiid":"B2094655D36CA5FF4993","title":"晨晖路金科路","lon":"121.59992","lat":"31.20095","category":"38","category_name":"公交车站","address":""},{"poiid":"B2094757D068A7FA419D","title":"东方有线网络有限公司","lon":"121.59869856","lat":"31.206576704","category":"46","category_name":"楼宇","address":"上海市浦东新区金科路2860号"},{"poiid":"B2094757D465ABF44399","title":"索尼食堂 张江店","lon":"121.597692","lat":"31.205239","category":"76","category_name":"上海菜","address":"浦东新区居里路361号(近祖冲之路)"},{"poiid":"B2094757D064A7FA479A","title":"潘朵拉城市行动咖啡 张江店 Pandora","lon":"121.59851","lat":"31.21045","category":"113","category_name":"冷饮店","address":"浦东新区郭守敬路498号浦东软件园1楼大堂(近金科路)"},{"poiid":"B2094757D068ABF84893","title":"上海超级计算中心","lon":"121.600575","lat":"31.211526","category":"46","category_name":"楼宇","address":"上海浦东新区郭守敬路585号"},{"poiid":"B2094655D36DA6FD4798","title":"金科路","lon":"121.60198","lat":"31.20435","category":"38","category_name":"公交车站","address":"上海市浦东新区高科中路1176号(哈雷路口)"},{"poiid":"B2094757D168A7F54899","title":"微创医疗器械(上海)有限公司","lon":"121.592512208","lat":"31.2037464413","category":"902","category_name":"楼宇机构","address":"上海牛顿路501号"},{"poiid":"B2094757D169A7F9499E","title":"上海可鲁电气技术有限公司","lon":"121.594772315","lat":"31.2060979663","category":"46","category_name":"楼宇","address":"上海祖冲之路887弄82号"},{"poiid":"B2094757D069A5F44093","title":"真旺餐厅","lon":"121.59939","lat":"31.20863","category":"76","category_name":"上海菜","address":"浦东新区郭守敬路498号浦东软件园14号楼1楼(近金科路)"},{"poiid":"B2094655D36CA7F4429B","title":"郭守敬路居里路","lon":"121.5954","lat":"31.21034","category":"38","category_name":"公交车站","address":""},{"poiid":"B2094757D068ABF8409F","title":"浦东软件园老食堂","lon":"121.59798662","lat":"31.208716206","category":"68","category_name":"快餐厅","address":"上海浦东新区郭守敬路498号浦东软件园1楼西侧(近居里路)"},{"poiid":"B2094655D36CA7F4429A","title":"郭守敬路牛顿路","lon":"121.59158","lat":"31.20951","category":"38","category_name":"公交车站","address":""},{"poiid":"B2094757D06BA2F8429F","title":"杜邦上海分公司","lon":"121.59448349","lat":"31.203688989","category":"263","category_name":"公司","address":"上海科苑路399号"},{"poiid":"B2094655D36DA7FB4498","title":"祖冲之路居里路","lon":"121.59797","lat":"31.20387","category":"38","category_name":"公交车站","address":""},{"poiid":"B2094757D068A7FC439D","title":"张江软件园 SONY附近","lon":"121.59889984","lat":"31.204101562","category":"500","category_name":"未知分类","address":"上海祖冲之路居里路"},{"poiid":"B2094757D06BA6F9409E","title":"凌阳大厦","lon":"121.59737095","lat":"31.203805892","category":"252","category_name":"楼宇机构","address":"上海祖冲之路1077号"},{"poiid":"B2094655D265AAF44693","title":"川味江湖","lon":"121.59815","lat":"31.2043","category":"71","category_name":"四川菜","address":"浦东新区祖冲之路1077号凌阳大厦3楼C区(近张江地铁站)"},{"poiid":"B2094757D06BA7F94398","title":"科苑路郭守敬路建设银行","lon":"121.589169","lat":"31.20903","category":"46","category_name":"楼宇","address":"上海郭守敬路科苑路"},{"poiid":"B2094757D16EA2FC499E","title":"张江高科实验小学(藿香校区)","lon":"121.59458234","lat":"31.201181852","category":"55","category_name":"中学","address":"上海浦东新区藿香路88号"},{"poiid":"B2094654DA6AA0FE419C","title":"宝钢高科技园","lon":"121.59823","lat":"31.2116","category":"45","category_name":"产业园区","address":"郭守敬路515号"},{"poiid":"B2094757D16BA3FD499B","title":"上海法雷奥汽车电器系统有限公司","lon":"121.59355287","lat":"31.203648139","category":"46","category_name":"楼宇","address":"浦东新区科苑路501号"},{"poiid":"B2094757D069ABFC479A","title":"生生开记","lon":"121.58949661","lat":"31.205263231","category":"94","category_name":"西餐厅","address":"浦东新区科苑路399号创新园12号楼101单元(近祖冲之路)"},{"poiid":"B2094654DA6AA0FE429B","title":"全家(祖冲之路)","lon":"121.59405","lat":"31.20329","category":"117","category_name":"便民商店/便利店","address":"祖冲之路899"},{"poiid":"B2094757D16BA2FB4199","title":"AP空气化工72号5楼饭厅","lon":"121.59521897","lat":"31.207282524","category":"500","category_name":"未知分类","address":"上海市浦东新区祖冲之路887弄72号"},{"poiid":"B2094757D164A4F8419F","title":"浦东软件园21号楼","lon":"121.59790962","lat":"31.208754206","category":"46","category_name":"楼宇","address":"上海郭守敬路498号21号楼"},{"poiid":"B2094757D069A6F9479C","title":"畅星大厦","lon":"121.590298","lat":"31.203588","category":"500","category_name":"未知分类","address":"上海碧波路888号"},{"poiid":"B2094757D569A1FE4092","title":"张江软件园老食堂","lon":"121.59851","lat":"31.21080889","category":"68","category_name":"快餐厅","address":"浦东新区郭守敬路498号浦东软件园1楼西侧(近金科路)"},{"poiid":"B2094654DA6AA6FC409E","title":"上海市张江高科技园区(上海市中医科技产业促进中心东)","lon":"121.59384","lat":"31.21024","category":"45","category_name":"产业园区","address":""},{"poiid":"B2094655D26DA6F44199","title":"索尼(中国)有限公司上海技术中心分公司","lon":"121.59741","lat":"31.20701","category":"263","category_name":"公司","address":"居里路361"},{"poiid":"B2094757D168A3FB4193","title":"上海华虹NEC电子有限公司(二厂)","lon":"121.60198263","lat":"31.210970194","category":"46","category_name":"楼宇","address":"上海浦东新区郭守敬路668号"},{"poiid":"B2094655D264A4F9409D","title":"CoffeeForYou","lon":"121.599845054","lat":"31.204646793","category":"65","category_name":"咖啡厅","address":"金科路2966号浙大网新园区北楼1楼近祖冲之路"},{"poiid":"B2094757D465A4FE4499","title":"焙啦 Bella's Bakery & Cafe","lon":"121.589147054","lat":"31.204990793","category":"112","category_name":"糕饼店","address":"浦东新区张江科苑路399号创新园12号楼102单元(近祖冲之路)"},{"poiid":"B2094654DA6AA0FE4193","title":"上海浦东新区光启安老院","lon":"121.59745","lat":"31.20538","category":"207","category_name":"度假疗养场所","address":"浦东新区居里路469"},{"poiid":"B2094654DA6AA6FC4299","title":"上海市张江高科技园区热力中心","lon":"121.59243","lat":"31.2091","category":"45","category_name":"产业园区","address":"郭守敬路178"},{"poiid":"B2094654DA6AA7F54899","title":"上海天士力药业有限公司","lon":"121.59637","lat":"31.20817","category":"263","category_name":"公司","address":"居里路280"},{"poiid":"B2094757D06AA6F5409D","title":"第一三共制药","lon":"121.59593166","lat":"31.204504812","category":"500","category_name":"未知分类","address":"上海居里路500号"},{"poiid":"B2094655D36DA7FB4499","title":"祖冲之路牛顿路","lon":"121.59153","lat":"31.20267","category":"38","category_name":"公交车站","address":""},{"poiid":"B2094757D468AAFA4193","title":"Joyful Joyce","lon":"121.5968007","lat":"31.2106051","category":"98","category_name":"意式菜品餐厅","address":"浦东新区郭守敬路433号(近居里路)"},{"poiid":"B2094654DB64A3F9429C","title":"上海浦东软件园(郭守敬路)","lon":"121.59803","lat":"31.2104","category":"45","category_name":"产业园区","address":"上海浦东新区郭守敬路498号"},{"poiid":"B2094757D06EAAFE489D","title":"金科路地铁站","lon":"121.60199942","lat":"31.204334926","category":"36","category_name":"地铁站","address":"上海轨道交通,二号线,轨交金科路站,2"},{"poiid":"B2094757D06FA2F5449B","title":"张江创新园","lon":"121.59543194719","lat":"31.210169439571","category":"46","category_name":"楼宇","address":"上海市虹口区四川北路1318号"},{"poiid":"B2094757D06FA7FE459D","title":"SAP Labs China","lon":"121.60177497","lat":"31.201272383","category":"46","category_name":"楼宇","address":"上海浦东新区张江软件园晨晖路1001号"},{"poiid":"B2094757D068A3FA4099","title":"华师大二附中","lon":"121.59181","lat":"31.20015","category":"68","category_name":"快餐厅","address":"浦东新区晨晖路555号(近地铁二号线张江高科站)"},{"poiid":"B2094757D06FA4F44493","title":"IBM国际商业机器(中国)有限公司","lon":"121.588928479","lat":"31.204423861","category":"46","category_name":"楼宇","address":"上海浦东新区张江高科技园区科苑路 399号"},{"poiid":"B2094757D06FA7FF419D","title":"索尼中国上海技术中心","lon":"121.597466469","lat":"31.2065818267","category":"46","category_name":"楼宇","address":"上海浦东居里路361号"},{"poiid":"B2094757D068A3FE4292","title":"罗氏制药","lon":"121.595334109","lat":"31.2138314147","category":"46","category_name":"楼宇","address":"上海浦东新区龙东大道1100号"},{"poiid":"B2094757D068A0F4499E","title":"惠普全球软件服务中心","lon":"121.60092563","lat":"31.212782197","category":"500","category_name":"未知分类","address":"上海金科路2557号"},{"poiid":"B2094654DA6AA5F44098","title":"上海市张江高科技园区","lon":"121.59851","lat":"31.21081","category":"45","category_name":"产业园区","address":"郭守敬路498"},{"poiid":"B2094654DA6AA7F54898","title":"盛大网络 Office","lon":"121.59645","lat":"31.20979","category":"263","category_name":"公司","address":"浦东新区张江居里路208号(近李时珍路)"},{"poiid":"B2094757D06AA0F84293","title":"凯顿酒店","lon":"121.59412","lat":"31.21041","category":"76","category_name":"上海菜","address":"浦东新区郭守敬路277号(近牛顿路)"},{"poiid":"B2094655D36CA5FF4993","title":"晨晖路金科路","lon":"121.59992","lat":"31.20095","category":"38","category_name":"公交车站","address":""},{"poiid":"B2094757D068A7FA419D","title":"东方有线网络有限公司","lon":"121.59869856","lat":"31.206576704","category":"46","category_name":"楼宇","address":"上海市浦东新区金科路2860号"},{"poiid":"B2094757D465ABF44399","title":"索尼食堂 张江店","lon":"121.597692","lat":"31.205239","category":"76","category_name":"上海菜","address":"浦东新区居里路361号(近祖冲之路)"},{"poiid":"B2094757D064A7FA479A","title":"潘朵拉城市行动咖啡 张江店 Pandora","lon":"121.59851","lat":"31.21045","category":"113","category_name":"冷饮店","address":"浦东新区郭守敬路498号浦东软件园1楼大堂(近金科路)"},{"poiid":"B2094757D068ABF84893","title":"上海超级计算中心","lon":"121.600575","lat":"31.211526","category":"46","category_name":"楼宇","address":"上海浦东新区郭守敬路585号"},{"poiid":"B2094655D36DA6FD4798","title":"金科路","lon":"121.60198","lat":"31.20435","category":"38","category_name":"公交车站","address":"上海市浦东新区高科中路1176号(哈雷路口)"},{"poiid":"B2094757D168A7F54899","title":"微创医疗器械(上海)有限公司","lon":"121.592512208","lat":"31.2037464413","category":"902","category_name":"楼宇机构","address":"上海牛顿路501号"},{"poiid":"B2094757D169A7F9499E","title":"上海可鲁电气技术有限公司","lon":"121.594772315","lat":"31.2060979663","category":"46","category_name":"楼宇","address":"上海祖冲之路887弄82号"},{"poiid":"B2094757D069A5F44093","title":"真旺餐厅","lon":"121.59939","lat":"31.20863","category":"76","category_name":"上海菜","address":"浦东新区郭守敬路498号浦东软件园14号楼1楼(近金科路)"},{"poiid":"B2094655D36CA7F4429B","title":"郭守敬路居里路","lon":"121.5954","lat":"31.21034","category":"38","category_name":"公交车站","address":""},{"poiid":"B2094757D068ABF8409F","title":"浦东软件园老食堂","lon":"121.59798662","lat":"31.208716206","category":"68","category_name":"快餐厅","address":"上海浦东新区郭守敬路498号浦东软件园1楼西侧(近居里路)"},{"poiid":"B2094655D36CA7F4429A","title":"郭守敬路牛顿路","lon":"121.59158","lat":"31.20951","category":"38","category_name":"公交车站","address":""},{"poiid":"B2094757D06BA2F8429F","title":"杜邦上海分公司","lon":"121.59448349","lat":"31.203688989","category":"263","category_name":"公司","address":"上海科苑路399号"},{"poiid":"B2094655D36DA7FB4498","title":"祖冲之路居里路","lon":"121.59797","lat":"31.20387","category":"38","category_name":"公交车站","address":""},{"poiid":"B2094757D068A7FC439D","title":"张江软件园 SONY附近","lon":"121.59889984","lat":"31.204101562","category":"500","category_name":"未知分类","address":"上海祖冲之路居里路"},{"poiid":"B2094757D06BA6F9409E","title":"凌阳大厦","lon":"121.59737095","lat":"31.203805892","category":"252","category_name":"楼宇机构","address":"上海祖冲之路1077号"},{"poiid":"B2094655D265AAF44693","title":"川味江湖","lon":"121.59815","lat":"31.2043","category":"71","category_name":"四川菜","address":"浦东新区祖冲之路1077号凌阳大厦3楼C区(近张江地铁站)"},{"poiid":"B2094757D06BA7F94398","title":"科苑路郭守敬路建设银行","lon":"121.589169","lat":"31.20903","category":"46","category_name":"楼宇","address":"上海郭守敬路科苑路"},{"poiid":"B2094757D16EA2FC499E","title":"张江高科实验小学(藿香校区)","lon":"121.59458234","lat":"31.201181852","category":"55","category_name":"中学","address":"上海浦东新区藿香路88号"},{"poiid":"B2094654DA6AA0FE419C","title":"宝钢高科技园","lon":"121.59823","lat":"31.2116","category":"45","category_name":"产业园区","address":"郭守敬路515号"},{"poiid":"B2094757D16BA3FD499B","title":"上海法雷奥汽车电器系统有限公司","lon":"121.59355287","lat":"31.203648139","category":"46","category_name":"楼宇","address":"浦东新区科苑路501号"},{"poiid":"B2094757D069ABFC479A","title":"生生开记","lon":"121.58949661","lat":"31.205263231","category":"94","category_name":"西餐厅","address":"浦东新区科苑路399号创新园12号楼101单元(近祖冲之路)"},{"poiid":"B2094654DA6AA0FE429B","title":"全家(祖冲之路)","lon":"121.59405","lat":"31.20329","category":"117","category_name":"便民商店/便利店","address":"祖冲之路899"},{"poiid":"B2094757D16BA2FB4199","title":"AP空气化工72号5楼饭厅","lon":"121.59521897","lat":"31.207282524","category":"500","category_name":"未知分类","address":"上海市浦东新区祖冲之路887弄72号"},{"poiid":"B2094757D164A4F8419F","title":"浦东软件园21号楼","lon":"121.59790962","lat":"31.208754206","category":"46","category_name":"楼宇","address":"上海郭守敬路498号21号楼"},{"poiid":"B2094757D069A6F9479C","title":"畅星大厦","lon":"121.590298","lat":"31.203588","category":"500","category_name":"未知分类","address":"上海碧波路888号"},{"poiid":"B2094757D569A1FE4092","title":"张江软件园老食堂","lon":"121.59851","lat":"31.21080889","category":"68","category_name":"快餐厅","address":"浦东新区郭守敬路498号浦东软件园1楼西侧(近金科路)"},{"poiid":"B2094654DA6AA6FC409E","title":"上海市张江高科技园区(上海市中医科技产业促进中心东)","lon":"121.59384","lat":"31.21024","category":"45","category_name":"产业园区","address":""},{"poiid":"B2094655D26DA6F44199","title":"索尼(中国)有限公司上海技术中心分公司","lon":"121.59741","lat":"31.20701","category":"263","category_name":"公司","address":"居里路361"},{"poiid":"B2094757D168A3FB4193","title":"上海华虹NEC电子有限公司(二厂)","lon":"121.60198263","lat":"31.210970194","category":"46","category_name":"楼宇","address":"上海浦东新区郭守敬路668号"},{"poiid":"B2094655D264A4F9409D","title":"CoffeeForYou","lon":"121.599845054","lat":"31.204646793","category":"65","category_name":"咖啡厅","address":"金科路2966号浙大网新园区北楼1楼近祖冲之路"},{"poiid":"B2094757D465A4FE4499","title":"焙啦 Bella's Bakery & Cafe","lon":"121.589147054","lat":"31.204990793","category":"112","category_name":"糕饼店","address":"浦东新区张江科苑路399号创新园12号楼102单元(近祖冲之路)"},{"poiid":"B2094654DA6AA0FE4193","title":"上海浦东新区光启安老院","lon":"121.59745","lat":"31.20538","category":"207","category_name":"度假疗养场所","address":"浦东新区居里路469"},{"poiid":"B2094654DA6AA6FC4299","title":"上海市张江高科技园区热力中心","lon":"121.59243","lat":"31.2091","category":"45","category_name":"产业园区","address":"郭守敬路178"},{"poiid":"B2094654DA6AA7F54899","title":"上海天士力药业有限公司","lon":"121.59637","lat":"31.20817","category":"263","category_name":"公司","address":"居里路280"},{"poiid":"B2094757D06AA6F5409D","title":"第一三共制药","lon":"121.59593166","lat":"31.204504812","category":"500","category_name":"未知分类","address":"上海居里路500号"},{"poiid":"B2094655D36DA7FB4499","title":"祖冲之路牛顿路","lon":"121.59153","lat":"31.20267","category":"38","category_name":"公交车站","address":""},{"poiid":"B2094757D468AAFA4193","title":"Joyful Joyce","lon":"121.5968007","lat":"31.2106051","category":"98","category_name":"意式菜品餐厅","address":"浦东新区郭守敬路433号(近居里路)"}]