[{"poiid":"B2094654DB64A3FA4799","title":"张江集电港","lon":"121.63318","lat":"31.22205","category":"252","category_name":"楼宇机构","address":"卫清西路139_149号等"},{"poiid":"B2094757D06EAAFD469C","title":"泛亚汽车技术中心有限公司","lon":"121.65544891","lat":"31.228515625","category":"46","category_name":"楼宇","address":"浦东新区龙东大道3999号(近龙新路)"},{"poiid":"B2094757D06FA7F5489D","title":"唐镇地铁站","lon":"121.655261389","lat":"31.2132715098","category":"36","category_name":"地铁站","address":"上海轨道交通 二号线 轨交塘镇站 2"},{"poiid":"B2094757D06FABFD439A","title":"张江集电港二期","lon":"121.635397","lat":"31.216483","category":"47","category_name":"住宅区","address":"浦东新区张东路1387号"},{"poiid":"B2094757D068A4F8469C","title":"唐园大酒店","lon":"121.64786","lat":"31.22455","category":"76","category_name":"上海菜","address":"浦东新区唐陆路2400号(近龙东大道)"},{"poiid":"B2094757D06FA1F54498","title":"永达国际汽车广场","lon":"121.62713285","lat":"31.222678767","category":"500","category_name":"未知分类","address":"上海龙东大道2777号"},{"poiid":"B2094757D068A3F9499E","title":"毕加索小镇","lon":"121.64792633","lat":"31.221918106","category":"500","category_name":"未知分类","address":"上海市浦东新区春泉路45弄"},{"poiid":"B2094655D36DA6FE4698","title":"唐镇","lon":"121.65525","lat":"31.21328","category":"38","category_name":"公交车站","address":""},{"poiid":"B2094757D068A0F5479E","title":"宝诚宝马4S店(龙东大道店)","lon":"121.630592","lat":"31.224612","category":"158","category_name":"汽车销售","address":"浦东新区龙东大道2777号(近申江路)"},{"poiid":"B2094757D068AAF84893","title":"龙东商务酒店","lon":"121.633540458","lat":"31.2227017056","category":"214","category_name":"四星级宾馆","address":"浦东新区龙东大道3000号(张东路口)"},{"poiid":"B2094757D06AA4FA4692","title":"展讯中心","lon":"121.634","lat":"31.2169","category":"500","category_name":"未知分类","address":"上海浦东新区张江高科祖冲之路2288弄1号楼"},{"poiid":"B2094655D26EA0F8409C","title":"强生千亩园林餐厅","lon":"121.63900116319462","lat":"31.22349341978972","category":"87","category_name":"特色／地方风味餐厅","address":"上海市浦东新区龙东大道3166号"},{"poiid":"B2094757D068ABF4469B","title":"中国银联培训中心","lon":"121.663736","lat":"31.231019","category":"46","category_name":"楼宇","address":"上海顾唐路 龙东大道"},{"poiid":"B2094750D76CA4FC479C","title":"妈妈糖2.0(张东路店)","lon":"121.634","lat":"31.2187","category":"94","category_name":"西餐厅","address":"浦东新区张东路1387号集电子社区中心2楼"},{"poiid":"B2094757D064A4FC4893","title":"小城故事(浦东店)","lon":"121.63064","lat":"31.22243","category":"91","category_name":"台湾菜","address":"浦东新区龙东大道3000号龙东商务酒店2号楼102室(张东路口)"},{"poiid":"B2094655D26BA2F9489E","title":"唐陆路龙东大道","lon":"121.64744","lat":"31.22495","category":"38","category_name":"公交车站","address":""},{"poiid":"B2094654DB64A3FA469D","title":"张江集电港·会展中心(张东路)","lon":"121.63236","lat":"31.22277","category":"185","category_name":"会展中心","address":"龙东大道3000号"},{"poiid":"B2094655D264A4FB4993","title":"环东二大道立交","lon":"121.64349","lat":"31.22579","category":"250","category_name":"公园户外","address":""},{"poiid":"B2094757D064AAF5499F","title":"瑞慈健康管理中心(张东路店)","lon":"121.6329","lat":"31.21723","category":"162","category_name":"医院","address":"上海浦东新区张东路1388号15幢(近丹桂路)"},{"poiid":"B2094654DB69A7FA469D","title":"天歌花园","lon":"121.64359","lat":"31.2256","category":"47","category_name":"住宅区","address":"浦东新区唐镇"},{"poiid":"B2094655D264A2F9409B","title":"好又多中心路店","lon":"121.64649","lat":"31.23036","category":"118","category_name":"超级市场","address":""},{"poiid":"B2094757D16BA7FA449D","title":"宝钢特钢事业部","lon":"121.643500375","lat":"31.2250608398","category":"500","category_name":"未知分类","address":"上海市宝山区水产路1269号"},{"poiid":"B2094655D36DA2FB4198","title":"龙东大道曹家沟桥","lon":"121.64774","lat":"31.22655","category":"250","category_name":"公园户外","address":""},{"poiid":"B2094757D16EA2F54799","title":"强生千亩园林","lon":"121.640919544","lat":"31.2232303176","category":"500","category_name":"未知分类","address":"上海龙东大道3166号"},{"poiid":"B2094655D269A4F84992","title":"上海永达雪佛兰浦东店","lon":"121.6304","lat":"31.22433","category":"158","category_name":"汽车销售","address":"浦东新区龙东大道2777号(近申江路)"},{"poiid":"B2094655D36CA1F84599","title":"龙东路","lon":"121.65028","lat":"31.22699","category":"38","category_name":"公交车站","address":""},{"poiid":"B2094655D265A0F8499F","title":"忘不了饭店","lon":"121.64913","lat":"31.22733","category":"257","category_name":"中餐厅","address":""},{"poiid":"B2094757D66CAAF9499C","title":"绿城玉兰花园","lon":"121.65719056928992","lat":"31.219996063475424","category":"47","category_name":"住宅区","address":"上海市浦东新区齐爱路99弄"},{"poiid":"B2094757D06BA3FD459D","title":"圣马力诺.桥语别墅","lon":"121.64949023","lat":"31.217492672","category":"47","category_name":"住宅区","address":"上海唐安路199弄"},{"poiid":"B2094757D568A6FC459A","title":"唐人国际购物中心","lon":"121.647468","lat":"31.22404","category":"249","category_name":"购物服务","address":"中国上海市浦东新区唐陆公路"},{"poiid":"B2094654DA6AAAFC499D","title":"白金瀚宫","lon":"121.6582","lat":"31.22733","category":"47","category_name":"住宅区","address":"白金瀚宫(华亭丽都)位于浦东龙东大道4288号"},{"poiid":"B2094654DA6AAAFD429D","title":"唐人苑","lon":"121.64923","lat":"31.208265","category":"47","category_name":"住宅区","address":"唐镇路127弄"},{"poiid":"B2094654DA6BA2F4499C","title":"泛亚汽车技术中心有限公司3号办公楼","lon":"121.65283","lat":"31.2308","category":"46","category_name":"楼宇","address":""},{"poiid":"B2094757D069A6FE429B","title":"51job","lon":"121.633905","lat":"31.217677","category":"500","category_name":"未知分类","address":"上海张东路1387弄3号"},{"poiid":"B2094757D065A1FD4092","title":"AMD","lon":"121.63495156","lat":"31.220122434","category":"46","category_name":"楼宇","address":"上海张东路1387号第46-48幢"},{"poiid":"B2094750D26AABFD4998","title":"金葵新城","lon":"121.634536","lat":"31.225202","category":"47","category_name":"住宅区","address":"浦东新区金葵路945弄"},{"poiid":"B2094757D165A1F94692","title":"泛亚排放实验室欧五转鼓机房","lon":"121.645506575","lat":"31.2303562637","category":"500","category_name":"未知分类","address":null},{"poiid":"B2094757D069AAF5459A","title":"外汇交易中心","lon":"121.63539886","lat":"31.216482162","category":"500","category_name":"未知分类","address":"上海张东路1387号"},{"poiid":"B2094654DA6BA2FB489A","title":"圣马丽诺·桥","lon":"121.6486","lat":"31.21903","category":"47","category_name":"住宅区","address":"圣马丽诺桥位于浦东唐安路199弄(近龙东大道唐陆路)"},{"poiid":"B2094655D36CA7F54593","title":"顾唐路龙东大道","lon":"121.66346","lat":"31.23056","category":"38","category_name":"公交车站","address":""},{"poiid":"B2094655D265A5FC409E","title":"大众饭店","lon":"121.64677","lat":"31.2332","category":"257","category_name":"中餐厅","address":""},{"poiid":"B2094757D06AA7FD469C","title":"上海通用汽车王港ME楼","lon":"121.653087656","lat":"31.2309196349","category":"46","category_name":"楼宇","address":"上海龙东大道3999号"},{"poiid":"B2094757D66EA6F94793","title":"张江国际豪庭","lon":"121.642386375","lat":"31.2168653481","category":"252","category_name":"楼宇机构","address":"上海银樽路58号"},{"poiid":"B2094757D66EABFE4699","title":"泛亚汽车技术中心动力总成大楼","lon":"121.648984975","lat":"31.2314590895","category":"500","category_name":"未知分类","address":"上海二楼"},{"poiid":"B2094654DA6AA4FD4393","title":"塞纳阳光西餐厅","lon":"121.631737054","lat":"31.223521793","category":"94","category_name":"西餐厅","address":"浦东新区龙东大道3000号龙东商务酒店内(张东路口)"},{"poiid":"B2094654DA6AA5FC479C","title":"城市经典","lon":"121.629","lat":"31.2244","category":"47","category_name":"住宅区","address":"青桐路618弄"},{"poiid":"B2094655D36CA6F9429C","title":"芳春路金秋路","lon":"121.63794","lat":"31.21973","category":"38","category_name":"公交车站","address":""},{"poiid":"B2094757D164A4FB429B","title":"永达一汽丰田","lon":"121.632600975","lat":"31.2240789168","category":"500","category_name":"未知分类","address":"上海市浦东新区龙东大道"},{"poiid":"B2094757D16AA7F44199","title":"美敦力","lon":"121.64343457","lat":"31.218621381","category":"249","category_name":"购物服务","address":"上海龙东大道3000号张江集电港11号楼"},{"poiid":"B2094750D364A0FD409C","title":"美敦力中国","lon":"121.63566","lat":"31.22418","category":"622","category_name":"医疗健康类公司","address":"龙东大道3000号11号楼"},{"poiid":"B2094654DB64A3FA4799","title":"张江集电港","lon":"121.63318","lat":"31.22205","category":"252","category_name":"楼宇机构","address":"卫清西路139_149号等"},{"poiid":"B2094757D06EAAFD469C","title":"泛亚汽车技术中心有限公司","lon":"121.65544891","lat":"31.228515625","category":"46","category_name":"楼宇","address":"浦东新区龙东大道3999号(近龙新路)"},{"poiid":"B2094757D06FA7F5489D","title":"唐镇地铁站","lon":"121.655261389","lat":"31.2132715098","category":"36","category_name":"地铁站","address":"上海轨道交通 二号线 轨交塘镇站 2"},{"poiid":"B2094757D06FABFD439A","title":"张江集电港二期","lon":"121.635397","lat":"31.216483","category":"47","category_name":"住宅区","address":"浦东新区张东路1387号"},{"poiid":"B2094757D068A4F8469C","title":"唐园大酒店","lon":"121.64786","lat":"31.22455","category":"76","category_name":"上海菜","address":"浦东新区唐陆路2400号(近龙东大道)"},{"poiid":"B2094757D06FA1F54498","title":"永达国际汽车广场","lon":"121.62713285","lat":"31.222678767","category":"500","category_name":"未知分类","address":"上海龙东大道2777号"},{"poiid":"B2094757D068A3F9499E","title":"毕加索小镇","lon":"121.64792633","lat":"31.221918106","category":"500","category_name":"未知分类","address":"上海市浦东新区春泉路45弄"},{"poiid":"B2094655D36DA6FE4698","title":"唐镇","lon":"121.65525","lat":"31.21328","category":"38","category_name":"公交车站","address":""},{"poiid":"B2094757D068A0F5479E","title":"宝诚宝马4S店(龙东大道店)","lon":"121.630592","lat":"31.224612","category":"158","category_name":"汽车销售","address":"浦东新区龙东大道2777号(近申江路)"},{"poiid":"B2094757D068AAF84893","title":"龙东商务酒店","lon":"121.633540458","lat":"31.2227017056","category":"214","category_name":"四星级宾馆","address":"浦东新区龙东大道3000号(张东路口)"},{"poiid":"B2094757D06AA4FA4692","title":"展讯中心","lon":"121.634","lat":"31.2169","category":"500","category_name":"未知分类","address":"上海浦东新区张江高科祖冲之路2288弄1号楼"},{"poiid":"B2094655D26EA0F8409C","title":"强生千亩园林餐厅","lon":"121.63900116319462","lat":"31.22349341978972","category":"87","category_name":"特色／地方风味餐厅","address":"上海市浦东新区龙东大道3166号"},{"poiid":"B2094757D068ABF4469B","title":"中国银联培训中心","lon":"121.663736","lat":"31.231019","category":"46","category_name":"楼宇","address":"上海顾唐路 龙东大道"},{"poiid":"B2094750D76CA4FC479C","title":"妈妈糖2.0(张东路店)","lon":"121.634","lat":"31.2187","category":"94","category_name":"西餐厅","address":"浦东新区张东路1387号集电子社区中心2楼"},{"poiid":"B2094757D064A4FC4893","title":"小城故事(浦东店)","lon":"121.63064","lat":"31.22243","category":"91","category_name":"台湾菜","address":"浦东新区龙东大道3000号龙东商务酒店2号楼102室(张东路口)"},{"poiid":"B2094655D26BA2F9489E","title":"唐陆路龙东大道","lon":"121.64744","lat":"31.22495","category":"38","category_name":"公交车站","address":""},{"poiid":"B2094654DB64A3FA469D","title":"张江集电港·会展中心(张东路)","lon":"121.63236","lat":"31.22277","category":"185","category_name":"会展中心","address":"龙东大道3000号"},{"poiid":"B2094655D264A4FB4993","title":"环东二大道立交","lon":"121.64349","lat":"31.22579","category":"250","category_name":"公园户外","address":""},{"poiid":"B2094757D064AAF5499F","title":"瑞慈健康管理中心(张东路店)","lon":"121.6329","lat":"31.21723","category":"162","category_name":"医院","address":"上海浦东新区张东路1388号15幢(近丹桂路)"},{"poiid":"B2094654DB69A7FA469D","title":"天歌花园","lon":"121.64359","lat":"31.2256","category":"47","category_name":"住宅区","address":"浦东新区唐镇"},{"poiid":"B2094655D264A2F9409B","title":"好又多中心路店","lon":"121.64649","lat":"31.23036","category":"118","category_name":"超级市场","address":""},{"poiid":"B2094757D16BA7FA449D","title":"宝钢特钢事业部","lon":"121.643500375","lat":"31.2250608398","category":"500","category_name":"未知分类","address":"上海市宝山区水产路1269号"},{"poiid":"B2094655D36DA2FB4198","title":"龙东大道曹家沟桥","lon":"121.64774","lat":"31.22655","category":"250","category_name":"公园户外","address":""},{"poiid":"B2094757D16EA2F54799","title":"强生千亩园林","lon":"121.640919544","lat":"31.2232303176","category":"500","category_name":"未知分类","address":"上海龙东大道3166号"},{"poiid":"B2094655D269A4F84992","title":"上海永达雪佛兰浦东店","lon":"121.6304","lat":"31.22433","category":"158","category_name":"汽车销售","address":"浦东新区龙东大道2777号(近申江路)"},{"poiid":"B2094655D36CA1F84599","title":"龙东路","lon":"121.65028","lat":"31.22699","category":"38","category_name":"公交车站","address":""},{"poiid":"B2094655D265A0F8499F","title":"忘不了饭店","lon":"121.64913","lat":"31.22733","category":"257","category_name":"中餐厅","address":""},{"poiid":"B2094757D66CAAF9499C","title":"绿城玉兰花园","lon":"121.65719056928992","lat":"31.219996063475424","category":"47","category_name":"住宅区","address":"上海市浦东新区齐爱路99弄"},{"poiid":"B2094757D06BA3FD459D","title":"圣马力诺.桥语别墅","lon":"121.64949023","lat":"31.217492672","category":"47","category_name":"住宅区","address":"上海唐安路199弄"},{"poiid":"B2094757D568A6FC459A","title":"唐人国际购物中心","lon":"121.647468","lat":"31.22404","category":"249","category_name":"购物服务","address":"中国上海市浦东新区唐陆公路"},{"poiid":"B2094654DA6AAAFC499D","title":"白金瀚宫","lon":"121.6582","lat":"31.22733","category":"47","category_name":"住宅区","address":"白金瀚宫(华亭丽都)位于浦东龙东大道4288号"},{"poiid":"B2094654DA6AAAFD429D","title":"唐人苑","lon":"121.64923","lat":"31.208265","category":"47","category_name":"住宅区","address":"唐镇路127弄"},{"poiid":"B2094654DA6BA2F4499C","title":"泛亚汽车技术中心有限公司3号办公楼","lon":"121.65283","lat":"31.2308","category":"46","category_name":"楼宇","address":""},{"poiid":"B2094757D069A6FE429B","title":"51job","lon":"121.633905","lat":"31.217677","category":"500","category_name":"未知分类","address":"上海张东路1387弄3号"},{"poiid":"B2094757D065A1FD4092","title":"AMD","lon":"121.63495156","lat":"31.220122434","category":"46","category_name":"楼宇","address":"上海张东路1387号第46-48幢"},{"poiid":"B2094750D26AABFD4998","title":"金葵新城","lon":"121.634536","lat":"31.225202","category":"47","category_name":"住宅区","address":"浦东新区金葵路945弄"},{"poiid":"B2094757D165A1F94692","title":"泛亚排放实验室欧五转鼓机房","lon":"121.645506575","lat":"31.2303562637","category":"500","category_name":"未知分类","address":null},{"poiid":"B2094757D069AAF5459A","title":"外汇交易中心","lon":"121.63539886","lat":"31.216482162","category":"500","category_name":"未知分类","address":"上海张东路1387号"},{"poiid":"B2094654DA6BA2FB489A","title":"圣马丽诺·桥","lon":"121.6486","lat":"31.21903","category":"47","category_name":"住宅区","address":"圣马丽诺桥位于浦东唐安路199弄(近龙东大道唐陆路)"},{"poiid":"B2094655D36CA7F54593","title":"顾唐路龙东大道","lon":"121.66346","lat":"31.23056","category":"38","category_name":"公交车站","address":""},{"poiid":"B2094655D265A5FC409E","title":"大众饭店","lon":"121.64677","lat":"31.2332","category":"257","category_name":"中餐厅","address":""},{"poiid":"B2094757D06AA7FD469C","title":"上海通用汽车王港ME楼","lon":"121.653087656","lat":"31.2309196349","category":"46","category_name":"楼宇","address":"上海龙东大道3999号"},{"poiid":"B2094757D66EA6F94793","title":"张江国际豪庭","lon":"121.642386375","lat":"31.2168653481","category":"252","category_name":"楼宇机构","address":"上海银樽路58号"},{"poiid":"B2094757D66EABFE4699","title":"泛亚汽车技术中心动力总成大楼","lon":"121.648984975","lat":"31.2314590895","category":"500","category_name":"未知分类","address":"上海二楼"},{"poiid":"B2094654DA6AA4FD4393","title":"塞纳阳光西餐厅","lon":"121.631737054","lat":"31.223521793","category":"94","category_name":"西餐厅","address":"浦东新区龙东大道3000号龙东商务酒店内(张东路口)"},{"poiid":"B2094654DA6AA5FC479C","title":"城市经典","lon":"121.629","lat":"31.2244","category":"47","category_name":"住宅区","address":"青桐路618弄"},{"poiid":"B2094655D36CA6F9429C","title":"芳春路金秋路","lon":"121.63794","lat":"31.21973","category":"38","category_name":"公交车站","address":""},{"poiid":"B2094757D164A4FB429B","title":"永达一汽丰田","lon":"121.632600975","lat":"31.2240789168","category":"500","category_name":"未知分类","address":"上海市浦东新区龙东大道"},{"poiid":"B2094757D16AA7F44199","title":"美敦力","lon":"121.64343457","lat":"31.218621381","category":"249","category_name":"购物服务","address":"上海龙东大道3000号张江集电港11号楼"},{"poiid":"B2094750D364A0FD409C","title":"美敦力中国","lon":"121.63566","lat":"31.22418","category":"622","category_name":"医疗健康类公司","address":"龙东大道3000号11号楼"},{"poiid":"B2094654DB64A3FA4799","title":"张江集电港","lon":"121.63318","lat":"31.22205","category":"252","category_name":"楼宇机构","address":"卫清西路139_149号等"},{"poiid":"B2094757D06EAAFD469C","title":"泛亚汽车技术中心有限公司","lon":"121.65544891","lat":"31.228515625","category":"46","category_name":"楼宇","address":"浦东新区龙东大道3999号(近龙新路)"},{"poiid":"B2094757D06FA7F5489D","title":"唐镇地铁站","lon":"121.655261389","lat":"31.2132715098","category":"36","category_name":"地铁站","address":"上海轨道交通 二号线 轨交塘镇站 2"},{"poiid":"B2094757D06FABFD439A","title":"张江集电港二期","lon":"121.635397","lat":"31.216483","category":"47","category_name":"住宅区","address":"浦东新区张东路1387号"},{"poiid":"B2094757D068A4F8469C","title":"唐园大酒店","lon":"121.64786","lat":"31.22455","category":"76","category_name":"上海菜","address":"浦东新区唐陆路2400号(近龙东大道)"},{"poiid":"B2094757D06FA1F54498","title":"永达国际汽车广场","lon":"121.62713285","lat":"31.222678767","category":"500","category_name":"未知分类","address":"上海龙东大道2777号"},{"poiid":"B2094757D068A3F9499E","title":"毕加索小镇","lon":"121.64792633","lat":"31.221918106","category":"500","category_name":"未知分类","address":"上海市浦东新区春泉路45弄"},{"poiid":"B2094655D36DA6FE4698","title":"唐镇","lon":"121.65525","lat":"31.21328","category":"38","category_name":"公交车站","address":""},{"poiid":"B2094757D068A0F5479E","title":"宝诚宝马4S店(龙东大道店)","lon":"121.630592","lat":"31.224612","category":"158","category_name":"汽车销售","address":"浦东新区龙东大道2777号(近申江路)"},{"poiid":"B2094757D068AAF84893","title":"龙东商务酒店","lon":"121.633540458","lat":"31.2227017056","category":"214","category_name":"四星级宾馆","address":"浦东新区龙东大道3000号(张东路口)"},{"poiid":"B2094757D06AA4FA4692","title":"展讯中心","lon":"121.634","lat":"31.2169","category":"500","category_name":"未知分类","address":"上海浦东新区张江高科祖冲之路2288弄1号楼"},{"poiid":"B2094655D26EA0F8409C","title":"强生千亩园林餐厅","lon":"121.63900116319462","lat":"31.22349341978972","category":"87","category_name":"特色／地方风味餐厅","address":"上海市浦东新区龙东大道3166号"},{"poiid":"B2094757D068ABF4469B","title":"中国银联培训中心","lon":"121.663736","lat":"31.231019","category":"46","category_name":"楼宇","address":"上海顾唐路 龙东大道"},{"poiid":"B2094750D76CA4FC479C","title":"妈妈糖2.0(张东路店)","lon":"121.634","lat":"31.2187","category":"94","category_name":"西餐厅","address":"浦东新区张东路1387号集电子社区中心2楼"},{"poiid":"B2094757D064A4FC4893","title":"小城故事(浦东店)","lon":"121.63064","lat":"31.22243","category":"91","category_name":"台湾菜","address":"浦东新区龙东大道3000号龙东商务酒店2号楼102室(张东路口)"},{"poiid":"B2094655D26BA2F9489E","title":"唐陆路龙东大道","lon":"121.64744","lat":"31.22495","category":"38","category_name":"公交车站","address":""},{"poiid":"B2094654DB64A3FA469D","title":"张江集电港·会展中心(张东路)","lon":"121.63236","lat":"31.22277","category":"185","category_name":"会展中心","address":"龙东大道3000号"},{"poiid":"B2094655D264A4FB4993","title":"环东二大道立交","lon":"121.64349","lat":"31.22579","category":"250","category_name":"公园户外","address":""},{"poiid":"B2094757D064AAF5499F","title":"瑞慈健康管理中心(张东路店)","lon":"121.6329","lat":"31.21723","category":"162","category_name":"医院","address":"上海浦东新区张东路1388号15幢(近丹桂路)"},{"poiid":"B2094654DB69A7FA469D","title":"天歌花园","lon":"121.64359","lat":"31.2256","category":"47","category_name":"住宅区","address":"浦东新区唐镇"},{"poiid":"B2094655D264A2F9409B","title":"好又多中心路店","lon":"121.64649","lat":"31.23036","category":"118","category_name":"超级市场","address":""},{"poiid":"B2094757D16BA7FA449D","title":"宝钢特钢事业部","lon":"121.643500375","lat":"31.2250608398","category":"500","category_name":"未知分类","address":"上海市宝山区水产路1269号"},{"poiid":"B2094655D36DA2FB4198","title":"龙东大道曹家沟桥","lon":"121.64774","lat":"31.22655","category":"250","category_name":"公园户外","address":""},{"poiid":"B2094757D16EA2F54799","title":"强生千亩园林","lon":"121.640919544","lat":"31.2232303176","category":"500","category_name":"未知分类","address":"上海龙东大道3166号"},{"poiid":"B2094655D269A4F84992","title":"上海永达雪佛兰浦东店","lon":"121.6304","lat":"31.22433","category":"158","category_name":"汽车销售","address":"浦东新区龙东大道2777号(近申江路)"},{"poiid":"B2094655D36CA1F84599","title":"龙东路","lon":"121.65028","lat":"31.22699","category":"38","category_name":"公交车站","address":""},{"poiid":"B2094655D265A0F8499F","title":"忘不了饭店","lon":"121.64913","lat":"31.22733","category":"257","category_name":"中餐厅","address":""},{"poiid":"B2094757D66CAAF9499C","title":"绿城玉兰花园","lon":"121.65719056928992","lat":"31.219996063475424","category":"47","category_name":"住宅区","address":"上海市浦东新区齐爱路99弄"},{"poiid":"B2094757D06BA3FD459D","title":"圣马力诺.桥语别墅","lon":"121.64949023","lat":"31.217492672","category":"47","category_name":"住宅区","address":"上海唐安路199弄"},{"poiid":"B2094757D568A6FC459A","title":"唐人国际购物中心","lon":"121.647468","lat":"31.22404","category":"249","category_name":"购物服务","address":"中国上海市浦东新区唐陆公路"},{"poiid":"B2094654DA6AAAFC499D","title":"白金瀚宫","lon":"121.6582","lat":"31.22733","category":"47","category_name":"住宅区","address":"白金瀚宫(华亭丽都)位于浦东龙东大道4288号"},{"poiid":"B2094654DA6AAAFD429D","title":"唐人苑","lon":"121.64923","lat":"31.208265","category":"47","category_name":"住宅区","address":"唐镇路127弄"},{"poiid":"B2094654DA6BA2F4499C","title":"泛亚汽车技术中心有限公司3号办公楼","lon":"121.65283","lat":"31.2308","category":"46","category_name":"楼宇","address":""},{"poiid":"B2094757D069A6FE429B","title":"51job","lon":"121.633905","lat":"31.217677","category":"500","category_name":"未知分类","address":"上海张东路1387弄3号"},{"poiid":"B2094757D065A1FD4092","title":"AMD","lon":"121.63495156","lat":"31.220122434","category":"46","category_name":"楼宇","address":"上海张东路1387号第46-48幢"},{"poiid":"B2094750D26AABFD4998","title":"金葵新城","lon":"121.634536","lat":"31.225202","category":"47","category_name":"住宅区","address":"浦东新区金葵路945弄"},{"poiid":"B2094757D165A1F94692","title":"泛亚排放实验室欧五转鼓机房","lon":"121.645506575","lat":"31.2303562637","category":"500","category_name":"未知分类","address":null},{"poiid":"B2094757D069AAF5459A","title":"外汇交易中心","lon":"121.63539886","lat":"31.216482162","category":"500","category_name":"未知分类","address":"上海张东路1387号"},{"poiid":"B2094654DA6BA2FB489A","title":"圣马丽诺·桥","lon":"121.6486","lat":"31.21903","category":"47","category_name":"住宅区","address":"圣马丽诺桥位于浦东唐安路199弄(近龙东大道唐陆路)"},{"poiid":"B2094655D36CA7F54593","title":"顾唐路龙东大道","lon":"121.66346","lat":"31.23056","category":"38","category_name":"公交车站","address":""},{"poiid":"B2094655D265A5FC409E","title":"大众饭店","lon":"121.64677","lat":"31.2332","category":"257","category_name":"中餐厅","address":""},{"poiid":"B2094757D06AA7FD469C","title":"上海通用汽车王港ME楼","lon":"121.653087656","lat":"31.2309196349","category":"46","category_name":"楼宇","address":"上海龙东大道3999号"},{"poiid":"B2094757D66EA6F94793","title":"张江国际豪庭","lon":"121.642386375","lat":"31.2168653481","category":"252","category_name":"楼宇机构","address":"上海银樽路58号"},{"poiid":"B2094757D66EABFE4699","title":"泛亚汽车技术中心动力总成大楼","lon":"121.648984975","lat":"31.2314590895","category":"500","category_name":"未知分类","address":"上海二楼"},{"poiid":"B2094654DA6AA4FD4393","title":"塞纳阳光西餐厅","lon":"121.631737054","lat":"31.223521793","category":"94","category_name":"西餐厅","address":"浦东新区龙东大道3000号龙东商务酒店内(张东路口)"},{"poiid":"B2094654DA6AA5FC479C","title":"城市经典","lon":"121.629","lat":"31.2244","category":"47","category_name":"住宅区","address":"青桐路618弄"},{"poiid":"B2094655D36CA6F9429C","title":"芳春路金秋路","lon":"121.63794","lat":"31.21973","category":"38","category_name":"公交车站","address":""},{"poiid":"B2094757D164A4FB429B","title":"永达一汽丰田","lon":"121.632600975","lat":"31.2240789168","category":"500","category_name":"未知分类","address":"上海市浦东新区龙东大道"},{"poiid":"B2094757D16AA7F44199","title":"美敦力","lon":"121.64343457","lat":"31.218621381","category":"249","category_name":"购物服务","address":"上海龙东大道3000号张江集电港11号楼"},{"poiid":"B2094750D364A0FD409C","title":"美敦力中国","lon":"121.63566","lat":"31.22418","category":"622","category_name":"医疗健康类公司","address":"龙东大道3000号11号楼"},{"poiid":"B2094654DB64A3FA4799","title":"张江集电港","lon":"121.63318","lat":"31.22205","category":"252","category_name":"楼宇机构","address":"卫清西路139_149号等"},{"poiid":"B2094757D06EAAFD469C","title":"泛亚汽车技术中心有限公司","lon":"121.65544891","lat":"31.228515625","category":"46","category_name":"楼宇","address":"浦东新区龙东大道3999号(近龙新路)"},{"poiid":"B2094757D06FA7F5489D","title":"唐镇地铁站","lon":"121.655261389","lat":"31.2132715098","category":"36","category_name":"地铁站","address":"上海轨道交通 二号线 轨交塘镇站 2"},{"poiid":"B2094757D06FABFD439A","title":"张江集电港二期","lon":"121.635397","lat":"31.216483","category":"47","category_name":"住宅区","address":"浦东新区张东路1387号"},{"poiid":"B2094757D068A4F8469C","title":"唐园大酒店","lon":"121.64786","lat":"31.22455","category":"76","category_name":"上海菜","address":"浦东新区唐陆路2400号(近龙东大道)"},{"poiid":"B2094757D06FA1F54498","title":"永达国际汽车广场","lon":"121.62713285","lat":"31.222678767","category":"500","category_name":"未知分类","address":"上海龙东大道2777号"},{"poiid":"B2094757D068A3F9499E","title":"毕加索小镇","lon":"121.64792633","lat":"31.221918106","category":"500","category_name":"未知分类","address":"上海市浦东新区春泉路45弄"},{"poiid":"B2094655D36DA6FE4698","title":"唐镇","lon":"121.65525","lat":"31.21328","category":"38","category_name":"公交车站","address":""},{"poiid":"B2094757D068A0F5479E","title":"宝诚宝马4S店(龙东大道店)","lon":"121.630592","lat":"31.224612","category":"158","category_name":"汽车销售","address":"浦东新区龙东大道2777号(近申江路)"},{"poiid":"B2094757D068AAF84893","title":"龙东商务酒店","lon":"121.633540458","lat":"31.2227017056","category":"214","category_name":"四星级宾馆","address":"浦东新区龙东大道3000号(张东路口)"},{"poiid":"B2094757D06AA4FA4692","title":"展讯中心","lon":"121.634","lat":"31.2169","category":"500","category_name":"未知分类","address":"上海浦东新区张江高科祖冲之路2288弄1号楼"},{"poiid":"B2094655D26EA0F8409C","title":"强生千亩园林餐厅","lon":"121.63900116319462","lat":"31.22349341978972","category":"87","category_name":"特色／地方风味餐厅","address":"上海市浦东新区龙东大道3166号"},{"poiid":"B2094757D068ABF4469B","title":"中国银联培训中心","lon":"121.663736","lat":"31.231019","category":"46","category_name":"楼宇","address":"上海顾唐路 龙东大道"},{"poiid":"B2094750D76CA4FC479C","title":"妈妈糖2.0(张东路店)","lon":"121.634","lat":"31.2187","category":"94","category_name":"西餐厅","address":"浦东新区张东路1387号集电子社区中心2楼"},{"poiid":"B2094757D064A4FC4893","title":"小城故事(浦东店)","lon":"121.63064","lat":"31.22243","category":"91","category_name":"台湾菜","address":"浦东新区龙东大道3000号龙东商务酒店2号楼102室(张东路口)"},{"poiid":"B2094655D26BA2F9489E","title":"唐陆路龙东大道","lon":"121.64744","lat":"31.22495","category":"38","category_name":"公交车站","address":""},{"poiid":"B2094654DB64A3FA469D","title":"张江集电港·会展中心(张东路)","lon":"121.63236","lat":"31.22277","category":"185","category_name":"会展中心","address":"龙东大道3000号"},{"poiid":"B2094655D264A4FB4993","title":"环东二大道立交","lon":"121.64349","lat":"31.22579","category":"250","category_name":"公园户外","address":""},{"poiid":"B2094757D064AAF5499F","title":"瑞慈健康管理中心(张东路店)","lon":"121.6329","lat":"31.21723","category":"162","category_name":"医院","address":"上海浦东新区张东路1388号15幢(近丹桂路)"},{"poiid":"B2094654DB69A7FA469D","title":"天歌花园","lon":"121.64359","lat":"31.2256","category":"47","category_name":"住宅区","address":"浦东新区唐镇"},{"poiid":"B2094655D264A2F9409B","title":"好又多中心路店","lon":"121.64649","lat":"31.23036","category":"118","category_name":"超级市场","address":""},{"poiid":"B2094757D16BA7FA449D","title":"宝钢特钢事业部","lon":"121.643500375","lat":"31.2250608398","category":"500","category_name":"未知分类","address":"上海市宝山区水产路1269号"},{"poiid":"B2094655D36DA2FB4198","title":"龙东大道曹家沟桥","lon":"121.64774","lat":"31.22655","category":"250","category_name":"公园户外","address":""},{"poiid":"B2094757D16EA2F54799","title":"强生千亩园林","lon":"121.640919544","lat":"31.2232303176","category":"500","category_name":"未知分类","address":"上海龙东大道3166号"},{"poiid":"B2094655D269A4F84992","title":"上海永达雪佛兰浦东店","lon":"121.6304","lat":"31.22433","category":"158","category_name":"汽车销售","address":"浦东新区龙东大道2777号(近申江路)"},{"poiid":"B2094655D36CA1F84599","title":"龙东路","lon":"121.65028","lat":"31.22699","category":"38","category_name":"公交车站","address":""},{"poiid":"B2094655D265A0F8499F","title":"忘不了饭店","lon":"121.64913","lat":"31.22733","category":"257","category_name":"中餐厅","address":""},{"poiid":"B2094757D66CAAF9499C","title":"绿城玉兰花园","lon":"121.65719056928992","lat":"31.219996063475424","category":"47","category_name":"住宅区","address":"上海市浦东新区齐爱路99弄"},{"poiid":"B2094757D06BA3FD459D","title":"圣马力诺.桥语别墅","lon":"121.64949023","lat":"31.217492672","category":"47","category_name":"住宅区","address":"上海唐安路199弄"},{"poiid":"B2094757D568A6FC459A","title":"唐人国际购物中心","lon":"121.647468","lat":"31.22404","category":"249","category_name":"购物服务","address":"中国上海市浦东新区唐陆公路"},{"poiid":"B2094654DA6AAAFC499D","title":"白金瀚宫","lon":"121.6582","lat":"31.22733","category":"47","category_name":"住宅区","address":"白金瀚宫(华亭丽都)位于浦东龙东大道4288号"},{"poiid":"B2094654DA6AAAFD429D","title":"唐人苑","lon":"121.64923","lat":"31.208265","category":"47","category_name":"住宅区","address":"唐镇路127弄"},{"poiid":"B2094654DA6BA2F4499C","title":"泛亚汽车技术中心有限公司3号办公楼","lon":"121.65283","lat":"31.2308","category":"46","category_name":"楼宇","address":""},{"poiid":"B2094757D069A6FE429B","title":"51job","lon":"121.633905","lat":"31.217677","category":"500","category_name":"未知分类","address":"上海张东路1387弄3号"},{"poiid":"B2094757D065A1FD4092","title":"AMD","lon":"121.63495156","lat":"31.220122434","category":"46","category_name":"楼宇","address":"上海张东路1387号第46-48幢"},{"poiid":"B2094750D26AABFD4998","title":"金葵新城","lon":"121.634536","lat":"31.225202","category":"47","category_name":"住宅区","address":"浦东新区金葵路945弄"},{"poiid":"B2094757D165A1F94692","title":"泛亚排放实验室欧五转鼓机房","lon":"121.645506575","lat":"31.2303562637","category":"500","category_name":"未知分类","address":null},{"poiid":"B2094757D069AAF5459A","title":"外汇交易中心","lon":"121.63539886","lat":"31.216482162","category":"500","category_name":"未知分类","address":"上海张东路1387号"},{"poiid":"B2094654DA6BA2FB489A","title":"圣马丽诺·桥","lon":"121.6486","lat":"31.21903","category":"47","category_name":"住宅区","address":"圣马丽诺桥位于浦东唐安路199弄(近龙东大道唐陆路)"},{"poiid":"B2094655D36CA7F54593","title":"顾唐路龙东大道","lon":"121.66346","lat":"31.23056","category":"38","category_name":"公交车站","address":""},{"poiid":"B2094655D265A5FC409E","title":"大众饭店","lon":"121.64677","lat":"31.2332","category":"257","category_name":"中餐厅","address":""},{"poiid":"B2094757D06AA7FD469C","title":"上海通用汽车王港ME楼","lon":"121.653087656","lat":"31.2309196349","category":"46","category_name":"楼宇","address":"上海龙东大道3999号"},{"poiid":"B2094757D66EA6F94793","title":"张江国际豪庭","lon":"121.642386375","lat":"31.2168653481","category":"252","category_name":"楼宇机构","address":"上海银樽路58号"},{"poiid":"B2094757D66EABFE4699","title":"泛亚汽车技术中心动力总成大楼","lon":"121.648984975","lat":"31.2314590895","category":"500","category_name":"未知分类","address":"上海二楼"},{"poiid":"B2094654DA6AA4FD4393","title":"塞纳阳光西餐厅","lon":"121.631737054","lat":"31.223521793","category":"94","category_name":"西餐厅","address":"浦东新区龙东大道3000号龙东商务酒店内(张东路口)"},{"poiid":"B2094654DA6AA5FC479C","title":"城市经典","lon":"121.629","lat":"31.2244","category":"47","category_name":"住宅区","address":"青桐路618弄"},{"poiid":"B2094655D36CA6F9429C","title":"芳春路金秋路","lon":"121.63794","lat":"31.21973","category":"38","category_name":"公交车站","address":""},{"poiid":"B2094757D164A4FB429B","title":"永达一汽丰田","lon":"121.632600975","lat":"31.2240789168","category":"500","category_name":"未知分类","address":"上海市浦东新区龙东大道"},{"poiid":"B2094757D16AA7F44199","title":"美敦力","lon":"121.64343457","lat":"31.218621381","category":"249","category_name":"购物服务","address":"上海龙东大道3000号张江集电港11号楼"},{"poiid":"B2094750D364A0FD409C","title":"美敦力中国","lon":"121.63566","lat":"31.22418","category":"622","category_name":"医疗健康类公司","address":"龙东大道3000号11号楼"}]