[{"poiid":"B2094757D06EAAF84399","title":"广兰路地铁站","lon":"121.61999759","lat":"31.210776628","category":"36","category_name":"地铁站","address":"上海轨道交通二号线广兰路站"},{"poiid":"B2094757D068A7F8409D","title":"展讯豪生酒店","lon":"121.62515517","lat":"31.206159597","category":"217","category_name":"旅馆招待所","address":"上海市浦东新区祖冲之路2288弄（近申江路）"},{"poiid":"B2094757D06FA0FF409F","title":"阳光花城","lon":"121.62379","lat":"31.207195","category":"500","category_name":"未知分类","address":"上海市浦东新区紫薇路667弄"},{"poiid":"B2094757D06BABFC499E","title":"张江路紫薇路","lon":"121.61623847","lat":"31.201357285","category":"500","category_name":"未知分类","address":"上海977路张江农工商站"},{"poiid":"B2094757D06FA5F9429B","title":"汤豪仕汤馆(张江店)","lon":"121.6168","lat":"31.2023","category":"76","category_name":"上海菜","address":"浦东新区紫薇路200号(近张江路)"},{"poiid":"B2094655D36DA6FD439B","title":"广兰路","lon":"121.61996","lat":"31.21077","category":"38","category_name":"公交车站","address":""},{"poiid":"B2094757D069A1FB439B","title":"容源大酒店","lon":"121.620157963","lat":"31.2053299054","category":"72","category_name":"广东菜","address":"浦东新区广兰路1080号(紫薇路口)"},{"poiid":"B2094654DA6AA5F94892","title":"兰沁苑","lon":"121.62245","lat":"31.205448","category":"47","category_name":"住宅区","address":"紫薇路750弄"},{"poiid":"B2094655D26FA4F8449C","title":"上海拉卡菲大酒店","lon":"121.61592","lat":"31.20228","category":"76","category_name":"上海菜","address":"浦东新区浦东新区紫薇路178号(近张江镇)"},{"poiid":"B2094655D265A5F4459D","title":"格林豪泰酒店上海张江店","lon":"121.62062","lat":"31.20499","category":"216","category_name":"经济型连锁酒店","address":"浦东新区广兰路1090号"},{"poiid":"B2094757D069A5FE489C","title":"威尔士健身会所(张江店)","lon":"121.62643","lat":"31.20966","category":"221","category_name":"健身中心","address":"浦东新区祖冲之路2288号(近申江路)"},{"poiid":"B2094757D069ABFC4092","title":"张江中学足球场","lon":"121.6172","lat":"31.20647","category":"253","category_name":"校园生活","address":"浦东新区江东路54号张江体育中心"},{"poiid":"B2094757D16EA1FB4692","title":"广兰公园","lon":"121.620380975","lat":"31.2052764771","category":"196","category_name":"公园","address":"浦东新区广兰路965号(近紫薇路)"},{"poiid":"B2094654DA6AA6F5419E","title":"张江步行街","lon":"121.61502","lat":"31.20352","category":"116","category_name":"特色商业街","address":""},{"poiid":"B2094757D06BA5FB4693","title":"苏武牧羊(张江店)","lon":"121.62132","lat":"31.20456","category":"86","category_name":"火锅店","address":"浦东新区广兰路1128号(近紫薇路)"},{"poiid":"B2094757D064A5FE449E","title":"春港丽园","lon":"121.62296","lat":"31.201822","category":"260","category_name":"其他","address":"上海浦东新区益丰路55弄"},{"poiid":"B2094757D069A6FF4299","title":"Jepson Bread(紫薇路店)","lon":"121.61634","lat":"31.20256","category":"67","category_name":"甜品店","address":"上海浦东新区紫薇路199号(近张江路)"},{"poiid":"B2094757D069A4FB429B","title":"香香川菜","lon":"121.616353","lat":"31.203218","category":"71","category_name":"四川菜","address":"浦东新区张江镇紫薇路217号(近张江路)"},{"poiid":"B2094654DA6AA6F4429A","title":"广兰名苑","lon":"121.62022","lat":"31.20352","category":"47","category_name":"住宅区","address":"上海市浦东新区广兰路1166弄"},{"poiid":"B2094757D16BA6F94199","title":"钱万隆大酒店","lon":"121.624439975","lat":"31.207584531","category":"247","category_name":"餐饮美食","address":"上海广兰路778号"},{"poiid":"B2094654DA6AA5FD449B","title":"贝越流明新苑","lon":"121.62178","lat":"31.202263","category":"47","category_name":"住宅区","address":"上海市浦东新区紫薇路228号"},{"poiid":"B2094757D06AABFD4299","title":"蜀悦渔乡(高斯路店)","lon":"121.61702","lat":"31.19973","category":"71","category_name":"四川菜","address":"上海浦东新区高斯路1276-1282号(近紫薇路)  "},{"poiid":"B2094655D36DA7FB4292","title":"紫薇路申江路","lon":"121.62439","lat":"31.20672","category":"38","category_name":"公交车站","address":""},{"poiid":"B2094757D06AA2F84492","title":"舒悦大酒楼","lon":"121.61606","lat":"31.20386","category":"260","category_name":"其他","address":"浦东新区张江路665号德宏大厦(近农工商)"},{"poiid":"B2094752D76EABFE409E","title":"光头烧烤","lon":"121.625321","lat":"31.204643","category":"247","category_name":"餐饮美食","address":null},{"poiid":"B2094757D06AA1F5439E","title":"东风日产冠松专营店","lon":"121.62199556","lat":"31.198545819","category":"500","category_name":"未知分类","address":"上海浦东新区张江路1160号"},{"poiid":"B2094753D468AAFB4992","title":"贝贝树幼儿园","lon":"121.621078","lat":"31.206233","category":"57","category_name":"幼儿园","address":"上海市 紫微路600号"},{"poiid":"B2094654DA6AA5FD469E","title":"上海市张江中学(江东路)","lon":"121.61783","lat":"31.20693","category":"55","category_name":"中学","address":"浦东张江江东路54号"},{"poiid":"B2094655D264A5F9469D","title":"移动申江路基站组办公楼","lon":"121.62125","lat":"31.20387","category":"46","category_name":"楼宇","address":"广兰路1140号"},{"poiid":"B2094757D069A3FC499C","title":"玉兰香苑2期","lon":"121.628673","lat":"31.199725","category":"47","category_name":"住宅区","address":"上海浦东张江益江路511弄"},{"poiid":"B2094654DA6AA5FD4493","title":"中国移动通信张江营业厅","lon":"121.62125","lat":"31.20387","category":"151","category_name":"电讯营业厅","address":"浦东新区广兰路1140号"},{"poiid":"B2094654DA6AA6F4419C","title":"中国工商银行上海市张江支行","lon":"121.61593","lat":"31.20486","category":"150","category_name":"银行","address":"浦东新区张江高科技园区科苑路201号(碧波路郭守敬路)"},{"poiid":"B2094655D265A1FD449F","title":"喜士多便利(广兰店)","lon":"121.62085","lat":"31.20469","category":"117","category_name":"便民商店/便利店","address":"张江镇广兰路1114号"},{"poiid":"B2094757D065ABFC4899","title":"张江有轨电车1路广兰路祖冲之路站","lon":"121.618309631","lat":"31.2099641454","category":"36","category_name":"地铁站","address":"上海浦东新区广兰路祖冲之路交会口"},{"poiid":"B2094757D66CA6FA489F","title":"Howard Johnson","lon":"121.62408597","lat":"31.207421527","category":"500","category_name":"未知分类","address":"上海市浦东新区祖冲之路"},{"poiid":"B2094757D165A7FB499E","title":"移動營業廳","lon":"121.623680405","lat":"31.2042122622","category":"150","category_name":"银行","address":"上海廣蘭路、紫薇路口"},{"poiid":"B2094757D06AABFC419E","title":"湘云阁","lon":"121.61694","lat":"31.20237","category":"77","category_name":"湖南菜","address":"浦东新区紫薇路210号(近张江路口)"},{"poiid":"B2094757D068ABFC4793","title":"桃花源酒家 张江店","lon":"121.61640151289748","lat":"31.19982168307144","category":"77","category_name":"湖南菜","address":"浦东新区高斯路1252号(近紫薇路)"},{"poiid":"B2094654DA6AA5FD449C","title":"世纪华联广兰店","lon":"121.62123","lat":"31.20401","category":"118","category_name":"超级市场","address":"广兰路1136"},{"poiid":"B2094757D168ABF5459D","title":"古桐三村","lon":"121.625","lat":"31.2062","category":"252","category_name":"楼宇机构","address":"上海市浦东新区张江高斯路1296弄60号401室。"},{"poiid":"B2094654DA6AA5FD419F","title":"好德(广兰路)","lon":"121.62094","lat":"31.20327","category":"117","category_name":"便民商店/便利店","address":""},{"poiid":"B2094757D469A5F8489C","title":"湘阁里辣 高斯路店","lon":"121.6176727","lat":"31.2006433","category":"77","category_name":"湖南菜","address":"浦东新区高斯路1272-1274号(近张江路)"},{"poiid":"B2094654DA6AA5FC419C","title":"牧羊寨","lon":"121.61688","lat":"31.20285","category":"70","category_name":"综合酒楼","address":"浦东新区张江镇紫薇路222号(近张江路)"},{"poiid":"B2094655D36DA7FD449D","title":"张江路高科中路","lon":"121.62176","lat":"31.1991","category":"38","category_name":"公交车站","address":""},{"poiid":"B2094655D36DA7FB449E","title":"祖冲之路申江路","lon":"121.6266","lat":"31.21147","category":"38","category_name":"公交车站","address":""},{"poiid":"B2094757DA65A5FB469E","title":"莫泰168（上海张江店）","lon":"121.615243","lat":"31.205405","category":"216","category_name":"经济型连锁酒店","address":"上海市浦东新区张江路605号(近张江镇江东路)"},{"poiid":"B2094757D465A2F4429F","title":"龙江菜饺子馆","lon":"121.617213054","lat":"31.203894793","category":"68","category_name":"快餐厅","address":"浦东新区张江路678号(近紫薇路)"},{"poiid":"B2094757DA65A5FA4898","title":"如家连锁酒店（上海张江园区店）","lon":"121.6164663","lat":"31.20461857","category":"216","category_name":"经济型连锁酒店","address":"上海市浦东新区张江镇建中路3弄29号(近张江路)"},{"poiid":"B2094750D568ABF84299","title":"上海天之骄子","lon":"121.62937","lat":"31.211645","category":"47","category_name":"住宅区","address":"浦东祖冲之路2305号(盛夏路口)"},{"poiid":"B2094757D06AA3FB479E","title":"感恩堂","lon":"121.62321","lat":"31.21502","category":"500","category_name":"未知分类","address":"浦东新区丹桂路700号(丹桂路青桐路)"},{"poiid":"B2094757D06EAAF84399","title":"广兰路地铁站","lon":"121.61999759","lat":"31.210776628","category":"36","category_name":"地铁站","address":"上海轨道交通二号线广兰路站"},{"poiid":"B2094757D068A7F8409D","title":"展讯豪生酒店","lon":"121.62515517","lat":"31.206159597","category":"217","category_name":"旅馆招待所","address":"上海市浦东新区祖冲之路2288弄（近申江路）"},{"poiid":"B2094757D06FA0FF409F","title":"阳光花城","lon":"121.62379","lat":"31.207195","category":"500","category_name":"未知分类","address":"上海市浦东新区紫薇路667弄"},{"poiid":"B2094757D06BABFC499E","title":"张江路紫薇路","lon":"121.61623847","lat":"31.201357285","category":"500","category_name":"未知分类","address":"上海977路张江农工商站"},{"poiid":"B2094757D06FA5F9429B","title":"汤豪仕汤馆(张江店)","lon":"121.6168","lat":"31.2023","category":"76","category_name":"上海菜","address":"浦东新区紫薇路200号(近张江路)"},{"poiid":"B2094655D36DA6FD439B","title":"广兰路","lon":"121.61996","lat":"31.21077","category":"38","category_name":"公交车站","address":""},{"poiid":"B2094757D069A1FB439B","title":"容源大酒店","lon":"121.620157963","lat":"31.2053299054","category":"72","category_name":"广东菜","address":"浦东新区广兰路1080号(紫薇路口)"},{"poiid":"B2094654DA6AA5F94892","title":"兰沁苑","lon":"121.62245","lat":"31.205448","category":"47","category_name":"住宅区","address":"紫薇路750弄"},{"poiid":"B2094655D26FA4F8449C","title":"上海拉卡菲大酒店","lon":"121.61592","lat":"31.20228","category":"76","category_name":"上海菜","address":"浦东新区浦东新区紫薇路178号(近张江镇)"},{"poiid":"B2094655D265A5F4459D","title":"格林豪泰酒店上海张江店","lon":"121.62062","lat":"31.20499","category":"216","category_name":"经济型连锁酒店","address":"浦东新区广兰路1090号"},{"poiid":"B2094757D069A5FE489C","title":"威尔士健身会所(张江店)","lon":"121.62643","lat":"31.20966","category":"221","category_name":"健身中心","address":"浦东新区祖冲之路2288号(近申江路)"},{"poiid":"B2094757D069ABFC4092","title":"张江中学足球场","lon":"121.6172","lat":"31.20647","category":"253","category_name":"校园生活","address":"浦东新区江东路54号张江体育中心"},{"poiid":"B2094757D16EA1FB4692","title":"广兰公园","lon":"121.620380975","lat":"31.2052764771","category":"196","category_name":"公园","address":"浦东新区广兰路965号(近紫薇路)"},{"poiid":"B2094654DA6AA6F5419E","title":"张江步行街","lon":"121.61502","lat":"31.20352","category":"116","category_name":"特色商业街","address":""},{"poiid":"B2094757D06BA5FB4693","title":"苏武牧羊(张江店)","lon":"121.62132","lat":"31.20456","category":"86","category_name":"火锅店","address":"浦东新区广兰路1128号(近紫薇路)"},{"poiid":"B2094757D064A5FE449E","title":"春港丽园","lon":"121.62296","lat":"31.201822","category":"260","category_name":"其他","address":"上海浦东新区益丰路55弄"},{"poiid":"B2094757D069A6FF4299","title":"Jepson Bread(紫薇路店)","lon":"121.61634","lat":"31.20256","category":"67","category_name":"甜品店","address":"上海浦东新区紫薇路199号(近张江路)"},{"poiid":"B2094757D069A4FB429B","title":"香香川菜","lon":"121.616353","lat":"31.203218","category":"71","category_name":"四川菜","address":"浦东新区张江镇紫薇路217号(近张江路)"},{"poiid":"B2094654DA6AA6F4429A","title":"广兰名苑","lon":"121.62022","lat":"31.20352","category":"47","category_name":"住宅区","address":"上海市浦东新区广兰路1166弄"},{"poiid":"B2094757D16BA6F94199","title":"钱万隆大酒店","lon":"121.624439975","lat":"31.207584531","category":"247","category_name":"餐饮美食","address":"上海广兰路778号"},{"poiid":"B2094654DA6AA5FD449B","title":"贝越流明新苑","lon":"121.62178","lat":"31.202263","category":"47","category_name":"住宅区","address":"上海市浦东新区紫薇路228号"},{"poiid":"B2094757D06AABFD4299","title":"蜀悦渔乡(高斯路店)","lon":"121.61702","lat":"31.19973","category":"71","category_name":"四川菜","address":"上海浦东新区高斯路1276-1282号(近紫薇路)  "},{"poiid":"B2094655D36DA7FB4292","title":"紫薇路申江路","lon":"121.62439","lat":"31.20672","category":"38","category_name":"公交车站","address":""},{"poiid":"B2094757D06AA2F84492","title":"舒悦大酒楼","lon":"121.61606","lat":"31.20386","category":"260","category_name":"其他","address":"浦东新区张江路665号德宏大厦(近农工商)"},{"poiid":"B2094752D76EABFE409E","title":"光头烧烤","lon":"121.625321","lat":"31.204643","category":"247","category_name":"餐饮美食","address":null},{"poiid":"B2094757D06AA1F5439E","title":"东风日产冠松专营店","lon":"121.62199556","lat":"31.198545819","category":"500","category_name":"未知分类","address":"上海浦东新区张江路1160号"},{"poiid":"B2094753D468AAFB4992","title":"贝贝树幼儿园","lon":"121.621078","lat":"31.206233","category":"57","category_name":"幼儿园","address":"上海市 紫微路600号"},{"poiid":"B2094654DA6AA5FD469E","title":"上海市张江中学(江东路)","lon":"121.61783","lat":"31.20693","category":"55","category_name":"中学","address":"浦东张江江东路54号"},{"poiid":"B2094655D264A5F9469D","title":"移动申江路基站组办公楼","lon":"121.62125","lat":"31.20387","category":"46","category_name":"楼宇","address":"广兰路1140号"},{"poiid":"B2094757D069A3FC499C","title":"玉兰香苑2期","lon":"121.628673","lat":"31.199725","category":"47","category_name":"住宅区","address":"上海浦东张江益江路511弄"},{"poiid":"B2094654DA6AA5FD4493","title":"中国移动通信张江营业厅","lon":"121.62125","lat":"31.20387","category":"151","category_name":"电讯营业厅","address":"浦东新区广兰路1140号"},{"poiid":"B2094654DA6AA6F4419C","title":"中国工商银行上海市张江支行","lon":"121.61593","lat":"31.20486","category":"150","category_name":"银行","address":"浦东新区张江高科技园区科苑路201号(碧波路郭守敬路)"},{"poiid":"B2094655D265A1FD449F","title":"喜士多便利(广兰店)","lon":"121.62085","lat":"31.20469","category":"117","category_name":"便民商店/便利店","address":"张江镇广兰路1114号"},{"poiid":"B2094757D065ABFC4899","title":"张江有轨电车1路广兰路祖冲之路站","lon":"121.618309631","lat":"31.2099641454","category":"36","category_name":"地铁站","address":"上海浦东新区广兰路祖冲之路交会口"},{"poiid":"B2094757D66CA6FA489F","title":"Howard Johnson","lon":"121.62408597","lat":"31.207421527","category":"500","category_name":"未知分类","address":"上海市浦东新区祖冲之路"},{"poiid":"B2094757D165A7FB499E","title":"移動營業廳","lon":"121.623680405","lat":"31.2042122622","category":"150","category_name":"银行","address":"上海廣蘭路、紫薇路口"},{"poiid":"B2094757D06AABFC419E","title":"湘云阁","lon":"121.61694","lat":"31.20237","category":"77","category_name":"湖南菜","address":"浦东新区紫薇路210号(近张江路口)"},{"poiid":"B2094757D068ABFC4793","title":"桃花源酒家 张江店","lon":"121.61640151289748","lat":"31.19982168307144","category":"77","category_name":"湖南菜","address":"浦东新区高斯路1252号(近紫薇路)"},{"poiid":"B2094654DA6AA5FD449C","title":"世纪华联广兰店","lon":"121.62123","lat":"31.20401","category":"118","category_name":"超级市场","address":"广兰路1136"},{"poiid":"B2094757D168ABF5459D","title":"古桐三村","lon":"121.625","lat":"31.2062","category":"252","category_name":"楼宇机构","address":"上海市浦东新区张江高斯路1296弄60号401室。"},{"poiid":"B2094654DA6AA5FD419F","title":"好德(广兰路)","lon":"121.62094","lat":"31.20327","category":"117","category_name":"便民商店/便利店","address":""},{"poiid":"B2094757D469A5F8489C","title":"湘阁里辣 高斯路店","lon":"121.6176727","lat":"31.2006433","category":"77","category_name":"湖南菜","address":"浦东新区高斯路1272-1274号(近张江路)"},{"poiid":"B2094654DA6AA5FC419C","title":"牧羊寨","lon":"121.61688","lat":"31.20285","category":"70","category_name":"综合酒楼","address":"浦东新区张江镇紫薇路222号(近张江路)"},{"poiid":"B2094655D36DA7FD449D","title":"张江路高科中路","lon":"121.62176","lat":"31.1991","category":"38","category_name":"公交车站","address":""},{"poiid":"B2094655D36DA7FB449E","title":"祖冲之路申江路","lon":"121.6266","lat":"31.21147","category":"38","category_name":"公交车站","address":""},{"poiid":"B2094757DA65A5FB469E","title":"莫泰168（上海张江店）","lon":"121.615243","lat":"31.205405","category":"216","category_name":"经济型连锁酒店","address":"上海市浦东新区张江路605号(近张江镇江东路)"},{"poiid":"B2094757D465A2F4429F","title":"龙江菜饺子馆","lon":"121.617213054","lat":"31.203894793","category":"68","category_name":"快餐厅","address":"浦东新区张江路678号(近紫薇路)"},{"poiid":"B2094757DA65A5FA4898","title":"如家连锁酒店（上海张江园区店）","lon":"121.6164663","lat":"31.20461857","category":"216","category_name":"经济型连锁酒店","address":"上海市浦东新区张江镇建中路3弄29号(近张江路)"},{"poiid":"B2094750D568ABF84299","title":"上海天之骄子","lon":"121.62937","lat":"31.211645","category":"47","category_name":"住宅区","address":"浦东祖冲之路2305号(盛夏路口)"},{"poiid":"B2094757D06AA3FB479E","title":"感恩堂","lon":"121.62321","lat":"31.21502","category":"500","category_name":"未知分类","address":"浦东新区丹桂路700号(丹桂路青桐路)"},{"poiid":"B2094757D06EAAF84399","title":"广兰路地铁站","lon":"121.61999759","lat":"31.210776628","category":"36","category_name":"地铁站","address":"上海轨道交通二号线广兰路站"},{"poiid":"B2094757D068A7F8409D","title":"展讯豪生酒店","lon":"121.62515517","lat":"31.206159597","category":"217","category_name":"旅馆招待所","address":"上海市浦东新区祖冲之路2288弄（近申江路）"},{"poiid":"B2094757D06FA0FF409F","title":"阳光花城","lon":"121.62379","lat":"31.207195","category":"500","category_name":"未知分类","address":"上海市浦东新区紫薇路667弄"},{"poiid":"B2094757D06BABFC499E","title":"张江路紫薇路","lon":"121.61623847","lat":"31.201357285","category":"500","category_name":"未知分类","address":"上海977路张江农工商站"},{"poiid":"B2094757D06FA5F9429B","title":"汤豪仕汤馆(张江店)","lon":"121.6168","lat":"31.2023","category":"76","category_name":"上海菜","address":"浦东新区紫薇路200号(近张江路)"},{"poiid":"B2094655D36DA6FD439B","title":"广兰路","lon":"121.61996","lat":"31.21077","category":"38","category_name":"公交车站","address":""},{"poiid":"B2094757D069A1FB439B","title":"容源大酒店","lon":"121.620157963","lat":"31.2053299054","category":"72","category_name":"广东菜","address":"浦东新区广兰路1080号(紫薇路口)"},{"poiid":"B2094654DA6AA5F94892","title":"兰沁苑","lon":"121.62245","lat":"31.205448","category":"47","category_name":"住宅区","address":"紫薇路750弄"},{"poiid":"B2094655D26FA4F8449C","title":"上海拉卡菲大酒店","lon":"121.61592","lat":"31.20228","category":"76","category_name":"上海菜","address":"浦东新区浦东新区紫薇路178号(近张江镇)"},{"poiid":"B2094655D265A5F4459D","title":"格林豪泰酒店上海张江店","lon":"121.62062","lat":"31.20499","category":"216","category_name":"经济型连锁酒店","address":"浦东新区广兰路1090号"},{"poiid":"B2094757D069A5FE489C","title":"威尔士健身会所(张江店)","lon":"121.62643","lat":"31.20966","category":"221","category_name":"健身中心","address":"浦东新区祖冲之路2288号(近申江路)"},{"poiid":"B2094757D069ABFC4092","title":"张江中学足球场","lon":"121.6172","lat":"31.20647","category":"253","category_name":"校园生活","address":"浦东新区江东路54号张江体育中心"},{"poiid":"B2094757D16EA1FB4692","title":"广兰公园","lon":"121.620380975","lat":"31.2052764771","category":"196","category_name":"公园","address":"浦东新区广兰路965号(近紫薇路)"},{"poiid":"B2094654DA6AA6F5419E","title":"张江步行街","lon":"121.61502","lat":"31.20352","category":"116","category_name":"特色商业街","address":""},{"poiid":"B2094757D06BA5FB4693","title":"苏武牧羊(张江店)","lon":"121.62132","lat":"31.20456","category":"86","category_name":"火锅店","address":"浦东新区广兰路1128号(近紫薇路)"},{"poiid":"B2094757D064A5FE449E","title":"春港丽园","lon":"121.62296","lat":"31.201822","category":"260","category_name":"其他","address":"上海浦东新区益丰路55弄"},{"poiid":"B2094757D069A6FF4299","title":"Jepson Bread(紫薇路店)","lon":"121.61634","lat":"31.20256","category":"67","category_name":"甜品店","address":"上海浦东新区紫薇路199号(近张江路)"},{"poiid":"B2094757D069A4FB429B","title":"香香川菜","lon":"121.616353","lat":"31.203218","category":"71","category_name":"四川菜","address":"浦东新区张江镇紫薇路217号(近张江路)"},{"poiid":"B2094654DA6AA6F4429A","title":"广兰名苑","lon":"121.62022","lat":"31.20352","category":"47","category_name":"住宅区","address":"上海市浦东新区广兰路1166弄"},{"poiid":"B2094757D16BA6F94199","title":"钱万隆大酒店","lon":"121.624439975","lat":"31.207584531","category":"247","category_name":"餐饮美食","address":"上海广兰路778号"},{"poiid":"B2094654DA6AA5FD449B","title":"贝越流明新苑","lon":"121.62178","lat":"31.202263","category":"47","category_name":"住宅区","address":"上海市浦东新区紫薇路228号"},{"poiid":"B2094757D06AABFD4299","title":"蜀悦渔乡(高斯路店)","lon":"121.61702","lat":"31.19973","category":"71","category_name":"四川菜","address":"上海浦东新区高斯路1276-1282号(近紫薇路)  "},{"poiid":"B2094655D36DA7FB4292","title":"紫薇路申江路","lon":"121.62439","lat":"31.20672","category":"38","category_name":"公交车站","address":""},{"poiid":"B2094757D06AA2F84492","title":"舒悦大酒楼","lon":"121.61606","lat":"31.20386","category":"260","category_name":"其他","address":"浦东新区张江路665号德宏大厦(近农工商)"},{"poiid":"B2094752D76EABFE409E","title":"光头烧烤","lon":"121.625321","lat":"31.204643","category":"247","category_name":"餐饮美食","address":null},{"poiid":"B2094757D06AA1F5439E","title":"东风日产冠松专营店","lon":"121.62199556","lat":"31.198545819","category":"500","category_name":"未知分类","address":"上海浦东新区张江路1160号"},{"poiid":"B2094753D468AAFB4992","title":"贝贝树幼儿园","lon":"121.621078","lat":"31.206233","category":"57","category_name":"幼儿园","address":"上海市 紫微路600号"},{"poiid":"B2094654DA6AA5FD469E","title":"上海市张江中学(江东路)","lon":"121.61783","lat":"31.20693","category":"55","category_name":"中学","address":"浦东张江江东路54号"},{"poiid":"B2094655D264A5F9469D","title":"移动申江路基站组办公楼","lon":"121.62125","lat":"31.20387","category":"46","category_name":"楼宇","address":"广兰路1140号"},{"poiid":"B2094757D069A3FC499C","title":"玉兰香苑2期","lon":"121.628673","lat":"31.199725","category":"47","category_name":"住宅区","address":"上海浦东张江益江路511弄"},{"poiid":"B2094654DA6AA5FD4493","title":"中国移动通信张江营业厅","lon":"121.62125","lat":"31.20387","category":"151","category_name":"电讯营业厅","address":"浦东新区广兰路1140号"},{"poiid":"B2094654DA6AA6F4419C","title":"中国工商银行上海市张江支行","lon":"121.61593","lat":"31.20486","category":"150","category_name":"银行","address":"浦东新区张江高科技园区科苑路201号(碧波路郭守敬路)"},{"poiid":"B2094655D265A1FD449F","title":"喜士多便利(广兰店)","lon":"121.62085","lat":"31.20469","category":"117","category_name":"便民商店/便利店","address":"张江镇广兰路1114号"},{"poiid":"B2094757D065ABFC4899","title":"张江有轨电车1路广兰路祖冲之路站","lon":"121.618309631","lat":"31.2099641454","category":"36","category_name":"地铁站","address":"上海浦东新区广兰路祖冲之路交会口"},{"poiid":"B2094757D66CA6FA489F","title":"Howard Johnson","lon":"121.62408597","lat":"31.207421527","category":"500","category_name":"未知分类","address":"上海市浦东新区祖冲之路"},{"poiid":"B2094757D165A7FB499E","title":"移動營業廳","lon":"121.623680405","lat":"31.2042122622","category":"150","category_name":"银行","address":"上海廣蘭路、紫薇路口"},{"poiid":"B2094757D06AABFC419E","title":"湘云阁","lon":"121.61694","lat":"31.20237","category":"77","category_name":"湖南菜","address":"浦东新区紫薇路210号(近张江路口)"},{"poiid":"B2094757D068ABFC4793","title":"桃花源酒家 张江店","lon":"121.61640151289748","lat":"31.19982168307144","category":"77","category_name":"湖南菜","address":"浦东新区高斯路1252号(近紫薇路)"},{"poiid":"B2094654DA6AA5FD449C","title":"世纪华联广兰店","lon":"121.62123","lat":"31.20401","category":"118","category_name":"超级市场","address":"广兰路1136"},{"poiid":"B2094757D168ABF5459D","title":"古桐三村","lon":"121.625","lat":"31.2062","category":"252","category_name":"楼宇机构","address":"上海市浦东新区张江高斯路1296弄60号401室。"},{"poiid":"B2094654DA6AA5FD419F","title":"好德(广兰路)","lon":"121.62094","lat":"31.20327","category":"117","category_name":"便民商店/便利店","address":""},{"poiid":"B2094757D469A5F8489C","title":"湘阁里辣 高斯路店","lon":"121.6176727","lat":"31.2006433","category":"77","category_name":"湖南菜","address":"浦东新区高斯路1272-1274号(近张江路)"},{"poiid":"B2094654DA6AA5FC419C","title":"牧羊寨","lon":"121.61688","lat":"31.20285","category":"70","category_name":"综合酒楼","address":"浦东新区张江镇紫薇路222号(近张江路)"},{"poiid":"B2094655D36DA7FD449D","title":"张江路高科中路","lon":"121.62176","lat":"31.1991","category":"38","category_name":"公交车站","address":""},{"poiid":"B2094655D36DA7FB449E","title":"祖冲之路申江路","lon":"121.6266","lat":"31.21147","category":"38","category_name":"公交车站","address":""},{"poiid":"B2094757DA65A5FB469E","title":"莫泰168（上海张江店）","lon":"121.615243","lat":"31.205405","category":"216","category_name":"经济型连锁酒店","address":"上海市浦东新区张江路605号(近张江镇江东路)"},{"poiid":"B2094757D465A2F4429F","title":"龙江菜饺子馆","lon":"121.617213054","lat":"31.203894793","category":"68","category_name":"快餐厅","address":"浦东新区张江路678号(近紫薇路)"},{"poiid":"B2094757DA65A5FA4898","title":"如家连锁酒店（上海张江园区店）","lon":"121.6164663","lat":"31.20461857","category":"216","category_name":"经济型连锁酒店","address":"上海市浦东新区张江镇建中路3弄29号(近张江路)"},{"poiid":"B2094750D568ABF84299","title":"上海天之骄子","lon":"121.62937","lat":"31.211645","category":"47","category_name":"住宅区","address":"浦东祖冲之路2305号(盛夏路口)"},{"poiid":"B2094757D06AA3FB479E","title":"感恩堂","lon":"121.62321","lat":"31.21502","category":"500","category_name":"未知分类","address":"浦东新区丹桂路700号(丹桂路青桐路)"},{"poiid":"B2094757D06EAAF84399","title":"广兰路地铁站","lon":"121.61999759","lat":"31.210776628","category":"36","category_name":"地铁站","address":"上海轨道交通二号线广兰路站"},{"poiid":"B2094757D068A7F8409D","title":"展讯豪生酒店","lon":"121.62515517","lat":"31.206159597","category":"217","category_name":"旅馆招待所","address":"上海市浦东新区祖冲之路2288弄（近申江路）"},{"poiid":"B2094757D06FA0FF409F","title":"阳光花城","lon":"121.62379","lat":"31.207195","category":"500","category_name":"未知分类","address":"上海市浦东新区紫薇路667弄"},{"poiid":"B2094757D06BABFC499E","title":"张江路紫薇路","lon":"121.61623847","lat":"31.201357285","category":"500","category_name":"未知分类","address":"上海977路张江农工商站"},{"poiid":"B2094757D06FA5F9429B","title":"汤豪仕汤馆(张江店)","lon":"121.6168","lat":"31.2023","category":"76","category_name":"上海菜","address":"浦东新区紫薇路200号(近张江路)"},{"poiid":"B2094655D36DA6FD439B","title":"广兰路","lon":"121.61996","lat":"31.21077","category":"38","category_name":"公交车站","address":""},{"poiid":"B2094757D069A1FB439B","title":"容源大酒店","lon":"121.620157963","lat":"31.2053299054","category":"72","category_name":"广东菜","address":"浦东新区广兰路1080号(紫薇路口)"},{"poiid":"B2094654DA6AA5F94892","title":"兰沁苑","lon":"121.62245","lat":"31.205448","category":"47","category_name":"住宅区","address":"紫薇路750弄"},{"poiid":"B2094655D26FA4F8449C","title":"上海拉卡菲大酒店","lon":"121.61592","lat":"31.20228","category":"76","category_name":"上海菜","address":"浦东新区浦东新区紫薇路178号(近张江镇)"},{"poiid":"B2094655D265A5F4459D","title":"格林豪泰酒店上海张江店","lon":"121.62062","lat":"31.20499","category":"216","category_name":"经济型连锁酒店","address":"浦东新区广兰路1090号"},{"poiid":"B2094757D069A5FE489C","title":"威尔士健身会所(张江店)","lon":"121.62643","lat":"31.20966","category":"221","category_name":"健身中心","address":"浦东新区祖冲之路2288号(近申江路)"},{"poiid":"B2094757D069ABFC4092","title":"张江中学足球场","lon":"121.6172","lat":"31.20647","category":"253","category_name":"校园生活","address":"浦东新区江东路54号张江体育中心"},{"poiid":"B2094757D16EA1FB4692","title":"广兰公园","lon":"121.620380975","lat":"31.2052764771","category":"196","category_name":"公园","address":"浦东新区广兰路965号(近紫薇路)"},{"poiid":"B2094654DA6AA6F5419E","title":"张江步行街","lon":"121.61502","lat":"31.20352","category":"116","category_name":"特色商业街","address":""},{"poiid":"B2094757D06BA5FB4693","title":"苏武牧羊(张江店)","lon":"121.62132","lat":"31.20456","category":"86","category_name":"火锅店","address":"浦东新区广兰路1128号(近紫薇路)"},{"poiid":"B2094757D064A5FE449E","title":"春港丽园","lon":"121.62296","lat":"31.201822","category":"260","category_name":"其他","address":"上海浦东新区益丰路55弄"},{"poiid":"B2094757D069A6FF4299","title":"Jepson Bread(紫薇路店)","lon":"121.61634","lat":"31.20256","category":"67","category_name":"甜品店","address":"上海浦东新区紫薇路199号(近张江路)"},{"poiid":"B2094757D069A4FB429B","title":"香香川菜","lon":"121.616353","lat":"31.203218","category":"71","category_name":"四川菜","address":"浦东新区张江镇紫薇路217号(近张江路)"},{"poiid":"B2094654DA6AA6F4429A","title":"广兰名苑","lon":"121.62022","lat":"31.20352","category":"47","category_name":"住宅区","address":"上海市浦东新区广兰路1166弄"},{"poiid":"B2094757D16BA6F94199","title":"钱万隆大酒店","lon":"121.624439975","lat":"31.207584531","category":"247","category_name":"餐饮美食","address":"上海广兰路778号"},{"poiid":"B2094654DA6AA5FD449B","title":"贝越流明新苑","lon":"121.62178","lat":"31.202263","category":"47","category_name":"住宅区","address":"上海市浦东新区紫薇路228号"},{"poiid":"B2094757D06AABFD4299","title":"蜀悦渔乡(高斯路店)","lon":"121.61702","lat":"31.19973","category":"71","category_name":"四川菜","address":"上海浦东新区高斯路1276-1282号(近紫薇路)  "},{"poiid":"B2094655D36DA7FB4292","title":"紫薇路申江路","lon":"121.62439","lat":"31.20672","category":"38","category_name":"公交车站","address":""},{"poiid":"B2094757D06AA2F84492","title":"舒悦大酒楼","lon":"121.61606","lat":"31.20386","category":"260","category_name":"其他","address":"浦东新区张江路665号德宏大厦(近农工商)"},{"poiid":"B2094752D76EABFE409E","title":"光头烧烤","lon":"121.625321","lat":"31.204643","category":"247","category_name":"餐饮美食","address":null},{"poiid":"B2094757D06AA1F5439E","title":"东风日产冠松专营店","lon":"121.62199556","lat":"31.198545819","category":"500","category_name":"未知分类","address":"上海浦东新区张江路1160号"},{"poiid":"B2094753D468AAFB4992","title":"贝贝树幼儿园","lon":"121.621078","lat":"31.206233","category":"57","category_name":"幼儿园","address":"上海市 紫微路600号"},{"poiid":"B2094654DA6AA5FD469E","title":"上海市张江中学(江东路)","lon":"121.61783","lat":"31.20693","category":"55","category_name":"中学","address":"浦东张江江东路54号"},{"poiid":"B2094655D264A5F9469D","title":"移动申江路基站组办公楼","lon":"121.62125","lat":"31.20387","category":"46","category_name":"楼宇","address":"广兰路1140号"},{"poiid":"B2094757D069A3FC499C","title":"玉兰香苑2期","lon":"121.628673","lat":"31.199725","category":"47","category_name":"住宅区","address":"上海浦东张江益江路511弄"},{"poiid":"B2094654DA6AA5FD4493","title":"中国移动通信张江营业厅","lon":"121.62125","lat":"31.20387","category":"151","category_name":"电讯营业厅","address":"浦东新区广兰路1140号"},{"poiid":"B2094654DA6AA6F4419C","title":"中国工商银行上海市张江支行","lon":"121.61593","lat":"31.20486","category":"150","category_name":"银行","address":"浦东新区张江高科技园区科苑路201号(碧波路郭守敬路)"},{"poiid":"B2094655D265A1FD449F","title":"喜士多便利(广兰店)","lon":"121.62085","lat":"31.20469","category":"117","category_name":"便民商店/便利店","address":"张江镇广兰路1114号"},{"poiid":"B2094757D065ABFC4899","title":"张江有轨电车1路广兰路祖冲之路站","lon":"121.618309631","lat":"31.2099641454","category":"36","category_name":"地铁站","address":"上海浦东新区广兰路祖冲之路交会口"},{"poiid":"B2094757D66CA6FA489F","title":"Howard Johnson","lon":"121.62408597","lat":"31.207421527","category":"500","category_name":"未知分类","address":"上海市浦东新区祖冲之路"},{"poiid":"B2094757D165A7FB499E","title":"移動營業廳","lon":"121.623680405","lat":"31.2042122622","category":"150","category_name":"银行","address":"上海廣蘭路、紫薇路口"},{"poiid":"B2094757D06AABFC419E","title":"湘云阁","lon":"121.61694","lat":"31.20237","category":"77","category_name":"湖南菜","address":"浦东新区紫薇路210号(近张江路口)"},{"poiid":"B2094757D068ABFC4793","title":"桃花源酒家 张江店","lon":"121.61640151289748","lat":"31.19982168307144","category":"77","category_name":"湖南菜","address":"浦东新区高斯路1252号(近紫薇路)"},{"poiid":"B2094654DA6AA5FD449C","title":"世纪华联广兰店","lon":"121.62123","lat":"31.20401","category":"118","category_name":"超级市场","address":"广兰路1136"},{"poiid":"B2094757D168ABF5459D","title":"古桐三村","lon":"121.625","lat":"31.2062","category":"252","category_name":"楼宇机构","address":"上海市浦东新区张江高斯路1296弄60号401室。"},{"poiid":"B2094654DA6AA5FD419F","title":"好德(广兰路)","lon":"121.62094","lat":"31.20327","category":"117","category_name":"便民商店/便利店","address":""},{"poiid":"B2094757D469A5F8489C","title":"湘阁里辣 高斯路店","lon":"121.6176727","lat":"31.2006433","category":"77","category_name":"湖南菜","address":"浦东新区高斯路1272-1274号(近张江路)"},{"poiid":"B2094654DA6AA5FC419C","title":"牧羊寨","lon":"121.61688","lat":"31.20285","category":"70","category_name":"综合酒楼","address":"浦东新区张江镇紫薇路222号(近张江路)"},{"poiid":"B2094655D36DA7FD449D","title":"张江路高科中路","lon":"121.62176","lat":"31.1991","category":"38","category_name":"公交车站","address":""},{"poiid":"B2094655D36DA7FB449E","title":"祖冲之路申江路","lon":"121.6266","lat":"31.21147","category":"38","category_name":"公交车站","address":""},{"poiid":"B2094757DA65A5FB469E","title":"莫泰168（上海张江店）","lon":"121.615243","lat":"31.205405","category":"216","category_name":"经济型连锁酒店","address":"上海市浦东新区张江路605号(近张江镇江东路)"},{"poiid":"B2094757D465A2F4429F","title":"龙江菜饺子馆","lon":"121.617213054","lat":"31.203894793","category":"68","category_name":"快餐厅","address":"浦东新区张江路678号(近紫薇路)"},{"poiid":"B2094757DA65A5FA4898","title":"如家连锁酒店（上海张江园区店）","lon":"121.6164663","lat":"31.20461857","category":"216","category_name":"经济型连锁酒店","address":"上海市浦东新区张江镇建中路3弄29号(近张江路)"},{"poiid":"B2094750D568ABF84299","title":"上海天之骄子","lon":"121.62937","lat":"31.211645","category":"47","category_name":"住宅区","address":"浦东祖冲之路2305号(盛夏路口)"},{"poiid":"B2094757D06AA3FB479E","title":"感恩堂","lon":"121.62321","lat":"31.21502","category":"500","category_name":"未知分类","address":"浦东新区丹桂路700号(丹桂路青桐路)"}]