[{"poiid":"B2094654DA6AA4FE4793","title":"玉兰香苑","lon":"121.63323","lat":"31.200127","category":"47","category_name":"住宅区","address":"上海市浦东新区益江路126弄、益江路286弄"},{"poiid":"B2094757DB6FA6F54198","title":"浦东国际机场T2航站楼","lon":"121.6343438046359","lat":"31.1825049223668","category":"500","category_name":"未知分类","address":"浦东国际机场T2航站楼"},{"poiid":"B2094655D36DA7FD4493","title":"张江路华夏中路","lon":"121.62987","lat":"31.18766","category":"38","category_name":"公交车站","address":""},{"poiid":"B2094750DA6DA0FB429E","title":"张江家乐福","lon":"121.638771","lat":"31.203567","category":"249","category_name":"购物服务","address":"浦东新区张江高科中路2860号(近张东路)"},{"poiid":"B2094757D069A2FC469B","title":"川杨新苑三期","lon":"121.636383","lat":"31.188532","category":"47","category_name":"住宅区","address":"上海中科路2500弄"},{"poiid":"B2094757D46BA5FE4492","title":"妈妈糖休闲咖啡馆 张东路店","lon":"121.6361072","lat":"31.2006146","category":"65","category_name":"咖啡厅","address":"浦东新区张东路1387号集电子社区中心2楼"},{"poiid":"B2094655D36DA0F54292","title":"玉兰香苑二期A块","lon":"121.63422596141","lat":"31.202460117491","category":"38","category_name":"公交车站","address":"益江路511弄"},{"poiid":"B2094757D065A5F8409E","title":"华夏公园","lon":"121.65080441079522","lat":"31.192232339010502","category":"196","category_name":"公园","address":"上海华夏东路185号"},{"poiid":"B2094757D06FAAFB449D","title":"玉兰香苑一期","lon":"121.633535","lat":"31.200113","category":"47","category_name":"住宅区","address":"上海浦东新区益江路126弄"},{"poiid":"B2094757D164AAF54999","title":"肯德基","lon":"121.63701427","lat":"31.203571737","category":"68","category_name":"快餐厅","address":"浦东新区高科中路2860号家乐福(近外环线)"},{"poiid":"B2094757D16BABF8499A","title":"张衡公园","lon":"121.63056797","lat":"31.195238242","category":"196","category_name":"公园","address":"浦东新区张衡路2380号(近益江路)"},{"poiid":"B2094757D06BA5FD4499","title":"永和大王(张江家乐福店)","lon":"121.63938","lat":"31.20406","category":"68","category_name":"快餐厅","address":"浦东新区高科中路2860号家乐福2楼"},{"poiid":"B2094655D265ABF9499B","title":"保利金爵公寓(一期)","lon":"121.651128","lat":"31.206772","category":"47","category_name":"住宅区","address":"浦东新区创新西路75弄131号B座"},{"poiid":"B2094757D16DA6FC459E","title":"S1高速公路","lon":"121.646461375","lat":"31.1899818195","category":"500","category_name":"未知分类","address":"上海S1高速公路"},{"poiid":"B2094757D064A5FE489F","title":"浦东新区看守所","lon":"121.639726975","lat":"31.1923481748","category":"500","category_name":"未知分类","address":"上海华益路351号"},{"poiid":"B2094655D36DA0F54293","title":"玉兰香苑二期C块","lon":"121.63363854614","lat":"31.203943272246","category":"38","category_name":"公交车站","address":"益江路396弄"},{"poiid":"B2094757D064A5F8489C","title":"阿玛达量贩式歌城","lon":"121.63179397","lat":"31.199798349","category":"170","category_name":"KTV","address":"浦东新区盛夏路1053号(近休闲广场)"},{"poiid":"B2094757D069A6FB4193","title":"玉兰香苑三期","lon":"121.63968528917","lat":"31.20365227148","category":"500","category_name":"未知分类","address":"上海浦东新区益江路玉兰香苑三期"},{"poiid":"B2094655D36DA7FD429B","title":"张东路高科中路","lon":"121.63504","lat":"31.20261","category":"38","category_name":"公交车站","address":""},{"poiid":"B2094757D069A3FC499C","title":"玉兰香苑2期","lon":"121.628673","lat":"31.199725","category":"47","category_name":"住宅区","address":"上海浦东张江益江路511弄"},{"poiid":"B2094757D06BA2FE469F","title":"釜膳阁韩式无限量自助烤肉","lon":"121.63325","lat":"31.19981","category":"268","category_name":"自助","address":"浦东新区益江路135弄61号(近玉兰香苑)"},{"poiid":"B2094757D06BA1F9419D","title":"川杨新苑","lon":"121.634","lat":"31.1944","category":"47","category_name":"住宅区","address":"上海市浦东新区中科路2195弄,2166弄,2566弄,2500弄,顺和路60弄,126弄,236弄"},{"poiid":"B2094750D768A4FA439C","title":"老北桥过桥米线(高科中路店)","lon":"121.638","lat":"31.2038","category":"68","category_name":"快餐厅","address":"浦东新区高科中路2860号家乐福1楼"},{"poiid":"B2094757D06BA7F4409C","title":"益江路盛夏路","lon":"121.631069975","lat":"31.1993963396","category":"500","category_name":"未知分类","address":"上海益江路盛夏路615终点站"},{"poiid":"B2094655D36DA7F8409B","title":"中科路孙环路","lon":"121.636","lat":"31.18978","category":"38","category_name":"公交车站","address":""},{"poiid":"B2094654DA6AAAFD429D","title":"唐人苑","lon":"121.64923","lat":"31.208265","category":"47","category_name":"住宅区","address":"唐镇路127弄"},{"poiid":"B2094757D469A7F9499D","title":"重庆鸡公煲 盛夏路店","lon":"121.630114054","lat":"31.198315793","category":"71","category_name":"四川菜","address":"浦东新区盛夏路(盛夏路益江路)"},{"poiid":"B2094655D36DA7FD429A","title":"张东路","lon":"121.63561","lat":"31.20149","category":"38","category_name":"公交车站","address":""},{"poiid":"B2094757D568A6F8409E","title":"傣妹(张江店)","lon":"121.638185","lat":"31.205402","category":"86","category_name":"火锅店","address":"浦东新区张江高科技园区高科中路2860号家乐福1楼(近玉兰香苑)"},{"poiid":"B2094757D66BABF9459D","title":"蜀膳传火锅传奇 盛夏路店","lon":"121.632376","lat":"31.199197","category":"86","category_name":"火锅店","address":"浦东新区益江路135弄7号玉兰香苑休闲广场附近(近张东路)"},{"poiid":"B2094757D06BA3FD409E","title":"瀚盛家园","lon":"121.65532","lat":"31.200581","category":"47","category_name":"住宅区","address":"上海浦东新区创新西路199弄"},{"poiid":"B2094757D16DA2FE4299","title":"瘦子家","lon":"121.63793297","lat":"31.198756324","category":"500","category_name":"未知分类","address":"上海市浦东新区张东路2281弄"},{"poiid":"B2094757D66CABFB459E","title":"雲婷’s ヾ(＠⌒ー⌒＠)ノ","lon":"121.63798697","lat":"31.198968329","category":"500","category_name":"未知分类","address":"上海市浦東新區張東路2281弄"},{"poiid":"B2094757D169ABFD479B","title":"雪乡人家(益江路店)","lon":"121.6328","lat":"31.19966","category":"82","category_name":"东北菜","address":"浦东新区益江路125号(近盛夏路)"},{"poiid":"B209475CD26FA6FA439F","title":"浦东国际机场二号航站楼","lon":"121.637092","lat":"31.199182","category":"500","category_name":"未知分类","address":"上海市 上海海市浦东国际机场"},{"poiid":"B2094752D165A5F84098","title":"金逸影城","lon":"121.636718","lat":"31.201854","category":"178","category_name":"电影院","address":"张江高科"},{"poiid":"B2094757D16EA3FB479C","title":"玉兰香苑四期","lon":"121.64327000318","lat":"31.206748315762","category":"500","category_name":"未知分类","address":"上海市浦东新区张江镇张东路"},{"poiid":"B2094757D064A2F94098","title":"蜀洲渔府","lon":"121.629984054","lat":"31.199281793","category":"71","category_name":"四川菜","address":"浦东新区盛夏路146号(盛夏路益江路)"},{"poiid":"B2094753D264A4FB419C","title":"川杨新苑六期","lon":"121.641098","lat":"31.192443","category":"47","category_name":"住宅区","address":"上海市 中科路2635弄"},{"poiid":"B2094757D16BA4FE4393","title":"苏州精制面食","lon":"121.63354347","lat":"31.200915275","category":"68","category_name":"快餐厅","address":"浦东新区盛夏路1065号(近玉兰香苑休闲广场)"},{"poiid":"B2094654DA6AA4FE479F","title":"益丰工业小区","lon":"121.63539","lat":"31.196743","category":"47","category_name":"住宅区","address":"益华路1号"},{"poiid":"B2094750DB68ABFE409D","title":"盛夏路","lon":"121.636428","lat":"31.196567","category":"500","category_name":"未知分类","address":null},{"poiid":"B2094655D36CA1FC469B","title":"盛夏路益江路","lon":"121.63148","lat":"31.19999","category":"38","category_name":"公交车站","address":""},{"poiid":"B2094757D064A0F5439B","title":"独苗home","lon":"121.63736517","lat":"31.195676652","category":"500","category_name":"未知分类","address":null},{"poiid":"B2094757D76DA2F5409D","title":"哈贝斯酒吧","lon":"121.6332556","lat":"31.1998108","category":"260","category_name":"其他","address":"浦东新区益江路135弄23号玉兰香苑休闲广场内(高科中路盛夏路)"},{"poiid":"B2094757D06AA6FE4192","title":"机场四线","lon":"121.64132897","lat":"31.199811899","category":"260","category_name":"其他","address":"上海浦东国际机场—五角场"},{"poiid":"B2094757D16CABFA459A","title":"浦三路12弄26号","lon":"121.63740197","lat":"31.19560475","category":"500","category_name":"未知分类","address":"上海临沂二村"},{"poiid":"B2094757D66CA6F84398","title":"溢香坊","lon":"121.63205","lat":"31.19876","category":"71","category_name":"四川菜","address":"浦东新区益江路135弄88号(近盛夏路)"},{"poiid":"B2094757DA65A1FD4393","title":"正大广场","lon":"121.631757","lat":"31.200753","category":"249","category_name":"购物服务","address":"陆家嘴"},{"poiid":"B2094654DA6BA2F4459F","title":"益丰新村","lon":"121.6306","lat":"31.198364","category":"47","category_name":"住宅区","address":"华益路80号"},{"poiid":"B2094654DA6AA4FE4793","title":"玉兰香苑","lon":"121.63323","lat":"31.200127","category":"47","category_name":"住宅区","address":"上海市浦东新区益江路126弄、益江路286弄"},{"poiid":"B2094757DB6FA6F54198","title":"浦东国际机场T2航站楼","lon":"121.6343438046359","lat":"31.1825049223668","category":"500","category_name":"未知分类","address":"浦东国际机场T2航站楼"},{"poiid":"B2094655D36DA7FD4493","title":"张江路华夏中路","lon":"121.62987","lat":"31.18766","category":"38","category_name":"公交车站","address":""},{"poiid":"B2094750DA6DA0FB429E","title":"张江家乐福","lon":"121.638771","lat":"31.203567","category":"249","category_name":"购物服务","address":"浦东新区张江高科中路2860号(近张东路)"},{"poiid":"B2094757D069A2FC469B","title":"川杨新苑三期","lon":"121.636383","lat":"31.188532","category":"47","category_name":"住宅区","address":"上海中科路2500弄"},{"poiid":"B2094757D46BA5FE4492","title":"妈妈糖休闲咖啡馆 张东路店","lon":"121.6361072","lat":"31.2006146","category":"65","category_name":"咖啡厅","address":"浦东新区张东路1387号集电子社区中心2楼"},{"poiid":"B2094655D36DA0F54292","title":"玉兰香苑二期A块","lon":"121.63422596141","lat":"31.202460117491","category":"38","category_name":"公交车站","address":"益江路511弄"},{"poiid":"B2094757D065A5F8409E","title":"华夏公园","lon":"121.65080441079522","lat":"31.192232339010502","category":"196","category_name":"公园","address":"上海华夏东路185号"},{"poiid":"B2094757D06FAAFB449D","title":"玉兰香苑一期","lon":"121.633535","lat":"31.200113","category":"47","category_name":"住宅区","address":"上海浦东新区益江路126弄"},{"poiid":"B2094757D164AAF54999","title":"肯德基","lon":"121.63701427","lat":"31.203571737","category":"68","category_name":"快餐厅","address":"浦东新区高科中路2860号家乐福(近外环线)"},{"poiid":"B2094757D16BABF8499A","title":"张衡公园","lon":"121.63056797","lat":"31.195238242","category":"196","category_name":"公园","address":"浦东新区张衡路2380号(近益江路)"},{"poiid":"B2094757D06BA5FD4499","title":"永和大王(张江家乐福店)","lon":"121.63938","lat":"31.20406","category":"68","category_name":"快餐厅","address":"浦东新区高科中路2860号家乐福2楼"},{"poiid":"B2094655D265ABF9499B","title":"保利金爵公寓(一期)","lon":"121.651128","lat":"31.206772","category":"47","category_name":"住宅区","address":"浦东新区创新西路75弄131号B座"},{"poiid":"B2094757D16DA6FC459E","title":"S1高速公路","lon":"121.646461375","lat":"31.1899818195","category":"500","category_name":"未知分类","address":"上海S1高速公路"},{"poiid":"B2094757D064A5FE489F","title":"浦东新区看守所","lon":"121.639726975","lat":"31.1923481748","category":"500","category_name":"未知分类","address":"上海华益路351号"},{"poiid":"B2094655D36DA0F54293","title":"玉兰香苑二期C块","lon":"121.63363854614","lat":"31.203943272246","category":"38","category_name":"公交车站","address":"益江路396弄"},{"poiid":"B2094757D064A5F8489C","title":"阿玛达量贩式歌城","lon":"121.63179397","lat":"31.199798349","category":"170","category_name":"KTV","address":"浦东新区盛夏路1053号(近休闲广场)"},{"poiid":"B2094757D069A6FB4193","title":"玉兰香苑三期","lon":"121.63968528917","lat":"31.20365227148","category":"500","category_name":"未知分类","address":"上海浦东新区益江路玉兰香苑三期"},{"poiid":"B2094655D36DA7FD429B","title":"张东路高科中路","lon":"121.63504","lat":"31.20261","category":"38","category_name":"公交车站","address":""},{"poiid":"B2094757D069A3FC499C","title":"玉兰香苑2期","lon":"121.628673","lat":"31.199725","category":"47","category_name":"住宅区","address":"上海浦东张江益江路511弄"},{"poiid":"B2094757D06BA2FE469F","title":"釜膳阁韩式无限量自助烤肉","lon":"121.63325","lat":"31.19981","category":"268","category_name":"自助","address":"浦东新区益江路135弄61号(近玉兰香苑)"},{"poiid":"B2094757D06BA1F9419D","title":"川杨新苑","lon":"121.634","lat":"31.1944","category":"47","category_name":"住宅区","address":"上海市浦东新区中科路2195弄,2166弄,2566弄,2500弄,顺和路60弄,126弄,236弄"},{"poiid":"B2094750D768A4FA439C","title":"老北桥过桥米线(高科中路店)","lon":"121.638","lat":"31.2038","category":"68","category_name":"快餐厅","address":"浦东新区高科中路2860号家乐福1楼"},{"poiid":"B2094757D06BA7F4409C","title":"益江路盛夏路","lon":"121.631069975","lat":"31.1993963396","category":"500","category_name":"未知分类","address":"上海益江路盛夏路615终点站"},{"poiid":"B2094655D36DA7F8409B","title":"中科路孙环路","lon":"121.636","lat":"31.18978","category":"38","category_name":"公交车站","address":""},{"poiid":"B2094654DA6AAAFD429D","title":"唐人苑","lon":"121.64923","lat":"31.208265","category":"47","category_name":"住宅区","address":"唐镇路127弄"},{"poiid":"B2094757D469A7F9499D","title":"重庆鸡公煲 盛夏路店","lon":"121.630114054","lat":"31.198315793","category":"71","category_name":"四川菜","address":"浦东新区盛夏路(盛夏路益江路)"},{"poiid":"B2094655D36DA7FD429A","title":"张东路","lon":"121.63561","lat":"31.20149","category":"38","category_name":"公交车站","address":""},{"poiid":"B2094757D568A6F8409E","title":"傣妹(张江店)","lon":"121.638185","lat":"31.205402","category":"86","category_name":"火锅店","address":"浦东新区张江高科技园区高科中路2860号家乐福1楼(近玉兰香苑)"},{"poiid":"B2094757D66BABF9459D","title":"蜀膳传火锅传奇 盛夏路店","lon":"121.632376","lat":"31.199197","category":"86","category_name":"火锅店","address":"浦东新区益江路135弄7号玉兰香苑休闲广场附近(近张东路)"},{"poiid":"B2094757D06BA3FD409E","title":"瀚盛家园","lon":"121.65532","lat":"31.200581","category":"47","category_name":"住宅区","address":"上海浦东新区创新西路199弄"},{"poiid":"B2094757D16DA2FE4299","title":"瘦子家","lon":"121.63793297","lat":"31.198756324","category":"500","category_name":"未知分类","address":"上海市浦东新区张东路2281弄"},{"poiid":"B2094757D66CABFB459E","title":"雲婷’s ヾ(＠⌒ー⌒＠)ノ","lon":"121.63798697","lat":"31.198968329","category":"500","category_name":"未知分类","address":"上海市浦東新區張東路2281弄"},{"poiid":"B2094757D169ABFD479B","title":"雪乡人家(益江路店)","lon":"121.6328","lat":"31.19966","category":"82","category_name":"东北菜","address":"浦东新区益江路125号(近盛夏路)"},{"poiid":"B209475CD26FA6FA439F","title":"浦东国际机场二号航站楼","lon":"121.637092","lat":"31.199182","category":"500","category_name":"未知分类","address":"上海市 上海海市浦东国际机场"},{"poiid":"B2094752D165A5F84098","title":"金逸影城","lon":"121.636718","lat":"31.201854","category":"178","category_name":"电影院","address":"张江高科"},{"poiid":"B2094757D16EA3FB479C","title":"玉兰香苑四期","lon":"121.64327000318","lat":"31.206748315762","category":"500","category_name":"未知分类","address":"上海市浦东新区张江镇张东路"},{"poiid":"B2094757D064A2F94098","title":"蜀洲渔府","lon":"121.629984054","lat":"31.199281793","category":"71","category_name":"四川菜","address":"浦东新区盛夏路146号(盛夏路益江路)"},{"poiid":"B2094753D264A4FB419C","title":"川杨新苑六期","lon":"121.641098","lat":"31.192443","category":"47","category_name":"住宅区","address":"上海市 中科路2635弄"},{"poiid":"B2094757D16BA4FE4393","title":"苏州精制面食","lon":"121.63354347","lat":"31.200915275","category":"68","category_name":"快餐厅","address":"浦东新区盛夏路1065号(近玉兰香苑休闲广场)"},{"poiid":"B2094654DA6AA4FE479F","title":"益丰工业小区","lon":"121.63539","lat":"31.196743","category":"47","category_name":"住宅区","address":"益华路1号"},{"poiid":"B2094750DB68ABFE409D","title":"盛夏路","lon":"121.636428","lat":"31.196567","category":"500","category_name":"未知分类","address":null},{"poiid":"B2094655D36CA1FC469B","title":"盛夏路益江路","lon":"121.63148","lat":"31.19999","category":"38","category_name":"公交车站","address":""},{"poiid":"B2094757D064A0F5439B","title":"独苗home","lon":"121.63736517","lat":"31.195676652","category":"500","category_name":"未知分类","address":null},{"poiid":"B2094757D76DA2F5409D","title":"哈贝斯酒吧","lon":"121.6332556","lat":"31.1998108","category":"260","category_name":"其他","address":"浦东新区益江路135弄23号玉兰香苑休闲广场内(高科中路盛夏路)"},{"poiid":"B2094757D06AA6FE4192","title":"机场四线","lon":"121.64132897","lat":"31.199811899","category":"260","category_name":"其他","address":"上海浦东国际机场—五角场"},{"poiid":"B2094757D16CABFA459A","title":"浦三路12弄26号","lon":"121.63740197","lat":"31.19560475","category":"500","category_name":"未知分类","address":"上海临沂二村"},{"poiid":"B2094757D66CA6F84398","title":"溢香坊","lon":"121.63205","lat":"31.19876","category":"71","category_name":"四川菜","address":"浦东新区益江路135弄88号(近盛夏路)"},{"poiid":"B2094757DA65A1FD4393","title":"正大广场","lon":"121.631757","lat":"31.200753","category":"249","category_name":"购物服务","address":"陆家嘴"},{"poiid":"B2094654DA6BA2F4459F","title":"益丰新村","lon":"121.6306","lat":"31.198364","category":"47","category_name":"住宅区","address":"华益路80号"},{"poiid":"B2094654DA6AA4FE4793","title":"玉兰香苑","lon":"121.63323","lat":"31.200127","category":"47","category_name":"住宅区","address":"上海市浦东新区益江路126弄、益江路286弄"},{"poiid":"B2094757DB6FA6F54198","title":"浦东国际机场T2航站楼","lon":"121.6343438046359","lat":"31.1825049223668","category":"500","category_name":"未知分类","address":"浦东国际机场T2航站楼"},{"poiid":"B2094655D36DA7FD4493","title":"张江路华夏中路","lon":"121.62987","lat":"31.18766","category":"38","category_name":"公交车站","address":""},{"poiid":"B2094750DA6DA0FB429E","title":"张江家乐福","lon":"121.638771","lat":"31.203567","category":"249","category_name":"购物服务","address":"浦东新区张江高科中路2860号(近张东路)"},{"poiid":"B2094757D069A2FC469B","title":"川杨新苑三期","lon":"121.636383","lat":"31.188532","category":"47","category_name":"住宅区","address":"上海中科路2500弄"},{"poiid":"B2094757D46BA5FE4492","title":"妈妈糖休闲咖啡馆 张东路店","lon":"121.6361072","lat":"31.2006146","category":"65","category_name":"咖啡厅","address":"浦东新区张东路1387号集电子社区中心2楼"},{"poiid":"B2094655D36DA0F54292","title":"玉兰香苑二期A块","lon":"121.63422596141","lat":"31.202460117491","category":"38","category_name":"公交车站","address":"益江路511弄"},{"poiid":"B2094757D065A5F8409E","title":"华夏公园","lon":"121.65080441079522","lat":"31.192232339010502","category":"196","category_name":"公园","address":"上海华夏东路185号"},{"poiid":"B2094757D06FAAFB449D","title":"玉兰香苑一期","lon":"121.633535","lat":"31.200113","category":"47","category_name":"住宅区","address":"上海浦东新区益江路126弄"},{"poiid":"B2094757D164AAF54999","title":"肯德基","lon":"121.63701427","lat":"31.203571737","category":"68","category_name":"快餐厅","address":"浦东新区高科中路2860号家乐福(近外环线)"},{"poiid":"B2094757D16BABF8499A","title":"张衡公园","lon":"121.63056797","lat":"31.195238242","category":"196","category_name":"公园","address":"浦东新区张衡路2380号(近益江路)"},{"poiid":"B2094757D06BA5FD4499","title":"永和大王(张江家乐福店)","lon":"121.63938","lat":"31.20406","category":"68","category_name":"快餐厅","address":"浦东新区高科中路2860号家乐福2楼"},{"poiid":"B2094655D265ABF9499B","title":"保利金爵公寓(一期)","lon":"121.651128","lat":"31.206772","category":"47","category_name":"住宅区","address":"浦东新区创新西路75弄131号B座"},{"poiid":"B2094757D16DA6FC459E","title":"S1高速公路","lon":"121.646461375","lat":"31.1899818195","category":"500","category_name":"未知分类","address":"上海S1高速公路"},{"poiid":"B2094757D064A5FE489F","title":"浦东新区看守所","lon":"121.639726975","lat":"31.1923481748","category":"500","category_name":"未知分类","address":"上海华益路351号"},{"poiid":"B2094655D36DA0F54293","title":"玉兰香苑二期C块","lon":"121.63363854614","lat":"31.203943272246","category":"38","category_name":"公交车站","address":"益江路396弄"},{"poiid":"B2094757D064A5F8489C","title":"阿玛达量贩式歌城","lon":"121.63179397","lat":"31.199798349","category":"170","category_name":"KTV","address":"浦东新区盛夏路1053号(近休闲广场)"},{"poiid":"B2094757D069A6FB4193","title":"玉兰香苑三期","lon":"121.63968528917","lat":"31.20365227148","category":"500","category_name":"未知分类","address":"上海浦东新区益江路玉兰香苑三期"},{"poiid":"B2094655D36DA7FD429B","title":"张东路高科中路","lon":"121.63504","lat":"31.20261","category":"38","category_name":"公交车站","address":""},{"poiid":"B2094757D069A3FC499C","title":"玉兰香苑2期","lon":"121.628673","lat":"31.199725","category":"47","category_name":"住宅区","address":"上海浦东张江益江路511弄"},{"poiid":"B2094757D06BA2FE469F","title":"釜膳阁韩式无限量自助烤肉","lon":"121.63325","lat":"31.19981","category":"268","category_name":"自助","address":"浦东新区益江路135弄61号(近玉兰香苑)"},{"poiid":"B2094757D06BA1F9419D","title":"川杨新苑","lon":"121.634","lat":"31.1944","category":"47","category_name":"住宅区","address":"上海市浦东新区中科路2195弄,2166弄,2566弄,2500弄,顺和路60弄,126弄,236弄"},{"poiid":"B2094750D768A4FA439C","title":"老北桥过桥米线(高科中路店)","lon":"121.638","lat":"31.2038","category":"68","category_name":"快餐厅","address":"浦东新区高科中路2860号家乐福1楼"},{"poiid":"B2094757D06BA7F4409C","title":"益江路盛夏路","lon":"121.631069975","lat":"31.1993963396","category":"500","category_name":"未知分类","address":"上海益江路盛夏路615终点站"},{"poiid":"B2094655D36DA7F8409B","title":"中科路孙环路","lon":"121.636","lat":"31.18978","category":"38","category_name":"公交车站","address":""},{"poiid":"B2094654DA6AAAFD429D","title":"唐人苑","lon":"121.64923","lat":"31.208265","category":"47","category_name":"住宅区","address":"唐镇路127弄"},{"poiid":"B2094757D469A7F9499D","title":"重庆鸡公煲 盛夏路店","lon":"121.630114054","lat":"31.198315793","category":"71","category_name":"四川菜","address":"浦东新区盛夏路(盛夏路益江路)"},{"poiid":"B2094655D36DA7FD429A","title":"张东路","lon":"121.63561","lat":"31.20149","category":"38","category_name":"公交车站","address":""},{"poiid":"B2094757D568A6F8409E","title":"傣妹(张江店)","lon":"121.638185","lat":"31.205402","category":"86","category_name":"火锅店","address":"浦东新区张江高科技园区高科中路2860号家乐福1楼(近玉兰香苑)"},{"poiid":"B2094757D66BABF9459D","title":"蜀膳传火锅传奇 盛夏路店","lon":"121.632376","lat":"31.199197","category":"86","category_name":"火锅店","address":"浦东新区益江路135弄7号玉兰香苑休闲广场附近(近张东路)"},{"poiid":"B2094757D06BA3FD409E","title":"瀚盛家园","lon":"121.65532","lat":"31.200581","category":"47","category_name":"住宅区","address":"上海浦东新区创新西路199弄"},{"poiid":"B2094757D16DA2FE4299","title":"瘦子家","lon":"121.63793297","lat":"31.198756324","category":"500","category_name":"未知分类","address":"上海市浦东新区张东路2281弄"},{"poiid":"B2094757D66CABFB459E","title":"雲婷’s ヾ(＠⌒ー⌒＠)ノ","lon":"121.63798697","lat":"31.198968329","category":"500","category_name":"未知分类","address":"上海市浦東新區張東路2281弄"},{"poiid":"B2094757D169ABFD479B","title":"雪乡人家(益江路店)","lon":"121.6328","lat":"31.19966","category":"82","category_name":"东北菜","address":"浦东新区益江路125号(近盛夏路)"},{"poiid":"B209475CD26FA6FA439F","title":"浦东国际机场二号航站楼","lon":"121.637092","lat":"31.199182","category":"500","category_name":"未知分类","address":"上海市 上海海市浦东国际机场"},{"poiid":"B2094752D165A5F84098","title":"金逸影城","lon":"121.636718","lat":"31.201854","category":"178","category_name":"电影院","address":"张江高科"},{"poiid":"B2094757D16EA3FB479C","title":"玉兰香苑四期","lon":"121.64327000318","lat":"31.206748315762","category":"500","category_name":"未知分类","address":"上海市浦东新区张江镇张东路"},{"poiid":"B2094757D064A2F94098","title":"蜀洲渔府","lon":"121.629984054","lat":"31.199281793","category":"71","category_name":"四川菜","address":"浦东新区盛夏路146号(盛夏路益江路)"},{"poiid":"B2094753D264A4FB419C","title":"川杨新苑六期","lon":"121.641098","lat":"31.192443","category":"47","category_name":"住宅区","address":"上海市 中科路2635弄"},{"poiid":"B2094757D16BA4FE4393","title":"苏州精制面食","lon":"121.63354347","lat":"31.200915275","category":"68","category_name":"快餐厅","address":"浦东新区盛夏路1065号(近玉兰香苑休闲广场)"},{"poiid":"B2094654DA6AA4FE479F","title":"益丰工业小区","lon":"121.63539","lat":"31.196743","category":"47","category_name":"住宅区","address":"益华路1号"},{"poiid":"B2094750DB68ABFE409D","title":"盛夏路","lon":"121.636428","lat":"31.196567","category":"500","category_name":"未知分类","address":null},{"poiid":"B2094655D36CA1FC469B","title":"盛夏路益江路","lon":"121.63148","lat":"31.19999","category":"38","category_name":"公交车站","address":""},{"poiid":"B2094757D064A0F5439B","title":"独苗home","lon":"121.63736517","lat":"31.195676652","category":"500","category_name":"未知分类","address":null},{"poiid":"B2094757D76DA2F5409D","title":"哈贝斯酒吧","lon":"121.6332556","lat":"31.1998108","category":"260","category_name":"其他","address":"浦东新区益江路135弄23号玉兰香苑休闲广场内(高科中路盛夏路)"},{"poiid":"B2094757D06AA6FE4192","title":"机场四线","lon":"121.64132897","lat":"31.199811899","category":"260","category_name":"其他","address":"上海浦东国际机场—五角场"},{"poiid":"B2094757D16CABFA459A","title":"浦三路12弄26号","lon":"121.63740197","lat":"31.19560475","category":"500","category_name":"未知分类","address":"上海临沂二村"},{"poiid":"B2094757D66CA6F84398","title":"溢香坊","lon":"121.63205","lat":"31.19876","category":"71","category_name":"四川菜","address":"浦东新区益江路135弄88号(近盛夏路)"},{"poiid":"B2094757DA65A1FD4393","title":"正大广场","lon":"121.631757","lat":"31.200753","category":"249","category_name":"购物服务","address":"陆家嘴"},{"poiid":"B2094654DA6BA2F4459F","title":"益丰新村","lon":"121.6306","lat":"31.198364","category":"47","category_name":"住宅区","address":"华益路80号"},{"poiid":"B2094654DA6AA4FE4793","title":"玉兰香苑","lon":"121.63323","lat":"31.200127","category":"47","category_name":"住宅区","address":"上海市浦东新区益江路126弄、益江路286弄"},{"poiid":"B2094757DB6FA6F54198","title":"浦东国际机场T2航站楼","lon":"121.6343438046359","lat":"31.1825049223668","category":"500","category_name":"未知分类","address":"浦东国际机场T2航站楼"},{"poiid":"B2094655D36DA7FD4493","title":"张江路华夏中路","lon":"121.62987","lat":"31.18766","category":"38","category_name":"公交车站","address":""},{"poiid":"B2094750DA6DA0FB429E","title":"张江家乐福","lon":"121.638771","lat":"31.203567","category":"249","category_name":"购物服务","address":"浦东新区张江高科中路2860号(近张东路)"},{"poiid":"B2094757D069A2FC469B","title":"川杨新苑三期","lon":"121.636383","lat":"31.188532","category":"47","category_name":"住宅区","address":"上海中科路2500弄"},{"poiid":"B2094757D46BA5FE4492","title":"妈妈糖休闲咖啡馆 张东路店","lon":"121.6361072","lat":"31.2006146","category":"65","category_name":"咖啡厅","address":"浦东新区张东路1387号集电子社区中心2楼"},{"poiid":"B2094655D36DA0F54292","title":"玉兰香苑二期A块","lon":"121.63422596141","lat":"31.202460117491","category":"38","category_name":"公交车站","address":"益江路511弄"},{"poiid":"B2094757D065A5F8409E","title":"华夏公园","lon":"121.65080441079522","lat":"31.192232339010502","category":"196","category_name":"公园","address":"上海华夏东路185号"},{"poiid":"B2094757D06FAAFB449D","title":"玉兰香苑一期","lon":"121.633535","lat":"31.200113","category":"47","category_name":"住宅区","address":"上海浦东新区益江路126弄"},{"poiid":"B2094757D164AAF54999","title":"肯德基","lon":"121.63701427","lat":"31.203571737","category":"68","category_name":"快餐厅","address":"浦东新区高科中路2860号家乐福(近外环线)"},{"poiid":"B2094757D16BABF8499A","title":"张衡公园","lon":"121.63056797","lat":"31.195238242","category":"196","category_name":"公园","address":"浦东新区张衡路2380号(近益江路)"},{"poiid":"B2094757D06BA5FD4499","title":"永和大王(张江家乐福店)","lon":"121.63938","lat":"31.20406","category":"68","category_name":"快餐厅","address":"浦东新区高科中路2860号家乐福2楼"},{"poiid":"B2094655D265ABF9499B","title":"保利金爵公寓(一期)","lon":"121.651128","lat":"31.206772","category":"47","category_name":"住宅区","address":"浦东新区创新西路75弄131号B座"},{"poiid":"B2094757D16DA6FC459E","title":"S1高速公路","lon":"121.646461375","lat":"31.1899818195","category":"500","category_name":"未知分类","address":"上海S1高速公路"},{"poiid":"B2094757D064A5FE489F","title":"浦东新区看守所","lon":"121.639726975","lat":"31.1923481748","category":"500","category_name":"未知分类","address":"上海华益路351号"},{"poiid":"B2094655D36DA0F54293","title":"玉兰香苑二期C块","lon":"121.63363854614","lat":"31.203943272246","category":"38","category_name":"公交车站","address":"益江路396弄"},{"poiid":"B2094757D064A5F8489C","title":"阿玛达量贩式歌城","lon":"121.63179397","lat":"31.199798349","category":"170","category_name":"KTV","address":"浦东新区盛夏路1053号(近休闲广场)"},{"poiid":"B2094757D069A6FB4193","title":"玉兰香苑三期","lon":"121.63968528917","lat":"31.20365227148","category":"500","category_name":"未知分类","address":"上海浦东新区益江路玉兰香苑三期"},{"poiid":"B2094655D36DA7FD429B","title":"张东路高科中路","lon":"121.63504","lat":"31.20261","category":"38","category_name":"公交车站","address":""},{"poiid":"B2094757D069A3FC499C","title":"玉兰香苑2期","lon":"121.628673","lat":"31.199725","category":"47","category_name":"住宅区","address":"上海浦东张江益江路511弄"},{"poiid":"B2094757D06BA2FE469F","title":"釜膳阁韩式无限量自助烤肉","lon":"121.63325","lat":"31.19981","category":"268","category_name":"自助","address":"浦东新区益江路135弄61号(近玉兰香苑)"},{"poiid":"B2094757D06BA1F9419D","title":"川杨新苑","lon":"121.634","lat":"31.1944","category":"47","category_name":"住宅区","address":"上海市浦东新区中科路2195弄,2166弄,2566弄,2500弄,顺和路60弄,126弄,236弄"},{"poiid":"B2094750D768A4FA439C","title":"老北桥过桥米线(高科中路店)","lon":"121.638","lat":"31.2038","category":"68","category_name":"快餐厅","address":"浦东新区高科中路2860号家乐福1楼"},{"poiid":"B2094757D06BA7F4409C","title":"益江路盛夏路","lon":"121.631069975","lat":"31.1993963396","category":"500","category_name":"未知分类","address":"上海益江路盛夏路615终点站"},{"poiid":"B2094655D36DA7F8409B","title":"中科路孙环路","lon":"121.636","lat":"31.18978","category":"38","category_name":"公交车站","address":""},{"poiid":"B2094654DA6AAAFD429D","title":"唐人苑","lon":"121.64923","lat":"31.208265","category":"47","category_name":"住宅区","address":"唐镇路127弄"},{"poiid":"B2094757D469A7F9499D","title":"重庆鸡公煲 盛夏路店","lon":"121.630114054","lat":"31.198315793","category":"71","category_name":"四川菜","address":"浦东新区盛夏路(盛夏路益江路)"},{"poiid":"B2094655D36DA7FD429A","title":"张东路","lon":"121.63561","lat":"31.20149","category":"38","category_name":"公交车站","address":""},{"poiid":"B2094757D568A6F8409E","title":"傣妹(张江店)","lon":"121.638185","lat":"31.205402","category":"86","category_name":"火锅店","address":"浦东新区张江高科技园区高科中路2860号家乐福1楼(近玉兰香苑)"},{"poiid":"B2094757D66BABF9459D","title":"蜀膳传火锅传奇 盛夏路店","lon":"121.632376","lat":"31.199197","category":"86","category_name":"火锅店","address":"浦东新区益江路135弄7号玉兰香苑休闲广场附近(近张东路)"},{"poiid":"B2094757D06BA3FD409E","title":"瀚盛家园","lon":"121.65532","lat":"31.200581","category":"47","category_name":"住宅区","address":"上海浦东新区创新西路199弄"},{"poiid":"B2094757D16DA2FE4299","title":"瘦子家","lon":"121.63793297","lat":"31.198756324","category":"500","category_name":"未知分类","address":"上海市浦东新区张东路2281弄"},{"poiid":"B2094757D66CABFB459E","title":"雲婷’s ヾ(＠⌒ー⌒＠)ノ","lon":"121.63798697","lat":"31.198968329","category":"500","category_name":"未知分类","address":"上海市浦東新區張東路2281弄"},{"poiid":"B2094757D169ABFD479B","title":"雪乡人家(益江路店)","lon":"121.6328","lat":"31.19966","category":"82","category_name":"东北菜","address":"浦东新区益江路125号(近盛夏路)"},{"poiid":"B209475CD26FA6FA439F","title":"浦东国际机场二号航站楼","lon":"121.637092","lat":"31.199182","category":"500","category_name":"未知分类","address":"上海市 上海海市浦东国际机场"},{"poiid":"B2094752D165A5F84098","title":"金逸影城","lon":"121.636718","lat":"31.201854","category":"178","category_name":"电影院","address":"张江高科"},{"poiid":"B2094757D16EA3FB479C","title":"玉兰香苑四期","lon":"121.64327000318","lat":"31.206748315762","category":"500","category_name":"未知分类","address":"上海市浦东新区张江镇张东路"},{"poiid":"B2094757D064A2F94098","title":"蜀洲渔府","lon":"121.629984054","lat":"31.199281793","category":"71","category_name":"四川菜","address":"浦东新区盛夏路146号(盛夏路益江路)"},{"poiid":"B2094753D264A4FB419C","title":"川杨新苑六期","lon":"121.641098","lat":"31.192443","category":"47","category_name":"住宅区","address":"上海市 中科路2635弄"},{"poiid":"B2094757D16BA4FE4393","title":"苏州精制面食","lon":"121.63354347","lat":"31.200915275","category":"68","category_name":"快餐厅","address":"浦东新区盛夏路1065号(近玉兰香苑休闲广场)"},{"poiid":"B2094654DA6AA4FE479F","title":"益丰工业小区","lon":"121.63539","lat":"31.196743","category":"47","category_name":"住宅区","address":"益华路1号"},{"poiid":"B2094750DB68ABFE409D","title":"盛夏路","lon":"121.636428","lat":"31.196567","category":"500","category_name":"未知分类","address":null},{"poiid":"B2094655D36CA1FC469B","title":"盛夏路益江路","lon":"121.63148","lat":"31.19999","category":"38","category_name":"公交车站","address":""},{"poiid":"B2094757D064A0F5439B","title":"独苗home","lon":"121.63736517","lat":"31.195676652","category":"500","category_name":"未知分类","address":null},{"poiid":"B2094757D76DA2F5409D","title":"哈贝斯酒吧","lon":"121.6332556","lat":"31.1998108","category":"260","category_name":"其他","address":"浦东新区益江路135弄23号玉兰香苑休闲广场内(高科中路盛夏路)"},{"poiid":"B2094757D06AA6FE4192","title":"机场四线","lon":"121.64132897","lat":"31.199811899","category":"260","category_name":"其他","address":"上海浦东国际机场—五角场"},{"poiid":"B2094757D16CABFA459A","title":"浦三路12弄26号","lon":"121.63740197","lat":"31.19560475","category":"500","category_name":"未知分类","address":"上海临沂二村"},{"poiid":"B2094757D66CA6F84398","title":"溢香坊","lon":"121.63205","lat":"31.19876","category":"71","category_name":"四川菜","address":"浦东新区益江路135弄88号(近盛夏路)"},{"poiid":"B2094757DA65A1FD4393","title":"正大广场","lon":"121.631757","lat":"31.200753","category":"249","category_name":"购物服务","address":"陆家嘴"},{"poiid":"B2094654DA6BA2F4459F","title":"益丰新村","lon":"121.6306","lat":"31.198364","category":"47","category_name":"住宅区","address":"华益路80号"}]