[{"poiid":"B2094750D56EABFE409B","title":"谧蜜甜品","lon":"121.460067","lat":"31.311693","category":"67","category_name":"甜品店","address":"闸北区阳曲路313号(近临汾路)"},{"poiid":"B2094757D06FA3FF4799","title":"扬歌量贩式KTV(彭浦店)","lon":"121.45418","lat":"31.31083","category":"170","category_name":"KTV","address":"闸北区临汾路702号2楼(近平顺路)"},{"poiid":"B2094757D068AAFB499F","title":"小肥羊(阳曲点)","lon":"121.460117103","lat":"31.3129823122","category":"86","category_name":"火锅店","address":"闸北区阳曲路475号1楼(近汾西路)"},{"poiid":"B2094757D06FA2FE459B","title":"彭浦第一粥庄","lon":"121.45423","lat":"31.31069","category":"68","category_name":"快餐厅","address":"闸北区临汾路670弄内(近岭南路)"},{"poiid":"B2094654D56CA5F8419F","title":"共和国际商务广场","lon":"121.45590556161","lat":"31.311014592124","category":"46","category_name":"楼宇","address":"闸北区共和新路3703,3737号"},{"poiid":"B2094757D06FA1F54093","title":"华联吉买盛(闸北店)","lon":"121.45683","lat":"31.31083","category":"118","category_name":"超级市场","address":"闸北区彭浦新村临汾路500号(安业路临汾路)"},{"poiid":"B2094757D068A3F94093","title":"老盛昌苏州汤包馆(临汾店)","lon":"121.4579651","lat":"31.311143273","category":"68","category_name":"快餐厅","address":"闸北区临汾路408号"},{"poiid":"B2094654D465ABFD4892","title":"上海市民政第三精神病院","lon":"121.4566","lat":"31.30882","category":"162","category_name":"医院","address":"闸北区闻喜路590号(近岭南路)"},{"poiid":"B2094757D068A2FF499F","title":"闸北区青少年活动中心","lon":"121.4598221","lat":"31.31145528","category":"500","category_name":"未知分类","address":"闸北区阳曲路330号(临汾路阳曲路)"},{"poiid":"B2094757D06FA0FD4793","title":"果留仙 彭浦店","lon":"121.452216054","lat":"31.311054793","category":"113","category_name":"冷饮店","address":"闸北区临汾路488号(近安业路)"},{"poiid":"B2094757D068A3FD4898","title":"汤豪仕汤馆（彭浦店）","lon":"121.45977783","lat":"31.30814743","category":"76","category_name":"上海菜","address":"闸北区阳曲路145号(近闻喜路)"},{"poiid":"B2094757D06FA7FA459B","title":"莹楼馆(临汾路店)","lon":"121.45413798","lat":"31.3108596508","category":"68","category_name":"快餐厅","address":"闸北区临汾路691号(近岭南路)"},{"poiid":"B2094757D069A4FB4393","title":"齐家花园","lon":"121.45669852","lat":"31.311738858","category":"47","category_name":"住宅区","address":"闸北区安业路79号(近临汾路)"},{"poiid":"B2094757DA6AABF44392","title":"謐蜜甜品","lon":"121.455597","lat":"31.312033","category":"247","category_name":"餐饮美食","address":"彭浦新村"},{"poiid":"B2094655D36DA0F9479A","title":"阳曲路临汾路","lon":"121.45995","lat":"31.31042","category":"38","category_name":"公交车站","address":""},{"poiid":"B2094750DB69A5FC4093","title":"魔都甜缘甜品店","lon":"121.455902","lat":"31.310714","category":"247","category_name":"餐饮美食","address":"临汾路597号"},{"poiid":"B2094750D664A2FC489E","title":"王家大苑老北京热气羊肉涮锅(临汾路店)","lon":"121.459","lat":"31.3111","category":"86","category_name":"火锅店","address":"闸北区临汾路406号(近阳曲路)"},{"poiid":"B2094757D068ABFB4198","title":"蜀国川菜 闸北店","lon":"121.45971015386","lat":"31.310903051648","category":"71","category_name":"四川菜","address":"闸北区临汾路358号(近阳曲路)"},{"poiid":"B2094757D06AAAFE439C","title":"岭南中学","lon":"121.4600061","lat":"31.313138315","category":"55","category_name":"中学","address":"上海市闸北区阳曲路"},{"poiid":"B2094757D068A5FF469A","title":"避风塘茶楼(临汾路店)","lon":"121.45876","lat":"31.31084","category":"247","category_name":"餐饮美食","address":"上海闸北区临汾路410号(近安业路)  "},{"poiid":"B2094655D26BA2FD419E","title":"闻喜路阳曲路","lon":"121.45891","lat":"31.30839","category":"38","category_name":"公交车站","address":""},{"poiid":"B2094654DB6AAAFD4093","title":"爱建新家园(北门)","lon":"121.45774","lat":"31.30818","category":"656","category_name":"大门","address":"闻喜路555弄1-49号"},{"poiid":"B2094757D06BABFB419C","title":"中共上海市闸北区委员会党校","lon":"121.462116","lat":"31.307959","category":"500","category_name":"未知分类","address":"上海阳泉路77号"},{"poiid":"B2094654D465ABF8499D","title":"星城花苑","lon":"121.45789","lat":"31.312393","category":"47","category_name":"住宅区","address":"临汾路380弄1-9号"},{"poiid":"B2094654D465ABF9499A","title":"恒安小区","lon":"121.4616","lat":"31.30997","category":"47","category_name":"住宅区","address":"临汾路299弄1-6号"},{"poiid":"B2094655D26AA2FF449F","title":"克莉丝汀 闻喜二店","lon":"121.459161054","lat":"31.308232793","category":"112","category_name":"糕饼店","address":"闸北区闻喜路350号(近阳曲路)"},{"poiid":"B2094654DB64A7F4419F","title":"上海市闸北区临汾地段医院","lon":"121.45849","lat":"31.31067","category":"162","category_name":"医院","address":"闸北区临汾路385号"},{"poiid":"B2094655D264A1F5449C","title":"巴贝拉意式休闲餐厅(果留仙临汾店)","lon":"121.45694","lat":"31.31103","category":"98","category_name":"意式菜品餐厅","address":"临汾路488号"},{"poiid":"B2094655D26AA4FF499F","title":"拉拉客汉堡 闻喜路店","lon":"121.458994054","lat":"31.308468793","category":"68","category_name":"快餐厅","address":"闸北区闻喜路358号(近阳曲路)"},{"poiid":"B2094654D465A4F84499","title":"彭五小区","lon":"121.45427","lat":"31.30998","category":"47","category_name":"住宅区","address":"彭浦新村340号"},{"poiid":"B2094654DB64A7F4419B","title":"上海市民政第三精神病院(南门)","lon":"121.45658","lat":"31.30852","category":"162","category_name":"医院","address":"闻喜路590号"},{"poiid":"B2094757DA64A4FA4998","title":"东亚九博健身会所","lon":"121.4621203511883","lat":"31.31087494968302","category":"500","category_name":"未知分类","address":"闸北区江杨南路158号(近场中路)"},{"poiid":"B2094757D068A1FC489C","title":"都可茶饮 临汾路店 CoCo","lon":"121.46182","lat":"31.30839","category":"113","category_name":"冷饮店","address":"闸北区临汾路626-1号(岭南路口)"},{"poiid":"B2094750D365A4FD439D","title":"美联社","lon":"121.456047","lat":"31.310287","category":"248","category_name":"生活娱乐","address":"闸北区临汾路597号102室(近岭南路)"},{"poiid":"B2094757D069A3FC499B","title":"爱建新家园","lon":"121.4577","lat":"31.307192","category":"47","category_name":"住宅区","address":"上海市闸北区闻喜路555弄"},{"poiid":"B2094654D465ABFE489C","title":"临汾小区","lon":"121.45872","lat":"31.310102","category":"47","category_name":"住宅区","address":"临汾路375弄，阳曲路181弄"},{"poiid":"B2094757D06AA1FD419F","title":"临汾社区卫生服务中心","lon":"121.458701197","lat":"31.3103587683","category":"162","category_name":"医院","address":"闸北区临汾路385号(近阳曲路)"},{"poiid":"B2094757D06BA1FF409C","title":"苹果花园 临汾路店","lon":"121.457305054","lat":"31.310817793","category":"47","category_name":"住宅区","address":"闸北区临汾路576号(近安业路)"},{"poiid":"B2094757D465A1FC4392","title":"禾丰米粉 临汾路店","lon":"121.456893054","lat":"31.310617793","category":"68","category_name":"快餐厅","address":"闸北区临汾路485号105室(近安业路)"},{"poiid":"B2094654DB65A6FF429E","title":"光明便利No.291","lon":"121.45755","lat":"31.30817","category":"117","category_name":"便民商店/便利店","address":"闻喜路565-1识别"},{"poiid":"B2094757D66DA6F54698","title":"临汾街道医院","lon":"121.458399103","lat":"31.3104082584","category":"162","category_name":"医院","address":"上海市闸北区岭南路"},{"poiid":"B2094757D16DA7FD4798","title":"老城隍庙小吃","lon":"121.4604","lat":"31.31062","category":"68","category_name":"快餐厅","address":"闸北区阳曲路291号(近临汾路)"},{"poiid":"B2094757D664A2F4479F","title":"永顺和苏州汤包馆 临汾路店","lon":"121.46008","lat":"31.31089","category":"68","category_name":"快餐厅","address":"闸北区临汾路328号(近阳曲路)"},{"poiid":"B2094757D06AA2F5479D","title":"超级鸡车","lon":"121.456172603","lat":"31.3094578385","category":"500","category_name":"未知分类","address":"上海临汾路859号"},{"poiid":"B2094654DB6AAAFD4092","title":"名角女士生活馆NO.4088","lon":"121.45732","lat":"31.30816","category":"148","category_name":"美容美发店","address":"闻喜路577识别"},{"poiid":"B2094654D465ABFD499D","title":"爱心住宅(闻喜路)","lon":"121.45708","lat":"31.3082","category":"47","category_name":"住宅区","address":""},{"poiid":"B2094655D36CA4FD469B","title":"安业路","lon":"121.45801","lat":"31.31079","category":"38","category_name":"公交车站","address":""},{"poiid":"B2094757D06AA5F94893","title":"万家花园","lon":"121.458615948","lat":"31.3110220686","category":"47","category_name":"住宅区","address":"闸北区临汾路382号(近阳曲路)"},{"poiid":"B2094655D26FA0F8469F","title":"岭南路100弄小区","lon":"121.45645","lat":"31.3072","category":"47","category_name":"住宅区","address":"岭南路100弄1号-38号"},{"poiid":"B2094757D568A5FC4898","title":"金陵老鸭粉丝汤临汾路店","lon":"121.45935","lat":"31.31093694","category":"68","category_name":"快餐厅","address":"闸北区临汾路362号(近阳曲路)"},{"poiid":"B2094750D56EABFE409B","title":"谧蜜甜品","lon":"121.460067","lat":"31.311693","category":"67","category_name":"甜品店","address":"闸北区阳曲路313号(近临汾路)"},{"poiid":"B2094757D06FA3FF4799","title":"扬歌量贩式KTV(彭浦店)","lon":"121.45418","lat":"31.31083","category":"170","category_name":"KTV","address":"闸北区临汾路702号2楼(近平顺路)"},{"poiid":"B2094757D068AAFB499F","title":"小肥羊(阳曲点)","lon":"121.460117103","lat":"31.3129823122","category":"86","category_name":"火锅店","address":"闸北区阳曲路475号1楼(近汾西路)"},{"poiid":"B2094757D06FA2FE459B","title":"彭浦第一粥庄","lon":"121.45423","lat":"31.31069","category":"68","category_name":"快餐厅","address":"闸北区临汾路670弄内(近岭南路)"},{"poiid":"B2094654D56CA5F8419F","title":"共和国际商务广场","lon":"121.45590556161","lat":"31.311014592124","category":"46","category_name":"楼宇","address":"闸北区共和新路3703,3737号"},{"poiid":"B2094757D06FA1F54093","title":"华联吉买盛(闸北店)","lon":"121.45683","lat":"31.31083","category":"118","category_name":"超级市场","address":"闸北区彭浦新村临汾路500号(安业路临汾路)"},{"poiid":"B2094757D068A3F94093","title":"老盛昌苏州汤包馆(临汾店)","lon":"121.4579651","lat":"31.311143273","category":"68","category_name":"快餐厅","address":"闸北区临汾路408号"},{"poiid":"B2094654D465ABFD4892","title":"上海市民政第三精神病院","lon":"121.4566","lat":"31.30882","category":"162","category_name":"医院","address":"闸北区闻喜路590号(近岭南路)"},{"poiid":"B2094757D068A2FF499F","title":"闸北区青少年活动中心","lon":"121.4598221","lat":"31.31145528","category":"500","category_name":"未知分类","address":"闸北区阳曲路330号(临汾路阳曲路)"},{"poiid":"B2094757D06FA0FD4793","title":"果留仙 彭浦店","lon":"121.452216054","lat":"31.311054793","category":"113","category_name":"冷饮店","address":"闸北区临汾路488号(近安业路)"},{"poiid":"B2094757D068A3FD4898","title":"汤豪仕汤馆（彭浦店）","lon":"121.45977783","lat":"31.30814743","category":"76","category_name":"上海菜","address":"闸北区阳曲路145号(近闻喜路)"},{"poiid":"B2094757D06FA7FA459B","title":"莹楼馆(临汾路店)","lon":"121.45413798","lat":"31.3108596508","category":"68","category_name":"快餐厅","address":"闸北区临汾路691号(近岭南路)"},{"poiid":"B2094757D069A4FB4393","title":"齐家花园","lon":"121.45669852","lat":"31.311738858","category":"47","category_name":"住宅区","address":"闸北区安业路79号(近临汾路)"},{"poiid":"B2094757DA6AABF44392","title":"謐蜜甜品","lon":"121.455597","lat":"31.312033","category":"247","category_name":"餐饮美食","address":"彭浦新村"},{"poiid":"B2094655D36DA0F9479A","title":"阳曲路临汾路","lon":"121.45995","lat":"31.31042","category":"38","category_name":"公交车站","address":""},{"poiid":"B2094750DB69A5FC4093","title":"魔都甜缘甜品店","lon":"121.455902","lat":"31.310714","category":"247","category_name":"餐饮美食","address":"临汾路597号"},{"poiid":"B2094750D664A2FC489E","title":"王家大苑老北京热气羊肉涮锅(临汾路店)","lon":"121.459","lat":"31.3111","category":"86","category_name":"火锅店","address":"闸北区临汾路406号(近阳曲路)"},{"poiid":"B2094757D068ABFB4198","title":"蜀国川菜 闸北店","lon":"121.45971015386","lat":"31.310903051648","category":"71","category_name":"四川菜","address":"闸北区临汾路358号(近阳曲路)"},{"poiid":"B2094757D06AAAFE439C","title":"岭南中学","lon":"121.4600061","lat":"31.313138315","category":"55","category_name":"中学","address":"上海市闸北区阳曲路"},{"poiid":"B2094757D068A5FF469A","title":"避风塘茶楼(临汾路店)","lon":"121.45876","lat":"31.31084","category":"247","category_name":"餐饮美食","address":"上海闸北区临汾路410号(近安业路)  "},{"poiid":"B2094655D26BA2FD419E","title":"闻喜路阳曲路","lon":"121.45891","lat":"31.30839","category":"38","category_name":"公交车站","address":""},{"poiid":"B2094654DB6AAAFD4093","title":"爱建新家园(北门)","lon":"121.45774","lat":"31.30818","category":"656","category_name":"大门","address":"闻喜路555弄1-49号"},{"poiid":"B2094757D06BABFB419C","title":"中共上海市闸北区委员会党校","lon":"121.462116","lat":"31.307959","category":"500","category_name":"未知分类","address":"上海阳泉路77号"},{"poiid":"B2094654D465ABF8499D","title":"星城花苑","lon":"121.45789","lat":"31.312393","category":"47","category_name":"住宅区","address":"临汾路380弄1-9号"},{"poiid":"B2094654D465ABF9499A","title":"恒安小区","lon":"121.4616","lat":"31.30997","category":"47","category_name":"住宅区","address":"临汾路299弄1-6号"},{"poiid":"B2094655D26AA2FF449F","title":"克莉丝汀 闻喜二店","lon":"121.459161054","lat":"31.308232793","category":"112","category_name":"糕饼店","address":"闸北区闻喜路350号(近阳曲路)"},{"poiid":"B2094654DB64A7F4419F","title":"上海市闸北区临汾地段医院","lon":"121.45849","lat":"31.31067","category":"162","category_name":"医院","address":"闸北区临汾路385号"},{"poiid":"B2094655D264A1F5449C","title":"巴贝拉意式休闲餐厅(果留仙临汾店)","lon":"121.45694","lat":"31.31103","category":"98","category_name":"意式菜品餐厅","address":"临汾路488号"},{"poiid":"B2094655D26AA4FF499F","title":"拉拉客汉堡 闻喜路店","lon":"121.458994054","lat":"31.308468793","category":"68","category_name":"快餐厅","address":"闸北区闻喜路358号(近阳曲路)"},{"poiid":"B2094654D465A4F84499","title":"彭五小区","lon":"121.45427","lat":"31.30998","category":"47","category_name":"住宅区","address":"彭浦新村340号"},{"poiid":"B2094654DB64A7F4419B","title":"上海市民政第三精神病院(南门)","lon":"121.45658","lat":"31.30852","category":"162","category_name":"医院","address":"闻喜路590号"},{"poiid":"B2094757DA64A4FA4998","title":"东亚九博健身会所","lon":"121.4621203511883","lat":"31.31087494968302","category":"500","category_name":"未知分类","address":"闸北区江杨南路158号(近场中路)"},{"poiid":"B2094757D068A1FC489C","title":"都可茶饮 临汾路店 CoCo","lon":"121.46182","lat":"31.30839","category":"113","category_name":"冷饮店","address":"闸北区临汾路626-1号(岭南路口)"},{"poiid":"B2094750D365A4FD439D","title":"美联社","lon":"121.456047","lat":"31.310287","category":"248","category_name":"生活娱乐","address":"闸北区临汾路597号102室(近岭南路)"},{"poiid":"B2094757D069A3FC499B","title":"爱建新家园","lon":"121.4577","lat":"31.307192","category":"47","category_name":"住宅区","address":"上海市闸北区闻喜路555弄"},{"poiid":"B2094654D465ABFE489C","title":"临汾小区","lon":"121.45872","lat":"31.310102","category":"47","category_name":"住宅区","address":"临汾路375弄，阳曲路181弄"},{"poiid":"B2094757D06AA1FD419F","title":"临汾社区卫生服务中心","lon":"121.458701197","lat":"31.3103587683","category":"162","category_name":"医院","address":"闸北区临汾路385号(近阳曲路)"},{"poiid":"B2094757D06BA1FF409C","title":"苹果花园 临汾路店","lon":"121.457305054","lat":"31.310817793","category":"47","category_name":"住宅区","address":"闸北区临汾路576号(近安业路)"},{"poiid":"B2094757D465A1FC4392","title":"禾丰米粉 临汾路店","lon":"121.456893054","lat":"31.310617793","category":"68","category_name":"快餐厅","address":"闸北区临汾路485号105室(近安业路)"},{"poiid":"B2094654DB65A6FF429E","title":"光明便利No.291","lon":"121.45755","lat":"31.30817","category":"117","category_name":"便民商店/便利店","address":"闻喜路565-1识别"},{"poiid":"B2094757D66DA6F54698","title":"临汾街道医院","lon":"121.458399103","lat":"31.3104082584","category":"162","category_name":"医院","address":"上海市闸北区岭南路"},{"poiid":"B2094757D16DA7FD4798","title":"老城隍庙小吃","lon":"121.4604","lat":"31.31062","category":"68","category_name":"快餐厅","address":"闸北区阳曲路291号(近临汾路)"},{"poiid":"B2094757D664A2F4479F","title":"永顺和苏州汤包馆 临汾路店","lon":"121.46008","lat":"31.31089","category":"68","category_name":"快餐厅","address":"闸北区临汾路328号(近阳曲路)"},{"poiid":"B2094757D06AA2F5479D","title":"超级鸡车","lon":"121.456172603","lat":"31.3094578385","category":"500","category_name":"未知分类","address":"上海临汾路859号"},{"poiid":"B2094654DB6AAAFD4092","title":"名角女士生活馆NO.4088","lon":"121.45732","lat":"31.30816","category":"148","category_name":"美容美发店","address":"闻喜路577识别"},{"poiid":"B2094654D465ABFD499D","title":"爱心住宅(闻喜路)","lon":"121.45708","lat":"31.3082","category":"47","category_name":"住宅区","address":""},{"poiid":"B2094655D36CA4FD469B","title":"安业路","lon":"121.45801","lat":"31.31079","category":"38","category_name":"公交车站","address":""},{"poiid":"B2094757D06AA5F94893","title":"万家花园","lon":"121.458615948","lat":"31.3110220686","category":"47","category_name":"住宅区","address":"闸北区临汾路382号(近阳曲路)"},{"poiid":"B2094655D26FA0F8469F","title":"岭南路100弄小区","lon":"121.45645","lat":"31.3072","category":"47","category_name":"住宅区","address":"岭南路100弄1号-38号"},{"poiid":"B2094757D568A5FC4898","title":"金陵老鸭粉丝汤临汾路店","lon":"121.45935","lat":"31.31093694","category":"68","category_name":"快餐厅","address":"闸北区临汾路362号(近阳曲路)"},{"poiid":"B2094750D56EABFE409B","title":"谧蜜甜品","lon":"121.460067","lat":"31.311693","category":"67","category_name":"甜品店","address":"闸北区阳曲路313号(近临汾路)"},{"poiid":"B2094757D06FA3FF4799","title":"扬歌量贩式KTV(彭浦店)","lon":"121.45418","lat":"31.31083","category":"170","category_name":"KTV","address":"闸北区临汾路702号2楼(近平顺路)"},{"poiid":"B2094757D068AAFB499F","title":"小肥羊(阳曲点)","lon":"121.460117103","lat":"31.3129823122","category":"86","category_name":"火锅店","address":"闸北区阳曲路475号1楼(近汾西路)"},{"poiid":"B2094757D06FA2FE459B","title":"彭浦第一粥庄","lon":"121.45423","lat":"31.31069","category":"68","category_name":"快餐厅","address":"闸北区临汾路670弄内(近岭南路)"},{"poiid":"B2094654D56CA5F8419F","title":"共和国际商务广场","lon":"121.45590556161","lat":"31.311014592124","category":"46","category_name":"楼宇","address":"闸北区共和新路3703,3737号"},{"poiid":"B2094757D06FA1F54093","title":"华联吉买盛(闸北店)","lon":"121.45683","lat":"31.31083","category":"118","category_name":"超级市场","address":"闸北区彭浦新村临汾路500号(安业路临汾路)"},{"poiid":"B2094757D068A3F94093","title":"老盛昌苏州汤包馆(临汾店)","lon":"121.4579651","lat":"31.311143273","category":"68","category_name":"快餐厅","address":"闸北区临汾路408号"},{"poiid":"B2094654D465ABFD4892","title":"上海市民政第三精神病院","lon":"121.4566","lat":"31.30882","category":"162","category_name":"医院","address":"闸北区闻喜路590号(近岭南路)"},{"poiid":"B2094757D068A2FF499F","title":"闸北区青少年活动中心","lon":"121.4598221","lat":"31.31145528","category":"500","category_name":"未知分类","address":"闸北区阳曲路330号(临汾路阳曲路)"},{"poiid":"B2094757D06FA0FD4793","title":"果留仙 彭浦店","lon":"121.452216054","lat":"31.311054793","category":"113","category_name":"冷饮店","address":"闸北区临汾路488号(近安业路)"},{"poiid":"B2094757D068A3FD4898","title":"汤豪仕汤馆（彭浦店）","lon":"121.45977783","lat":"31.30814743","category":"76","category_name":"上海菜","address":"闸北区阳曲路145号(近闻喜路)"},{"poiid":"B2094757D06FA7FA459B","title":"莹楼馆(临汾路店)","lon":"121.45413798","lat":"31.3108596508","category":"68","category_name":"快餐厅","address":"闸北区临汾路691号(近岭南路)"},{"poiid":"B2094757D069A4FB4393","title":"齐家花园","lon":"121.45669852","lat":"31.311738858","category":"47","category_name":"住宅区","address":"闸北区安业路79号(近临汾路)"},{"poiid":"B2094757DA6AABF44392","title":"謐蜜甜品","lon":"121.455597","lat":"31.312033","category":"247","category_name":"餐饮美食","address":"彭浦新村"},{"poiid":"B2094655D36DA0F9479A","title":"阳曲路临汾路","lon":"121.45995","lat":"31.31042","category":"38","category_name":"公交车站","address":""},{"poiid":"B2094750DB69A5FC4093","title":"魔都甜缘甜品店","lon":"121.455902","lat":"31.310714","category":"247","category_name":"餐饮美食","address":"临汾路597号"},{"poiid":"B2094750D664A2FC489E","title":"王家大苑老北京热气羊肉涮锅(临汾路店)","lon":"121.459","lat":"31.3111","category":"86","category_name":"火锅店","address":"闸北区临汾路406号(近阳曲路)"},{"poiid":"B2094757D068ABFB4198","title":"蜀国川菜 闸北店","lon":"121.45971015386","lat":"31.310903051648","category":"71","category_name":"四川菜","address":"闸北区临汾路358号(近阳曲路)"},{"poiid":"B2094757D06AAAFE439C","title":"岭南中学","lon":"121.4600061","lat":"31.313138315","category":"55","category_name":"中学","address":"上海市闸北区阳曲路"},{"poiid":"B2094757D068A5FF469A","title":"避风塘茶楼(临汾路店)","lon":"121.45876","lat":"31.31084","category":"247","category_name":"餐饮美食","address":"上海闸北区临汾路410号(近安业路)  "},{"poiid":"B2094655D26BA2FD419E","title":"闻喜路阳曲路","lon":"121.45891","lat":"31.30839","category":"38","category_name":"公交车站","address":""},{"poiid":"B2094654DB6AAAFD4093","title":"爱建新家园(北门)","lon":"121.45774","lat":"31.30818","category":"656","category_name":"大门","address":"闻喜路555弄1-49号"},{"poiid":"B2094757D06BABFB419C","title":"中共上海市闸北区委员会党校","lon":"121.462116","lat":"31.307959","category":"500","category_name":"未知分类","address":"上海阳泉路77号"},{"poiid":"B2094654D465ABF8499D","title":"星城花苑","lon":"121.45789","lat":"31.312393","category":"47","category_name":"住宅区","address":"临汾路380弄1-9号"},{"poiid":"B2094654D465ABF9499A","title":"恒安小区","lon":"121.4616","lat":"31.30997","category":"47","category_name":"住宅区","address":"临汾路299弄1-6号"},{"poiid":"B2094655D26AA2FF449F","title":"克莉丝汀 闻喜二店","lon":"121.459161054","lat":"31.308232793","category":"112","category_name":"糕饼店","address":"闸北区闻喜路350号(近阳曲路)"},{"poiid":"B2094654DB64A7F4419F","title":"上海市闸北区临汾地段医院","lon":"121.45849","lat":"31.31067","category":"162","category_name":"医院","address":"闸北区临汾路385号"},{"poiid":"B2094655D264A1F5449C","title":"巴贝拉意式休闲餐厅(果留仙临汾店)","lon":"121.45694","lat":"31.31103","category":"98","category_name":"意式菜品餐厅","address":"临汾路488号"},{"poiid":"B2094655D26AA4FF499F","title":"拉拉客汉堡 闻喜路店","lon":"121.458994054","lat":"31.308468793","category":"68","category_name":"快餐厅","address":"闸北区闻喜路358号(近阳曲路)"},{"poiid":"B2094654D465A4F84499","title":"彭五小区","lon":"121.45427","lat":"31.30998","category":"47","category_name":"住宅区","address":"彭浦新村340号"},{"poiid":"B2094654DB64A7F4419B","title":"上海市民政第三精神病院(南门)","lon":"121.45658","lat":"31.30852","category":"162","category_name":"医院","address":"闻喜路590号"},{"poiid":"B2094757DA64A4FA4998","title":"东亚九博健身会所","lon":"121.4621203511883","lat":"31.31087494968302","category":"500","category_name":"未知分类","address":"闸北区江杨南路158号(近场中路)"},{"poiid":"B2094757D068A1FC489C","title":"都可茶饮 临汾路店 CoCo","lon":"121.46182","lat":"31.30839","category":"113","category_name":"冷饮店","address":"闸北区临汾路626-1号(岭南路口)"},{"poiid":"B2094750D365A4FD439D","title":"美联社","lon":"121.456047","lat":"31.310287","category":"248","category_name":"生活娱乐","address":"闸北区临汾路597号102室(近岭南路)"},{"poiid":"B2094757D069A3FC499B","title":"爱建新家园","lon":"121.4577","lat":"31.307192","category":"47","category_name":"住宅区","address":"上海市闸北区闻喜路555弄"},{"poiid":"B2094654D465ABFE489C","title":"临汾小区","lon":"121.45872","lat":"31.310102","category":"47","category_name":"住宅区","address":"临汾路375弄，阳曲路181弄"},{"poiid":"B2094757D06AA1FD419F","title":"临汾社区卫生服务中心","lon":"121.458701197","lat":"31.3103587683","category":"162","category_name":"医院","address":"闸北区临汾路385号(近阳曲路)"},{"poiid":"B2094757D06BA1FF409C","title":"苹果花园 临汾路店","lon":"121.457305054","lat":"31.310817793","category":"47","category_name":"住宅区","address":"闸北区临汾路576号(近安业路)"},{"poiid":"B2094757D465A1FC4392","title":"禾丰米粉 临汾路店","lon":"121.456893054","lat":"31.310617793","category":"68","category_name":"快餐厅","address":"闸北区临汾路485号105室(近安业路)"},{"poiid":"B2094654DB65A6FF429E","title":"光明便利No.291","lon":"121.45755","lat":"31.30817","category":"117","category_name":"便民商店/便利店","address":"闻喜路565-1识别"},{"poiid":"B2094757D66DA6F54698","title":"临汾街道医院","lon":"121.458399103","lat":"31.3104082584","category":"162","category_name":"医院","address":"上海市闸北区岭南路"},{"poiid":"B2094757D16DA7FD4798","title":"老城隍庙小吃","lon":"121.4604","lat":"31.31062","category":"68","category_name":"快餐厅","address":"闸北区阳曲路291号(近临汾路)"},{"poiid":"B2094757D664A2F4479F","title":"永顺和苏州汤包馆 临汾路店","lon":"121.46008","lat":"31.31089","category":"68","category_name":"快餐厅","address":"闸北区临汾路328号(近阳曲路)"},{"poiid":"B2094757D06AA2F5479D","title":"超级鸡车","lon":"121.456172603","lat":"31.3094578385","category":"500","category_name":"未知分类","address":"上海临汾路859号"},{"poiid":"B2094654DB6AAAFD4092","title":"名角女士生活馆NO.4088","lon":"121.45732","lat":"31.30816","category":"148","category_name":"美容美发店","address":"闻喜路577识别"},{"poiid":"B2094654D465ABFD499D","title":"爱心住宅(闻喜路)","lon":"121.45708","lat":"31.3082","category":"47","category_name":"住宅区","address":""},{"poiid":"B2094655D36CA4FD469B","title":"安业路","lon":"121.45801","lat":"31.31079","category":"38","category_name":"公交车站","address":""},{"poiid":"B2094757D06AA5F94893","title":"万家花园","lon":"121.458615948","lat":"31.3110220686","category":"47","category_name":"住宅区","address":"闸北区临汾路382号(近阳曲路)"},{"poiid":"B2094655D26FA0F8469F","title":"岭南路100弄小区","lon":"121.45645","lat":"31.3072","category":"47","category_name":"住宅区","address":"岭南路100弄1号-38号"},{"poiid":"B2094757D568A5FC4898","title":"金陵老鸭粉丝汤临汾路店","lon":"121.45935","lat":"31.31093694","category":"68","category_name":"快餐厅","address":"闸北区临汾路362号(近阳曲路)"},{"poiid":"B2094750D56EABFE409B","title":"谧蜜甜品","lon":"121.460067","lat":"31.311693","category":"67","category_name":"甜品店","address":"闸北区阳曲路313号(近临汾路)"},{"poiid":"B2094757D06FA3FF4799","title":"扬歌量贩式KTV(彭浦店)","lon":"121.45418","lat":"31.31083","category":"170","category_name":"KTV","address":"闸北区临汾路702号2楼(近平顺路)"},{"poiid":"B2094757D068AAFB499F","title":"小肥羊(阳曲点)","lon":"121.460117103","lat":"31.3129823122","category":"86","category_name":"火锅店","address":"闸北区阳曲路475号1楼(近汾西路)"},{"poiid":"B2094757D06FA2FE459B","title":"彭浦第一粥庄","lon":"121.45423","lat":"31.31069","category":"68","category_name":"快餐厅","address":"闸北区临汾路670弄内(近岭南路)"},{"poiid":"B2094654D56CA5F8419F","title":"共和国际商务广场","lon":"121.45590556161","lat":"31.311014592124","category":"46","category_name":"楼宇","address":"闸北区共和新路3703,3737号"},{"poiid":"B2094757D06FA1F54093","title":"华联吉买盛(闸北店)","lon":"121.45683","lat":"31.31083","category":"118","category_name":"超级市场","address":"闸北区彭浦新村临汾路500号(安业路临汾路)"},{"poiid":"B2094757D068A3F94093","title":"老盛昌苏州汤包馆(临汾店)","lon":"121.4579651","lat":"31.311143273","category":"68","category_name":"快餐厅","address":"闸北区临汾路408号"},{"poiid":"B2094654D465ABFD4892","title":"上海市民政第三精神病院","lon":"121.4566","lat":"31.30882","category":"162","category_name":"医院","address":"闸北区闻喜路590号(近岭南路)"},{"poiid":"B2094757D068A2FF499F","title":"闸北区青少年活动中心","lon":"121.4598221","lat":"31.31145528","category":"500","category_name":"未知分类","address":"闸北区阳曲路330号(临汾路阳曲路)"},{"poiid":"B2094757D06FA0FD4793","title":"果留仙 彭浦店","lon":"121.452216054","lat":"31.311054793","category":"113","category_name":"冷饮店","address":"闸北区临汾路488号(近安业路)"},{"poiid":"B2094757D068A3FD4898","title":"汤豪仕汤馆（彭浦店）","lon":"121.45977783","lat":"31.30814743","category":"76","category_name":"上海菜","address":"闸北区阳曲路145号(近闻喜路)"},{"poiid":"B2094757D06FA7FA459B","title":"莹楼馆(临汾路店)","lon":"121.45413798","lat":"31.3108596508","category":"68","category_name":"快餐厅","address":"闸北区临汾路691号(近岭南路)"},{"poiid":"B2094757D069A4FB4393","title":"齐家花园","lon":"121.45669852","lat":"31.311738858","category":"47","category_name":"住宅区","address":"闸北区安业路79号(近临汾路)"},{"poiid":"B2094757DA6AABF44392","title":"謐蜜甜品","lon":"121.455597","lat":"31.312033","category":"247","category_name":"餐饮美食","address":"彭浦新村"},{"poiid":"B2094655D36DA0F9479A","title":"阳曲路临汾路","lon":"121.45995","lat":"31.31042","category":"38","category_name":"公交车站","address":""},{"poiid":"B2094750DB69A5FC4093","title":"魔都甜缘甜品店","lon":"121.455902","lat":"31.310714","category":"247","category_name":"餐饮美食","address":"临汾路597号"},{"poiid":"B2094750D664A2FC489E","title":"王家大苑老北京热气羊肉涮锅(临汾路店)","lon":"121.459","lat":"31.3111","category":"86","category_name":"火锅店","address":"闸北区临汾路406号(近阳曲路)"},{"poiid":"B2094757D068ABFB4198","title":"蜀国川菜 闸北店","lon":"121.45971015386","lat":"31.310903051648","category":"71","category_name":"四川菜","address":"闸北区临汾路358号(近阳曲路)"},{"poiid":"B2094757D06AAAFE439C","title":"岭南中学","lon":"121.4600061","lat":"31.313138315","category":"55","category_name":"中学","address":"上海市闸北区阳曲路"},{"poiid":"B2094757D068A5FF469A","title":"避风塘茶楼(临汾路店)","lon":"121.45876","lat":"31.31084","category":"247","category_name":"餐饮美食","address":"上海闸北区临汾路410号(近安业路)  "},{"poiid":"B2094655D26BA2FD419E","title":"闻喜路阳曲路","lon":"121.45891","lat":"31.30839","category":"38","category_name":"公交车站","address":""},{"poiid":"B2094654DB6AAAFD4093","title":"爱建新家园(北门)","lon":"121.45774","lat":"31.30818","category":"656","category_name":"大门","address":"闻喜路555弄1-49号"},{"poiid":"B2094757D06BABFB419C","title":"中共上海市闸北区委员会党校","lon":"121.462116","lat":"31.307959","category":"500","category_name":"未知分类","address":"上海阳泉路77号"},{"poiid":"B2094654D465ABF8499D","title":"星城花苑","lon":"121.45789","lat":"31.312393","category":"47","category_name":"住宅区","address":"临汾路380弄1-9号"},{"poiid":"B2094654D465ABF9499A","title":"恒安小区","lon":"121.4616","lat":"31.30997","category":"47","category_name":"住宅区","address":"临汾路299弄1-6号"},{"poiid":"B2094655D26AA2FF449F","title":"克莉丝汀 闻喜二店","lon":"121.459161054","lat":"31.308232793","category":"112","category_name":"糕饼店","address":"闸北区闻喜路350号(近阳曲路)"},{"poiid":"B2094654DB64A7F4419F","title":"上海市闸北区临汾地段医院","lon":"121.45849","lat":"31.31067","category":"162","category_name":"医院","address":"闸北区临汾路385号"},{"poiid":"B2094655D264A1F5449C","title":"巴贝拉意式休闲餐厅(果留仙临汾店)","lon":"121.45694","lat":"31.31103","category":"98","category_name":"意式菜品餐厅","address":"临汾路488号"},{"poiid":"B2094655D26AA4FF499F","title":"拉拉客汉堡 闻喜路店","lon":"121.458994054","lat":"31.308468793","category":"68","category_name":"快餐厅","address":"闸北区闻喜路358号(近阳曲路)"},{"poiid":"B2094654D465A4F84499","title":"彭五小区","lon":"121.45427","lat":"31.30998","category":"47","category_name":"住宅区","address":"彭浦新村340号"},{"poiid":"B2094654DB64A7F4419B","title":"上海市民政第三精神病院(南门)","lon":"121.45658","lat":"31.30852","category":"162","category_name":"医院","address":"闻喜路590号"},{"poiid":"B2094757DA64A4FA4998","title":"东亚九博健身会所","lon":"121.4621203511883","lat":"31.31087494968302","category":"500","category_name":"未知分类","address":"闸北区江杨南路158号(近场中路)"},{"poiid":"B2094757D068A1FC489C","title":"都可茶饮 临汾路店 CoCo","lon":"121.46182","lat":"31.30839","category":"113","category_name":"冷饮店","address":"闸北区临汾路626-1号(岭南路口)"},{"poiid":"B2094750D365A4FD439D","title":"美联社","lon":"121.456047","lat":"31.310287","category":"248","category_name":"生活娱乐","address":"闸北区临汾路597号102室(近岭南路)"},{"poiid":"B2094757D069A3FC499B","title":"爱建新家园","lon":"121.4577","lat":"31.307192","category":"47","category_name":"住宅区","address":"上海市闸北区闻喜路555弄"},{"poiid":"B2094654D465ABFE489C","title":"临汾小区","lon":"121.45872","lat":"31.310102","category":"47","category_name":"住宅区","address":"临汾路375弄，阳曲路181弄"},{"poiid":"B2094757D06AA1FD419F","title":"临汾社区卫生服务中心","lon":"121.458701197","lat":"31.3103587683","category":"162","category_name":"医院","address":"闸北区临汾路385号(近阳曲路)"},{"poiid":"B2094757D06BA1FF409C","title":"苹果花园 临汾路店","lon":"121.457305054","lat":"31.310817793","category":"47","category_name":"住宅区","address":"闸北区临汾路576号(近安业路)"},{"poiid":"B2094757D465A1FC4392","title":"禾丰米粉 临汾路店","lon":"121.456893054","lat":"31.310617793","category":"68","category_name":"快餐厅","address":"闸北区临汾路485号105室(近安业路)"},{"poiid":"B2094654DB65A6FF429E","title":"光明便利No.291","lon":"121.45755","lat":"31.30817","category":"117","category_name":"便民商店/便利店","address":"闻喜路565-1识别"},{"poiid":"B2094757D66DA6F54698","title":"临汾街道医院","lon":"121.458399103","lat":"31.3104082584","category":"162","category_name":"医院","address":"上海市闸北区岭南路"},{"poiid":"B2094757D16DA7FD4798","title":"老城隍庙小吃","lon":"121.4604","lat":"31.31062","category":"68","category_name":"快餐厅","address":"闸北区阳曲路291号(近临汾路)"},{"poiid":"B2094757D664A2F4479F","title":"永顺和苏州汤包馆 临汾路店","lon":"121.46008","lat":"31.31089","category":"68","category_name":"快餐厅","address":"闸北区临汾路328号(近阳曲路)"},{"poiid":"B2094757D06AA2F5479D","title":"超级鸡车","lon":"121.456172603","lat":"31.3094578385","category":"500","category_name":"未知分类","address":"上海临汾路859号"},{"poiid":"B2094654DB6AAAFD4092","title":"名角女士生活馆NO.4088","lon":"121.45732","lat":"31.30816","category":"148","category_name":"美容美发店","address":"闻喜路577识别"},{"poiid":"B2094654D465ABFD499D","title":"爱心住宅(闻喜路)","lon":"121.45708","lat":"31.3082","category":"47","category_name":"住宅区","address":""},{"poiid":"B2094655D36CA4FD469B","title":"安业路","lon":"121.45801","lat":"31.31079","category":"38","category_name":"公交车站","address":""},{"poiid":"B2094757D06AA5F94893","title":"万家花园","lon":"121.458615948","lat":"31.3110220686","category":"47","category_name":"住宅区","address":"闸北区临汾路382号(近阳曲路)"},{"poiid":"B2094655D26FA0F8469F","title":"岭南路100弄小区","lon":"121.45645","lat":"31.3072","category":"47","category_name":"住宅区","address":"岭南路100弄1号-38号"},{"poiid":"B2094757D568A5FC4898","title":"金陵老鸭粉丝汤临汾路店","lon":"121.45935","lat":"31.31093694","category":"68","category_name":"快餐厅","address":"闸北区临汾路362号(近阳曲路)"}]