[{"poiid":"B2094757D06EAAF9439B","title":"查餐厅 辛耕路店 Cha's","lon":"121.442147","lat":"31.192063","category":"72","category_name":"广东菜","address":"徐汇区天钥桥路131号永新坊B1楼18号(近辛耕路)"},{"poiid":"B2094757D06EAAFC489C","title":"糖品","lon":"121.44309857","lat":"31.192405671","category":"67","category_name":"甜品店","address":"徐汇区天钥桥路133号永新坊1楼7号铺(近辛耕路)"},{"poiid":"B2094654DA6DA0FC459F","title":"永新坊","lon":"121.44261","lat":"31.19207","category":"116","category_name":"特色商业街","address":"徐汇区天钥桥路131号(近辛耕路)"},{"poiid":"B2094655D26CA7F44092","title":"蓝蛙","lon":"121.44234","lat":"31.19201","category":"260","category_name":"其他","address":"徐汇区天钥桥路131号永新广场B1楼(近辛耕路)"},{"poiid":"B2094757D06AA0FA489C","title":"金桂皇朝 永新坊店","lon":"121.4425068","lat":"31.1920975","category":"72","category_name":"广东菜","address":"徐汇区天钥桥路131号永新坊B1楼16室(近辛耕路)"},{"poiid":"B2094751D565A2F44498","title":"百嘉乐V-Show主题KTV","lon":"121.441818","lat":"31.192683","category":"248","category_name":"生活娱乐","address":"天钥桥路辛耕路"},{"poiid":"B2094757D06FA3F5439A","title":"扬歌量贩式KTV(天钥桥路店)","lon":"121.4415","lat":"31.19231","category":"170","category_name":"KTV","address":"徐汇区天钥桥路88号汇联商厦4-5楼(近肇嘉浜路)"},{"poiid":"B2094757D06FA1F94599","title":"天天渔港(徐汇店)","lon":"121.44257","lat":"31.19222","category":"72","category_name":"广东菜","address":"徐汇区天钥桥路123号5-6楼(近辛耕路)"},{"poiid":"B2094654DB6BA5F94098","title":"麦当劳(徐家汇1号店)","lon":"121.44114","lat":"31.19391","category":"68","category_name":"快餐厅","address":"上海徐汇区华山路1988号(近广元西路)"},{"poiid":"B2094757D06FA3FB409E","title":"大众书局(美罗城店)","lon":"121.44048","lat":"31.19427","category":"125","category_name":"书店","address":"徐汇区肇嘉浜路1111号美罗城4楼(近漕溪北路)"},{"poiid":"B2094757D06FABFC4892","title":"天钥桥路","lon":"121.441136","lat":"31.1939","category":"500","category_name":"未知分类","address":"上海天钥桥路"},{"poiid":"B2094757D06FA1FE469F","title":"芋贵人(永新坊店)","lon":"121.441357186","lat":"31.1920914853","category":"67","category_name":"甜品店","address":"徐汇区天钥桥路133号永新坊1楼08A店铺"},{"poiid":"B2094751D26CA3FE449F","title":"大花猫海鲜自助烤涮","lon":"121.441398","lat":"31.192947","category":"247","category_name":"餐饮美食","address":"徐汇区天钥桥路93号3楼(近肇嘉浜路)"},{"poiid":"B2094757D06FABFA4593","title":"汇智大厦","lon":"121.443","lat":"31.1938","category":"46","category_name":"楼宇","address":"上海市,漕溪北路398号汇智大厦202室"},{"poiid":"B2094757D06FA2F8469B","title":"振鼎鸡(天钥桥路店)","lon":"121.442273579","lat":"31.1924886735","category":"68","category_name":"快餐厅","address":"徐汇区天钥桥路123号B1楼(近辛耕路)"},{"poiid":"B209475CD064ABF4469E","title":"翠华餐厅 永新坊店","lon":"121.442058054","lat":"31.191960793","category":"72","category_name":"广东菜","address":"徐汇区天钥桥路永新坊133号地铺靠近辛耕路"},{"poiid":"B2094757D068A2FB499A","title":"Pizzeria Alla Torre(港汇店)","lon":"121.4374","lat":"31.19448","category":"94","category_name":"西餐厅","address":"徐汇区虹桥路1号港汇恒隆广场内街(华山路口)"},{"poiid":"B2094757D06FA0F5429A","title":"仙踪林(天钥桥路店)","lon":"121.442085539","lat":"31.1924057945","category":"260","category_name":"其他","address":"徐汇区天钥桥路123号(近辛耕路)"},{"poiid":"B2094757D06FA0FC429B","title":"圣摩珂咖啡 美罗城店 ST-MARC Cafe","lon":"121.439514","lat":"31.193385","category":"65","category_name":"咖啡厅","address":"肇嘉浜路1111号美罗城B1楼五番街近漕溪北路"},{"poiid":"B2094757D06FABF9499A","title":"白玉兰餐厅","lon":"121.44171","lat":"31.19233","category":"76","category_name":"上海菜","address":"徐汇区天钥桥路98号白玉兰小吃2楼(天钥桥路辛耕路)"},{"poiid":"B2094757D06FABFC4192","title":"上海市第四中学","lon":"121.4418","lat":"31.19218","category":"55","category_name":"中学","address":"徐汇区天钥桥路100号(近辛耕路)"},{"poiid":"B2094757D06FA6FC4792","title":"肯德基 KFC (辛耕店)","lon":"121.442148","lat":"31.192253","category":"68","category_name":"快餐厅","address":"徐汇区天钥桥路214号哈尼美食广场(近辛耕路)"},{"poiid":"B2094757D06FA1F5419D","title":"东方既白(美罗店)","lon":"121.44100189","lat":"31.1935997","category":"68","category_name":"快餐厅","address":"徐汇区肇嘉浜路1111号美罗城1楼(近天钥桥路)"},{"poiid":"B2094757D66FA1FE419E","title":"呷铺呷铺","lon":"121.44111858","lat":"31.191994683","category":"247","category_name":"餐饮美食","address":"上海天钥桥路辛耕路"},{"poiid":"B2094757DA6EABF4489B","title":"芯尚造型(天钥桥路店)","lon":"121.441198000003","lat":"31.1930100000002","category":"248","category_name":"生活娱乐","address":"徐汇区天钥桥路86号(近肇嘉浜路)"},{"poiid":"B2094751DA69A4FA429C","title":"VSHOW","lon":"121.441895","lat":"31.192444","category":"248","category_name":"生活娱乐","address":"天钥桥路辛耕路"},{"poiid":"B2094654DA6DA0FD4493","title":"今一靓汤 天钥桥店","lon":"121.441376054","lat":"31.193075793","category":"72","category_name":"广东菜","address":"徐汇区天钥桥路123号(近辛耕路)"},{"poiid":"B2094757D068A6F84999","title":"阿玛尼护肤造型中心(天钥桥路店)","lon":"121.441825","lat":"31.191802","category":"148","category_name":"美容美发店","address":"上海徐汇区天钥桥路130号(近辛耕路)"},{"poiid":"B2094757D06FA2FD4093","title":"道顿堀酷酷璐章鱼丸子(肇嘉浜路店)","lon":"121.441845586","lat":"31.1949486747","category":"95","category_name":"日本料理","address":"徐汇区肇嘉浜路1033号徐家汇国际大厦1楼(近百思买)"},{"poiid":"B2094757DB69A1FB4699","title":"多喜寿司","lon":"121.4425068","lat":"31.1920975","category":"95","category_name":"日本料理","address":"徐汇区天钥桥路131号永新坊B1楼11室A(近辛耕路)"},{"poiid":"B2094750D76DA1F5439C","title":"斗香园(永新坊店)","lon":"121.442","lat":"31.192","category":"68","category_name":"快餐厅","address":"徐汇区天钥桥路131号永新坊B1楼08B室(近城市超市)"},{"poiid":"B2094751D26BA7FC449F","title":"牛NEW寿喜烧","lon":"121.442314","lat":"31.191993","category":"268","category_name":"自助","address":"徐汇区天钥桥路131号永新坊B1楼13号(近辛耕路)"},{"poiid":"B2094751D569A0FB459B","title":"永新坊查餐厅","lon":"121.442551","lat":"31.192062","category":"247","category_name":"餐饮美食","address":null},{"poiid":"B2094654DB69A7FD439A","title":"鸭王(徐汇店)","lon":"121.44052","lat":"31.19397","category":"260","category_name":"其他","address":"徐汇区天钥桥路20号西亚宾馆2楼(近肇家浜路)"},{"poiid":"B2094655D26AA0FB499A","title":"华尔街英语徐家汇分校","lon":"121.44121","lat":"31.19395","category":"247","category_name":"餐饮美食","address":"徐汇区天钥桥路1号煤科大厦1-3楼(肇嘉浜路口)"},{"poiid":"B2094757D06FA5FA4499","title":"招商银行(天钥桥支行)","lon":"121.441210985","lat":"31.1929673477","category":"150","category_name":"银行","address":"徐汇区天钥桥路86-1号(天钥桥路辛耕路)"},{"poiid":"B2094757D069A6FD4293","title":"韩式佳圆自助烤肉(徐家汇店)","lon":"121.442567586","lat":"31.192533694","category":"96","category_name":"韩国料理","address":"徐汇区辛耕路152号(近天钥桥路)"},{"poiid":"B2094757D06FAAFC4292","title":"汇联商厦","lon":"121.44106","lat":"31.19328","category":"119","category_name":"商场","address":"徐汇区天钥桥路40-90号汇联商厦内(近肇嘉浜路)"},{"poiid":"B2094753D16EAAFF489A","title":"镰仓PASTA(美罗城店)","lon":"121.44026","lat":"31.1929","category":"94","category_name":"西餐厅","address":"徐汇区肇嘉浜路1111号美罗城B1楼(近漕溪北路)"},{"poiid":"B2094654DB69ABF4419E","title":"斯巴顿健身会所(徐家汇店)","lon":"121.44325","lat":"31.19303","category":"221","category_name":"健身中心","address":"徐汇区辛耕路100弄1号永新花苑1楼(近天钥桥路)"},{"poiid":"B2094757D66CA1F84292","title":"交大","lon":"121.441097586","lat":"31.1939997226","category":"500","category_name":"未知分类","address":"上海广元西路"},{"poiid":"B2094654DA6DA0FD439F","title":"山林熟食 天钥桥路店","lon":"121.440920054","lat":"31.192862793","category":"68","category_name":"快餐厅","address":"徐汇区天钥桥路40-90号汇联商厦1楼(近肇嘉浜路)"},{"poiid":"B2094757D069A7FD489D","title":"City shop 永新坊","lon":"121.44265387","lat":"31.192558456","category":"249","category_name":"购物服务","address":"上海徐家汇天钥桥路"},{"poiid":"B2094757D06FA0FD489C","title":"优派Upark KTV","lon":"121.44204234","lat":"31.192305189","category":"170","category_name":"KTV","address":"上海徐家汇辛耕路天钥桥路"},{"poiid":"B2094655D26BA2F8469A","title":"天钥桥路辛耕路","lon":"121.44194","lat":"31.19189","category":"38","category_name":"公交车站","address":"上海天钥桥路辛耕路车站"},{"poiid":"B2094654DB69A7FD429B","title":"大娘水饺 天钥桥路","lon":"121.44101498766","lat":"31.193759194911","category":"68","category_name":"快餐厅","address":"徐汇区天钥桥路57号(近肇嘉浜路)"},{"poiid":"B2094654DA6DA0FC4399","title":"中国银行上海市天钥桥路支行","lon":"121.4413","lat":"31.19281","category":"150","category_name":"银行","address":"上海市徐汇区天钥桥路90号"},{"poiid":"B2094655D26AA5FA409F","title":"快乐柠檬(天钥桥路店)","lon":"121.44194","lat":"31.19242","category":"113","category_name":"冷饮店","address":"徐汇区天钥桥路123号(近辛耕路)"},{"poiid":"B2094655D26AA5F94493","title":"白玉兰面包房","lon":"121.4415","lat":"31.19244","category":"112","category_name":"糕饼店","address":"徐汇区天钥桥路100号(近辛耕路)"},{"poiid":"B2094757D06EAAF9439B","title":"查餐厅 辛耕路店 Cha's","lon":"121.442147","lat":"31.192063","category":"72","category_name":"广东菜","address":"徐汇区天钥桥路131号永新坊B1楼18号(近辛耕路)"},{"poiid":"B2094757D06EAAFC489C","title":"糖品","lon":"121.44309857","lat":"31.192405671","category":"67","category_name":"甜品店","address":"徐汇区天钥桥路133号永新坊1楼7号铺(近辛耕路)"},{"poiid":"B2094654DA6DA0FC459F","title":"永新坊","lon":"121.44261","lat":"31.19207","category":"116","category_name":"特色商业街","address":"徐汇区天钥桥路131号(近辛耕路)"},{"poiid":"B2094655D26CA7F44092","title":"蓝蛙","lon":"121.44234","lat":"31.19201","category":"260","category_name":"其他","address":"徐汇区天钥桥路131号永新广场B1楼(近辛耕路)"},{"poiid":"B2094757D06AA0FA489C","title":"金桂皇朝 永新坊店","lon":"121.4425068","lat":"31.1920975","category":"72","category_name":"广东菜","address":"徐汇区天钥桥路131号永新坊B1楼16室(近辛耕路)"},{"poiid":"B2094751D565A2F44498","title":"百嘉乐V-Show主题KTV","lon":"121.441818","lat":"31.192683","category":"248","category_name":"生活娱乐","address":"天钥桥路辛耕路"},{"poiid":"B2094757D06FA3F5439A","title":"扬歌量贩式KTV(天钥桥路店)","lon":"121.4415","lat":"31.19231","category":"170","category_name":"KTV","address":"徐汇区天钥桥路88号汇联商厦4-5楼(近肇嘉浜路)"},{"poiid":"B2094757D06FA1F94599","title":"天天渔港(徐汇店)","lon":"121.44257","lat":"31.19222","category":"72","category_name":"广东菜","address":"徐汇区天钥桥路123号5-6楼(近辛耕路)"},{"poiid":"B2094654DB6BA5F94098","title":"麦当劳(徐家汇1号店)","lon":"121.44114","lat":"31.19391","category":"68","category_name":"快餐厅","address":"上海徐汇区华山路1988号(近广元西路)"},{"poiid":"B2094757D06FA3FB409E","title":"大众书局(美罗城店)","lon":"121.44048","lat":"31.19427","category":"125","category_name":"书店","address":"徐汇区肇嘉浜路1111号美罗城4楼(近漕溪北路)"},{"poiid":"B2094757D06FABFC4892","title":"天钥桥路","lon":"121.441136","lat":"31.1939","category":"500","category_name":"未知分类","address":"上海天钥桥路"},{"poiid":"B2094757D06FA1FE469F","title":"芋贵人(永新坊店)","lon":"121.441357186","lat":"31.1920914853","category":"67","category_name":"甜品店","address":"徐汇区天钥桥路133号永新坊1楼08A店铺"},{"poiid":"B2094751D26CA3FE449F","title":"大花猫海鲜自助烤涮","lon":"121.441398","lat":"31.192947","category":"247","category_name":"餐饮美食","address":"徐汇区天钥桥路93号3楼(近肇嘉浜路)"},{"poiid":"B2094757D06FABFA4593","title":"汇智大厦","lon":"121.443","lat":"31.1938","category":"46","category_name":"楼宇","address":"上海市,漕溪北路398号汇智大厦202室"},{"poiid":"B2094757D06FA2F8469B","title":"振鼎鸡(天钥桥路店)","lon":"121.442273579","lat":"31.1924886735","category":"68","category_name":"快餐厅","address":"徐汇区天钥桥路123号B1楼(近辛耕路)"},{"poiid":"B209475CD064ABF4469E","title":"翠华餐厅 永新坊店","lon":"121.442058054","lat":"31.191960793","category":"72","category_name":"广东菜","address":"徐汇区天钥桥路永新坊133号地铺靠近辛耕路"},{"poiid":"B2094757D068A2FB499A","title":"Pizzeria Alla Torre(港汇店)","lon":"121.4374","lat":"31.19448","category":"94","category_name":"西餐厅","address":"徐汇区虹桥路1号港汇恒隆广场内街(华山路口)"},{"poiid":"B2094757D06FA0F5429A","title":"仙踪林(天钥桥路店)","lon":"121.442085539","lat":"31.1924057945","category":"260","category_name":"其他","address":"徐汇区天钥桥路123号(近辛耕路)"},{"poiid":"B2094757D06FA0FC429B","title":"圣摩珂咖啡 美罗城店 ST-MARC Cafe","lon":"121.439514","lat":"31.193385","category":"65","category_name":"咖啡厅","address":"肇嘉浜路1111号美罗城B1楼五番街近漕溪北路"},{"poiid":"B2094757D06FABF9499A","title":"白玉兰餐厅","lon":"121.44171","lat":"31.19233","category":"76","category_name":"上海菜","address":"徐汇区天钥桥路98号白玉兰小吃2楼(天钥桥路辛耕路)"},{"poiid":"B2094757D06FABFC4192","title":"上海市第四中学","lon":"121.4418","lat":"31.19218","category":"55","category_name":"中学","address":"徐汇区天钥桥路100号(近辛耕路)"},{"poiid":"B2094757D06FA6FC4792","title":"肯德基 KFC (辛耕店)","lon":"121.442148","lat":"31.192253","category":"68","category_name":"快餐厅","address":"徐汇区天钥桥路214号哈尼美食广场(近辛耕路)"},{"poiid":"B2094757D06FA1F5419D","title":"东方既白(美罗店)","lon":"121.44100189","lat":"31.1935997","category":"68","category_name":"快餐厅","address":"徐汇区肇嘉浜路1111号美罗城1楼(近天钥桥路)"},{"poiid":"B2094757D66FA1FE419E","title":"呷铺呷铺","lon":"121.44111858","lat":"31.191994683","category":"247","category_name":"餐饮美食","address":"上海天钥桥路辛耕路"},{"poiid":"B2094757DA6EABF4489B","title":"芯尚造型(天钥桥路店)","lon":"121.441198000003","lat":"31.1930100000002","category":"248","category_name":"生活娱乐","address":"徐汇区天钥桥路86号(近肇嘉浜路)"},{"poiid":"B2094751DA69A4FA429C","title":"VSHOW","lon":"121.441895","lat":"31.192444","category":"248","category_name":"生活娱乐","address":"天钥桥路辛耕路"},{"poiid":"B2094654DA6DA0FD4493","title":"今一靓汤 天钥桥店","lon":"121.441376054","lat":"31.193075793","category":"72","category_name":"广东菜","address":"徐汇区天钥桥路123号(近辛耕路)"},{"poiid":"B2094757D068A6F84999","title":"阿玛尼护肤造型中心(天钥桥路店)","lon":"121.441825","lat":"31.191802","category":"148","category_name":"美容美发店","address":"上海徐汇区天钥桥路130号(近辛耕路)"},{"poiid":"B2094757D06FA2FD4093","title":"道顿堀酷酷璐章鱼丸子(肇嘉浜路店)","lon":"121.441845586","lat":"31.1949486747","category":"95","category_name":"日本料理","address":"徐汇区肇嘉浜路1033号徐家汇国际大厦1楼(近百思买)"},{"poiid":"B2094757DB69A1FB4699","title":"多喜寿司","lon":"121.4425068","lat":"31.1920975","category":"95","category_name":"日本料理","address":"徐汇区天钥桥路131号永新坊B1楼11室A(近辛耕路)"},{"poiid":"B2094750D76DA1F5439C","title":"斗香园(永新坊店)","lon":"121.442","lat":"31.192","category":"68","category_name":"快餐厅","address":"徐汇区天钥桥路131号永新坊B1楼08B室(近城市超市)"},{"poiid":"B2094751D26BA7FC449F","title":"牛NEW寿喜烧","lon":"121.442314","lat":"31.191993","category":"268","category_name":"自助","address":"徐汇区天钥桥路131号永新坊B1楼13号(近辛耕路)"},{"poiid":"B2094751D569A0FB459B","title":"永新坊查餐厅","lon":"121.442551","lat":"31.192062","category":"247","category_name":"餐饮美食","address":null},{"poiid":"B2094654DB69A7FD439A","title":"鸭王(徐汇店)","lon":"121.44052","lat":"31.19397","category":"260","category_name":"其他","address":"徐汇区天钥桥路20号西亚宾馆2楼(近肇家浜路)"},{"poiid":"B2094655D26AA0FB499A","title":"华尔街英语徐家汇分校","lon":"121.44121","lat":"31.19395","category":"247","category_name":"餐饮美食","address":"徐汇区天钥桥路1号煤科大厦1-3楼(肇嘉浜路口)"},{"poiid":"B2094757D06FA5FA4499","title":"招商银行(天钥桥支行)","lon":"121.441210985","lat":"31.1929673477","category":"150","category_name":"银行","address":"徐汇区天钥桥路86-1号(天钥桥路辛耕路)"},{"poiid":"B2094757D069A6FD4293","title":"韩式佳圆自助烤肉(徐家汇店)","lon":"121.442567586","lat":"31.192533694","category":"96","category_name":"韩国料理","address":"徐汇区辛耕路152号(近天钥桥路)"},{"poiid":"B2094757D06FAAFC4292","title":"汇联商厦","lon":"121.44106","lat":"31.19328","category":"119","category_name":"商场","address":"徐汇区天钥桥路40-90号汇联商厦内(近肇嘉浜路)"},{"poiid":"B2094753D16EAAFF489A","title":"镰仓PASTA(美罗城店)","lon":"121.44026","lat":"31.1929","category":"94","category_name":"西餐厅","address":"徐汇区肇嘉浜路1111号美罗城B1楼(近漕溪北路)"},{"poiid":"B2094654DB69ABF4419E","title":"斯巴顿健身会所(徐家汇店)","lon":"121.44325","lat":"31.19303","category":"221","category_name":"健身中心","address":"徐汇区辛耕路100弄1号永新花苑1楼(近天钥桥路)"},{"poiid":"B2094757D66CA1F84292","title":"交大","lon":"121.441097586","lat":"31.1939997226","category":"500","category_name":"未知分类","address":"上海广元西路"},{"poiid":"B2094654DA6DA0FD439F","title":"山林熟食 天钥桥路店","lon":"121.440920054","lat":"31.192862793","category":"68","category_name":"快餐厅","address":"徐汇区天钥桥路40-90号汇联商厦1楼(近肇嘉浜路)"},{"poiid":"B2094757D069A7FD489D","title":"City shop 永新坊","lon":"121.44265387","lat":"31.192558456","category":"249","category_name":"购物服务","address":"上海徐家汇天钥桥路"},{"poiid":"B2094757D06FA0FD489C","title":"优派Upark KTV","lon":"121.44204234","lat":"31.192305189","category":"170","category_name":"KTV","address":"上海徐家汇辛耕路天钥桥路"},{"poiid":"B2094655D26BA2F8469A","title":"天钥桥路辛耕路","lon":"121.44194","lat":"31.19189","category":"38","category_name":"公交车站","address":"上海天钥桥路辛耕路车站"},{"poiid":"B2094654DB69A7FD429B","title":"大娘水饺 天钥桥路","lon":"121.44101498766","lat":"31.193759194911","category":"68","category_name":"快餐厅","address":"徐汇区天钥桥路57号(近肇嘉浜路)"},{"poiid":"B2094654DA6DA0FC4399","title":"中国银行上海市天钥桥路支行","lon":"121.4413","lat":"31.19281","category":"150","category_name":"银行","address":"上海市徐汇区天钥桥路90号"},{"poiid":"B2094655D26AA5FA409F","title":"快乐柠檬(天钥桥路店)","lon":"121.44194","lat":"31.19242","category":"113","category_name":"冷饮店","address":"徐汇区天钥桥路123号(近辛耕路)"},{"poiid":"B2094655D26AA5F94493","title":"白玉兰面包房","lon":"121.4415","lat":"31.19244","category":"112","category_name":"糕饼店","address":"徐汇区天钥桥路100号(近辛耕路)"},{"poiid":"B2094757D06EAAF9439B","title":"查餐厅 辛耕路店 Cha's","lon":"121.442147","lat":"31.192063","category":"72","category_name":"广东菜","address":"徐汇区天钥桥路131号永新坊B1楼18号(近辛耕路)"},{"poiid":"B2094757D06EAAFC489C","title":"糖品","lon":"121.44309857","lat":"31.192405671","category":"67","category_name":"甜品店","address":"徐汇区天钥桥路133号永新坊1楼7号铺(近辛耕路)"},{"poiid":"B2094654DA6DA0FC459F","title":"永新坊","lon":"121.44261","lat":"31.19207","category":"116","category_name":"特色商业街","address":"徐汇区天钥桥路131号(近辛耕路)"},{"poiid":"B2094655D26CA7F44092","title":"蓝蛙","lon":"121.44234","lat":"31.19201","category":"260","category_name":"其他","address":"徐汇区天钥桥路131号永新广场B1楼(近辛耕路)"},{"poiid":"B2094757D06AA0FA489C","title":"金桂皇朝 永新坊店","lon":"121.4425068","lat":"31.1920975","category":"72","category_name":"广东菜","address":"徐汇区天钥桥路131号永新坊B1楼16室(近辛耕路)"},{"poiid":"B2094751D565A2F44498","title":"百嘉乐V-Show主题KTV","lon":"121.441818","lat":"31.192683","category":"248","category_name":"生活娱乐","address":"天钥桥路辛耕路"},{"poiid":"B2094757D06FA3F5439A","title":"扬歌量贩式KTV(天钥桥路店)","lon":"121.4415","lat":"31.19231","category":"170","category_name":"KTV","address":"徐汇区天钥桥路88号汇联商厦4-5楼(近肇嘉浜路)"},{"poiid":"B2094757D06FA1F94599","title":"天天渔港(徐汇店)","lon":"121.44257","lat":"31.19222","category":"72","category_name":"广东菜","address":"徐汇区天钥桥路123号5-6楼(近辛耕路)"},{"poiid":"B2094654DB6BA5F94098","title":"麦当劳(徐家汇1号店)","lon":"121.44114","lat":"31.19391","category":"68","category_name":"快餐厅","address":"上海徐汇区华山路1988号(近广元西路)"},{"poiid":"B2094757D06FA3FB409E","title":"大众书局(美罗城店)","lon":"121.44048","lat":"31.19427","category":"125","category_name":"书店","address":"徐汇区肇嘉浜路1111号美罗城4楼(近漕溪北路)"},{"poiid":"B2094757D06FABFC4892","title":"天钥桥路","lon":"121.441136","lat":"31.1939","category":"500","category_name":"未知分类","address":"上海天钥桥路"},{"poiid":"B2094757D06FA1FE469F","title":"芋贵人(永新坊店)","lon":"121.441357186","lat":"31.1920914853","category":"67","category_name":"甜品店","address":"徐汇区天钥桥路133号永新坊1楼08A店铺"},{"poiid":"B2094751D26CA3FE449F","title":"大花猫海鲜自助烤涮","lon":"121.441398","lat":"31.192947","category":"247","category_name":"餐饮美食","address":"徐汇区天钥桥路93号3楼(近肇嘉浜路)"},{"poiid":"B2094757D06FABFA4593","title":"汇智大厦","lon":"121.443","lat":"31.1938","category":"46","category_name":"楼宇","address":"上海市,漕溪北路398号汇智大厦202室"},{"poiid":"B2094757D06FA2F8469B","title":"振鼎鸡(天钥桥路店)","lon":"121.442273579","lat":"31.1924886735","category":"68","category_name":"快餐厅","address":"徐汇区天钥桥路123号B1楼(近辛耕路)"},{"poiid":"B209475CD064ABF4469E","title":"翠华餐厅 永新坊店","lon":"121.442058054","lat":"31.191960793","category":"72","category_name":"广东菜","address":"徐汇区天钥桥路永新坊133号地铺靠近辛耕路"},{"poiid":"B2094757D068A2FB499A","title":"Pizzeria Alla Torre(港汇店)","lon":"121.4374","lat":"31.19448","category":"94","category_name":"西餐厅","address":"徐汇区虹桥路1号港汇恒隆广场内街(华山路口)"},{"poiid":"B2094757D06FA0F5429A","title":"仙踪林(天钥桥路店)","lon":"121.442085539","lat":"31.1924057945","category":"260","category_name":"其他","address":"徐汇区天钥桥路123号(近辛耕路)"},{"poiid":"B2094757D06FA0FC429B","title":"圣摩珂咖啡 美罗城店 ST-MARC Cafe","lon":"121.439514","lat":"31.193385","category":"65","category_name":"咖啡厅","address":"肇嘉浜路1111号美罗城B1楼五番街近漕溪北路"},{"poiid":"B2094757D06FABF9499A","title":"白玉兰餐厅","lon":"121.44171","lat":"31.19233","category":"76","category_name":"上海菜","address":"徐汇区天钥桥路98号白玉兰小吃2楼(天钥桥路辛耕路)"},{"poiid":"B2094757D06FABFC4192","title":"上海市第四中学","lon":"121.4418","lat":"31.19218","category":"55","category_name":"中学","address":"徐汇区天钥桥路100号(近辛耕路)"},{"poiid":"B2094757D06FA6FC4792","title":"肯德基 KFC (辛耕店)","lon":"121.442148","lat":"31.192253","category":"68","category_name":"快餐厅","address":"徐汇区天钥桥路214号哈尼美食广场(近辛耕路)"},{"poiid":"B2094757D06FA1F5419D","title":"东方既白(美罗店)","lon":"121.44100189","lat":"31.1935997","category":"68","category_name":"快餐厅","address":"徐汇区肇嘉浜路1111号美罗城1楼(近天钥桥路)"},{"poiid":"B2094757D66FA1FE419E","title":"呷铺呷铺","lon":"121.44111858","lat":"31.191994683","category":"247","category_name":"餐饮美食","address":"上海天钥桥路辛耕路"},{"poiid":"B2094757DA6EABF4489B","title":"芯尚造型(天钥桥路店)","lon":"121.441198000003","lat":"31.1930100000002","category":"248","category_name":"生活娱乐","address":"徐汇区天钥桥路86号(近肇嘉浜路)"},{"poiid":"B2094751DA69A4FA429C","title":"VSHOW","lon":"121.441895","lat":"31.192444","category":"248","category_name":"生活娱乐","address":"天钥桥路辛耕路"},{"poiid":"B2094654DA6DA0FD4493","title":"今一靓汤 天钥桥店","lon":"121.441376054","lat":"31.193075793","category":"72","category_name":"广东菜","address":"徐汇区天钥桥路123号(近辛耕路)"},{"poiid":"B2094757D068A6F84999","title":"阿玛尼护肤造型中心(天钥桥路店)","lon":"121.441825","lat":"31.191802","category":"148","category_name":"美容美发店","address":"上海徐汇区天钥桥路130号(近辛耕路)"},{"poiid":"B2094757D06FA2FD4093","title":"道顿堀酷酷璐章鱼丸子(肇嘉浜路店)","lon":"121.441845586","lat":"31.1949486747","category":"95","category_name":"日本料理","address":"徐汇区肇嘉浜路1033号徐家汇国际大厦1楼(近百思买)"},{"poiid":"B2094757DB69A1FB4699","title":"多喜寿司","lon":"121.4425068","lat":"31.1920975","category":"95","category_name":"日本料理","address":"徐汇区天钥桥路131号永新坊B1楼11室A(近辛耕路)"},{"poiid":"B2094750D76DA1F5439C","title":"斗香园(永新坊店)","lon":"121.442","lat":"31.192","category":"68","category_name":"快餐厅","address":"徐汇区天钥桥路131号永新坊B1楼08B室(近城市超市)"},{"poiid":"B2094751D26BA7FC449F","title":"牛NEW寿喜烧","lon":"121.442314","lat":"31.191993","category":"268","category_name":"自助","address":"徐汇区天钥桥路131号永新坊B1楼13号(近辛耕路)"},{"poiid":"B2094751D569A0FB459B","title":"永新坊查餐厅","lon":"121.442551","lat":"31.192062","category":"247","category_name":"餐饮美食","address":null},{"poiid":"B2094654DB69A7FD439A","title":"鸭王(徐汇店)","lon":"121.44052","lat":"31.19397","category":"260","category_name":"其他","address":"徐汇区天钥桥路20号西亚宾馆2楼(近肇家浜路)"},{"poiid":"B2094655D26AA0FB499A","title":"华尔街英语徐家汇分校","lon":"121.44121","lat":"31.19395","category":"247","category_name":"餐饮美食","address":"徐汇区天钥桥路1号煤科大厦1-3楼(肇嘉浜路口)"},{"poiid":"B2094757D06FA5FA4499","title":"招商银行(天钥桥支行)","lon":"121.441210985","lat":"31.1929673477","category":"150","category_name":"银行","address":"徐汇区天钥桥路86-1号(天钥桥路辛耕路)"},{"poiid":"B2094757D069A6FD4293","title":"韩式佳圆自助烤肉(徐家汇店)","lon":"121.442567586","lat":"31.192533694","category":"96","category_name":"韩国料理","address":"徐汇区辛耕路152号(近天钥桥路)"},{"poiid":"B2094757D06FAAFC4292","title":"汇联商厦","lon":"121.44106","lat":"31.19328","category":"119","category_name":"商场","address":"徐汇区天钥桥路40-90号汇联商厦内(近肇嘉浜路)"},{"poiid":"B2094753D16EAAFF489A","title":"镰仓PASTA(美罗城店)","lon":"121.44026","lat":"31.1929","category":"94","category_name":"西餐厅","address":"徐汇区肇嘉浜路1111号美罗城B1楼(近漕溪北路)"},{"poiid":"B2094654DB69ABF4419E","title":"斯巴顿健身会所(徐家汇店)","lon":"121.44325","lat":"31.19303","category":"221","category_name":"健身中心","address":"徐汇区辛耕路100弄1号永新花苑1楼(近天钥桥路)"},{"poiid":"B2094757D66CA1F84292","title":"交大","lon":"121.441097586","lat":"31.1939997226","category":"500","category_name":"未知分类","address":"上海广元西路"},{"poiid":"B2094654DA6DA0FD439F","title":"山林熟食 天钥桥路店","lon":"121.440920054","lat":"31.192862793","category":"68","category_name":"快餐厅","address":"徐汇区天钥桥路40-90号汇联商厦1楼(近肇嘉浜路)"},{"poiid":"B2094757D069A7FD489D","title":"City shop 永新坊","lon":"121.44265387","lat":"31.192558456","category":"249","category_name":"购物服务","address":"上海徐家汇天钥桥路"},{"poiid":"B2094757D06FA0FD489C","title":"优派Upark KTV","lon":"121.44204234","lat":"31.192305189","category":"170","category_name":"KTV","address":"上海徐家汇辛耕路天钥桥路"},{"poiid":"B2094655D26BA2F8469A","title":"天钥桥路辛耕路","lon":"121.44194","lat":"31.19189","category":"38","category_name":"公交车站","address":"上海天钥桥路辛耕路车站"},{"poiid":"B2094654DB69A7FD429B","title":"大娘水饺 天钥桥路","lon":"121.44101498766","lat":"31.193759194911","category":"68","category_name":"快餐厅","address":"徐汇区天钥桥路57号(近肇嘉浜路)"},{"poiid":"B2094654DA6DA0FC4399","title":"中国银行上海市天钥桥路支行","lon":"121.4413","lat":"31.19281","category":"150","category_name":"银行","address":"上海市徐汇区天钥桥路90号"},{"poiid":"B2094655D26AA5FA409F","title":"快乐柠檬(天钥桥路店)","lon":"121.44194","lat":"31.19242","category":"113","category_name":"冷饮店","address":"徐汇区天钥桥路123号(近辛耕路)"},{"poiid":"B2094655D26AA5F94493","title":"白玉兰面包房","lon":"121.4415","lat":"31.19244","category":"112","category_name":"糕饼店","address":"徐汇区天钥桥路100号(近辛耕路)"},{"poiid":"B2094757D06EAAF9439B","title":"查餐厅 辛耕路店 Cha's","lon":"121.442147","lat":"31.192063","category":"72","category_name":"广东菜","address":"徐汇区天钥桥路131号永新坊B1楼18号(近辛耕路)"},{"poiid":"B2094757D06EAAFC489C","title":"糖品","lon":"121.44309857","lat":"31.192405671","category":"67","category_name":"甜品店","address":"徐汇区天钥桥路133号永新坊1楼7号铺(近辛耕路)"},{"poiid":"B2094654DA6DA0FC459F","title":"永新坊","lon":"121.44261","lat":"31.19207","category":"116","category_name":"特色商业街","address":"徐汇区天钥桥路131号(近辛耕路)"},{"poiid":"B2094655D26CA7F44092","title":"蓝蛙","lon":"121.44234","lat":"31.19201","category":"260","category_name":"其他","address":"徐汇区天钥桥路131号永新广场B1楼(近辛耕路)"},{"poiid":"B2094757D06AA0FA489C","title":"金桂皇朝 永新坊店","lon":"121.4425068","lat":"31.1920975","category":"72","category_name":"广东菜","address":"徐汇区天钥桥路131号永新坊B1楼16室(近辛耕路)"},{"poiid":"B2094751D565A2F44498","title":"百嘉乐V-Show主题KTV","lon":"121.441818","lat":"31.192683","category":"248","category_name":"生活娱乐","address":"天钥桥路辛耕路"},{"poiid":"B2094757D06FA3F5439A","title":"扬歌量贩式KTV(天钥桥路店)","lon":"121.4415","lat":"31.19231","category":"170","category_name":"KTV","address":"徐汇区天钥桥路88号汇联商厦4-5楼(近肇嘉浜路)"},{"poiid":"B2094757D06FA1F94599","title":"天天渔港(徐汇店)","lon":"121.44257","lat":"31.19222","category":"72","category_name":"广东菜","address":"徐汇区天钥桥路123号5-6楼(近辛耕路)"},{"poiid":"B2094654DB6BA5F94098","title":"麦当劳(徐家汇1号店)","lon":"121.44114","lat":"31.19391","category":"68","category_name":"快餐厅","address":"上海徐汇区华山路1988号(近广元西路)"},{"poiid":"B2094757D06FA3FB409E","title":"大众书局(美罗城店)","lon":"121.44048","lat":"31.19427","category":"125","category_name":"书店","address":"徐汇区肇嘉浜路1111号美罗城4楼(近漕溪北路)"},{"poiid":"B2094757D06FABFC4892","title":"天钥桥路","lon":"121.441136","lat":"31.1939","category":"500","category_name":"未知分类","address":"上海天钥桥路"},{"poiid":"B2094757D06FA1FE469F","title":"芋贵人(永新坊店)","lon":"121.441357186","lat":"31.1920914853","category":"67","category_name":"甜品店","address":"徐汇区天钥桥路133号永新坊1楼08A店铺"},{"poiid":"B2094751D26CA3FE449F","title":"大花猫海鲜自助烤涮","lon":"121.441398","lat":"31.192947","category":"247","category_name":"餐饮美食","address":"徐汇区天钥桥路93号3楼(近肇嘉浜路)"},{"poiid":"B2094757D06FABFA4593","title":"汇智大厦","lon":"121.443","lat":"31.1938","category":"46","category_name":"楼宇","address":"上海市,漕溪北路398号汇智大厦202室"},{"poiid":"B2094757D06FA2F8469B","title":"振鼎鸡(天钥桥路店)","lon":"121.442273579","lat":"31.1924886735","category":"68","category_name":"快餐厅","address":"徐汇区天钥桥路123号B1楼(近辛耕路)"},{"poiid":"B209475CD064ABF4469E","title":"翠华餐厅 永新坊店","lon":"121.442058054","lat":"31.191960793","category":"72","category_name":"广东菜","address":"徐汇区天钥桥路永新坊133号地铺靠近辛耕路"},{"poiid":"B2094757D068A2FB499A","title":"Pizzeria Alla Torre(港汇店)","lon":"121.4374","lat":"31.19448","category":"94","category_name":"西餐厅","address":"徐汇区虹桥路1号港汇恒隆广场内街(华山路口)"},{"poiid":"B2094757D06FA0F5429A","title":"仙踪林(天钥桥路店)","lon":"121.442085539","lat":"31.1924057945","category":"260","category_name":"其他","address":"徐汇区天钥桥路123号(近辛耕路)"},{"poiid":"B2094757D06FA0FC429B","title":"圣摩珂咖啡 美罗城店 ST-MARC Cafe","lon":"121.439514","lat":"31.193385","category":"65","category_name":"咖啡厅","address":"肇嘉浜路1111号美罗城B1楼五番街近漕溪北路"},{"poiid":"B2094757D06FABF9499A","title":"白玉兰餐厅","lon":"121.44171","lat":"31.19233","category":"76","category_name":"上海菜","address":"徐汇区天钥桥路98号白玉兰小吃2楼(天钥桥路辛耕路)"},{"poiid":"B2094757D06FABFC4192","title":"上海市第四中学","lon":"121.4418","lat":"31.19218","category":"55","category_name":"中学","address":"徐汇区天钥桥路100号(近辛耕路)"},{"poiid":"B2094757D06FA6FC4792","title":"肯德基 KFC (辛耕店)","lon":"121.442148","lat":"31.192253","category":"68","category_name":"快餐厅","address":"徐汇区天钥桥路214号哈尼美食广场(近辛耕路)"},{"poiid":"B2094757D06FA1F5419D","title":"东方既白(美罗店)","lon":"121.44100189","lat":"31.1935997","category":"68","category_name":"快餐厅","address":"徐汇区肇嘉浜路1111号美罗城1楼(近天钥桥路)"},{"poiid":"B2094757D66FA1FE419E","title":"呷铺呷铺","lon":"121.44111858","lat":"31.191994683","category":"247","category_name":"餐饮美食","address":"上海天钥桥路辛耕路"},{"poiid":"B2094757DA6EABF4489B","title":"芯尚造型(天钥桥路店)","lon":"121.441198000003","lat":"31.1930100000002","category":"248","category_name":"生活娱乐","address":"徐汇区天钥桥路86号(近肇嘉浜路)"},{"poiid":"B2094751DA69A4FA429C","title":"VSHOW","lon":"121.441895","lat":"31.192444","category":"248","category_name":"生活娱乐","address":"天钥桥路辛耕路"},{"poiid":"B2094654DA6DA0FD4493","title":"今一靓汤 天钥桥店","lon":"121.441376054","lat":"31.193075793","category":"72","category_name":"广东菜","address":"徐汇区天钥桥路123号(近辛耕路)"},{"poiid":"B2094757D068A6F84999","title":"阿玛尼护肤造型中心(天钥桥路店)","lon":"121.441825","lat":"31.191802","category":"148","category_name":"美容美发店","address":"上海徐汇区天钥桥路130号(近辛耕路)"},{"poiid":"B2094757D06FA2FD4093","title":"道顿堀酷酷璐章鱼丸子(肇嘉浜路店)","lon":"121.441845586","lat":"31.1949486747","category":"95","category_name":"日本料理","address":"徐汇区肇嘉浜路1033号徐家汇国际大厦1楼(近百思买)"},{"poiid":"B2094757DB69A1FB4699","title":"多喜寿司","lon":"121.4425068","lat":"31.1920975","category":"95","category_name":"日本料理","address":"徐汇区天钥桥路131号永新坊B1楼11室A(近辛耕路)"},{"poiid":"B2094750D76DA1F5439C","title":"斗香园(永新坊店)","lon":"121.442","lat":"31.192","category":"68","category_name":"快餐厅","address":"徐汇区天钥桥路131号永新坊B1楼08B室(近城市超市)"},{"poiid":"B2094751D26BA7FC449F","title":"牛NEW寿喜烧","lon":"121.442314","lat":"31.191993","category":"268","category_name":"自助","address":"徐汇区天钥桥路131号永新坊B1楼13号(近辛耕路)"},{"poiid":"B2094751D569A0FB459B","title":"永新坊查餐厅","lon":"121.442551","lat":"31.192062","category":"247","category_name":"餐饮美食","address":null},{"poiid":"B2094654DB69A7FD439A","title":"鸭王(徐汇店)","lon":"121.44052","lat":"31.19397","category":"260","category_name":"其他","address":"徐汇区天钥桥路20号西亚宾馆2楼(近肇家浜路)"},{"poiid":"B2094655D26AA0FB499A","title":"华尔街英语徐家汇分校","lon":"121.44121","lat":"31.19395","category":"247","category_name":"餐饮美食","address":"徐汇区天钥桥路1号煤科大厦1-3楼(肇嘉浜路口)"},{"poiid":"B2094757D06FA5FA4499","title":"招商银行(天钥桥支行)","lon":"121.441210985","lat":"31.1929673477","category":"150","category_name":"银行","address":"徐汇区天钥桥路86-1号(天钥桥路辛耕路)"},{"poiid":"B2094757D069A6FD4293","title":"韩式佳圆自助烤肉(徐家汇店)","lon":"121.442567586","lat":"31.192533694","category":"96","category_name":"韩国料理","address":"徐汇区辛耕路152号(近天钥桥路)"},{"poiid":"B2094757D06FAAFC4292","title":"汇联商厦","lon":"121.44106","lat":"31.19328","category":"119","category_name":"商场","address":"徐汇区天钥桥路40-90号汇联商厦内(近肇嘉浜路)"},{"poiid":"B2094753D16EAAFF489A","title":"镰仓PASTA(美罗城店)","lon":"121.44026","lat":"31.1929","category":"94","category_name":"西餐厅","address":"徐汇区肇嘉浜路1111号美罗城B1楼(近漕溪北路)"},{"poiid":"B2094654DB69ABF4419E","title":"斯巴顿健身会所(徐家汇店)","lon":"121.44325","lat":"31.19303","category":"221","category_name":"健身中心","address":"徐汇区辛耕路100弄1号永新花苑1楼(近天钥桥路)"},{"poiid":"B2094757D66CA1F84292","title":"交大","lon":"121.441097586","lat":"31.1939997226","category":"500","category_name":"未知分类","address":"上海广元西路"},{"poiid":"B2094654DA6DA0FD439F","title":"山林熟食 天钥桥路店","lon":"121.440920054","lat":"31.192862793","category":"68","category_name":"快餐厅","address":"徐汇区天钥桥路40-90号汇联商厦1楼(近肇嘉浜路)"},{"poiid":"B2094757D069A7FD489D","title":"City shop 永新坊","lon":"121.44265387","lat":"31.192558456","category":"249","category_name":"购物服务","address":"上海徐家汇天钥桥路"},{"poiid":"B2094757D06FA0FD489C","title":"优派Upark KTV","lon":"121.44204234","lat":"31.192305189","category":"170","category_name":"KTV","address":"上海徐家汇辛耕路天钥桥路"},{"poiid":"B2094655D26BA2F8469A","title":"天钥桥路辛耕路","lon":"121.44194","lat":"31.19189","category":"38","category_name":"公交车站","address":"上海天钥桥路辛耕路车站"},{"poiid":"B2094654DB69A7FD429B","title":"大娘水饺 天钥桥路","lon":"121.44101498766","lat":"31.193759194911","category":"68","category_name":"快餐厅","address":"徐汇区天钥桥路57号(近肇嘉浜路)"},{"poiid":"B2094654DA6DA0FC4399","title":"中国银行上海市天钥桥路支行","lon":"121.4413","lat":"31.19281","category":"150","category_name":"银行","address":"上海市徐汇区天钥桥路90号"},{"poiid":"B2094655D26AA5FA409F","title":"快乐柠檬(天钥桥路店)","lon":"121.44194","lat":"31.19242","category":"113","category_name":"冷饮店","address":"徐汇区天钥桥路123号(近辛耕路)"},{"poiid":"B2094655D26AA5F94493","title":"白玉兰面包房","lon":"121.4415","lat":"31.19244","category":"112","category_name":"糕饼店","address":"徐汇区天钥桥路100号(近辛耕路)"}]