[{"poiid":"B2094757D06FA3FF439D","title":"建国宾馆","lon":"121.43825","lat":"31.18946","category":"214","category_name":"四星级宾馆","address":"徐汇区漕溪北路439号(南丹路口)"},{"poiid":"B2094757D06FA3FD4692","title":"和记小菜 南丹店","lon":"121.43830584704","lat":"31.188882741901","category":"76","category_name":"上海菜","address":"徐汇区南丹东路188号(近天钥桥路)"},{"poiid":"B2094753D069A2F9469F","title":"上海电影博物馆","lon":"121.4371","lat":"31.18615","category":"182","category_name":"博物馆","address":"徐汇区漕溪北路595号(近南丹路)"},{"poiid":"B2094757D069AAFF449A","title":"一号线徐家汇站","lon":"121.437045586","lat":"31.1880640066","category":"500","category_name":"未知分类","address":"上海徐家汇"},{"poiid":"B2094757D065ABFA479A","title":"钱柜","lon":"121.438956586","lat":"31.1879476044","category":"500","category_name":"未知分类","address":"上海市徐汇区文定路"},{"poiid":"B2094757D069A1F9479F","title":"屋企汤馆","lon":"121.441382586","lat":"31.188287611","category":"72","category_name":"广东菜","address":"徐汇区天钥桥路386号3楼"},{"poiid":"B2094654DA6DA0F9439C","title":"上海电影制片厂","lon":"121.43727","lat":"31.18597","category":"63","category_name":"出版社","address":"漕溪北路595号"},{"poiid":"B2094757D068A7FC419D","title":"徐汇区人民政府","lon":"121.43708249","lat":"31.188646284","category":"500","category_name":"未知分类","address":"上海漕溪北路336号"},{"poiid":"B2094757D06FA3F84893","title":"一兆韦德(徐家汇店)","lon":"121.43818","lat":"31.18854","category":"221","category_name":"健身中心","address":"徐汇区南丹东路300号亚都商务楼9号1楼(近漕溪北路)"},{"poiid":"B2094753D56AA6FD479F","title":"鱼酷活鱼现烤","lon":"121.437927","lat":"31.189521","category":"247","category_name":"餐饮美食","address":"上海市 百脑汇二期三楼"},{"poiid":"B2094655D26EABFD4292","title":"建国宾馆九州厅","lon":"121.43804629194","lat":"31.189785273911","category":"247","category_name":"餐饮美食","address":"徐汇区漕溪北路439号建国宾馆查看地图"},{"poiid":"B2094757D068A6FA4498","title":"老尤面道","lon":"121.43697","lat":"31.18703","category":"71","category_name":"四川菜","address":"徐汇区漕溪北路749号2楼(近中国电信大楼)"},{"poiid":"B2094655D26FA5FD4499","title":"亚都国际名园","lon":"121.43816","lat":"31.187731","category":"47","category_name":"住宅区","address":"上海市徐汇区漕溪北路555号(南丹东路口)"},{"poiid":"B2094757D16EA2FB499D","title":"新东亚酒店","lon":"121.43825018","lat":"31.18978414","category":"217","category_name":"旅馆招待所","address":"徐汇区南丹东路238号"},{"poiid":"B2094757D064A1FA4293","title":"华鼎大厦","lon":"121.438","lat":"31.187","category":"46","category_name":"楼宇","address":"上海市徐汇区中山西路2368号"},{"poiid":"B2094654DB6AA3FC449A","title":"金轩大厦","lon":"121.43918","lat":"31.18889","category":"46","category_name":"楼宇","address":"北京西路1028号,江宁路168号"},{"poiid":"B2094757D068A7F84999","title":"明申中心大厦","lon":"121.439063","lat":"31.188064","category":"46","category_name":"楼宇","address":"鲁尔大厦位于铁西兴华南街5号"},{"poiid":"B2094757D068A2F44993","title":"新.九球会台球俱乐部","lon":"121.43999087","lat":"31.187864552","category":"171","category_name":"台球厅","address":"上海天钥桥路380弄30号3楼"},{"poiid":"B2094757D568A5FF4193","title":"上雅铁板烧(徐汇店)","lon":"121.438598099998","lat":"31.1886250000002","category":"269","category_name":"烧烤","address":"徐汇区南丹东路300号亚都商务楼9号(近漕溪北路)"},{"poiid":"B2094757D069A0FC449A","title":"康骏保健中心(南丹路店)","lon":"121.44","lat":"31.18916","category":"500","category_name":"未知分类","address":"上海徐汇区南丹东路209号  "},{"poiid":"B2094757D468AAFC4892","title":"上岛咖啡 南丹东路店 U.B.C. Coffee","lon":"121.4387008","lat":"31.1891607","category":"65","category_name":"咖啡厅","address":"徐汇区南丹东路238号新东亚大酒店3楼"},{"poiid":"B2094757DA6FA2FC439B","title":"韩国文化院","lon":"121.436972000002","lat":"31.1879380000003","category":"253","category_name":"校园生活","address":"徐汇区漕溪北路396号汇智大厦裙楼2-3楼(近虹桥路)"},{"poiid":"B2094757D065A2FC489E","title":"风尚*秀","lon":"121.437647","lat":"31.189299","category":"148","category_name":"美容美发店","address":"上海徐汇区南丹东路386号(近漕溪北路)"},{"poiid":"B2094654DB64A6FB479E","title":"如家快捷酒店(上海徐家汇店)","lon":"121.44154","lat":"31.18743","category":"216","category_name":"经济型连锁酒店","address":"上海市徐汇区天钥桥路400号(腾飞广场对面)"},{"poiid":"B2094752D669A7F4439A","title":"日月光","lon":"121.44101","lat":"31.187775","category":"247","category_name":"餐饮美食","address":"打浦桥"},{"poiid":"B2094750D66DA5FD4692","title":"天圣巫山烤全鱼","lon":"121.438926","lat":"31.189409","category":"247","category_name":"餐饮美食","address":null},{"poiid":"B2094752D368A7FC409D","title":"台塑王品","lon":"121.438644","lat":"31.189725","category":"247","category_name":"餐饮美食","address":null},{"poiid":"B2094654DB6AA7FA4998","title":"伊藤家(建国店)","lon":"121.43812","lat":"31.18977","category":"95","category_name":"日本料理","address":"徐汇区漕溪北路439号建国宾馆3楼(南丹路口)"},{"poiid":"B2094654DA6DA0F94499","title":"一杯屋","lon":"121.43788213161","lat":"31.189451008452","category":"269","category_name":"烧烤","address":"徐汇区漕溪北路577号101(近南丹路)"},{"poiid":"B2094750D768A1F9459D","title":"八间","lon":"121.439","lat":"31.1891","category":"95","category_name":"日本料理","address":"徐汇区南丹东路238号新东亚酒店1楼(近天钥桥路)"},{"poiid":"B2094753D269ABFD4298","title":"上海老站","lon":"121.438856","lat":"31.189558","category":"500","category_name":"未知分类","address":"上海市 上海市漕溪北路201号"},{"poiid":"B2094753DB65A5FC419E","title":"疯狂年糕","lon":"121.438949","lat":"31.187353","category":"247","category_name":"餐饮美食","address":"上海市 星游城"},{"poiid":"B2094752D665A1FB4799","title":"鎌倉ＰＡＳＴＡ","lon":"121.438941","lat":"31.189423","category":"247","category_name":"餐饮美食","address":"徐家汇美罗城五番街"},{"poiid":"B2094750DA6FABFD4593","title":"耶里夏利","lon":"121.438812","lat":"31.189483","category":"247","category_name":"餐饮美食","address":null},{"poiid":"B2094654DA6DA0FA419B","title":"久隆大厦","lon":"121.44021","lat":"31.18919","category":"46","category_name":"楼宇","address":"朝阳亚运村北炎黄艺术馆旁"},{"poiid":"B2094757D66EA4F9459D","title":"西堤","lon":"121.43969358","lat":"31.189633637","category":"500","category_name":"未知分类","address":"上海市徐汇区蒲西路"},{"poiid":"B2094757D06FABFD4692","title":"快乐柠檬(飞洲国际店)","lon":"121.43687","lat":"31.18839","category":"113","category_name":"冷饮店","address":"徐汇区零陵路899号飞洲国际广场B1楼"},{"poiid":"B2094750DA64A6FD499A","title":"德林酸菜鱼","lon":"121.438926","lat":"31.189409","category":"247","category_name":"餐饮美食","address":"龙漕路63"},{"poiid":"B2094757D064AAF44198","title":"DQ(天钥桥路店)","lon":"121.44338","lat":"31.18444","category":"68","category_name":"快餐厅","address":"徐汇区天钥桥路交通银行对面(近永新坊)"},{"poiid":"B2094750D26FA4F94892","title":"王品","lon":"121.439125","lat":"31.18955","category":"500","category_name":"未知分类","address":null},{"poiid":"B2094752DA6BA3F4469E","title":"八万人体育馆","lon":"121.439281","lat":"31.189384","category":"500","category_name":"未知分类","address":"上海市 天钥桥路666号"},{"poiid":"B2094752D46CA5FD4999","title":"eleven cafe 徐汇店","lon":"121.437391","lat":"31.187878","category":"247","category_name":"餐饮美食","address":"斜土路2899号甲B栋101"},{"poiid":"B2094655D26FA6FA489B","title":"创世纪花园","lon":"121.4399","lat":"31.185375","category":"47","category_name":"住宅区","address":"上海零陵路789弄"},{"poiid":"B2094750D56DA6FC459E","title":"insearch隐室趣真人密室逃脱","lon":"121.43975360061165","lat":"31.1872184517575","category":"248","category_name":"生活娱乐","address":"徐汇区天钥桥路380弄20号汇峰大厦1楼D室（近南丹东路）"},{"poiid":"B209475CD76CA5FF4198","title":"港汇恒隆广场","lon":"121.437339","lat":"31.188234","category":"500","category_name":"未知分类","address":"上海市 徐家汇"},{"poiid":"B2094757D76BABF5489C","title":"晴美餐厅 南丹东路店","lon":"121.43791","lat":"31.18881","category":"68","category_name":"快餐厅","address":"徐汇区南丹东路300号亚都商务楼9号1楼(近漕溪北路)"},{"poiid":"B2094757D06AA0F8479D","title":"春福饺子馆","lon":"121.43846","lat":"31.18932","category":"82","category_name":"东北菜","address":"徐汇区南丹东路275号(近漕溪北路)"},{"poiid":"B2094750D268A4FC4292","title":"佛拉明戈","lon":"121.439437","lat":"31.189411","category":"247","category_name":"餐饮美食","address":"騰飛"},{"poiid":"B2094654DB69A7FE4093","title":"葵园","lon":"121.43804629194","lat":"31.189785273911","category":"268","category_name":"自助","address":"徐汇区漕溪北路439号建国宾馆1楼(南丹路口)"},{"poiid":"B2094757D165A3F8489D","title":"塔哈儿新疆盛宴","lon":"121.44057858","lat":"31.185958565","category":"500","category_name":"未知分类","address":"上海体育馆"},{"poiid":"B2094757D06FA3FF439D","title":"建国宾馆","lon":"121.43825","lat":"31.18946","category":"214","category_name":"四星级宾馆","address":"徐汇区漕溪北路439号(南丹路口)"},{"poiid":"B2094757D06FA3FD4692","title":"和记小菜 南丹店","lon":"121.43830584704","lat":"31.188882741901","category":"76","category_name":"上海菜","address":"徐汇区南丹东路188号(近天钥桥路)"},{"poiid":"B2094753D069A2F9469F","title":"上海电影博物馆","lon":"121.4371","lat":"31.18615","category":"182","category_name":"博物馆","address":"徐汇区漕溪北路595号(近南丹路)"},{"poiid":"B2094757D069AAFF449A","title":"一号线徐家汇站","lon":"121.437045586","lat":"31.1880640066","category":"500","category_name":"未知分类","address":"上海徐家汇"},{"poiid":"B2094757D065ABFA479A","title":"钱柜","lon":"121.438956586","lat":"31.1879476044","category":"500","category_name":"未知分类","address":"上海市徐汇区文定路"},{"poiid":"B2094757D069A1F9479F","title":"屋企汤馆","lon":"121.441382586","lat":"31.188287611","category":"72","category_name":"广东菜","address":"徐汇区天钥桥路386号3楼"},{"poiid":"B2094654DA6DA0F9439C","title":"上海电影制片厂","lon":"121.43727","lat":"31.18597","category":"63","category_name":"出版社","address":"漕溪北路595号"},{"poiid":"B2094757D068A7FC419D","title":"徐汇区人民政府","lon":"121.43708249","lat":"31.188646284","category":"500","category_name":"未知分类","address":"上海漕溪北路336号"},{"poiid":"B2094757D06FA3F84893","title":"一兆韦德(徐家汇店)","lon":"121.43818","lat":"31.18854","category":"221","category_name":"健身中心","address":"徐汇区南丹东路300号亚都商务楼9号1楼(近漕溪北路)"},{"poiid":"B2094753D56AA6FD479F","title":"鱼酷活鱼现烤","lon":"121.437927","lat":"31.189521","category":"247","category_name":"餐饮美食","address":"上海市 百脑汇二期三楼"},{"poiid":"B2094655D26EABFD4292","title":"建国宾馆九州厅","lon":"121.43804629194","lat":"31.189785273911","category":"247","category_name":"餐饮美食","address":"徐汇区漕溪北路439号建国宾馆查看地图"},{"poiid":"B2094757D068A6FA4498","title":"老尤面道","lon":"121.43697","lat":"31.18703","category":"71","category_name":"四川菜","address":"徐汇区漕溪北路749号2楼(近中国电信大楼)"},{"poiid":"B2094655D26FA5FD4499","title":"亚都国际名园","lon":"121.43816","lat":"31.187731","category":"47","category_name":"住宅区","address":"上海市徐汇区漕溪北路555号(南丹东路口)"},{"poiid":"B2094757D16EA2FB499D","title":"新东亚酒店","lon":"121.43825018","lat":"31.18978414","category":"217","category_name":"旅馆招待所","address":"徐汇区南丹东路238号"},{"poiid":"B2094757D064A1FA4293","title":"华鼎大厦","lon":"121.438","lat":"31.187","category":"46","category_name":"楼宇","address":"上海市徐汇区中山西路2368号"},{"poiid":"B2094654DB6AA3FC449A","title":"金轩大厦","lon":"121.43918","lat":"31.18889","category":"46","category_name":"楼宇","address":"北京西路1028号,江宁路168号"},{"poiid":"B2094757D068A7F84999","title":"明申中心大厦","lon":"121.439063","lat":"31.188064","category":"46","category_name":"楼宇","address":"鲁尔大厦位于铁西兴华南街5号"},{"poiid":"B2094757D068A2F44993","title":"新.九球会台球俱乐部","lon":"121.43999087","lat":"31.187864552","category":"171","category_name":"台球厅","address":"上海天钥桥路380弄30号3楼"},{"poiid":"B2094757D568A5FF4193","title":"上雅铁板烧(徐汇店)","lon":"121.438598099998","lat":"31.1886250000002","category":"269","category_name":"烧烤","address":"徐汇区南丹东路300号亚都商务楼9号(近漕溪北路)"},{"poiid":"B2094757D069A0FC449A","title":"康骏保健中心(南丹路店)","lon":"121.44","lat":"31.18916","category":"500","category_name":"未知分类","address":"上海徐汇区南丹东路209号  "},{"poiid":"B2094757D468AAFC4892","title":"上岛咖啡 南丹东路店 U.B.C. Coffee","lon":"121.4387008","lat":"31.1891607","category":"65","category_name":"咖啡厅","address":"徐汇区南丹东路238号新东亚大酒店3楼"},{"poiid":"B2094757DA6FA2FC439B","title":"韩国文化院","lon":"121.436972000002","lat":"31.1879380000003","category":"253","category_name":"校园生活","address":"徐汇区漕溪北路396号汇智大厦裙楼2-3楼(近虹桥路)"},{"poiid":"B2094757D065A2FC489E","title":"风尚*秀","lon":"121.437647","lat":"31.189299","category":"148","category_name":"美容美发店","address":"上海徐汇区南丹东路386号(近漕溪北路)"},{"poiid":"B2094654DB64A6FB479E","title":"如家快捷酒店(上海徐家汇店)","lon":"121.44154","lat":"31.18743","category":"216","category_name":"经济型连锁酒店","address":"上海市徐汇区天钥桥路400号(腾飞广场对面)"},{"poiid":"B2094752D669A7F4439A","title":"日月光","lon":"121.44101","lat":"31.187775","category":"247","category_name":"餐饮美食","address":"打浦桥"},{"poiid":"B2094750D66DA5FD4692","title":"天圣巫山烤全鱼","lon":"121.438926","lat":"31.189409","category":"247","category_name":"餐饮美食","address":null},{"poiid":"B2094752D368A7FC409D","title":"台塑王品","lon":"121.438644","lat":"31.189725","category":"247","category_name":"餐饮美食","address":null},{"poiid":"B2094654DB6AA7FA4998","title":"伊藤家(建国店)","lon":"121.43812","lat":"31.18977","category":"95","category_name":"日本料理","address":"徐汇区漕溪北路439号建国宾馆3楼(南丹路口)"},{"poiid":"B2094654DA6DA0F94499","title":"一杯屋","lon":"121.43788213161","lat":"31.189451008452","category":"269","category_name":"烧烤","address":"徐汇区漕溪北路577号101(近南丹路)"},{"poiid":"B2094750D768A1F9459D","title":"八间","lon":"121.439","lat":"31.1891","category":"95","category_name":"日本料理","address":"徐汇区南丹东路238号新东亚酒店1楼(近天钥桥路)"},{"poiid":"B2094753D269ABFD4298","title":"上海老站","lon":"121.438856","lat":"31.189558","category":"500","category_name":"未知分类","address":"上海市 上海市漕溪北路201号"},{"poiid":"B2094753DB65A5FC419E","title":"疯狂年糕","lon":"121.438949","lat":"31.187353","category":"247","category_name":"餐饮美食","address":"上海市 星游城"},{"poiid":"B2094752D665A1FB4799","title":"鎌倉ＰＡＳＴＡ","lon":"121.438941","lat":"31.189423","category":"247","category_name":"餐饮美食","address":"徐家汇美罗城五番街"},{"poiid":"B2094750DA6FABFD4593","title":"耶里夏利","lon":"121.438812","lat":"31.189483","category":"247","category_name":"餐饮美食","address":null},{"poiid":"B2094654DA6DA0FA419B","title":"久隆大厦","lon":"121.44021","lat":"31.18919","category":"46","category_name":"楼宇","address":"朝阳亚运村北炎黄艺术馆旁"},{"poiid":"B2094757D66EA4F9459D","title":"西堤","lon":"121.43969358","lat":"31.189633637","category":"500","category_name":"未知分类","address":"上海市徐汇区蒲西路"},{"poiid":"B2094757D06FABFD4692","title":"快乐柠檬(飞洲国际店)","lon":"121.43687","lat":"31.18839","category":"113","category_name":"冷饮店","address":"徐汇区零陵路899号飞洲国际广场B1楼"},{"poiid":"B2094750DA64A6FD499A","title":"德林酸菜鱼","lon":"121.438926","lat":"31.189409","category":"247","category_name":"餐饮美食","address":"龙漕路63"},{"poiid":"B2094757D064AAF44198","title":"DQ(天钥桥路店)","lon":"121.44338","lat":"31.18444","category":"68","category_name":"快餐厅","address":"徐汇区天钥桥路交通银行对面(近永新坊)"},{"poiid":"B2094750D26FA4F94892","title":"王品","lon":"121.439125","lat":"31.18955","category":"500","category_name":"未知分类","address":null},{"poiid":"B2094752DA6BA3F4469E","title":"八万人体育馆","lon":"121.439281","lat":"31.189384","category":"500","category_name":"未知分类","address":"上海市 天钥桥路666号"},{"poiid":"B2094752D46CA5FD4999","title":"eleven cafe 徐汇店","lon":"121.437391","lat":"31.187878","category":"247","category_name":"餐饮美食","address":"斜土路2899号甲B栋101"},{"poiid":"B2094655D26FA6FA489B","title":"创世纪花园","lon":"121.4399","lat":"31.185375","category":"47","category_name":"住宅区","address":"上海零陵路789弄"},{"poiid":"B2094750D56DA6FC459E","title":"insearch隐室趣真人密室逃脱","lon":"121.43975360061165","lat":"31.1872184517575","category":"248","category_name":"生活娱乐","address":"徐汇区天钥桥路380弄20号汇峰大厦1楼D室（近南丹东路）"},{"poiid":"B209475CD76CA5FF4198","title":"港汇恒隆广场","lon":"121.437339","lat":"31.188234","category":"500","category_name":"未知分类","address":"上海市 徐家汇"},{"poiid":"B2094757D76BABF5489C","title":"晴美餐厅 南丹东路店","lon":"121.43791","lat":"31.18881","category":"68","category_name":"快餐厅","address":"徐汇区南丹东路300号亚都商务楼9号1楼(近漕溪北路)"},{"poiid":"B2094757D06AA0F8479D","title":"春福饺子馆","lon":"121.43846","lat":"31.18932","category":"82","category_name":"东北菜","address":"徐汇区南丹东路275号(近漕溪北路)"},{"poiid":"B2094750D268A4FC4292","title":"佛拉明戈","lon":"121.439437","lat":"31.189411","category":"247","category_name":"餐饮美食","address":"騰飛"},{"poiid":"B2094654DB69A7FE4093","title":"葵园","lon":"121.43804629194","lat":"31.189785273911","category":"268","category_name":"自助","address":"徐汇区漕溪北路439号建国宾馆1楼(南丹路口)"},{"poiid":"B2094757D165A3F8489D","title":"塔哈儿新疆盛宴","lon":"121.44057858","lat":"31.185958565","category":"500","category_name":"未知分类","address":"上海体育馆"},{"poiid":"B2094757D06FA3FF439D","title":"建国宾馆","lon":"121.43825","lat":"31.18946","category":"214","category_name":"四星级宾馆","address":"徐汇区漕溪北路439号(南丹路口)"},{"poiid":"B2094757D06FA3FD4692","title":"和记小菜 南丹店","lon":"121.43830584704","lat":"31.188882741901","category":"76","category_name":"上海菜","address":"徐汇区南丹东路188号(近天钥桥路)"},{"poiid":"B2094753D069A2F9469F","title":"上海电影博物馆","lon":"121.4371","lat":"31.18615","category":"182","category_name":"博物馆","address":"徐汇区漕溪北路595号(近南丹路)"},{"poiid":"B2094757D069AAFF449A","title":"一号线徐家汇站","lon":"121.437045586","lat":"31.1880640066","category":"500","category_name":"未知分类","address":"上海徐家汇"},{"poiid":"B2094757D065ABFA479A","title":"钱柜","lon":"121.438956586","lat":"31.1879476044","category":"500","category_name":"未知分类","address":"上海市徐汇区文定路"},{"poiid":"B2094757D069A1F9479F","title":"屋企汤馆","lon":"121.441382586","lat":"31.188287611","category":"72","category_name":"广东菜","address":"徐汇区天钥桥路386号3楼"},{"poiid":"B2094654DA6DA0F9439C","title":"上海电影制片厂","lon":"121.43727","lat":"31.18597","category":"63","category_name":"出版社","address":"漕溪北路595号"},{"poiid":"B2094757D068A7FC419D","title":"徐汇区人民政府","lon":"121.43708249","lat":"31.188646284","category":"500","category_name":"未知分类","address":"上海漕溪北路336号"},{"poiid":"B2094757D06FA3F84893","title":"一兆韦德(徐家汇店)","lon":"121.43818","lat":"31.18854","category":"221","category_name":"健身中心","address":"徐汇区南丹东路300号亚都商务楼9号1楼(近漕溪北路)"},{"poiid":"B2094753D56AA6FD479F","title":"鱼酷活鱼现烤","lon":"121.437927","lat":"31.189521","category":"247","category_name":"餐饮美食","address":"上海市 百脑汇二期三楼"},{"poiid":"B2094655D26EABFD4292","title":"建国宾馆九州厅","lon":"121.43804629194","lat":"31.189785273911","category":"247","category_name":"餐饮美食","address":"徐汇区漕溪北路439号建国宾馆查看地图"},{"poiid":"B2094757D068A6FA4498","title":"老尤面道","lon":"121.43697","lat":"31.18703","category":"71","category_name":"四川菜","address":"徐汇区漕溪北路749号2楼(近中国电信大楼)"},{"poiid":"B2094655D26FA5FD4499","title":"亚都国际名园","lon":"121.43816","lat":"31.187731","category":"47","category_name":"住宅区","address":"上海市徐汇区漕溪北路555号(南丹东路口)"},{"poiid":"B2094757D16EA2FB499D","title":"新东亚酒店","lon":"121.43825018","lat":"31.18978414","category":"217","category_name":"旅馆招待所","address":"徐汇区南丹东路238号"},{"poiid":"B2094757D064A1FA4293","title":"华鼎大厦","lon":"121.438","lat":"31.187","category":"46","category_name":"楼宇","address":"上海市徐汇区中山西路2368号"},{"poiid":"B2094654DB6AA3FC449A","title":"金轩大厦","lon":"121.43918","lat":"31.18889","category":"46","category_name":"楼宇","address":"北京西路1028号,江宁路168号"},{"poiid":"B2094757D068A7F84999","title":"明申中心大厦","lon":"121.439063","lat":"31.188064","category":"46","category_name":"楼宇","address":"鲁尔大厦位于铁西兴华南街5号"},{"poiid":"B2094757D068A2F44993","title":"新.九球会台球俱乐部","lon":"121.43999087","lat":"31.187864552","category":"171","category_name":"台球厅","address":"上海天钥桥路380弄30号3楼"},{"poiid":"B2094757D568A5FF4193","title":"上雅铁板烧(徐汇店)","lon":"121.438598099998","lat":"31.1886250000002","category":"269","category_name":"烧烤","address":"徐汇区南丹东路300号亚都商务楼9号(近漕溪北路)"},{"poiid":"B2094757D069A0FC449A","title":"康骏保健中心(南丹路店)","lon":"121.44","lat":"31.18916","category":"500","category_name":"未知分类","address":"上海徐汇区南丹东路209号  "},{"poiid":"B2094757D468AAFC4892","title":"上岛咖啡 南丹东路店 U.B.C. Coffee","lon":"121.4387008","lat":"31.1891607","category":"65","category_name":"咖啡厅","address":"徐汇区南丹东路238号新东亚大酒店3楼"},{"poiid":"B2094757DA6FA2FC439B","title":"韩国文化院","lon":"121.436972000002","lat":"31.1879380000003","category":"253","category_name":"校园生活","address":"徐汇区漕溪北路396号汇智大厦裙楼2-3楼(近虹桥路)"},{"poiid":"B2094757D065A2FC489E","title":"风尚*秀","lon":"121.437647","lat":"31.189299","category":"148","category_name":"美容美发店","address":"上海徐汇区南丹东路386号(近漕溪北路)"},{"poiid":"B2094654DB64A6FB479E","title":"如家快捷酒店(上海徐家汇店)","lon":"121.44154","lat":"31.18743","category":"216","category_name":"经济型连锁酒店","address":"上海市徐汇区天钥桥路400号(腾飞广场对面)"},{"poiid":"B2094752D669A7F4439A","title":"日月光","lon":"121.44101","lat":"31.187775","category":"247","category_name":"餐饮美食","address":"打浦桥"},{"poiid":"B2094750D66DA5FD4692","title":"天圣巫山烤全鱼","lon":"121.438926","lat":"31.189409","category":"247","category_name":"餐饮美食","address":null},{"poiid":"B2094752D368A7FC409D","title":"台塑王品","lon":"121.438644","lat":"31.189725","category":"247","category_name":"餐饮美食","address":null},{"poiid":"B2094654DB6AA7FA4998","title":"伊藤家(建国店)","lon":"121.43812","lat":"31.18977","category":"95","category_name":"日本料理","address":"徐汇区漕溪北路439号建国宾馆3楼(南丹路口)"},{"poiid":"B2094654DA6DA0F94499","title":"一杯屋","lon":"121.43788213161","lat":"31.189451008452","category":"269","category_name":"烧烤","address":"徐汇区漕溪北路577号101(近南丹路)"},{"poiid":"B2094750D768A1F9459D","title":"八间","lon":"121.439","lat":"31.1891","category":"95","category_name":"日本料理","address":"徐汇区南丹东路238号新东亚酒店1楼(近天钥桥路)"},{"poiid":"B2094753D269ABFD4298","title":"上海老站","lon":"121.438856","lat":"31.189558","category":"500","category_name":"未知分类","address":"上海市 上海市漕溪北路201号"},{"poiid":"B2094753DB65A5FC419E","title":"疯狂年糕","lon":"121.438949","lat":"31.187353","category":"247","category_name":"餐饮美食","address":"上海市 星游城"},{"poiid":"B2094752D665A1FB4799","title":"鎌倉ＰＡＳＴＡ","lon":"121.438941","lat":"31.189423","category":"247","category_name":"餐饮美食","address":"徐家汇美罗城五番街"},{"poiid":"B2094750DA6FABFD4593","title":"耶里夏利","lon":"121.438812","lat":"31.189483","category":"247","category_name":"餐饮美食","address":null},{"poiid":"B2094654DA6DA0FA419B","title":"久隆大厦","lon":"121.44021","lat":"31.18919","category":"46","category_name":"楼宇","address":"朝阳亚运村北炎黄艺术馆旁"},{"poiid":"B2094757D66EA4F9459D","title":"西堤","lon":"121.43969358","lat":"31.189633637","category":"500","category_name":"未知分类","address":"上海市徐汇区蒲西路"},{"poiid":"B2094757D06FABFD4692","title":"快乐柠檬(飞洲国际店)","lon":"121.43687","lat":"31.18839","category":"113","category_name":"冷饮店","address":"徐汇区零陵路899号飞洲国际广场B1楼"},{"poiid":"B2094750DA64A6FD499A","title":"德林酸菜鱼","lon":"121.438926","lat":"31.189409","category":"247","category_name":"餐饮美食","address":"龙漕路63"},{"poiid":"B2094757D064AAF44198","title":"DQ(天钥桥路店)","lon":"121.44338","lat":"31.18444","category":"68","category_name":"快餐厅","address":"徐汇区天钥桥路交通银行对面(近永新坊)"},{"poiid":"B2094750D26FA4F94892","title":"王品","lon":"121.439125","lat":"31.18955","category":"500","category_name":"未知分类","address":null},{"poiid":"B2094752DA6BA3F4469E","title":"八万人体育馆","lon":"121.439281","lat":"31.189384","category":"500","category_name":"未知分类","address":"上海市 天钥桥路666号"},{"poiid":"B2094752D46CA5FD4999","title":"eleven cafe 徐汇店","lon":"121.437391","lat":"31.187878","category":"247","category_name":"餐饮美食","address":"斜土路2899号甲B栋101"},{"poiid":"B2094655D26FA6FA489B","title":"创世纪花园","lon":"121.4399","lat":"31.185375","category":"47","category_name":"住宅区","address":"上海零陵路789弄"},{"poiid":"B2094750D56DA6FC459E","title":"insearch隐室趣真人密室逃脱","lon":"121.43975360061165","lat":"31.1872184517575","category":"248","category_name":"生活娱乐","address":"徐汇区天钥桥路380弄20号汇峰大厦1楼D室（近南丹东路）"},{"poiid":"B209475CD76CA5FF4198","title":"港汇恒隆广场","lon":"121.437339","lat":"31.188234","category":"500","category_name":"未知分类","address":"上海市 徐家汇"},{"poiid":"B2094757D76BABF5489C","title":"晴美餐厅 南丹东路店","lon":"121.43791","lat":"31.18881","category":"68","category_name":"快餐厅","address":"徐汇区南丹东路300号亚都商务楼9号1楼(近漕溪北路)"},{"poiid":"B2094757D06AA0F8479D","title":"春福饺子馆","lon":"121.43846","lat":"31.18932","category":"82","category_name":"东北菜","address":"徐汇区南丹东路275号(近漕溪北路)"},{"poiid":"B2094750D268A4FC4292","title":"佛拉明戈","lon":"121.439437","lat":"31.189411","category":"247","category_name":"餐饮美食","address":"騰飛"},{"poiid":"B2094654DB69A7FE4093","title":"葵园","lon":"121.43804629194","lat":"31.189785273911","category":"268","category_name":"自助","address":"徐汇区漕溪北路439号建国宾馆1楼(南丹路口)"},{"poiid":"B2094757D165A3F8489D","title":"塔哈儿新疆盛宴","lon":"121.44057858","lat":"31.185958565","category":"500","category_name":"未知分类","address":"上海体育馆"},{"poiid":"B2094757D06FA3FF439D","title":"建国宾馆","lon":"121.43825","lat":"31.18946","category":"214","category_name":"四星级宾馆","address":"徐汇区漕溪北路439号(南丹路口)"},{"poiid":"B2094757D06FA3FD4692","title":"和记小菜 南丹店","lon":"121.43830584704","lat":"31.188882741901","category":"76","category_name":"上海菜","address":"徐汇区南丹东路188号(近天钥桥路)"},{"poiid":"B2094753D069A2F9469F","title":"上海电影博物馆","lon":"121.4371","lat":"31.18615","category":"182","category_name":"博物馆","address":"徐汇区漕溪北路595号(近南丹路)"},{"poiid":"B2094757D069AAFF449A","title":"一号线徐家汇站","lon":"121.437045586","lat":"31.1880640066","category":"500","category_name":"未知分类","address":"上海徐家汇"},{"poiid":"B2094757D065ABFA479A","title":"钱柜","lon":"121.438956586","lat":"31.1879476044","category":"500","category_name":"未知分类","address":"上海市徐汇区文定路"},{"poiid":"B2094757D069A1F9479F","title":"屋企汤馆","lon":"121.441382586","lat":"31.188287611","category":"72","category_name":"广东菜","address":"徐汇区天钥桥路386号3楼"},{"poiid":"B2094654DA6DA0F9439C","title":"上海电影制片厂","lon":"121.43727","lat":"31.18597","category":"63","category_name":"出版社","address":"漕溪北路595号"},{"poiid":"B2094757D068A7FC419D","title":"徐汇区人民政府","lon":"121.43708249","lat":"31.188646284","category":"500","category_name":"未知分类","address":"上海漕溪北路336号"},{"poiid":"B2094757D06FA3F84893","title":"一兆韦德(徐家汇店)","lon":"121.43818","lat":"31.18854","category":"221","category_name":"健身中心","address":"徐汇区南丹东路300号亚都商务楼9号1楼(近漕溪北路)"},{"poiid":"B2094753D56AA6FD479F","title":"鱼酷活鱼现烤","lon":"121.437927","lat":"31.189521","category":"247","category_name":"餐饮美食","address":"上海市 百脑汇二期三楼"},{"poiid":"B2094655D26EABFD4292","title":"建国宾馆九州厅","lon":"121.43804629194","lat":"31.189785273911","category":"247","category_name":"餐饮美食","address":"徐汇区漕溪北路439号建国宾馆查看地图"},{"poiid":"B2094757D068A6FA4498","title":"老尤面道","lon":"121.43697","lat":"31.18703","category":"71","category_name":"四川菜","address":"徐汇区漕溪北路749号2楼(近中国电信大楼)"},{"poiid":"B2094655D26FA5FD4499","title":"亚都国际名园","lon":"121.43816","lat":"31.187731","category":"47","category_name":"住宅区","address":"上海市徐汇区漕溪北路555号(南丹东路口)"},{"poiid":"B2094757D16EA2FB499D","title":"新东亚酒店","lon":"121.43825018","lat":"31.18978414","category":"217","category_name":"旅馆招待所","address":"徐汇区南丹东路238号"},{"poiid":"B2094757D064A1FA4293","title":"华鼎大厦","lon":"121.438","lat":"31.187","category":"46","category_name":"楼宇","address":"上海市徐汇区中山西路2368号"},{"poiid":"B2094654DB6AA3FC449A","title":"金轩大厦","lon":"121.43918","lat":"31.18889","category":"46","category_name":"楼宇","address":"北京西路1028号,江宁路168号"},{"poiid":"B2094757D068A7F84999","title":"明申中心大厦","lon":"121.439063","lat":"31.188064","category":"46","category_name":"楼宇","address":"鲁尔大厦位于铁西兴华南街5号"},{"poiid":"B2094757D068A2F44993","title":"新.九球会台球俱乐部","lon":"121.43999087","lat":"31.187864552","category":"171","category_name":"台球厅","address":"上海天钥桥路380弄30号3楼"},{"poiid":"B2094757D568A5FF4193","title":"上雅铁板烧(徐汇店)","lon":"121.438598099998","lat":"31.1886250000002","category":"269","category_name":"烧烤","address":"徐汇区南丹东路300号亚都商务楼9号(近漕溪北路)"},{"poiid":"B2094757D069A0FC449A","title":"康骏保健中心(南丹路店)","lon":"121.44","lat":"31.18916","category":"500","category_name":"未知分类","address":"上海徐汇区南丹东路209号  "},{"poiid":"B2094757D468AAFC4892","title":"上岛咖啡 南丹东路店 U.B.C. Coffee","lon":"121.4387008","lat":"31.1891607","category":"65","category_name":"咖啡厅","address":"徐汇区南丹东路238号新东亚大酒店3楼"},{"poiid":"B2094757DA6FA2FC439B","title":"韩国文化院","lon":"121.436972000002","lat":"31.1879380000003","category":"253","category_name":"校园生活","address":"徐汇区漕溪北路396号汇智大厦裙楼2-3楼(近虹桥路)"},{"poiid":"B2094757D065A2FC489E","title":"风尚*秀","lon":"121.437647","lat":"31.189299","category":"148","category_name":"美容美发店","address":"上海徐汇区南丹东路386号(近漕溪北路)"},{"poiid":"B2094654DB64A6FB479E","title":"如家快捷酒店(上海徐家汇店)","lon":"121.44154","lat":"31.18743","category":"216","category_name":"经济型连锁酒店","address":"上海市徐汇区天钥桥路400号(腾飞广场对面)"},{"poiid":"B2094752D669A7F4439A","title":"日月光","lon":"121.44101","lat":"31.187775","category":"247","category_name":"餐饮美食","address":"打浦桥"},{"poiid":"B2094750D66DA5FD4692","title":"天圣巫山烤全鱼","lon":"121.438926","lat":"31.189409","category":"247","category_name":"餐饮美食","address":null},{"poiid":"B2094752D368A7FC409D","title":"台塑王品","lon":"121.438644","lat":"31.189725","category":"247","category_name":"餐饮美食","address":null},{"poiid":"B2094654DB6AA7FA4998","title":"伊藤家(建国店)","lon":"121.43812","lat":"31.18977","category":"95","category_name":"日本料理","address":"徐汇区漕溪北路439号建国宾馆3楼(南丹路口)"},{"poiid":"B2094654DA6DA0F94499","title":"一杯屋","lon":"121.43788213161","lat":"31.189451008452","category":"269","category_name":"烧烤","address":"徐汇区漕溪北路577号101(近南丹路)"},{"poiid":"B2094750D768A1F9459D","title":"八间","lon":"121.439","lat":"31.1891","category":"95","category_name":"日本料理","address":"徐汇区南丹东路238号新东亚酒店1楼(近天钥桥路)"},{"poiid":"B2094753D269ABFD4298","title":"上海老站","lon":"121.438856","lat":"31.189558","category":"500","category_name":"未知分类","address":"上海市 上海市漕溪北路201号"},{"poiid":"B2094753DB65A5FC419E","title":"疯狂年糕","lon":"121.438949","lat":"31.187353","category":"247","category_name":"餐饮美食","address":"上海市 星游城"},{"poiid":"B2094752D665A1FB4799","title":"鎌倉ＰＡＳＴＡ","lon":"121.438941","lat":"31.189423","category":"247","category_name":"餐饮美食","address":"徐家汇美罗城五番街"},{"poiid":"B2094750DA6FABFD4593","title":"耶里夏利","lon":"121.438812","lat":"31.189483","category":"247","category_name":"餐饮美食","address":null},{"poiid":"B2094654DA6DA0FA419B","title":"久隆大厦","lon":"121.44021","lat":"31.18919","category":"46","category_name":"楼宇","address":"朝阳亚运村北炎黄艺术馆旁"},{"poiid":"B2094757D66EA4F9459D","title":"西堤","lon":"121.43969358","lat":"31.189633637","category":"500","category_name":"未知分类","address":"上海市徐汇区蒲西路"},{"poiid":"B2094757D06FABFD4692","title":"快乐柠檬(飞洲国际店)","lon":"121.43687","lat":"31.18839","category":"113","category_name":"冷饮店","address":"徐汇区零陵路899号飞洲国际广场B1楼"},{"poiid":"B2094750DA64A6FD499A","title":"德林酸菜鱼","lon":"121.438926","lat":"31.189409","category":"247","category_name":"餐饮美食","address":"龙漕路63"},{"poiid":"B2094757D064AAF44198","title":"DQ(天钥桥路店)","lon":"121.44338","lat":"31.18444","category":"68","category_name":"快餐厅","address":"徐汇区天钥桥路交通银行对面(近永新坊)"},{"poiid":"B2094750D26FA4F94892","title":"王品","lon":"121.439125","lat":"31.18955","category":"500","category_name":"未知分类","address":null},{"poiid":"B2094752DA6BA3F4469E","title":"八万人体育馆","lon":"121.439281","lat":"31.189384","category":"500","category_name":"未知分类","address":"上海市 天钥桥路666号"},{"poiid":"B2094752D46CA5FD4999","title":"eleven cafe 徐汇店","lon":"121.437391","lat":"31.187878","category":"247","category_name":"餐饮美食","address":"斜土路2899号甲B栋101"},{"poiid":"B2094655D26FA6FA489B","title":"创世纪花园","lon":"121.4399","lat":"31.185375","category":"47","category_name":"住宅区","address":"上海零陵路789弄"},{"poiid":"B2094750D56DA6FC459E","title":"insearch隐室趣真人密室逃脱","lon":"121.43975360061165","lat":"31.1872184517575","category":"248","category_name":"生活娱乐","address":"徐汇区天钥桥路380弄20号汇峰大厦1楼D室（近南丹东路）"},{"poiid":"B209475CD76CA5FF4198","title":"港汇恒隆广场","lon":"121.437339","lat":"31.188234","category":"500","category_name":"未知分类","address":"上海市 徐家汇"},{"poiid":"B2094757D76BABF5489C","title":"晴美餐厅 南丹东路店","lon":"121.43791","lat":"31.18881","category":"68","category_name":"快餐厅","address":"徐汇区南丹东路300号亚都商务楼9号1楼(近漕溪北路)"},{"poiid":"B2094757D06AA0F8479D","title":"春福饺子馆","lon":"121.43846","lat":"31.18932","category":"82","category_name":"东北菜","address":"徐汇区南丹东路275号(近漕溪北路)"},{"poiid":"B2094750D268A4FC4292","title":"佛拉明戈","lon":"121.439437","lat":"31.189411","category":"247","category_name":"餐饮美食","address":"騰飛"},{"poiid":"B2094654DB69A7FE4093","title":"葵园","lon":"121.43804629194","lat":"31.189785273911","category":"268","category_name":"自助","address":"徐汇区漕溪北路439号建国宾馆1楼(南丹路口)"},{"poiid":"B2094757D165A3F8489D","title":"塔哈儿新疆盛宴","lon":"121.44057858","lat":"31.185958565","category":"500","category_name":"未知分类","address":"上海体育馆"}]