[{"poiid":"B2094655D26AA0F84799","title":"上海中医药大学附属曙光医院","lon":"121.47867","lat":"31.22293","category":"162","category_name":"医院","address":"卢湾区普安路185号(近淮海公园)"},{"poiid":"B2094655D36CA1FE409C","title":"寿宁路","lon":"121.48061","lat":"31.22345","category":"38","category_name":"公交车站","address":""},{"poiid":"B2094654DA6EAAFE4998","title":"大上海时代广场","lon":"121.4789","lat":"31.22477","category":"119","category_name":"商场","address":"浦东区张杨路502号(浦东南路口)"},{"poiid":"B2094753D76FAAFA449C","title":"上海滩国泰旗舰店","lon":"121.466011","lat":"31.216125","category":"249","category_name":"购物服务","address":"淮海中路868号"},{"poiid":"B209475CD564A7F84292","title":"上海滩新天地店","lon":"121.47463","lat":"31.22164","category":"119","category_name":"商场","address":"\"太仓路181弄新天地北里15号\r\n\""},{"poiid":"B209475CD564A7F8439E","title":"上海滩中信泰富店","lon":"121.45602","lat":"31.22851","category":"119","category_name":"商场","address":"\"南京西路1168号中信泰富广场，店铺号221.\r\n\""},{"poiid":"B209475CD564A7F84392","title":"上海滩浦东香格里拉店","lon":"121.50058","lat":"31.23634","category":"119","category_name":"商场","address":"浦东富成路33号香格里拉酒店内大堂层"},{"poiid":"B2094654DA6EAAF8499A","title":"万裕国际影城(淮海中路店)","lon":"121.478684","lat":"31.224496","category":"178","category_name":"电影院","address":"淮海中路93-99号大上海时代广场L6"},{"poiid":"B2094757D06EAAF84198","title":"韩膳宫 淮海中路店","lon":"121.478155054","lat":"31.224894793","category":"247","category_name":"餐饮美食","address":"卢湾区淮海中路138号无限度广场5楼(近普安路)"},{"poiid":"B2094757D064A1FD449A","title":"地铁8号线大世界站","lon":"121.478748638","lat":"31.2230810477","category":"36","category_name":"地铁站","address":"上海大世界站"},{"poiid":"B2094757D06EAAFF429D","title":"揽香川菜馆 无限度广场店","lon":"121.478155054","lat":"31.224894793","category":"247","category_name":"餐饮美食","address":"卢湾区淮海中路138号无限度广场4楼(近普安路)"},{"poiid":"B2094757D06FA5FF499D","title":"新天地太平桥人工湖","lon":"121.479294","lat":"31.222233","category":"196","category_name":"公园","address":"上海济南路"},{"poiid":"B2094757D66CA4FB499C","title":"好樂迪","lon":"121.477838738","lat":"31.2232501514","category":"500","category_name":"未知分类","address":"上海市黄浦区黄陂南路"},{"poiid":"B2094757D06FA1F8489D","title":"淮海公园","lon":"121.47755186","lat":"31.222709558","category":"196","category_name":"公园","address":"卢湾区淮海中路177号(近普安路)"},{"poiid":"B2094654DA6EAAFC429C","title":"曙光大厦","lon":"121.47886","lat":"31.22255","category":"46","category_name":"楼宇","address":"静安区西康路946号"},{"poiid":"B2094654DA6EAAF8479D","title":"满记甜品 时代广场店","lon":"121.478519054","lat":"31.224573793","category":"67","category_name":"甜品店","address":"卢湾区淮海中路99号大上海时代广场B1楼K7-K8(柳林路口)"},{"poiid":"B2094757D66BA3F94698","title":"伊莎贝尔 Trattoria Isabelle","lon":"121.479601054","lat":"31.221654793","category":"98","category_name":"意式菜品餐厅","address":"卢湾区吉安路11号(湖滨路崇德路间)"},{"poiid":"B2094753D46AA1FD459D","title":"环球港","lon":"121.480438","lat":"31.22241","category":"500","category_name":"未知分类","address":"上海市 中山北路"},{"poiid":"B2094654DA6EAAFC469E","title":"上海时光整形外科医院","lon":"121.47886","lat":"31.22255","category":"162","category_name":"医院","address":"卢湾区普安路189号曙光大厦2楼(近淮海公园)"},{"poiid":"B2094757D568A4FA4692","title":"Green Massage新天地店","lon":"121.4773631","lat":"31.22202611","category":"149","category_name":"洗浴推拿场所","address":"太仓路58号"},{"poiid":"B2094757D06EAAF9419C","title":"汤城小厨(时代广场店)","lon":"121.47876","lat":"31.22429","category":"72","category_name":"广东菜","address":"卢湾区淮海中路99号大上海时代广场4楼401-402号(柳林路口)"},{"poiid":"B2094655D26EA6F54192","title":"大家乐(时代店)","lon":"121.47912","lat":"31.22467","category":"68","category_name":"快餐厅","address":"卢湾区淮海中路99号大上海时代广场B1楼(柳林路口)"},{"poiid":"B2094757D068ABF5419F","title":"禾绿回转寿司(海慈店)","lon":"121.47761","lat":"31.2243","category":"95","category_name":"日本料理","address":"卢湾区淮海中路158号海慈大厦2楼(近普安路)"},{"poiid":"B2094655D269A4FB4798","title":"ZARA(时代广场店)","lon":"121.47867","lat":"31.22439","category":"141","category_name":"服装鞋帽皮具店","address":"卢湾区淮海中路111号大上海时代广场(近普安路)"},{"poiid":"B2094654DA6EAAF8479E","title":"葡京茶餐厅(淮海店)","lon":"121.4789","lat":"31.22477","category":"72","category_name":"广东菜","address":"卢湾区淮海中路99号大上海时代广场B1楼(柳林路口)"},{"poiid":"B2094757D16CA6F9479F","title":"麦德龙餐饮通西藏南路商场","lon":"121.48024373","lat":"31.224242172","category":"68","category_name":"快餐厅","address":"卢湾区西藏南路228号永银大厦2楼(近淮海中路)"},{"poiid":"B2094654DA6EABFB4198","title":"巴辣子","lon":"121.48039970258","lat":"31.223424021383","category":"71","category_name":"四川菜","address":"卢湾区寿宁路71弄7号(柳林路西藏南路间)"},{"poiid":"B2094654DA6EABFB499B","title":"上海市比乐中学","lon":"121.47971","lat":"31.22154","category":"55","category_name":"中学","address":"卢湾区崇德路43号(近顺昌路)"},{"poiid":"B2094757D06FA2F4429D","title":"阿童木火锅超人(淮海中路店)","lon":"121.47747","lat":"31.22429","category":"86","category_name":"火锅店","address":"卢湾区淮海中路158号B1楼(近普安路)"},{"poiid":"B2094753D76CA2F44598","title":"上海朗庭酒店","lon":"121.479156","lat":"31.22248","category":"500","category_name":"未知分类","address":"上海市 卢湾区马当路"},{"poiid":"B2094757D065A5F9489E","title":"新天地酒吧街","lon":"121.47819073","lat":"31.224759183","category":"260","category_name":"其他","address":"上海市黄浦区黄陂南路"},{"poiid":"B2094753DA6AA5F9419C","title":"COVA@K11","lon":"121.478927","lat":"31.223541","category":"500","category_name":"未知分类","address":"上海市 淮海中路300号2楼"},{"poiid":"B2094757D06FA3FB459E","title":"竹家庄避风塘 福州路店","lon":"121.477716","lat":"31.232561","category":"72","category_name":"广东菜","address":"福州路666号金陵海欣大厦内近云南中路"},{"poiid":"B2094757D06FA6FA459A","title":"韩风炭火烤肉(时代店)","lon":"121.47924","lat":"31.22445","category":"96","category_name":"韩国料理","address":"卢湾区淮海中路99号大上海时代广场B1楼(柳林路口)"},{"poiid":"B2094757D065A7FD4198","title":"韩膳宫无限度店","lon":"121.478038738","lat":"31.2240281679","category":"500","category_name":"未知分类","address":"上海市黄浦区延安东路"},{"poiid":"B2094757D064A6FC4792","title":"大上海时代广场办公楼","lon":"121.47958473","lat":"31.224199171","category":"500","category_name":"未知分类","address":"上海市卢湾区淮海中路93号"},{"poiid":"B2094757D06FA1F9479A","title":"Cirka(大时代广场店)","lon":"121.478196","lat":"31.224255","category":"112","category_name":"糕饼店","address":"卢湾区淮海中路99号大上海时代广场大上海时代广场1楼"},{"poiid":"B2094750D76CA5FE479A","title":"Baker&Spice(时代广场店)","lon":"121.479","lat":"31.2247","category":"67","category_name":"甜品店","address":"卢湾区淮海中路300号上海K11购物艺术中心B1楼127-129铺(近黄陂北路)"},{"poiid":"B2094454D368A0FF4692","title":"ANGELINA","lon":"121.478446","lat":"31.224855","category":"247","category_name":"餐饮美食","address":"上海市 上海市黄浦区淮海中路99号204室"},{"poiid":"B2094753D768A1F4419C","title":"上海外滩","lon":"121.480438","lat":"31.222406","category":"500","category_name":"未知分类","address":"上海市 外滩"},{"poiid":"B2094654DB69AAF54893","title":"福客桂林米粉","lon":"121.47751","lat":"31.22371","category":"68","category_name":"快餐厅","address":"卢湾区淮海中路177号淮海公园门口(近普安路)"},{"poiid":"B2094753DA68A3FC469F","title":"甜品工坊","lon":"121.477355","lat":"31.221826","category":"500","category_name":"未知分类","address":"上海市 太仓路"},{"poiid":"B2094757D06BA6FD4992","title":"上海中医药大学附属曙光医院名中医诊疗中心","lon":"121.478672","lat":"31.222935","category":"162","category_name":"医院","address":"上海市卢湾区普安路185号(近淮海公园)"},{"poiid":"B2094655D26BA3FE4392","title":"立欧桌球概念馆","lon":"121.47886","lat":"31.22255","category":"171","category_name":"台球厅","address":"卢湾区普安路189号曙光大厦10楼(近淮海公园)"},{"poiid":"B2094757D068A1F9469F","title":"爱茜茜里(大上海时代广场店)","lon":"121.47871","lat":"31.22434","category":"113","category_name":"冷饮店","address":"卢湾区淮海中路939号巴黎春天内(近陕西南路)"},{"poiid":"B2094654DA6EAAF84793","title":"名家私宴精作坊","lon":"121.47868","lat":"31.22439","category":"76","category_name":"上海菜","address":"卢湾区淮海中路99号大上海时代广场4楼(柳林路口)"},{"poiid":"B2094757DB69A7FA4993","title":"李向阳葱油饼","lon":"121.47865","lat":"31.22204","category":"68","category_name":"快餐厅","address":"卢湾区普安路185号(近上海中医大学附属曙光医院)"},{"poiid":"B209475DD76EA1F84799","title":"Blue Car Coffee","lon":"121.480636","lat":"31.222131","category":"247","category_name":"餐饮美食","address":"上海市 淮海中路193-8号"},{"poiid":"B2094757DB6EA6FE479A","title":"上海Casa Serena巴越风酒店","lon":"121.4771524","lat":"31.2219883","category":"213","category_name":"五星级宾馆","address":"上海市卢湾区太仓路68号(近顺昌路)"},{"poiid":"B2094655D264A1FE489F","title":"佰草集汉方SPA(卢湾永银店)","lon":"121.48039","lat":"31.22424","category":"148","category_name":"美容美发店","address":"桃源路85号永银大厦6层"},{"poiid":"B2094655D26AA0F84799","title":"上海中医药大学附属曙光医院","lon":"121.47867","lat":"31.22293","category":"162","category_name":"医院","address":"卢湾区普安路185号(近淮海公园)"},{"poiid":"B2094655D36CA1FE409C","title":"寿宁路","lon":"121.48061","lat":"31.22345","category":"38","category_name":"公交车站","address":""},{"poiid":"B2094654DA6EAAFE4998","title":"大上海时代广场","lon":"121.4789","lat":"31.22477","category":"119","category_name":"商场","address":"浦东区张杨路502号(浦东南路口)"},{"poiid":"B2094753D76FAAFA449C","title":"上海滩国泰旗舰店","lon":"121.466011","lat":"31.216125","category":"249","category_name":"购物服务","address":"淮海中路868号"},{"poiid":"B209475CD564A7F84292","title":"上海滩新天地店","lon":"121.47463","lat":"31.22164","category":"119","category_name":"商场","address":"\"太仓路181弄新天地北里15号\r\n\""},{"poiid":"B209475CD564A7F8439E","title":"上海滩中信泰富店","lon":"121.45602","lat":"31.22851","category":"119","category_name":"商场","address":"\"南京西路1168号中信泰富广场，店铺号221.\r\n\""},{"poiid":"B209475CD564A7F84392","title":"上海滩浦东香格里拉店","lon":"121.50058","lat":"31.23634","category":"119","category_name":"商场","address":"浦东富成路33号香格里拉酒店内大堂层"},{"poiid":"B2094654DA6EAAF8499A","title":"万裕国际影城(淮海中路店)","lon":"121.478684","lat":"31.224496","category":"178","category_name":"电影院","address":"淮海中路93-99号大上海时代广场L6"},{"poiid":"B2094757D06EAAF84198","title":"韩膳宫 淮海中路店","lon":"121.478155054","lat":"31.224894793","category":"247","category_name":"餐饮美食","address":"卢湾区淮海中路138号无限度广场5楼(近普安路)"},{"poiid":"B2094757D064A1FD449A","title":"地铁8号线大世界站","lon":"121.478748638","lat":"31.2230810477","category":"36","category_name":"地铁站","address":"上海大世界站"},{"poiid":"B2094757D06EAAFF429D","title":"揽香川菜馆 无限度广场店","lon":"121.478155054","lat":"31.224894793","category":"247","category_name":"餐饮美食","address":"卢湾区淮海中路138号无限度广场4楼(近普安路)"},{"poiid":"B2094757D06FA5FF499D","title":"新天地太平桥人工湖","lon":"121.479294","lat":"31.222233","category":"196","category_name":"公园","address":"上海济南路"},{"poiid":"B2094757D66CA4FB499C","title":"好樂迪","lon":"121.477838738","lat":"31.2232501514","category":"500","category_name":"未知分类","address":"上海市黄浦区黄陂南路"},{"poiid":"B2094757D06FA1F8489D","title":"淮海公园","lon":"121.47755186","lat":"31.222709558","category":"196","category_name":"公园","address":"卢湾区淮海中路177号(近普安路)"},{"poiid":"B2094654DA6EAAFC429C","title":"曙光大厦","lon":"121.47886","lat":"31.22255","category":"46","category_name":"楼宇","address":"静安区西康路946号"},{"poiid":"B2094654DA6EAAF8479D","title":"满记甜品 时代广场店","lon":"121.478519054","lat":"31.224573793","category":"67","category_name":"甜品店","address":"卢湾区淮海中路99号大上海时代广场B1楼K7-K8(柳林路口)"},{"poiid":"B2094757D66BA3F94698","title":"伊莎贝尔 Trattoria Isabelle","lon":"121.479601054","lat":"31.221654793","category":"98","category_name":"意式菜品餐厅","address":"卢湾区吉安路11号(湖滨路崇德路间)"},{"poiid":"B2094753D46AA1FD459D","title":"环球港","lon":"121.480438","lat":"31.22241","category":"500","category_name":"未知分类","address":"上海市 中山北路"},{"poiid":"B2094654DA6EAAFC469E","title":"上海时光整形外科医院","lon":"121.47886","lat":"31.22255","category":"162","category_name":"医院","address":"卢湾区普安路189号曙光大厦2楼(近淮海公园)"},{"poiid":"B2094757D568A4FA4692","title":"Green Massage新天地店","lon":"121.4773631","lat":"31.22202611","category":"149","category_name":"洗浴推拿场所","address":"太仓路58号"},{"poiid":"B2094757D06EAAF9419C","title":"汤城小厨(时代广场店)","lon":"121.47876","lat":"31.22429","category":"72","category_name":"广东菜","address":"卢湾区淮海中路99号大上海时代广场4楼401-402号(柳林路口)"},{"poiid":"B2094655D26EA6F54192","title":"大家乐(时代店)","lon":"121.47912","lat":"31.22467","category":"68","category_name":"快餐厅","address":"卢湾区淮海中路99号大上海时代广场B1楼(柳林路口)"},{"poiid":"B2094757D068ABF5419F","title":"禾绿回转寿司(海慈店)","lon":"121.47761","lat":"31.2243","category":"95","category_name":"日本料理","address":"卢湾区淮海中路158号海慈大厦2楼(近普安路)"},{"poiid":"B2094655D269A4FB4798","title":"ZARA(时代广场店)","lon":"121.47867","lat":"31.22439","category":"141","category_name":"服装鞋帽皮具店","address":"卢湾区淮海中路111号大上海时代广场(近普安路)"},{"poiid":"B2094654DA6EAAF8479E","title":"葡京茶餐厅(淮海店)","lon":"121.4789","lat":"31.22477","category":"72","category_name":"广东菜","address":"卢湾区淮海中路99号大上海时代广场B1楼(柳林路口)"},{"poiid":"B2094757D16CA6F9479F","title":"麦德龙餐饮通西藏南路商场","lon":"121.48024373","lat":"31.224242172","category":"68","category_name":"快餐厅","address":"卢湾区西藏南路228号永银大厦2楼(近淮海中路)"},{"poiid":"B2094654DA6EABFB4198","title":"巴辣子","lon":"121.48039970258","lat":"31.223424021383","category":"71","category_name":"四川菜","address":"卢湾区寿宁路71弄7号(柳林路西藏南路间)"},{"poiid":"B2094654DA6EABFB499B","title":"上海市比乐中学","lon":"121.47971","lat":"31.22154","category":"55","category_name":"中学","address":"卢湾区崇德路43号(近顺昌路)"},{"poiid":"B2094757D06FA2F4429D","title":"阿童木火锅超人(淮海中路店)","lon":"121.47747","lat":"31.22429","category":"86","category_name":"火锅店","address":"卢湾区淮海中路158号B1楼(近普安路)"},{"poiid":"B2094753D76CA2F44598","title":"上海朗庭酒店","lon":"121.479156","lat":"31.22248","category":"500","category_name":"未知分类","address":"上海市 卢湾区马当路"},{"poiid":"B2094757D065A5F9489E","title":"新天地酒吧街","lon":"121.47819073","lat":"31.224759183","category":"260","category_name":"其他","address":"上海市黄浦区黄陂南路"},{"poiid":"B2094753DA6AA5F9419C","title":"COVA@K11","lon":"121.478927","lat":"31.223541","category":"500","category_name":"未知分类","address":"上海市 淮海中路300号2楼"},{"poiid":"B2094757D06FA3FB459E","title":"竹家庄避风塘 福州路店","lon":"121.477716","lat":"31.232561","category":"72","category_name":"广东菜","address":"福州路666号金陵海欣大厦内近云南中路"},{"poiid":"B2094757D06FA6FA459A","title":"韩风炭火烤肉(时代店)","lon":"121.47924","lat":"31.22445","category":"96","category_name":"韩国料理","address":"卢湾区淮海中路99号大上海时代广场B1楼(柳林路口)"},{"poiid":"B2094757D065A7FD4198","title":"韩膳宫无限度店","lon":"121.478038738","lat":"31.2240281679","category":"500","category_name":"未知分类","address":"上海市黄浦区延安东路"},{"poiid":"B2094757D064A6FC4792","title":"大上海时代广场办公楼","lon":"121.47958473","lat":"31.224199171","category":"500","category_name":"未知分类","address":"上海市卢湾区淮海中路93号"},{"poiid":"B2094757D06FA1F9479A","title":"Cirka(大时代广场店)","lon":"121.478196","lat":"31.224255","category":"112","category_name":"糕饼店","address":"卢湾区淮海中路99号大上海时代广场大上海时代广场1楼"},{"poiid":"B2094750D76CA5FE479A","title":"Baker&Spice(时代广场店)","lon":"121.479","lat":"31.2247","category":"67","category_name":"甜品店","address":"卢湾区淮海中路300号上海K11购物艺术中心B1楼127-129铺(近黄陂北路)"},{"poiid":"B2094454D368A0FF4692","title":"ANGELINA","lon":"121.478446","lat":"31.224855","category":"247","category_name":"餐饮美食","address":"上海市 上海市黄浦区淮海中路99号204室"},{"poiid":"B2094753D768A1F4419C","title":"上海外滩","lon":"121.480438","lat":"31.222406","category":"500","category_name":"未知分类","address":"上海市 外滩"},{"poiid":"B2094654DB69AAF54893","title":"福客桂林米粉","lon":"121.47751","lat":"31.22371","category":"68","category_name":"快餐厅","address":"卢湾区淮海中路177号淮海公园门口(近普安路)"},{"poiid":"B2094753DA68A3FC469F","title":"甜品工坊","lon":"121.477355","lat":"31.221826","category":"500","category_name":"未知分类","address":"上海市 太仓路"},{"poiid":"B2094757D06BA6FD4992","title":"上海中医药大学附属曙光医院名中医诊疗中心","lon":"121.478672","lat":"31.222935","category":"162","category_name":"医院","address":"上海市卢湾区普安路185号(近淮海公园)"},{"poiid":"B2094655D26BA3FE4392","title":"立欧桌球概念馆","lon":"121.47886","lat":"31.22255","category":"171","category_name":"台球厅","address":"卢湾区普安路189号曙光大厦10楼(近淮海公园)"},{"poiid":"B2094757D068A1F9469F","title":"爱茜茜里(大上海时代广场店)","lon":"121.47871","lat":"31.22434","category":"113","category_name":"冷饮店","address":"卢湾区淮海中路939号巴黎春天内(近陕西南路)"},{"poiid":"B2094654DA6EAAF84793","title":"名家私宴精作坊","lon":"121.47868","lat":"31.22439","category":"76","category_name":"上海菜","address":"卢湾区淮海中路99号大上海时代广场4楼(柳林路口)"},{"poiid":"B2094757DB69A7FA4993","title":"李向阳葱油饼","lon":"121.47865","lat":"31.22204","category":"68","category_name":"快餐厅","address":"卢湾区普安路185号(近上海中医大学附属曙光医院)"},{"poiid":"B209475DD76EA1F84799","title":"Blue Car Coffee","lon":"121.480636","lat":"31.222131","category":"247","category_name":"餐饮美食","address":"上海市 淮海中路193-8号"},{"poiid":"B2094757DB6EA6FE479A","title":"上海Casa Serena巴越风酒店","lon":"121.4771524","lat":"31.2219883","category":"213","category_name":"五星级宾馆","address":"上海市卢湾区太仓路68号(近顺昌路)"},{"poiid":"B2094655D264A1FE489F","title":"佰草集汉方SPA(卢湾永银店)","lon":"121.48039","lat":"31.22424","category":"148","category_name":"美容美发店","address":"桃源路85号永银大厦6层"},{"poiid":"B2094655D26AA0F84799","title":"上海中医药大学附属曙光医院","lon":"121.47867","lat":"31.22293","category":"162","category_name":"医院","address":"卢湾区普安路185号(近淮海公园)"},{"poiid":"B2094655D36CA1FE409C","title":"寿宁路","lon":"121.48061","lat":"31.22345","category":"38","category_name":"公交车站","address":""},{"poiid":"B2094654DA6EAAFE4998","title":"大上海时代广场","lon":"121.4789","lat":"31.22477","category":"119","category_name":"商场","address":"浦东区张杨路502号(浦东南路口)"},{"poiid":"B2094753D76FAAFA449C","title":"上海滩国泰旗舰店","lon":"121.466011","lat":"31.216125","category":"249","category_name":"购物服务","address":"淮海中路868号"},{"poiid":"B209475CD564A7F84292","title":"上海滩新天地店","lon":"121.47463","lat":"31.22164","category":"119","category_name":"商场","address":"\"太仓路181弄新天地北里15号\r\n\""},{"poiid":"B209475CD564A7F8439E","title":"上海滩中信泰富店","lon":"121.45602","lat":"31.22851","category":"119","category_name":"商场","address":"\"南京西路1168号中信泰富广场，店铺号221.\r\n\""},{"poiid":"B209475CD564A7F84392","title":"上海滩浦东香格里拉店","lon":"121.50058","lat":"31.23634","category":"119","category_name":"商场","address":"浦东富成路33号香格里拉酒店内大堂层"},{"poiid":"B2094654DA6EAAF8499A","title":"万裕国际影城(淮海中路店)","lon":"121.478684","lat":"31.224496","category":"178","category_name":"电影院","address":"淮海中路93-99号大上海时代广场L6"},{"poiid":"B2094757D06EAAF84198","title":"韩膳宫 淮海中路店","lon":"121.478155054","lat":"31.224894793","category":"247","category_name":"餐饮美食","address":"卢湾区淮海中路138号无限度广场5楼(近普安路)"},{"poiid":"B2094757D064A1FD449A","title":"地铁8号线大世界站","lon":"121.478748638","lat":"31.2230810477","category":"36","category_name":"地铁站","address":"上海大世界站"},{"poiid":"B2094757D06EAAFF429D","title":"揽香川菜馆 无限度广场店","lon":"121.478155054","lat":"31.224894793","category":"247","category_name":"餐饮美食","address":"卢湾区淮海中路138号无限度广场4楼(近普安路)"},{"poiid":"B2094757D06FA5FF499D","title":"新天地太平桥人工湖","lon":"121.479294","lat":"31.222233","category":"196","category_name":"公园","address":"上海济南路"},{"poiid":"B2094757D66CA4FB499C","title":"好樂迪","lon":"121.477838738","lat":"31.2232501514","category":"500","category_name":"未知分类","address":"上海市黄浦区黄陂南路"},{"poiid":"B2094757D06FA1F8489D","title":"淮海公园","lon":"121.47755186","lat":"31.222709558","category":"196","category_name":"公园","address":"卢湾区淮海中路177号(近普安路)"},{"poiid":"B2094654DA6EAAFC429C","title":"曙光大厦","lon":"121.47886","lat":"31.22255","category":"46","category_name":"楼宇","address":"静安区西康路946号"},{"poiid":"B2094654DA6EAAF8479D","title":"满记甜品 时代广场店","lon":"121.478519054","lat":"31.224573793","category":"67","category_name":"甜品店","address":"卢湾区淮海中路99号大上海时代广场B1楼K7-K8(柳林路口)"},{"poiid":"B2094757D66BA3F94698","title":"伊莎贝尔 Trattoria Isabelle","lon":"121.479601054","lat":"31.221654793","category":"98","category_name":"意式菜品餐厅","address":"卢湾区吉安路11号(湖滨路崇德路间)"},{"poiid":"B2094753D46AA1FD459D","title":"环球港","lon":"121.480438","lat":"31.22241","category":"500","category_name":"未知分类","address":"上海市 中山北路"},{"poiid":"B2094654DA6EAAFC469E","title":"上海时光整形外科医院","lon":"121.47886","lat":"31.22255","category":"162","category_name":"医院","address":"卢湾区普安路189号曙光大厦2楼(近淮海公园)"},{"poiid":"B2094757D568A4FA4692","title":"Green Massage新天地店","lon":"121.4773631","lat":"31.22202611","category":"149","category_name":"洗浴推拿场所","address":"太仓路58号"},{"poiid":"B2094757D06EAAF9419C","title":"汤城小厨(时代广场店)","lon":"121.47876","lat":"31.22429","category":"72","category_name":"广东菜","address":"卢湾区淮海中路99号大上海时代广场4楼401-402号(柳林路口)"},{"poiid":"B2094655D26EA6F54192","title":"大家乐(时代店)","lon":"121.47912","lat":"31.22467","category":"68","category_name":"快餐厅","address":"卢湾区淮海中路99号大上海时代广场B1楼(柳林路口)"},{"poiid":"B2094757D068ABF5419F","title":"禾绿回转寿司(海慈店)","lon":"121.47761","lat":"31.2243","category":"95","category_name":"日本料理","address":"卢湾区淮海中路158号海慈大厦2楼(近普安路)"},{"poiid":"B2094655D269A4FB4798","title":"ZARA(时代广场店)","lon":"121.47867","lat":"31.22439","category":"141","category_name":"服装鞋帽皮具店","address":"卢湾区淮海中路111号大上海时代广场(近普安路)"},{"poiid":"B2094654DA6EAAF8479E","title":"葡京茶餐厅(淮海店)","lon":"121.4789","lat":"31.22477","category":"72","category_name":"广东菜","address":"卢湾区淮海中路99号大上海时代广场B1楼(柳林路口)"},{"poiid":"B2094757D16CA6F9479F","title":"麦德龙餐饮通西藏南路商场","lon":"121.48024373","lat":"31.224242172","category":"68","category_name":"快餐厅","address":"卢湾区西藏南路228号永银大厦2楼(近淮海中路)"},{"poiid":"B2094654DA6EABFB4198","title":"巴辣子","lon":"121.48039970258","lat":"31.223424021383","category":"71","category_name":"四川菜","address":"卢湾区寿宁路71弄7号(柳林路西藏南路间)"},{"poiid":"B2094654DA6EABFB499B","title":"上海市比乐中学","lon":"121.47971","lat":"31.22154","category":"55","category_name":"中学","address":"卢湾区崇德路43号(近顺昌路)"},{"poiid":"B2094757D06FA2F4429D","title":"阿童木火锅超人(淮海中路店)","lon":"121.47747","lat":"31.22429","category":"86","category_name":"火锅店","address":"卢湾区淮海中路158号B1楼(近普安路)"},{"poiid":"B2094753D76CA2F44598","title":"上海朗庭酒店","lon":"121.479156","lat":"31.22248","category":"500","category_name":"未知分类","address":"上海市 卢湾区马当路"},{"poiid":"B2094757D065A5F9489E","title":"新天地酒吧街","lon":"121.47819073","lat":"31.224759183","category":"260","category_name":"其他","address":"上海市黄浦区黄陂南路"},{"poiid":"B2094753DA6AA5F9419C","title":"COVA@K11","lon":"121.478927","lat":"31.223541","category":"500","category_name":"未知分类","address":"上海市 淮海中路300号2楼"},{"poiid":"B2094757D06FA3FB459E","title":"竹家庄避风塘 福州路店","lon":"121.477716","lat":"31.232561","category":"72","category_name":"广东菜","address":"福州路666号金陵海欣大厦内近云南中路"},{"poiid":"B2094757D06FA6FA459A","title":"韩风炭火烤肉(时代店)","lon":"121.47924","lat":"31.22445","category":"96","category_name":"韩国料理","address":"卢湾区淮海中路99号大上海时代广场B1楼(柳林路口)"},{"poiid":"B2094757D065A7FD4198","title":"韩膳宫无限度店","lon":"121.478038738","lat":"31.2240281679","category":"500","category_name":"未知分类","address":"上海市黄浦区延安东路"},{"poiid":"B2094757D064A6FC4792","title":"大上海时代广场办公楼","lon":"121.47958473","lat":"31.224199171","category":"500","category_name":"未知分类","address":"上海市卢湾区淮海中路93号"},{"poiid":"B2094757D06FA1F9479A","title":"Cirka(大时代广场店)","lon":"121.478196","lat":"31.224255","category":"112","category_name":"糕饼店","address":"卢湾区淮海中路99号大上海时代广场大上海时代广场1楼"},{"poiid":"B2094750D76CA5FE479A","title":"Baker&Spice(时代广场店)","lon":"121.479","lat":"31.2247","category":"67","category_name":"甜品店","address":"卢湾区淮海中路300号上海K11购物艺术中心B1楼127-129铺(近黄陂北路)"},{"poiid":"B2094454D368A0FF4692","title":"ANGELINA","lon":"121.478446","lat":"31.224855","category":"247","category_name":"餐饮美食","address":"上海市 上海市黄浦区淮海中路99号204室"},{"poiid":"B2094753D768A1F4419C","title":"上海外滩","lon":"121.480438","lat":"31.222406","category":"500","category_name":"未知分类","address":"上海市 外滩"},{"poiid":"B2094654DB69AAF54893","title":"福客桂林米粉","lon":"121.47751","lat":"31.22371","category":"68","category_name":"快餐厅","address":"卢湾区淮海中路177号淮海公园门口(近普安路)"},{"poiid":"B2094753DA68A3FC469F","title":"甜品工坊","lon":"121.477355","lat":"31.221826","category":"500","category_name":"未知分类","address":"上海市 太仓路"},{"poiid":"B2094757D06BA6FD4992","title":"上海中医药大学附属曙光医院名中医诊疗中心","lon":"121.478672","lat":"31.222935","category":"162","category_name":"医院","address":"上海市卢湾区普安路185号(近淮海公园)"},{"poiid":"B2094655D26BA3FE4392","title":"立欧桌球概念馆","lon":"121.47886","lat":"31.22255","category":"171","category_name":"台球厅","address":"卢湾区普安路189号曙光大厦10楼(近淮海公园)"},{"poiid":"B2094757D068A1F9469F","title":"爱茜茜里(大上海时代广场店)","lon":"121.47871","lat":"31.22434","category":"113","category_name":"冷饮店","address":"卢湾区淮海中路939号巴黎春天内(近陕西南路)"},{"poiid":"B2094654DA6EAAF84793","title":"名家私宴精作坊","lon":"121.47868","lat":"31.22439","category":"76","category_name":"上海菜","address":"卢湾区淮海中路99号大上海时代广场4楼(柳林路口)"},{"poiid":"B2094757DB69A7FA4993","title":"李向阳葱油饼","lon":"121.47865","lat":"31.22204","category":"68","category_name":"快餐厅","address":"卢湾区普安路185号(近上海中医大学附属曙光医院)"},{"poiid":"B209475DD76EA1F84799","title":"Blue Car Coffee","lon":"121.480636","lat":"31.222131","category":"247","category_name":"餐饮美食","address":"上海市 淮海中路193-8号"},{"poiid":"B2094757DB6EA6FE479A","title":"上海Casa Serena巴越风酒店","lon":"121.4771524","lat":"31.2219883","category":"213","category_name":"五星级宾馆","address":"上海市卢湾区太仓路68号(近顺昌路)"},{"poiid":"B2094655D264A1FE489F","title":"佰草集汉方SPA(卢湾永银店)","lon":"121.48039","lat":"31.22424","category":"148","category_name":"美容美发店","address":"桃源路85号永银大厦6层"},{"poiid":"B2094655D26AA0F84799","title":"上海中医药大学附属曙光医院","lon":"121.47867","lat":"31.22293","category":"162","category_name":"医院","address":"卢湾区普安路185号(近淮海公园)"},{"poiid":"B2094655D36CA1FE409C","title":"寿宁路","lon":"121.48061","lat":"31.22345","category":"38","category_name":"公交车站","address":""},{"poiid":"B2094654DA6EAAFE4998","title":"大上海时代广场","lon":"121.4789","lat":"31.22477","category":"119","category_name":"商场","address":"浦东区张杨路502号(浦东南路口)"},{"poiid":"B2094753D76FAAFA449C","title":"上海滩国泰旗舰店","lon":"121.466011","lat":"31.216125","category":"249","category_name":"购物服务","address":"淮海中路868号"},{"poiid":"B209475CD564A7F84292","title":"上海滩新天地店","lon":"121.47463","lat":"31.22164","category":"119","category_name":"商场","address":"\"太仓路181弄新天地北里15号\r\n\""},{"poiid":"B209475CD564A7F8439E","title":"上海滩中信泰富店","lon":"121.45602","lat":"31.22851","category":"119","category_name":"商场","address":"\"南京西路1168号中信泰富广场，店铺号221.\r\n\""},{"poiid":"B209475CD564A7F84392","title":"上海滩浦东香格里拉店","lon":"121.50058","lat":"31.23634","category":"119","category_name":"商场","address":"浦东富成路33号香格里拉酒店内大堂层"},{"poiid":"B2094654DA6EAAF8499A","title":"万裕国际影城(淮海中路店)","lon":"121.478684","lat":"31.224496","category":"178","category_name":"电影院","address":"淮海中路93-99号大上海时代广场L6"},{"poiid":"B2094757D06EAAF84198","title":"韩膳宫 淮海中路店","lon":"121.478155054","lat":"31.224894793","category":"247","category_name":"餐饮美食","address":"卢湾区淮海中路138号无限度广场5楼(近普安路)"},{"poiid":"B2094757D064A1FD449A","title":"地铁8号线大世界站","lon":"121.478748638","lat":"31.2230810477","category":"36","category_name":"地铁站","address":"上海大世界站"},{"poiid":"B2094757D06EAAFF429D","title":"揽香川菜馆 无限度广场店","lon":"121.478155054","lat":"31.224894793","category":"247","category_name":"餐饮美食","address":"卢湾区淮海中路138号无限度广场4楼(近普安路)"},{"poiid":"B2094757D06FA5FF499D","title":"新天地太平桥人工湖","lon":"121.479294","lat":"31.222233","category":"196","category_name":"公园","address":"上海济南路"},{"poiid":"B2094757D66CA4FB499C","title":"好樂迪","lon":"121.477838738","lat":"31.2232501514","category":"500","category_name":"未知分类","address":"上海市黄浦区黄陂南路"},{"poiid":"B2094757D06FA1F8489D","title":"淮海公园","lon":"121.47755186","lat":"31.222709558","category":"196","category_name":"公园","address":"卢湾区淮海中路177号(近普安路)"},{"poiid":"B2094654DA6EAAFC429C","title":"曙光大厦","lon":"121.47886","lat":"31.22255","category":"46","category_name":"楼宇","address":"静安区西康路946号"},{"poiid":"B2094654DA6EAAF8479D","title":"满记甜品 时代广场店","lon":"121.478519054","lat":"31.224573793","category":"67","category_name":"甜品店","address":"卢湾区淮海中路99号大上海时代广场B1楼K7-K8(柳林路口)"},{"poiid":"B2094757D66BA3F94698","title":"伊莎贝尔 Trattoria Isabelle","lon":"121.479601054","lat":"31.221654793","category":"98","category_name":"意式菜品餐厅","address":"卢湾区吉安路11号(湖滨路崇德路间)"},{"poiid":"B2094753D46AA1FD459D","title":"环球港","lon":"121.480438","lat":"31.22241","category":"500","category_name":"未知分类","address":"上海市 中山北路"},{"poiid":"B2094654DA6EAAFC469E","title":"上海时光整形外科医院","lon":"121.47886","lat":"31.22255","category":"162","category_name":"医院","address":"卢湾区普安路189号曙光大厦2楼(近淮海公园)"},{"poiid":"B2094757D568A4FA4692","title":"Green Massage新天地店","lon":"121.4773631","lat":"31.22202611","category":"149","category_name":"洗浴推拿场所","address":"太仓路58号"},{"poiid":"B2094757D06EAAF9419C","title":"汤城小厨(时代广场店)","lon":"121.47876","lat":"31.22429","category":"72","category_name":"广东菜","address":"卢湾区淮海中路99号大上海时代广场4楼401-402号(柳林路口)"},{"poiid":"B2094655D26EA6F54192","title":"大家乐(时代店)","lon":"121.47912","lat":"31.22467","category":"68","category_name":"快餐厅","address":"卢湾区淮海中路99号大上海时代广场B1楼(柳林路口)"},{"poiid":"B2094757D068ABF5419F","title":"禾绿回转寿司(海慈店)","lon":"121.47761","lat":"31.2243","category":"95","category_name":"日本料理","address":"卢湾区淮海中路158号海慈大厦2楼(近普安路)"},{"poiid":"B2094655D269A4FB4798","title":"ZARA(时代广场店)","lon":"121.47867","lat":"31.22439","category":"141","category_name":"服装鞋帽皮具店","address":"卢湾区淮海中路111号大上海时代广场(近普安路)"},{"poiid":"B2094654DA6EAAF8479E","title":"葡京茶餐厅(淮海店)","lon":"121.4789","lat":"31.22477","category":"72","category_name":"广东菜","address":"卢湾区淮海中路99号大上海时代广场B1楼(柳林路口)"},{"poiid":"B2094757D16CA6F9479F","title":"麦德龙餐饮通西藏南路商场","lon":"121.48024373","lat":"31.224242172","category":"68","category_name":"快餐厅","address":"卢湾区西藏南路228号永银大厦2楼(近淮海中路)"},{"poiid":"B2094654DA6EABFB4198","title":"巴辣子","lon":"121.48039970258","lat":"31.223424021383","category":"71","category_name":"四川菜","address":"卢湾区寿宁路71弄7号(柳林路西藏南路间)"},{"poiid":"B2094654DA6EABFB499B","title":"上海市比乐中学","lon":"121.47971","lat":"31.22154","category":"55","category_name":"中学","address":"卢湾区崇德路43号(近顺昌路)"},{"poiid":"B2094757D06FA2F4429D","title":"阿童木火锅超人(淮海中路店)","lon":"121.47747","lat":"31.22429","category":"86","category_name":"火锅店","address":"卢湾区淮海中路158号B1楼(近普安路)"},{"poiid":"B2094753D76CA2F44598","title":"上海朗庭酒店","lon":"121.479156","lat":"31.22248","category":"500","category_name":"未知分类","address":"上海市 卢湾区马当路"},{"poiid":"B2094757D065A5F9489E","title":"新天地酒吧街","lon":"121.47819073","lat":"31.224759183","category":"260","category_name":"其他","address":"上海市黄浦区黄陂南路"},{"poiid":"B2094753DA6AA5F9419C","title":"COVA@K11","lon":"121.478927","lat":"31.223541","category":"500","category_name":"未知分类","address":"上海市 淮海中路300号2楼"},{"poiid":"B2094757D06FA3FB459E","title":"竹家庄避风塘 福州路店","lon":"121.477716","lat":"31.232561","category":"72","category_name":"广东菜","address":"福州路666号金陵海欣大厦内近云南中路"},{"poiid":"B2094757D06FA6FA459A","title":"韩风炭火烤肉(时代店)","lon":"121.47924","lat":"31.22445","category":"96","category_name":"韩国料理","address":"卢湾区淮海中路99号大上海时代广场B1楼(柳林路口)"},{"poiid":"B2094757D065A7FD4198","title":"韩膳宫无限度店","lon":"121.478038738","lat":"31.2240281679","category":"500","category_name":"未知分类","address":"上海市黄浦区延安东路"},{"poiid":"B2094757D064A6FC4792","title":"大上海时代广场办公楼","lon":"121.47958473","lat":"31.224199171","category":"500","category_name":"未知分类","address":"上海市卢湾区淮海中路93号"},{"poiid":"B2094757D06FA1F9479A","title":"Cirka(大时代广场店)","lon":"121.478196","lat":"31.224255","category":"112","category_name":"糕饼店","address":"卢湾区淮海中路99号大上海时代广场大上海时代广场1楼"},{"poiid":"B2094750D76CA5FE479A","title":"Baker&Spice(时代广场店)","lon":"121.479","lat":"31.2247","category":"67","category_name":"甜品店","address":"卢湾区淮海中路300号上海K11购物艺术中心B1楼127-129铺(近黄陂北路)"},{"poiid":"B2094454D368A0FF4692","title":"ANGELINA","lon":"121.478446","lat":"31.224855","category":"247","category_name":"餐饮美食","address":"上海市 上海市黄浦区淮海中路99号204室"},{"poiid":"B2094753D768A1F4419C","title":"上海外滩","lon":"121.480438","lat":"31.222406","category":"500","category_name":"未知分类","address":"上海市 外滩"},{"poiid":"B2094654DB69AAF54893","title":"福客桂林米粉","lon":"121.47751","lat":"31.22371","category":"68","category_name":"快餐厅","address":"卢湾区淮海中路177号淮海公园门口(近普安路)"},{"poiid":"B2094753DA68A3FC469F","title":"甜品工坊","lon":"121.477355","lat":"31.221826","category":"500","category_name":"未知分类","address":"上海市 太仓路"},{"poiid":"B2094757D06BA6FD4992","title":"上海中医药大学附属曙光医院名中医诊疗中心","lon":"121.478672","lat":"31.222935","category":"162","category_name":"医院","address":"上海市卢湾区普安路185号(近淮海公园)"},{"poiid":"B2094655D26BA3FE4392","title":"立欧桌球概念馆","lon":"121.47886","lat":"31.22255","category":"171","category_name":"台球厅","address":"卢湾区普安路189号曙光大厦10楼(近淮海公园)"},{"poiid":"B2094757D068A1F9469F","title":"爱茜茜里(大上海时代广场店)","lon":"121.47871","lat":"31.22434","category":"113","category_name":"冷饮店","address":"卢湾区淮海中路939号巴黎春天内(近陕西南路)"},{"poiid":"B2094654DA6EAAF84793","title":"名家私宴精作坊","lon":"121.47868","lat":"31.22439","category":"76","category_name":"上海菜","address":"卢湾区淮海中路99号大上海时代广场4楼(柳林路口)"},{"poiid":"B2094757DB69A7FA4993","title":"李向阳葱油饼","lon":"121.47865","lat":"31.22204","category":"68","category_name":"快餐厅","address":"卢湾区普安路185号(近上海中医大学附属曙光医院)"},{"poiid":"B209475DD76EA1F84799","title":"Blue Car Coffee","lon":"121.480636","lat":"31.222131","category":"247","category_name":"餐饮美食","address":"上海市 淮海中路193-8号"},{"poiid":"B2094757DB6EA6FE479A","title":"上海Casa Serena巴越风酒店","lon":"121.4771524","lat":"31.2219883","category":"213","category_name":"五星级宾馆","address":"上海市卢湾区太仓路68号(近顺昌路)"},{"poiid":"B2094655D264A1FE489F","title":"佰草集汉方SPA(卢湾永银店)","lon":"121.48039","lat":"31.22424","category":"148","category_name":"美容美发店","address":"桃源路85号永银大厦6层"},{"poiid":"B2094655D26AA0F84799","title":"上海中医药大学附属曙光医院","lon":"121.47867","lat":"31.22293","category":"162","category_name":"医院","address":"卢湾区普安路185号(近淮海公园)"},{"poiid":"B2094655D36CA1FE409C","title":"寿宁路","lon":"121.48061","lat":"31.22345","category":"38","category_name":"公交车站","address":""},{"poiid":"B2094654DA6EAAFE4998","title":"大上海时代广场","lon":"121.4789","lat":"31.22477","category":"119","category_name":"商场","address":"浦东区张杨路502号(浦东南路口)"},{"poiid":"B2094753D76FAAFA449C","title":"上海滩国泰旗舰店","lon":"121.466011","lat":"31.216125","category":"249","category_name":"购物服务","address":"淮海中路868号"},{"poiid":"B209475CD564A7F84292","title":"上海滩新天地店","lon":"121.47463","lat":"31.22164","category":"119","category_name":"商场","address":"\"太仓路181弄新天地北里15号\r\n\""},{"poiid":"B209475CD564A7F8439E","title":"上海滩中信泰富店","lon":"121.45602","lat":"31.22851","category":"119","category_name":"商场","address":"\"南京西路1168号中信泰富广场，店铺号221.\r\n\""},{"poiid":"B209475CD564A7F84392","title":"上海滩浦东香格里拉店","lon":"121.50058","lat":"31.23634","category":"119","category_name":"商场","address":"浦东富成路33号香格里拉酒店内大堂层"},{"poiid":"B2094654DA6EAAF8499A","title":"万裕国际影城(淮海中路店)","lon":"121.478684","lat":"31.224496","category":"178","category_name":"电影院","address":"淮海中路93-99号大上海时代广场L6"},{"poiid":"B2094757D06EAAF84198","title":"韩膳宫 淮海中路店","lon":"121.478155054","lat":"31.224894793","category":"247","category_name":"餐饮美食","address":"卢湾区淮海中路138号无限度广场5楼(近普安路)"},{"poiid":"B2094757D064A1FD449A","title":"地铁8号线大世界站","lon":"121.478748638","lat":"31.2230810477","category":"36","category_name":"地铁站","address":"上海大世界站"},{"poiid":"B2094757D06EAAFF429D","title":"揽香川菜馆 无限度广场店","lon":"121.478155054","lat":"31.224894793","category":"247","category_name":"餐饮美食","address":"卢湾区淮海中路138号无限度广场4楼(近普安路)"},{"poiid":"B2094757D06FA5FF499D","title":"新天地太平桥人工湖","lon":"121.479294","lat":"31.222233","category":"196","category_name":"公园","address":"上海济南路"},{"poiid":"B2094757D66CA4FB499C","title":"好樂迪","lon":"121.477838738","lat":"31.2232501514","category":"500","category_name":"未知分类","address":"上海市黄浦区黄陂南路"},{"poiid":"B2094757D06FA1F8489D","title":"淮海公园","lon":"121.47755186","lat":"31.222709558","category":"196","category_name":"公园","address":"卢湾区淮海中路177号(近普安路)"},{"poiid":"B2094654DA6EAAFC429C","title":"曙光大厦","lon":"121.47886","lat":"31.22255","category":"46","category_name":"楼宇","address":"静安区西康路946号"},{"poiid":"B2094654DA6EAAF8479D","title":"满记甜品 时代广场店","lon":"121.478519054","lat":"31.224573793","category":"67","category_name":"甜品店","address":"卢湾区淮海中路99号大上海时代广场B1楼K7-K8(柳林路口)"},{"poiid":"B2094757D66BA3F94698","title":"伊莎贝尔 Trattoria Isabelle","lon":"121.479601054","lat":"31.221654793","category":"98","category_name":"意式菜品餐厅","address":"卢湾区吉安路11号(湖滨路崇德路间)"},{"poiid":"B2094753D46AA1FD459D","title":"环球港","lon":"121.480438","lat":"31.22241","category":"500","category_name":"未知分类","address":"上海市 中山北路"},{"poiid":"B2094654DA6EAAFC469E","title":"上海时光整形外科医院","lon":"121.47886","lat":"31.22255","category":"162","category_name":"医院","address":"卢湾区普安路189号曙光大厦2楼(近淮海公园)"},{"poiid":"B2094757D568A4FA4692","title":"Green Massage新天地店","lon":"121.4773631","lat":"31.22202611","category":"149","category_name":"洗浴推拿场所","address":"太仓路58号"},{"poiid":"B2094757D06EAAF9419C","title":"汤城小厨(时代广场店)","lon":"121.47876","lat":"31.22429","category":"72","category_name":"广东菜","address":"卢湾区淮海中路99号大上海时代广场4楼401-402号(柳林路口)"},{"poiid":"B2094655D26EA6F54192","title":"大家乐(时代店)","lon":"121.47912","lat":"31.22467","category":"68","category_name":"快餐厅","address":"卢湾区淮海中路99号大上海时代广场B1楼(柳林路口)"},{"poiid":"B2094757D068ABF5419F","title":"禾绿回转寿司(海慈店)","lon":"121.47761","lat":"31.2243","category":"95","category_name":"日本料理","address":"卢湾区淮海中路158号海慈大厦2楼(近普安路)"},{"poiid":"B2094655D269A4FB4798","title":"ZARA(时代广场店)","lon":"121.47867","lat":"31.22439","category":"141","category_name":"服装鞋帽皮具店","address":"卢湾区淮海中路111号大上海时代广场(近普安路)"},{"poiid":"B2094654DA6EAAF8479E","title":"葡京茶餐厅(淮海店)","lon":"121.4789","lat":"31.22477","category":"72","category_name":"广东菜","address":"卢湾区淮海中路99号大上海时代广场B1楼(柳林路口)"},{"poiid":"B2094757D16CA6F9479F","title":"麦德龙餐饮通西藏南路商场","lon":"121.48024373","lat":"31.224242172","category":"68","category_name":"快餐厅","address":"卢湾区西藏南路228号永银大厦2楼(近淮海中路)"},{"poiid":"B2094654DA6EABFB4198","title":"巴辣子","lon":"121.48039970258","lat":"31.223424021383","category":"71","category_name":"四川菜","address":"卢湾区寿宁路71弄7号(柳林路西藏南路间)"},{"poiid":"B2094654DA6EABFB499B","title":"上海市比乐中学","lon":"121.47971","lat":"31.22154","category":"55","category_name":"中学","address":"卢湾区崇德路43号(近顺昌路)"},{"poiid":"B2094757D06FA2F4429D","title":"阿童木火锅超人(淮海中路店)","lon":"121.47747","lat":"31.22429","category":"86","category_name":"火锅店","address":"卢湾区淮海中路158号B1楼(近普安路)"},{"poiid":"B2094753D76CA2F44598","title":"上海朗庭酒店","lon":"121.479156","lat":"31.22248","category":"500","category_name":"未知分类","address":"上海市 卢湾区马当路"},{"poiid":"B2094757D065A5F9489E","title":"新天地酒吧街","lon":"121.47819073","lat":"31.224759183","category":"260","category_name":"其他","address":"上海市黄浦区黄陂南路"},{"poiid":"B2094753DA6AA5F9419C","title":"COVA@K11","lon":"121.478927","lat":"31.223541","category":"500","category_name":"未知分类","address":"上海市 淮海中路300号2楼"},{"poiid":"B2094757D06FA3FB459E","title":"竹家庄避风塘 福州路店","lon":"121.477716","lat":"31.232561","category":"72","category_name":"广东菜","address":"福州路666号金陵海欣大厦内近云南中路"},{"poiid":"B2094757D06FA6FA459A","title":"韩风炭火烤肉(时代店)","lon":"121.47924","lat":"31.22445","category":"96","category_name":"韩国料理","address":"卢湾区淮海中路99号大上海时代广场B1楼(柳林路口)"},{"poiid":"B2094757D065A7FD4198","title":"韩膳宫无限度店","lon":"121.478038738","lat":"31.2240281679","category":"500","category_name":"未知分类","address":"上海市黄浦区延安东路"},{"poiid":"B2094757D064A6FC4792","title":"大上海时代广场办公楼","lon":"121.47958473","lat":"31.224199171","category":"500","category_name":"未知分类","address":"上海市卢湾区淮海中路93号"},{"poiid":"B2094757D06FA1F9479A","title":"Cirka(大时代广场店)","lon":"121.478196","lat":"31.224255","category":"112","category_name":"糕饼店","address":"卢湾区淮海中路99号大上海时代广场大上海时代广场1楼"},{"poiid":"B2094750D76CA5FE479A","title":"Baker&Spice(时代广场店)","lon":"121.479","lat":"31.2247","category":"67","category_name":"甜品店","address":"卢湾区淮海中路300号上海K11购物艺术中心B1楼127-129铺(近黄陂北路)"},{"poiid":"B2094454D368A0FF4692","title":"ANGELINA","lon":"121.478446","lat":"31.224855","category":"247","category_name":"餐饮美食","address":"上海市 上海市黄浦区淮海中路99号204室"},{"poiid":"B2094753D768A1F4419C","title":"上海外滩","lon":"121.480438","lat":"31.222406","category":"500","category_name":"未知分类","address":"上海市 外滩"},{"poiid":"B2094654DB69AAF54893","title":"福客桂林米粉","lon":"121.47751","lat":"31.22371","category":"68","category_name":"快餐厅","address":"卢湾区淮海中路177号淮海公园门口(近普安路)"},{"poiid":"B2094753DA68A3FC469F","title":"甜品工坊","lon":"121.477355","lat":"31.221826","category":"500","category_name":"未知分类","address":"上海市 太仓路"},{"poiid":"B2094757D06BA6FD4992","title":"上海中医药大学附属曙光医院名中医诊疗中心","lon":"121.478672","lat":"31.222935","category":"162","category_name":"医院","address":"上海市卢湾区普安路185号(近淮海公园)"},{"poiid":"B2094655D26BA3FE4392","title":"立欧桌球概念馆","lon":"121.47886","lat":"31.22255","category":"171","category_name":"台球厅","address":"卢湾区普安路189号曙光大厦10楼(近淮海公园)"},{"poiid":"B2094757D068A1F9469F","title":"爱茜茜里(大上海时代广场店)","lon":"121.47871","lat":"31.22434","category":"113","category_name":"冷饮店","address":"卢湾区淮海中路939号巴黎春天内(近陕西南路)"},{"poiid":"B2094654DA6EAAF84793","title":"名家私宴精作坊","lon":"121.47868","lat":"31.22439","category":"76","category_name":"上海菜","address":"卢湾区淮海中路99号大上海时代广场4楼(柳林路口)"},{"poiid":"B2094757DB69A7FA4993","title":"李向阳葱油饼","lon":"121.47865","lat":"31.22204","category":"68","category_name":"快餐厅","address":"卢湾区普安路185号(近上海中医大学附属曙光医院)"},{"poiid":"B209475DD76EA1F84799","title":"Blue Car Coffee","lon":"121.480636","lat":"31.222131","category":"247","category_name":"餐饮美食","address":"上海市 淮海中路193-8号"},{"poiid":"B2094757DB6EA6FE479A","title":"上海Casa Serena巴越风酒店","lon":"121.4771524","lat":"31.2219883","category":"213","category_name":"五星级宾馆","address":"上海市卢湾区太仓路68号(近顺昌路)"},{"poiid":"B2094655D264A1FE489F","title":"佰草集汉方SPA(卢湾永银店)","lon":"121.48039","lat":"31.22424","category":"148","category_name":"美容美发店","address":"桃源路85号永银大厦6层"}]