[{"poiid":"B2094654DB69ABF9469A","title":"三人行骨头王火锅(徐汇总店)","lon":"121.44548","lat":"31.19707","category":"86","category_name":"火锅店","address":"徐汇区肇嘉浜路879号(近宛平南路)"},{"poiid":"B2094757D06FA3F84199","title":"三顾牛蛙馆(肇嘉浜路店)","lon":"121.44556","lat":"31.1966","category":"71","category_name":"四川菜","address":"徐汇区肇嘉浜路883号(宛平路口)"},{"poiid":"B2094757D06FA6FD489D","title":"亚都商务楼","lon":"121.444836","lat":"31.195017","category":"46","category_name":"楼宇","address":"上海南丹东路300弄9号"},{"poiid":"B2094654DA6DA4F84198","title":"临江豪园","lon":"121.447","lat":"31.1944","category":"47","category_name":"住宅区","address":"上海市徐汇区宛平南路921号"},{"poiid":"B2094757D06FA5F84692","title":"串串香麻辣烫","lon":"121.44614","lat":"31.19354","category":"68","category_name":"快餐厅","address":"徐汇区宛平南路200号(近辛耕路)"},{"poiid":"B2094757D069A3F54599","title":"斜土路宛平南路","lon":"121.44817258","lat":"31.193041703","category":"500","category_name":"未知分类","address":"上海市徐汇区肇嘉浜路"},{"poiid":"B2094751D568A4F84992","title":"沁泰（永新坊店）","lon":"121.444131","lat":"31.19286","category":"247","category_name":"餐饮美食","address":"徐汇区辛耕路109号永新坊1楼(近天钥桥路)"},{"poiid":"B2094757D16CA7F54292","title":"珞珈瑜伽旗舰店","lon":"121.444092","lat":"31.19347","category":"500","category_name":"未知分类","address":"上海辛耕路88号"},{"poiid":"B2094757D068A2FD489A","title":"京世造型(宛平店)","lon":"121.446784","lat":"31.192901","category":"148","category_name":"美容美发店","address":"上海徐汇区宛平南路271号"},{"poiid":"B2094757D069A3FA4299","title":"提香研磨咖啡","lon":"121.44662799152","lat":"31.193403622937","category":"260","category_name":"其他","address":"徐汇区宛平南路263号(近斜土路)"},{"poiid":"B2094655D26FA3FD4598","title":"苏宁电器肇嘉滨路店","lon":"121.44357","lat":"31.19593","category":"138","category_name":"家电电子卖场","address":"肇嘉浜路929号"},{"poiid":"B2094757D06FA7F54298","title":"徐家匯花園","lon":"121.44533538","lat":"31.196586608","category":"252","category_name":"楼宇机构","address":"上海宛平南路255弄"},{"poiid":"B2094757D06BA5FB4999","title":"重庆鸡公煲 宛平南路店","lon":"121.445872054","lat":"31.193667793","category":"71","category_name":"四川菜","address":"徐汇区宛平南路162号(宛平南路辛耕路)"},{"poiid":"B2094654DA6DA0FA4099","title":"汇峰大厦","lon":"121.446","lat":"31.1937","category":"46","category_name":"楼宇","address":"天钥桥路380弄20"},{"poiid":"B2094750D46DAAFD4799","title":"姐弟俩土豆粉","lon":"121.447593","lat":"31.193534","category":"247","category_name":"餐饮美食","address":null},{"poiid":"B2094757D064A4FE429C","title":"上海建筑科学研究院","lon":"121.44599914","lat":"31.195411682","category":"500","category_name":"未知分类","address":"上海徐汇区宛平南路75号"},{"poiid":"B2094655D264A0F84798","title":"如家快捷酒店(上海徐家汇宛平南路店)","lon":"121.4455","lat":"31.19594","category":"216","category_name":"经济型连锁酒店","address":"上海市徐汇区宛平南路65号(近肇家浜路)"},{"poiid":"B2094655D268A2FE4392","title":"雪莉保健会所","lon":"121.4449","lat":"31.19388","category":"149","category_name":"洗浴推拿场所","address":"辛耕路28临"},{"poiid":"B2094654DA6DA0F4479B","title":"申峰大厦","lon":"121.448","lat":"31.1937","category":"46","category_name":"楼宇","address":"上海市徐汇区天钥桥路438号"},{"poiid":"B2094757D168AAF94092","title":"好乐迪","lon":"121.44774758","lat":"31.196602773","category":"500","category_name":"未知分类","address":"上海市徐汇区宛平路"},{"poiid":"B2094757D06AA6FB429F","title":"福荣祥茶餐厅","lon":"121.44480258","lat":"31.19646877","category":"72","category_name":"广东菜","address":"徐汇区宛平南路3号"},{"poiid":"B2094654DA6DAAF9469E","title":"思妍丽(宛平南路)","lon":"121.44636","lat":"31.19463","category":"148","category_name":"美容美发店","address":"宛平南路99弄1号2层"},{"poiid":"B2094750D26AABFB4798","title":"星牌桌球","lon":"121.443237","lat":"31.194593","category":"248","category_name":"生活娱乐","address":"辛耕路"},{"poiid":"B2094757D66DA4F9499E","title":"釜山料理","lon":"121.44442258","lat":"31.192564694","category":"247","category_name":"餐饮美食","address":"上海市徐汇区肇嘉浜路"},{"poiid":"B2094757D464A6FE429D","title":"雄记桂林米粉 宛平南路店","lon":"121.44522599725","lat":"31.194680137393","category":"68","category_name":"快餐厅","address":"徐汇区宛平南路160号(近辛耕路)"},{"poiid":"B2094654DB6BA5F8499C","title":"苏宁电器(肇家浜路店)","lon":"121.44357","lat":"31.19593","category":"138","category_name":"家电电子卖场","address":"肇嘉浜路919、929、939号"},{"poiid":"B2094752DB6EAAFF469C","title":"正大乐城","lon":"121.444137","lat":"31.194528","category":"170","category_name":"KTV","address":"上海市 上海市徐汇区中山南二路699号"},{"poiid":"B2094757D064A3FA4192","title":"辣俯","lon":"121.44408558","lat":"31.194564733","category":"247","category_name":"餐饮美食","address":"上海市嘉善路"},{"poiid":"B2094753DA6EA4FC4592","title":"徐家汇花园","lon":"121.4466297","lat":"31.19322638","category":"47","category_name":"住宅区","address":"宛平南路255弄"},{"poiid":"B2094655D26FA5FC479C","title":"永新世纪","lon":"121.44489","lat":"31.19298","category":"47","category_name":"住宅区","address":"辛耕路81弄"},{"poiid":"B2094757D169A2F8499C","title":"艾维庭美容身心会馆(永新店)","lon":"121.44544849","lat":"31.194164741","category":"148","category_name":"美容美发店","address":"上海徐汇区辛耕路18号1-3楼(近宛平南路)"},{"poiid":"B2094655D268A7F94899","title":"城建地产大厦","lon":"121.448","lat":"31.1963","category":"46","category_name":"楼宇","address":"上海市徐汇区南丹东路161号"},{"poiid":"B2094750D56FA5FC459A","title":"国泰电影院","lon":"121.445716","lat":"31.192508","category":"178","category_name":"电影院","address":null},{"poiid":"B2094654DA6DAAF9469A","title":"新汇公寓","lon":"121.4462","lat":"31.195114","category":"47","category_name":"住宅区","address":"宛平南路99弄2-3号"},{"poiid":"B2094654DA6DAAF9469C","title":"水之城咖啡 宛平南路","lon":"121.44597842636","lat":"31.194528204112","category":"260","category_name":"其他","address":"徐汇区宛平南路181号(宛平南路辛耕路)"},{"poiid":"B2094757D069A4FF439D","title":"萨利亚","lon":"121.44782058","lat":"31.196573772","category":"249","category_name":"购物服务","address":"上海市徐汇区天钥桥路"},{"poiid":"B2094654DA6DAAF94499","title":"上海市建设和交通委员会科学技术委员会会议中心","lon":"121.44593","lat":"31.19553","category":"185","category_name":"会展中心","address":"宛平南路75号建科大厦13-14层"},{"poiid":"B2094655D26FA5FD4598","title":"橡胶小区","lon":"121.4456","lat":"31.196529","category":"47","category_name":"住宅区","address":"宛平南路19弄1-6号"},{"poiid":"B2094654DB69A6FD489A","title":"宝良商务楼","lon":"121.44477","lat":"31.19672","category":"46","category_name":"楼宇","address":"浦东区崂山东路410号"},{"poiid":"B2094750D76BA5FC469F","title":"徐汇公园","lon":"121.445549","lat":"31.195981","category":"250","category_name":"公园户外","address":"徐家汇"},{"poiid":"B2094750D768A4FC439F","title":"辛耕路烧烤摊","lon":"121.446","lat":"31.1944","category":"68","category_name":"快餐厅","address":"徐汇区辛耕路(宛平南路口)"},{"poiid":"B2094757D069AAFD4098","title":"正圆烩面","lon":"121.44598388","lat":"31.194431304","category":"247","category_name":"餐饮美食","address":"上海徐汇区宛平南路151号"},{"poiid":"B2094655D265A4FC439B","title":"阿耐思特岩田商务楼","lon":"121.44605","lat":"31.19372","category":"46","category_name":"楼宇","address":"宛平南路200"},{"poiid":"B2094750D66DA5F44398","title":"Green Massage(徐家汇店)","lon":"121.44421489416504","lat":"31.19347770731287","category":"149","category_name":"洗浴推拿场所","address":"徐汇区辛耕路88号"},{"poiid":"B2094757D16EABF84493","title":"Spring Spa&amp;Massage","lon":"121.446008586","lat":"31.1930167034","category":"149","category_name":"洗浴推拿场所","address":"上海市徐汇区宛平南路260号(近辛耕路)"},{"poiid":"B2094757D065A0F94993","title":"米乐布提(徐汇风尚店)","lon":"121.44498","lat":"31.19321","category":"500","category_name":"未知分类","address":"上海徐汇区辛耕路77号(近天钥桥路)  "},{"poiid":"B2094757D168A7F9439E","title":"迪士尼英语","lon":"121.44503458","lat":"31.194452731","category":"253","category_name":"校园生活","address":"上海市徐汇区辛耕路"},{"poiid":"B2094751D569AAFD419B","title":"美罗城B1英国屋","lon":"121.44751","lat":"31.196396","category":"47","category_name":"住宅区","address":"美罗城"},{"poiid":"B2094757D168A0F9409E","title":"德勤华永会计师事务所有限公司","lon":"121.447935586","lat":"31.1956107541","category":"46","category_name":"楼宇","address":"上海市黄浦区延安东路222号外滩中心30楼"},{"poiid":"B2094757D569A3FB4493","title":"徐家汇花园二期","lon":"121.4478072","lat":"31.19344306","category":"47","category_name":"住宅区","address":"徐家汇花园二期位于徐汇宛平南路233弄"},{"poiid":"B2094654DB69ABF9469A","title":"三人行骨头王火锅(徐汇总店)","lon":"121.44548","lat":"31.19707","category":"86","category_name":"火锅店","address":"徐汇区肇嘉浜路879号(近宛平南路)"},{"poiid":"B2094757D06FA3F84199","title":"三顾牛蛙馆(肇嘉浜路店)","lon":"121.44556","lat":"31.1966","category":"71","category_name":"四川菜","address":"徐汇区肇嘉浜路883号(宛平路口)"},{"poiid":"B2094757D06FA6FD489D","title":"亚都商务楼","lon":"121.444836","lat":"31.195017","category":"46","category_name":"楼宇","address":"上海南丹东路300弄9号"},{"poiid":"B2094654DA6DA4F84198","title":"临江豪园","lon":"121.447","lat":"31.1944","category":"47","category_name":"住宅区","address":"上海市徐汇区宛平南路921号"},{"poiid":"B2094757D06FA5F84692","title":"串串香麻辣烫","lon":"121.44614","lat":"31.19354","category":"68","category_name":"快餐厅","address":"徐汇区宛平南路200号(近辛耕路)"},{"poiid":"B2094757D069A3F54599","title":"斜土路宛平南路","lon":"121.44817258","lat":"31.193041703","category":"500","category_name":"未知分类","address":"上海市徐汇区肇嘉浜路"},{"poiid":"B2094751D568A4F84992","title":"沁泰（永新坊店）","lon":"121.444131","lat":"31.19286","category":"247","category_name":"餐饮美食","address":"徐汇区辛耕路109号永新坊1楼(近天钥桥路)"},{"poiid":"B2094757D16CA7F54292","title":"珞珈瑜伽旗舰店","lon":"121.444092","lat":"31.19347","category":"500","category_name":"未知分类","address":"上海辛耕路88号"},{"poiid":"B2094757D068A2FD489A","title":"京世造型(宛平店)","lon":"121.446784","lat":"31.192901","category":"148","category_name":"美容美发店","address":"上海徐汇区宛平南路271号"},{"poiid":"B2094757D069A3FA4299","title":"提香研磨咖啡","lon":"121.44662799152","lat":"31.193403622937","category":"260","category_name":"其他","address":"徐汇区宛平南路263号(近斜土路)"},{"poiid":"B2094655D26FA3FD4598","title":"苏宁电器肇嘉滨路店","lon":"121.44357","lat":"31.19593","category":"138","category_name":"家电电子卖场","address":"肇嘉浜路929号"},{"poiid":"B2094757D06FA7F54298","title":"徐家匯花園","lon":"121.44533538","lat":"31.196586608","category":"252","category_name":"楼宇机构","address":"上海宛平南路255弄"},{"poiid":"B2094757D06BA5FB4999","title":"重庆鸡公煲 宛平南路店","lon":"121.445872054","lat":"31.193667793","category":"71","category_name":"四川菜","address":"徐汇区宛平南路162号(宛平南路辛耕路)"},{"poiid":"B2094654DA6DA0FA4099","title":"汇峰大厦","lon":"121.446","lat":"31.1937","category":"46","category_name":"楼宇","address":"天钥桥路380弄20"},{"poiid":"B2094750D46DAAFD4799","title":"姐弟俩土豆粉","lon":"121.447593","lat":"31.193534","category":"247","category_name":"餐饮美食","address":null},{"poiid":"B2094757D064A4FE429C","title":"上海建筑科学研究院","lon":"121.44599914","lat":"31.195411682","category":"500","category_name":"未知分类","address":"上海徐汇区宛平南路75号"},{"poiid":"B2094655D264A0F84798","title":"如家快捷酒店(上海徐家汇宛平南路店)","lon":"121.4455","lat":"31.19594","category":"216","category_name":"经济型连锁酒店","address":"上海市徐汇区宛平南路65号(近肇家浜路)"},{"poiid":"B2094655D268A2FE4392","title":"雪莉保健会所","lon":"121.4449","lat":"31.19388","category":"149","category_name":"洗浴推拿场所","address":"辛耕路28临"},{"poiid":"B2094654DA6DA0F4479B","title":"申峰大厦","lon":"121.448","lat":"31.1937","category":"46","category_name":"楼宇","address":"上海市徐汇区天钥桥路438号"},{"poiid":"B2094757D168AAF94092","title":"好乐迪","lon":"121.44774758","lat":"31.196602773","category":"500","category_name":"未知分类","address":"上海市徐汇区宛平路"},{"poiid":"B2094757D06AA6FB429F","title":"福荣祥茶餐厅","lon":"121.44480258","lat":"31.19646877","category":"72","category_name":"广东菜","address":"徐汇区宛平南路3号"},{"poiid":"B2094654DA6DAAF9469E","title":"思妍丽(宛平南路)","lon":"121.44636","lat":"31.19463","category":"148","category_name":"美容美发店","address":"宛平南路99弄1号2层"},{"poiid":"B2094750D26AABFB4798","title":"星牌桌球","lon":"121.443237","lat":"31.194593","category":"248","category_name":"生活娱乐","address":"辛耕路"},{"poiid":"B2094757D66DA4F9499E","title":"釜山料理","lon":"121.44442258","lat":"31.192564694","category":"247","category_name":"餐饮美食","address":"上海市徐汇区肇嘉浜路"},{"poiid":"B2094757D464A6FE429D","title":"雄记桂林米粉 宛平南路店","lon":"121.44522599725","lat":"31.194680137393","category":"68","category_name":"快餐厅","address":"徐汇区宛平南路160号(近辛耕路)"},{"poiid":"B2094654DB6BA5F8499C","title":"苏宁电器(肇家浜路店)","lon":"121.44357","lat":"31.19593","category":"138","category_name":"家电电子卖场","address":"肇嘉浜路919、929、939号"},{"poiid":"B2094752DB6EAAFF469C","title":"正大乐城","lon":"121.444137","lat":"31.194528","category":"170","category_name":"KTV","address":"上海市 上海市徐汇区中山南二路699号"},{"poiid":"B2094757D064A3FA4192","title":"辣俯","lon":"121.44408558","lat":"31.194564733","category":"247","category_name":"餐饮美食","address":"上海市嘉善路"},{"poiid":"B2094753DA6EA4FC4592","title":"徐家汇花园","lon":"121.4466297","lat":"31.19322638","category":"47","category_name":"住宅区","address":"宛平南路255弄"},{"poiid":"B2094655D26FA5FC479C","title":"永新世纪","lon":"121.44489","lat":"31.19298","category":"47","category_name":"住宅区","address":"辛耕路81弄"},{"poiid":"B2094757D169A2F8499C","title":"艾维庭美容身心会馆(永新店)","lon":"121.44544849","lat":"31.194164741","category":"148","category_name":"美容美发店","address":"上海徐汇区辛耕路18号1-3楼(近宛平南路)"},{"poiid":"B2094655D268A7F94899","title":"城建地产大厦","lon":"121.448","lat":"31.1963","category":"46","category_name":"楼宇","address":"上海市徐汇区南丹东路161号"},{"poiid":"B2094750D56FA5FC459A","title":"国泰电影院","lon":"121.445716","lat":"31.192508","category":"178","category_name":"电影院","address":null},{"poiid":"B2094654DA6DAAF9469A","title":"新汇公寓","lon":"121.4462","lat":"31.195114","category":"47","category_name":"住宅区","address":"宛平南路99弄2-3号"},{"poiid":"B2094654DA6DAAF9469C","title":"水之城咖啡 宛平南路","lon":"121.44597842636","lat":"31.194528204112","category":"260","category_name":"其他","address":"徐汇区宛平南路181号(宛平南路辛耕路)"},{"poiid":"B2094757D069A4FF439D","title":"萨利亚","lon":"121.44782058","lat":"31.196573772","category":"249","category_name":"购物服务","address":"上海市徐汇区天钥桥路"},{"poiid":"B2094654DA6DAAF94499","title":"上海市建设和交通委员会科学技术委员会会议中心","lon":"121.44593","lat":"31.19553","category":"185","category_name":"会展中心","address":"宛平南路75号建科大厦13-14层"},{"poiid":"B2094655D26FA5FD4598","title":"橡胶小区","lon":"121.4456","lat":"31.196529","category":"47","category_name":"住宅区","address":"宛平南路19弄1-6号"},{"poiid":"B2094654DB69A6FD489A","title":"宝良商务楼","lon":"121.44477","lat":"31.19672","category":"46","category_name":"楼宇","address":"浦东区崂山东路410号"},{"poiid":"B2094750D76BA5FC469F","title":"徐汇公园","lon":"121.445549","lat":"31.195981","category":"250","category_name":"公园户外","address":"徐家汇"},{"poiid":"B2094750D768A4FC439F","title":"辛耕路烧烤摊","lon":"121.446","lat":"31.1944","category":"68","category_name":"快餐厅","address":"徐汇区辛耕路(宛平南路口)"},{"poiid":"B2094757D069AAFD4098","title":"正圆烩面","lon":"121.44598388","lat":"31.194431304","category":"247","category_name":"餐饮美食","address":"上海徐汇区宛平南路151号"},{"poiid":"B2094655D265A4FC439B","title":"阿耐思特岩田商务楼","lon":"121.44605","lat":"31.19372","category":"46","category_name":"楼宇","address":"宛平南路200"},{"poiid":"B2094750D66DA5F44398","title":"Green Massage(徐家汇店)","lon":"121.44421489416504","lat":"31.19347770731287","category":"149","category_name":"洗浴推拿场所","address":"徐汇区辛耕路88号"},{"poiid":"B2094757D16EABF84493","title":"Spring Spa&amp;Massage","lon":"121.446008586","lat":"31.1930167034","category":"149","category_name":"洗浴推拿场所","address":"上海市徐汇区宛平南路260号(近辛耕路)"},{"poiid":"B2094757D065A0F94993","title":"米乐布提(徐汇风尚店)","lon":"121.44498","lat":"31.19321","category":"500","category_name":"未知分类","address":"上海徐汇区辛耕路77号(近天钥桥路)  "},{"poiid":"B2094757D168A7F9439E","title":"迪士尼英语","lon":"121.44503458","lat":"31.194452731","category":"253","category_name":"校园生活","address":"上海市徐汇区辛耕路"},{"poiid":"B2094751D569AAFD419B","title":"美罗城B1英国屋","lon":"121.44751","lat":"31.196396","category":"47","category_name":"住宅区","address":"美罗城"},{"poiid":"B2094757D168A0F9409E","title":"德勤华永会计师事务所有限公司","lon":"121.447935586","lat":"31.1956107541","category":"46","category_name":"楼宇","address":"上海市黄浦区延安东路222号外滩中心30楼"},{"poiid":"B2094757D569A3FB4493","title":"徐家汇花园二期","lon":"121.4478072","lat":"31.19344306","category":"47","category_name":"住宅区","address":"徐家汇花园二期位于徐汇宛平南路233弄"},{"poiid":"B2094654DB69ABF9469A","title":"三人行骨头王火锅(徐汇总店)","lon":"121.44548","lat":"31.19707","category":"86","category_name":"火锅店","address":"徐汇区肇嘉浜路879号(近宛平南路)"},{"poiid":"B2094757D06FA3F84199","title":"三顾牛蛙馆(肇嘉浜路店)","lon":"121.44556","lat":"31.1966","category":"71","category_name":"四川菜","address":"徐汇区肇嘉浜路883号(宛平路口)"},{"poiid":"B2094757D06FA6FD489D","title":"亚都商务楼","lon":"121.444836","lat":"31.195017","category":"46","category_name":"楼宇","address":"上海南丹东路300弄9号"},{"poiid":"B2094654DA6DA4F84198","title":"临江豪园","lon":"121.447","lat":"31.1944","category":"47","category_name":"住宅区","address":"上海市徐汇区宛平南路921号"},{"poiid":"B2094757D06FA5F84692","title":"串串香麻辣烫","lon":"121.44614","lat":"31.19354","category":"68","category_name":"快餐厅","address":"徐汇区宛平南路200号(近辛耕路)"},{"poiid":"B2094757D069A3F54599","title":"斜土路宛平南路","lon":"121.44817258","lat":"31.193041703","category":"500","category_name":"未知分类","address":"上海市徐汇区肇嘉浜路"},{"poiid":"B2094751D568A4F84992","title":"沁泰（永新坊店）","lon":"121.444131","lat":"31.19286","category":"247","category_name":"餐饮美食","address":"徐汇区辛耕路109号永新坊1楼(近天钥桥路)"},{"poiid":"B2094757D16CA7F54292","title":"珞珈瑜伽旗舰店","lon":"121.444092","lat":"31.19347","category":"500","category_name":"未知分类","address":"上海辛耕路88号"},{"poiid":"B2094757D068A2FD489A","title":"京世造型(宛平店)","lon":"121.446784","lat":"31.192901","category":"148","category_name":"美容美发店","address":"上海徐汇区宛平南路271号"},{"poiid":"B2094757D069A3FA4299","title":"提香研磨咖啡","lon":"121.44662799152","lat":"31.193403622937","category":"260","category_name":"其他","address":"徐汇区宛平南路263号(近斜土路)"},{"poiid":"B2094655D26FA3FD4598","title":"苏宁电器肇嘉滨路店","lon":"121.44357","lat":"31.19593","category":"138","category_name":"家电电子卖场","address":"肇嘉浜路929号"},{"poiid":"B2094757D06FA7F54298","title":"徐家匯花園","lon":"121.44533538","lat":"31.196586608","category":"252","category_name":"楼宇机构","address":"上海宛平南路255弄"},{"poiid":"B2094757D06BA5FB4999","title":"重庆鸡公煲 宛平南路店","lon":"121.445872054","lat":"31.193667793","category":"71","category_name":"四川菜","address":"徐汇区宛平南路162号(宛平南路辛耕路)"},{"poiid":"B2094654DA6DA0FA4099","title":"汇峰大厦","lon":"121.446","lat":"31.1937","category":"46","category_name":"楼宇","address":"天钥桥路380弄20"},{"poiid":"B2094750D46DAAFD4799","title":"姐弟俩土豆粉","lon":"121.447593","lat":"31.193534","category":"247","category_name":"餐饮美食","address":null},{"poiid":"B2094757D064A4FE429C","title":"上海建筑科学研究院","lon":"121.44599914","lat":"31.195411682","category":"500","category_name":"未知分类","address":"上海徐汇区宛平南路75号"},{"poiid":"B2094655D264A0F84798","title":"如家快捷酒店(上海徐家汇宛平南路店)","lon":"121.4455","lat":"31.19594","category":"216","category_name":"经济型连锁酒店","address":"上海市徐汇区宛平南路65号(近肇家浜路)"},{"poiid":"B2094655D268A2FE4392","title":"雪莉保健会所","lon":"121.4449","lat":"31.19388","category":"149","category_name":"洗浴推拿场所","address":"辛耕路28临"},{"poiid":"B2094654DA6DA0F4479B","title":"申峰大厦","lon":"121.448","lat":"31.1937","category":"46","category_name":"楼宇","address":"上海市徐汇区天钥桥路438号"},{"poiid":"B2094757D168AAF94092","title":"好乐迪","lon":"121.44774758","lat":"31.196602773","category":"500","category_name":"未知分类","address":"上海市徐汇区宛平路"},{"poiid":"B2094757D06AA6FB429F","title":"福荣祥茶餐厅","lon":"121.44480258","lat":"31.19646877","category":"72","category_name":"广东菜","address":"徐汇区宛平南路3号"},{"poiid":"B2094654DA6DAAF9469E","title":"思妍丽(宛平南路)","lon":"121.44636","lat":"31.19463","category":"148","category_name":"美容美发店","address":"宛平南路99弄1号2层"},{"poiid":"B2094750D26AABFB4798","title":"星牌桌球","lon":"121.443237","lat":"31.194593","category":"248","category_name":"生活娱乐","address":"辛耕路"},{"poiid":"B2094757D66DA4F9499E","title":"釜山料理","lon":"121.44442258","lat":"31.192564694","category":"247","category_name":"餐饮美食","address":"上海市徐汇区肇嘉浜路"},{"poiid":"B2094757D464A6FE429D","title":"雄记桂林米粉 宛平南路店","lon":"121.44522599725","lat":"31.194680137393","category":"68","category_name":"快餐厅","address":"徐汇区宛平南路160号(近辛耕路)"},{"poiid":"B2094654DB6BA5F8499C","title":"苏宁电器(肇家浜路店)","lon":"121.44357","lat":"31.19593","category":"138","category_name":"家电电子卖场","address":"肇嘉浜路919、929、939号"},{"poiid":"B2094752DB6EAAFF469C","title":"正大乐城","lon":"121.444137","lat":"31.194528","category":"170","category_name":"KTV","address":"上海市 上海市徐汇区中山南二路699号"},{"poiid":"B2094757D064A3FA4192","title":"辣俯","lon":"121.44408558","lat":"31.194564733","category":"247","category_name":"餐饮美食","address":"上海市嘉善路"},{"poiid":"B2094753DA6EA4FC4592","title":"徐家汇花园","lon":"121.4466297","lat":"31.19322638","category":"47","category_name":"住宅区","address":"宛平南路255弄"},{"poiid":"B2094655D26FA5FC479C","title":"永新世纪","lon":"121.44489","lat":"31.19298","category":"47","category_name":"住宅区","address":"辛耕路81弄"},{"poiid":"B2094757D169A2F8499C","title":"艾维庭美容身心会馆(永新店)","lon":"121.44544849","lat":"31.194164741","category":"148","category_name":"美容美发店","address":"上海徐汇区辛耕路18号1-3楼(近宛平南路)"},{"poiid":"B2094655D268A7F94899","title":"城建地产大厦","lon":"121.448","lat":"31.1963","category":"46","category_name":"楼宇","address":"上海市徐汇区南丹东路161号"},{"poiid":"B2094750D56FA5FC459A","title":"国泰电影院","lon":"121.445716","lat":"31.192508","category":"178","category_name":"电影院","address":null},{"poiid":"B2094654DA6DAAF9469A","title":"新汇公寓","lon":"121.4462","lat":"31.195114","category":"47","category_name":"住宅区","address":"宛平南路99弄2-3号"},{"poiid":"B2094654DA6DAAF9469C","title":"水之城咖啡 宛平南路","lon":"121.44597842636","lat":"31.194528204112","category":"260","category_name":"其他","address":"徐汇区宛平南路181号(宛平南路辛耕路)"},{"poiid":"B2094757D069A4FF439D","title":"萨利亚","lon":"121.44782058","lat":"31.196573772","category":"249","category_name":"购物服务","address":"上海市徐汇区天钥桥路"},{"poiid":"B2094654DA6DAAF94499","title":"上海市建设和交通委员会科学技术委员会会议中心","lon":"121.44593","lat":"31.19553","category":"185","category_name":"会展中心","address":"宛平南路75号建科大厦13-14层"},{"poiid":"B2094655D26FA5FD4598","title":"橡胶小区","lon":"121.4456","lat":"31.196529","category":"47","category_name":"住宅区","address":"宛平南路19弄1-6号"},{"poiid":"B2094654DB69A6FD489A","title":"宝良商务楼","lon":"121.44477","lat":"31.19672","category":"46","category_name":"楼宇","address":"浦东区崂山东路410号"},{"poiid":"B2094750D76BA5FC469F","title":"徐汇公园","lon":"121.445549","lat":"31.195981","category":"250","category_name":"公园户外","address":"徐家汇"},{"poiid":"B2094750D768A4FC439F","title":"辛耕路烧烤摊","lon":"121.446","lat":"31.1944","category":"68","category_name":"快餐厅","address":"徐汇区辛耕路(宛平南路口)"},{"poiid":"B2094757D069AAFD4098","title":"正圆烩面","lon":"121.44598388","lat":"31.194431304","category":"247","category_name":"餐饮美食","address":"上海徐汇区宛平南路151号"},{"poiid":"B2094655D265A4FC439B","title":"阿耐思特岩田商务楼","lon":"121.44605","lat":"31.19372","category":"46","category_name":"楼宇","address":"宛平南路200"},{"poiid":"B2094750D66DA5F44398","title":"Green Massage(徐家汇店)","lon":"121.44421489416504","lat":"31.19347770731287","category":"149","category_name":"洗浴推拿场所","address":"徐汇区辛耕路88号"},{"poiid":"B2094757D16EABF84493","title":"Spring Spa&amp;Massage","lon":"121.446008586","lat":"31.1930167034","category":"149","category_name":"洗浴推拿场所","address":"上海市徐汇区宛平南路260号(近辛耕路)"},{"poiid":"B2094757D065A0F94993","title":"米乐布提(徐汇风尚店)","lon":"121.44498","lat":"31.19321","category":"500","category_name":"未知分类","address":"上海徐汇区辛耕路77号(近天钥桥路)  "},{"poiid":"B2094757D168A7F9439E","title":"迪士尼英语","lon":"121.44503458","lat":"31.194452731","category":"253","category_name":"校园生活","address":"上海市徐汇区辛耕路"},{"poiid":"B2094751D569AAFD419B","title":"美罗城B1英国屋","lon":"121.44751","lat":"31.196396","category":"47","category_name":"住宅区","address":"美罗城"},{"poiid":"B2094757D168A0F9409E","title":"德勤华永会计师事务所有限公司","lon":"121.447935586","lat":"31.1956107541","category":"46","category_name":"楼宇","address":"上海市黄浦区延安东路222号外滩中心30楼"},{"poiid":"B2094757D569A3FB4493","title":"徐家汇花园二期","lon":"121.4478072","lat":"31.19344306","category":"47","category_name":"住宅区","address":"徐家汇花园二期位于徐汇宛平南路233弄"},{"poiid":"B2094654DB69ABF9469A","title":"三人行骨头王火锅(徐汇总店)","lon":"121.44548","lat":"31.19707","category":"86","category_name":"火锅店","address":"徐汇区肇嘉浜路879号(近宛平南路)"},{"poiid":"B2094757D06FA3F84199","title":"三顾牛蛙馆(肇嘉浜路店)","lon":"121.44556","lat":"31.1966","category":"71","category_name":"四川菜","address":"徐汇区肇嘉浜路883号(宛平路口)"},{"poiid":"B2094757D06FA6FD489D","title":"亚都商务楼","lon":"121.444836","lat":"31.195017","category":"46","category_name":"楼宇","address":"上海南丹东路300弄9号"},{"poiid":"B2094654DA6DA4F84198","title":"临江豪园","lon":"121.447","lat":"31.1944","category":"47","category_name":"住宅区","address":"上海市徐汇区宛平南路921号"},{"poiid":"B2094757D06FA5F84692","title":"串串香麻辣烫","lon":"121.44614","lat":"31.19354","category":"68","category_name":"快餐厅","address":"徐汇区宛平南路200号(近辛耕路)"},{"poiid":"B2094757D069A3F54599","title":"斜土路宛平南路","lon":"121.44817258","lat":"31.193041703","category":"500","category_name":"未知分类","address":"上海市徐汇区肇嘉浜路"},{"poiid":"B2094751D568A4F84992","title":"沁泰（永新坊店）","lon":"121.444131","lat":"31.19286","category":"247","category_name":"餐饮美食","address":"徐汇区辛耕路109号永新坊1楼(近天钥桥路)"},{"poiid":"B2094757D16CA7F54292","title":"珞珈瑜伽旗舰店","lon":"121.444092","lat":"31.19347","category":"500","category_name":"未知分类","address":"上海辛耕路88号"},{"poiid":"B2094757D068A2FD489A","title":"京世造型(宛平店)","lon":"121.446784","lat":"31.192901","category":"148","category_name":"美容美发店","address":"上海徐汇区宛平南路271号"},{"poiid":"B2094757D069A3FA4299","title":"提香研磨咖啡","lon":"121.44662799152","lat":"31.193403622937","category":"260","category_name":"其他","address":"徐汇区宛平南路263号(近斜土路)"},{"poiid":"B2094655D26FA3FD4598","title":"苏宁电器肇嘉滨路店","lon":"121.44357","lat":"31.19593","category":"138","category_name":"家电电子卖场","address":"肇嘉浜路929号"},{"poiid":"B2094757D06FA7F54298","title":"徐家匯花園","lon":"121.44533538","lat":"31.196586608","category":"252","category_name":"楼宇机构","address":"上海宛平南路255弄"},{"poiid":"B2094757D06BA5FB4999","title":"重庆鸡公煲 宛平南路店","lon":"121.445872054","lat":"31.193667793","category":"71","category_name":"四川菜","address":"徐汇区宛平南路162号(宛平南路辛耕路)"},{"poiid":"B2094654DA6DA0FA4099","title":"汇峰大厦","lon":"121.446","lat":"31.1937","category":"46","category_name":"楼宇","address":"天钥桥路380弄20"},{"poiid":"B2094750D46DAAFD4799","title":"姐弟俩土豆粉","lon":"121.447593","lat":"31.193534","category":"247","category_name":"餐饮美食","address":null},{"poiid":"B2094757D064A4FE429C","title":"上海建筑科学研究院","lon":"121.44599914","lat":"31.195411682","category":"500","category_name":"未知分类","address":"上海徐汇区宛平南路75号"},{"poiid":"B2094655D264A0F84798","title":"如家快捷酒店(上海徐家汇宛平南路店)","lon":"121.4455","lat":"31.19594","category":"216","category_name":"经济型连锁酒店","address":"上海市徐汇区宛平南路65号(近肇家浜路)"},{"poiid":"B2094655D268A2FE4392","title":"雪莉保健会所","lon":"121.4449","lat":"31.19388","category":"149","category_name":"洗浴推拿场所","address":"辛耕路28临"},{"poiid":"B2094654DA6DA0F4479B","title":"申峰大厦","lon":"121.448","lat":"31.1937","category":"46","category_name":"楼宇","address":"上海市徐汇区天钥桥路438号"},{"poiid":"B2094757D168AAF94092","title":"好乐迪","lon":"121.44774758","lat":"31.196602773","category":"500","category_name":"未知分类","address":"上海市徐汇区宛平路"},{"poiid":"B2094757D06AA6FB429F","title":"福荣祥茶餐厅","lon":"121.44480258","lat":"31.19646877","category":"72","category_name":"广东菜","address":"徐汇区宛平南路3号"},{"poiid":"B2094654DA6DAAF9469E","title":"思妍丽(宛平南路)","lon":"121.44636","lat":"31.19463","category":"148","category_name":"美容美发店","address":"宛平南路99弄1号2层"},{"poiid":"B2094750D26AABFB4798","title":"星牌桌球","lon":"121.443237","lat":"31.194593","category":"248","category_name":"生活娱乐","address":"辛耕路"},{"poiid":"B2094757D66DA4F9499E","title":"釜山料理","lon":"121.44442258","lat":"31.192564694","category":"247","category_name":"餐饮美食","address":"上海市徐汇区肇嘉浜路"},{"poiid":"B2094757D464A6FE429D","title":"雄记桂林米粉 宛平南路店","lon":"121.44522599725","lat":"31.194680137393","category":"68","category_name":"快餐厅","address":"徐汇区宛平南路160号(近辛耕路)"},{"poiid":"B2094654DB6BA5F8499C","title":"苏宁电器(肇家浜路店)","lon":"121.44357","lat":"31.19593","category":"138","category_name":"家电电子卖场","address":"肇嘉浜路919、929、939号"},{"poiid":"B2094752DB6EAAFF469C","title":"正大乐城","lon":"121.444137","lat":"31.194528","category":"170","category_name":"KTV","address":"上海市 上海市徐汇区中山南二路699号"},{"poiid":"B2094757D064A3FA4192","title":"辣俯","lon":"121.44408558","lat":"31.194564733","category":"247","category_name":"餐饮美食","address":"上海市嘉善路"},{"poiid":"B2094753DA6EA4FC4592","title":"徐家汇花园","lon":"121.4466297","lat":"31.19322638","category":"47","category_name":"住宅区","address":"宛平南路255弄"},{"poiid":"B2094655D26FA5FC479C","title":"永新世纪","lon":"121.44489","lat":"31.19298","category":"47","category_name":"住宅区","address":"辛耕路81弄"},{"poiid":"B2094757D169A2F8499C","title":"艾维庭美容身心会馆(永新店)","lon":"121.44544849","lat":"31.194164741","category":"148","category_name":"美容美发店","address":"上海徐汇区辛耕路18号1-3楼(近宛平南路)"},{"poiid":"B2094655D268A7F94899","title":"城建地产大厦","lon":"121.448","lat":"31.1963","category":"46","category_name":"楼宇","address":"上海市徐汇区南丹东路161号"},{"poiid":"B2094750D56FA5FC459A","title":"国泰电影院","lon":"121.445716","lat":"31.192508","category":"178","category_name":"电影院","address":null},{"poiid":"B2094654DA6DAAF9469A","title":"新汇公寓","lon":"121.4462","lat":"31.195114","category":"47","category_name":"住宅区","address":"宛平南路99弄2-3号"},{"poiid":"B2094654DA6DAAF9469C","title":"水之城咖啡 宛平南路","lon":"121.44597842636","lat":"31.194528204112","category":"260","category_name":"其他","address":"徐汇区宛平南路181号(宛平南路辛耕路)"},{"poiid":"B2094757D069A4FF439D","title":"萨利亚","lon":"121.44782058","lat":"31.196573772","category":"249","category_name":"购物服务","address":"上海市徐汇区天钥桥路"},{"poiid":"B2094654DA6DAAF94499","title":"上海市建设和交通委员会科学技术委员会会议中心","lon":"121.44593","lat":"31.19553","category":"185","category_name":"会展中心","address":"宛平南路75号建科大厦13-14层"},{"poiid":"B2094655D26FA5FD4598","title":"橡胶小区","lon":"121.4456","lat":"31.196529","category":"47","category_name":"住宅区","address":"宛平南路19弄1-6号"},{"poiid":"B2094654DB69A6FD489A","title":"宝良商务楼","lon":"121.44477","lat":"31.19672","category":"46","category_name":"楼宇","address":"浦东区崂山东路410号"},{"poiid":"B2094750D76BA5FC469F","title":"徐汇公园","lon":"121.445549","lat":"31.195981","category":"250","category_name":"公园户外","address":"徐家汇"},{"poiid":"B2094750D768A4FC439F","title":"辛耕路烧烤摊","lon":"121.446","lat":"31.1944","category":"68","category_name":"快餐厅","address":"徐汇区辛耕路(宛平南路口)"},{"poiid":"B2094757D069AAFD4098","title":"正圆烩面","lon":"121.44598388","lat":"31.194431304","category":"247","category_name":"餐饮美食","address":"上海徐汇区宛平南路151号"},{"poiid":"B2094655D265A4FC439B","title":"阿耐思特岩田商务楼","lon":"121.44605","lat":"31.19372","category":"46","category_name":"楼宇","address":"宛平南路200"},{"poiid":"B2094750D66DA5F44398","title":"Green Massage(徐家汇店)","lon":"121.44421489416504","lat":"31.19347770731287","category":"149","category_name":"洗浴推拿场所","address":"徐汇区辛耕路88号"},{"poiid":"B2094757D16EABF84493","title":"Spring Spa&amp;Massage","lon":"121.446008586","lat":"31.1930167034","category":"149","category_name":"洗浴推拿场所","address":"上海市徐汇区宛平南路260号(近辛耕路)"},{"poiid":"B2094757D065A0F94993","title":"米乐布提(徐汇风尚店)","lon":"121.44498","lat":"31.19321","category":"500","category_name":"未知分类","address":"上海徐汇区辛耕路77号(近天钥桥路)  "},{"poiid":"B2094757D168A7F9439E","title":"迪士尼英语","lon":"121.44503458","lat":"31.194452731","category":"253","category_name":"校园生活","address":"上海市徐汇区辛耕路"},{"poiid":"B2094751D569AAFD419B","title":"美罗城B1英国屋","lon":"121.44751","lat":"31.196396","category":"47","category_name":"住宅区","address":"美罗城"},{"poiid":"B2094757D168A0F9409E","title":"德勤华永会计师事务所有限公司","lon":"121.447935586","lat":"31.1956107541","category":"46","category_name":"楼宇","address":"上海市黄浦区延安东路222号外滩中心30楼"},{"poiid":"B2094757D569A3FB4493","title":"徐家汇花园二期","lon":"121.4478072","lat":"31.19344306","category":"47","category_name":"住宅区","address":"徐家汇花园二期位于徐汇宛平南路233弄"}]