[{"poiid":"B2094757D068A3F94892","title":"上海万体馆","lon":"121.438225586","lat":"31.1821814917","category":"148","category_name":"美容美发店","address":"上海漕溪北路中山西路"},{"poiid":"B2094750D26FA7FF499E","title":"弗拉明戈万国手工啤酒餐厅","lon":"121.442062","lat":"31.188646","category":"94","category_name":"西餐厅","address":"徐汇区天钥桥路323号美城天地2楼"},{"poiid":"B2094655D26EA6F94899","title":"德林酸菜鱼(南丹店)","lon":"121.44148","lat":"31.19023","category":"257","category_name":"中餐厅","address":"徐汇区南丹东路157号(近天钥桥路)"},{"poiid":"B2094750D76FAAFC499C","title":"首尔焖鲜汇(腾飞店)","lon":"121.442","lat":"31.1884","category":"96","category_name":"韩国料理","address":"徐汇区天钥桥路333号腾飞大厦2-18室(近南丹东路)"},{"poiid":"B2094751DA6DA3FD469F","title":"台湾美食街","lon":"121.438873","lat":"31.190506","category":"91","category_name":"台湾菜","address":"徐汇区漕溪北路333号百脑汇二期5楼(近徐家汇地铁站4、5号出口)"},{"poiid":"B2094757D06FA3FD4692","title":"和记小菜 南丹店","lon":"121.43830584704","lat":"31.188882741901","category":"76","category_name":"上海菜","address":"徐汇区南丹东路188号(近天钥桥路)"},{"poiid":"B2094757D06FA1FE4799","title":"烧肉达人(天钥桥路店)","lon":"121.442123586","lat":"31.1884576143","category":"500","category_name":"未知分类","address":"上海市徐汇区天钥桥路333号腾飞大厦2F201"},{"poiid":"B2094757D06EAAF44999","title":"鲜芋仙(天钥桥路店)","lon":"121.442054686","lat":"31.1897338393","category":"67","category_name":"甜品店","address":"徐汇区天钥桥路307号(南丹东路口)"},{"poiid":"B2094654DB69A4F8429F","title":"星巴克(嘉汇店)","lon":"121.441984","lat":"31.188502","category":"65","category_name":"咖啡厅","address":"徐汇区天钥桥路323号(近南丹东路)"},{"poiid":"B2094757D06FA3F8459C","title":"上海大饭堂","lon":"121.44217","lat":"31.18985","category":"76","category_name":"上海菜","address":"徐汇区天钥桥路220号(近南丹东路)"},{"poiid":"B2094757D068A3F8449D","title":"滩悦(天钥桥路店)","lon":"121.442069586","lat":"31.1887286196","category":"76","category_name":"上海菜","address":"徐汇区天钥桥路323号美城天地4楼(近南丹东路)"},{"poiid":"B2094757D06EAAFE419D","title":"鼎中鼎澳门豆捞 天钥桥店 Macao Dolar","lon":"121.44219","lat":"31.18893","category":"86","category_name":"火锅店","address":"上海徐汇区天钥桥路323号美城天地3楼(近慈云街)"},{"poiid":"B2094757D06FA1F54693","title":"腾飞广场","lon":"121.44219","lat":"31.19006","category":"119","category_name":"商场","address":"徐汇区天钥桥路333号腾飞大厦内(近南丹东路)"},{"poiid":"B2094654DA6DA0FF499C","title":"避风塘 天钥桥路店","lon":"121.442166054","lat":"31.188890793","category":"72","category_name":"广东菜","address":"徐汇区天钥桥路333号腾飞大厦1-2楼(近南丹东路)"},{"poiid":"B2094757D065ABFA479A","title":"钱柜","lon":"121.438956586","lat":"31.1879476044","category":"500","category_name":"未知分类","address":"上海市徐汇区文定路"},{"poiid":"B2094757D069A1F9479F","title":"屋企汤馆","lon":"121.441382586","lat":"31.188287611","category":"72","category_name":"广东菜","address":"徐汇区天钥桥路386号3楼"},{"poiid":"B2094757D068ABFA459D","title":"COSTA COFFEE(腾飞店)","lon":"121.442114986","lat":"31.1879901052","category":"65","category_name":"咖啡厅","address":"徐汇区天钥桥路333号腾飞大厦1楼110室(南丹东路口)"},{"poiid":"B2094655D268A7F5409F","title":"美城天地","lon":"121.441984","lat":"31.188502","category":"76","category_name":"上海菜","address":"徐汇区天钥桥路323号(近南丹东路)"},{"poiid":"B2094757D06FABFF4992","title":"天圣酸菜鱼火锅(南丹东路店)","lon":"121.44196","lat":"31.18986","category":"86","category_name":"火锅店","address":"徐汇区南丹东路157号(近天钥桥路)"},{"poiid":"B2094751DA6DA2F8499D","title":"老工厂重庆火锅","lon":"121.44257","lat":"31.18958","category":"86","category_name":"火锅店","address":"徐汇区南丹东路108号(天钥桥路口)"},{"poiid":"B2094750D268A3FC4492","title":"烧肉达人(腾飞广场店)","lon":"121.4423963624572","lat":"31.18944563055144","category":"269","category_name":"烧烤","address":"徐汇区天钥桥路333号腾飞广场2楼201室(近南丹东路)"},{"poiid":"B2094752DA65A5FB419E","title":"西贝西北菜（腾飞店）","lon":"121.442068","lat":"31.188528","category":"500","category_name":"未知分类","address":"上海市 天钥桥路333号腾飞大厦401号铺"},{"poiid":"B2094757D068ABFB4792","title":"上海德克士五代店","lon":"121.441778586","lat":"31.188288611","category":"68","category_name":"快餐厅","address":"徐汇区天钥桥路386号(近腾飞大厦)"},{"poiid":"B2094757D068A7F84999","title":"明申中心大厦","lon":"121.439063","lat":"31.188064","category":"46","category_name":"楼宇","address":"鲁尔大厦位于铁西兴华南街5号"},{"poiid":"B2094654DB6AA3FC449A","title":"金轩大厦","lon":"121.43918","lat":"31.18889","category":"46","category_name":"楼宇","address":"北京西路1028号,江宁路168号"},{"poiid":"B2094654DB6BA5F8419F","title":"萨莉亚 徐汇店 Saizeriya","lon":"121.44215200924","lat":"31.189608329","category":"94","category_name":"西餐厅","address":"徐汇区南丹东路108号2楼202室(近天钥桥路)"},{"poiid":"B2094654DB6BA5F94798","title":"一番屋","lon":"121.44172","lat":"31.18818","category":"95","category_name":"日本料理","address":"徐汇区天钥桥路386号2楼(近南丹东路)"},{"poiid":"B2094757D068A2F44993","title":"新.九球会台球俱乐部","lon":"121.43999087","lat":"31.187864552","category":"171","category_name":"台球厅","address":"上海天钥桥路380弄30号3楼"},{"poiid":"B2094757D068ABFA4992","title":"莱诗邸","lon":"121.43973","lat":"31.190178","category":"47","category_name":"住宅区","address":"上海徐汇区南丹东路223弄(近漕溪北路)"},{"poiid":"B2094757D169A4F5449E","title":"稻叶沾面","lon":"121.442073586","lat":"31.1880666067","category":"68","category_name":"快餐厅","address":"徐汇区天钥桥路333号腾飞大厦2楼202-205单元(近南丹东路)"},{"poiid":"B2094654DA6DA2F54292","title":"沧浪亭 天钥桥路店","lon":"121.442189054","lat":"31.189149793","category":"68","category_name":"快餐厅","address":"徐汇区天钥桥路363号(近南丹东路)"},{"poiid":"B2094757D568A5FF4193","title":"上雅铁板烧(徐汇店)","lon":"121.438598099998","lat":"31.1886250000002","category":"269","category_name":"烧烤","address":"徐汇区南丹东路300号亚都商务楼9号(近漕溪北路)"},{"poiid":"B2094752DA6AABFE4298","title":"弗拉明戈万国手工啤酒餐厅","lon":"121.440231","lat":"31.190414","category":"500","category_name":"未知分类","address":"上海市 上海市徐汇区南丹东路"},{"poiid":"B2094757D069A0FC449A","title":"康骏保健中心(南丹路店)","lon":"121.44","lat":"31.18916","category":"500","category_name":"未知分类","address":"上海徐汇区南丹东路209号  "},{"poiid":"B2094654DA6DA0FB459A","title":"亚历山大瑜珈馆","lon":"121.44171","lat":"31.18898","category":"221","category_name":"健身中心","address":"天钥桥路318"},{"poiid":"B2094757D468AAFC4892","title":"上岛咖啡 南丹东路店 U.B.C. Coffee","lon":"121.4387008","lat":"31.1891607","category":"65","category_name":"咖啡厅","address":"徐汇区南丹东路238号新东亚大酒店3楼"},{"poiid":"B2094752D669A7F4439A","title":"日月光","lon":"121.44101","lat":"31.187775","category":"247","category_name":"餐饮美食","address":"打浦桥"},{"poiid":"B2094757D06FA5FE4999","title":"超级鸡车","lon":"121.44212058","lat":"31.188213609","category":"68","category_name":"快餐厅","address":"徐汇区天钥桥路386号(近慈云街)"},{"poiid":"B2094750D66DA5FD4692","title":"天圣巫山烤全鱼","lon":"121.438926","lat":"31.189409","category":"247","category_name":"餐饮美食","address":null},{"poiid":"B2094752D368A7FC409D","title":"台塑王品","lon":"121.438644","lat":"31.189725","category":"247","category_name":"餐饮美食","address":null},{"poiid":"B2094750D768A1F9459D","title":"八间","lon":"121.439","lat":"31.1891","category":"95","category_name":"日本料理","address":"徐汇区南丹东路238号新东亚酒店1楼(近天钥桥路)"},{"poiid":"B2094753D269ABFD4298","title":"上海老站","lon":"121.438856","lat":"31.189558","category":"500","category_name":"未知分类","address":"上海市 上海市漕溪北路201号"},{"poiid":"B2094750DA6FABFD4593","title":"耶里夏利","lon":"121.438812","lat":"31.189483","category":"247","category_name":"餐饮美食","address":null},{"poiid":"B2094752D665A1FB4799","title":"鎌倉ＰＡＳＴＡ","lon":"121.438941","lat":"31.189423","category":"247","category_name":"餐饮美食","address":"徐家汇美罗城五番街"},{"poiid":"B209475CD069A7F54298","title":"米哲锅物专门店","lon":"121.441978","lat":"31.188321","category":"95","category_name":"日本料理","address":"天钥桥路333号腾飞大厦2楼"},{"poiid":"B2094757D068ABF4499F","title":"阿波特西班牙餐厅","lon":"121.442362571","lat":"31.1900596732","category":"94","category_name":"西餐厅","address":"徐汇区南丹东路129号(近天钥桥路)"},{"poiid":"B2094654DA6DA0FA419B","title":"久隆大厦","lon":"121.44021","lat":"31.18919","category":"46","category_name":"楼宇","address":"朝阳亚运村北炎黄艺术馆旁"},{"poiid":"B2094757D06FA0F4459E","title":"京星港式餐厅","lon":"121.44230377","lat":"31.189875292","category":"72","category_name":"广东菜","address":"徐汇区天钥桥路313号2楼(南丹东路口)"},{"poiid":"B2094757D66EA4F9459D","title":"西堤","lon":"121.43969358","lat":"31.189633637","category":"500","category_name":"未知分类","address":"上海市徐汇区蒲西路"},{"poiid":"B2094750DA64A6FD499A","title":"德林酸菜鱼","lon":"121.438926","lat":"31.189409","category":"247","category_name":"餐饮美食","address":"龙漕路63"},{"poiid":"B2094757D068A3F94892","title":"上海万体馆","lon":"121.438225586","lat":"31.1821814917","category":"148","category_name":"美容美发店","address":"上海漕溪北路中山西路"},{"poiid":"B2094750D26FA7FF499E","title":"弗拉明戈万国手工啤酒餐厅","lon":"121.442062","lat":"31.188646","category":"94","category_name":"西餐厅","address":"徐汇区天钥桥路323号美城天地2楼"},{"poiid":"B2094655D26EA6F94899","title":"德林酸菜鱼(南丹店)","lon":"121.44148","lat":"31.19023","category":"257","category_name":"中餐厅","address":"徐汇区南丹东路157号(近天钥桥路)"},{"poiid":"B2094750D76FAAFC499C","title":"首尔焖鲜汇(腾飞店)","lon":"121.442","lat":"31.1884","category":"96","category_name":"韩国料理","address":"徐汇区天钥桥路333号腾飞大厦2-18室(近南丹东路)"},{"poiid":"B2094751DA6DA3FD469F","title":"台湾美食街","lon":"121.438873","lat":"31.190506","category":"91","category_name":"台湾菜","address":"徐汇区漕溪北路333号百脑汇二期5楼(近徐家汇地铁站4、5号出口)"},{"poiid":"B2094757D06FA3FD4692","title":"和记小菜 南丹店","lon":"121.43830584704","lat":"31.188882741901","category":"76","category_name":"上海菜","address":"徐汇区南丹东路188号(近天钥桥路)"},{"poiid":"B2094757D06FA1FE4799","title":"烧肉达人(天钥桥路店)","lon":"121.442123586","lat":"31.1884576143","category":"500","category_name":"未知分类","address":"上海市徐汇区天钥桥路333号腾飞大厦2F201"},{"poiid":"B2094757D06EAAF44999","title":"鲜芋仙(天钥桥路店)","lon":"121.442054686","lat":"31.1897338393","category":"67","category_name":"甜品店","address":"徐汇区天钥桥路307号(南丹东路口)"},{"poiid":"B2094654DB69A4F8429F","title":"星巴克(嘉汇店)","lon":"121.441984","lat":"31.188502","category":"65","category_name":"咖啡厅","address":"徐汇区天钥桥路323号(近南丹东路)"},{"poiid":"B2094757D06FA3F8459C","title":"上海大饭堂","lon":"121.44217","lat":"31.18985","category":"76","category_name":"上海菜","address":"徐汇区天钥桥路220号(近南丹东路)"},{"poiid":"B2094757D068A3F8449D","title":"滩悦(天钥桥路店)","lon":"121.442069586","lat":"31.1887286196","category":"76","category_name":"上海菜","address":"徐汇区天钥桥路323号美城天地4楼(近南丹东路)"},{"poiid":"B2094757D06EAAFE419D","title":"鼎中鼎澳门豆捞 天钥桥店 Macao Dolar","lon":"121.44219","lat":"31.18893","category":"86","category_name":"火锅店","address":"上海徐汇区天钥桥路323号美城天地3楼(近慈云街)"},{"poiid":"B2094757D06FA1F54693","title":"腾飞广场","lon":"121.44219","lat":"31.19006","category":"119","category_name":"商场","address":"徐汇区天钥桥路333号腾飞大厦内(近南丹东路)"},{"poiid":"B2094654DA6DA0FF499C","title":"避风塘 天钥桥路店","lon":"121.442166054","lat":"31.188890793","category":"72","category_name":"广东菜","address":"徐汇区天钥桥路333号腾飞大厦1-2楼(近南丹东路)"},{"poiid":"B2094757D065ABFA479A","title":"钱柜","lon":"121.438956586","lat":"31.1879476044","category":"500","category_name":"未知分类","address":"上海市徐汇区文定路"},{"poiid":"B2094757D069A1F9479F","title":"屋企汤馆","lon":"121.441382586","lat":"31.188287611","category":"72","category_name":"广东菜","address":"徐汇区天钥桥路386号3楼"},{"poiid":"B2094757D068ABFA459D","title":"COSTA COFFEE(腾飞店)","lon":"121.442114986","lat":"31.1879901052","category":"65","category_name":"咖啡厅","address":"徐汇区天钥桥路333号腾飞大厦1楼110室(南丹东路口)"},{"poiid":"B2094655D268A7F5409F","title":"美城天地","lon":"121.441984","lat":"31.188502","category":"76","category_name":"上海菜","address":"徐汇区天钥桥路323号(近南丹东路)"},{"poiid":"B2094757D06FABFF4992","title":"天圣酸菜鱼火锅(南丹东路店)","lon":"121.44196","lat":"31.18986","category":"86","category_name":"火锅店","address":"徐汇区南丹东路157号(近天钥桥路)"},{"poiid":"B2094751DA6DA2F8499D","title":"老工厂重庆火锅","lon":"121.44257","lat":"31.18958","category":"86","category_name":"火锅店","address":"徐汇区南丹东路108号(天钥桥路口)"},{"poiid":"B2094750D268A3FC4492","title":"烧肉达人(腾飞广场店)","lon":"121.4423963624572","lat":"31.18944563055144","category":"269","category_name":"烧烤","address":"徐汇区天钥桥路333号腾飞广场2楼201室(近南丹东路)"},{"poiid":"B2094752DA65A5FB419E","title":"西贝西北菜（腾飞店）","lon":"121.442068","lat":"31.188528","category":"500","category_name":"未知分类","address":"上海市 天钥桥路333号腾飞大厦401号铺"},{"poiid":"B2094757D068ABFB4792","title":"上海德克士五代店","lon":"121.441778586","lat":"31.188288611","category":"68","category_name":"快餐厅","address":"徐汇区天钥桥路386号(近腾飞大厦)"},{"poiid":"B2094757D068A7F84999","title":"明申中心大厦","lon":"121.439063","lat":"31.188064","category":"46","category_name":"楼宇","address":"鲁尔大厦位于铁西兴华南街5号"},{"poiid":"B2094654DB6AA3FC449A","title":"金轩大厦","lon":"121.43918","lat":"31.18889","category":"46","category_name":"楼宇","address":"北京西路1028号,江宁路168号"},{"poiid":"B2094654DB6BA5F8419F","title":"萨莉亚 徐汇店 Saizeriya","lon":"121.44215200924","lat":"31.189608329","category":"94","category_name":"西餐厅","address":"徐汇区南丹东路108号2楼202室(近天钥桥路)"},{"poiid":"B2094654DB6BA5F94798","title":"一番屋","lon":"121.44172","lat":"31.18818","category":"95","category_name":"日本料理","address":"徐汇区天钥桥路386号2楼(近南丹东路)"},{"poiid":"B2094757D068A2F44993","title":"新.九球会台球俱乐部","lon":"121.43999087","lat":"31.187864552","category":"171","category_name":"台球厅","address":"上海天钥桥路380弄30号3楼"},{"poiid":"B2094757D068ABFA4992","title":"莱诗邸","lon":"121.43973","lat":"31.190178","category":"47","category_name":"住宅区","address":"上海徐汇区南丹东路223弄(近漕溪北路)"},{"poiid":"B2094757D169A4F5449E","title":"稻叶沾面","lon":"121.442073586","lat":"31.1880666067","category":"68","category_name":"快餐厅","address":"徐汇区天钥桥路333号腾飞大厦2楼202-205单元(近南丹东路)"},{"poiid":"B2094654DA6DA2F54292","title":"沧浪亭 天钥桥路店","lon":"121.442189054","lat":"31.189149793","category":"68","category_name":"快餐厅","address":"徐汇区天钥桥路363号(近南丹东路)"},{"poiid":"B2094757D568A5FF4193","title":"上雅铁板烧(徐汇店)","lon":"121.438598099998","lat":"31.1886250000002","category":"269","category_name":"烧烤","address":"徐汇区南丹东路300号亚都商务楼9号(近漕溪北路)"},{"poiid":"B2094752DA6AABFE4298","title":"弗拉明戈万国手工啤酒餐厅","lon":"121.440231","lat":"31.190414","category":"500","category_name":"未知分类","address":"上海市 上海市徐汇区南丹东路"},{"poiid":"B2094757D069A0FC449A","title":"康骏保健中心(南丹路店)","lon":"121.44","lat":"31.18916","category":"500","category_name":"未知分类","address":"上海徐汇区南丹东路209号  "},{"poiid":"B2094654DA6DA0FB459A","title":"亚历山大瑜珈馆","lon":"121.44171","lat":"31.18898","category":"221","category_name":"健身中心","address":"天钥桥路318"},{"poiid":"B2094757D468AAFC4892","title":"上岛咖啡 南丹东路店 U.B.C. Coffee","lon":"121.4387008","lat":"31.1891607","category":"65","category_name":"咖啡厅","address":"徐汇区南丹东路238号新东亚大酒店3楼"},{"poiid":"B2094752D669A7F4439A","title":"日月光","lon":"121.44101","lat":"31.187775","category":"247","category_name":"餐饮美食","address":"打浦桥"},{"poiid":"B2094757D06FA5FE4999","title":"超级鸡车","lon":"121.44212058","lat":"31.188213609","category":"68","category_name":"快餐厅","address":"徐汇区天钥桥路386号(近慈云街)"},{"poiid":"B2094750D66DA5FD4692","title":"天圣巫山烤全鱼","lon":"121.438926","lat":"31.189409","category":"247","category_name":"餐饮美食","address":null},{"poiid":"B2094752D368A7FC409D","title":"台塑王品","lon":"121.438644","lat":"31.189725","category":"247","category_name":"餐饮美食","address":null},{"poiid":"B2094750D768A1F9459D","title":"八间","lon":"121.439","lat":"31.1891","category":"95","category_name":"日本料理","address":"徐汇区南丹东路238号新东亚酒店1楼(近天钥桥路)"},{"poiid":"B2094753D269ABFD4298","title":"上海老站","lon":"121.438856","lat":"31.189558","category":"500","category_name":"未知分类","address":"上海市 上海市漕溪北路201号"},{"poiid":"B2094750DA6FABFD4593","title":"耶里夏利","lon":"121.438812","lat":"31.189483","category":"247","category_name":"餐饮美食","address":null},{"poiid":"B2094752D665A1FB4799","title":"鎌倉ＰＡＳＴＡ","lon":"121.438941","lat":"31.189423","category":"247","category_name":"餐饮美食","address":"徐家汇美罗城五番街"},{"poiid":"B209475CD069A7F54298","title":"米哲锅物专门店","lon":"121.441978","lat":"31.188321","category":"95","category_name":"日本料理","address":"天钥桥路333号腾飞大厦2楼"},{"poiid":"B2094757D068ABF4499F","title":"阿波特西班牙餐厅","lon":"121.442362571","lat":"31.1900596732","category":"94","category_name":"西餐厅","address":"徐汇区南丹东路129号(近天钥桥路)"},{"poiid":"B2094654DA6DA0FA419B","title":"久隆大厦","lon":"121.44021","lat":"31.18919","category":"46","category_name":"楼宇","address":"朝阳亚运村北炎黄艺术馆旁"},{"poiid":"B2094757D06FA0F4459E","title":"京星港式餐厅","lon":"121.44230377","lat":"31.189875292","category":"72","category_name":"广东菜","address":"徐汇区天钥桥路313号2楼(南丹东路口)"},{"poiid":"B2094757D66EA4F9459D","title":"西堤","lon":"121.43969358","lat":"31.189633637","category":"500","category_name":"未知分类","address":"上海市徐汇区蒲西路"},{"poiid":"B2094750DA64A6FD499A","title":"德林酸菜鱼","lon":"121.438926","lat":"31.189409","category":"247","category_name":"餐饮美食","address":"龙漕路63"},{"poiid":"B2094757D068A3F94892","title":"上海万体馆","lon":"121.438225586","lat":"31.1821814917","category":"148","category_name":"美容美发店","address":"上海漕溪北路中山西路"},{"poiid":"B2094750D26FA7FF499E","title":"弗拉明戈万国手工啤酒餐厅","lon":"121.442062","lat":"31.188646","category":"94","category_name":"西餐厅","address":"徐汇区天钥桥路323号美城天地2楼"},{"poiid":"B2094655D26EA6F94899","title":"德林酸菜鱼(南丹店)","lon":"121.44148","lat":"31.19023","category":"257","category_name":"中餐厅","address":"徐汇区南丹东路157号(近天钥桥路)"},{"poiid":"B2094750D76FAAFC499C","title":"首尔焖鲜汇(腾飞店)","lon":"121.442","lat":"31.1884","category":"96","category_name":"韩国料理","address":"徐汇区天钥桥路333号腾飞大厦2-18室(近南丹东路)"},{"poiid":"B2094751DA6DA3FD469F","title":"台湾美食街","lon":"121.438873","lat":"31.190506","category":"91","category_name":"台湾菜","address":"徐汇区漕溪北路333号百脑汇二期5楼(近徐家汇地铁站4、5号出口)"},{"poiid":"B2094757D06FA3FD4692","title":"和记小菜 南丹店","lon":"121.43830584704","lat":"31.188882741901","category":"76","category_name":"上海菜","address":"徐汇区南丹东路188号(近天钥桥路)"},{"poiid":"B2094757D06FA1FE4799","title":"烧肉达人(天钥桥路店)","lon":"121.442123586","lat":"31.1884576143","category":"500","category_name":"未知分类","address":"上海市徐汇区天钥桥路333号腾飞大厦2F201"},{"poiid":"B2094757D06EAAF44999","title":"鲜芋仙(天钥桥路店)","lon":"121.442054686","lat":"31.1897338393","category":"67","category_name":"甜品店","address":"徐汇区天钥桥路307号(南丹东路口)"},{"poiid":"B2094654DB69A4F8429F","title":"星巴克(嘉汇店)","lon":"121.441984","lat":"31.188502","category":"65","category_name":"咖啡厅","address":"徐汇区天钥桥路323号(近南丹东路)"},{"poiid":"B2094757D06FA3F8459C","title":"上海大饭堂","lon":"121.44217","lat":"31.18985","category":"76","category_name":"上海菜","address":"徐汇区天钥桥路220号(近南丹东路)"},{"poiid":"B2094757D068A3F8449D","title":"滩悦(天钥桥路店)","lon":"121.442069586","lat":"31.1887286196","category":"76","category_name":"上海菜","address":"徐汇区天钥桥路323号美城天地4楼(近南丹东路)"},{"poiid":"B2094757D06EAAFE419D","title":"鼎中鼎澳门豆捞 天钥桥店 Macao Dolar","lon":"121.44219","lat":"31.18893","category":"86","category_name":"火锅店","address":"上海徐汇区天钥桥路323号美城天地3楼(近慈云街)"},{"poiid":"B2094757D06FA1F54693","title":"腾飞广场","lon":"121.44219","lat":"31.19006","category":"119","category_name":"商场","address":"徐汇区天钥桥路333号腾飞大厦内(近南丹东路)"},{"poiid":"B2094654DA6DA0FF499C","title":"避风塘 天钥桥路店","lon":"121.442166054","lat":"31.188890793","category":"72","category_name":"广东菜","address":"徐汇区天钥桥路333号腾飞大厦1-2楼(近南丹东路)"},{"poiid":"B2094757D065ABFA479A","title":"钱柜","lon":"121.438956586","lat":"31.1879476044","category":"500","category_name":"未知分类","address":"上海市徐汇区文定路"},{"poiid":"B2094757D069A1F9479F","title":"屋企汤馆","lon":"121.441382586","lat":"31.188287611","category":"72","category_name":"广东菜","address":"徐汇区天钥桥路386号3楼"},{"poiid":"B2094757D068ABFA459D","title":"COSTA COFFEE(腾飞店)","lon":"121.442114986","lat":"31.1879901052","category":"65","category_name":"咖啡厅","address":"徐汇区天钥桥路333号腾飞大厦1楼110室(南丹东路口)"},{"poiid":"B2094655D268A7F5409F","title":"美城天地","lon":"121.441984","lat":"31.188502","category":"76","category_name":"上海菜","address":"徐汇区天钥桥路323号(近南丹东路)"},{"poiid":"B2094757D06FABFF4992","title":"天圣酸菜鱼火锅(南丹东路店)","lon":"121.44196","lat":"31.18986","category":"86","category_name":"火锅店","address":"徐汇区南丹东路157号(近天钥桥路)"},{"poiid":"B2094751DA6DA2F8499D","title":"老工厂重庆火锅","lon":"121.44257","lat":"31.18958","category":"86","category_name":"火锅店","address":"徐汇区南丹东路108号(天钥桥路口)"},{"poiid":"B2094750D268A3FC4492","title":"烧肉达人(腾飞广场店)","lon":"121.4423963624572","lat":"31.18944563055144","category":"269","category_name":"烧烤","address":"徐汇区天钥桥路333号腾飞广场2楼201室(近南丹东路)"},{"poiid":"B2094752DA65A5FB419E","title":"西贝西北菜（腾飞店）","lon":"121.442068","lat":"31.188528","category":"500","category_name":"未知分类","address":"上海市 天钥桥路333号腾飞大厦401号铺"},{"poiid":"B2094757D068ABFB4792","title":"上海德克士五代店","lon":"121.441778586","lat":"31.188288611","category":"68","category_name":"快餐厅","address":"徐汇区天钥桥路386号(近腾飞大厦)"},{"poiid":"B2094757D068A7F84999","title":"明申中心大厦","lon":"121.439063","lat":"31.188064","category":"46","category_name":"楼宇","address":"鲁尔大厦位于铁西兴华南街5号"},{"poiid":"B2094654DB6AA3FC449A","title":"金轩大厦","lon":"121.43918","lat":"31.18889","category":"46","category_name":"楼宇","address":"北京西路1028号,江宁路168号"},{"poiid":"B2094654DB6BA5F8419F","title":"萨莉亚 徐汇店 Saizeriya","lon":"121.44215200924","lat":"31.189608329","category":"94","category_name":"西餐厅","address":"徐汇区南丹东路108号2楼202室(近天钥桥路)"},{"poiid":"B2094654DB6BA5F94798","title":"一番屋","lon":"121.44172","lat":"31.18818","category":"95","category_name":"日本料理","address":"徐汇区天钥桥路386号2楼(近南丹东路)"},{"poiid":"B2094757D068A2F44993","title":"新.九球会台球俱乐部","lon":"121.43999087","lat":"31.187864552","category":"171","category_name":"台球厅","address":"上海天钥桥路380弄30号3楼"},{"poiid":"B2094757D068ABFA4992","title":"莱诗邸","lon":"121.43973","lat":"31.190178","category":"47","category_name":"住宅区","address":"上海徐汇区南丹东路223弄(近漕溪北路)"},{"poiid":"B2094757D169A4F5449E","title":"稻叶沾面","lon":"121.442073586","lat":"31.1880666067","category":"68","category_name":"快餐厅","address":"徐汇区天钥桥路333号腾飞大厦2楼202-205单元(近南丹东路)"},{"poiid":"B2094654DA6DA2F54292","title":"沧浪亭 天钥桥路店","lon":"121.442189054","lat":"31.189149793","category":"68","category_name":"快餐厅","address":"徐汇区天钥桥路363号(近南丹东路)"},{"poiid":"B2094757D568A5FF4193","title":"上雅铁板烧(徐汇店)","lon":"121.438598099998","lat":"31.1886250000002","category":"269","category_name":"烧烤","address":"徐汇区南丹东路300号亚都商务楼9号(近漕溪北路)"},{"poiid":"B2094752DA6AABFE4298","title":"弗拉明戈万国手工啤酒餐厅","lon":"121.440231","lat":"31.190414","category":"500","category_name":"未知分类","address":"上海市 上海市徐汇区南丹东路"},{"poiid":"B2094757D069A0FC449A","title":"康骏保健中心(南丹路店)","lon":"121.44","lat":"31.18916","category":"500","category_name":"未知分类","address":"上海徐汇区南丹东路209号  "},{"poiid":"B2094654DA6DA0FB459A","title":"亚历山大瑜珈馆","lon":"121.44171","lat":"31.18898","category":"221","category_name":"健身中心","address":"天钥桥路318"},{"poiid":"B2094757D468AAFC4892","title":"上岛咖啡 南丹东路店 U.B.C. Coffee","lon":"121.4387008","lat":"31.1891607","category":"65","category_name":"咖啡厅","address":"徐汇区南丹东路238号新东亚大酒店3楼"},{"poiid":"B2094752D669A7F4439A","title":"日月光","lon":"121.44101","lat":"31.187775","category":"247","category_name":"餐饮美食","address":"打浦桥"},{"poiid":"B2094757D06FA5FE4999","title":"超级鸡车","lon":"121.44212058","lat":"31.188213609","category":"68","category_name":"快餐厅","address":"徐汇区天钥桥路386号(近慈云街)"},{"poiid":"B2094750D66DA5FD4692","title":"天圣巫山烤全鱼","lon":"121.438926","lat":"31.189409","category":"247","category_name":"餐饮美食","address":null},{"poiid":"B2094752D368A7FC409D","title":"台塑王品","lon":"121.438644","lat":"31.189725","category":"247","category_name":"餐饮美食","address":null},{"poiid":"B2094750D768A1F9459D","title":"八间","lon":"121.439","lat":"31.1891","category":"95","category_name":"日本料理","address":"徐汇区南丹东路238号新东亚酒店1楼(近天钥桥路)"},{"poiid":"B2094753D269ABFD4298","title":"上海老站","lon":"121.438856","lat":"31.189558","category":"500","category_name":"未知分类","address":"上海市 上海市漕溪北路201号"},{"poiid":"B2094750DA6FABFD4593","title":"耶里夏利","lon":"121.438812","lat":"31.189483","category":"247","category_name":"餐饮美食","address":null},{"poiid":"B2094752D665A1FB4799","title":"鎌倉ＰＡＳＴＡ","lon":"121.438941","lat":"31.189423","category":"247","category_name":"餐饮美食","address":"徐家汇美罗城五番街"},{"poiid":"B209475CD069A7F54298","title":"米哲锅物专门店","lon":"121.441978","lat":"31.188321","category":"95","category_name":"日本料理","address":"天钥桥路333号腾飞大厦2楼"},{"poiid":"B2094757D068ABF4499F","title":"阿波特西班牙餐厅","lon":"121.442362571","lat":"31.1900596732","category":"94","category_name":"西餐厅","address":"徐汇区南丹东路129号(近天钥桥路)"},{"poiid":"B2094654DA6DA0FA419B","title":"久隆大厦","lon":"121.44021","lat":"31.18919","category":"46","category_name":"楼宇","address":"朝阳亚运村北炎黄艺术馆旁"},{"poiid":"B2094757D06FA0F4459E","title":"京星港式餐厅","lon":"121.44230377","lat":"31.189875292","category":"72","category_name":"广东菜","address":"徐汇区天钥桥路313号2楼(南丹东路口)"},{"poiid":"B2094757D66EA4F9459D","title":"西堤","lon":"121.43969358","lat":"31.189633637","category":"500","category_name":"未知分类","address":"上海市徐汇区蒲西路"},{"poiid":"B2094750DA64A6FD499A","title":"德林酸菜鱼","lon":"121.438926","lat":"31.189409","category":"247","category_name":"餐饮美食","address":"龙漕路63"},{"poiid":"B2094757D068A3F94892","title":"上海万体馆","lon":"121.438225586","lat":"31.1821814917","category":"148","category_name":"美容美发店","address":"上海漕溪北路中山西路"},{"poiid":"B2094750D26FA7FF499E","title":"弗拉明戈万国手工啤酒餐厅","lon":"121.442062","lat":"31.188646","category":"94","category_name":"西餐厅","address":"徐汇区天钥桥路323号美城天地2楼"},{"poiid":"B2094655D26EA6F94899","title":"德林酸菜鱼(南丹店)","lon":"121.44148","lat":"31.19023","category":"257","category_name":"中餐厅","address":"徐汇区南丹东路157号(近天钥桥路)"},{"poiid":"B2094750D76FAAFC499C","title":"首尔焖鲜汇(腾飞店)","lon":"121.442","lat":"31.1884","category":"96","category_name":"韩国料理","address":"徐汇区天钥桥路333号腾飞大厦2-18室(近南丹东路)"},{"poiid":"B2094751DA6DA3FD469F","title":"台湾美食街","lon":"121.438873","lat":"31.190506","category":"91","category_name":"台湾菜","address":"徐汇区漕溪北路333号百脑汇二期5楼(近徐家汇地铁站4、5号出口)"},{"poiid":"B2094757D06FA3FD4692","title":"和记小菜 南丹店","lon":"121.43830584704","lat":"31.188882741901","category":"76","category_name":"上海菜","address":"徐汇区南丹东路188号(近天钥桥路)"},{"poiid":"B2094757D06FA1FE4799","title":"烧肉达人(天钥桥路店)","lon":"121.442123586","lat":"31.1884576143","category":"500","category_name":"未知分类","address":"上海市徐汇区天钥桥路333号腾飞大厦2F201"},{"poiid":"B2094757D06EAAF44999","title":"鲜芋仙(天钥桥路店)","lon":"121.442054686","lat":"31.1897338393","category":"67","category_name":"甜品店","address":"徐汇区天钥桥路307号(南丹东路口)"},{"poiid":"B2094654DB69A4F8429F","title":"星巴克(嘉汇店)","lon":"121.441984","lat":"31.188502","category":"65","category_name":"咖啡厅","address":"徐汇区天钥桥路323号(近南丹东路)"},{"poiid":"B2094757D06FA3F8459C","title":"上海大饭堂","lon":"121.44217","lat":"31.18985","category":"76","category_name":"上海菜","address":"徐汇区天钥桥路220号(近南丹东路)"},{"poiid":"B2094757D068A3F8449D","title":"滩悦(天钥桥路店)","lon":"121.442069586","lat":"31.1887286196","category":"76","category_name":"上海菜","address":"徐汇区天钥桥路323号美城天地4楼(近南丹东路)"},{"poiid":"B2094757D06EAAFE419D","title":"鼎中鼎澳门豆捞 天钥桥店 Macao Dolar","lon":"121.44219","lat":"31.18893","category":"86","category_name":"火锅店","address":"上海徐汇区天钥桥路323号美城天地3楼(近慈云街)"},{"poiid":"B2094757D06FA1F54693","title":"腾飞广场","lon":"121.44219","lat":"31.19006","category":"119","category_name":"商场","address":"徐汇区天钥桥路333号腾飞大厦内(近南丹东路)"},{"poiid":"B2094654DA6DA0FF499C","title":"避风塘 天钥桥路店","lon":"121.442166054","lat":"31.188890793","category":"72","category_name":"广东菜","address":"徐汇区天钥桥路333号腾飞大厦1-2楼(近南丹东路)"},{"poiid":"B2094757D065ABFA479A","title":"钱柜","lon":"121.438956586","lat":"31.1879476044","category":"500","category_name":"未知分类","address":"上海市徐汇区文定路"},{"poiid":"B2094757D069A1F9479F","title":"屋企汤馆","lon":"121.441382586","lat":"31.188287611","category":"72","category_name":"广东菜","address":"徐汇区天钥桥路386号3楼"},{"poiid":"B2094757D068ABFA459D","title":"COSTA COFFEE(腾飞店)","lon":"121.442114986","lat":"31.1879901052","category":"65","category_name":"咖啡厅","address":"徐汇区天钥桥路333号腾飞大厦1楼110室(南丹东路口)"},{"poiid":"B2094655D268A7F5409F","title":"美城天地","lon":"121.441984","lat":"31.188502","category":"76","category_name":"上海菜","address":"徐汇区天钥桥路323号(近南丹东路)"},{"poiid":"B2094757D06FABFF4992","title":"天圣酸菜鱼火锅(南丹东路店)","lon":"121.44196","lat":"31.18986","category":"86","category_name":"火锅店","address":"徐汇区南丹东路157号(近天钥桥路)"},{"poiid":"B2094751DA6DA2F8499D","title":"老工厂重庆火锅","lon":"121.44257","lat":"31.18958","category":"86","category_name":"火锅店","address":"徐汇区南丹东路108号(天钥桥路口)"},{"poiid":"B2094750D268A3FC4492","title":"烧肉达人(腾飞广场店)","lon":"121.4423963624572","lat":"31.18944563055144","category":"269","category_name":"烧烤","address":"徐汇区天钥桥路333号腾飞广场2楼201室(近南丹东路)"},{"poiid":"B2094752DA65A5FB419E","title":"西贝西北菜（腾飞店）","lon":"121.442068","lat":"31.188528","category":"500","category_name":"未知分类","address":"上海市 天钥桥路333号腾飞大厦401号铺"},{"poiid":"B2094757D068ABFB4792","title":"上海德克士五代店","lon":"121.441778586","lat":"31.188288611","category":"68","category_name":"快餐厅","address":"徐汇区天钥桥路386号(近腾飞大厦)"},{"poiid":"B2094757D068A7F84999","title":"明申中心大厦","lon":"121.439063","lat":"31.188064","category":"46","category_name":"楼宇","address":"鲁尔大厦位于铁西兴华南街5号"},{"poiid":"B2094654DB6AA3FC449A","title":"金轩大厦","lon":"121.43918","lat":"31.18889","category":"46","category_name":"楼宇","address":"北京西路1028号,江宁路168号"},{"poiid":"B2094654DB6BA5F8419F","title":"萨莉亚 徐汇店 Saizeriya","lon":"121.44215200924","lat":"31.189608329","category":"94","category_name":"西餐厅","address":"徐汇区南丹东路108号2楼202室(近天钥桥路)"},{"poiid":"B2094654DB6BA5F94798","title":"一番屋","lon":"121.44172","lat":"31.18818","category":"95","category_name":"日本料理","address":"徐汇区天钥桥路386号2楼(近南丹东路)"},{"poiid":"B2094757D068A2F44993","title":"新.九球会台球俱乐部","lon":"121.43999087","lat":"31.187864552","category":"171","category_name":"台球厅","address":"上海天钥桥路380弄30号3楼"},{"poiid":"B2094757D068ABFA4992","title":"莱诗邸","lon":"121.43973","lat":"31.190178","category":"47","category_name":"住宅区","address":"上海徐汇区南丹东路223弄(近漕溪北路)"},{"poiid":"B2094757D169A4F5449E","title":"稻叶沾面","lon":"121.442073586","lat":"31.1880666067","category":"68","category_name":"快餐厅","address":"徐汇区天钥桥路333号腾飞大厦2楼202-205单元(近南丹东路)"},{"poiid":"B2094654DA6DA2F54292","title":"沧浪亭 天钥桥路店","lon":"121.442189054","lat":"31.189149793","category":"68","category_name":"快餐厅","address":"徐汇区天钥桥路363号(近南丹东路)"},{"poiid":"B2094757D568A5FF4193","title":"上雅铁板烧(徐汇店)","lon":"121.438598099998","lat":"31.1886250000002","category":"269","category_name":"烧烤","address":"徐汇区南丹东路300号亚都商务楼9号(近漕溪北路)"},{"poiid":"B2094752DA6AABFE4298","title":"弗拉明戈万国手工啤酒餐厅","lon":"121.440231","lat":"31.190414","category":"500","category_name":"未知分类","address":"上海市 上海市徐汇区南丹东路"},{"poiid":"B2094757D069A0FC449A","title":"康骏保健中心(南丹路店)","lon":"121.44","lat":"31.18916","category":"500","category_name":"未知分类","address":"上海徐汇区南丹东路209号  "},{"poiid":"B2094654DA6DA0FB459A","title":"亚历山大瑜珈馆","lon":"121.44171","lat":"31.18898","category":"221","category_name":"健身中心","address":"天钥桥路318"},{"poiid":"B2094757D468AAFC4892","title":"上岛咖啡 南丹东路店 U.B.C. Coffee","lon":"121.4387008","lat":"31.1891607","category":"65","category_name":"咖啡厅","address":"徐汇区南丹东路238号新东亚大酒店3楼"},{"poiid":"B2094752D669A7F4439A","title":"日月光","lon":"121.44101","lat":"31.187775","category":"247","category_name":"餐饮美食","address":"打浦桥"},{"poiid":"B2094757D06FA5FE4999","title":"超级鸡车","lon":"121.44212058","lat":"31.188213609","category":"68","category_name":"快餐厅","address":"徐汇区天钥桥路386号(近慈云街)"},{"poiid":"B2094750D66DA5FD4692","title":"天圣巫山烤全鱼","lon":"121.438926","lat":"31.189409","category":"247","category_name":"餐饮美食","address":null},{"poiid":"B2094752D368A7FC409D","title":"台塑王品","lon":"121.438644","lat":"31.189725","category":"247","category_name":"餐饮美食","address":null},{"poiid":"B2094750D768A1F9459D","title":"八间","lon":"121.439","lat":"31.1891","category":"95","category_name":"日本料理","address":"徐汇区南丹东路238号新东亚酒店1楼(近天钥桥路)"},{"poiid":"B2094753D269ABFD4298","title":"上海老站","lon":"121.438856","lat":"31.189558","category":"500","category_name":"未知分类","address":"上海市 上海市漕溪北路201号"},{"poiid":"B2094750DA6FABFD4593","title":"耶里夏利","lon":"121.438812","lat":"31.189483","category":"247","category_name":"餐饮美食","address":null},{"poiid":"B2094752D665A1FB4799","title":"鎌倉ＰＡＳＴＡ","lon":"121.438941","lat":"31.189423","category":"247","category_name":"餐饮美食","address":"徐家汇美罗城五番街"},{"poiid":"B209475CD069A7F54298","title":"米哲锅物专门店","lon":"121.441978","lat":"31.188321","category":"95","category_name":"日本料理","address":"天钥桥路333号腾飞大厦2楼"},{"poiid":"B2094757D068ABF4499F","title":"阿波特西班牙餐厅","lon":"121.442362571","lat":"31.1900596732","category":"94","category_name":"西餐厅","address":"徐汇区南丹东路129号(近天钥桥路)"},{"poiid":"B2094654DA6DA0FA419B","title":"久隆大厦","lon":"121.44021","lat":"31.18919","category":"46","category_name":"楼宇","address":"朝阳亚运村北炎黄艺术馆旁"},{"poiid":"B2094757D06FA0F4459E","title":"京星港式餐厅","lon":"121.44230377","lat":"31.189875292","category":"72","category_name":"广东菜","address":"徐汇区天钥桥路313号2楼(南丹东路口)"},{"poiid":"B2094757D66EA4F9459D","title":"西堤","lon":"121.43969358","lat":"31.189633637","category":"500","category_name":"未知分类","address":"上海市徐汇区蒲西路"},{"poiid":"B2094750DA64A6FD499A","title":"德林酸菜鱼","lon":"121.438926","lat":"31.189409","category":"247","category_name":"餐饮美食","address":"龙漕路63"},{"poiid":"B2094757D068A3F94892","title":"上海万体馆","lon":"121.438225586","lat":"31.1821814917","category":"148","category_name":"美容美发店","address":"上海漕溪北路中山西路"},{"poiid":"B2094750D26FA7FF499E","title":"弗拉明戈万国手工啤酒餐厅","lon":"121.442062","lat":"31.188646","category":"94","category_name":"西餐厅","address":"徐汇区天钥桥路323号美城天地2楼"},{"poiid":"B2094655D26EA6F94899","title":"德林酸菜鱼(南丹店)","lon":"121.44148","lat":"31.19023","category":"257","category_name":"中餐厅","address":"徐汇区南丹东路157号(近天钥桥路)"},{"poiid":"B2094750D76FAAFC499C","title":"首尔焖鲜汇(腾飞店)","lon":"121.442","lat":"31.1884","category":"96","category_name":"韩国料理","address":"徐汇区天钥桥路333号腾飞大厦2-18室(近南丹东路)"},{"poiid":"B2094751DA6DA3FD469F","title":"台湾美食街","lon":"121.438873","lat":"31.190506","category":"91","category_name":"台湾菜","address":"徐汇区漕溪北路333号百脑汇二期5楼(近徐家汇地铁站4、5号出口)"},{"poiid":"B2094757D06FA3FD4692","title":"和记小菜 南丹店","lon":"121.43830584704","lat":"31.188882741901","category":"76","category_name":"上海菜","address":"徐汇区南丹东路188号(近天钥桥路)"},{"poiid":"B2094757D06FA1FE4799","title":"烧肉达人(天钥桥路店)","lon":"121.442123586","lat":"31.1884576143","category":"500","category_name":"未知分类","address":"上海市徐汇区天钥桥路333号腾飞大厦2F201"},{"poiid":"B2094757D06EAAF44999","title":"鲜芋仙(天钥桥路店)","lon":"121.442054686","lat":"31.1897338393","category":"67","category_name":"甜品店","address":"徐汇区天钥桥路307号(南丹东路口)"},{"poiid":"B2094654DB69A4F8429F","title":"星巴克(嘉汇店)","lon":"121.441984","lat":"31.188502","category":"65","category_name":"咖啡厅","address":"徐汇区天钥桥路323号(近南丹东路)"},{"poiid":"B2094757D06FA3F8459C","title":"上海大饭堂","lon":"121.44217","lat":"31.18985","category":"76","category_name":"上海菜","address":"徐汇区天钥桥路220号(近南丹东路)"},{"poiid":"B2094757D068A3F8449D","title":"滩悦(天钥桥路店)","lon":"121.442069586","lat":"31.1887286196","category":"76","category_name":"上海菜","address":"徐汇区天钥桥路323号美城天地4楼(近南丹东路)"},{"poiid":"B2094757D06EAAFE419D","title":"鼎中鼎澳门豆捞 天钥桥店 Macao Dolar","lon":"121.44219","lat":"31.18893","category":"86","category_name":"火锅店","address":"上海徐汇区天钥桥路323号美城天地3楼(近慈云街)"},{"poiid":"B2094757D06FA1F54693","title":"腾飞广场","lon":"121.44219","lat":"31.19006","category":"119","category_name":"商场","address":"徐汇区天钥桥路333号腾飞大厦内(近南丹东路)"},{"poiid":"B2094654DA6DA0FF499C","title":"避风塘 天钥桥路店","lon":"121.442166054","lat":"31.188890793","category":"72","category_name":"广东菜","address":"徐汇区天钥桥路333号腾飞大厦1-2楼(近南丹东路)"},{"poiid":"B2094757D065ABFA479A","title":"钱柜","lon":"121.438956586","lat":"31.1879476044","category":"500","category_name":"未知分类","address":"上海市徐汇区文定路"},{"poiid":"B2094757D069A1F9479F","title":"屋企汤馆","lon":"121.441382586","lat":"31.188287611","category":"72","category_name":"广东菜","address":"徐汇区天钥桥路386号3楼"},{"poiid":"B2094757D068ABFA459D","title":"COSTA COFFEE(腾飞店)","lon":"121.442114986","lat":"31.1879901052","category":"65","category_name":"咖啡厅","address":"徐汇区天钥桥路333号腾飞大厦1楼110室(南丹东路口)"},{"poiid":"B2094655D268A7F5409F","title":"美城天地","lon":"121.441984","lat":"31.188502","category":"76","category_name":"上海菜","address":"徐汇区天钥桥路323号(近南丹东路)"},{"poiid":"B2094757D06FABFF4992","title":"天圣酸菜鱼火锅(南丹东路店)","lon":"121.44196","lat":"31.18986","category":"86","category_name":"火锅店","address":"徐汇区南丹东路157号(近天钥桥路)"},{"poiid":"B2094751DA6DA2F8499D","title":"老工厂重庆火锅","lon":"121.44257","lat":"31.18958","category":"86","category_name":"火锅店","address":"徐汇区南丹东路108号(天钥桥路口)"},{"poiid":"B2094750D268A3FC4492","title":"烧肉达人(腾飞广场店)","lon":"121.4423963624572","lat":"31.18944563055144","category":"269","category_name":"烧烤","address":"徐汇区天钥桥路333号腾飞广场2楼201室(近南丹东路)"},{"poiid":"B2094752DA65A5FB419E","title":"西贝西北菜（腾飞店）","lon":"121.442068","lat":"31.188528","category":"500","category_name":"未知分类","address":"上海市 天钥桥路333号腾飞大厦401号铺"},{"poiid":"B2094757D068ABFB4792","title":"上海德克士五代店","lon":"121.441778586","lat":"31.188288611","category":"68","category_name":"快餐厅","address":"徐汇区天钥桥路386号(近腾飞大厦)"},{"poiid":"B2094757D068A7F84999","title":"明申中心大厦","lon":"121.439063","lat":"31.188064","category":"46","category_name":"楼宇","address":"鲁尔大厦位于铁西兴华南街5号"},{"poiid":"B2094654DB6AA3FC449A","title":"金轩大厦","lon":"121.43918","lat":"31.18889","category":"46","category_name":"楼宇","address":"北京西路1028号,江宁路168号"},{"poiid":"B2094654DB6BA5F8419F","title":"萨莉亚 徐汇店 Saizeriya","lon":"121.44215200924","lat":"31.189608329","category":"94","category_name":"西餐厅","address":"徐汇区南丹东路108号2楼202室(近天钥桥路)"},{"poiid":"B2094654DB6BA5F94798","title":"一番屋","lon":"121.44172","lat":"31.18818","category":"95","category_name":"日本料理","address":"徐汇区天钥桥路386号2楼(近南丹东路)"},{"poiid":"B2094757D068A2F44993","title":"新.九球会台球俱乐部","lon":"121.43999087","lat":"31.187864552","category":"171","category_name":"台球厅","address":"上海天钥桥路380弄30号3楼"},{"poiid":"B2094757D068ABFA4992","title":"莱诗邸","lon":"121.43973","lat":"31.190178","category":"47","category_name":"住宅区","address":"上海徐汇区南丹东路223弄(近漕溪北路)"},{"poiid":"B2094757D169A4F5449E","title":"稻叶沾面","lon":"121.442073586","lat":"31.1880666067","category":"68","category_name":"快餐厅","address":"徐汇区天钥桥路333号腾飞大厦2楼202-205单元(近南丹东路)"},{"poiid":"B2094654DA6DA2F54292","title":"沧浪亭 天钥桥路店","lon":"121.442189054","lat":"31.189149793","category":"68","category_name":"快餐厅","address":"徐汇区天钥桥路363号(近南丹东路)"},{"poiid":"B2094757D568A5FF4193","title":"上雅铁板烧(徐汇店)","lon":"121.438598099998","lat":"31.1886250000002","category":"269","category_name":"烧烤","address":"徐汇区南丹东路300号亚都商务楼9号(近漕溪北路)"},{"poiid":"B2094752DA6AABFE4298","title":"弗拉明戈万国手工啤酒餐厅","lon":"121.440231","lat":"31.190414","category":"500","category_name":"未知分类","address":"上海市 上海市徐汇区南丹东路"},{"poiid":"B2094757D069A0FC449A","title":"康骏保健中心(南丹路店)","lon":"121.44","lat":"31.18916","category":"500","category_name":"未知分类","address":"上海徐汇区南丹东路209号  "},{"poiid":"B2094654DA6DA0FB459A","title":"亚历山大瑜珈馆","lon":"121.44171","lat":"31.18898","category":"221","category_name":"健身中心","address":"天钥桥路318"},{"poiid":"B2094757D468AAFC4892","title":"上岛咖啡 南丹东路店 U.B.C. Coffee","lon":"121.4387008","lat":"31.1891607","category":"65","category_name":"咖啡厅","address":"徐汇区南丹东路238号新东亚大酒店3楼"},{"poiid":"B2094752D669A7F4439A","title":"日月光","lon":"121.44101","lat":"31.187775","category":"247","category_name":"餐饮美食","address":"打浦桥"},{"poiid":"B2094757D06FA5FE4999","title":"超级鸡车","lon":"121.44212058","lat":"31.188213609","category":"68","category_name":"快餐厅","address":"徐汇区天钥桥路386号(近慈云街)"},{"poiid":"B2094750D66DA5FD4692","title":"天圣巫山烤全鱼","lon":"121.438926","lat":"31.189409","category":"247","category_name":"餐饮美食","address":null},{"poiid":"B2094752D368A7FC409D","title":"台塑王品","lon":"121.438644","lat":"31.189725","category":"247","category_name":"餐饮美食","address":null},{"poiid":"B2094750D768A1F9459D","title":"八间","lon":"121.439","lat":"31.1891","category":"95","category_name":"日本料理","address":"徐汇区南丹东路238号新东亚酒店1楼(近天钥桥路)"},{"poiid":"B2094753D269ABFD4298","title":"上海老站","lon":"121.438856","lat":"31.189558","category":"500","category_name":"未知分类","address":"上海市 上海市漕溪北路201号"},{"poiid":"B2094750DA6FABFD4593","title":"耶里夏利","lon":"121.438812","lat":"31.189483","category":"247","category_name":"餐饮美食","address":null},{"poiid":"B2094752D665A1FB4799","title":"鎌倉ＰＡＳＴＡ","lon":"121.438941","lat":"31.189423","category":"247","category_name":"餐饮美食","address":"徐家汇美罗城五番街"},{"poiid":"B209475CD069A7F54298","title":"米哲锅物专门店","lon":"121.441978","lat":"31.188321","category":"95","category_name":"日本料理","address":"天钥桥路333号腾飞大厦2楼"},{"poiid":"B2094757D068ABF4499F","title":"阿波特西班牙餐厅","lon":"121.442362571","lat":"31.1900596732","category":"94","category_name":"西餐厅","address":"徐汇区南丹东路129号(近天钥桥路)"},{"poiid":"B2094654DA6DA0FA419B","title":"久隆大厦","lon":"121.44021","lat":"31.18919","category":"46","category_name":"楼宇","address":"朝阳亚运村北炎黄艺术馆旁"},{"poiid":"B2094757D06FA0F4459E","title":"京星港式餐厅","lon":"121.44230377","lat":"31.189875292","category":"72","category_name":"广东菜","address":"徐汇区天钥桥路313号2楼(南丹东路口)"},{"poiid":"B2094757D66EA4F9459D","title":"西堤","lon":"121.43969358","lat":"31.189633637","category":"500","category_name":"未知分类","address":"上海市徐汇区蒲西路"},{"poiid":"B2094750DA64A6FD499A","title":"德林酸菜鱼","lon":"121.438926","lat":"31.189409","category":"247","category_name":"餐饮美食","address":"龙漕路63"}]