[{"poiid":"B2094655D26CA7F4429B","title":"复旦大学附属中山医院","lon":"121.45405","lat":"31.19857","category":"162","category_name":"医院","address":"医学院路111,136号"},{"poiid":"B2094757D06FA1F94399","title":"徐汇区牙病防治所(肇嘉浜路分所)","lon":"121.451361983","lat":"31.1994818967","category":"162","category_name":"医院","address":"徐汇区肇嘉浜路685号(近东安路)"},{"poiid":"B2094655D26DA3F9449E","title":"复旦大学附属中山医院门诊急诊部","lon":"121.45333","lat":"31.19884","category":"162","category_name":"医院","address":"医学院路111、136"},{"poiid":"B2094753D76FAAFA449C","title":"上海滩国泰旗舰店","lon":"121.466011","lat":"31.216125","category":"249","category_name":"购物服务","address":"淮海中路868号"},{"poiid":"B209475CD564A7F84292","title":"上海滩新天地店","lon":"121.47463","lat":"31.22164","category":"119","category_name":"商场","address":"\"太仓路181弄新天地北里15号\r\n\""},{"poiid":"B209475CD564A7F8439E","title":"上海滩中信泰富店","lon":"121.45602","lat":"31.22851","category":"119","category_name":"商场","address":"\"南京西路1168号中信泰富广场，店铺号221.\r\n\""},{"poiid":"B2094757D06FA6F9479B","title":"张生记(徐汇店)","lon":"121.45598","lat":"31.20142","category":"75","category_name":"浙江菜","address":"徐汇区肇嘉浜路446号伊泰利大厦2-3楼(近太原路)"},{"poiid":"B2094757D06FA0FB429C","title":"苏浙汇(华泰大厦店)","lon":"121.450408","lat":"31.202926","category":"76","category_name":"上海菜","address":"徐汇区肇嘉浜路388号华泰大厦1-2楼(近襄阳南路)"},{"poiid":"B2094757D06AA3FC4293","title":"中科院","lon":"121.453551","lat":"31.201298","category":"500","category_name":"未知分类","address":"上海岳阳路319号"},{"poiid":"B2094654DA6DABFC439A","title":"好望角大饭店","lon":"121.45418","lat":"31.20133","category":"76","category_name":"上海菜","address":"徐汇区肇嘉浜路500号好望角大饭店3楼(岳阳路口)"},{"poiid":"B2094757D06FA6FE4998","title":"南伶酒家","lon":"121.45245","lat":"31.20485","category":"74","category_name":"江苏菜","address":"徐汇区岳阳路168号(近永嘉路)"},{"poiid":"B2094654DA6DABFC409A","title":"中国科学院上海生命科学研究院(中科大厦西)","lon":"121.45243","lat":"31.20132","category":"191","category_name":"科研机构","address":"徐汇区岳阳路320号"},{"poiid":"B2094757D06FA5F94093","title":"建科大厦","lon":"121.452","lat":"31.2018","category":"46","category_name":"楼宇","address":"上海徐汇区宛平南路75号"},{"poiid":"B2094757D66BA1FC489A","title":"御席公馆","lon":"121.450101","lat":"31.202679","category":"97","category_name":"法式菜品餐厅","address":"徐汇区建国西路568号(近建国西路)"},{"poiid":"B2094757D06FA1FF429F","title":"伶达港骨头皇火锅(枫林店)","lon":"121.45522","lat":"31.20049","category":"86","category_name":"火锅店","address":"徐汇区肇嘉浜路567号(近枫林路)"},{"poiid":"B2094757D068AAFB439D","title":"湘鄂情","lon":"121.45401","lat":"31.20091","category":"77","category_name":"湖南菜","address":"徐汇区肇嘉浜路500号好望角大酒店裙楼(岳阳路口)"},{"poiid":"B2094757D068A7FE499C","title":"上海五洲国际大厦","lon":"121.454","lat":"31.2043","category":"46","category_name":"楼宇","address":"徐汇区肇嘉浜路807号"},{"poiid":"B2094654DA6DABFD4199","title":"伊泰利大厦","lon":"121.4552612","lat":"31.20184326","category":"46","category_name":"楼宇","address":"伊泰利大厦位于徐汇肇嘉浜路446弄"},{"poiid":"B2094757D56DA7FE499B","title":"徐家汇查餐厅","lon":"121.45405","lat":"31.19857","category":"247","category_name":"餐饮美食","address":"天钥桥路"},{"poiid":"B2094750D16BA4FD449E","title":"板烧王","lon":"121.454582","lat":"31.20439","category":"247","category_name":"餐饮美食","address":"卢湾区徐家汇路618号日月光中心广场B2楼台湾美食馆BT20-23室(近瑞金二路)"},{"poiid":"B2094655D36CA0F94999","title":"建国西路","lon":"121.45565","lat":"31.20408","category":"38","category_name":"公交车站","address":"建国西路354弄"},{"poiid":"B2094654DA6DA6FC459A","title":"坤阳国际商务广场","lon":"121.452","lat":"31.2047","category":"46","category_name":"楼宇","address":"卫清西路139_149号等"},{"poiid":"B2094757D06AA5F4499F","title":"馥满江南菜","lon":"121.454896","lat":"31.199246","category":"76","category_name":"上海菜","address":"徐汇区医学院路79号(近枫林路)"},{"poiid":"B2094654DB6BA5FA4799","title":"欧江大厦","lon":"121.453","lat":"31.2052","category":"46","category_name":"楼宇","address":"徐汇区肇嘉浜路768号"},{"poiid":"B2094757D568ABFA4692","title":"中科院地下食堂","lon":"121.453315","lat":"31.20148806","category":"68","category_name":"快餐厅","address":"徐汇区岳阳路319号中科大厦B1楼(近好望角大饭店)"},{"poiid":"B2094757D068A3FA499D","title":"中山医院住院部三号楼","lon":"121.453937593","lat":"31.1983534856","category":"162","category_name":"医院","address":"上海徐汇区枫林路180号(近医学院路)"},{"poiid":"B2094750D165A2F54499","title":"韩国首尔SUM STUDIO","lon":"121.454948","lat":"31.203849","category":"248","category_name":"生活娱乐","address":"徐汇区建国西路379号(近岳阳路)"},{"poiid":"B2094757D16CAAF8489F","title":"中国科学院上海分院","lon":"121.45382308","lat":"31.203554409","category":"671","category_name":"高校中心点","address":"上海岳阳路319号"},{"poiid":"B2094757D06BA3F9439E","title":"复旦大学附属中山医院急诊输液室","lon":"121.453645232","lat":"31.1989293545","category":"162","category_name":"医院","address":"徐汇区枫林路180号中山医院内(近医学院路)"},{"poiid":"B2094757D16DA1F8479F","title":"医学院路","lon":"121.45605018","lat":"31.200274212","category":"500","category_name":"未知分类","address":"上海医学院路69号"},{"poiid":"B2094757D66BA6F9429E","title":"半岛餐厅","lon":"121.45344535807","lat":"31.200745118072","category":"268","category_name":"自助","address":"徐汇区肇嘉浜路500号好望角大酒店3楼(岳阳路口)"},{"poiid":"B2094654DA6DABFC419E","title":"研究生电子阅览室","lon":"121.45332","lat":"31.20149","category":"181","category_name":"图书馆","address":"肇嘉浜路500"},{"poiid":"B2094757D56EA2FF469E","title":"天目山庄","lon":"121.454923","lat":"31.199855","category":"247","category_name":"餐饮美食","address":"徐汇区大木桥路360号(近斜土路)"},{"poiid":"B2094757D069A6FE489A","title":"43路肇嘉浜路枫林路站","lon":"121.45452117","lat":"31.200782775","category":"38","category_name":"公交车站","address":"上海肇嘉浜路枫林路"},{"poiid":"B2094757D469A1F9489C","title":"雷焰烧烤","lon":"121.454735054","lat":"31.200505793","category":"68","category_name":"快餐厅","address":"徐汇区肇嘉浜路567号(近枫林路)"},{"poiid":"B2094757D069A5F44799","title":"Lola Club","lon":"121.455173279","lat":"31.2044100305","category":"500","category_name":"未知分类","address":"上海永嘉路570号"},{"poiid":"B2094757D66DA1FC489F","title":"肇嘉浜路枫林路公交站","lon":"121.45454458","lat":"31.201014859","category":"38","category_name":"公交车站","address":"上海肇嘉浜路枫林路"},{"poiid":"B2094750D26CA3FE459F","title":"好望角大饭店 宴会厅","lon":"121.453479054","lat":"31.200733793","category":"76","category_name":"上海菜","address":"肇嘉浜路500号好望角大饭店5楼近岳阳路"},{"poiid":"B2094751DA6AA2FC4593","title":"麦当劳","lon":"121.45223","lat":"31.199739","category":"247","category_name":"餐饮美食","address":"徐汇区斜土路1646号"},{"poiid":"B2094757D069A1F9419D","title":"中山医院10号楼手术室","lon":"121.453940275","lat":"31.1983488969","category":"162","category_name":"医院","address":"上海徐汇区枫林路180号(近医学院路)"},{"poiid":"B2094757D568A6F84793","title":"菁英会","lon":"121.45333","lat":"31.203039","category":"257","category_name":"中餐厅","address":"徐汇区岳阳路265号1-2楼(近建国西路)"},{"poiid":"B2094757D16FA1FE419F","title":"肇嘉浜路东安路公交站","lon":"121.45301988","lat":"31.200472649","category":"38","category_name":"公交车站","address":"上海肇嘉浜路东安路公交站"},{"poiid":"B2094655D36DA7FE439B","title":"肇嘉浜路枫林路","lon":"121.45451","lat":"31.20078","category":"38","category_name":"公交车站","address":""},{"poiid":"B2094750DA6AAAFC479F","title":"奈良本寿司","lon":"121.45543","lat":"31.20401","category":"95","category_name":"日本料理","address":"徐汇区永嘉路557号"},{"poiid":"B2094757DA65A3FF4499","title":"中山医院","lon":"121.45237118","lat":"31.20069962","category":"162","category_name":"医院","address":"徐汇区小木桥路"},{"poiid":"B2094654DA6DA7F54099","title":"怡甸大厦","lon":"121.453118","lat":"31.204807","category":"46","category_name":"楼宇","address":"上海市静安区南京西路555号"},{"poiid":"B2094654DA6DA4F5449F","title":"建襄小学","lon":"121.45315","lat":"31.20332","category":"56","category_name":"小学","address":"徐汇区岳阳路255号(近建国西路)"},{"poiid":"B2094654DA6DAAFF409D","title":"枫林大楼","lon":"121.45303","lat":"31.200081","category":"47","category_name":"住宅区","address":"肇嘉浜路661-665"},{"poiid":"B2094655D264A2F8449A","title":"567餐厅","lon":"121.45516","lat":"31.20084","category":"76","category_name":"上海菜","address":"徐汇区肇嘉浜路567号(近张生记)"},{"poiid":"B2094757D065ABF9449E","title":"京翅坊","lon":"121.44984","lat":"31.20122","category":"72","category_name":"广东菜","address":"徐汇区乌鲁木齐南路298号2楼(近建国西路)"},{"poiid":"B2094655D26CA7F4429B","title":"复旦大学附属中山医院","lon":"121.45405","lat":"31.19857","category":"162","category_name":"医院","address":"医学院路111,136号"},{"poiid":"B2094757D06FA1F94399","title":"徐汇区牙病防治所(肇嘉浜路分所)","lon":"121.451361983","lat":"31.1994818967","category":"162","category_name":"医院","address":"徐汇区肇嘉浜路685号(近东安路)"},{"poiid":"B2094655D26DA3F9449E","title":"复旦大学附属中山医院门诊急诊部","lon":"121.45333","lat":"31.19884","category":"162","category_name":"医院","address":"医学院路111、136"},{"poiid":"B2094753D76FAAFA449C","title":"上海滩国泰旗舰店","lon":"121.466011","lat":"31.216125","category":"249","category_name":"购物服务","address":"淮海中路868号"},{"poiid":"B209475CD564A7F84292","title":"上海滩新天地店","lon":"121.47463","lat":"31.22164","category":"119","category_name":"商场","address":"\"太仓路181弄新天地北里15号\r\n\""},{"poiid":"B209475CD564A7F8439E","title":"上海滩中信泰富店","lon":"121.45602","lat":"31.22851","category":"119","category_name":"商场","address":"\"南京西路1168号中信泰富广场，店铺号221.\r\n\""},{"poiid":"B2094757D06FA6F9479B","title":"张生记(徐汇店)","lon":"121.45598","lat":"31.20142","category":"75","category_name":"浙江菜","address":"徐汇区肇嘉浜路446号伊泰利大厦2-3楼(近太原路)"},{"poiid":"B2094757D06FA0FB429C","title":"苏浙汇(华泰大厦店)","lon":"121.450408","lat":"31.202926","category":"76","category_name":"上海菜","address":"徐汇区肇嘉浜路388号华泰大厦1-2楼(近襄阳南路)"},{"poiid":"B2094757D06AA3FC4293","title":"中科院","lon":"121.453551","lat":"31.201298","category":"500","category_name":"未知分类","address":"上海岳阳路319号"},{"poiid":"B2094654DA6DABFC439A","title":"好望角大饭店","lon":"121.45418","lat":"31.20133","category":"76","category_name":"上海菜","address":"徐汇区肇嘉浜路500号好望角大饭店3楼(岳阳路口)"},{"poiid":"B2094757D06FA6FE4998","title":"南伶酒家","lon":"121.45245","lat":"31.20485","category":"74","category_name":"江苏菜","address":"徐汇区岳阳路168号(近永嘉路)"},{"poiid":"B2094654DA6DABFC409A","title":"中国科学院上海生命科学研究院(中科大厦西)","lon":"121.45243","lat":"31.20132","category":"191","category_name":"科研机构","address":"徐汇区岳阳路320号"},{"poiid":"B2094757D06FA5F94093","title":"建科大厦","lon":"121.452","lat":"31.2018","category":"46","category_name":"楼宇","address":"上海徐汇区宛平南路75号"},{"poiid":"B2094757D66BA1FC489A","title":"御席公馆","lon":"121.450101","lat":"31.202679","category":"97","category_name":"法式菜品餐厅","address":"徐汇区建国西路568号(近建国西路)"},{"poiid":"B2094757D06FA1FF429F","title":"伶达港骨头皇火锅(枫林店)","lon":"121.45522","lat":"31.20049","category":"86","category_name":"火锅店","address":"徐汇区肇嘉浜路567号(近枫林路)"},{"poiid":"B2094757D068AAFB439D","title":"湘鄂情","lon":"121.45401","lat":"31.20091","category":"77","category_name":"湖南菜","address":"徐汇区肇嘉浜路500号好望角大酒店裙楼(岳阳路口)"},{"poiid":"B2094757D068A7FE499C","title":"上海五洲国际大厦","lon":"121.454","lat":"31.2043","category":"46","category_name":"楼宇","address":"徐汇区肇嘉浜路807号"},{"poiid":"B2094654DA6DABFD4199","title":"伊泰利大厦","lon":"121.4552612","lat":"31.20184326","category":"46","category_name":"楼宇","address":"伊泰利大厦位于徐汇肇嘉浜路446弄"},{"poiid":"B2094757D56DA7FE499B","title":"徐家汇查餐厅","lon":"121.45405","lat":"31.19857","category":"247","category_name":"餐饮美食","address":"天钥桥路"},{"poiid":"B2094750D16BA4FD449E","title":"板烧王","lon":"121.454582","lat":"31.20439","category":"247","category_name":"餐饮美食","address":"卢湾区徐家汇路618号日月光中心广场B2楼台湾美食馆BT20-23室(近瑞金二路)"},{"poiid":"B2094655D36CA0F94999","title":"建国西路","lon":"121.45565","lat":"31.20408","category":"38","category_name":"公交车站","address":"建国西路354弄"},{"poiid":"B2094654DA6DA6FC459A","title":"坤阳国际商务广场","lon":"121.452","lat":"31.2047","category":"46","category_name":"楼宇","address":"卫清西路139_149号等"},{"poiid":"B2094757D06AA5F4499F","title":"馥满江南菜","lon":"121.454896","lat":"31.199246","category":"76","category_name":"上海菜","address":"徐汇区医学院路79号(近枫林路)"},{"poiid":"B2094654DB6BA5FA4799","title":"欧江大厦","lon":"121.453","lat":"31.2052","category":"46","category_name":"楼宇","address":"徐汇区肇嘉浜路768号"},{"poiid":"B2094757D568ABFA4692","title":"中科院地下食堂","lon":"121.453315","lat":"31.20148806","category":"68","category_name":"快餐厅","address":"徐汇区岳阳路319号中科大厦B1楼(近好望角大饭店)"},{"poiid":"B2094757D068A3FA499D","title":"中山医院住院部三号楼","lon":"121.453937593","lat":"31.1983534856","category":"162","category_name":"医院","address":"上海徐汇区枫林路180号(近医学院路)"},{"poiid":"B2094750D165A2F54499","title":"韩国首尔SUM STUDIO","lon":"121.454948","lat":"31.203849","category":"248","category_name":"生活娱乐","address":"徐汇区建国西路379号(近岳阳路)"},{"poiid":"B2094757D16CAAF8489F","title":"中国科学院上海分院","lon":"121.45382308","lat":"31.203554409","category":"671","category_name":"高校中心点","address":"上海岳阳路319号"},{"poiid":"B2094757D06BA3F9439E","title":"复旦大学附属中山医院急诊输液室","lon":"121.453645232","lat":"31.1989293545","category":"162","category_name":"医院","address":"徐汇区枫林路180号中山医院内(近医学院路)"},{"poiid":"B2094757D16DA1F8479F","title":"医学院路","lon":"121.45605018","lat":"31.200274212","category":"500","category_name":"未知分类","address":"上海医学院路69号"},{"poiid":"B2094757D66BA6F9429E","title":"半岛餐厅","lon":"121.45344535807","lat":"31.200745118072","category":"268","category_name":"自助","address":"徐汇区肇嘉浜路500号好望角大酒店3楼(岳阳路口)"},{"poiid":"B2094654DA6DABFC419E","title":"研究生电子阅览室","lon":"121.45332","lat":"31.20149","category":"181","category_name":"图书馆","address":"肇嘉浜路500"},{"poiid":"B2094757D56EA2FF469E","title":"天目山庄","lon":"121.454923","lat":"31.199855","category":"247","category_name":"餐饮美食","address":"徐汇区大木桥路360号(近斜土路)"},{"poiid":"B2094757D069A6FE489A","title":"43路肇嘉浜路枫林路站","lon":"121.45452117","lat":"31.200782775","category":"38","category_name":"公交车站","address":"上海肇嘉浜路枫林路"},{"poiid":"B2094757D469A1F9489C","title":"雷焰烧烤","lon":"121.454735054","lat":"31.200505793","category":"68","category_name":"快餐厅","address":"徐汇区肇嘉浜路567号(近枫林路)"},{"poiid":"B2094757D069A5F44799","title":"Lola Club","lon":"121.455173279","lat":"31.2044100305","category":"500","category_name":"未知分类","address":"上海永嘉路570号"},{"poiid":"B2094757D66DA1FC489F","title":"肇嘉浜路枫林路公交站","lon":"121.45454458","lat":"31.201014859","category":"38","category_name":"公交车站","address":"上海肇嘉浜路枫林路"},{"poiid":"B2094750D26CA3FE459F","title":"好望角大饭店 宴会厅","lon":"121.453479054","lat":"31.200733793","category":"76","category_name":"上海菜","address":"肇嘉浜路500号好望角大饭店5楼近岳阳路"},{"poiid":"B2094751DA6AA2FC4593","title":"麦当劳","lon":"121.45223","lat":"31.199739","category":"247","category_name":"餐饮美食","address":"徐汇区斜土路1646号"},{"poiid":"B2094757D069A1F9419D","title":"中山医院10号楼手术室","lon":"121.453940275","lat":"31.1983488969","category":"162","category_name":"医院","address":"上海徐汇区枫林路180号(近医学院路)"},{"poiid":"B2094757D568A6F84793","title":"菁英会","lon":"121.45333","lat":"31.203039","category":"257","category_name":"中餐厅","address":"徐汇区岳阳路265号1-2楼(近建国西路)"},{"poiid":"B2094757D16FA1FE419F","title":"肇嘉浜路东安路公交站","lon":"121.45301988","lat":"31.200472649","category":"38","category_name":"公交车站","address":"上海肇嘉浜路东安路公交站"},{"poiid":"B2094655D36DA7FE439B","title":"肇嘉浜路枫林路","lon":"121.45451","lat":"31.20078","category":"38","category_name":"公交车站","address":""},{"poiid":"B2094750DA6AAAFC479F","title":"奈良本寿司","lon":"121.45543","lat":"31.20401","category":"95","category_name":"日本料理","address":"徐汇区永嘉路557号"},{"poiid":"B2094757DA65A3FF4499","title":"中山医院","lon":"121.45237118","lat":"31.20069962","category":"162","category_name":"医院","address":"徐汇区小木桥路"},{"poiid":"B2094654DA6DA7F54099","title":"怡甸大厦","lon":"121.453118","lat":"31.204807","category":"46","category_name":"楼宇","address":"上海市静安区南京西路555号"},{"poiid":"B2094654DA6DA4F5449F","title":"建襄小学","lon":"121.45315","lat":"31.20332","category":"56","category_name":"小学","address":"徐汇区岳阳路255号(近建国西路)"},{"poiid":"B2094654DA6DAAFF409D","title":"枫林大楼","lon":"121.45303","lat":"31.200081","category":"47","category_name":"住宅区","address":"肇嘉浜路661-665"},{"poiid":"B2094655D264A2F8449A","title":"567餐厅","lon":"121.45516","lat":"31.20084","category":"76","category_name":"上海菜","address":"徐汇区肇嘉浜路567号(近张生记)"},{"poiid":"B2094757D065ABF9449E","title":"京翅坊","lon":"121.44984","lat":"31.20122","category":"72","category_name":"广东菜","address":"徐汇区乌鲁木齐南路298号2楼(近建国西路)"},{"poiid":"B2094655D26CA7F4429B","title":"复旦大学附属中山医院","lon":"121.45405","lat":"31.19857","category":"162","category_name":"医院","address":"医学院路111,136号"},{"poiid":"B2094757D06FA1F94399","title":"徐汇区牙病防治所(肇嘉浜路分所)","lon":"121.451361983","lat":"31.1994818967","category":"162","category_name":"医院","address":"徐汇区肇嘉浜路685号(近东安路)"},{"poiid":"B2094655D26DA3F9449E","title":"复旦大学附属中山医院门诊急诊部","lon":"121.45333","lat":"31.19884","category":"162","category_name":"医院","address":"医学院路111、136"},{"poiid":"B2094753D76FAAFA449C","title":"上海滩国泰旗舰店","lon":"121.466011","lat":"31.216125","category":"249","category_name":"购物服务","address":"淮海中路868号"},{"poiid":"B209475CD564A7F84292","title":"上海滩新天地店","lon":"121.47463","lat":"31.22164","category":"119","category_name":"商场","address":"\"太仓路181弄新天地北里15号\r\n\""},{"poiid":"B209475CD564A7F8439E","title":"上海滩中信泰富店","lon":"121.45602","lat":"31.22851","category":"119","category_name":"商场","address":"\"南京西路1168号中信泰富广场，店铺号221.\r\n\""},{"poiid":"B2094757D06FA6F9479B","title":"张生记(徐汇店)","lon":"121.45598","lat":"31.20142","category":"75","category_name":"浙江菜","address":"徐汇区肇嘉浜路446号伊泰利大厦2-3楼(近太原路)"},{"poiid":"B2094757D06FA0FB429C","title":"苏浙汇(华泰大厦店)","lon":"121.450408","lat":"31.202926","category":"76","category_name":"上海菜","address":"徐汇区肇嘉浜路388号华泰大厦1-2楼(近襄阳南路)"},{"poiid":"B2094757D06AA3FC4293","title":"中科院","lon":"121.453551","lat":"31.201298","category":"500","category_name":"未知分类","address":"上海岳阳路319号"},{"poiid":"B2094654DA6DABFC439A","title":"好望角大饭店","lon":"121.45418","lat":"31.20133","category":"76","category_name":"上海菜","address":"徐汇区肇嘉浜路500号好望角大饭店3楼(岳阳路口)"},{"poiid":"B2094757D06FA6FE4998","title":"南伶酒家","lon":"121.45245","lat":"31.20485","category":"74","category_name":"江苏菜","address":"徐汇区岳阳路168号(近永嘉路)"},{"poiid":"B2094654DA6DABFC409A","title":"中国科学院上海生命科学研究院(中科大厦西)","lon":"121.45243","lat":"31.20132","category":"191","category_name":"科研机构","address":"徐汇区岳阳路320号"},{"poiid":"B2094757D06FA5F94093","title":"建科大厦","lon":"121.452","lat":"31.2018","category":"46","category_name":"楼宇","address":"上海徐汇区宛平南路75号"},{"poiid":"B2094757D66BA1FC489A","title":"御席公馆","lon":"121.450101","lat":"31.202679","category":"97","category_name":"法式菜品餐厅","address":"徐汇区建国西路568号(近建国西路)"},{"poiid":"B2094757D06FA1FF429F","title":"伶达港骨头皇火锅(枫林店)","lon":"121.45522","lat":"31.20049","category":"86","category_name":"火锅店","address":"徐汇区肇嘉浜路567号(近枫林路)"},{"poiid":"B2094757D068AAFB439D","title":"湘鄂情","lon":"121.45401","lat":"31.20091","category":"77","category_name":"湖南菜","address":"徐汇区肇嘉浜路500号好望角大酒店裙楼(岳阳路口)"},{"poiid":"B2094757D068A7FE499C","title":"上海五洲国际大厦","lon":"121.454","lat":"31.2043","category":"46","category_name":"楼宇","address":"徐汇区肇嘉浜路807号"},{"poiid":"B2094654DA6DABFD4199","title":"伊泰利大厦","lon":"121.4552612","lat":"31.20184326","category":"46","category_name":"楼宇","address":"伊泰利大厦位于徐汇肇嘉浜路446弄"},{"poiid":"B2094757D56DA7FE499B","title":"徐家汇查餐厅","lon":"121.45405","lat":"31.19857","category":"247","category_name":"餐饮美食","address":"天钥桥路"},{"poiid":"B2094750D16BA4FD449E","title":"板烧王","lon":"121.454582","lat":"31.20439","category":"247","category_name":"餐饮美食","address":"卢湾区徐家汇路618号日月光中心广场B2楼台湾美食馆BT20-23室(近瑞金二路)"},{"poiid":"B2094655D36CA0F94999","title":"建国西路","lon":"121.45565","lat":"31.20408","category":"38","category_name":"公交车站","address":"建国西路354弄"},{"poiid":"B2094654DA6DA6FC459A","title":"坤阳国际商务广场","lon":"121.452","lat":"31.2047","category":"46","category_name":"楼宇","address":"卫清西路139_149号等"},{"poiid":"B2094757D06AA5F4499F","title":"馥满江南菜","lon":"121.454896","lat":"31.199246","category":"76","category_name":"上海菜","address":"徐汇区医学院路79号(近枫林路)"},{"poiid":"B2094654DB6BA5FA4799","title":"欧江大厦","lon":"121.453","lat":"31.2052","category":"46","category_name":"楼宇","address":"徐汇区肇嘉浜路768号"},{"poiid":"B2094757D568ABFA4692","title":"中科院地下食堂","lon":"121.453315","lat":"31.20148806","category":"68","category_name":"快餐厅","address":"徐汇区岳阳路319号中科大厦B1楼(近好望角大饭店)"},{"poiid":"B2094757D068A3FA499D","title":"中山医院住院部三号楼","lon":"121.453937593","lat":"31.1983534856","category":"162","category_name":"医院","address":"上海徐汇区枫林路180号(近医学院路)"},{"poiid":"B2094750D165A2F54499","title":"韩国首尔SUM STUDIO","lon":"121.454948","lat":"31.203849","category":"248","category_name":"生活娱乐","address":"徐汇区建国西路379号(近岳阳路)"},{"poiid":"B2094757D16CAAF8489F","title":"中国科学院上海分院","lon":"121.45382308","lat":"31.203554409","category":"671","category_name":"高校中心点","address":"上海岳阳路319号"},{"poiid":"B2094757D06BA3F9439E","title":"复旦大学附属中山医院急诊输液室","lon":"121.453645232","lat":"31.1989293545","category":"162","category_name":"医院","address":"徐汇区枫林路180号中山医院内(近医学院路)"},{"poiid":"B2094757D16DA1F8479F","title":"医学院路","lon":"121.45605018","lat":"31.200274212","category":"500","category_name":"未知分类","address":"上海医学院路69号"},{"poiid":"B2094757D66BA6F9429E","title":"半岛餐厅","lon":"121.45344535807","lat":"31.200745118072","category":"268","category_name":"自助","address":"徐汇区肇嘉浜路500号好望角大酒店3楼(岳阳路口)"},{"poiid":"B2094654DA6DABFC419E","title":"研究生电子阅览室","lon":"121.45332","lat":"31.20149","category":"181","category_name":"图书馆","address":"肇嘉浜路500"},{"poiid":"B2094757D56EA2FF469E","title":"天目山庄","lon":"121.454923","lat":"31.199855","category":"247","category_name":"餐饮美食","address":"徐汇区大木桥路360号(近斜土路)"},{"poiid":"B2094757D069A6FE489A","title":"43路肇嘉浜路枫林路站","lon":"121.45452117","lat":"31.200782775","category":"38","category_name":"公交车站","address":"上海肇嘉浜路枫林路"},{"poiid":"B2094757D469A1F9489C","title":"雷焰烧烤","lon":"121.454735054","lat":"31.200505793","category":"68","category_name":"快餐厅","address":"徐汇区肇嘉浜路567号(近枫林路)"},{"poiid":"B2094757D069A5F44799","title":"Lola Club","lon":"121.455173279","lat":"31.2044100305","category":"500","category_name":"未知分类","address":"上海永嘉路570号"},{"poiid":"B2094757D66DA1FC489F","title":"肇嘉浜路枫林路公交站","lon":"121.45454458","lat":"31.201014859","category":"38","category_name":"公交车站","address":"上海肇嘉浜路枫林路"},{"poiid":"B2094750D26CA3FE459F","title":"好望角大饭店 宴会厅","lon":"121.453479054","lat":"31.200733793","category":"76","category_name":"上海菜","address":"肇嘉浜路500号好望角大饭店5楼近岳阳路"},{"poiid":"B2094751DA6AA2FC4593","title":"麦当劳","lon":"121.45223","lat":"31.199739","category":"247","category_name":"餐饮美食","address":"徐汇区斜土路1646号"},{"poiid":"B2094757D069A1F9419D","title":"中山医院10号楼手术室","lon":"121.453940275","lat":"31.1983488969","category":"162","category_name":"医院","address":"上海徐汇区枫林路180号(近医学院路)"},{"poiid":"B2094757D568A6F84793","title":"菁英会","lon":"121.45333","lat":"31.203039","category":"257","category_name":"中餐厅","address":"徐汇区岳阳路265号1-2楼(近建国西路)"},{"poiid":"B2094757D16FA1FE419F","title":"肇嘉浜路东安路公交站","lon":"121.45301988","lat":"31.200472649","category":"38","category_name":"公交车站","address":"上海肇嘉浜路东安路公交站"},{"poiid":"B2094655D36DA7FE439B","title":"肇嘉浜路枫林路","lon":"121.45451","lat":"31.20078","category":"38","category_name":"公交车站","address":""},{"poiid":"B2094750DA6AAAFC479F","title":"奈良本寿司","lon":"121.45543","lat":"31.20401","category":"95","category_name":"日本料理","address":"徐汇区永嘉路557号"},{"poiid":"B2094757DA65A3FF4499","title":"中山医院","lon":"121.45237118","lat":"31.20069962","category":"162","category_name":"医院","address":"徐汇区小木桥路"},{"poiid":"B2094654DA6DA7F54099","title":"怡甸大厦","lon":"121.453118","lat":"31.204807","category":"46","category_name":"楼宇","address":"上海市静安区南京西路555号"},{"poiid":"B2094654DA6DA4F5449F","title":"建襄小学","lon":"121.45315","lat":"31.20332","category":"56","category_name":"小学","address":"徐汇区岳阳路255号(近建国西路)"},{"poiid":"B2094654DA6DAAFF409D","title":"枫林大楼","lon":"121.45303","lat":"31.200081","category":"47","category_name":"住宅区","address":"肇嘉浜路661-665"},{"poiid":"B2094655D264A2F8449A","title":"567餐厅","lon":"121.45516","lat":"31.20084","category":"76","category_name":"上海菜","address":"徐汇区肇嘉浜路567号(近张生记)"},{"poiid":"B2094757D065ABF9449E","title":"京翅坊","lon":"121.44984","lat":"31.20122","category":"72","category_name":"广东菜","address":"徐汇区乌鲁木齐南路298号2楼(近建国西路)"},{"poiid":"B2094655D26CA7F4429B","title":"复旦大学附属中山医院","lon":"121.45405","lat":"31.19857","category":"162","category_name":"医院","address":"医学院路111,136号"},{"poiid":"B2094757D06FA1F94399","title":"徐汇区牙病防治所(肇嘉浜路分所)","lon":"121.451361983","lat":"31.1994818967","category":"162","category_name":"医院","address":"徐汇区肇嘉浜路685号(近东安路)"},{"poiid":"B2094655D26DA3F9449E","title":"复旦大学附属中山医院门诊急诊部","lon":"121.45333","lat":"31.19884","category":"162","category_name":"医院","address":"医学院路111、136"},{"poiid":"B2094753D76FAAFA449C","title":"上海滩国泰旗舰店","lon":"121.466011","lat":"31.216125","category":"249","category_name":"购物服务","address":"淮海中路868号"},{"poiid":"B209475CD564A7F84292","title":"上海滩新天地店","lon":"121.47463","lat":"31.22164","category":"119","category_name":"商场","address":"\"太仓路181弄新天地北里15号\r\n\""},{"poiid":"B209475CD564A7F8439E","title":"上海滩中信泰富店","lon":"121.45602","lat":"31.22851","category":"119","category_name":"商场","address":"\"南京西路1168号中信泰富广场，店铺号221.\r\n\""},{"poiid":"B2094757D06FA6F9479B","title":"张生记(徐汇店)","lon":"121.45598","lat":"31.20142","category":"75","category_name":"浙江菜","address":"徐汇区肇嘉浜路446号伊泰利大厦2-3楼(近太原路)"},{"poiid":"B2094757D06FA0FB429C","title":"苏浙汇(华泰大厦店)","lon":"121.450408","lat":"31.202926","category":"76","category_name":"上海菜","address":"徐汇区肇嘉浜路388号华泰大厦1-2楼(近襄阳南路)"},{"poiid":"B2094757D06AA3FC4293","title":"中科院","lon":"121.453551","lat":"31.201298","category":"500","category_name":"未知分类","address":"上海岳阳路319号"},{"poiid":"B2094654DA6DABFC439A","title":"好望角大饭店","lon":"121.45418","lat":"31.20133","category":"76","category_name":"上海菜","address":"徐汇区肇嘉浜路500号好望角大饭店3楼(岳阳路口)"},{"poiid":"B2094757D06FA6FE4998","title":"南伶酒家","lon":"121.45245","lat":"31.20485","category":"74","category_name":"江苏菜","address":"徐汇区岳阳路168号(近永嘉路)"},{"poiid":"B2094654DA6DABFC409A","title":"中国科学院上海生命科学研究院(中科大厦西)","lon":"121.45243","lat":"31.20132","category":"191","category_name":"科研机构","address":"徐汇区岳阳路320号"},{"poiid":"B2094757D06FA5F94093","title":"建科大厦","lon":"121.452","lat":"31.2018","category":"46","category_name":"楼宇","address":"上海徐汇区宛平南路75号"},{"poiid":"B2094757D66BA1FC489A","title":"御席公馆","lon":"121.450101","lat":"31.202679","category":"97","category_name":"法式菜品餐厅","address":"徐汇区建国西路568号(近建国西路)"},{"poiid":"B2094757D06FA1FF429F","title":"伶达港骨头皇火锅(枫林店)","lon":"121.45522","lat":"31.20049","category":"86","category_name":"火锅店","address":"徐汇区肇嘉浜路567号(近枫林路)"},{"poiid":"B2094757D068AAFB439D","title":"湘鄂情","lon":"121.45401","lat":"31.20091","category":"77","category_name":"湖南菜","address":"徐汇区肇嘉浜路500号好望角大酒店裙楼(岳阳路口)"},{"poiid":"B2094757D068A7FE499C","title":"上海五洲国际大厦","lon":"121.454","lat":"31.2043","category":"46","category_name":"楼宇","address":"徐汇区肇嘉浜路807号"},{"poiid":"B2094654DA6DABFD4199","title":"伊泰利大厦","lon":"121.4552612","lat":"31.20184326","category":"46","category_name":"楼宇","address":"伊泰利大厦位于徐汇肇嘉浜路446弄"},{"poiid":"B2094757D56DA7FE499B","title":"徐家汇查餐厅","lon":"121.45405","lat":"31.19857","category":"247","category_name":"餐饮美食","address":"天钥桥路"},{"poiid":"B2094750D16BA4FD449E","title":"板烧王","lon":"121.454582","lat":"31.20439","category":"247","category_name":"餐饮美食","address":"卢湾区徐家汇路618号日月光中心广场B2楼台湾美食馆BT20-23室(近瑞金二路)"},{"poiid":"B2094655D36CA0F94999","title":"建国西路","lon":"121.45565","lat":"31.20408","category":"38","category_name":"公交车站","address":"建国西路354弄"},{"poiid":"B2094654DA6DA6FC459A","title":"坤阳国际商务广场","lon":"121.452","lat":"31.2047","category":"46","category_name":"楼宇","address":"卫清西路139_149号等"},{"poiid":"B2094757D06AA5F4499F","title":"馥满江南菜","lon":"121.454896","lat":"31.199246","category":"76","category_name":"上海菜","address":"徐汇区医学院路79号(近枫林路)"},{"poiid":"B2094654DB6BA5FA4799","title":"欧江大厦","lon":"121.453","lat":"31.2052","category":"46","category_name":"楼宇","address":"徐汇区肇嘉浜路768号"},{"poiid":"B2094757D568ABFA4692","title":"中科院地下食堂","lon":"121.453315","lat":"31.20148806","category":"68","category_name":"快餐厅","address":"徐汇区岳阳路319号中科大厦B1楼(近好望角大饭店)"},{"poiid":"B2094757D068A3FA499D","title":"中山医院住院部三号楼","lon":"121.453937593","lat":"31.1983534856","category":"162","category_name":"医院","address":"上海徐汇区枫林路180号(近医学院路)"},{"poiid":"B2094750D165A2F54499","title":"韩国首尔SUM STUDIO","lon":"121.454948","lat":"31.203849","category":"248","category_name":"生活娱乐","address":"徐汇区建国西路379号(近岳阳路)"},{"poiid":"B2094757D16CAAF8489F","title":"中国科学院上海分院","lon":"121.45382308","lat":"31.203554409","category":"671","category_name":"高校中心点","address":"上海岳阳路319号"},{"poiid":"B2094757D06BA3F9439E","title":"复旦大学附属中山医院急诊输液室","lon":"121.453645232","lat":"31.1989293545","category":"162","category_name":"医院","address":"徐汇区枫林路180号中山医院内(近医学院路)"},{"poiid":"B2094757D16DA1F8479F","title":"医学院路","lon":"121.45605018","lat":"31.200274212","category":"500","category_name":"未知分类","address":"上海医学院路69号"},{"poiid":"B2094757D66BA6F9429E","title":"半岛餐厅","lon":"121.45344535807","lat":"31.200745118072","category":"268","category_name":"自助","address":"徐汇区肇嘉浜路500号好望角大酒店3楼(岳阳路口)"},{"poiid":"B2094654DA6DABFC419E","title":"研究生电子阅览室","lon":"121.45332","lat":"31.20149","category":"181","category_name":"图书馆","address":"肇嘉浜路500"},{"poiid":"B2094757D56EA2FF469E","title":"天目山庄","lon":"121.454923","lat":"31.199855","category":"247","category_name":"餐饮美食","address":"徐汇区大木桥路360号(近斜土路)"},{"poiid":"B2094757D069A6FE489A","title":"43路肇嘉浜路枫林路站","lon":"121.45452117","lat":"31.200782775","category":"38","category_name":"公交车站","address":"上海肇嘉浜路枫林路"},{"poiid":"B2094757D469A1F9489C","title":"雷焰烧烤","lon":"121.454735054","lat":"31.200505793","category":"68","category_name":"快餐厅","address":"徐汇区肇嘉浜路567号(近枫林路)"},{"poiid":"B2094757D069A5F44799","title":"Lola Club","lon":"121.455173279","lat":"31.2044100305","category":"500","category_name":"未知分类","address":"上海永嘉路570号"},{"poiid":"B2094757D66DA1FC489F","title":"肇嘉浜路枫林路公交站","lon":"121.45454458","lat":"31.201014859","category":"38","category_name":"公交车站","address":"上海肇嘉浜路枫林路"},{"poiid":"B2094750D26CA3FE459F","title":"好望角大饭店 宴会厅","lon":"121.453479054","lat":"31.200733793","category":"76","category_name":"上海菜","address":"肇嘉浜路500号好望角大饭店5楼近岳阳路"},{"poiid":"B2094751DA6AA2FC4593","title":"麦当劳","lon":"121.45223","lat":"31.199739","category":"247","category_name":"餐饮美食","address":"徐汇区斜土路1646号"},{"poiid":"B2094757D069A1F9419D","title":"中山医院10号楼手术室","lon":"121.453940275","lat":"31.1983488969","category":"162","category_name":"医院","address":"上海徐汇区枫林路180号(近医学院路)"},{"poiid":"B2094757D568A6F84793","title":"菁英会","lon":"121.45333","lat":"31.203039","category":"257","category_name":"中餐厅","address":"徐汇区岳阳路265号1-2楼(近建国西路)"},{"poiid":"B2094757D16FA1FE419F","title":"肇嘉浜路东安路公交站","lon":"121.45301988","lat":"31.200472649","category":"38","category_name":"公交车站","address":"上海肇嘉浜路东安路公交站"},{"poiid":"B2094655D36DA7FE439B","title":"肇嘉浜路枫林路","lon":"121.45451","lat":"31.20078","category":"38","category_name":"公交车站","address":""},{"poiid":"B2094750DA6AAAFC479F","title":"奈良本寿司","lon":"121.45543","lat":"31.20401","category":"95","category_name":"日本料理","address":"徐汇区永嘉路557号"},{"poiid":"B2094757DA65A3FF4499","title":"中山医院","lon":"121.45237118","lat":"31.20069962","category":"162","category_name":"医院","address":"徐汇区小木桥路"},{"poiid":"B2094654DA6DA7F54099","title":"怡甸大厦","lon":"121.453118","lat":"31.204807","category":"46","category_name":"楼宇","address":"上海市静安区南京西路555号"},{"poiid":"B2094654DA6DA4F5449F","title":"建襄小学","lon":"121.45315","lat":"31.20332","category":"56","category_name":"小学","address":"徐汇区岳阳路255号(近建国西路)"},{"poiid":"B2094654DA6DAAFF409D","title":"枫林大楼","lon":"121.45303","lat":"31.200081","category":"47","category_name":"住宅区","address":"肇嘉浜路661-665"},{"poiid":"B2094655D264A2F8449A","title":"567餐厅","lon":"121.45516","lat":"31.20084","category":"76","category_name":"上海菜","address":"徐汇区肇嘉浜路567号(近张生记)"},{"poiid":"B2094757D065ABF9449E","title":"京翅坊","lon":"121.44984","lat":"31.20122","category":"72","category_name":"广东菜","address":"徐汇区乌鲁木齐南路298号2楼(近建国西路)"},{"poiid":"B2094655D26CA7F4429B","title":"复旦大学附属中山医院","lon":"121.45405","lat":"31.19857","category":"162","category_name":"医院","address":"医学院路111,136号"},{"poiid":"B2094757D06FA1F94399","title":"徐汇区牙病防治所(肇嘉浜路分所)","lon":"121.451361983","lat":"31.1994818967","category":"162","category_name":"医院","address":"徐汇区肇嘉浜路685号(近东安路)"},{"poiid":"B2094655D26DA3F9449E","title":"复旦大学附属中山医院门诊急诊部","lon":"121.45333","lat":"31.19884","category":"162","category_name":"医院","address":"医学院路111、136"},{"poiid":"B2094753D76FAAFA449C","title":"上海滩国泰旗舰店","lon":"121.466011","lat":"31.216125","category":"249","category_name":"购物服务","address":"淮海中路868号"},{"poiid":"B209475CD564A7F84292","title":"上海滩新天地店","lon":"121.47463","lat":"31.22164","category":"119","category_name":"商场","address":"\"太仓路181弄新天地北里15号\r\n\""},{"poiid":"B209475CD564A7F8439E","title":"上海滩中信泰富店","lon":"121.45602","lat":"31.22851","category":"119","category_name":"商场","address":"\"南京西路1168号中信泰富广场，店铺号221.\r\n\""},{"poiid":"B2094757D06FA6F9479B","title":"张生记(徐汇店)","lon":"121.45598","lat":"31.20142","category":"75","category_name":"浙江菜","address":"徐汇区肇嘉浜路446号伊泰利大厦2-3楼(近太原路)"},{"poiid":"B2094757D06FA0FB429C","title":"苏浙汇(华泰大厦店)","lon":"121.450408","lat":"31.202926","category":"76","category_name":"上海菜","address":"徐汇区肇嘉浜路388号华泰大厦1-2楼(近襄阳南路)"},{"poiid":"B2094757D06AA3FC4293","title":"中科院","lon":"121.453551","lat":"31.201298","category":"500","category_name":"未知分类","address":"上海岳阳路319号"},{"poiid":"B2094654DA6DABFC439A","title":"好望角大饭店","lon":"121.45418","lat":"31.20133","category":"76","category_name":"上海菜","address":"徐汇区肇嘉浜路500号好望角大饭店3楼(岳阳路口)"},{"poiid":"B2094757D06FA6FE4998","title":"南伶酒家","lon":"121.45245","lat":"31.20485","category":"74","category_name":"江苏菜","address":"徐汇区岳阳路168号(近永嘉路)"},{"poiid":"B2094654DA6DABFC409A","title":"中国科学院上海生命科学研究院(中科大厦西)","lon":"121.45243","lat":"31.20132","category":"191","category_name":"科研机构","address":"徐汇区岳阳路320号"},{"poiid":"B2094757D06FA5F94093","title":"建科大厦","lon":"121.452","lat":"31.2018","category":"46","category_name":"楼宇","address":"上海徐汇区宛平南路75号"},{"poiid":"B2094757D66BA1FC489A","title":"御席公馆","lon":"121.450101","lat":"31.202679","category":"97","category_name":"法式菜品餐厅","address":"徐汇区建国西路568号(近建国西路)"},{"poiid":"B2094757D06FA1FF429F","title":"伶达港骨头皇火锅(枫林店)","lon":"121.45522","lat":"31.20049","category":"86","category_name":"火锅店","address":"徐汇区肇嘉浜路567号(近枫林路)"},{"poiid":"B2094757D068AAFB439D","title":"湘鄂情","lon":"121.45401","lat":"31.20091","category":"77","category_name":"湖南菜","address":"徐汇区肇嘉浜路500号好望角大酒店裙楼(岳阳路口)"},{"poiid":"B2094757D068A7FE499C","title":"上海五洲国际大厦","lon":"121.454","lat":"31.2043","category":"46","category_name":"楼宇","address":"徐汇区肇嘉浜路807号"},{"poiid":"B2094654DA6DABFD4199","title":"伊泰利大厦","lon":"121.4552612","lat":"31.20184326","category":"46","category_name":"楼宇","address":"伊泰利大厦位于徐汇肇嘉浜路446弄"},{"poiid":"B2094757D56DA7FE499B","title":"徐家汇查餐厅","lon":"121.45405","lat":"31.19857","category":"247","category_name":"餐饮美食","address":"天钥桥路"},{"poiid":"B2094750D16BA4FD449E","title":"板烧王","lon":"121.454582","lat":"31.20439","category":"247","category_name":"餐饮美食","address":"卢湾区徐家汇路618号日月光中心广场B2楼台湾美食馆BT20-23室(近瑞金二路)"},{"poiid":"B2094655D36CA0F94999","title":"建国西路","lon":"121.45565","lat":"31.20408","category":"38","category_name":"公交车站","address":"建国西路354弄"},{"poiid":"B2094654DA6DA6FC459A","title":"坤阳国际商务广场","lon":"121.452","lat":"31.2047","category":"46","category_name":"楼宇","address":"卫清西路139_149号等"},{"poiid":"B2094757D06AA5F4499F","title":"馥满江南菜","lon":"121.454896","lat":"31.199246","category":"76","category_name":"上海菜","address":"徐汇区医学院路79号(近枫林路)"},{"poiid":"B2094654DB6BA5FA4799","title":"欧江大厦","lon":"121.453","lat":"31.2052","category":"46","category_name":"楼宇","address":"徐汇区肇嘉浜路768号"},{"poiid":"B2094757D568ABFA4692","title":"中科院地下食堂","lon":"121.453315","lat":"31.20148806","category":"68","category_name":"快餐厅","address":"徐汇区岳阳路319号中科大厦B1楼(近好望角大饭店)"},{"poiid":"B2094757D068A3FA499D","title":"中山医院住院部三号楼","lon":"121.453937593","lat":"31.1983534856","category":"162","category_name":"医院","address":"上海徐汇区枫林路180号(近医学院路)"},{"poiid":"B2094750D165A2F54499","title":"韩国首尔SUM STUDIO","lon":"121.454948","lat":"31.203849","category":"248","category_name":"生活娱乐","address":"徐汇区建国西路379号(近岳阳路)"},{"poiid":"B2094757D16CAAF8489F","title":"中国科学院上海分院","lon":"121.45382308","lat":"31.203554409","category":"671","category_name":"高校中心点","address":"上海岳阳路319号"},{"poiid":"B2094757D06BA3F9439E","title":"复旦大学附属中山医院急诊输液室","lon":"121.453645232","lat":"31.1989293545","category":"162","category_name":"医院","address":"徐汇区枫林路180号中山医院内(近医学院路)"},{"poiid":"B2094757D16DA1F8479F","title":"医学院路","lon":"121.45605018","lat":"31.200274212","category":"500","category_name":"未知分类","address":"上海医学院路69号"},{"poiid":"B2094757D66BA6F9429E","title":"半岛餐厅","lon":"121.45344535807","lat":"31.200745118072","category":"268","category_name":"自助","address":"徐汇区肇嘉浜路500号好望角大酒店3楼(岳阳路口)"},{"poiid":"B2094654DA6DABFC419E","title":"研究生电子阅览室","lon":"121.45332","lat":"31.20149","category":"181","category_name":"图书馆","address":"肇嘉浜路500"},{"poiid":"B2094757D56EA2FF469E","title":"天目山庄","lon":"121.454923","lat":"31.199855","category":"247","category_name":"餐饮美食","address":"徐汇区大木桥路360号(近斜土路)"},{"poiid":"B2094757D069A6FE489A","title":"43路肇嘉浜路枫林路站","lon":"121.45452117","lat":"31.200782775","category":"38","category_name":"公交车站","address":"上海肇嘉浜路枫林路"},{"poiid":"B2094757D469A1F9489C","title":"雷焰烧烤","lon":"121.454735054","lat":"31.200505793","category":"68","category_name":"快餐厅","address":"徐汇区肇嘉浜路567号(近枫林路)"},{"poiid":"B2094757D069A5F44799","title":"Lola Club","lon":"121.455173279","lat":"31.2044100305","category":"500","category_name":"未知分类","address":"上海永嘉路570号"},{"poiid":"B2094757D66DA1FC489F","title":"肇嘉浜路枫林路公交站","lon":"121.45454458","lat":"31.201014859","category":"38","category_name":"公交车站","address":"上海肇嘉浜路枫林路"},{"poiid":"B2094750D26CA3FE459F","title":"好望角大饭店 宴会厅","lon":"121.453479054","lat":"31.200733793","category":"76","category_name":"上海菜","address":"肇嘉浜路500号好望角大饭店5楼近岳阳路"},{"poiid":"B2094751DA6AA2FC4593","title":"麦当劳","lon":"121.45223","lat":"31.199739","category":"247","category_name":"餐饮美食","address":"徐汇区斜土路1646号"},{"poiid":"B2094757D069A1F9419D","title":"中山医院10号楼手术室","lon":"121.453940275","lat":"31.1983488969","category":"162","category_name":"医院","address":"上海徐汇区枫林路180号(近医学院路)"},{"poiid":"B2094757D568A6F84793","title":"菁英会","lon":"121.45333","lat":"31.203039","category":"257","category_name":"中餐厅","address":"徐汇区岳阳路265号1-2楼(近建国西路)"},{"poiid":"B2094757D16FA1FE419F","title":"肇嘉浜路东安路公交站","lon":"121.45301988","lat":"31.200472649","category":"38","category_name":"公交车站","address":"上海肇嘉浜路东安路公交站"},{"poiid":"B2094655D36DA7FE439B","title":"肇嘉浜路枫林路","lon":"121.45451","lat":"31.20078","category":"38","category_name":"公交车站","address":""},{"poiid":"B2094750DA6AAAFC479F","title":"奈良本寿司","lon":"121.45543","lat":"31.20401","category":"95","category_name":"日本料理","address":"徐汇区永嘉路557号"},{"poiid":"B2094757DA65A3FF4499","title":"中山医院","lon":"121.45237118","lat":"31.20069962","category":"162","category_name":"医院","address":"徐汇区小木桥路"},{"poiid":"B2094654DA6DA7F54099","title":"怡甸大厦","lon":"121.453118","lat":"31.204807","category":"46","category_name":"楼宇","address":"上海市静安区南京西路555号"},{"poiid":"B2094654DA6DA4F5449F","title":"建襄小学","lon":"121.45315","lat":"31.20332","category":"56","category_name":"小学","address":"徐汇区岳阳路255号(近建国西路)"},{"poiid":"B2094654DA6DAAFF409D","title":"枫林大楼","lon":"121.45303","lat":"31.200081","category":"47","category_name":"住宅区","address":"肇嘉浜路661-665"},{"poiid":"B2094655D264A2F8449A","title":"567餐厅","lon":"121.45516","lat":"31.20084","category":"76","category_name":"上海菜","address":"徐汇区肇嘉浜路567号(近张生记)"},{"poiid":"B2094757D065ABF9449E","title":"京翅坊","lon":"121.44984","lat":"31.20122","category":"72","category_name":"广东菜","address":"徐汇区乌鲁木齐南路298号2楼(近建国西路)"}]