[{"poiid":"B2094757D06EAAFA499A","title":"上海歌城(徐家汇店)","lon":"121.44864654","lat":"31.19801712","category":"170","category_name":"KTV","address":"徐汇区肇嘉浜路789号均瑶国际广场2-3楼(近高安路)"},{"poiid":"B2094654DB69ABF9469A","title":"三人行骨头王火锅(徐汇总店)","lon":"121.44548","lat":"31.19707","category":"86","category_name":"火锅店","address":"徐汇区肇嘉浜路879号(近宛平南路)"},{"poiid":"B2094654DA6DAAF8419F","title":"均瑶国际广场","lon":"121.44863","lat":"31.19802","category":"46","category_name":"楼宇","address":"徐汇区肇嘉浜路789号"},{"poiid":"B2094753D76FAAFA449C","title":"上海滩国泰旗舰店","lon":"121.466011","lat":"31.216125","category":"249","category_name":"购物服务","address":"淮海中路868号"},{"poiid":"B2094757D06FA3F84199","title":"三顾牛蛙馆(肇嘉浜路店)","lon":"121.44556","lat":"31.1966","category":"71","category_name":"四川菜","address":"徐汇区肇嘉浜路883号(宛平路口)"},{"poiid":"B2094757D06FA2FB469A","title":"恒悦轩(徐汇店)","lon":"121.44404","lat":"31.19737","category":"72","category_name":"广东菜","address":"徐汇区宛平路290号徐家汇公园内(近肇嘉浜路)"},{"poiid":"B2094654DA6DA6FC469A","title":"宛平宾馆","lon":"121.44502","lat":"31.19814","category":"214","category_name":"四星级宾馆","address":"徐汇区宛平路315号(近肇嘉浜路)"},{"poiid":"B2094757D468ABF94692","title":"小南国 均瑶店","lon":"121.448066","lat":"31.198374","category":"76","category_name":"上海菜","address":"徐汇区肇嘉浜路789号均瑶国际广场5楼(近东安路)"},{"poiid":"B2094757D06FA6F8439F","title":"复旦大学枫林校区第二教学楼","lon":"121.448604396","lat":"31.1959811913","category":"253","category_name":"校园生活","address":"上海市徐汇区东安路130号"},{"poiid":"B2094655D26EA7FC459F","title":"星巴克(均瑶店)","lon":"121.448641","lat":"31.198025","category":"260","category_name":"其他","address":"徐汇区肇嘉浜路789号均瑶国际广场1楼(近高安路)"},{"poiid":"B2094654DB6BA5FE4393","title":"圣爱大厦","lon":"121.444","lat":"31.1979","category":"46","category_name":"楼宇","address":"上海漕溪北路88号"},{"poiid":"B2094757D068ABFF4399","title":"肇嘉浜路","lon":"121.44627625","lat":"31.199099322","category":"260","category_name":"其他","address":"上海肇嘉浜路"},{"poiid":"B2094750D76EA1FE4199","title":"渝香情(肇嘉浜路)","lon":"121.447","lat":"31.1979","category":"71","category_name":"四川菜","address":"徐汇区肇嘉浜路825号(近宛平南路)"},{"poiid":"B2094654DA6DA0FE439B","title":"汇嘉大厦","lon":"121.446","lat":"31.1986","category":"46","category_name":"楼宇","address":"上海市闵行区莲花南路1500弄"},{"poiid":"B2094752D36DA5F9479D","title":"上海超级电影世界","lon":"121.44509","lat":"31.19884","category":"178","category_name":"电影院","address":"上海市徐汇区肇嘉浜路1111号美罗城五楼"},{"poiid":"B2094757D16DA0F54892","title":"徐汇营业厅","lon":"121.447819","lat":"31.197941","category":"150","category_name":"银行","address":"徐汇区肇嘉浜路807号五洲国际大厦102室"},{"poiid":"B2094757D068A3FA4598","title":"小白桦酒家","lon":"121.44454","lat":"31.19819","category":"76","category_name":"上海菜","address":"徐汇区宛平路297弄3号(近肇嘉浜路)"},{"poiid":"B2094757D068A7F4409D","title":"皇城根老北京涮羊肉(宛平路店)","lon":"121.44464","lat":"31.19842","category":"86","category_name":"火锅店","address":"徐汇区宛平路297弄1号后门(近肇嘉浜路)"},{"poiid":"B2094757D068A1F8459F","title":"豪记茶餐厅","lon":"121.449034","lat":"31.197891","category":"72","category_name":"广东菜","address":"徐汇区肇嘉浜路789号均瑶国际广场1楼(近高安路)"},{"poiid":"B2094654DA6DAAF9419A","title":"珊珊茶面馆 肇嘉浜路店","lon":"121.44794578047","lat":"31.19785511912","category":"68","category_name":"快餐厅","address":"徐汇区肇家浜路825号(近东安路)"},{"poiid":"B2094757D16EA4FC4492","title":"吴记麻辣火锅","lon":"121.44694458","lat":"31.198324807","category":"247","category_name":"餐饮美食","address":"上海天钥桥路"},{"poiid":"B2094654DA6DAAF94198","title":"尚秀商务楼","lon":"121.44696","lat":"31.19771","category":"46","category_name":"楼宇","address":"崇文区夕照寺大街"},{"poiid":"B2094757D06FA2F9409F","title":"生仕鱼林港(肇嘉浜路店)","lon":"121.44753","lat":"31.19755","category":"86","category_name":"火锅店","address":"徐汇区肇嘉浜路825号(近宛平南路)"},{"poiid":"B2094757D468A6FF4199","title":"欧集赏","lon":"121.445706054","lat":"31.197977793","category":"67","category_name":"甜品店","address":"徐汇区肇嘉浜路825号(近宛平南路)"},{"poiid":"B2094757D16BA2FB409B","title":"Carl'sJr. (美罗城)","lon":"121.44802808","lat":"31.196717505","category":"500","category_name":"未知分类","address":"上海肇嘉浜路1111号美罗城B1-33"},{"poiid":"B2094655D26BA2FC4999","title":"吴兴路","lon":"121.44664","lat":"31.19812","category":"38","category_name":"公交车站","address":""},{"poiid":"B2094757D06FA7F54298","title":"徐家匯花園","lon":"121.44533538","lat":"31.196586608","category":"252","category_name":"楼宇机构","address":"上海宛平南路255弄"},{"poiid":"B2094757D068ABF4459A","title":"上海市财政局","lon":"121.44554908","lat":"31.197826784","category":"260","category_name":"其他","address":"上海肇嘉浜路800号"},{"poiid":"B2094750D36BA4FB479D","title":"蜻蜓FM","lon":"121.4455","lat":"31.19828","category":"634","category_name":"IT类公司","address":"上海市浦东新区东方路1215号2层北单元"},{"poiid":"B2094655D36CA6F4459F","title":"东安路青松城","lon":"121.4484","lat":"31.1985","category":"38","category_name":"公交车站","address":""},{"poiid":"B2094757D168AAF94092","title":"好乐迪","lon":"121.44774758","lat":"31.196602773","category":"500","category_name":"未知分类","address":"上海市徐汇区宛平路"},{"poiid":"B2094655D26EA0FA4098","title":"香港浅水湾茶餐厅","lon":"121.44696","lat":"31.19771","category":"66","category_name":"茶艺馆","address":"徐汇区肇嘉浜路825号"},{"poiid":"B2094757D16CA7F84099","title":"上海市律师协会","lon":"121.448656","lat":"31.198299","category":"46","category_name":"楼宇","address":"肇嘉浜路789号均瑶国际广场33,35层"},{"poiid":"B2094654DA6DAAF84793","title":"尚秀商务楼2号楼","lon":"121.44739","lat":"31.19764","category":"46","category_name":"楼宇","address":"肇嘉浜路825号"},{"poiid":"B2094757D568AAFF4698","title":"上海阿姨盒饭摊","lon":"121.4471747","lat":"31.19822083","category":"68","category_name":"快餐厅","address":"徐汇区肇嘉浜路740号(近吴兴路)"},{"poiid":"B2094757D065A5F54092","title":"港匯普京","lon":"121.44799058","lat":"31.196674774","category":"500","category_name":"未知分类","address":"上海市徐汇区宛平路"},{"poiid":"B2094655D26AA3FB4499","title":"顶峰美容美发肇嘉浜路店","lon":"121.44739","lat":"31.19763","category":"247","category_name":"餐饮美食","address":"徐汇区肇嘉浜路825号(近宛平南路)"},{"poiid":"B2094757D06FA2FD439A","title":"7-ELEVEN(均瑶店)","lon":"121.448318572","lat":"31.1982087356","category":"117","category_name":"便民商店/便利店","address":"徐汇区肇嘉浜路789号均瑶国际广场内(近吴兴路)"},{"poiid":"B2094655D264A1FC4193","title":"吉发花园","lon":"121.446","lat":"31.1978","category":"47","category_name":"住宅区","address":"上海市徐汇区漕溪北路45号"},{"poiid":"B2094654DA6DAAF9419D","title":"中国光大银行徐汇支行","lon":"121.44647","lat":"31.19748","category":"150","category_name":"银行","address":"徐汇区肇嘉浜路831号(吴兴路肇嘉浜路)"},{"poiid":"B2094757D16EA7FE4093","title":"李奥贝纳广告有限公司","lon":"121.44715118","lat":"31.196660995","category":"46","category_name":"楼宇","address":"上海淮海西路570号F栋2楼"},{"poiid":"B2094655D36DA7FE439C","title":"肇嘉浜路吴兴路","lon":"121.44651","lat":"31.19822","category":"38","category_name":"公交车站","address":""},{"poiid":"B2094654DA6DAAF84899","title":"上海金山廊下经济开发区","lon":"121.44739","lat":"31.19763","category":"45","category_name":"产业园区","address":"肇嘉浜路825号尚秀商务楼2号楼3层-B2"},{"poiid":"B2094757D069A4FF439D","title":"萨利亚","lon":"121.44782058","lat":"31.196573772","category":"249","category_name":"购物服务","address":"上海市徐汇区天钥桥路"},{"poiid":"B2094757D064AAFE479A","title":"广发银行(徐汇支行)","lon":"121.44681","lat":"31.19799","category":"500","category_name":"未知分类","address":"徐汇区肇嘉浜路746号(近吴兴路)"},{"poiid":"B2094654DA6DA6FC459F","title":"上海市国家税务局","lon":"121.44506","lat":"31.19784","category":"250","category_name":"公园户外","address":"肇嘉浜路800"},{"poiid":"B2094757D66FA0FB4299","title":"争鲜回转寿司","lon":"121.447983586","lat":"31.1967087756","category":"247","category_name":"餐饮美食","address":"上海市徐汇区宛平路"},{"poiid":"B2094757D06AA6FB429F","title":"福荣祥茶餐厅","lon":"121.44480258","lat":"31.19646877","category":"72","category_name":"广东菜","address":"徐汇区宛平南路3号"},{"poiid":"B2094655D26FA5FD4598","title":"橡胶小区","lon":"121.4456","lat":"31.196529","category":"47","category_name":"住宅区","address":"宛平南路19弄1-6号"},{"poiid":"B2094655D264AAF5499C","title":"橡胶大楼","lon":"121.44593","lat":"31.196997","category":"47","category_name":"住宅区","address":"宛平南路19弄2号"},{"poiid":"B2094757D06EAAFA499A","title":"上海歌城(徐家汇店)","lon":"121.44864654","lat":"31.19801712","category":"170","category_name":"KTV","address":"徐汇区肇嘉浜路789号均瑶国际广场2-3楼(近高安路)"},{"poiid":"B2094654DB69ABF9469A","title":"三人行骨头王火锅(徐汇总店)","lon":"121.44548","lat":"31.19707","category":"86","category_name":"火锅店","address":"徐汇区肇嘉浜路879号(近宛平南路)"},{"poiid":"B2094654DA6DAAF8419F","title":"均瑶国际广场","lon":"121.44863","lat":"31.19802","category":"46","category_name":"楼宇","address":"徐汇区肇嘉浜路789号"},{"poiid":"B2094753D76FAAFA449C","title":"上海滩国泰旗舰店","lon":"121.466011","lat":"31.216125","category":"249","category_name":"购物服务","address":"淮海中路868号"},{"poiid":"B2094757D06FA3F84199","title":"三顾牛蛙馆(肇嘉浜路店)","lon":"121.44556","lat":"31.1966","category":"71","category_name":"四川菜","address":"徐汇区肇嘉浜路883号(宛平路口)"},{"poiid":"B2094757D06FA2FB469A","title":"恒悦轩(徐汇店)","lon":"121.44404","lat":"31.19737","category":"72","category_name":"广东菜","address":"徐汇区宛平路290号徐家汇公园内(近肇嘉浜路)"},{"poiid":"B2094654DA6DA6FC469A","title":"宛平宾馆","lon":"121.44502","lat":"31.19814","category":"214","category_name":"四星级宾馆","address":"徐汇区宛平路315号(近肇嘉浜路)"},{"poiid":"B2094757D468ABF94692","title":"小南国 均瑶店","lon":"121.448066","lat":"31.198374","category":"76","category_name":"上海菜","address":"徐汇区肇嘉浜路789号均瑶国际广场5楼(近东安路)"},{"poiid":"B2094757D06FA6F8439F","title":"复旦大学枫林校区第二教学楼","lon":"121.448604396","lat":"31.1959811913","category":"253","category_name":"校园生活","address":"上海市徐汇区东安路130号"},{"poiid":"B2094655D26EA7FC459F","title":"星巴克(均瑶店)","lon":"121.448641","lat":"31.198025","category":"260","category_name":"其他","address":"徐汇区肇嘉浜路789号均瑶国际广场1楼(近高安路)"},{"poiid":"B2094654DB6BA5FE4393","title":"圣爱大厦","lon":"121.444","lat":"31.1979","category":"46","category_name":"楼宇","address":"上海漕溪北路88号"},{"poiid":"B2094757D068ABFF4399","title":"肇嘉浜路","lon":"121.44627625","lat":"31.199099322","category":"260","category_name":"其他","address":"上海肇嘉浜路"},{"poiid":"B2094750D76EA1FE4199","title":"渝香情(肇嘉浜路)","lon":"121.447","lat":"31.1979","category":"71","category_name":"四川菜","address":"徐汇区肇嘉浜路825号(近宛平南路)"},{"poiid":"B2094654DA6DA0FE439B","title":"汇嘉大厦","lon":"121.446","lat":"31.1986","category":"46","category_name":"楼宇","address":"上海市闵行区莲花南路1500弄"},{"poiid":"B2094752D36DA5F9479D","title":"上海超级电影世界","lon":"121.44509","lat":"31.19884","category":"178","category_name":"电影院","address":"上海市徐汇区肇嘉浜路1111号美罗城五楼"},{"poiid":"B2094757D16DA0F54892","title":"徐汇营业厅","lon":"121.447819","lat":"31.197941","category":"150","category_name":"银行","address":"徐汇区肇嘉浜路807号五洲国际大厦102室"},{"poiid":"B2094757D068A3FA4598","title":"小白桦酒家","lon":"121.44454","lat":"31.19819","category":"76","category_name":"上海菜","address":"徐汇区宛平路297弄3号(近肇嘉浜路)"},{"poiid":"B2094757D068A7F4409D","title":"皇城根老北京涮羊肉(宛平路店)","lon":"121.44464","lat":"31.19842","category":"86","category_name":"火锅店","address":"徐汇区宛平路297弄1号后门(近肇嘉浜路)"},{"poiid":"B2094757D068A1F8459F","title":"豪记茶餐厅","lon":"121.449034","lat":"31.197891","category":"72","category_name":"广东菜","address":"徐汇区肇嘉浜路789号均瑶国际广场1楼(近高安路)"},{"poiid":"B2094654DA6DAAF9419A","title":"珊珊茶面馆 肇嘉浜路店","lon":"121.44794578047","lat":"31.19785511912","category":"68","category_name":"快餐厅","address":"徐汇区肇家浜路825号(近东安路)"},{"poiid":"B2094757D16EA4FC4492","title":"吴记麻辣火锅","lon":"121.44694458","lat":"31.198324807","category":"247","category_name":"餐饮美食","address":"上海天钥桥路"},{"poiid":"B2094654DA6DAAF94198","title":"尚秀商务楼","lon":"121.44696","lat":"31.19771","category":"46","category_name":"楼宇","address":"崇文区夕照寺大街"},{"poiid":"B2094757D06FA2F9409F","title":"生仕鱼林港(肇嘉浜路店)","lon":"121.44753","lat":"31.19755","category":"86","category_name":"火锅店","address":"徐汇区肇嘉浜路825号(近宛平南路)"},{"poiid":"B2094757D468A6FF4199","title":"欧集赏","lon":"121.445706054","lat":"31.197977793","category":"67","category_name":"甜品店","address":"徐汇区肇嘉浜路825号(近宛平南路)"},{"poiid":"B2094757D16BA2FB409B","title":"Carl'sJr. (美罗城)","lon":"121.44802808","lat":"31.196717505","category":"500","category_name":"未知分类","address":"上海肇嘉浜路1111号美罗城B1-33"},{"poiid":"B2094655D26BA2FC4999","title":"吴兴路","lon":"121.44664","lat":"31.19812","category":"38","category_name":"公交车站","address":""},{"poiid":"B2094757D06FA7F54298","title":"徐家匯花園","lon":"121.44533538","lat":"31.196586608","category":"252","category_name":"楼宇机构","address":"上海宛平南路255弄"},{"poiid":"B2094757D068ABF4459A","title":"上海市财政局","lon":"121.44554908","lat":"31.197826784","category":"260","category_name":"其他","address":"上海肇嘉浜路800号"},{"poiid":"B2094750D36BA4FB479D","title":"蜻蜓FM","lon":"121.4455","lat":"31.19828","category":"634","category_name":"IT类公司","address":"上海市浦东新区东方路1215号2层北单元"},{"poiid":"B2094655D36CA6F4459F","title":"东安路青松城","lon":"121.4484","lat":"31.1985","category":"38","category_name":"公交车站","address":""},{"poiid":"B2094757D168AAF94092","title":"好乐迪","lon":"121.44774758","lat":"31.196602773","category":"500","category_name":"未知分类","address":"上海市徐汇区宛平路"},{"poiid":"B2094655D26EA0FA4098","title":"香港浅水湾茶餐厅","lon":"121.44696","lat":"31.19771","category":"66","category_name":"茶艺馆","address":"徐汇区肇嘉浜路825号"},{"poiid":"B2094757D16CA7F84099","title":"上海市律师协会","lon":"121.448656","lat":"31.198299","category":"46","category_name":"楼宇","address":"肇嘉浜路789号均瑶国际广场33,35层"},{"poiid":"B2094654DA6DAAF84793","title":"尚秀商务楼2号楼","lon":"121.44739","lat":"31.19764","category":"46","category_name":"楼宇","address":"肇嘉浜路825号"},{"poiid":"B2094757D568AAFF4698","title":"上海阿姨盒饭摊","lon":"121.4471747","lat":"31.19822083","category":"68","category_name":"快餐厅","address":"徐汇区肇嘉浜路740号(近吴兴路)"},{"poiid":"B2094757D065A5F54092","title":"港匯普京","lon":"121.44799058","lat":"31.196674774","category":"500","category_name":"未知分类","address":"上海市徐汇区宛平路"},{"poiid":"B2094655D26AA3FB4499","title":"顶峰美容美发肇嘉浜路店","lon":"121.44739","lat":"31.19763","category":"247","category_name":"餐饮美食","address":"徐汇区肇嘉浜路825号(近宛平南路)"},{"poiid":"B2094757D06FA2FD439A","title":"7-ELEVEN(均瑶店)","lon":"121.448318572","lat":"31.1982087356","category":"117","category_name":"便民商店/便利店","address":"徐汇区肇嘉浜路789号均瑶国际广场内(近吴兴路)"},{"poiid":"B2094655D264A1FC4193","title":"吉发花园","lon":"121.446","lat":"31.1978","category":"47","category_name":"住宅区","address":"上海市徐汇区漕溪北路45号"},{"poiid":"B2094654DA6DAAF9419D","title":"中国光大银行徐汇支行","lon":"121.44647","lat":"31.19748","category":"150","category_name":"银行","address":"徐汇区肇嘉浜路831号(吴兴路肇嘉浜路)"},{"poiid":"B2094757D16EA7FE4093","title":"李奥贝纳广告有限公司","lon":"121.44715118","lat":"31.196660995","category":"46","category_name":"楼宇","address":"上海淮海西路570号F栋2楼"},{"poiid":"B2094655D36DA7FE439C","title":"肇嘉浜路吴兴路","lon":"121.44651","lat":"31.19822","category":"38","category_name":"公交车站","address":""},{"poiid":"B2094654DA6DAAF84899","title":"上海金山廊下经济开发区","lon":"121.44739","lat":"31.19763","category":"45","category_name":"产业园区","address":"肇嘉浜路825号尚秀商务楼2号楼3层-B2"},{"poiid":"B2094757D069A4FF439D","title":"萨利亚","lon":"121.44782058","lat":"31.196573772","category":"249","category_name":"购物服务","address":"上海市徐汇区天钥桥路"},{"poiid":"B2094757D064AAFE479A","title":"广发银行(徐汇支行)","lon":"121.44681","lat":"31.19799","category":"500","category_name":"未知分类","address":"徐汇区肇嘉浜路746号(近吴兴路)"},{"poiid":"B2094654DA6DA6FC459F","title":"上海市国家税务局","lon":"121.44506","lat":"31.19784","category":"250","category_name":"公园户外","address":"肇嘉浜路800"},{"poiid":"B2094757D66FA0FB4299","title":"争鲜回转寿司","lon":"121.447983586","lat":"31.1967087756","category":"247","category_name":"餐饮美食","address":"上海市徐汇区宛平路"},{"poiid":"B2094757D06AA6FB429F","title":"福荣祥茶餐厅","lon":"121.44480258","lat":"31.19646877","category":"72","category_name":"广东菜","address":"徐汇区宛平南路3号"},{"poiid":"B2094655D26FA5FD4598","title":"橡胶小区","lon":"121.4456","lat":"31.196529","category":"47","category_name":"住宅区","address":"宛平南路19弄1-6号"},{"poiid":"B2094655D264AAF5499C","title":"橡胶大楼","lon":"121.44593","lat":"31.196997","category":"47","category_name":"住宅区","address":"宛平南路19弄2号"},{"poiid":"B2094757D06EAAFA499A","title":"上海歌城(徐家汇店)","lon":"121.44864654","lat":"31.19801712","category":"170","category_name":"KTV","address":"徐汇区肇嘉浜路789号均瑶国际广场2-3楼(近高安路)"},{"poiid":"B2094654DB69ABF9469A","title":"三人行骨头王火锅(徐汇总店)","lon":"121.44548","lat":"31.19707","category":"86","category_name":"火锅店","address":"徐汇区肇嘉浜路879号(近宛平南路)"},{"poiid":"B2094654DA6DAAF8419F","title":"均瑶国际广场","lon":"121.44863","lat":"31.19802","category":"46","category_name":"楼宇","address":"徐汇区肇嘉浜路789号"},{"poiid":"B2094753D76FAAFA449C","title":"上海滩国泰旗舰店","lon":"121.466011","lat":"31.216125","category":"249","category_name":"购物服务","address":"淮海中路868号"},{"poiid":"B2094757D06FA3F84199","title":"三顾牛蛙馆(肇嘉浜路店)","lon":"121.44556","lat":"31.1966","category":"71","category_name":"四川菜","address":"徐汇区肇嘉浜路883号(宛平路口)"},{"poiid":"B2094757D06FA2FB469A","title":"恒悦轩(徐汇店)","lon":"121.44404","lat":"31.19737","category":"72","category_name":"广东菜","address":"徐汇区宛平路290号徐家汇公园内(近肇嘉浜路)"},{"poiid":"B2094654DA6DA6FC469A","title":"宛平宾馆","lon":"121.44502","lat":"31.19814","category":"214","category_name":"四星级宾馆","address":"徐汇区宛平路315号(近肇嘉浜路)"},{"poiid":"B2094757D468ABF94692","title":"小南国 均瑶店","lon":"121.448066","lat":"31.198374","category":"76","category_name":"上海菜","address":"徐汇区肇嘉浜路789号均瑶国际广场5楼(近东安路)"},{"poiid":"B2094757D06FA6F8439F","title":"复旦大学枫林校区第二教学楼","lon":"121.448604396","lat":"31.1959811913","category":"253","category_name":"校园生活","address":"上海市徐汇区东安路130号"},{"poiid":"B2094655D26EA7FC459F","title":"星巴克(均瑶店)","lon":"121.448641","lat":"31.198025","category":"260","category_name":"其他","address":"徐汇区肇嘉浜路789号均瑶国际广场1楼(近高安路)"},{"poiid":"B2094654DB6BA5FE4393","title":"圣爱大厦","lon":"121.444","lat":"31.1979","category":"46","category_name":"楼宇","address":"上海漕溪北路88号"},{"poiid":"B2094757D068ABFF4399","title":"肇嘉浜路","lon":"121.44627625","lat":"31.199099322","category":"260","category_name":"其他","address":"上海肇嘉浜路"},{"poiid":"B2094750D76EA1FE4199","title":"渝香情(肇嘉浜路)","lon":"121.447","lat":"31.1979","category":"71","category_name":"四川菜","address":"徐汇区肇嘉浜路825号(近宛平南路)"},{"poiid":"B2094654DA6DA0FE439B","title":"汇嘉大厦","lon":"121.446","lat":"31.1986","category":"46","category_name":"楼宇","address":"上海市闵行区莲花南路1500弄"},{"poiid":"B2094752D36DA5F9479D","title":"上海超级电影世界","lon":"121.44509","lat":"31.19884","category":"178","category_name":"电影院","address":"上海市徐汇区肇嘉浜路1111号美罗城五楼"},{"poiid":"B2094757D16DA0F54892","title":"徐汇营业厅","lon":"121.447819","lat":"31.197941","category":"150","category_name":"银行","address":"徐汇区肇嘉浜路807号五洲国际大厦102室"},{"poiid":"B2094757D068A3FA4598","title":"小白桦酒家","lon":"121.44454","lat":"31.19819","category":"76","category_name":"上海菜","address":"徐汇区宛平路297弄3号(近肇嘉浜路)"},{"poiid":"B2094757D068A7F4409D","title":"皇城根老北京涮羊肉(宛平路店)","lon":"121.44464","lat":"31.19842","category":"86","category_name":"火锅店","address":"徐汇区宛平路297弄1号后门(近肇嘉浜路)"},{"poiid":"B2094757D068A1F8459F","title":"豪记茶餐厅","lon":"121.449034","lat":"31.197891","category":"72","category_name":"广东菜","address":"徐汇区肇嘉浜路789号均瑶国际广场1楼(近高安路)"},{"poiid":"B2094654DA6DAAF9419A","title":"珊珊茶面馆 肇嘉浜路店","lon":"121.44794578047","lat":"31.19785511912","category":"68","category_name":"快餐厅","address":"徐汇区肇家浜路825号(近东安路)"},{"poiid":"B2094757D16EA4FC4492","title":"吴记麻辣火锅","lon":"121.44694458","lat":"31.198324807","category":"247","category_name":"餐饮美食","address":"上海天钥桥路"},{"poiid":"B2094654DA6DAAF94198","title":"尚秀商务楼","lon":"121.44696","lat":"31.19771","category":"46","category_name":"楼宇","address":"崇文区夕照寺大街"},{"poiid":"B2094757D06FA2F9409F","title":"生仕鱼林港(肇嘉浜路店)","lon":"121.44753","lat":"31.19755","category":"86","category_name":"火锅店","address":"徐汇区肇嘉浜路825号(近宛平南路)"},{"poiid":"B2094757D468A6FF4199","title":"欧集赏","lon":"121.445706054","lat":"31.197977793","category":"67","category_name":"甜品店","address":"徐汇区肇嘉浜路825号(近宛平南路)"},{"poiid":"B2094757D16BA2FB409B","title":"Carl'sJr. (美罗城)","lon":"121.44802808","lat":"31.196717505","category":"500","category_name":"未知分类","address":"上海肇嘉浜路1111号美罗城B1-33"},{"poiid":"B2094655D26BA2FC4999","title":"吴兴路","lon":"121.44664","lat":"31.19812","category":"38","category_name":"公交车站","address":""},{"poiid":"B2094757D06FA7F54298","title":"徐家匯花園","lon":"121.44533538","lat":"31.196586608","category":"252","category_name":"楼宇机构","address":"上海宛平南路255弄"},{"poiid":"B2094757D068ABF4459A","title":"上海市财政局","lon":"121.44554908","lat":"31.197826784","category":"260","category_name":"其他","address":"上海肇嘉浜路800号"},{"poiid":"B2094750D36BA4FB479D","title":"蜻蜓FM","lon":"121.4455","lat":"31.19828","category":"634","category_name":"IT类公司","address":"上海市浦东新区东方路1215号2层北单元"},{"poiid":"B2094655D36CA6F4459F","title":"东安路青松城","lon":"121.4484","lat":"31.1985","category":"38","category_name":"公交车站","address":""},{"poiid":"B2094757D168AAF94092","title":"好乐迪","lon":"121.44774758","lat":"31.196602773","category":"500","category_name":"未知分类","address":"上海市徐汇区宛平路"},{"poiid":"B2094655D26EA0FA4098","title":"香港浅水湾茶餐厅","lon":"121.44696","lat":"31.19771","category":"66","category_name":"茶艺馆","address":"徐汇区肇嘉浜路825号"},{"poiid":"B2094757D16CA7F84099","title":"上海市律师协会","lon":"121.448656","lat":"31.198299","category":"46","category_name":"楼宇","address":"肇嘉浜路789号均瑶国际广场33,35层"},{"poiid":"B2094654DA6DAAF84793","title":"尚秀商务楼2号楼","lon":"121.44739","lat":"31.19764","category":"46","category_name":"楼宇","address":"肇嘉浜路825号"},{"poiid":"B2094757D568AAFF4698","title":"上海阿姨盒饭摊","lon":"121.4471747","lat":"31.19822083","category":"68","category_name":"快餐厅","address":"徐汇区肇嘉浜路740号(近吴兴路)"},{"poiid":"B2094757D065A5F54092","title":"港匯普京","lon":"121.44799058","lat":"31.196674774","category":"500","category_name":"未知分类","address":"上海市徐汇区宛平路"},{"poiid":"B2094655D26AA3FB4499","title":"顶峰美容美发肇嘉浜路店","lon":"121.44739","lat":"31.19763","category":"247","category_name":"餐饮美食","address":"徐汇区肇嘉浜路825号(近宛平南路)"},{"poiid":"B2094757D06FA2FD439A","title":"7-ELEVEN(均瑶店)","lon":"121.448318572","lat":"31.1982087356","category":"117","category_name":"便民商店/便利店","address":"徐汇区肇嘉浜路789号均瑶国际广场内(近吴兴路)"},{"poiid":"B2094655D264A1FC4193","title":"吉发花园","lon":"121.446","lat":"31.1978","category":"47","category_name":"住宅区","address":"上海市徐汇区漕溪北路45号"},{"poiid":"B2094654DA6DAAF9419D","title":"中国光大银行徐汇支行","lon":"121.44647","lat":"31.19748","category":"150","category_name":"银行","address":"徐汇区肇嘉浜路831号(吴兴路肇嘉浜路)"},{"poiid":"B2094757D16EA7FE4093","title":"李奥贝纳广告有限公司","lon":"121.44715118","lat":"31.196660995","category":"46","category_name":"楼宇","address":"上海淮海西路570号F栋2楼"},{"poiid":"B2094655D36DA7FE439C","title":"肇嘉浜路吴兴路","lon":"121.44651","lat":"31.19822","category":"38","category_name":"公交车站","address":""},{"poiid":"B2094654DA6DAAF84899","title":"上海金山廊下经济开发区","lon":"121.44739","lat":"31.19763","category":"45","category_name":"产业园区","address":"肇嘉浜路825号尚秀商务楼2号楼3层-B2"},{"poiid":"B2094757D069A4FF439D","title":"萨利亚","lon":"121.44782058","lat":"31.196573772","category":"249","category_name":"购物服务","address":"上海市徐汇区天钥桥路"},{"poiid":"B2094757D064AAFE479A","title":"广发银行(徐汇支行)","lon":"121.44681","lat":"31.19799","category":"500","category_name":"未知分类","address":"徐汇区肇嘉浜路746号(近吴兴路)"},{"poiid":"B2094654DA6DA6FC459F","title":"上海市国家税务局","lon":"121.44506","lat":"31.19784","category":"250","category_name":"公园户外","address":"肇嘉浜路800"},{"poiid":"B2094757D66FA0FB4299","title":"争鲜回转寿司","lon":"121.447983586","lat":"31.1967087756","category":"247","category_name":"餐饮美食","address":"上海市徐汇区宛平路"},{"poiid":"B2094757D06AA6FB429F","title":"福荣祥茶餐厅","lon":"121.44480258","lat":"31.19646877","category":"72","category_name":"广东菜","address":"徐汇区宛平南路3号"},{"poiid":"B2094655D26FA5FD4598","title":"橡胶小区","lon":"121.4456","lat":"31.196529","category":"47","category_name":"住宅区","address":"宛平南路19弄1-6号"},{"poiid":"B2094655D264AAF5499C","title":"橡胶大楼","lon":"121.44593","lat":"31.196997","category":"47","category_name":"住宅区","address":"宛平南路19弄2号"},{"poiid":"B2094757D06EAAFA499A","title":"上海歌城(徐家汇店)","lon":"121.44864654","lat":"31.19801712","category":"170","category_name":"KTV","address":"徐汇区肇嘉浜路789号均瑶国际广场2-3楼(近高安路)"},{"poiid":"B2094654DB69ABF9469A","title":"三人行骨头王火锅(徐汇总店)","lon":"121.44548","lat":"31.19707","category":"86","category_name":"火锅店","address":"徐汇区肇嘉浜路879号(近宛平南路)"},{"poiid":"B2094654DA6DAAF8419F","title":"均瑶国际广场","lon":"121.44863","lat":"31.19802","category":"46","category_name":"楼宇","address":"徐汇区肇嘉浜路789号"},{"poiid":"B2094753D76FAAFA449C","title":"上海滩国泰旗舰店","lon":"121.466011","lat":"31.216125","category":"249","category_name":"购物服务","address":"淮海中路868号"},{"poiid":"B2094757D06FA3F84199","title":"三顾牛蛙馆(肇嘉浜路店)","lon":"121.44556","lat":"31.1966","category":"71","category_name":"四川菜","address":"徐汇区肇嘉浜路883号(宛平路口)"},{"poiid":"B2094757D06FA2FB469A","title":"恒悦轩(徐汇店)","lon":"121.44404","lat":"31.19737","category":"72","category_name":"广东菜","address":"徐汇区宛平路290号徐家汇公园内(近肇嘉浜路)"},{"poiid":"B2094654DA6DA6FC469A","title":"宛平宾馆","lon":"121.44502","lat":"31.19814","category":"214","category_name":"四星级宾馆","address":"徐汇区宛平路315号(近肇嘉浜路)"},{"poiid":"B2094757D468ABF94692","title":"小南国 均瑶店","lon":"121.448066","lat":"31.198374","category":"76","category_name":"上海菜","address":"徐汇区肇嘉浜路789号均瑶国际广场5楼(近东安路)"},{"poiid":"B2094757D06FA6F8439F","title":"复旦大学枫林校区第二教学楼","lon":"121.448604396","lat":"31.1959811913","category":"253","category_name":"校园生活","address":"上海市徐汇区东安路130号"},{"poiid":"B2094655D26EA7FC459F","title":"星巴克(均瑶店)","lon":"121.448641","lat":"31.198025","category":"260","category_name":"其他","address":"徐汇区肇嘉浜路789号均瑶国际广场1楼(近高安路)"},{"poiid":"B2094654DB6BA5FE4393","title":"圣爱大厦","lon":"121.444","lat":"31.1979","category":"46","category_name":"楼宇","address":"上海漕溪北路88号"},{"poiid":"B2094757D068ABFF4399","title":"肇嘉浜路","lon":"121.44627625","lat":"31.199099322","category":"260","category_name":"其他","address":"上海肇嘉浜路"},{"poiid":"B2094750D76EA1FE4199","title":"渝香情(肇嘉浜路)","lon":"121.447","lat":"31.1979","category":"71","category_name":"四川菜","address":"徐汇区肇嘉浜路825号(近宛平南路)"},{"poiid":"B2094654DA6DA0FE439B","title":"汇嘉大厦","lon":"121.446","lat":"31.1986","category":"46","category_name":"楼宇","address":"上海市闵行区莲花南路1500弄"},{"poiid":"B2094752D36DA5F9479D","title":"上海超级电影世界","lon":"121.44509","lat":"31.19884","category":"178","category_name":"电影院","address":"上海市徐汇区肇嘉浜路1111号美罗城五楼"},{"poiid":"B2094757D16DA0F54892","title":"徐汇营业厅","lon":"121.447819","lat":"31.197941","category":"150","category_name":"银行","address":"徐汇区肇嘉浜路807号五洲国际大厦102室"},{"poiid":"B2094757D068A3FA4598","title":"小白桦酒家","lon":"121.44454","lat":"31.19819","category":"76","category_name":"上海菜","address":"徐汇区宛平路297弄3号(近肇嘉浜路)"},{"poiid":"B2094757D068A7F4409D","title":"皇城根老北京涮羊肉(宛平路店)","lon":"121.44464","lat":"31.19842","category":"86","category_name":"火锅店","address":"徐汇区宛平路297弄1号后门(近肇嘉浜路)"},{"poiid":"B2094757D068A1F8459F","title":"豪记茶餐厅","lon":"121.449034","lat":"31.197891","category":"72","category_name":"广东菜","address":"徐汇区肇嘉浜路789号均瑶国际广场1楼(近高安路)"},{"poiid":"B2094654DA6DAAF9419A","title":"珊珊茶面馆 肇嘉浜路店","lon":"121.44794578047","lat":"31.19785511912","category":"68","category_name":"快餐厅","address":"徐汇区肇家浜路825号(近东安路)"},{"poiid":"B2094757D16EA4FC4492","title":"吴记麻辣火锅","lon":"121.44694458","lat":"31.198324807","category":"247","category_name":"餐饮美食","address":"上海天钥桥路"},{"poiid":"B2094654DA6DAAF94198","title":"尚秀商务楼","lon":"121.44696","lat":"31.19771","category":"46","category_name":"楼宇","address":"崇文区夕照寺大街"},{"poiid":"B2094757D06FA2F9409F","title":"生仕鱼林港(肇嘉浜路店)","lon":"121.44753","lat":"31.19755","category":"86","category_name":"火锅店","address":"徐汇区肇嘉浜路825号(近宛平南路)"},{"poiid":"B2094757D468A6FF4199","title":"欧集赏","lon":"121.445706054","lat":"31.197977793","category":"67","category_name":"甜品店","address":"徐汇区肇嘉浜路825号(近宛平南路)"},{"poiid":"B2094757D16BA2FB409B","title":"Carl'sJr. (美罗城)","lon":"121.44802808","lat":"31.196717505","category":"500","category_name":"未知分类","address":"上海肇嘉浜路1111号美罗城B1-33"},{"poiid":"B2094655D26BA2FC4999","title":"吴兴路","lon":"121.44664","lat":"31.19812","category":"38","category_name":"公交车站","address":""},{"poiid":"B2094757D06FA7F54298","title":"徐家匯花園","lon":"121.44533538","lat":"31.196586608","category":"252","category_name":"楼宇机构","address":"上海宛平南路255弄"},{"poiid":"B2094757D068ABF4459A","title":"上海市财政局","lon":"121.44554908","lat":"31.197826784","category":"260","category_name":"其他","address":"上海肇嘉浜路800号"},{"poiid":"B2094750D36BA4FB479D","title":"蜻蜓FM","lon":"121.4455","lat":"31.19828","category":"634","category_name":"IT类公司","address":"上海市浦东新区东方路1215号2层北单元"},{"poiid":"B2094655D36CA6F4459F","title":"东安路青松城","lon":"121.4484","lat":"31.1985","category":"38","category_name":"公交车站","address":""},{"poiid":"B2094757D168AAF94092","title":"好乐迪","lon":"121.44774758","lat":"31.196602773","category":"500","category_name":"未知分类","address":"上海市徐汇区宛平路"},{"poiid":"B2094655D26EA0FA4098","title":"香港浅水湾茶餐厅","lon":"121.44696","lat":"31.19771","category":"66","category_name":"茶艺馆","address":"徐汇区肇嘉浜路825号"},{"poiid":"B2094757D16CA7F84099","title":"上海市律师协会","lon":"121.448656","lat":"31.198299","category":"46","category_name":"楼宇","address":"肇嘉浜路789号均瑶国际广场33,35层"},{"poiid":"B2094654DA6DAAF84793","title":"尚秀商务楼2号楼","lon":"121.44739","lat":"31.19764","category":"46","category_name":"楼宇","address":"肇嘉浜路825号"},{"poiid":"B2094757D568AAFF4698","title":"上海阿姨盒饭摊","lon":"121.4471747","lat":"31.19822083","category":"68","category_name":"快餐厅","address":"徐汇区肇嘉浜路740号(近吴兴路)"},{"poiid":"B2094757D065A5F54092","title":"港匯普京","lon":"121.44799058","lat":"31.196674774","category":"500","category_name":"未知分类","address":"上海市徐汇区宛平路"},{"poiid":"B2094655D26AA3FB4499","title":"顶峰美容美发肇嘉浜路店","lon":"121.44739","lat":"31.19763","category":"247","category_name":"餐饮美食","address":"徐汇区肇嘉浜路825号(近宛平南路)"},{"poiid":"B2094757D06FA2FD439A","title":"7-ELEVEN(均瑶店)","lon":"121.448318572","lat":"31.1982087356","category":"117","category_name":"便民商店/便利店","address":"徐汇区肇嘉浜路789号均瑶国际广场内(近吴兴路)"},{"poiid":"B2094655D264A1FC4193","title":"吉发花园","lon":"121.446","lat":"31.1978","category":"47","category_name":"住宅区","address":"上海市徐汇区漕溪北路45号"},{"poiid":"B2094654DA6DAAF9419D","title":"中国光大银行徐汇支行","lon":"121.44647","lat":"31.19748","category":"150","category_name":"银行","address":"徐汇区肇嘉浜路831号(吴兴路肇嘉浜路)"},{"poiid":"B2094757D16EA7FE4093","title":"李奥贝纳广告有限公司","lon":"121.44715118","lat":"31.196660995","category":"46","category_name":"楼宇","address":"上海淮海西路570号F栋2楼"},{"poiid":"B2094655D36DA7FE439C","title":"肇嘉浜路吴兴路","lon":"121.44651","lat":"31.19822","category":"38","category_name":"公交车站","address":""},{"poiid":"B2094654DA6DAAF84899","title":"上海金山廊下经济开发区","lon":"121.44739","lat":"31.19763","category":"45","category_name":"产业园区","address":"肇嘉浜路825号尚秀商务楼2号楼3层-B2"},{"poiid":"B2094757D069A4FF439D","title":"萨利亚","lon":"121.44782058","lat":"31.196573772","category":"249","category_name":"购物服务","address":"上海市徐汇区天钥桥路"},{"poiid":"B2094757D064AAFE479A","title":"广发银行(徐汇支行)","lon":"121.44681","lat":"31.19799","category":"500","category_name":"未知分类","address":"徐汇区肇嘉浜路746号(近吴兴路)"},{"poiid":"B2094654DA6DA6FC459F","title":"上海市国家税务局","lon":"121.44506","lat":"31.19784","category":"250","category_name":"公园户外","address":"肇嘉浜路800"},{"poiid":"B2094757D66FA0FB4299","title":"争鲜回转寿司","lon":"121.447983586","lat":"31.1967087756","category":"247","category_name":"餐饮美食","address":"上海市徐汇区宛平路"},{"poiid":"B2094757D06AA6FB429F","title":"福荣祥茶餐厅","lon":"121.44480258","lat":"31.19646877","category":"72","category_name":"广东菜","address":"徐汇区宛平南路3号"},{"poiid":"B2094655D26FA5FD4598","title":"橡胶小区","lon":"121.4456","lat":"31.196529","category":"47","category_name":"住宅区","address":"宛平南路19弄1-6号"},{"poiid":"B2094655D264AAF5499C","title":"橡胶大楼","lon":"121.44593","lat":"31.196997","category":"47","category_name":"住宅区","address":"宛平南路19弄2号"}]