[{"poiid":"B2094757D06FA0F5489C","title":"东方体育中心体育馆","lon":"121.48134347","lat":"31.156468556","category":"220","category_name":"运动场所","address":"上海浦东新区泳耀路东育路"},{"poiid":"B2094757D06FAAFE4893","title":"园林格兰云天大酒店","lon":"121.4535392463","lat":"31.150066281662","category":"217","category_name":"旅馆招待所","address":"徐汇区百色路100号(近上海植物园)"},{"poiid":"B2094654DA65A6FB419A","title":"上海植物园(2号门)","lon":"121.44988","lat":"31.15001","category":"680","category_name":"楼宇机构","address":"龙吴路997"},{"poiid":"B2094757D164AAFB479F","title":"东方体育中心海上皇冠","lon":"121.479249738","lat":"31.156806737","category":"500","category_name":"未知分类","address":"上海8号线东方体育中心"},{"poiid":"B2094757D06FA1FE439D","title":"滨江小区","lon":"121.45765","lat":"31.152988","category":"47","category_name":"住宅区","address":"上海天钥桥南路1199弄"},{"poiid":"B2094757D06FABFE4492","title":"中海瀛台","lon":"121.45292","lat":"31.140421","category":"500","category_name":"未知分类","address":"徐汇区龙瑞路77弄"},{"poiid":"B2094757D06EAAF94793","title":"东方体育中心地铁站(原济阳路站)","lon":"121.48039507","lat":"31.153498489","category":"36","category_name":"地铁站","address":"上海轨道交通 六号线 八号线 轨交东方体育中心站 济阳路 6 8"},{"poiid":"B2094757D06FA1FA4592","title":"上中路隧道","lon":"121.45757293","lat":"31.143583297","category":"38","category_name":"公交车站","address":"上海上中路隧道"},{"poiid":"B2094757D06FAAFB479E","title":"东方体育中心室外跳水池(月亮湾)","lon":"121.47687046","lat":"31.155626569","category":"220","category_name":"运动场所","address":"上海浦东新区泳耀路50号东方体育中心内"},{"poiid":"B2094655D264AAF44198","title":"上海市工业技术学校","lon":"121.45312","lat":"31.14674","category":"54","category_name":"职业技术学校","address":"喜泰支路8"},{"poiid":"B2094751DA6EA4FA499A","title":"上海虹桥机场","lon":"121.464111","lat":"31.144684","category":"500","category_name":"未知分类","address":null},{"poiid":"B2094654DA65ABFF469E","title":"龙南三、四村","lon":"121.45609","lat":"31.15479","category":"47","category_name":"住宅区","address":"天钥桥南路4号-98号"},{"poiid":"B2094654DB6CA1FB409F","title":"华馨公寓","lon":"121.459","lat":"31.1407","category":"47","category_name":"住宅区","address":"上海市徐汇区罗秀路55弄"},{"poiid":"B2094654DA65ABFA4092","title":"龙华滨江休闲广场","lon":"121.4573","lat":"31.15029","category":"201","category_name":"城市广场","address":"上海滨江路"},{"poiid":"B2094654DA65ABFA479F","title":"上海市第42机动车安全检测站(徐汇)","lon":"121.46109","lat":"31.15756","category":"250","category_name":"公园户外","address":"龙水南路95号"},{"poiid":"B2094655D36CA5F44298","title":"滨江路临江路","lon":"121.45888","lat":"31.15329","category":"38","category_name":"公交车站","address":""},{"poiid":"B2094654DB6CA1F8489E","title":"上海植物园(1号门)","lon":"121.45018","lat":"31.14629","category":"680","category_name":"楼宇机构","address":"上海市龙吴路1111号"},{"poiid":"B2094654DB64A2F84998","title":"上海浦东新区民办大别山小学(林浦路)","lon":"121.47261","lat":"31.14328","category":"56","category_name":"小学","address":"浦东新区林浦路600号"},{"poiid":"B2094654DA65ABF84192","title":"绿邑新苑","lon":"121.452817","lat":"31.153755","category":"47","category_name":"住宅区","address":"徐汇龙水南路391-399号"},{"poiid":"B2094757D06FAAF4499B","title":"龙南五村","lon":"121.454401146","lat":"31.1534590508","category":"252","category_name":"楼宇机构","address":"上海龙水南路350号"},{"poiid":"B2094757D16FABFA4392","title":"小老虎家","lon":"121.466949009","lat":"31.1446760768","category":"249","category_name":"购物服务","address":null},{"poiid":"B2094750D56AA3FA439A","title":"中海瀛台一期","lon":"121.459521","lat":"31.147362","category":"47","category_name":"住宅区","address":"上海市徐汇区龙吴路1270号"},{"poiid":"B2094757D16BA3FF429F","title":"上海宝狮东风标致4S店","lon":"121.45920733","lat":"31.155595811","category":"500","category_name":"未知分类","address":"上海市龙水南路201号一幢"},{"poiid":"B2094654DA65ABFA469F","title":"上海市徐汇区汽车驾驶员培训部","lon":"121.46115","lat":"31.15591","category":"192","category_name":"驾校","address":"龙水南路60-2临"},{"poiid":"B2094757D06FAAFA459E","title":"罗秀三村","lon":"121.452958","lat":"31.139931","category":"252","category_name":"楼宇机构","address":"罗秀路210号"},{"poiid":"B2094757D16CA7F9489F","title":"上海森那美汽车(经营捷豹路虎劳斯莱斯等车型)","lon":"121.459034","lat":"31.15685","category":"500","category_name":"未知分类","address":"上海龙水南路201号2幢"},{"poiid":"B2094757D069A1F5449D","title":"卢浦大桥引桥","lon":"121.47853247","lat":"31.151149276","category":"500","category_name":"未知分类","address":"上海耀华路"},{"poiid":"B2094757D06AA7F9439C","title":"扬州饭店(徐汇店)","lon":"121.45213","lat":"31.15415","category":"74","category_name":"江苏菜","address":"徐汇区喜泰北路10号(黄石路龙水南路间)"},{"poiid":"B2094757D169A2FF419F","title":"长峰新村","lon":"121.46319498301","lat":"31.156955126594","category":"47","category_name":"住宅区","address":"长峰新村位于徐汇上海徐汇天钥桥南路1249弄"},{"poiid":"B2094654DA65AAFA4592","title":"浦东新区林昌学校","lon":"121.47347","lat":"31.14134","category":"55","category_name":"中学","address":"林浦路686"},{"poiid":"B2094753D164A0F9499F","title":"华东理工大学","lon":"121.471017","lat":"31.160169","category":"500","category_name":"未知分类","address":"上海市 上海市徐汇区梅陇路130号"},{"poiid":"B209475CD264A3F5469F","title":"上海地铁11号线龙耀路站","lon":"121.462966","lat":"31.153446","category":"500","category_name":"未知分类","address":"上海市 上海市徐汇区龙耀路"},{"poiid":"B2094654DA65ABF84798","title":"樟树苑","lon":"121.457","lat":"31.1549","category":"47","category_name":"住宅区","address":"樟树苑位于徐汇龙吴路988号"},{"poiid":"B2094757D068A5F9479B","title":"公交(932路)","lon":"121.45888261","lat":"31.15325001","category":"38","category_name":"公交车站","address":"上海滨江路临江路-城隍庙"},{"poiid":"B2094654DA65A6F44293","title":"上海市划船俱乐部","lon":"121.45666","lat":"31.13521","category":"220","category_name":"运动场所","address":"龙吴路1594"},{"poiid":"B2094655D26FA3FD4192","title":"上海市塘桥中学","lon":"121.47292","lat":"31.14112","category":"55","category_name":"中学","address":"林浦路686"},{"poiid":"B2094752D265A7F4479B","title":"法华学问寺","lon":"121.47398","lat":"31.154162","category":"250","category_name":"公园户外","address":"上海市华夏西路"},{"poiid":"B2094654DB65A3F9449C","title":"克莉丝汀 龙水南路店","lon":"121.451310054","lat":"31.150953793","category":"112","category_name":"糕饼店","address":"徐汇区龙水南路318号乙(近龙吴路)"},{"poiid":"B2094654DA65ABFA4093","title":"滨江小区(西南门)","lon":"121.45603","lat":"31.15156","category":"47","category_name":"住宅区","address":"天钥桥南路1249弄1-58号"},{"poiid":"B2094654DA65ABFA449A","title":"光明乳业龙南配送站","lon":"121.45899","lat":"31.15331","category":"117","category_name":"便民商店/便利店","address":"临江路93识别"},{"poiid":"B2094757D06AA1F94893","title":"济阳路","lon":"121.48357","lat":"31.14722","category":"500","category_name":"未知分类","address":"上海中环济阳路出口"},{"poiid":"B2094654DA65ABF8489B","title":"汇丰创意园","lon":"121.45278","lat":"31.14834","category":"45","category_name":"产业园区","address":"徐汇区喜泰路239号(近植物园)"},{"poiid":"B2094757D06FABFF4793","title":"天钥桥南路","lon":"121.457557","lat":"31.153915","category":"260","category_name":"其他","address":"上海徐汇区天钥桥南路"},{"poiid":"B2094757D064A0FA499E","title":"中海瀛台2期","lon":"121.45539347","lat":"31.13716525","category":"47","category_name":"住宅区","address":"上海龙瑞路77弄"},{"poiid":"B2094757D068AAFC409C","title":"东方体育大厦","lon":"121.478506075","lat":"31.1553712705","category":"46","category_name":"楼宇","address":"上海市泳耀路300号(近耀龙路)"},{"poiid":"B2094655D26FA1F94298","title":"上海新安机动车安全检测中心","lon":"121.47705","lat":"31.14195","category":"250","category_name":"公园户外","address":"上浦路188"},{"poiid":"B2094757D069A5FA419C","title":"龙苑中学","lon":"121.454249","lat":"31.157455","category":"55","category_name":"中学","address":"上海黄石路85号"},{"poiid":"B2094655D26BA3FF409B","title":"龙华汽配城","lon":"121.45909","lat":"31.15531","category":"116","category_name":"特色商业街","address":"徐汇区龙水南路201号;;"},{"poiid":"B2094655D26BABF44093","title":"家得利早餐摊天钥桥南路店","lon":"121.45565","lat":"31.15317","category":"68","category_name":"快餐厅","address":"徐汇区天钥桥南路1191号家得利(近龙水南路)"},{"poiid":"B2094654DA65ABF9499B","title":"长峰小区","lon":"121.4549","lat":"31.152561","category":"47","category_name":"住宅区","address":"天钥桥南路1188弄1-28号"},{"poiid":"B2094757D06FA0F5489C","title":"东方体育中心体育馆","lon":"121.48134347","lat":"31.156468556","category":"220","category_name":"运动场所","address":"上海浦东新区泳耀路东育路"},{"poiid":"B2094757D06FAAFE4893","title":"园林格兰云天大酒店","lon":"121.4535392463","lat":"31.150066281662","category":"217","category_name":"旅馆招待所","address":"徐汇区百色路100号(近上海植物园)"},{"poiid":"B2094654DA65A6FB419A","title":"上海植物园(2号门)","lon":"121.44988","lat":"31.15001","category":"680","category_name":"楼宇机构","address":"龙吴路997"},{"poiid":"B2094757D164AAFB479F","title":"东方体育中心海上皇冠","lon":"121.479249738","lat":"31.156806737","category":"500","category_name":"未知分类","address":"上海8号线东方体育中心"},{"poiid":"B2094757D06FA1FE439D","title":"滨江小区","lon":"121.45765","lat":"31.152988","category":"47","category_name":"住宅区","address":"上海天钥桥南路1199弄"},{"poiid":"B2094757D06FABFE4492","title":"中海瀛台","lon":"121.45292","lat":"31.140421","category":"500","category_name":"未知分类","address":"徐汇区龙瑞路77弄"},{"poiid":"B2094757D06EAAF94793","title":"东方体育中心地铁站(原济阳路站)","lon":"121.48039507","lat":"31.153498489","category":"36","category_name":"地铁站","address":"上海轨道交通 六号线 八号线 轨交东方体育中心站 济阳路 6 8"},{"poiid":"B2094757D06FA1FA4592","title":"上中路隧道","lon":"121.45757293","lat":"31.143583297","category":"38","category_name":"公交车站","address":"上海上中路隧道"},{"poiid":"B2094757D06FAAFB479E","title":"东方体育中心室外跳水池(月亮湾)","lon":"121.47687046","lat":"31.155626569","category":"220","category_name":"运动场所","address":"上海浦东新区泳耀路50号东方体育中心内"},{"poiid":"B2094655D264AAF44198","title":"上海市工业技术学校","lon":"121.45312","lat":"31.14674","category":"54","category_name":"职业技术学校","address":"喜泰支路8"},{"poiid":"B2094751DA6EA4FA499A","title":"上海虹桥机场","lon":"121.464111","lat":"31.144684","category":"500","category_name":"未知分类","address":null},{"poiid":"B2094654DA65ABFF469E","title":"龙南三、四村","lon":"121.45609","lat":"31.15479","category":"47","category_name":"住宅区","address":"天钥桥南路4号-98号"},{"poiid":"B2094654DB6CA1FB409F","title":"华馨公寓","lon":"121.459","lat":"31.1407","category":"47","category_name":"住宅区","address":"上海市徐汇区罗秀路55弄"},{"poiid":"B2094654DA65ABFA4092","title":"龙华滨江休闲广场","lon":"121.4573","lat":"31.15029","category":"201","category_name":"城市广场","address":"上海滨江路"},{"poiid":"B2094654DA65ABFA479F","title":"上海市第42机动车安全检测站(徐汇)","lon":"121.46109","lat":"31.15756","category":"250","category_name":"公园户外","address":"龙水南路95号"},{"poiid":"B2094655D36CA5F44298","title":"滨江路临江路","lon":"121.45888","lat":"31.15329","category":"38","category_name":"公交车站","address":""},{"poiid":"B2094654DB6CA1F8489E","title":"上海植物园(1号门)","lon":"121.45018","lat":"31.14629","category":"680","category_name":"楼宇机构","address":"上海市龙吴路1111号"},{"poiid":"B2094654DB64A2F84998","title":"上海浦东新区民办大别山小学(林浦路)","lon":"121.47261","lat":"31.14328","category":"56","category_name":"小学","address":"浦东新区林浦路600号"},{"poiid":"B2094654DA65ABF84192","title":"绿邑新苑","lon":"121.452817","lat":"31.153755","category":"47","category_name":"住宅区","address":"徐汇龙水南路391-399号"},{"poiid":"B2094757D06FAAF4499B","title":"龙南五村","lon":"121.454401146","lat":"31.1534590508","category":"252","category_name":"楼宇机构","address":"上海龙水南路350号"},{"poiid":"B2094757D16FABFA4392","title":"小老虎家","lon":"121.466949009","lat":"31.1446760768","category":"249","category_name":"购物服务","address":null},{"poiid":"B2094750D56AA3FA439A","title":"中海瀛台一期","lon":"121.459521","lat":"31.147362","category":"47","category_name":"住宅区","address":"上海市徐汇区龙吴路1270号"},{"poiid":"B2094757D16BA3FF429F","title":"上海宝狮东风标致4S店","lon":"121.45920733","lat":"31.155595811","category":"500","category_name":"未知分类","address":"上海市龙水南路201号一幢"},{"poiid":"B2094654DA65ABFA469F","title":"上海市徐汇区汽车驾驶员培训部","lon":"121.46115","lat":"31.15591","category":"192","category_name":"驾校","address":"龙水南路60-2临"},{"poiid":"B2094757D06FAAFA459E","title":"罗秀三村","lon":"121.452958","lat":"31.139931","category":"252","category_name":"楼宇机构","address":"罗秀路210号"},{"poiid":"B2094757D16CA7F9489F","title":"上海森那美汽车(经营捷豹路虎劳斯莱斯等车型)","lon":"121.459034","lat":"31.15685","category":"500","category_name":"未知分类","address":"上海龙水南路201号2幢"},{"poiid":"B2094757D069A1F5449D","title":"卢浦大桥引桥","lon":"121.47853247","lat":"31.151149276","category":"500","category_name":"未知分类","address":"上海耀华路"},{"poiid":"B2094757D06AA7F9439C","title":"扬州饭店(徐汇店)","lon":"121.45213","lat":"31.15415","category":"74","category_name":"江苏菜","address":"徐汇区喜泰北路10号(黄石路龙水南路间)"},{"poiid":"B2094757D169A2FF419F","title":"长峰新村","lon":"121.46319498301","lat":"31.156955126594","category":"47","category_name":"住宅区","address":"长峰新村位于徐汇上海徐汇天钥桥南路1249弄"},{"poiid":"B2094654DA65AAFA4592","title":"浦东新区林昌学校","lon":"121.47347","lat":"31.14134","category":"55","category_name":"中学","address":"林浦路686"},{"poiid":"B2094753D164A0F9499F","title":"华东理工大学","lon":"121.471017","lat":"31.160169","category":"500","category_name":"未知分类","address":"上海市 上海市徐汇区梅陇路130号"},{"poiid":"B209475CD264A3F5469F","title":"上海地铁11号线龙耀路站","lon":"121.462966","lat":"31.153446","category":"500","category_name":"未知分类","address":"上海市 上海市徐汇区龙耀路"},{"poiid":"B2094654DA65ABF84798","title":"樟树苑","lon":"121.457","lat":"31.1549","category":"47","category_name":"住宅区","address":"樟树苑位于徐汇龙吴路988号"},{"poiid":"B2094757D068A5F9479B","title":"公交(932路)","lon":"121.45888261","lat":"31.15325001","category":"38","category_name":"公交车站","address":"上海滨江路临江路-城隍庙"},{"poiid":"B2094654DA65A6F44293","title":"上海市划船俱乐部","lon":"121.45666","lat":"31.13521","category":"220","category_name":"运动场所","address":"龙吴路1594"},{"poiid":"B2094655D26FA3FD4192","title":"上海市塘桥中学","lon":"121.47292","lat":"31.14112","category":"55","category_name":"中学","address":"林浦路686"},{"poiid":"B2094752D265A7F4479B","title":"法华学问寺","lon":"121.47398","lat":"31.154162","category":"250","category_name":"公园户外","address":"上海市华夏西路"},{"poiid":"B2094654DB65A3F9449C","title":"克莉丝汀 龙水南路店","lon":"121.451310054","lat":"31.150953793","category":"112","category_name":"糕饼店","address":"徐汇区龙水南路318号乙(近龙吴路)"},{"poiid":"B2094654DA65ABFA4093","title":"滨江小区(西南门)","lon":"121.45603","lat":"31.15156","category":"47","category_name":"住宅区","address":"天钥桥南路1249弄1-58号"},{"poiid":"B2094654DA65ABFA449A","title":"光明乳业龙南配送站","lon":"121.45899","lat":"31.15331","category":"117","category_name":"便民商店/便利店","address":"临江路93识别"},{"poiid":"B2094757D06AA1F94893","title":"济阳路","lon":"121.48357","lat":"31.14722","category":"500","category_name":"未知分类","address":"上海中环济阳路出口"},{"poiid":"B2094654DA65ABF8489B","title":"汇丰创意园","lon":"121.45278","lat":"31.14834","category":"45","category_name":"产业园区","address":"徐汇区喜泰路239号(近植物园)"},{"poiid":"B2094757D06FABFF4793","title":"天钥桥南路","lon":"121.457557","lat":"31.153915","category":"260","category_name":"其他","address":"上海徐汇区天钥桥南路"},{"poiid":"B2094757D064A0FA499E","title":"中海瀛台2期","lon":"121.45539347","lat":"31.13716525","category":"47","category_name":"住宅区","address":"上海龙瑞路77弄"},{"poiid":"B2094757D068AAFC409C","title":"东方体育大厦","lon":"121.478506075","lat":"31.1553712705","category":"46","category_name":"楼宇","address":"上海市泳耀路300号(近耀龙路)"},{"poiid":"B2094655D26FA1F94298","title":"上海新安机动车安全检测中心","lon":"121.47705","lat":"31.14195","category":"250","category_name":"公园户外","address":"上浦路188"},{"poiid":"B2094757D069A5FA419C","title":"龙苑中学","lon":"121.454249","lat":"31.157455","category":"55","category_name":"中学","address":"上海黄石路85号"},{"poiid":"B2094655D26BA3FF409B","title":"龙华汽配城","lon":"121.45909","lat":"31.15531","category":"116","category_name":"特色商业街","address":"徐汇区龙水南路201号;;"},{"poiid":"B2094655D26BABF44093","title":"家得利早餐摊天钥桥南路店","lon":"121.45565","lat":"31.15317","category":"68","category_name":"快餐厅","address":"徐汇区天钥桥南路1191号家得利(近龙水南路)"},{"poiid":"B2094654DA65ABF9499B","title":"长峰小区","lon":"121.4549","lat":"31.152561","category":"47","category_name":"住宅区","address":"天钥桥南路1188弄1-28号"},{"poiid":"B2094757D06FA0F5489C","title":"东方体育中心体育馆","lon":"121.48134347","lat":"31.156468556","category":"220","category_name":"运动场所","address":"上海浦东新区泳耀路东育路"},{"poiid":"B2094757D06FAAFE4893","title":"园林格兰云天大酒店","lon":"121.4535392463","lat":"31.150066281662","category":"217","category_name":"旅馆招待所","address":"徐汇区百色路100号(近上海植物园)"},{"poiid":"B2094654DA65A6FB419A","title":"上海植物园(2号门)","lon":"121.44988","lat":"31.15001","category":"680","category_name":"楼宇机构","address":"龙吴路997"},{"poiid":"B2094757D164AAFB479F","title":"东方体育中心海上皇冠","lon":"121.479249738","lat":"31.156806737","category":"500","category_name":"未知分类","address":"上海8号线东方体育中心"},{"poiid":"B2094757D06FA1FE439D","title":"滨江小区","lon":"121.45765","lat":"31.152988","category":"47","category_name":"住宅区","address":"上海天钥桥南路1199弄"},{"poiid":"B2094757D06FABFE4492","title":"中海瀛台","lon":"121.45292","lat":"31.140421","category":"500","category_name":"未知分类","address":"徐汇区龙瑞路77弄"},{"poiid":"B2094757D06EAAF94793","title":"东方体育中心地铁站(原济阳路站)","lon":"121.48039507","lat":"31.153498489","category":"36","category_name":"地铁站","address":"上海轨道交通 六号线 八号线 轨交东方体育中心站 济阳路 6 8"},{"poiid":"B2094757D06FA1FA4592","title":"上中路隧道","lon":"121.45757293","lat":"31.143583297","category":"38","category_name":"公交车站","address":"上海上中路隧道"},{"poiid":"B2094757D06FAAFB479E","title":"东方体育中心室外跳水池(月亮湾)","lon":"121.47687046","lat":"31.155626569","category":"220","category_name":"运动场所","address":"上海浦东新区泳耀路50号东方体育中心内"},{"poiid":"B2094655D264AAF44198","title":"上海市工业技术学校","lon":"121.45312","lat":"31.14674","category":"54","category_name":"职业技术学校","address":"喜泰支路8"},{"poiid":"B2094751DA6EA4FA499A","title":"上海虹桥机场","lon":"121.464111","lat":"31.144684","category":"500","category_name":"未知分类","address":null},{"poiid":"B2094654DA65ABFF469E","title":"龙南三、四村","lon":"121.45609","lat":"31.15479","category":"47","category_name":"住宅区","address":"天钥桥南路4号-98号"},{"poiid":"B2094654DB6CA1FB409F","title":"华馨公寓","lon":"121.459","lat":"31.1407","category":"47","category_name":"住宅区","address":"上海市徐汇区罗秀路55弄"},{"poiid":"B2094654DA65ABFA4092","title":"龙华滨江休闲广场","lon":"121.4573","lat":"31.15029","category":"201","category_name":"城市广场","address":"上海滨江路"},{"poiid":"B2094654DA65ABFA479F","title":"上海市第42机动车安全检测站(徐汇)","lon":"121.46109","lat":"31.15756","category":"250","category_name":"公园户外","address":"龙水南路95号"},{"poiid":"B2094655D36CA5F44298","title":"滨江路临江路","lon":"121.45888","lat":"31.15329","category":"38","category_name":"公交车站","address":""},{"poiid":"B2094654DB6CA1F8489E","title":"上海植物园(1号门)","lon":"121.45018","lat":"31.14629","category":"680","category_name":"楼宇机构","address":"上海市龙吴路1111号"},{"poiid":"B2094654DB64A2F84998","title":"上海浦东新区民办大别山小学(林浦路)","lon":"121.47261","lat":"31.14328","category":"56","category_name":"小学","address":"浦东新区林浦路600号"},{"poiid":"B2094654DA65ABF84192","title":"绿邑新苑","lon":"121.452817","lat":"31.153755","category":"47","category_name":"住宅区","address":"徐汇龙水南路391-399号"},{"poiid":"B2094757D06FAAF4499B","title":"龙南五村","lon":"121.454401146","lat":"31.1534590508","category":"252","category_name":"楼宇机构","address":"上海龙水南路350号"},{"poiid":"B2094757D16FABFA4392","title":"小老虎家","lon":"121.466949009","lat":"31.1446760768","category":"249","category_name":"购物服务","address":null},{"poiid":"B2094750D56AA3FA439A","title":"中海瀛台一期","lon":"121.459521","lat":"31.147362","category":"47","category_name":"住宅区","address":"上海市徐汇区龙吴路1270号"},{"poiid":"B2094757D16BA3FF429F","title":"上海宝狮东风标致4S店","lon":"121.45920733","lat":"31.155595811","category":"500","category_name":"未知分类","address":"上海市龙水南路201号一幢"},{"poiid":"B2094654DA65ABFA469F","title":"上海市徐汇区汽车驾驶员培训部","lon":"121.46115","lat":"31.15591","category":"192","category_name":"驾校","address":"龙水南路60-2临"},{"poiid":"B2094757D06FAAFA459E","title":"罗秀三村","lon":"121.452958","lat":"31.139931","category":"252","category_name":"楼宇机构","address":"罗秀路210号"},{"poiid":"B2094757D16CA7F9489F","title":"上海森那美汽车(经营捷豹路虎劳斯莱斯等车型)","lon":"121.459034","lat":"31.15685","category":"500","category_name":"未知分类","address":"上海龙水南路201号2幢"},{"poiid":"B2094757D069A1F5449D","title":"卢浦大桥引桥","lon":"121.47853247","lat":"31.151149276","category":"500","category_name":"未知分类","address":"上海耀华路"},{"poiid":"B2094757D06AA7F9439C","title":"扬州饭店(徐汇店)","lon":"121.45213","lat":"31.15415","category":"74","category_name":"江苏菜","address":"徐汇区喜泰北路10号(黄石路龙水南路间)"},{"poiid":"B2094757D169A2FF419F","title":"长峰新村","lon":"121.46319498301","lat":"31.156955126594","category":"47","category_name":"住宅区","address":"长峰新村位于徐汇上海徐汇天钥桥南路1249弄"},{"poiid":"B2094654DA65AAFA4592","title":"浦东新区林昌学校","lon":"121.47347","lat":"31.14134","category":"55","category_name":"中学","address":"林浦路686"},{"poiid":"B2094753D164A0F9499F","title":"华东理工大学","lon":"121.471017","lat":"31.160169","category":"500","category_name":"未知分类","address":"上海市 上海市徐汇区梅陇路130号"},{"poiid":"B209475CD264A3F5469F","title":"上海地铁11号线龙耀路站","lon":"121.462966","lat":"31.153446","category":"500","category_name":"未知分类","address":"上海市 上海市徐汇区龙耀路"},{"poiid":"B2094654DA65ABF84798","title":"樟树苑","lon":"121.457","lat":"31.1549","category":"47","category_name":"住宅区","address":"樟树苑位于徐汇龙吴路988号"},{"poiid":"B2094757D068A5F9479B","title":"公交(932路)","lon":"121.45888261","lat":"31.15325001","category":"38","category_name":"公交车站","address":"上海滨江路临江路-城隍庙"},{"poiid":"B2094654DA65A6F44293","title":"上海市划船俱乐部","lon":"121.45666","lat":"31.13521","category":"220","category_name":"运动场所","address":"龙吴路1594"},{"poiid":"B2094655D26FA3FD4192","title":"上海市塘桥中学","lon":"121.47292","lat":"31.14112","category":"55","category_name":"中学","address":"林浦路686"},{"poiid":"B2094752D265A7F4479B","title":"法华学问寺","lon":"121.47398","lat":"31.154162","category":"250","category_name":"公园户外","address":"上海市华夏西路"},{"poiid":"B2094654DB65A3F9449C","title":"克莉丝汀 龙水南路店","lon":"121.451310054","lat":"31.150953793","category":"112","category_name":"糕饼店","address":"徐汇区龙水南路318号乙(近龙吴路)"},{"poiid":"B2094654DA65ABFA4093","title":"滨江小区(西南门)","lon":"121.45603","lat":"31.15156","category":"47","category_name":"住宅区","address":"天钥桥南路1249弄1-58号"},{"poiid":"B2094654DA65ABFA449A","title":"光明乳业龙南配送站","lon":"121.45899","lat":"31.15331","category":"117","category_name":"便民商店/便利店","address":"临江路93识别"},{"poiid":"B2094757D06AA1F94893","title":"济阳路","lon":"121.48357","lat":"31.14722","category":"500","category_name":"未知分类","address":"上海中环济阳路出口"},{"poiid":"B2094654DA65ABF8489B","title":"汇丰创意园","lon":"121.45278","lat":"31.14834","category":"45","category_name":"产业园区","address":"徐汇区喜泰路239号(近植物园)"},{"poiid":"B2094757D06FABFF4793","title":"天钥桥南路","lon":"121.457557","lat":"31.153915","category":"260","category_name":"其他","address":"上海徐汇区天钥桥南路"},{"poiid":"B2094757D064A0FA499E","title":"中海瀛台2期","lon":"121.45539347","lat":"31.13716525","category":"47","category_name":"住宅区","address":"上海龙瑞路77弄"},{"poiid":"B2094757D068AAFC409C","title":"东方体育大厦","lon":"121.478506075","lat":"31.1553712705","category":"46","category_name":"楼宇","address":"上海市泳耀路300号(近耀龙路)"},{"poiid":"B2094655D26FA1F94298","title":"上海新安机动车安全检测中心","lon":"121.47705","lat":"31.14195","category":"250","category_name":"公园户外","address":"上浦路188"},{"poiid":"B2094757D069A5FA419C","title":"龙苑中学","lon":"121.454249","lat":"31.157455","category":"55","category_name":"中学","address":"上海黄石路85号"},{"poiid":"B2094655D26BA3FF409B","title":"龙华汽配城","lon":"121.45909","lat":"31.15531","category":"116","category_name":"特色商业街","address":"徐汇区龙水南路201号;;"},{"poiid":"B2094655D26BABF44093","title":"家得利早餐摊天钥桥南路店","lon":"121.45565","lat":"31.15317","category":"68","category_name":"快餐厅","address":"徐汇区天钥桥南路1191号家得利(近龙水南路)"},{"poiid":"B2094654DA65ABF9499B","title":"长峰小区","lon":"121.4549","lat":"31.152561","category":"47","category_name":"住宅区","address":"天钥桥南路1188弄1-28号"},{"poiid":"B2094757D06FA0F5489C","title":"东方体育中心体育馆","lon":"121.48134347","lat":"31.156468556","category":"220","category_name":"运动场所","address":"上海浦东新区泳耀路东育路"},{"poiid":"B2094757D06FAAFE4893","title":"园林格兰云天大酒店","lon":"121.4535392463","lat":"31.150066281662","category":"217","category_name":"旅馆招待所","address":"徐汇区百色路100号(近上海植物园)"},{"poiid":"B2094654DA65A6FB419A","title":"上海植物园(2号门)","lon":"121.44988","lat":"31.15001","category":"680","category_name":"楼宇机构","address":"龙吴路997"},{"poiid":"B2094757D164AAFB479F","title":"东方体育中心海上皇冠","lon":"121.479249738","lat":"31.156806737","category":"500","category_name":"未知分类","address":"上海8号线东方体育中心"},{"poiid":"B2094757D06FA1FE439D","title":"滨江小区","lon":"121.45765","lat":"31.152988","category":"47","category_name":"住宅区","address":"上海天钥桥南路1199弄"},{"poiid":"B2094757D06FABFE4492","title":"中海瀛台","lon":"121.45292","lat":"31.140421","category":"500","category_name":"未知分类","address":"徐汇区龙瑞路77弄"},{"poiid":"B2094757D06EAAF94793","title":"东方体育中心地铁站(原济阳路站)","lon":"121.48039507","lat":"31.153498489","category":"36","category_name":"地铁站","address":"上海轨道交通 六号线 八号线 轨交东方体育中心站 济阳路 6 8"},{"poiid":"B2094757D06FA1FA4592","title":"上中路隧道","lon":"121.45757293","lat":"31.143583297","category":"38","category_name":"公交车站","address":"上海上中路隧道"},{"poiid":"B2094757D06FAAFB479E","title":"东方体育中心室外跳水池(月亮湾)","lon":"121.47687046","lat":"31.155626569","category":"220","category_name":"运动场所","address":"上海浦东新区泳耀路50号东方体育中心内"},{"poiid":"B2094655D264AAF44198","title":"上海市工业技术学校","lon":"121.45312","lat":"31.14674","category":"54","category_name":"职业技术学校","address":"喜泰支路8"},{"poiid":"B2094751DA6EA4FA499A","title":"上海虹桥机场","lon":"121.464111","lat":"31.144684","category":"500","category_name":"未知分类","address":null},{"poiid":"B2094654DA65ABFF469E","title":"龙南三、四村","lon":"121.45609","lat":"31.15479","category":"47","category_name":"住宅区","address":"天钥桥南路4号-98号"},{"poiid":"B2094654DB6CA1FB409F","title":"华馨公寓","lon":"121.459","lat":"31.1407","category":"47","category_name":"住宅区","address":"上海市徐汇区罗秀路55弄"},{"poiid":"B2094654DA65ABFA4092","title":"龙华滨江休闲广场","lon":"121.4573","lat":"31.15029","category":"201","category_name":"城市广场","address":"上海滨江路"},{"poiid":"B2094654DA65ABFA479F","title":"上海市第42机动车安全检测站(徐汇)","lon":"121.46109","lat":"31.15756","category":"250","category_name":"公园户外","address":"龙水南路95号"},{"poiid":"B2094655D36CA5F44298","title":"滨江路临江路","lon":"121.45888","lat":"31.15329","category":"38","category_name":"公交车站","address":""},{"poiid":"B2094654DB6CA1F8489E","title":"上海植物园(1号门)","lon":"121.45018","lat":"31.14629","category":"680","category_name":"楼宇机构","address":"上海市龙吴路1111号"},{"poiid":"B2094654DB64A2F84998","title":"上海浦东新区民办大别山小学(林浦路)","lon":"121.47261","lat":"31.14328","category":"56","category_name":"小学","address":"浦东新区林浦路600号"},{"poiid":"B2094654DA65ABF84192","title":"绿邑新苑","lon":"121.452817","lat":"31.153755","category":"47","category_name":"住宅区","address":"徐汇龙水南路391-399号"},{"poiid":"B2094757D06FAAF4499B","title":"龙南五村","lon":"121.454401146","lat":"31.1534590508","category":"252","category_name":"楼宇机构","address":"上海龙水南路350号"},{"poiid":"B2094757D16FABFA4392","title":"小老虎家","lon":"121.466949009","lat":"31.1446760768","category":"249","category_name":"购物服务","address":null},{"poiid":"B2094750D56AA3FA439A","title":"中海瀛台一期","lon":"121.459521","lat":"31.147362","category":"47","category_name":"住宅区","address":"上海市徐汇区龙吴路1270号"},{"poiid":"B2094757D16BA3FF429F","title":"上海宝狮东风标致4S店","lon":"121.45920733","lat":"31.155595811","category":"500","category_name":"未知分类","address":"上海市龙水南路201号一幢"},{"poiid":"B2094654DA65ABFA469F","title":"上海市徐汇区汽车驾驶员培训部","lon":"121.46115","lat":"31.15591","category":"192","category_name":"驾校","address":"龙水南路60-2临"},{"poiid":"B2094757D06FAAFA459E","title":"罗秀三村","lon":"121.452958","lat":"31.139931","category":"252","category_name":"楼宇机构","address":"罗秀路210号"},{"poiid":"B2094757D16CA7F9489F","title":"上海森那美汽车(经营捷豹路虎劳斯莱斯等车型)","lon":"121.459034","lat":"31.15685","category":"500","category_name":"未知分类","address":"上海龙水南路201号2幢"},{"poiid":"B2094757D069A1F5449D","title":"卢浦大桥引桥","lon":"121.47853247","lat":"31.151149276","category":"500","category_name":"未知分类","address":"上海耀华路"},{"poiid":"B2094757D06AA7F9439C","title":"扬州饭店(徐汇店)","lon":"121.45213","lat":"31.15415","category":"74","category_name":"江苏菜","address":"徐汇区喜泰北路10号(黄石路龙水南路间)"},{"poiid":"B2094757D169A2FF419F","title":"长峰新村","lon":"121.46319498301","lat":"31.156955126594","category":"47","category_name":"住宅区","address":"长峰新村位于徐汇上海徐汇天钥桥南路1249弄"},{"poiid":"B2094654DA65AAFA4592","title":"浦东新区林昌学校","lon":"121.47347","lat":"31.14134","category":"55","category_name":"中学","address":"林浦路686"},{"poiid":"B2094753D164A0F9499F","title":"华东理工大学","lon":"121.471017","lat":"31.160169","category":"500","category_name":"未知分类","address":"上海市 上海市徐汇区梅陇路130号"},{"poiid":"B209475CD264A3F5469F","title":"上海地铁11号线龙耀路站","lon":"121.462966","lat":"31.153446","category":"500","category_name":"未知分类","address":"上海市 上海市徐汇区龙耀路"},{"poiid":"B2094654DA65ABF84798","title":"樟树苑","lon":"121.457","lat":"31.1549","category":"47","category_name":"住宅区","address":"樟树苑位于徐汇龙吴路988号"},{"poiid":"B2094757D068A5F9479B","title":"公交(932路)","lon":"121.45888261","lat":"31.15325001","category":"38","category_name":"公交车站","address":"上海滨江路临江路-城隍庙"},{"poiid":"B2094654DA65A6F44293","title":"上海市划船俱乐部","lon":"121.45666","lat":"31.13521","category":"220","category_name":"运动场所","address":"龙吴路1594"},{"poiid":"B2094655D26FA3FD4192","title":"上海市塘桥中学","lon":"121.47292","lat":"31.14112","category":"55","category_name":"中学","address":"林浦路686"},{"poiid":"B2094752D265A7F4479B","title":"法华学问寺","lon":"121.47398","lat":"31.154162","category":"250","category_name":"公园户外","address":"上海市华夏西路"},{"poiid":"B2094654DB65A3F9449C","title":"克莉丝汀 龙水南路店","lon":"121.451310054","lat":"31.150953793","category":"112","category_name":"糕饼店","address":"徐汇区龙水南路318号乙(近龙吴路)"},{"poiid":"B2094654DA65ABFA4093","title":"滨江小区(西南门)","lon":"121.45603","lat":"31.15156","category":"47","category_name":"住宅区","address":"天钥桥南路1249弄1-58号"},{"poiid":"B2094654DA65ABFA449A","title":"光明乳业龙南配送站","lon":"121.45899","lat":"31.15331","category":"117","category_name":"便民商店/便利店","address":"临江路93识别"},{"poiid":"B2094757D06AA1F94893","title":"济阳路","lon":"121.48357","lat":"31.14722","category":"500","category_name":"未知分类","address":"上海中环济阳路出口"},{"poiid":"B2094654DA65ABF8489B","title":"汇丰创意园","lon":"121.45278","lat":"31.14834","category":"45","category_name":"产业园区","address":"徐汇区喜泰路239号(近植物园)"},{"poiid":"B2094757D06FABFF4793","title":"天钥桥南路","lon":"121.457557","lat":"31.153915","category":"260","category_name":"其他","address":"上海徐汇区天钥桥南路"},{"poiid":"B2094757D064A0FA499E","title":"中海瀛台2期","lon":"121.45539347","lat":"31.13716525","category":"47","category_name":"住宅区","address":"上海龙瑞路77弄"},{"poiid":"B2094757D068AAFC409C","title":"东方体育大厦","lon":"121.478506075","lat":"31.1553712705","category":"46","category_name":"楼宇","address":"上海市泳耀路300号(近耀龙路)"},{"poiid":"B2094655D26FA1F94298","title":"上海新安机动车安全检测中心","lon":"121.47705","lat":"31.14195","category":"250","category_name":"公园户外","address":"上浦路188"},{"poiid":"B2094757D069A5FA419C","title":"龙苑中学","lon":"121.454249","lat":"31.157455","category":"55","category_name":"中学","address":"上海黄石路85号"},{"poiid":"B2094655D26BA3FF409B","title":"龙华汽配城","lon":"121.45909","lat":"31.15531","category":"116","category_name":"特色商业街","address":"徐汇区龙水南路201号;;"},{"poiid":"B2094655D26BABF44093","title":"家得利早餐摊天钥桥南路店","lon":"121.45565","lat":"31.15317","category":"68","category_name":"快餐厅","address":"徐汇区天钥桥南路1191号家得利(近龙水南路)"},{"poiid":"B2094654DA65ABF9499B","title":"长峰小区","lon":"121.4549","lat":"31.152561","category":"47","category_name":"住宅区","address":"天钥桥南路1188弄1-28号"}]