[{"poiid":"B2094757D06FA1FF459F","title":"郑阿姨的家","lon":"121.4948311","lat":"31.300688055","category":"96","category_name":"韩国料理","address":"杨浦区武川路13号(近武东路)"},{"poiid":"B2094757D06FA3FA499C","title":"长白山韩国烧烤店(武川总店)","lon":"121.49485","lat":"31.30224","category":"96","category_name":"韩国料理","address":"杨浦区武川路47号(近武东路)"},{"poiid":"B2094757D06FA1FB469E","title":"复旦大学北区学生公寓","lon":"121.49717156","lat":"31.300906941","category":"253","category_name":"校园生活","address":"上海杨浦区邯郸路220号复旦大学邯郸校区"},{"poiid":"B2094654DB65A6F5469F","title":"Ing韩国料理","lon":"121.49424","lat":"31.30133","category":"96","category_name":"韩国料理","address":"杨浦区武川路49号1楼(近纪念路)"},{"poiid":"B2094757D16CA1FA499F","title":"Helen's酒吧","lon":"121.49433494","lat":"31.301696696","category":"172","category_name":"酒吧","address":"上海杨浦区武川路51号"},{"poiid":"B2094757D06FA7FE419D","title":"釜山火炉","lon":"121.49385","lat":"31.30046","category":"96","category_name":"韩国料理","address":"杨浦区武川路11号(近纪念路)"},{"poiid":"B2094757D06FA3F8429E","title":"上海财经大学图书馆","lon":"121.49477791","lat":"31.303851515","category":"253","category_name":"校园生活","address":"上海市杨浦区武川路111号上海财经大学内"},{"poiid":"B2094757D068A4FA4993","title":"上海财大豪生大酒店","lon":"121.491975103","lat":"31.3046381377","category":"217","category_name":"旅馆招待所","address":"上海市杨浦区武东路188号"},{"poiid":"B2094757D66BA3FC4999","title":"半岛酒楼 逸仙店","lon":"121.487890054","lat":"31.300092793","category":"76","category_name":"上海菜","address":"虹口区逸仙路519号(近仁德路)"},{"poiid":"B2094757D068A5FC479A","title":"Ricco Cafe","lon":"121.495382","lat":"31.304011","category":"260","category_name":"其他","address":"杨浦区武川路107号(近武东路)"},{"poiid":"B2094655D26FA2FB469E","title":"复旦大学网络教育学院","lon":"121.49413","lat":"31.29479","category":"671","category_name":"高校中心点","address":"上海杨浦区邯郸路96号"},{"poiid":"B2094757D068A4FB409D","title":"柏树大厦","lon":"121.495","lat":"31.2965","category":"46","category_name":"楼宇","address":"上海市虹口区中山北一路1230号"},{"poiid":"B2094654D56CABF5409A","title":"文化花园","lon":"121.49307","lat":"31.302458","category":"47","category_name":"住宅区","address":"上海武川路75弄"},{"poiid":"B2094654D56DA3FF499D","title":"复旦大学北苑学生生活园区","lon":"121.49686","lat":"31.30193","category":"47","category_name":"住宅区","address":"武东路57号"},{"poiid":"B2094757D164A5FA449B","title":"宁国府","lon":"121.48960089","lat":"31.304209778","category":"76","category_name":"上海菜","address":"杨浦区吉浦路309号(近武东路)"},{"poiid":"B2094654D56DA7F8409E","title":"沪办大厦","lon":"121.496","lat":"31.2975","category":"46","category_name":"楼宇","address":"沈河北站路与北京街的交汇处"},{"poiid":"B2094751D36FA1FC489F","title":"Helens Bar","lon":"121.49422","lat":"31.3013","category":"247","category_name":"餐饮美食","address":"杨浦区武川路49号2楼(近武东路)"},{"poiid":"B2094654D56CABF4489C","title":"新疆烧烤王学府街店","lon":"121.49375","lat":"31.30082","category":"68","category_name":"快餐厅","address":"杨浦区学府街76号(近武川路)"},{"poiid":"B2094757D064A5F84398","title":"三湘世纪花城","lon":"121.49545951341","lat":"31.305311026976","category":"500","category_name":"未知分类","address":"上海市纪念路289弄"},{"poiid":"B2094654D56DA3FD4492","title":"三九大厦","lon":"121.49155","lat":"31.297284","category":"46","category_name":"楼宇","address":"上海市虹口区汶水东路181弄1～2号"},{"poiid":"B2094757D469A5FA419C","title":"一期一会","lon":"121.497397054","lat":"31.303044793","category":"95","category_name":"日本料理","address":"杨浦区武东路38号(近复旦大学北门)"},{"poiid":"B2094750D56EA1FA4699","title":"阿吉特韩式家庭料理","lon":"121.492698","lat":"31.301237","category":"247","category_name":"餐饮美食","address":"学府街116号"},{"poiid":"B2094654D56DA3FC479D","title":"榕辉大厦","lon":"121.495","lat":"31.2983","category":"46","category_name":"楼宇","address":"松江区工业区鼎源路广富林路路口"},{"poiid":"B2094654D56CAAF44799","title":"荣振大厦","lon":"121.492","lat":"31.3019","category":"46","category_name":"楼宇","address":"松江区工业区鼎源路广富林路路口"},{"poiid":"B2094654D56DA3F8419B","title":"五角场街道社区卫生服务中心","lon":"121.49249","lat":"31.29912","category":"162","category_name":"医院","address":"杨浦区政化路269号(近国顺路)"},{"poiid":"B2094757D068A1F4419D","title":"新新潘晓婷撞球俱乐部(财大店)","lon":"121.49138","lat":"31.30397","category":"500","category_name":"未知分类","address":"杨浦区武东路311号3楼(近吉浦路)"},{"poiid":"B2094753D76AA5FC459D","title":"ZepHyr","lon":"121.493757","lat":"31.301049","category":"256","category_name":"外国餐厅","address":"上海市杨浦区学府街65号(近武川路)"},{"poiid":"B2094757D06BA4F54299","title":"SPR咖啡(学府街店)","lon":"121.49414","lat":"31.30075","category":"65","category_name":"咖啡厅","address":"杨浦区学府街65号(近上海财经大学)"},{"poiid":"B2094654D56DA3FF4993","title":"复旦大学留学生公寓","lon":"121.49571","lat":"31.30254","category":"47","category_name":"住宅区","address":"上海杨浦区邯郸路220号复旦大学邯郸校区"},{"poiid":"B2094757D164A4F84399","title":"比比客 学府店 BBQ","lon":"121.49294337235","lat":"31.301815338067","category":"68","category_name":"快餐厅","address":"杨浦区学府路112号(近纪念路)"},{"poiid":"B2094750DA6EA2FC479F","title":"财大武东校区","lon":"121.490539","lat":"31.303375","category":"253","category_name":"校园生活","address":"武东路321号"},{"poiid":"B2094752D265AAF8459B","title":"coffee time","lon":"121.492752","lat":"31.301102","category":"247","category_name":"餐饮美食","address":"杨浦区学府路86号"},{"poiid":"B2094757D068A1F44892","title":"安吉二手车交易市场","lon":"121.491119","lat":"31.299354","category":"158","category_name":"汽车销售","address":"上海杨浦区纪念路5号"},{"poiid":"B2094757D16AA3F44498","title":"韩阳烧烤店","lon":"121.4938261","lat":"31.300893059","category":"247","category_name":"餐饮美食","address":"上海市杨浦区武川路学府街66-68"},{"poiid":"B2094654D56DA3F8419E","title":"小辣椒川菜馆(纪念路)","lon":"121.49205","lat":"31.29906","category":"71","category_name":"四川菜","address":"杨浦区纪念路(近武川路)"},{"poiid":"B2094654D56CABF4489F","title":"金垚","lon":"121.4937","lat":"31.30083","category":"95","category_name":"日本料理","address":"学府路64"},{"poiid":"B2094753D36CA7FB4898","title":"Zephyr,Cafe赛弗咖啡","lon":"121.493757","lat":"31.301049","category":"94","category_name":"西餐厅","address":"武川路学府路65号"},{"poiid":"B2094654D56CABF4489D","title":"家庭练歌厅","lon":"121.49407","lat":"31.30099","category":"170","category_name":"KTV","address":""},{"poiid":"B2094654DB6AAAF4419A","title":"好德便利No.886","lon":"121.49315","lat":"31.30097","category":"117","category_name":"便民商店/便利店","address":"学府路84-86"},{"poiid":"B2094654D56CABF4489A","title":"快客(文化花园西南)","lon":"121.49282","lat":"31.30091","category":"117","category_name":"便民商店/便利店","address":"学府路90"},{"poiid":"B2094757D464A7FB489A","title":"夏朵德蕾","lon":"121.49966","lat":"31.30171","category":"67","category_name":"甜品店","address":"杨浦区武东路28弄1号楼(近复旦北区后门)"},{"poiid":"B2094654D56CAAFE459A","title":"Billard Club","lon":"121.4942","lat":"31.30125","category":"96","category_name":"韩国料理","address":"武川路49号2层-2"},{"poiid":"B2094757D06AAAF44793","title":"复旦大学网络学院","lon":"121.49279206","lat":"31.299213794","category":"500","category_name":"未知分类","address":"上海邯郸路98号"},{"poiid":"B2094654DB69AAFD4999","title":"五角场医院","lon":"121.49248","lat":"31.29917","category":"162","category_name":"医院","address":"杨浦区纪念路100号"},{"poiid":"B2094655D26AA4FD4399","title":"复旦北门黑暗料理","lon":"121.49728","lat":"31.30215","category":"68","category_name":"快餐厅","address":"杨浦区武东路57号"},{"poiid":"B2094654D56CAAFE4599","title":"RAINBOW BAR","lon":"121.49385","lat":"31.30046","category":"172","category_name":"酒吧","address":"武川路11号"},{"poiid":"B2094655D26AABF44092","title":"复旦大学北区学生餐厅","lon":"121.49732","lat":"31.30214","category":"68","category_name":"快餐厅","address":"杨浦区武东路57号复旦大学北区学生宿舍(武川路武东路)"},{"poiid":"B2094757D66BA3F44992","title":"原味湘菜馆","lon":"121.4950477","lat":"31.3031112","category":"77","category_name":"湖南菜","address":"杨浦区武东路(近武川路)"},{"poiid":"B2094654D56CABF5409E","title":"力宏造型","lon":"121.49151","lat":"31.30177","category":"148","category_name":"美容美发店","address":"学府街137"},{"poiid":"B2094753D465A4F54792","title":"唐苑炙子","lon":"121.493568","lat":"31.300928","category":"500","category_name":"未知分类","address":"上海市 学府街70-76号"},{"poiid":"B2094757D06FA1FF459F","title":"郑阿姨的家","lon":"121.4948311","lat":"31.300688055","category":"96","category_name":"韩国料理","address":"杨浦区武川路13号(近武东路)"},{"poiid":"B2094757D06FA3FA499C","title":"长白山韩国烧烤店(武川总店)","lon":"121.49485","lat":"31.30224","category":"96","category_name":"韩国料理","address":"杨浦区武川路47号(近武东路)"},{"poiid":"B2094757D06FA1FB469E","title":"复旦大学北区学生公寓","lon":"121.49717156","lat":"31.300906941","category":"253","category_name":"校园生活","address":"上海杨浦区邯郸路220号复旦大学邯郸校区"},{"poiid":"B2094654DB65A6F5469F","title":"Ing韩国料理","lon":"121.49424","lat":"31.30133","category":"96","category_name":"韩国料理","address":"杨浦区武川路49号1楼(近纪念路)"},{"poiid":"B2094757D16CA1FA499F","title":"Helen's酒吧","lon":"121.49433494","lat":"31.301696696","category":"172","category_name":"酒吧","address":"上海杨浦区武川路51号"},{"poiid":"B2094757D06FA7FE419D","title":"釜山火炉","lon":"121.49385","lat":"31.30046","category":"96","category_name":"韩国料理","address":"杨浦区武川路11号(近纪念路)"},{"poiid":"B2094757D06FA3F8429E","title":"上海财经大学图书馆","lon":"121.49477791","lat":"31.303851515","category":"253","category_name":"校园生活","address":"上海市杨浦区武川路111号上海财经大学内"},{"poiid":"B2094757D068A4FA4993","title":"上海财大豪生大酒店","lon":"121.491975103","lat":"31.3046381377","category":"217","category_name":"旅馆招待所","address":"上海市杨浦区武东路188号"},{"poiid":"B2094757D66BA3FC4999","title":"半岛酒楼 逸仙店","lon":"121.487890054","lat":"31.300092793","category":"76","category_name":"上海菜","address":"虹口区逸仙路519号(近仁德路)"},{"poiid":"B2094757D068A5FC479A","title":"Ricco Cafe","lon":"121.495382","lat":"31.304011","category":"260","category_name":"其他","address":"杨浦区武川路107号(近武东路)"},{"poiid":"B2094655D26FA2FB469E","title":"复旦大学网络教育学院","lon":"121.49413","lat":"31.29479","category":"671","category_name":"高校中心点","address":"上海杨浦区邯郸路96号"},{"poiid":"B2094757D068A4FB409D","title":"柏树大厦","lon":"121.495","lat":"31.2965","category":"46","category_name":"楼宇","address":"上海市虹口区中山北一路1230号"},{"poiid":"B2094654D56CABF5409A","title":"文化花园","lon":"121.49307","lat":"31.302458","category":"47","category_name":"住宅区","address":"上海武川路75弄"},{"poiid":"B2094654D56DA3FF499D","title":"复旦大学北苑学生生活园区","lon":"121.49686","lat":"31.30193","category":"47","category_name":"住宅区","address":"武东路57号"},{"poiid":"B2094757D164A5FA449B","title":"宁国府","lon":"121.48960089","lat":"31.304209778","category":"76","category_name":"上海菜","address":"杨浦区吉浦路309号(近武东路)"},{"poiid":"B2094654D56DA7F8409E","title":"沪办大厦","lon":"121.496","lat":"31.2975","category":"46","category_name":"楼宇","address":"沈河北站路与北京街的交汇处"},{"poiid":"B2094751D36FA1FC489F","title":"Helens Bar","lon":"121.49422","lat":"31.3013","category":"247","category_name":"餐饮美食","address":"杨浦区武川路49号2楼(近武东路)"},{"poiid":"B2094654D56CABF4489C","title":"新疆烧烤王学府街店","lon":"121.49375","lat":"31.30082","category":"68","category_name":"快餐厅","address":"杨浦区学府街76号(近武川路)"},{"poiid":"B2094757D064A5F84398","title":"三湘世纪花城","lon":"121.49545951341","lat":"31.305311026976","category":"500","category_name":"未知分类","address":"上海市纪念路289弄"},{"poiid":"B2094654D56DA3FD4492","title":"三九大厦","lon":"121.49155","lat":"31.297284","category":"46","category_name":"楼宇","address":"上海市虹口区汶水东路181弄1～2号"},{"poiid":"B2094757D469A5FA419C","title":"一期一会","lon":"121.497397054","lat":"31.303044793","category":"95","category_name":"日本料理","address":"杨浦区武东路38号(近复旦大学北门)"},{"poiid":"B2094750D56EA1FA4699","title":"阿吉特韩式家庭料理","lon":"121.492698","lat":"31.301237","category":"247","category_name":"餐饮美食","address":"学府街116号"},{"poiid":"B2094654D56DA3FC479D","title":"榕辉大厦","lon":"121.495","lat":"31.2983","category":"46","category_name":"楼宇","address":"松江区工业区鼎源路广富林路路口"},{"poiid":"B2094654D56CAAF44799","title":"荣振大厦","lon":"121.492","lat":"31.3019","category":"46","category_name":"楼宇","address":"松江区工业区鼎源路广富林路路口"},{"poiid":"B2094654D56DA3F8419B","title":"五角场街道社区卫生服务中心","lon":"121.49249","lat":"31.29912","category":"162","category_name":"医院","address":"杨浦区政化路269号(近国顺路)"},{"poiid":"B2094757D068A1F4419D","title":"新新潘晓婷撞球俱乐部(财大店)","lon":"121.49138","lat":"31.30397","category":"500","category_name":"未知分类","address":"杨浦区武东路311号3楼(近吉浦路)"},{"poiid":"B2094753D76AA5FC459D","title":"ZepHyr","lon":"121.493757","lat":"31.301049","category":"256","category_name":"外国餐厅","address":"上海市杨浦区学府街65号(近武川路)"},{"poiid":"B2094757D06BA4F54299","title":"SPR咖啡(学府街店)","lon":"121.49414","lat":"31.30075","category":"65","category_name":"咖啡厅","address":"杨浦区学府街65号(近上海财经大学)"},{"poiid":"B2094654D56DA3FF4993","title":"复旦大学留学生公寓","lon":"121.49571","lat":"31.30254","category":"47","category_name":"住宅区","address":"上海杨浦区邯郸路220号复旦大学邯郸校区"},{"poiid":"B2094757D164A4F84399","title":"比比客 学府店 BBQ","lon":"121.49294337235","lat":"31.301815338067","category":"68","category_name":"快餐厅","address":"杨浦区学府路112号(近纪念路)"},{"poiid":"B2094750DA6EA2FC479F","title":"财大武东校区","lon":"121.490539","lat":"31.303375","category":"253","category_name":"校园生活","address":"武东路321号"},{"poiid":"B2094752D265AAF8459B","title":"coffee time","lon":"121.492752","lat":"31.301102","category":"247","category_name":"餐饮美食","address":"杨浦区学府路86号"},{"poiid":"B2094757D068A1F44892","title":"安吉二手车交易市场","lon":"121.491119","lat":"31.299354","category":"158","category_name":"汽车销售","address":"上海杨浦区纪念路5号"},{"poiid":"B2094757D16AA3F44498","title":"韩阳烧烤店","lon":"121.4938261","lat":"31.300893059","category":"247","category_name":"餐饮美食","address":"上海市杨浦区武川路学府街66-68"},{"poiid":"B2094654D56DA3F8419E","title":"小辣椒川菜馆(纪念路)","lon":"121.49205","lat":"31.29906","category":"71","category_name":"四川菜","address":"杨浦区纪念路(近武川路)"},{"poiid":"B2094654D56CABF4489F","title":"金垚","lon":"121.4937","lat":"31.30083","category":"95","category_name":"日本料理","address":"学府路64"},{"poiid":"B2094753D36CA7FB4898","title":"Zephyr,Cafe赛弗咖啡","lon":"121.493757","lat":"31.301049","category":"94","category_name":"西餐厅","address":"武川路学府路65号"},{"poiid":"B2094654D56CABF4489D","title":"家庭练歌厅","lon":"121.49407","lat":"31.30099","category":"170","category_name":"KTV","address":""},{"poiid":"B2094654DB6AAAF4419A","title":"好德便利No.886","lon":"121.49315","lat":"31.30097","category":"117","category_name":"便民商店/便利店","address":"学府路84-86"},{"poiid":"B2094654D56CABF4489A","title":"快客(文化花园西南)","lon":"121.49282","lat":"31.30091","category":"117","category_name":"便民商店/便利店","address":"学府路90"},{"poiid":"B2094757D464A7FB489A","title":"夏朵德蕾","lon":"121.49966","lat":"31.30171","category":"67","category_name":"甜品店","address":"杨浦区武东路28弄1号楼(近复旦北区后门)"},{"poiid":"B2094654D56CAAFE459A","title":"Billard Club","lon":"121.4942","lat":"31.30125","category":"96","category_name":"韩国料理","address":"武川路49号2层-2"},{"poiid":"B2094757D06AAAF44793","title":"复旦大学网络学院","lon":"121.49279206","lat":"31.299213794","category":"500","category_name":"未知分类","address":"上海邯郸路98号"},{"poiid":"B2094654DB69AAFD4999","title":"五角场医院","lon":"121.49248","lat":"31.29917","category":"162","category_name":"医院","address":"杨浦区纪念路100号"},{"poiid":"B2094655D26AA4FD4399","title":"复旦北门黑暗料理","lon":"121.49728","lat":"31.30215","category":"68","category_name":"快餐厅","address":"杨浦区武东路57号"},{"poiid":"B2094654D56CAAFE4599","title":"RAINBOW BAR","lon":"121.49385","lat":"31.30046","category":"172","category_name":"酒吧","address":"武川路11号"},{"poiid":"B2094655D26AABF44092","title":"复旦大学北区学生餐厅","lon":"121.49732","lat":"31.30214","category":"68","category_name":"快餐厅","address":"杨浦区武东路57号复旦大学北区学生宿舍(武川路武东路)"},{"poiid":"B2094757D66BA3F44992","title":"原味湘菜馆","lon":"121.4950477","lat":"31.3031112","category":"77","category_name":"湖南菜","address":"杨浦区武东路(近武川路)"},{"poiid":"B2094654D56CABF5409E","title":"力宏造型","lon":"121.49151","lat":"31.30177","category":"148","category_name":"美容美发店","address":"学府街137"},{"poiid":"B2094753D465A4F54792","title":"唐苑炙子","lon":"121.493568","lat":"31.300928","category":"500","category_name":"未知分类","address":"上海市 学府街70-76号"},{"poiid":"B2094757D06FA1FF459F","title":"郑阿姨的家","lon":"121.4948311","lat":"31.300688055","category":"96","category_name":"韩国料理","address":"杨浦区武川路13号(近武东路)"},{"poiid":"B2094757D06FA3FA499C","title":"长白山韩国烧烤店(武川总店)","lon":"121.49485","lat":"31.30224","category":"96","category_name":"韩国料理","address":"杨浦区武川路47号(近武东路)"},{"poiid":"B2094757D06FA1FB469E","title":"复旦大学北区学生公寓","lon":"121.49717156","lat":"31.300906941","category":"253","category_name":"校园生活","address":"上海杨浦区邯郸路220号复旦大学邯郸校区"},{"poiid":"B2094654DB65A6F5469F","title":"Ing韩国料理","lon":"121.49424","lat":"31.30133","category":"96","category_name":"韩国料理","address":"杨浦区武川路49号1楼(近纪念路)"},{"poiid":"B2094757D16CA1FA499F","title":"Helen's酒吧","lon":"121.49433494","lat":"31.301696696","category":"172","category_name":"酒吧","address":"上海杨浦区武川路51号"},{"poiid":"B2094757D06FA7FE419D","title":"釜山火炉","lon":"121.49385","lat":"31.30046","category":"96","category_name":"韩国料理","address":"杨浦区武川路11号(近纪念路)"},{"poiid":"B2094757D06FA3F8429E","title":"上海财经大学图书馆","lon":"121.49477791","lat":"31.303851515","category":"253","category_name":"校园生活","address":"上海市杨浦区武川路111号上海财经大学内"},{"poiid":"B2094757D068A4FA4993","title":"上海财大豪生大酒店","lon":"121.491975103","lat":"31.3046381377","category":"217","category_name":"旅馆招待所","address":"上海市杨浦区武东路188号"},{"poiid":"B2094757D66BA3FC4999","title":"半岛酒楼 逸仙店","lon":"121.487890054","lat":"31.300092793","category":"76","category_name":"上海菜","address":"虹口区逸仙路519号(近仁德路)"},{"poiid":"B2094757D068A5FC479A","title":"Ricco Cafe","lon":"121.495382","lat":"31.304011","category":"260","category_name":"其他","address":"杨浦区武川路107号(近武东路)"},{"poiid":"B2094655D26FA2FB469E","title":"复旦大学网络教育学院","lon":"121.49413","lat":"31.29479","category":"671","category_name":"高校中心点","address":"上海杨浦区邯郸路96号"},{"poiid":"B2094757D068A4FB409D","title":"柏树大厦","lon":"121.495","lat":"31.2965","category":"46","category_name":"楼宇","address":"上海市虹口区中山北一路1230号"},{"poiid":"B2094654D56CABF5409A","title":"文化花园","lon":"121.49307","lat":"31.302458","category":"47","category_name":"住宅区","address":"上海武川路75弄"},{"poiid":"B2094654D56DA3FF499D","title":"复旦大学北苑学生生活园区","lon":"121.49686","lat":"31.30193","category":"47","category_name":"住宅区","address":"武东路57号"},{"poiid":"B2094757D164A5FA449B","title":"宁国府","lon":"121.48960089","lat":"31.304209778","category":"76","category_name":"上海菜","address":"杨浦区吉浦路309号(近武东路)"},{"poiid":"B2094654D56DA7F8409E","title":"沪办大厦","lon":"121.496","lat":"31.2975","category":"46","category_name":"楼宇","address":"沈河北站路与北京街的交汇处"},{"poiid":"B2094751D36FA1FC489F","title":"Helens Bar","lon":"121.49422","lat":"31.3013","category":"247","category_name":"餐饮美食","address":"杨浦区武川路49号2楼(近武东路)"},{"poiid":"B2094654D56CABF4489C","title":"新疆烧烤王学府街店","lon":"121.49375","lat":"31.30082","category":"68","category_name":"快餐厅","address":"杨浦区学府街76号(近武川路)"},{"poiid":"B2094757D064A5F84398","title":"三湘世纪花城","lon":"121.49545951341","lat":"31.305311026976","category":"500","category_name":"未知分类","address":"上海市纪念路289弄"},{"poiid":"B2094654D56DA3FD4492","title":"三九大厦","lon":"121.49155","lat":"31.297284","category":"46","category_name":"楼宇","address":"上海市虹口区汶水东路181弄1～2号"},{"poiid":"B2094757D469A5FA419C","title":"一期一会","lon":"121.497397054","lat":"31.303044793","category":"95","category_name":"日本料理","address":"杨浦区武东路38号(近复旦大学北门)"},{"poiid":"B2094750D56EA1FA4699","title":"阿吉特韩式家庭料理","lon":"121.492698","lat":"31.301237","category":"247","category_name":"餐饮美食","address":"学府街116号"},{"poiid":"B2094654D56DA3FC479D","title":"榕辉大厦","lon":"121.495","lat":"31.2983","category":"46","category_name":"楼宇","address":"松江区工业区鼎源路广富林路路口"},{"poiid":"B2094654D56CAAF44799","title":"荣振大厦","lon":"121.492","lat":"31.3019","category":"46","category_name":"楼宇","address":"松江区工业区鼎源路广富林路路口"},{"poiid":"B2094654D56DA3F8419B","title":"五角场街道社区卫生服务中心","lon":"121.49249","lat":"31.29912","category":"162","category_name":"医院","address":"杨浦区政化路269号(近国顺路)"},{"poiid":"B2094757D068A1F4419D","title":"新新潘晓婷撞球俱乐部(财大店)","lon":"121.49138","lat":"31.30397","category":"500","category_name":"未知分类","address":"杨浦区武东路311号3楼(近吉浦路)"},{"poiid":"B2094753D76AA5FC459D","title":"ZepHyr","lon":"121.493757","lat":"31.301049","category":"256","category_name":"外国餐厅","address":"上海市杨浦区学府街65号(近武川路)"},{"poiid":"B2094757D06BA4F54299","title":"SPR咖啡(学府街店)","lon":"121.49414","lat":"31.30075","category":"65","category_name":"咖啡厅","address":"杨浦区学府街65号(近上海财经大学)"},{"poiid":"B2094654D56DA3FF4993","title":"复旦大学留学生公寓","lon":"121.49571","lat":"31.30254","category":"47","category_name":"住宅区","address":"上海杨浦区邯郸路220号复旦大学邯郸校区"},{"poiid":"B2094757D164A4F84399","title":"比比客 学府店 BBQ","lon":"121.49294337235","lat":"31.301815338067","category":"68","category_name":"快餐厅","address":"杨浦区学府路112号(近纪念路)"},{"poiid":"B2094750DA6EA2FC479F","title":"财大武东校区","lon":"121.490539","lat":"31.303375","category":"253","category_name":"校园生活","address":"武东路321号"},{"poiid":"B2094752D265AAF8459B","title":"coffee time","lon":"121.492752","lat":"31.301102","category":"247","category_name":"餐饮美食","address":"杨浦区学府路86号"},{"poiid":"B2094757D068A1F44892","title":"安吉二手车交易市场","lon":"121.491119","lat":"31.299354","category":"158","category_name":"汽车销售","address":"上海杨浦区纪念路5号"},{"poiid":"B2094757D16AA3F44498","title":"韩阳烧烤店","lon":"121.4938261","lat":"31.300893059","category":"247","category_name":"餐饮美食","address":"上海市杨浦区武川路学府街66-68"},{"poiid":"B2094654D56DA3F8419E","title":"小辣椒川菜馆(纪念路)","lon":"121.49205","lat":"31.29906","category":"71","category_name":"四川菜","address":"杨浦区纪念路(近武川路)"},{"poiid":"B2094654D56CABF4489F","title":"金垚","lon":"121.4937","lat":"31.30083","category":"95","category_name":"日本料理","address":"学府路64"},{"poiid":"B2094753D36CA7FB4898","title":"Zephyr,Cafe赛弗咖啡","lon":"121.493757","lat":"31.301049","category":"94","category_name":"西餐厅","address":"武川路学府路65号"},{"poiid":"B2094654D56CABF4489D","title":"家庭练歌厅","lon":"121.49407","lat":"31.30099","category":"170","category_name":"KTV","address":""},{"poiid":"B2094654DB6AAAF4419A","title":"好德便利No.886","lon":"121.49315","lat":"31.30097","category":"117","category_name":"便民商店/便利店","address":"学府路84-86"},{"poiid":"B2094654D56CABF4489A","title":"快客(文化花园西南)","lon":"121.49282","lat":"31.30091","category":"117","category_name":"便民商店/便利店","address":"学府路90"},{"poiid":"B2094757D464A7FB489A","title":"夏朵德蕾","lon":"121.49966","lat":"31.30171","category":"67","category_name":"甜品店","address":"杨浦区武东路28弄1号楼(近复旦北区后门)"},{"poiid":"B2094654D56CAAFE459A","title":"Billard Club","lon":"121.4942","lat":"31.30125","category":"96","category_name":"韩国料理","address":"武川路49号2层-2"},{"poiid":"B2094757D06AAAF44793","title":"复旦大学网络学院","lon":"121.49279206","lat":"31.299213794","category":"500","category_name":"未知分类","address":"上海邯郸路98号"},{"poiid":"B2094654DB69AAFD4999","title":"五角场医院","lon":"121.49248","lat":"31.29917","category":"162","category_name":"医院","address":"杨浦区纪念路100号"},{"poiid":"B2094655D26AA4FD4399","title":"复旦北门黑暗料理","lon":"121.49728","lat":"31.30215","category":"68","category_name":"快餐厅","address":"杨浦区武东路57号"},{"poiid":"B2094654D56CAAFE4599","title":"RAINBOW BAR","lon":"121.49385","lat":"31.30046","category":"172","category_name":"酒吧","address":"武川路11号"},{"poiid":"B2094655D26AABF44092","title":"复旦大学北区学生餐厅","lon":"121.49732","lat":"31.30214","category":"68","category_name":"快餐厅","address":"杨浦区武东路57号复旦大学北区学生宿舍(武川路武东路)"},{"poiid":"B2094757D66BA3F44992","title":"原味湘菜馆","lon":"121.4950477","lat":"31.3031112","category":"77","category_name":"湖南菜","address":"杨浦区武东路(近武川路)"},{"poiid":"B2094654D56CABF5409E","title":"力宏造型","lon":"121.49151","lat":"31.30177","category":"148","category_name":"美容美发店","address":"学府街137"},{"poiid":"B2094753D465A4F54792","title":"唐苑炙子","lon":"121.493568","lat":"31.300928","category":"500","category_name":"未知分类","address":"上海市 学府街70-76号"},{"poiid":"B2094757D06FA1FF459F","title":"郑阿姨的家","lon":"121.4948311","lat":"31.300688055","category":"96","category_name":"韩国料理","address":"杨浦区武川路13号(近武东路)"},{"poiid":"B2094757D06FA3FA499C","title":"长白山韩国烧烤店(武川总店)","lon":"121.49485","lat":"31.30224","category":"96","category_name":"韩国料理","address":"杨浦区武川路47号(近武东路)"},{"poiid":"B2094757D06FA1FB469E","title":"复旦大学北区学生公寓","lon":"121.49717156","lat":"31.300906941","category":"253","category_name":"校园生活","address":"上海杨浦区邯郸路220号复旦大学邯郸校区"},{"poiid":"B2094654DB65A6F5469F","title":"Ing韩国料理","lon":"121.49424","lat":"31.30133","category":"96","category_name":"韩国料理","address":"杨浦区武川路49号1楼(近纪念路)"},{"poiid":"B2094757D16CA1FA499F","title":"Helen's酒吧","lon":"121.49433494","lat":"31.301696696","category":"172","category_name":"酒吧","address":"上海杨浦区武川路51号"},{"poiid":"B2094757D06FA7FE419D","title":"釜山火炉","lon":"121.49385","lat":"31.30046","category":"96","category_name":"韩国料理","address":"杨浦区武川路11号(近纪念路)"},{"poiid":"B2094757D06FA3F8429E","title":"上海财经大学图书馆","lon":"121.49477791","lat":"31.303851515","category":"253","category_name":"校园生活","address":"上海市杨浦区武川路111号上海财经大学内"},{"poiid":"B2094757D068A4FA4993","title":"上海财大豪生大酒店","lon":"121.491975103","lat":"31.3046381377","category":"217","category_name":"旅馆招待所","address":"上海市杨浦区武东路188号"},{"poiid":"B2094757D66BA3FC4999","title":"半岛酒楼 逸仙店","lon":"121.487890054","lat":"31.300092793","category":"76","category_name":"上海菜","address":"虹口区逸仙路519号(近仁德路)"},{"poiid":"B2094757D068A5FC479A","title":"Ricco Cafe","lon":"121.495382","lat":"31.304011","category":"260","category_name":"其他","address":"杨浦区武川路107号(近武东路)"},{"poiid":"B2094655D26FA2FB469E","title":"复旦大学网络教育学院","lon":"121.49413","lat":"31.29479","category":"671","category_name":"高校中心点","address":"上海杨浦区邯郸路96号"},{"poiid":"B2094757D068A4FB409D","title":"柏树大厦","lon":"121.495","lat":"31.2965","category":"46","category_name":"楼宇","address":"上海市虹口区中山北一路1230号"},{"poiid":"B2094654D56CABF5409A","title":"文化花园","lon":"121.49307","lat":"31.302458","category":"47","category_name":"住宅区","address":"上海武川路75弄"},{"poiid":"B2094654D56DA3FF499D","title":"复旦大学北苑学生生活园区","lon":"121.49686","lat":"31.30193","category":"47","category_name":"住宅区","address":"武东路57号"},{"poiid":"B2094757D164A5FA449B","title":"宁国府","lon":"121.48960089","lat":"31.304209778","category":"76","category_name":"上海菜","address":"杨浦区吉浦路309号(近武东路)"},{"poiid":"B2094654D56DA7F8409E","title":"沪办大厦","lon":"121.496","lat":"31.2975","category":"46","category_name":"楼宇","address":"沈河北站路与北京街的交汇处"},{"poiid":"B2094751D36FA1FC489F","title":"Helens Bar","lon":"121.49422","lat":"31.3013","category":"247","category_name":"餐饮美食","address":"杨浦区武川路49号2楼(近武东路)"},{"poiid":"B2094654D56CABF4489C","title":"新疆烧烤王学府街店","lon":"121.49375","lat":"31.30082","category":"68","category_name":"快餐厅","address":"杨浦区学府街76号(近武川路)"},{"poiid":"B2094757D064A5F84398","title":"三湘世纪花城","lon":"121.49545951341","lat":"31.305311026976","category":"500","category_name":"未知分类","address":"上海市纪念路289弄"},{"poiid":"B2094654D56DA3FD4492","title":"三九大厦","lon":"121.49155","lat":"31.297284","category":"46","category_name":"楼宇","address":"上海市虹口区汶水东路181弄1～2号"},{"poiid":"B2094757D469A5FA419C","title":"一期一会","lon":"121.497397054","lat":"31.303044793","category":"95","category_name":"日本料理","address":"杨浦区武东路38号(近复旦大学北门)"},{"poiid":"B2094750D56EA1FA4699","title":"阿吉特韩式家庭料理","lon":"121.492698","lat":"31.301237","category":"247","category_name":"餐饮美食","address":"学府街116号"},{"poiid":"B2094654D56DA3FC479D","title":"榕辉大厦","lon":"121.495","lat":"31.2983","category":"46","category_name":"楼宇","address":"松江区工业区鼎源路广富林路路口"},{"poiid":"B2094654D56CAAF44799","title":"荣振大厦","lon":"121.492","lat":"31.3019","category":"46","category_name":"楼宇","address":"松江区工业区鼎源路广富林路路口"},{"poiid":"B2094654D56DA3F8419B","title":"五角场街道社区卫生服务中心","lon":"121.49249","lat":"31.29912","category":"162","category_name":"医院","address":"杨浦区政化路269号(近国顺路)"},{"poiid":"B2094757D068A1F4419D","title":"新新潘晓婷撞球俱乐部(财大店)","lon":"121.49138","lat":"31.30397","category":"500","category_name":"未知分类","address":"杨浦区武东路311号3楼(近吉浦路)"},{"poiid":"B2094753D76AA5FC459D","title":"ZepHyr","lon":"121.493757","lat":"31.301049","category":"256","category_name":"外国餐厅","address":"上海市杨浦区学府街65号(近武川路)"},{"poiid":"B2094757D06BA4F54299","title":"SPR咖啡(学府街店)","lon":"121.49414","lat":"31.30075","category":"65","category_name":"咖啡厅","address":"杨浦区学府街65号(近上海财经大学)"},{"poiid":"B2094654D56DA3FF4993","title":"复旦大学留学生公寓","lon":"121.49571","lat":"31.30254","category":"47","category_name":"住宅区","address":"上海杨浦区邯郸路220号复旦大学邯郸校区"},{"poiid":"B2094757D164A4F84399","title":"比比客 学府店 BBQ","lon":"121.49294337235","lat":"31.301815338067","category":"68","category_name":"快餐厅","address":"杨浦区学府路112号(近纪念路)"},{"poiid":"B2094750DA6EA2FC479F","title":"财大武东校区","lon":"121.490539","lat":"31.303375","category":"253","category_name":"校园生活","address":"武东路321号"},{"poiid":"B2094752D265AAF8459B","title":"coffee time","lon":"121.492752","lat":"31.301102","category":"247","category_name":"餐饮美食","address":"杨浦区学府路86号"},{"poiid":"B2094757D068A1F44892","title":"安吉二手车交易市场","lon":"121.491119","lat":"31.299354","category":"158","category_name":"汽车销售","address":"上海杨浦区纪念路5号"},{"poiid":"B2094757D16AA3F44498","title":"韩阳烧烤店","lon":"121.4938261","lat":"31.300893059","category":"247","category_name":"餐饮美食","address":"上海市杨浦区武川路学府街66-68"},{"poiid":"B2094654D56DA3F8419E","title":"小辣椒川菜馆(纪念路)","lon":"121.49205","lat":"31.29906","category":"71","category_name":"四川菜","address":"杨浦区纪念路(近武川路)"},{"poiid":"B2094654D56CABF4489F","title":"金垚","lon":"121.4937","lat":"31.30083","category":"95","category_name":"日本料理","address":"学府路64"},{"poiid":"B2094753D36CA7FB4898","title":"Zephyr,Cafe赛弗咖啡","lon":"121.493757","lat":"31.301049","category":"94","category_name":"西餐厅","address":"武川路学府路65号"},{"poiid":"B2094654D56CABF4489D","title":"家庭练歌厅","lon":"121.49407","lat":"31.30099","category":"170","category_name":"KTV","address":""},{"poiid":"B2094654DB6AAAF4419A","title":"好德便利No.886","lon":"121.49315","lat":"31.30097","category":"117","category_name":"便民商店/便利店","address":"学府路84-86"},{"poiid":"B2094654D56CABF4489A","title":"快客(文化花园西南)","lon":"121.49282","lat":"31.30091","category":"117","category_name":"便民商店/便利店","address":"学府路90"},{"poiid":"B2094757D464A7FB489A","title":"夏朵德蕾","lon":"121.49966","lat":"31.30171","category":"67","category_name":"甜品店","address":"杨浦区武东路28弄1号楼(近复旦北区后门)"},{"poiid":"B2094654D56CAAFE459A","title":"Billard Club","lon":"121.4942","lat":"31.30125","category":"96","category_name":"韩国料理","address":"武川路49号2层-2"},{"poiid":"B2094757D06AAAF44793","title":"复旦大学网络学院","lon":"121.49279206","lat":"31.299213794","category":"500","category_name":"未知分类","address":"上海邯郸路98号"},{"poiid":"B2094654DB69AAFD4999","title":"五角场医院","lon":"121.49248","lat":"31.29917","category":"162","category_name":"医院","address":"杨浦区纪念路100号"},{"poiid":"B2094655D26AA4FD4399","title":"复旦北门黑暗料理","lon":"121.49728","lat":"31.30215","category":"68","category_name":"快餐厅","address":"杨浦区武东路57号"},{"poiid":"B2094654D56CAAFE4599","title":"RAINBOW BAR","lon":"121.49385","lat":"31.30046","category":"172","category_name":"酒吧","address":"武川路11号"},{"poiid":"B2094655D26AABF44092","title":"复旦大学北区学生餐厅","lon":"121.49732","lat":"31.30214","category":"68","category_name":"快餐厅","address":"杨浦区武东路57号复旦大学北区学生宿舍(武川路武东路)"},{"poiid":"B2094757D66BA3F44992","title":"原味湘菜馆","lon":"121.4950477","lat":"31.3031112","category":"77","category_name":"湖南菜","address":"杨浦区武东路(近武川路)"},{"poiid":"B2094654D56CABF5409E","title":"力宏造型","lon":"121.49151","lat":"31.30177","category":"148","category_name":"美容美发店","address":"学府街137"},{"poiid":"B2094753D465A4F54792","title":"唐苑炙子","lon":"121.493568","lat":"31.300928","category":"500","category_name":"未知分类","address":"上海市 学府街70-76号"}]