[{"poiid":"B2094654DB64A3F9429C","title":"上海浦东软件园(郭守敬路)","lon":"121.59803","lat":"31.2104","category":"45","category_name":"产业园区","address":"上海浦东新区郭守敬路498号"},{"poiid":"B2094757D06FA3F8479A","title":"上海德国中心","lon":"121.586903","lat":"31.211596","category":"46","category_name":"楼宇","address":"浦东新区科苑路88号德国中心"},{"poiid":"B2094757D06FA2F5449B","title":"张江创新园","lon":"121.59543194719","lat":"31.210169439571","category":"46","category_name":"楼宇","address":"上海市虹口区四川北路1318号"},{"poiid":"B2094757D06EAAFE489D","title":"金科路地铁站","lon":"121.60199942","lat":"31.204334926","category":"36","category_name":"地铁站","address":"上海轨道交通,二号线,轨交金科路站,2"},{"poiid":"B2094757D068A3FE4292","title":"罗氏制药","lon":"121.595334109","lat":"31.2138314147","category":"46","category_name":"楼宇","address":"上海浦东新区龙东大道1100号"},{"poiid":"B2094654DA6AA7F54699","title":"上海张江高科技园区","lon":"121.58762","lat":"31.21184","category":"45","category_name":"产业园区","address":"浦东新区科苑路399号"},{"poiid":"B2094757D06FAAF5429D","title":"汤臣豪园二期","lon":"121.5911142171","lat":"31.215546554135","category":"47","category_name":"住宅区","address":"上海晨晖路825弄"},{"poiid":"B2094757D068A0F4499E","title":"惠普全球软件服务中心","lon":"121.60092563","lat":"31.212782197","category":"500","category_name":"未知分类","address":"上海金科路2557号"},{"poiid":"B2094757D06FA7FF419D","title":"索尼中国上海技术中心","lon":"121.597466469","lat":"31.2065818267","category":"46","category_name":"楼宇","address":"上海浦东居里路361号"},{"poiid":"B2094654DA6AA5F44098","title":"上海市张江高科技园区","lon":"121.59851","lat":"31.21081","category":"45","category_name":"产业园区","address":"郭守敬路498"},{"poiid":"B2094757D068A0FE439F","title":"中芯国际上海厂","lon":"121.60877","lat":"31.21776","category":"68","category_name":"快餐厅","address":"上海浦东新区张江路18号中芯国际"},{"poiid":"B2094757D06FA5F44699","title":"龙东大道","lon":"121.59431971","lat":"31.216365261","category":"260","category_name":"其他","address":"上海龙东大道"},{"poiid":"B2094654DB69ABF5489D","title":"星之健身(张江店)","lon":"121.58689","lat":"31.2108","category":"221","category_name":"健身中心","address":"浦东新区张江高科园区科苑路88号(近龙东大道)"},{"poiid":"B2094654DA6AA7F54898","title":"盛大网络 Office","lon":"121.59645","lat":"31.20979","category":"263","category_name":"公司","address":"浦东新区张江居里路208号(近李时珍路)"},{"poiid":"B2094655D36DA0F84993","title":"杨家镇","lon":"121.59553","lat":"31.21676","category":"38","category_name":"公交车站","address":"上海龙东大道122弄"},{"poiid":"B2094757D16CABF84093","title":"东郊宾馆宴会厅","lon":"121.59701","lat":"31.22565","category":"217","category_name":"旅馆招待所","address":"浦东新区金科路1800号东郊宾馆内(近龙乐大道)查看地图"},{"poiid":"B2094757D068ABF84893","title":"上海超级计算中心","lon":"121.600575","lat":"31.211526","category":"46","category_name":"楼宇","address":"上海浦东新区郭守敬路585号"},{"poiid":"B2094757D06AA1F84299","title":"资生堂(中国)培训中心","lon":"121.60113697","lat":"31.218220779","category":"500","category_name":"未知分类","address":"上海市浦东新区龙东大道1288号"},{"poiid":"B2094757D16DA3F9419E","title":"浦东机场一楼(机场四线)","lon":"121.60590455","lat":"31.206038928","category":"21","category_name":"飞机场","address":"上海T1首站"},{"poiid":"B2094757D06AA0F84293","title":"凯顿酒店","lon":"121.59412","lat":"31.21041","category":"76","category_name":"上海菜","address":"浦东新区郭守敬路277号(近牛顿路)"},{"poiid":"B2094757D068A6FD4393","title":"张江高科","lon":"121.599834735","lat":"31.2187130413","category":"500","category_name":"未知分类","address":"上海科苑路龙阳路"},{"poiid":"B2094757D064AAF8409C","title":"龙东大道张江路","lon":"121.6085755","lat":"31.2196991","category":"38","category_name":"公交车站","address":"上海龙东大道张江路交叉口"},{"poiid":"B2094654DA6AA5FD4193","title":"中国芯科技园","lon":"121.59976","lat":"31.21329","category":"45","category_name":"产业园区","address":"上海张江"},{"poiid":"B2094655D36CA0FF4298","title":"金科路李时珍路","lon":"121.59919","lat":"31.21427","category":"38","category_name":"公交车站","address":""},{"poiid":"B2094654DA6AA0FE419C","title":"宝钢高科技园","lon":"121.59823","lat":"31.2116","category":"45","category_name":"产业园区","address":"郭守敬路515号"},{"poiid":"B2094654DA6AA0FD479E","title":"日月光半导体(上海)有限公司(李时珍路)","lon":"121.59633","lat":"31.21416","category":"263","category_name":"公司","address":"李时珍路421"},{"poiid":"B2094757D064A7FA479A","title":"潘朵拉城市行动咖啡 张江店 Pandora","lon":"121.59851","lat":"31.21045","category":"113","category_name":"冷饮店","address":"浦东新区郭守敬路498号浦东软件园1楼大堂(近金科路)"},{"poiid":"B2094757D569A3FF4998","title":"汇仁制药办公楼","lon":"121.5954591","lat":"31.21332412","category":"46","category_name":"楼宇","address":"李时珍路396号"},{"poiid":"B2094757D065ABFC4499","title":"奇华顿日用香精香料(上海)有限公司","lon":"121.59351521","lat":"31.212836643","category":"46","category_name":"楼宇","address":"上海张江高科技园区李时珍路298号"},{"poiid":"B2094654DA6AA0FD479F","title":"上海罗氏制药有限公司(李时珍路)","lon":"121.59535","lat":"31.21383","category":"263","category_name":"公司","address":"李时珍路371"},{"poiid":"B2094757D168A3FE469A","title":"中国芯科技园区~中餐厅","lon":"121.595701475","lat":"31.2160785297","category":"500","category_name":"未知分类","address":null},{"poiid":"B2094757D064A1FB429A","title":"威盛VIA中国芯","lon":"121.60042097","lat":"31.213348665","category":"500","category_name":"未知分类","address":"上海浦东新区金科路2537号"},{"poiid":"B2094757D168A3FB4193","title":"上海华虹NEC电子有限公司(二厂)","lon":"121.60198263","lat":"31.210970194","category":"46","category_name":"楼宇","address":"上海浦东新区郭守敬路668号"},{"poiid":"B2094757D569A1FE4092","title":"张江软件园老食堂","lon":"121.59851","lat":"31.21080889","category":"68","category_name":"快餐厅","address":"浦东新区郭守敬路498号浦东软件园1楼西侧(近金科路)"},{"poiid":"B2094757D66EABFA4698","title":"张江培训中心","lon":"121.59910097","lat":"31.217067752","category":"253","category_name":"校园生活","address":"上海市浦东新区龙东大道李时珍路"},{"poiid":"B2094757D76FA5FB429B","title":"VIA CAFE","lon":"121.6006","lat":"31.21399","category":"260","category_name":"其他","address":"浦东新区金科路2517号中国芯科技园A栋1楼"},{"poiid":"B2094654DB65A0F54398","title":"全家便利店(日月光店)","lon":"121.60232","lat":"31.21569","category":"117","category_name":"便民商店/便利店","address":"浦东新区李时珍路599号(近金科路)"},{"poiid":"B2094654DA6AA6F4439C","title":"上海聚益信息技术有限公司(金科路)","lon":"121.59971","lat":"31.21417","category":"263","category_name":"公司","address":""},{"poiid":"B2094757D66EAAFF469F","title":"理想能源设备","lon":"121.59895367","lat":"31.213167961","category":"500","category_name":"未知分类","address":"上海居里路1号"},{"poiid":"B2094655D36CA7F4429B","title":"郭守敬路居里路","lon":"121.5954","lat":"31.21034","category":"38","category_name":"公交车站","address":""},{"poiid":"B2094655D36CA7F44299","title":"郭守敬路金科路(软件园)","lon":"121.59858","lat":"31.21104","category":"38","category_name":"公交车站","address":""},{"poiid":"B2094752D56BA3FB469E","title":"上海惠普","lon":"121.600572","lat":"31.216341","category":"263","category_name":"公司","address":"金科路2727号"},{"poiid":"B2094654DA6AA7F4429E","title":"夏丽超市(杨镇居民委员会残疾人协会北)","lon":"121.5951","lat":"31.21852","category":"118","category_name":"超级市场","address":""},{"poiid":"B2094757D16CA1FE439B","title":"张江","lon":"121.591663","lat":"31.212274","category":"500","category_name":"未知分类","address":"上海牛顿路"},{"poiid":"B2094654DA6AA6F4439F","title":"上海信源张江有限公司","lon":"121.59946","lat":"31.21749","category":"263","category_name":"公司","address":"龙东大道1288"},{"poiid":"B2094757D468AAFA4193","title":"Joyful Joyce","lon":"121.5968007","lat":"31.2106051","category":"98","category_name":"意式菜品餐厅","address":"浦东新区郭守敬路433号(近居里路)"},{"poiid":"B2094655D26FA5F94093","title":"张家软件园","lon":"121.59796","lat":"31.21035","category":"45","category_name":"产业园区","address":"郭守敬路498号"},{"poiid":"B2094654DB65A7FF4899","title":"全家便利店(郭守敬店)","lon":"121.60221","lat":"31.21187","category":"117","category_name":"便民商店/便利店","address":"浦东新区郭守敬路669号(郭守敬路哈雷路)"},{"poiid":"B2094751D365A2FF489C","title":"日月光封装测试","lon":"121.603143","lat":"31.214514","category":"263","category_name":"公司","address":"张江高科技园区郭守敬路669号"},{"poiid":"B2094757D16AABFC449D","title":"张江创洁大厦","lon":"121.59916418","lat":"31.211424755","category":"252","category_name":"楼宇机构","address":"上海郭守敬路433号"},{"poiid":"B2094654DB64A3F9429C","title":"上海浦东软件园(郭守敬路)","lon":"121.59803","lat":"31.2104","category":"45","category_name":"产业园区","address":"上海浦东新区郭守敬路498号"},{"poiid":"B2094757D06FA3F8479A","title":"上海德国中心","lon":"121.586903","lat":"31.211596","category":"46","category_name":"楼宇","address":"浦东新区科苑路88号德国中心"},{"poiid":"B2094757D06FA2F5449B","title":"张江创新园","lon":"121.59543194719","lat":"31.210169439571","category":"46","category_name":"楼宇","address":"上海市虹口区四川北路1318号"},{"poiid":"B2094757D06EAAFE489D","title":"金科路地铁站","lon":"121.60199942","lat":"31.204334926","category":"36","category_name":"地铁站","address":"上海轨道交通,二号线,轨交金科路站,2"},{"poiid":"B2094757D068A3FE4292","title":"罗氏制药","lon":"121.595334109","lat":"31.2138314147","category":"46","category_name":"楼宇","address":"上海浦东新区龙东大道1100号"},{"poiid":"B2094654DA6AA7F54699","title":"上海张江高科技园区","lon":"121.58762","lat":"31.21184","category":"45","category_name":"产业园区","address":"浦东新区科苑路399号"},{"poiid":"B2094757D06FAAF5429D","title":"汤臣豪园二期","lon":"121.5911142171","lat":"31.215546554135","category":"47","category_name":"住宅区","address":"上海晨晖路825弄"},{"poiid":"B2094757D068A0F4499E","title":"惠普全球软件服务中心","lon":"121.60092563","lat":"31.212782197","category":"500","category_name":"未知分类","address":"上海金科路2557号"},{"poiid":"B2094757D06FA7FF419D","title":"索尼中国上海技术中心","lon":"121.597466469","lat":"31.2065818267","category":"46","category_name":"楼宇","address":"上海浦东居里路361号"},{"poiid":"B2094654DA6AA5F44098","title":"上海市张江高科技园区","lon":"121.59851","lat":"31.21081","category":"45","category_name":"产业园区","address":"郭守敬路498"},{"poiid":"B2094757D068A0FE439F","title":"中芯国际上海厂","lon":"121.60877","lat":"31.21776","category":"68","category_name":"快餐厅","address":"上海浦东新区张江路18号中芯国际"},{"poiid":"B2094757D06FA5F44699","title":"龙东大道","lon":"121.59431971","lat":"31.216365261","category":"260","category_name":"其他","address":"上海龙东大道"},{"poiid":"B2094654DB69ABF5489D","title":"星之健身(张江店)","lon":"121.58689","lat":"31.2108","category":"221","category_name":"健身中心","address":"浦东新区张江高科园区科苑路88号(近龙东大道)"},{"poiid":"B2094654DA6AA7F54898","title":"盛大网络 Office","lon":"121.59645","lat":"31.20979","category":"263","category_name":"公司","address":"浦东新区张江居里路208号(近李时珍路)"},{"poiid":"B2094655D36DA0F84993","title":"杨家镇","lon":"121.59553","lat":"31.21676","category":"38","category_name":"公交车站","address":"上海龙东大道122弄"},{"poiid":"B2094757D16CABF84093","title":"东郊宾馆宴会厅","lon":"121.59701","lat":"31.22565","category":"217","category_name":"旅馆招待所","address":"浦东新区金科路1800号东郊宾馆内(近龙乐大道)查看地图"},{"poiid":"B2094757D068ABF84893","title":"上海超级计算中心","lon":"121.600575","lat":"31.211526","category":"46","category_name":"楼宇","address":"上海浦东新区郭守敬路585号"},{"poiid":"B2094757D06AA1F84299","title":"资生堂(中国)培训中心","lon":"121.60113697","lat":"31.218220779","category":"500","category_name":"未知分类","address":"上海市浦东新区龙东大道1288号"},{"poiid":"B2094757D16DA3F9419E","title":"浦东机场一楼(机场四线)","lon":"121.60590455","lat":"31.206038928","category":"21","category_name":"飞机场","address":"上海T1首站"},{"poiid":"B2094757D06AA0F84293","title":"凯顿酒店","lon":"121.59412","lat":"31.21041","category":"76","category_name":"上海菜","address":"浦东新区郭守敬路277号(近牛顿路)"},{"poiid":"B2094757D068A6FD4393","title":"张江高科","lon":"121.599834735","lat":"31.2187130413","category":"500","category_name":"未知分类","address":"上海科苑路龙阳路"},{"poiid":"B2094757D064AAF8409C","title":"龙东大道张江路","lon":"121.6085755","lat":"31.2196991","category":"38","category_name":"公交车站","address":"上海龙东大道张江路交叉口"},{"poiid":"B2094654DA6AA5FD4193","title":"中国芯科技园","lon":"121.59976","lat":"31.21329","category":"45","category_name":"产业园区","address":"上海张江"},{"poiid":"B2094655D36CA0FF4298","title":"金科路李时珍路","lon":"121.59919","lat":"31.21427","category":"38","category_name":"公交车站","address":""},{"poiid":"B2094654DA6AA0FE419C","title":"宝钢高科技园","lon":"121.59823","lat":"31.2116","category":"45","category_name":"产业园区","address":"郭守敬路515号"},{"poiid":"B2094654DA6AA0FD479E","title":"日月光半导体(上海)有限公司(李时珍路)","lon":"121.59633","lat":"31.21416","category":"263","category_name":"公司","address":"李时珍路421"},{"poiid":"B2094757D064A7FA479A","title":"潘朵拉城市行动咖啡 张江店 Pandora","lon":"121.59851","lat":"31.21045","category":"113","category_name":"冷饮店","address":"浦东新区郭守敬路498号浦东软件园1楼大堂(近金科路)"},{"poiid":"B2094757D569A3FF4998","title":"汇仁制药办公楼","lon":"121.5954591","lat":"31.21332412","category":"46","category_name":"楼宇","address":"李时珍路396号"},{"poiid":"B2094757D065ABFC4499","title":"奇华顿日用香精香料(上海)有限公司","lon":"121.59351521","lat":"31.212836643","category":"46","category_name":"楼宇","address":"上海张江高科技园区李时珍路298号"},{"poiid":"B2094654DA6AA0FD479F","title":"上海罗氏制药有限公司(李时珍路)","lon":"121.59535","lat":"31.21383","category":"263","category_name":"公司","address":"李时珍路371"},{"poiid":"B2094757D168A3FE469A","title":"中国芯科技园区~中餐厅","lon":"121.595701475","lat":"31.2160785297","category":"500","category_name":"未知分类","address":null},{"poiid":"B2094757D064A1FB429A","title":"威盛VIA中国芯","lon":"121.60042097","lat":"31.213348665","category":"500","category_name":"未知分类","address":"上海浦东新区金科路2537号"},{"poiid":"B2094757D168A3FB4193","title":"上海华虹NEC电子有限公司(二厂)","lon":"121.60198263","lat":"31.210970194","category":"46","category_name":"楼宇","address":"上海浦东新区郭守敬路668号"},{"poiid":"B2094757D569A1FE4092","title":"张江软件园老食堂","lon":"121.59851","lat":"31.21080889","category":"68","category_name":"快餐厅","address":"浦东新区郭守敬路498号浦东软件园1楼西侧(近金科路)"},{"poiid":"B2094757D66EABFA4698","title":"张江培训中心","lon":"121.59910097","lat":"31.217067752","category":"253","category_name":"校园生活","address":"上海市浦东新区龙东大道李时珍路"},{"poiid":"B2094757D76FA5FB429B","title":"VIA CAFE","lon":"121.6006","lat":"31.21399","category":"260","category_name":"其他","address":"浦东新区金科路2517号中国芯科技园A栋1楼"},{"poiid":"B2094654DB65A0F54398","title":"全家便利店(日月光店)","lon":"121.60232","lat":"31.21569","category":"117","category_name":"便民商店/便利店","address":"浦东新区李时珍路599号(近金科路)"},{"poiid":"B2094654DA6AA6F4439C","title":"上海聚益信息技术有限公司(金科路)","lon":"121.59971","lat":"31.21417","category":"263","category_name":"公司","address":""},{"poiid":"B2094757D66EAAFF469F","title":"理想能源设备","lon":"121.59895367","lat":"31.213167961","category":"500","category_name":"未知分类","address":"上海居里路1号"},{"poiid":"B2094655D36CA7F4429B","title":"郭守敬路居里路","lon":"121.5954","lat":"31.21034","category":"38","category_name":"公交车站","address":""},{"poiid":"B2094655D36CA7F44299","title":"郭守敬路金科路(软件园)","lon":"121.59858","lat":"31.21104","category":"38","category_name":"公交车站","address":""},{"poiid":"B2094752D56BA3FB469E","title":"上海惠普","lon":"121.600572","lat":"31.216341","category":"263","category_name":"公司","address":"金科路2727号"},{"poiid":"B2094654DA6AA7F4429E","title":"夏丽超市(杨镇居民委员会残疾人协会北)","lon":"121.5951","lat":"31.21852","category":"118","category_name":"超级市场","address":""},{"poiid":"B2094757D16CA1FE439B","title":"张江","lon":"121.591663","lat":"31.212274","category":"500","category_name":"未知分类","address":"上海牛顿路"},{"poiid":"B2094654DA6AA6F4439F","title":"上海信源张江有限公司","lon":"121.59946","lat":"31.21749","category":"263","category_name":"公司","address":"龙东大道1288"},{"poiid":"B2094757D468AAFA4193","title":"Joyful Joyce","lon":"121.5968007","lat":"31.2106051","category":"98","category_name":"意式菜品餐厅","address":"浦东新区郭守敬路433号(近居里路)"},{"poiid":"B2094655D26FA5F94093","title":"张家软件园","lon":"121.59796","lat":"31.21035","category":"45","category_name":"产业园区","address":"郭守敬路498号"},{"poiid":"B2094654DB65A7FF4899","title":"全家便利店(郭守敬店)","lon":"121.60221","lat":"31.21187","category":"117","category_name":"便民商店/便利店","address":"浦东新区郭守敬路669号(郭守敬路哈雷路)"},{"poiid":"B2094751D365A2FF489C","title":"日月光封装测试","lon":"121.603143","lat":"31.214514","category":"263","category_name":"公司","address":"张江高科技园区郭守敬路669号"},{"poiid":"B2094757D16AABFC449D","title":"张江创洁大厦","lon":"121.59916418","lat":"31.211424755","category":"252","category_name":"楼宇机构","address":"上海郭守敬路433号"},{"poiid":"B2094654DB64A3F9429C","title":"上海浦东软件园(郭守敬路)","lon":"121.59803","lat":"31.2104","category":"45","category_name":"产业园区","address":"上海浦东新区郭守敬路498号"},{"poiid":"B2094757D06FA3F8479A","title":"上海德国中心","lon":"121.586903","lat":"31.211596","category":"46","category_name":"楼宇","address":"浦东新区科苑路88号德国中心"},{"poiid":"B2094757D06FA2F5449B","title":"张江创新园","lon":"121.59543194719","lat":"31.210169439571","category":"46","category_name":"楼宇","address":"上海市虹口区四川北路1318号"},{"poiid":"B2094757D06EAAFE489D","title":"金科路地铁站","lon":"121.60199942","lat":"31.204334926","category":"36","category_name":"地铁站","address":"上海轨道交通,二号线,轨交金科路站,2"},{"poiid":"B2094757D068A3FE4292","title":"罗氏制药","lon":"121.595334109","lat":"31.2138314147","category":"46","category_name":"楼宇","address":"上海浦东新区龙东大道1100号"},{"poiid":"B2094654DA6AA7F54699","title":"上海张江高科技园区","lon":"121.58762","lat":"31.21184","category":"45","category_name":"产业园区","address":"浦东新区科苑路399号"},{"poiid":"B2094757D06FAAF5429D","title":"汤臣豪园二期","lon":"121.5911142171","lat":"31.215546554135","category":"47","category_name":"住宅区","address":"上海晨晖路825弄"},{"poiid":"B2094757D068A0F4499E","title":"惠普全球软件服务中心","lon":"121.60092563","lat":"31.212782197","category":"500","category_name":"未知分类","address":"上海金科路2557号"},{"poiid":"B2094757D06FA7FF419D","title":"索尼中国上海技术中心","lon":"121.597466469","lat":"31.2065818267","category":"46","category_name":"楼宇","address":"上海浦东居里路361号"},{"poiid":"B2094654DA6AA5F44098","title":"上海市张江高科技园区","lon":"121.59851","lat":"31.21081","category":"45","category_name":"产业园区","address":"郭守敬路498"},{"poiid":"B2094757D068A0FE439F","title":"中芯国际上海厂","lon":"121.60877","lat":"31.21776","category":"68","category_name":"快餐厅","address":"上海浦东新区张江路18号中芯国际"},{"poiid":"B2094757D06FA5F44699","title":"龙东大道","lon":"121.59431971","lat":"31.216365261","category":"260","category_name":"其他","address":"上海龙东大道"},{"poiid":"B2094654DB69ABF5489D","title":"星之健身(张江店)","lon":"121.58689","lat":"31.2108","category":"221","category_name":"健身中心","address":"浦东新区张江高科园区科苑路88号(近龙东大道)"},{"poiid":"B2094654DA6AA7F54898","title":"盛大网络 Office","lon":"121.59645","lat":"31.20979","category":"263","category_name":"公司","address":"浦东新区张江居里路208号(近李时珍路)"},{"poiid":"B2094655D36DA0F84993","title":"杨家镇","lon":"121.59553","lat":"31.21676","category":"38","category_name":"公交车站","address":"上海龙东大道122弄"},{"poiid":"B2094757D16CABF84093","title":"东郊宾馆宴会厅","lon":"121.59701","lat":"31.22565","category":"217","category_name":"旅馆招待所","address":"浦东新区金科路1800号东郊宾馆内(近龙乐大道)查看地图"},{"poiid":"B2094757D068ABF84893","title":"上海超级计算中心","lon":"121.600575","lat":"31.211526","category":"46","category_name":"楼宇","address":"上海浦东新区郭守敬路585号"},{"poiid":"B2094757D06AA1F84299","title":"资生堂(中国)培训中心","lon":"121.60113697","lat":"31.218220779","category":"500","category_name":"未知分类","address":"上海市浦东新区龙东大道1288号"},{"poiid":"B2094757D16DA3F9419E","title":"浦东机场一楼(机场四线)","lon":"121.60590455","lat":"31.206038928","category":"21","category_name":"飞机场","address":"上海T1首站"},{"poiid":"B2094757D06AA0F84293","title":"凯顿酒店","lon":"121.59412","lat":"31.21041","category":"76","category_name":"上海菜","address":"浦东新区郭守敬路277号(近牛顿路)"},{"poiid":"B2094757D068A6FD4393","title":"张江高科","lon":"121.599834735","lat":"31.2187130413","category":"500","category_name":"未知分类","address":"上海科苑路龙阳路"},{"poiid":"B2094757D064AAF8409C","title":"龙东大道张江路","lon":"121.6085755","lat":"31.2196991","category":"38","category_name":"公交车站","address":"上海龙东大道张江路交叉口"},{"poiid":"B2094654DA6AA5FD4193","title":"中国芯科技园","lon":"121.59976","lat":"31.21329","category":"45","category_name":"产业园区","address":"上海张江"},{"poiid":"B2094655D36CA0FF4298","title":"金科路李时珍路","lon":"121.59919","lat":"31.21427","category":"38","category_name":"公交车站","address":""},{"poiid":"B2094654DA6AA0FE419C","title":"宝钢高科技园","lon":"121.59823","lat":"31.2116","category":"45","category_name":"产业园区","address":"郭守敬路515号"},{"poiid":"B2094654DA6AA0FD479E","title":"日月光半导体(上海)有限公司(李时珍路)","lon":"121.59633","lat":"31.21416","category":"263","category_name":"公司","address":"李时珍路421"},{"poiid":"B2094757D064A7FA479A","title":"潘朵拉城市行动咖啡 张江店 Pandora","lon":"121.59851","lat":"31.21045","category":"113","category_name":"冷饮店","address":"浦东新区郭守敬路498号浦东软件园1楼大堂(近金科路)"},{"poiid":"B2094757D569A3FF4998","title":"汇仁制药办公楼","lon":"121.5954591","lat":"31.21332412","category":"46","category_name":"楼宇","address":"李时珍路396号"},{"poiid":"B2094757D065ABFC4499","title":"奇华顿日用香精香料(上海)有限公司","lon":"121.59351521","lat":"31.212836643","category":"46","category_name":"楼宇","address":"上海张江高科技园区李时珍路298号"},{"poiid":"B2094654DA6AA0FD479F","title":"上海罗氏制药有限公司(李时珍路)","lon":"121.59535","lat":"31.21383","category":"263","category_name":"公司","address":"李时珍路371"},{"poiid":"B2094757D168A3FE469A","title":"中国芯科技园区~中餐厅","lon":"121.595701475","lat":"31.2160785297","category":"500","category_name":"未知分类","address":null},{"poiid":"B2094757D064A1FB429A","title":"威盛VIA中国芯","lon":"121.60042097","lat":"31.213348665","category":"500","category_name":"未知分类","address":"上海浦东新区金科路2537号"},{"poiid":"B2094757D168A3FB4193","title":"上海华虹NEC电子有限公司(二厂)","lon":"121.60198263","lat":"31.210970194","category":"46","category_name":"楼宇","address":"上海浦东新区郭守敬路668号"},{"poiid":"B2094757D569A1FE4092","title":"张江软件园老食堂","lon":"121.59851","lat":"31.21080889","category":"68","category_name":"快餐厅","address":"浦东新区郭守敬路498号浦东软件园1楼西侧(近金科路)"},{"poiid":"B2094757D66EABFA4698","title":"张江培训中心","lon":"121.59910097","lat":"31.217067752","category":"253","category_name":"校园生活","address":"上海市浦东新区龙东大道李时珍路"},{"poiid":"B2094757D76FA5FB429B","title":"VIA CAFE","lon":"121.6006","lat":"31.21399","category":"260","category_name":"其他","address":"浦东新区金科路2517号中国芯科技园A栋1楼"},{"poiid":"B2094654DB65A0F54398","title":"全家便利店(日月光店)","lon":"121.60232","lat":"31.21569","category":"117","category_name":"便民商店/便利店","address":"浦东新区李时珍路599号(近金科路)"},{"poiid":"B2094654DA6AA6F4439C","title":"上海聚益信息技术有限公司(金科路)","lon":"121.59971","lat":"31.21417","category":"263","category_name":"公司","address":""},{"poiid":"B2094757D66EAAFF469F","title":"理想能源设备","lon":"121.59895367","lat":"31.213167961","category":"500","category_name":"未知分类","address":"上海居里路1号"},{"poiid":"B2094655D36CA7F4429B","title":"郭守敬路居里路","lon":"121.5954","lat":"31.21034","category":"38","category_name":"公交车站","address":""},{"poiid":"B2094655D36CA7F44299","title":"郭守敬路金科路(软件园)","lon":"121.59858","lat":"31.21104","category":"38","category_name":"公交车站","address":""},{"poiid":"B2094752D56BA3FB469E","title":"上海惠普","lon":"121.600572","lat":"31.216341","category":"263","category_name":"公司","address":"金科路2727号"},{"poiid":"B2094654DA6AA7F4429E","title":"夏丽超市(杨镇居民委员会残疾人协会北)","lon":"121.5951","lat":"31.21852","category":"118","category_name":"超级市场","address":""},{"poiid":"B2094757D16CA1FE439B","title":"张江","lon":"121.591663","lat":"31.212274","category":"500","category_name":"未知分类","address":"上海牛顿路"},{"poiid":"B2094654DA6AA6F4439F","title":"上海信源张江有限公司","lon":"121.59946","lat":"31.21749","category":"263","category_name":"公司","address":"龙东大道1288"},{"poiid":"B2094757D468AAFA4193","title":"Joyful Joyce","lon":"121.5968007","lat":"31.2106051","category":"98","category_name":"意式菜品餐厅","address":"浦东新区郭守敬路433号(近居里路)"},{"poiid":"B2094655D26FA5F94093","title":"张家软件园","lon":"121.59796","lat":"31.21035","category":"45","category_name":"产业园区","address":"郭守敬路498号"},{"poiid":"B2094654DB65A7FF4899","title":"全家便利店(郭守敬店)","lon":"121.60221","lat":"31.21187","category":"117","category_name":"便民商店/便利店","address":"浦东新区郭守敬路669号(郭守敬路哈雷路)"},{"poiid":"B2094751D365A2FF489C","title":"日月光封装测试","lon":"121.603143","lat":"31.214514","category":"263","category_name":"公司","address":"张江高科技园区郭守敬路669号"},{"poiid":"B2094757D16AABFC449D","title":"张江创洁大厦","lon":"121.59916418","lat":"31.211424755","category":"252","category_name":"楼宇机构","address":"上海郭守敬路433号"},{"poiid":"B2094654DB64A3F9429C","title":"上海浦东软件园(郭守敬路)","lon":"121.59803","lat":"31.2104","category":"45","category_name":"产业园区","address":"上海浦东新区郭守敬路498号"},{"poiid":"B2094757D06FA3F8479A","title":"上海德国中心","lon":"121.586903","lat":"31.211596","category":"46","category_name":"楼宇","address":"浦东新区科苑路88号德国中心"},{"poiid":"B2094757D06FA2F5449B","title":"张江创新园","lon":"121.59543194719","lat":"31.210169439571","category":"46","category_name":"楼宇","address":"上海市虹口区四川北路1318号"},{"poiid":"B2094757D06EAAFE489D","title":"金科路地铁站","lon":"121.60199942","lat":"31.204334926","category":"36","category_name":"地铁站","address":"上海轨道交通,二号线,轨交金科路站,2"},{"poiid":"B2094757D068A3FE4292","title":"罗氏制药","lon":"121.595334109","lat":"31.2138314147","category":"46","category_name":"楼宇","address":"上海浦东新区龙东大道1100号"},{"poiid":"B2094654DA6AA7F54699","title":"上海张江高科技园区","lon":"121.58762","lat":"31.21184","category":"45","category_name":"产业园区","address":"浦东新区科苑路399号"},{"poiid":"B2094757D06FAAF5429D","title":"汤臣豪园二期","lon":"121.5911142171","lat":"31.215546554135","category":"47","category_name":"住宅区","address":"上海晨晖路825弄"},{"poiid":"B2094757D068A0F4499E","title":"惠普全球软件服务中心","lon":"121.60092563","lat":"31.212782197","category":"500","category_name":"未知分类","address":"上海金科路2557号"},{"poiid":"B2094757D06FA7FF419D","title":"索尼中国上海技术中心","lon":"121.597466469","lat":"31.2065818267","category":"46","category_name":"楼宇","address":"上海浦东居里路361号"},{"poiid":"B2094654DA6AA5F44098","title":"上海市张江高科技园区","lon":"121.59851","lat":"31.21081","category":"45","category_name":"产业园区","address":"郭守敬路498"},{"poiid":"B2094757D068A0FE439F","title":"中芯国际上海厂","lon":"121.60877","lat":"31.21776","category":"68","category_name":"快餐厅","address":"上海浦东新区张江路18号中芯国际"},{"poiid":"B2094757D06FA5F44699","title":"龙东大道","lon":"121.59431971","lat":"31.216365261","category":"260","category_name":"其他","address":"上海龙东大道"},{"poiid":"B2094654DB69ABF5489D","title":"星之健身(张江店)","lon":"121.58689","lat":"31.2108","category":"221","category_name":"健身中心","address":"浦东新区张江高科园区科苑路88号(近龙东大道)"},{"poiid":"B2094654DA6AA7F54898","title":"盛大网络 Office","lon":"121.59645","lat":"31.20979","category":"263","category_name":"公司","address":"浦东新区张江居里路208号(近李时珍路)"},{"poiid":"B2094655D36DA0F84993","title":"杨家镇","lon":"121.59553","lat":"31.21676","category":"38","category_name":"公交车站","address":"上海龙东大道122弄"},{"poiid":"B2094757D16CABF84093","title":"东郊宾馆宴会厅","lon":"121.59701","lat":"31.22565","category":"217","category_name":"旅馆招待所","address":"浦东新区金科路1800号东郊宾馆内(近龙乐大道)查看地图"},{"poiid":"B2094757D068ABF84893","title":"上海超级计算中心","lon":"121.600575","lat":"31.211526","category":"46","category_name":"楼宇","address":"上海浦东新区郭守敬路585号"},{"poiid":"B2094757D06AA1F84299","title":"资生堂(中国)培训中心","lon":"121.60113697","lat":"31.218220779","category":"500","category_name":"未知分类","address":"上海市浦东新区龙东大道1288号"},{"poiid":"B2094757D16DA3F9419E","title":"浦东机场一楼(机场四线)","lon":"121.60590455","lat":"31.206038928","category":"21","category_name":"飞机场","address":"上海T1首站"},{"poiid":"B2094757D06AA0F84293","title":"凯顿酒店","lon":"121.59412","lat":"31.21041","category":"76","category_name":"上海菜","address":"浦东新区郭守敬路277号(近牛顿路)"},{"poiid":"B2094757D068A6FD4393","title":"张江高科","lon":"121.599834735","lat":"31.2187130413","category":"500","category_name":"未知分类","address":"上海科苑路龙阳路"},{"poiid":"B2094757D064AAF8409C","title":"龙东大道张江路","lon":"121.6085755","lat":"31.2196991","category":"38","category_name":"公交车站","address":"上海龙东大道张江路交叉口"},{"poiid":"B2094654DA6AA5FD4193","title":"中国芯科技园","lon":"121.59976","lat":"31.21329","category":"45","category_name":"产业园区","address":"上海张江"},{"poiid":"B2094655D36CA0FF4298","title":"金科路李时珍路","lon":"121.59919","lat":"31.21427","category":"38","category_name":"公交车站","address":""},{"poiid":"B2094654DA6AA0FE419C","title":"宝钢高科技园","lon":"121.59823","lat":"31.2116","category":"45","category_name":"产业园区","address":"郭守敬路515号"},{"poiid":"B2094654DA6AA0FD479E","title":"日月光半导体(上海)有限公司(李时珍路)","lon":"121.59633","lat":"31.21416","category":"263","category_name":"公司","address":"李时珍路421"},{"poiid":"B2094757D064A7FA479A","title":"潘朵拉城市行动咖啡 张江店 Pandora","lon":"121.59851","lat":"31.21045","category":"113","category_name":"冷饮店","address":"浦东新区郭守敬路498号浦东软件园1楼大堂(近金科路)"},{"poiid":"B2094757D569A3FF4998","title":"汇仁制药办公楼","lon":"121.5954591","lat":"31.21332412","category":"46","category_name":"楼宇","address":"李时珍路396号"},{"poiid":"B2094757D065ABFC4499","title":"奇华顿日用香精香料(上海)有限公司","lon":"121.59351521","lat":"31.212836643","category":"46","category_name":"楼宇","address":"上海张江高科技园区李时珍路298号"},{"poiid":"B2094654DA6AA0FD479F","title":"上海罗氏制药有限公司(李时珍路)","lon":"121.59535","lat":"31.21383","category":"263","category_name":"公司","address":"李时珍路371"},{"poiid":"B2094757D168A3FE469A","title":"中国芯科技园区~中餐厅","lon":"121.595701475","lat":"31.2160785297","category":"500","category_name":"未知分类","address":null},{"poiid":"B2094757D064A1FB429A","title":"威盛VIA中国芯","lon":"121.60042097","lat":"31.213348665","category":"500","category_name":"未知分类","address":"上海浦东新区金科路2537号"},{"poiid":"B2094757D168A3FB4193","title":"上海华虹NEC电子有限公司(二厂)","lon":"121.60198263","lat":"31.210970194","category":"46","category_name":"楼宇","address":"上海浦东新区郭守敬路668号"},{"poiid":"B2094757D569A1FE4092","title":"张江软件园老食堂","lon":"121.59851","lat":"31.21080889","category":"68","category_name":"快餐厅","address":"浦东新区郭守敬路498号浦东软件园1楼西侧(近金科路)"},{"poiid":"B2094757D66EABFA4698","title":"张江培训中心","lon":"121.59910097","lat":"31.217067752","category":"253","category_name":"校园生活","address":"上海市浦东新区龙东大道李时珍路"},{"poiid":"B2094757D76FA5FB429B","title":"VIA CAFE","lon":"121.6006","lat":"31.21399","category":"260","category_name":"其他","address":"浦东新区金科路2517号中国芯科技园A栋1楼"},{"poiid":"B2094654DB65A0F54398","title":"全家便利店(日月光店)","lon":"121.60232","lat":"31.21569","category":"117","category_name":"便民商店/便利店","address":"浦东新区李时珍路599号(近金科路)"},{"poiid":"B2094654DA6AA6F4439C","title":"上海聚益信息技术有限公司(金科路)","lon":"121.59971","lat":"31.21417","category":"263","category_name":"公司","address":""},{"poiid":"B2094757D66EAAFF469F","title":"理想能源设备","lon":"121.59895367","lat":"31.213167961","category":"500","category_name":"未知分类","address":"上海居里路1号"},{"poiid":"B2094655D36CA7F4429B","title":"郭守敬路居里路","lon":"121.5954","lat":"31.21034","category":"38","category_name":"公交车站","address":""},{"poiid":"B2094655D36CA7F44299","title":"郭守敬路金科路(软件园)","lon":"121.59858","lat":"31.21104","category":"38","category_name":"公交车站","address":""},{"poiid":"B2094752D56BA3FB469E","title":"上海惠普","lon":"121.600572","lat":"31.216341","category":"263","category_name":"公司","address":"金科路2727号"},{"poiid":"B2094654DA6AA7F4429E","title":"夏丽超市(杨镇居民委员会残疾人协会北)","lon":"121.5951","lat":"31.21852","category":"118","category_name":"超级市场","address":""},{"poiid":"B2094757D16CA1FE439B","title":"张江","lon":"121.591663","lat":"31.212274","category":"500","category_name":"未知分类","address":"上海牛顿路"},{"poiid":"B2094654DA6AA6F4439F","title":"上海信源张江有限公司","lon":"121.59946","lat":"31.21749","category":"263","category_name":"公司","address":"龙东大道1288"},{"poiid":"B2094757D468AAFA4193","title":"Joyful Joyce","lon":"121.5968007","lat":"31.2106051","category":"98","category_name":"意式菜品餐厅","address":"浦东新区郭守敬路433号(近居里路)"},{"poiid":"B2094655D26FA5F94093","title":"张家软件园","lon":"121.59796","lat":"31.21035","category":"45","category_name":"产业园区","address":"郭守敬路498号"},{"poiid":"B2094654DB65A7FF4899","title":"全家便利店(郭守敬店)","lon":"121.60221","lat":"31.21187","category":"117","category_name":"便民商店/便利店","address":"浦东新区郭守敬路669号(郭守敬路哈雷路)"},{"poiid":"B2094751D365A2FF489C","title":"日月光封装测试","lon":"121.603143","lat":"31.214514","category":"263","category_name":"公司","address":"张江高科技园区郭守敬路669号"},{"poiid":"B2094757D16AABFC449D","title":"张江创洁大厦","lon":"121.59916418","lat":"31.211424755","category":"252","category_name":"楼宇机构","address":"上海郭守敬路433号"}]