[{"poiid":"B2094757D168A7F5429B","title":"江边城外巫山烤全鱼(南京西路店)","lon":"121.460719078","lat":"31.2302828712","category":"71","category_name":"四川菜","address":"静安区南京西路819号中创大厦5楼(近地铁2号线南京西路站)"},{"poiid":"B2094757DA6EA6F5469B","title":"外婆家(818广场店)","lon":"121.460788249969","lat":"31.230931141954","category":"75","category_name":"浙江菜","address":"静安区南京西路818号818广场701室(近石门一路)"},{"poiid":"B2094655D26AAAFE4992","title":"818广场","lon":"121.46094","lat":"31.23094","category":"119","category_name":"商场","address":"静安区南京西路818号(近石门一路)"},{"poiid":"B2094753D76FAAFA449C","title":"上海滩国泰旗舰店","lon":"121.466011","lat":"31.216125","category":"249","category_name":"购物服务","address":"淮海中路868号"},{"poiid":"B209475CD564A7F84292","title":"上海滩新天地店","lon":"121.47463","lat":"31.22164","category":"119","category_name":"商场","address":"\"太仓路181弄新天地北里15号\r\n\""},{"poiid":"B209475CD564A7F8439E","title":"上海滩中信泰富店","lon":"121.45602","lat":"31.22851","category":"119","category_name":"商场","address":"\"南京西路1168号中信泰富广场，店铺号221.\r\n\""},{"poiid":"B2094757D06EAAF9449E","title":"掌上韩品 吴江路店","lon":"121.4598384","lat":"31.2297555","category":"96","category_name":"韩国料理","address":"静安区吴江路200号(近南京西路)"},{"poiid":"B2094655D268ABFC4792","title":"吴江路休闲街","lon":"121.46067","lat":"31.22994","category":"116","category_name":"特色商业街","address":"上海吴江路休闲街"},{"poiid":"B2094757D06FA1F9489A","title":"藏珑泰厨","lon":"121.46120173","lat":"31.230886314","category":"99","category_name":"泰国／越南菜品餐厅","address":"静安区南京西路818号818广场6楼(近石门一路)"},{"poiid":"B2094750D66CABF94899","title":"幸福131","lon":"121.4608","lat":"31.230554","category":"71","category_name":"四川菜","address":"静安区南京西路819号中创大厦4楼(近吴江路)"},{"poiid":"B2094655D26AAAF8449C","title":"香港狮子山下","lon":"121.46094","lat":"31.23094","category":"72","category_name":"广东菜","address":"静安区南京西路818号818广场5楼(近石门二路)"},{"poiid":"B2094654DA6CA1F84292","title":"王家沙(南京西路)","lon":"121.46122","lat":"31.23063","category":"257","category_name":"中餐厅","address":"静安区南京西路805号(近石门一路)"},{"poiid":"B2094757D06FA0FB4998","title":"半山小馆","lon":"121.46059521","lat":"31.230252198","category":"91","category_name":"台湾菜","address":"静安区南京西路818号818广场6楼(石门一路口)"},{"poiid":"B2094757D465A4FA489B","title":"牛阵日式火锅 四季坊店","lon":"121.46003","lat":"31.22982","category":"95","category_name":"日本料理","address":"静安区吴江路169号四季坊242单元(近石门一路)"},{"poiid":"B2094750DA6BA1F54598","title":"斯利美SLM","lon":"121.45935","lat":"31.229806","category":"112","category_name":"糕饼店","address":"静安区吴江路169号四季坊149单元(近地铁2号线南京西路站)"},{"poiid":"B2094757D06EAAFF4298","title":"南京西路地铁站","lon":"121.459723","lat":"31.229734","category":"36","category_name":"地铁站","address":"上海轨道交通 二号线 轨交南京西路站 2"},{"poiid":"B2094757D06EAAF44799","title":"马莎百货(南京西路店)","lon":"121.46058","lat":"31.23005","category":"119","category_name":"商场","address":"静安区南京西路863号(近石门一路)"},{"poiid":"B2094757DB68A5F5449E","title":"古丽仙西域情餐厅 GULIXIAN RESTAURANT","lon":"121.460917","lat":"31.231043","category":"90","category_name":"清真餐馆","address":"静安区南京西路818号818广场5楼(近石门一路)"},{"poiid":"B2094757D06FA6FC4093","title":"藏珑云海","lon":"121.46067198","lat":"31.230039417","category":"260","category_name":"其他","address":"静安区南京西路818号818广场6楼(石门一路口)"},{"poiid":"B2094757D06AA5FE429E","title":"滋滋星","lon":"121.46021973","lat":"31.229662288","category":"99","category_name":"泰国／越南菜品餐厅","address":"静安区吴江路200号2楼(近南京西路)"},{"poiid":"B2094757D06FAAF94793","title":"乡音书苑","lon":"121.460323154","lat":"31.2307423837","category":"260","category_name":"其他","address":"静安区南京西路860弄1号(近石门一路)"},{"poiid":"B2094757D06FA6FF429B","title":"泰意Lapis Cafe","lon":"121.460911738","lat":"31.2306823097","category":"94","category_name":"西餐厅","address":"静安区南京西路818号818广场6楼(近石门一路)"},{"poiid":"B2094655D26AABFD4592","title":"佰家仟味","lon":"121.46094","lat":"31.23094","category":"260","category_name":"其他","address":"静安区南京西路818号818广场5楼(近石门一路)"},{"poiid":"B2094752D56DAAF9469B","title":"点点心茶餐厅","lon":"121.459487","lat":"31.230247","category":"247","category_name":"餐饮美食","address":"南京西路889号2楼"},{"poiid":"B2094757D06FA0F9409A","title":"悦蓉香锅牛蛙馆","lon":"121.461138","lat":"31.230666","category":"247","category_name":"餐饮美食","address":"上海南京西路818号(818广场)B1"},{"poiid":"B2094757D469A2F9449D","title":"锅品面吧 吴江路店 Noodle Bar","lon":"121.460099","lat":"31.229882","category":"68","category_name":"快餐厅","address":"静安区吴江路202号(近泰兴路)"},{"poiid":"B2094757D065AAFC419E","title":"力士相撲焼肉","lon":"121.459747738","lat":"31.2295532857","category":"500","category_name":"未知分类","address":"上海静安区江宁路四季坊"},{"poiid":"B2094757D065A7F94698","title":"大渔铁板烧","lon":"121.460854738","lat":"31.2307773117","category":"247","category_name":"餐饮美食","address":"上海静安区南京西路818号6楼"},{"poiid":"B2094750DA68A2F54792","title":"LA PASTA 義面屋","lon":"121.460853","lat":"31.230667","category":"247","category_name":"餐饮美食","address":null},{"poiid":"B2094757D46EA5F54798","title":"金必多茶餐厅","lon":"121.4609876","lat":"31.2307105","category":"72","category_name":"广东菜","address":"静安区南京西路819号开欣商厦410室(近石门一路)"},{"poiid":"B2094757D66FA6FA469F","title":"GAP(南京西路店)","lon":"121.46075169","lat":"31.230473985","category":"141","category_name":"服装鞋帽皮具店","address":"静安区南京西路819号中创大厦1-2楼(石门一路口)"},{"poiid":"B2094757D06AA4FB499C","title":"Noz Michio Nozawa Hair Produce","lon":"121.46091669","lat":"31.230796314","category":"500","category_name":"未知分类","address":"上海静安区南京西路832号"},{"poiid":"B2094757D06FA6FE489C","title":"北泰电信大楼","lon":"121.459558","lat":"31.231557","category":"500","category_name":"未知分类","address":"上海北京西路819号"},{"poiid":"B2094757D06BA3FA489A","title":"HM","lon":"121.461163338","lat":"31.2305978079","category":"141","category_name":"服装鞋帽皮具店","address":"上海南京西路865号"},{"poiid":"B2094752D16BA6F94192","title":"许留山（吴江路店）","lon":"121.460549","lat":"31.230808","category":"247","category_name":"餐饮美食","address":"静安区吴江路269号湟普汇商场1楼C单元"},{"poiid":"B2094757D56CABFB409A","title":"芋贵人甜品店 南京西路店","lon":"121.4609876","lat":"31.2307105","category":"67","category_name":"甜品店","address":"静安区南京西路819号开欣商场412室"},{"poiid":"B2094750D565A1FA489A","title":"花の舞","lon":"121.460815","lat":"31.230707","category":"95","category_name":"日本料理","address":"静安区南京西路819号中创大厦5楼(近吴江路)"},{"poiid":"B2094757D06FA2FD4392","title":"卡卡圈坊","lon":"121.46009198","lat":"31.229713623","category":"67","category_name":"甜品店","address":"上海吴江路169号四季坊142单元"},{"poiid":"B2094654DA6CA1F8429B","title":"沈家鱼头王","lon":"121.45962","lat":"31.22982","category":"76","category_name":"上海菜","address":"静安区泰兴路178号瑞泰大酒店2-3楼(近吴江路)"},{"poiid":"B2094655D36CA5F54093","title":"北京西路泰兴路","lon":"121.45873","lat":"31.23168","category":"38","category_name":"公交车站","address":"上海市静安区昌平路"},{"poiid":"B2094757D06FA2FD449E","title":"85度C(吴江路店)","lon":"121.45957964","lat":"31.229537246","category":"112","category_name":"糕饼店","address":"静安区吴江路269号(近茂名北路)"},{"poiid":"B2094757D16CAAF9419C","title":"虹橋國際機場t2航站樓b5-m3-b16","lon":"121.46053223","lat":"31.231014816","category":"500","category_name":"未知分类","address":"上海虹橋國際機場t2航站樓b5-m3-b16"},{"poiid":"B2094750DB68A2F44098","title":"品欢相声会馆","lon":"121.460662","lat":"31.231037","category":"500","category_name":"未知分类","address":"南京西路860号"},{"poiid":"B2094752D26FA4F9489B","title":"点点心 港式茶餐厅","lon":"121.45932","lat":"31.230103","category":"500","category_name":"未知分类","address":null},{"poiid":"B2094757D76DA0F4429F","title":"越旺法式越南菜 PHO 26","lon":"121.460315054","lat":"31.230335793","category":"99","category_name":"泰国／越南菜品餐厅","address":"静安区吴江路178号2楼(玛莎商场对面)"},{"poiid":"B2094655D26CAAFD469F","title":"Issimo","lon":"121.45899194611","lat":"31.229678177388","category":"94","category_name":"西餐厅","address":"静安区南京西路931号家合酒店2楼(近泰兴路)"},{"poiid":"B2094454D26BA2FB439D","title":"乐伯部队锅","lon":"121.459518","lat":"31.229896","category":"247","category_name":"餐饮美食","address":"上海市 吴江路四季坊"},{"poiid":"B2094757DA6FA2FD449B","title":"神户明味家七轮烧肉","lon":"121.460747999999","lat":"31.2304259999998","category":"269","category_name":"烧烤","address":"静安区南京西路819号中创大厦5楼(近吴江路)"},{"poiid":"B2094655D26DA3FE469B","title":"MARKS & SPENCER","lon":"121.46036","lat":"31.23035","category":"141","category_name":"服装鞋帽皮具店","address":"卢湾区淮海中路112号(近龙门路)"},{"poiid":"B2094757D069A6FB4292","title":"中国移动南京西路营业厅","lon":"121.458921","lat":"31.230025","category":"151","category_name":"电讯营业厅","address":"南京西路936-938"},{"poiid":"B2094757D168A7F5429B","title":"江边城外巫山烤全鱼(南京西路店)","lon":"121.460719078","lat":"31.2302828712","category":"71","category_name":"四川菜","address":"静安区南京西路819号中创大厦5楼(近地铁2号线南京西路站)"},{"poiid":"B2094757DA6EA6F5469B","title":"外婆家(818广场店)","lon":"121.460788249969","lat":"31.230931141954","category":"75","category_name":"浙江菜","address":"静安区南京西路818号818广场701室(近石门一路)"},{"poiid":"B2094655D26AAAFE4992","title":"818广场","lon":"121.46094","lat":"31.23094","category":"119","category_name":"商场","address":"静安区南京西路818号(近石门一路)"},{"poiid":"B2094753D76FAAFA449C","title":"上海滩国泰旗舰店","lon":"121.466011","lat":"31.216125","category":"249","category_name":"购物服务","address":"淮海中路868号"},{"poiid":"B209475CD564A7F84292","title":"上海滩新天地店","lon":"121.47463","lat":"31.22164","category":"119","category_name":"商场","address":"\"太仓路181弄新天地北里15号\r\n\""},{"poiid":"B209475CD564A7F8439E","title":"上海滩中信泰富店","lon":"121.45602","lat":"31.22851","category":"119","category_name":"商场","address":"\"南京西路1168号中信泰富广场，店铺号221.\r\n\""},{"poiid":"B2094757D06EAAF9449E","title":"掌上韩品 吴江路店","lon":"121.4598384","lat":"31.2297555","category":"96","category_name":"韩国料理","address":"静安区吴江路200号(近南京西路)"},{"poiid":"B2094655D268ABFC4792","title":"吴江路休闲街","lon":"121.46067","lat":"31.22994","category":"116","category_name":"特色商业街","address":"上海吴江路休闲街"},{"poiid":"B2094757D06FA1F9489A","title":"藏珑泰厨","lon":"121.46120173","lat":"31.230886314","category":"99","category_name":"泰国／越南菜品餐厅","address":"静安区南京西路818号818广场6楼(近石门一路)"},{"poiid":"B2094750D66CABF94899","title":"幸福131","lon":"121.4608","lat":"31.230554","category":"71","category_name":"四川菜","address":"静安区南京西路819号中创大厦4楼(近吴江路)"},{"poiid":"B2094655D26AAAF8449C","title":"香港狮子山下","lon":"121.46094","lat":"31.23094","category":"72","category_name":"广东菜","address":"静安区南京西路818号818广场5楼(近石门二路)"},{"poiid":"B2094654DA6CA1F84292","title":"王家沙(南京西路)","lon":"121.46122","lat":"31.23063","category":"257","category_name":"中餐厅","address":"静安区南京西路805号(近石门一路)"},{"poiid":"B2094757D06FA0FB4998","title":"半山小馆","lon":"121.46059521","lat":"31.230252198","category":"91","category_name":"台湾菜","address":"静安区南京西路818号818广场6楼(石门一路口)"},{"poiid":"B2094757D465A4FA489B","title":"牛阵日式火锅 四季坊店","lon":"121.46003","lat":"31.22982","category":"95","category_name":"日本料理","address":"静安区吴江路169号四季坊242单元(近石门一路)"},{"poiid":"B2094750DA6BA1F54598","title":"斯利美SLM","lon":"121.45935","lat":"31.229806","category":"112","category_name":"糕饼店","address":"静安区吴江路169号四季坊149单元(近地铁2号线南京西路站)"},{"poiid":"B2094757D06EAAFF4298","title":"南京西路地铁站","lon":"121.459723","lat":"31.229734","category":"36","category_name":"地铁站","address":"上海轨道交通 二号线 轨交南京西路站 2"},{"poiid":"B2094757D06EAAF44799","title":"马莎百货(南京西路店)","lon":"121.46058","lat":"31.23005","category":"119","category_name":"商场","address":"静安区南京西路863号(近石门一路)"},{"poiid":"B2094757DB68A5F5449E","title":"古丽仙西域情餐厅 GULIXIAN RESTAURANT","lon":"121.460917","lat":"31.231043","category":"90","category_name":"清真餐馆","address":"静安区南京西路818号818广场5楼(近石门一路)"},{"poiid":"B2094757D06FA6FC4093","title":"藏珑云海","lon":"121.46067198","lat":"31.230039417","category":"260","category_name":"其他","address":"静安区南京西路818号818广场6楼(石门一路口)"},{"poiid":"B2094757D06AA5FE429E","title":"滋滋星","lon":"121.46021973","lat":"31.229662288","category":"99","category_name":"泰国／越南菜品餐厅","address":"静安区吴江路200号2楼(近南京西路)"},{"poiid":"B2094757D06FAAF94793","title":"乡音书苑","lon":"121.460323154","lat":"31.2307423837","category":"260","category_name":"其他","address":"静安区南京西路860弄1号(近石门一路)"},{"poiid":"B2094757D06FA6FF429B","title":"泰意Lapis Cafe","lon":"121.460911738","lat":"31.2306823097","category":"94","category_name":"西餐厅","address":"静安区南京西路818号818广场6楼(近石门一路)"},{"poiid":"B2094655D26AABFD4592","title":"佰家仟味","lon":"121.46094","lat":"31.23094","category":"260","category_name":"其他","address":"静安区南京西路818号818广场5楼(近石门一路)"},{"poiid":"B2094752D56DAAF9469B","title":"点点心茶餐厅","lon":"121.459487","lat":"31.230247","category":"247","category_name":"餐饮美食","address":"南京西路889号2楼"},{"poiid":"B2094757D06FA0F9409A","title":"悦蓉香锅牛蛙馆","lon":"121.461138","lat":"31.230666","category":"247","category_name":"餐饮美食","address":"上海南京西路818号(818广场)B1"},{"poiid":"B2094757D469A2F9449D","title":"锅品面吧 吴江路店 Noodle Bar","lon":"121.460099","lat":"31.229882","category":"68","category_name":"快餐厅","address":"静安区吴江路202号(近泰兴路)"},{"poiid":"B2094757D065AAFC419E","title":"力士相撲焼肉","lon":"121.459747738","lat":"31.2295532857","category":"500","category_name":"未知分类","address":"上海静安区江宁路四季坊"},{"poiid":"B2094757D065A7F94698","title":"大渔铁板烧","lon":"121.460854738","lat":"31.2307773117","category":"247","category_name":"餐饮美食","address":"上海静安区南京西路818号6楼"},{"poiid":"B2094750DA68A2F54792","title":"LA PASTA 義面屋","lon":"121.460853","lat":"31.230667","category":"247","category_name":"餐饮美食","address":null},{"poiid":"B2094757D46EA5F54798","title":"金必多茶餐厅","lon":"121.4609876","lat":"31.2307105","category":"72","category_name":"广东菜","address":"静安区南京西路819号开欣商厦410室(近石门一路)"},{"poiid":"B2094757D66FA6FA469F","title":"GAP(南京西路店)","lon":"121.46075169","lat":"31.230473985","category":"141","category_name":"服装鞋帽皮具店","address":"静安区南京西路819号中创大厦1-2楼(石门一路口)"},{"poiid":"B2094757D06AA4FB499C","title":"Noz Michio Nozawa Hair Produce","lon":"121.46091669","lat":"31.230796314","category":"500","category_name":"未知分类","address":"上海静安区南京西路832号"},{"poiid":"B2094757D06FA6FE489C","title":"北泰电信大楼","lon":"121.459558","lat":"31.231557","category":"500","category_name":"未知分类","address":"上海北京西路819号"},{"poiid":"B2094757D06BA3FA489A","title":"HM","lon":"121.461163338","lat":"31.2305978079","category":"141","category_name":"服装鞋帽皮具店","address":"上海南京西路865号"},{"poiid":"B2094752D16BA6F94192","title":"许留山（吴江路店）","lon":"121.460549","lat":"31.230808","category":"247","category_name":"餐饮美食","address":"静安区吴江路269号湟普汇商场1楼C单元"},{"poiid":"B2094757D56CABFB409A","title":"芋贵人甜品店 南京西路店","lon":"121.4609876","lat":"31.2307105","category":"67","category_name":"甜品店","address":"静安区南京西路819号开欣商场412室"},{"poiid":"B2094750D565A1FA489A","title":"花の舞","lon":"121.460815","lat":"31.230707","category":"95","category_name":"日本料理","address":"静安区南京西路819号中创大厦5楼(近吴江路)"},{"poiid":"B2094757D06FA2FD4392","title":"卡卡圈坊","lon":"121.46009198","lat":"31.229713623","category":"67","category_name":"甜品店","address":"上海吴江路169号四季坊142单元"},{"poiid":"B2094654DA6CA1F8429B","title":"沈家鱼头王","lon":"121.45962","lat":"31.22982","category":"76","category_name":"上海菜","address":"静安区泰兴路178号瑞泰大酒店2-3楼(近吴江路)"},{"poiid":"B2094655D36CA5F54093","title":"北京西路泰兴路","lon":"121.45873","lat":"31.23168","category":"38","category_name":"公交车站","address":"上海市静安区昌平路"},{"poiid":"B2094757D06FA2FD449E","title":"85度C(吴江路店)","lon":"121.45957964","lat":"31.229537246","category":"112","category_name":"糕饼店","address":"静安区吴江路269号(近茂名北路)"},{"poiid":"B2094757D16CAAF9419C","title":"虹橋國際機場t2航站樓b5-m3-b16","lon":"121.46053223","lat":"31.231014816","category":"500","category_name":"未知分类","address":"上海虹橋國際機場t2航站樓b5-m3-b16"},{"poiid":"B2094750DB68A2F44098","title":"品欢相声会馆","lon":"121.460662","lat":"31.231037","category":"500","category_name":"未知分类","address":"南京西路860号"},{"poiid":"B2094752D26FA4F9489B","title":"点点心 港式茶餐厅","lon":"121.45932","lat":"31.230103","category":"500","category_name":"未知分类","address":null},{"poiid":"B2094757D76DA0F4429F","title":"越旺法式越南菜 PHO 26","lon":"121.460315054","lat":"31.230335793","category":"99","category_name":"泰国／越南菜品餐厅","address":"静安区吴江路178号2楼(玛莎商场对面)"},{"poiid":"B2094655D26CAAFD469F","title":"Issimo","lon":"121.45899194611","lat":"31.229678177388","category":"94","category_name":"西餐厅","address":"静安区南京西路931号家合酒店2楼(近泰兴路)"},{"poiid":"B2094454D26BA2FB439D","title":"乐伯部队锅","lon":"121.459518","lat":"31.229896","category":"247","category_name":"餐饮美食","address":"上海市 吴江路四季坊"},{"poiid":"B2094757DA6FA2FD449B","title":"神户明味家七轮烧肉","lon":"121.460747999999","lat":"31.2304259999998","category":"269","category_name":"烧烤","address":"静安区南京西路819号中创大厦5楼(近吴江路)"},{"poiid":"B2094655D26DA3FE469B","title":"MARKS & SPENCER","lon":"121.46036","lat":"31.23035","category":"141","category_name":"服装鞋帽皮具店","address":"卢湾区淮海中路112号(近龙门路)"},{"poiid":"B2094757D069A6FB4292","title":"中国移动南京西路营业厅","lon":"121.458921","lat":"31.230025","category":"151","category_name":"电讯营业厅","address":"南京西路936-938"},{"poiid":"B2094757D168A7F5429B","title":"江边城外巫山烤全鱼(南京西路店)","lon":"121.460719078","lat":"31.2302828712","category":"71","category_name":"四川菜","address":"静安区南京西路819号中创大厦5楼(近地铁2号线南京西路站)"},{"poiid":"B2094757DA6EA6F5469B","title":"外婆家(818广场店)","lon":"121.460788249969","lat":"31.230931141954","category":"75","category_name":"浙江菜","address":"静安区南京西路818号818广场701室(近石门一路)"},{"poiid":"B2094655D26AAAFE4992","title":"818广场","lon":"121.46094","lat":"31.23094","category":"119","category_name":"商场","address":"静安区南京西路818号(近石门一路)"},{"poiid":"B2094753D76FAAFA449C","title":"上海滩国泰旗舰店","lon":"121.466011","lat":"31.216125","category":"249","category_name":"购物服务","address":"淮海中路868号"},{"poiid":"B209475CD564A7F84292","title":"上海滩新天地店","lon":"121.47463","lat":"31.22164","category":"119","category_name":"商场","address":"\"太仓路181弄新天地北里15号\r\n\""},{"poiid":"B209475CD564A7F8439E","title":"上海滩中信泰富店","lon":"121.45602","lat":"31.22851","category":"119","category_name":"商场","address":"\"南京西路1168号中信泰富广场，店铺号221.\r\n\""},{"poiid":"B2094757D06EAAF9449E","title":"掌上韩品 吴江路店","lon":"121.4598384","lat":"31.2297555","category":"96","category_name":"韩国料理","address":"静安区吴江路200号(近南京西路)"},{"poiid":"B2094655D268ABFC4792","title":"吴江路休闲街","lon":"121.46067","lat":"31.22994","category":"116","category_name":"特色商业街","address":"上海吴江路休闲街"},{"poiid":"B2094757D06FA1F9489A","title":"藏珑泰厨","lon":"121.46120173","lat":"31.230886314","category":"99","category_name":"泰国／越南菜品餐厅","address":"静安区南京西路818号818广场6楼(近石门一路)"},{"poiid":"B2094750D66CABF94899","title":"幸福131","lon":"121.4608","lat":"31.230554","category":"71","category_name":"四川菜","address":"静安区南京西路819号中创大厦4楼(近吴江路)"},{"poiid":"B2094655D26AAAF8449C","title":"香港狮子山下","lon":"121.46094","lat":"31.23094","category":"72","category_name":"广东菜","address":"静安区南京西路818号818广场5楼(近石门二路)"},{"poiid":"B2094654DA6CA1F84292","title":"王家沙(南京西路)","lon":"121.46122","lat":"31.23063","category":"257","category_name":"中餐厅","address":"静安区南京西路805号(近石门一路)"},{"poiid":"B2094757D06FA0FB4998","title":"半山小馆","lon":"121.46059521","lat":"31.230252198","category":"91","category_name":"台湾菜","address":"静安区南京西路818号818广场6楼(石门一路口)"},{"poiid":"B2094757D465A4FA489B","title":"牛阵日式火锅 四季坊店","lon":"121.46003","lat":"31.22982","category":"95","category_name":"日本料理","address":"静安区吴江路169号四季坊242单元(近石门一路)"},{"poiid":"B2094750DA6BA1F54598","title":"斯利美SLM","lon":"121.45935","lat":"31.229806","category":"112","category_name":"糕饼店","address":"静安区吴江路169号四季坊149单元(近地铁2号线南京西路站)"},{"poiid":"B2094757D06EAAFF4298","title":"南京西路地铁站","lon":"121.459723","lat":"31.229734","category":"36","category_name":"地铁站","address":"上海轨道交通 二号线 轨交南京西路站 2"},{"poiid":"B2094757D06EAAF44799","title":"马莎百货(南京西路店)","lon":"121.46058","lat":"31.23005","category":"119","category_name":"商场","address":"静安区南京西路863号(近石门一路)"},{"poiid":"B2094757DB68A5F5449E","title":"古丽仙西域情餐厅 GULIXIAN RESTAURANT","lon":"121.460917","lat":"31.231043","category":"90","category_name":"清真餐馆","address":"静安区南京西路818号818广场5楼(近石门一路)"},{"poiid":"B2094757D06FA6FC4093","title":"藏珑云海","lon":"121.46067198","lat":"31.230039417","category":"260","category_name":"其他","address":"静安区南京西路818号818广场6楼(石门一路口)"},{"poiid":"B2094757D06AA5FE429E","title":"滋滋星","lon":"121.46021973","lat":"31.229662288","category":"99","category_name":"泰国／越南菜品餐厅","address":"静安区吴江路200号2楼(近南京西路)"},{"poiid":"B2094757D06FAAF94793","title":"乡音书苑","lon":"121.460323154","lat":"31.2307423837","category":"260","category_name":"其他","address":"静安区南京西路860弄1号(近石门一路)"},{"poiid":"B2094757D06FA6FF429B","title":"泰意Lapis Cafe","lon":"121.460911738","lat":"31.2306823097","category":"94","category_name":"西餐厅","address":"静安区南京西路818号818广场6楼(近石门一路)"},{"poiid":"B2094655D26AABFD4592","title":"佰家仟味","lon":"121.46094","lat":"31.23094","category":"260","category_name":"其他","address":"静安区南京西路818号818广场5楼(近石门一路)"},{"poiid":"B2094752D56DAAF9469B","title":"点点心茶餐厅","lon":"121.459487","lat":"31.230247","category":"247","category_name":"餐饮美食","address":"南京西路889号2楼"},{"poiid":"B2094757D06FA0F9409A","title":"悦蓉香锅牛蛙馆","lon":"121.461138","lat":"31.230666","category":"247","category_name":"餐饮美食","address":"上海南京西路818号(818广场)B1"},{"poiid":"B2094757D469A2F9449D","title":"锅品面吧 吴江路店 Noodle Bar","lon":"121.460099","lat":"31.229882","category":"68","category_name":"快餐厅","address":"静安区吴江路202号(近泰兴路)"},{"poiid":"B2094757D065AAFC419E","title":"力士相撲焼肉","lon":"121.459747738","lat":"31.2295532857","category":"500","category_name":"未知分类","address":"上海静安区江宁路四季坊"},{"poiid":"B2094757D065A7F94698","title":"大渔铁板烧","lon":"121.460854738","lat":"31.2307773117","category":"247","category_name":"餐饮美食","address":"上海静安区南京西路818号6楼"},{"poiid":"B2094750DA68A2F54792","title":"LA PASTA 義面屋","lon":"121.460853","lat":"31.230667","category":"247","category_name":"餐饮美食","address":null},{"poiid":"B2094757D46EA5F54798","title":"金必多茶餐厅","lon":"121.4609876","lat":"31.2307105","category":"72","category_name":"广东菜","address":"静安区南京西路819号开欣商厦410室(近石门一路)"},{"poiid":"B2094757D66FA6FA469F","title":"GAP(南京西路店)","lon":"121.46075169","lat":"31.230473985","category":"141","category_name":"服装鞋帽皮具店","address":"静安区南京西路819号中创大厦1-2楼(石门一路口)"},{"poiid":"B2094757D06AA4FB499C","title":"Noz Michio Nozawa Hair Produce","lon":"121.46091669","lat":"31.230796314","category":"500","category_name":"未知分类","address":"上海静安区南京西路832号"},{"poiid":"B2094757D06FA6FE489C","title":"北泰电信大楼","lon":"121.459558","lat":"31.231557","category":"500","category_name":"未知分类","address":"上海北京西路819号"},{"poiid":"B2094757D06BA3FA489A","title":"HM","lon":"121.461163338","lat":"31.2305978079","category":"141","category_name":"服装鞋帽皮具店","address":"上海南京西路865号"},{"poiid":"B2094752D16BA6F94192","title":"许留山（吴江路店）","lon":"121.460549","lat":"31.230808","category":"247","category_name":"餐饮美食","address":"静安区吴江路269号湟普汇商场1楼C单元"},{"poiid":"B2094757D56CABFB409A","title":"芋贵人甜品店 南京西路店","lon":"121.4609876","lat":"31.2307105","category":"67","category_name":"甜品店","address":"静安区南京西路819号开欣商场412室"},{"poiid":"B2094750D565A1FA489A","title":"花の舞","lon":"121.460815","lat":"31.230707","category":"95","category_name":"日本料理","address":"静安区南京西路819号中创大厦5楼(近吴江路)"},{"poiid":"B2094757D06FA2FD4392","title":"卡卡圈坊","lon":"121.46009198","lat":"31.229713623","category":"67","category_name":"甜品店","address":"上海吴江路169号四季坊142单元"},{"poiid":"B2094654DA6CA1F8429B","title":"沈家鱼头王","lon":"121.45962","lat":"31.22982","category":"76","category_name":"上海菜","address":"静安区泰兴路178号瑞泰大酒店2-3楼(近吴江路)"},{"poiid":"B2094655D36CA5F54093","title":"北京西路泰兴路","lon":"121.45873","lat":"31.23168","category":"38","category_name":"公交车站","address":"上海市静安区昌平路"},{"poiid":"B2094757D06FA2FD449E","title":"85度C(吴江路店)","lon":"121.45957964","lat":"31.229537246","category":"112","category_name":"糕饼店","address":"静安区吴江路269号(近茂名北路)"},{"poiid":"B2094757D16CAAF9419C","title":"虹橋國際機場t2航站樓b5-m3-b16","lon":"121.46053223","lat":"31.231014816","category":"500","category_name":"未知分类","address":"上海虹橋國際機場t2航站樓b5-m3-b16"},{"poiid":"B2094750DB68A2F44098","title":"品欢相声会馆","lon":"121.460662","lat":"31.231037","category":"500","category_name":"未知分类","address":"南京西路860号"},{"poiid":"B2094752D26FA4F9489B","title":"点点心 港式茶餐厅","lon":"121.45932","lat":"31.230103","category":"500","category_name":"未知分类","address":null},{"poiid":"B2094757D76DA0F4429F","title":"越旺法式越南菜 PHO 26","lon":"121.460315054","lat":"31.230335793","category":"99","category_name":"泰国／越南菜品餐厅","address":"静安区吴江路178号2楼(玛莎商场对面)"},{"poiid":"B2094655D26CAAFD469F","title":"Issimo","lon":"121.45899194611","lat":"31.229678177388","category":"94","category_name":"西餐厅","address":"静安区南京西路931号家合酒店2楼(近泰兴路)"},{"poiid":"B2094454D26BA2FB439D","title":"乐伯部队锅","lon":"121.459518","lat":"31.229896","category":"247","category_name":"餐饮美食","address":"上海市 吴江路四季坊"},{"poiid":"B2094757DA6FA2FD449B","title":"神户明味家七轮烧肉","lon":"121.460747999999","lat":"31.2304259999998","category":"269","category_name":"烧烤","address":"静安区南京西路819号中创大厦5楼(近吴江路)"},{"poiid":"B2094655D26DA3FE469B","title":"MARKS & SPENCER","lon":"121.46036","lat":"31.23035","category":"141","category_name":"服装鞋帽皮具店","address":"卢湾区淮海中路112号(近龙门路)"},{"poiid":"B2094757D069A6FB4292","title":"中国移动南京西路营业厅","lon":"121.458921","lat":"31.230025","category":"151","category_name":"电讯营业厅","address":"南京西路936-938"},{"poiid":"B2094757D168A7F5429B","title":"江边城外巫山烤全鱼(南京西路店)","lon":"121.460719078","lat":"31.2302828712","category":"71","category_name":"四川菜","address":"静安区南京西路819号中创大厦5楼(近地铁2号线南京西路站)"},{"poiid":"B2094757DA6EA6F5469B","title":"外婆家(818广场店)","lon":"121.460788249969","lat":"31.230931141954","category":"75","category_name":"浙江菜","address":"静安区南京西路818号818广场701室(近石门一路)"},{"poiid":"B2094655D26AAAFE4992","title":"818广场","lon":"121.46094","lat":"31.23094","category":"119","category_name":"商场","address":"静安区南京西路818号(近石门一路)"},{"poiid":"B2094753D76FAAFA449C","title":"上海滩国泰旗舰店","lon":"121.466011","lat":"31.216125","category":"249","category_name":"购物服务","address":"淮海中路868号"},{"poiid":"B209475CD564A7F84292","title":"上海滩新天地店","lon":"121.47463","lat":"31.22164","category":"119","category_name":"商场","address":"\"太仓路181弄新天地北里15号\r\n\""},{"poiid":"B209475CD564A7F8439E","title":"上海滩中信泰富店","lon":"121.45602","lat":"31.22851","category":"119","category_name":"商场","address":"\"南京西路1168号中信泰富广场，店铺号221.\r\n\""},{"poiid":"B2094757D06EAAF9449E","title":"掌上韩品 吴江路店","lon":"121.4598384","lat":"31.2297555","category":"96","category_name":"韩国料理","address":"静安区吴江路200号(近南京西路)"},{"poiid":"B2094655D268ABFC4792","title":"吴江路休闲街","lon":"121.46067","lat":"31.22994","category":"116","category_name":"特色商业街","address":"上海吴江路休闲街"},{"poiid":"B2094757D06FA1F9489A","title":"藏珑泰厨","lon":"121.46120173","lat":"31.230886314","category":"99","category_name":"泰国／越南菜品餐厅","address":"静安区南京西路818号818广场6楼(近石门一路)"},{"poiid":"B2094750D66CABF94899","title":"幸福131","lon":"121.4608","lat":"31.230554","category":"71","category_name":"四川菜","address":"静安区南京西路819号中创大厦4楼(近吴江路)"},{"poiid":"B2094655D26AAAF8449C","title":"香港狮子山下","lon":"121.46094","lat":"31.23094","category":"72","category_name":"广东菜","address":"静安区南京西路818号818广场5楼(近石门二路)"},{"poiid":"B2094654DA6CA1F84292","title":"王家沙(南京西路)","lon":"121.46122","lat":"31.23063","category":"257","category_name":"中餐厅","address":"静安区南京西路805号(近石门一路)"},{"poiid":"B2094757D06FA0FB4998","title":"半山小馆","lon":"121.46059521","lat":"31.230252198","category":"91","category_name":"台湾菜","address":"静安区南京西路818号818广场6楼(石门一路口)"},{"poiid":"B2094757D465A4FA489B","title":"牛阵日式火锅 四季坊店","lon":"121.46003","lat":"31.22982","category":"95","category_name":"日本料理","address":"静安区吴江路169号四季坊242单元(近石门一路)"},{"poiid":"B2094750DA6BA1F54598","title":"斯利美SLM","lon":"121.45935","lat":"31.229806","category":"112","category_name":"糕饼店","address":"静安区吴江路169号四季坊149单元(近地铁2号线南京西路站)"},{"poiid":"B2094757D06EAAFF4298","title":"南京西路地铁站","lon":"121.459723","lat":"31.229734","category":"36","category_name":"地铁站","address":"上海轨道交通 二号线 轨交南京西路站 2"},{"poiid":"B2094757D06EAAF44799","title":"马莎百货(南京西路店)","lon":"121.46058","lat":"31.23005","category":"119","category_name":"商场","address":"静安区南京西路863号(近石门一路)"},{"poiid":"B2094757DB68A5F5449E","title":"古丽仙西域情餐厅 GULIXIAN RESTAURANT","lon":"121.460917","lat":"31.231043","category":"90","category_name":"清真餐馆","address":"静安区南京西路818号818广场5楼(近石门一路)"},{"poiid":"B2094757D06FA6FC4093","title":"藏珑云海","lon":"121.46067198","lat":"31.230039417","category":"260","category_name":"其他","address":"静安区南京西路818号818广场6楼(石门一路口)"},{"poiid":"B2094757D06AA5FE429E","title":"滋滋星","lon":"121.46021973","lat":"31.229662288","category":"99","category_name":"泰国／越南菜品餐厅","address":"静安区吴江路200号2楼(近南京西路)"},{"poiid":"B2094757D06FAAF94793","title":"乡音书苑","lon":"121.460323154","lat":"31.2307423837","category":"260","category_name":"其他","address":"静安区南京西路860弄1号(近石门一路)"},{"poiid":"B2094757D06FA6FF429B","title":"泰意Lapis Cafe","lon":"121.460911738","lat":"31.2306823097","category":"94","category_name":"西餐厅","address":"静安区南京西路818号818广场6楼(近石门一路)"},{"poiid":"B2094655D26AABFD4592","title":"佰家仟味","lon":"121.46094","lat":"31.23094","category":"260","category_name":"其他","address":"静安区南京西路818号818广场5楼(近石门一路)"},{"poiid":"B2094752D56DAAF9469B","title":"点点心茶餐厅","lon":"121.459487","lat":"31.230247","category":"247","category_name":"餐饮美食","address":"南京西路889号2楼"},{"poiid":"B2094757D06FA0F9409A","title":"悦蓉香锅牛蛙馆","lon":"121.461138","lat":"31.230666","category":"247","category_name":"餐饮美食","address":"上海南京西路818号(818广场)B1"},{"poiid":"B2094757D469A2F9449D","title":"锅品面吧 吴江路店 Noodle Bar","lon":"121.460099","lat":"31.229882","category":"68","category_name":"快餐厅","address":"静安区吴江路202号(近泰兴路)"},{"poiid":"B2094757D065AAFC419E","title":"力士相撲焼肉","lon":"121.459747738","lat":"31.2295532857","category":"500","category_name":"未知分类","address":"上海静安区江宁路四季坊"},{"poiid":"B2094757D065A7F94698","title":"大渔铁板烧","lon":"121.460854738","lat":"31.2307773117","category":"247","category_name":"餐饮美食","address":"上海静安区南京西路818号6楼"},{"poiid":"B2094750DA68A2F54792","title":"LA PASTA 義面屋","lon":"121.460853","lat":"31.230667","category":"247","category_name":"餐饮美食","address":null},{"poiid":"B2094757D46EA5F54798","title":"金必多茶餐厅","lon":"121.4609876","lat":"31.2307105","category":"72","category_name":"广东菜","address":"静安区南京西路819号开欣商厦410室(近石门一路)"},{"poiid":"B2094757D66FA6FA469F","title":"GAP(南京西路店)","lon":"121.46075169","lat":"31.230473985","category":"141","category_name":"服装鞋帽皮具店","address":"静安区南京西路819号中创大厦1-2楼(石门一路口)"},{"poiid":"B2094757D06AA4FB499C","title":"Noz Michio Nozawa Hair Produce","lon":"121.46091669","lat":"31.230796314","category":"500","category_name":"未知分类","address":"上海静安区南京西路832号"},{"poiid":"B2094757D06FA6FE489C","title":"北泰电信大楼","lon":"121.459558","lat":"31.231557","category":"500","category_name":"未知分类","address":"上海北京西路819号"},{"poiid":"B2094757D06BA3FA489A","title":"HM","lon":"121.461163338","lat":"31.2305978079","category":"141","category_name":"服装鞋帽皮具店","address":"上海南京西路865号"},{"poiid":"B2094752D16BA6F94192","title":"许留山（吴江路店）","lon":"121.460549","lat":"31.230808","category":"247","category_name":"餐饮美食","address":"静安区吴江路269号湟普汇商场1楼C单元"},{"poiid":"B2094757D56CABFB409A","title":"芋贵人甜品店 南京西路店","lon":"121.4609876","lat":"31.2307105","category":"67","category_name":"甜品店","address":"静安区南京西路819号开欣商场412室"},{"poiid":"B2094750D565A1FA489A","title":"花の舞","lon":"121.460815","lat":"31.230707","category":"95","category_name":"日本料理","address":"静安区南京西路819号中创大厦5楼(近吴江路)"},{"poiid":"B2094757D06FA2FD4392","title":"卡卡圈坊","lon":"121.46009198","lat":"31.229713623","category":"67","category_name":"甜品店","address":"上海吴江路169号四季坊142单元"},{"poiid":"B2094654DA6CA1F8429B","title":"沈家鱼头王","lon":"121.45962","lat":"31.22982","category":"76","category_name":"上海菜","address":"静安区泰兴路178号瑞泰大酒店2-3楼(近吴江路)"},{"poiid":"B2094655D36CA5F54093","title":"北京西路泰兴路","lon":"121.45873","lat":"31.23168","category":"38","category_name":"公交车站","address":"上海市静安区昌平路"},{"poiid":"B2094757D06FA2FD449E","title":"85度C(吴江路店)","lon":"121.45957964","lat":"31.229537246","category":"112","category_name":"糕饼店","address":"静安区吴江路269号(近茂名北路)"},{"poiid":"B2094757D16CAAF9419C","title":"虹橋國際機場t2航站樓b5-m3-b16","lon":"121.46053223","lat":"31.231014816","category":"500","category_name":"未知分类","address":"上海虹橋國際機場t2航站樓b5-m3-b16"},{"poiid":"B2094750DB68A2F44098","title":"品欢相声会馆","lon":"121.460662","lat":"31.231037","category":"500","category_name":"未知分类","address":"南京西路860号"},{"poiid":"B2094752D26FA4F9489B","title":"点点心 港式茶餐厅","lon":"121.45932","lat":"31.230103","category":"500","category_name":"未知分类","address":null},{"poiid":"B2094757D76DA0F4429F","title":"越旺法式越南菜 PHO 26","lon":"121.460315054","lat":"31.230335793","category":"99","category_name":"泰国／越南菜品餐厅","address":"静安区吴江路178号2楼(玛莎商场对面)"},{"poiid":"B2094655D26CAAFD469F","title":"Issimo","lon":"121.45899194611","lat":"31.229678177388","category":"94","category_name":"西餐厅","address":"静安区南京西路931号家合酒店2楼(近泰兴路)"},{"poiid":"B2094454D26BA2FB439D","title":"乐伯部队锅","lon":"121.459518","lat":"31.229896","category":"247","category_name":"餐饮美食","address":"上海市 吴江路四季坊"},{"poiid":"B2094757DA6FA2FD449B","title":"神户明味家七轮烧肉","lon":"121.460747999999","lat":"31.2304259999998","category":"269","category_name":"烧烤","address":"静安区南京西路819号中创大厦5楼(近吴江路)"},{"poiid":"B2094655D26DA3FE469B","title":"MARKS & SPENCER","lon":"121.46036","lat":"31.23035","category":"141","category_name":"服装鞋帽皮具店","address":"卢湾区淮海中路112号(近龙门路)"},{"poiid":"B2094757D069A6FB4292","title":"中国移动南京西路营业厅","lon":"121.458921","lat":"31.230025","category":"151","category_name":"电讯营业厅","address":"南京西路936-938"},{"poiid":"B2094757D168A7F5429B","title":"江边城外巫山烤全鱼(南京西路店)","lon":"121.460719078","lat":"31.2302828712","category":"71","category_name":"四川菜","address":"静安区南京西路819号中创大厦5楼(近地铁2号线南京西路站)"},{"poiid":"B2094757DA6EA6F5469B","title":"外婆家(818广场店)","lon":"121.460788249969","lat":"31.230931141954","category":"75","category_name":"浙江菜","address":"静安区南京西路818号818广场701室(近石门一路)"},{"poiid":"B2094655D26AAAFE4992","title":"818广场","lon":"121.46094","lat":"31.23094","category":"119","category_name":"商场","address":"静安区南京西路818号(近石门一路)"},{"poiid":"B2094753D76FAAFA449C","title":"上海滩国泰旗舰店","lon":"121.466011","lat":"31.216125","category":"249","category_name":"购物服务","address":"淮海中路868号"},{"poiid":"B209475CD564A7F84292","title":"上海滩新天地店","lon":"121.47463","lat":"31.22164","category":"119","category_name":"商场","address":"\"太仓路181弄新天地北里15号\r\n\""},{"poiid":"B209475CD564A7F8439E","title":"上海滩中信泰富店","lon":"121.45602","lat":"31.22851","category":"119","category_name":"商场","address":"\"南京西路1168号中信泰富广场，店铺号221.\r\n\""},{"poiid":"B2094757D06EAAF9449E","title":"掌上韩品 吴江路店","lon":"121.4598384","lat":"31.2297555","category":"96","category_name":"韩国料理","address":"静安区吴江路200号(近南京西路)"},{"poiid":"B2094655D268ABFC4792","title":"吴江路休闲街","lon":"121.46067","lat":"31.22994","category":"116","category_name":"特色商业街","address":"上海吴江路休闲街"},{"poiid":"B2094757D06FA1F9489A","title":"藏珑泰厨","lon":"121.46120173","lat":"31.230886314","category":"99","category_name":"泰国／越南菜品餐厅","address":"静安区南京西路818号818广场6楼(近石门一路)"},{"poiid":"B2094750D66CABF94899","title":"幸福131","lon":"121.4608","lat":"31.230554","category":"71","category_name":"四川菜","address":"静安区南京西路819号中创大厦4楼(近吴江路)"},{"poiid":"B2094655D26AAAF8449C","title":"香港狮子山下","lon":"121.46094","lat":"31.23094","category":"72","category_name":"广东菜","address":"静安区南京西路818号818广场5楼(近石门二路)"},{"poiid":"B2094654DA6CA1F84292","title":"王家沙(南京西路)","lon":"121.46122","lat":"31.23063","category":"257","category_name":"中餐厅","address":"静安区南京西路805号(近石门一路)"},{"poiid":"B2094757D06FA0FB4998","title":"半山小馆","lon":"121.46059521","lat":"31.230252198","category":"91","category_name":"台湾菜","address":"静安区南京西路818号818广场6楼(石门一路口)"},{"poiid":"B2094757D465A4FA489B","title":"牛阵日式火锅 四季坊店","lon":"121.46003","lat":"31.22982","category":"95","category_name":"日本料理","address":"静安区吴江路169号四季坊242单元(近石门一路)"},{"poiid":"B2094750DA6BA1F54598","title":"斯利美SLM","lon":"121.45935","lat":"31.229806","category":"112","category_name":"糕饼店","address":"静安区吴江路169号四季坊149单元(近地铁2号线南京西路站)"},{"poiid":"B2094757D06EAAFF4298","title":"南京西路地铁站","lon":"121.459723","lat":"31.229734","category":"36","category_name":"地铁站","address":"上海轨道交通 二号线 轨交南京西路站 2"},{"poiid":"B2094757D06EAAF44799","title":"马莎百货(南京西路店)","lon":"121.46058","lat":"31.23005","category":"119","category_name":"商场","address":"静安区南京西路863号(近石门一路)"},{"poiid":"B2094757DB68A5F5449E","title":"古丽仙西域情餐厅 GULIXIAN RESTAURANT","lon":"121.460917","lat":"31.231043","category":"90","category_name":"清真餐馆","address":"静安区南京西路818号818广场5楼(近石门一路)"},{"poiid":"B2094757D06FA6FC4093","title":"藏珑云海","lon":"121.46067198","lat":"31.230039417","category":"260","category_name":"其他","address":"静安区南京西路818号818广场6楼(石门一路口)"},{"poiid":"B2094757D06AA5FE429E","title":"滋滋星","lon":"121.46021973","lat":"31.229662288","category":"99","category_name":"泰国／越南菜品餐厅","address":"静安区吴江路200号2楼(近南京西路)"},{"poiid":"B2094757D06FAAF94793","title":"乡音书苑","lon":"121.460323154","lat":"31.2307423837","category":"260","category_name":"其他","address":"静安区南京西路860弄1号(近石门一路)"},{"poiid":"B2094757D06FA6FF429B","title":"泰意Lapis Cafe","lon":"121.460911738","lat":"31.2306823097","category":"94","category_name":"西餐厅","address":"静安区南京西路818号818广场6楼(近石门一路)"},{"poiid":"B2094655D26AABFD4592","title":"佰家仟味","lon":"121.46094","lat":"31.23094","category":"260","category_name":"其他","address":"静安区南京西路818号818广场5楼(近石门一路)"},{"poiid":"B2094752D56DAAF9469B","title":"点点心茶餐厅","lon":"121.459487","lat":"31.230247","category":"247","category_name":"餐饮美食","address":"南京西路889号2楼"},{"poiid":"B2094757D06FA0F9409A","title":"悦蓉香锅牛蛙馆","lon":"121.461138","lat":"31.230666","category":"247","category_name":"餐饮美食","address":"上海南京西路818号(818广场)B1"},{"poiid":"B2094757D469A2F9449D","title":"锅品面吧 吴江路店 Noodle Bar","lon":"121.460099","lat":"31.229882","category":"68","category_name":"快餐厅","address":"静安区吴江路202号(近泰兴路)"},{"poiid":"B2094757D065AAFC419E","title":"力士相撲焼肉","lon":"121.459747738","lat":"31.2295532857","category":"500","category_name":"未知分类","address":"上海静安区江宁路四季坊"},{"poiid":"B2094757D065A7F94698","title":"大渔铁板烧","lon":"121.460854738","lat":"31.2307773117","category":"247","category_name":"餐饮美食","address":"上海静安区南京西路818号6楼"},{"poiid":"B2094750DA68A2F54792","title":"LA PASTA 義面屋","lon":"121.460853","lat":"31.230667","category":"247","category_name":"餐饮美食","address":null},{"poiid":"B2094757D46EA5F54798","title":"金必多茶餐厅","lon":"121.4609876","lat":"31.2307105","category":"72","category_name":"广东菜","address":"静安区南京西路819号开欣商厦410室(近石门一路)"},{"poiid":"B2094757D66FA6FA469F","title":"GAP(南京西路店)","lon":"121.46075169","lat":"31.230473985","category":"141","category_name":"服装鞋帽皮具店","address":"静安区南京西路819号中创大厦1-2楼(石门一路口)"},{"poiid":"B2094757D06AA4FB499C","title":"Noz Michio Nozawa Hair Produce","lon":"121.46091669","lat":"31.230796314","category":"500","category_name":"未知分类","address":"上海静安区南京西路832号"},{"poiid":"B2094757D06FA6FE489C","title":"北泰电信大楼","lon":"121.459558","lat":"31.231557","category":"500","category_name":"未知分类","address":"上海北京西路819号"},{"poiid":"B2094757D06BA3FA489A","title":"HM","lon":"121.461163338","lat":"31.2305978079","category":"141","category_name":"服装鞋帽皮具店","address":"上海南京西路865号"},{"poiid":"B2094752D16BA6F94192","title":"许留山（吴江路店）","lon":"121.460549","lat":"31.230808","category":"247","category_name":"餐饮美食","address":"静安区吴江路269号湟普汇商场1楼C单元"},{"poiid":"B2094757D56CABFB409A","title":"芋贵人甜品店 南京西路店","lon":"121.4609876","lat":"31.2307105","category":"67","category_name":"甜品店","address":"静安区南京西路819号开欣商场412室"},{"poiid":"B2094750D565A1FA489A","title":"花の舞","lon":"121.460815","lat":"31.230707","category":"95","category_name":"日本料理","address":"静安区南京西路819号中创大厦5楼(近吴江路)"},{"poiid":"B2094757D06FA2FD4392","title":"卡卡圈坊","lon":"121.46009198","lat":"31.229713623","category":"67","category_name":"甜品店","address":"上海吴江路169号四季坊142单元"},{"poiid":"B2094654DA6CA1F8429B","title":"沈家鱼头王","lon":"121.45962","lat":"31.22982","category":"76","category_name":"上海菜","address":"静安区泰兴路178号瑞泰大酒店2-3楼(近吴江路)"},{"poiid":"B2094655D36CA5F54093","title":"北京西路泰兴路","lon":"121.45873","lat":"31.23168","category":"38","category_name":"公交车站","address":"上海市静安区昌平路"},{"poiid":"B2094757D06FA2FD449E","title":"85度C(吴江路店)","lon":"121.45957964","lat":"31.229537246","category":"112","category_name":"糕饼店","address":"静安区吴江路269号(近茂名北路)"},{"poiid":"B2094757D16CAAF9419C","title":"虹橋國際機場t2航站樓b5-m3-b16","lon":"121.46053223","lat":"31.231014816","category":"500","category_name":"未知分类","address":"上海虹橋國際機場t2航站樓b5-m3-b16"},{"poiid":"B2094750DB68A2F44098","title":"品欢相声会馆","lon":"121.460662","lat":"31.231037","category":"500","category_name":"未知分类","address":"南京西路860号"},{"poiid":"B2094752D26FA4F9489B","title":"点点心 港式茶餐厅","lon":"121.45932","lat":"31.230103","category":"500","category_name":"未知分类","address":null},{"poiid":"B2094757D76DA0F4429F","title":"越旺法式越南菜 PHO 26","lon":"121.460315054","lat":"31.230335793","category":"99","category_name":"泰国／越南菜品餐厅","address":"静安区吴江路178号2楼(玛莎商场对面)"},{"poiid":"B2094655D26CAAFD469F","title":"Issimo","lon":"121.45899194611","lat":"31.229678177388","category":"94","category_name":"西餐厅","address":"静安区南京西路931号家合酒店2楼(近泰兴路)"},{"poiid":"B2094454D26BA2FB439D","title":"乐伯部队锅","lon":"121.459518","lat":"31.229896","category":"247","category_name":"餐饮美食","address":"上海市 吴江路四季坊"},{"poiid":"B2094757DA6FA2FD449B","title":"神户明味家七轮烧肉","lon":"121.460747999999","lat":"31.2304259999998","category":"269","category_name":"烧烤","address":"静安区南京西路819号中创大厦5楼(近吴江路)"},{"poiid":"B2094655D26DA3FE469B","title":"MARKS & SPENCER","lon":"121.46036","lat":"31.23035","category":"141","category_name":"服装鞋帽皮具店","address":"卢湾区淮海中路112号(近龙门路)"},{"poiid":"B2094757D069A6FB4292","title":"中国移动南京西路营业厅","lon":"121.458921","lat":"31.230025","category":"151","category_name":"电讯营业厅","address":"南京西路936-938"}]