[{"poiid":"B2094757D06FA3F4449B","title":"泰廊","lon":"121.46409","lat":"31.2338","category":"99","category_name":"泰国／越南菜品餐厅","address":"静安区大田路127号(近北京西路)"},{"poiid":"B2094654DA6FAAF5479E","title":"上海长征医院","lon":"121.46721","lat":"31.23279","category":"162","category_name":"医院","address":"黄浦区凤阳路415号(近成都北路)"},{"poiid":"B2094655D26CAAFF4992","title":"静安别墅","lon":"121.464","lat":"31.2349","category":"47","category_name":"住宅区","address":"静安区南京西路1025弄静安别墅81号(近茂名北路)"},{"poiid":"B2094753D76FAAFA449C","title":"上海滩国泰旗舰店","lon":"121.466011","lat":"31.216125","category":"249","category_name":"购物服务","address":"淮海中路868号"},{"poiid":"B209475CD564A7F84292","title":"上海滩新天地店","lon":"121.47463","lat":"31.22164","category":"119","category_name":"商场","address":"\"太仓路181弄新天地北里15号\r\n\""},{"poiid":"B209475CD564A7F8439E","title":"上海滩中信泰富店","lon":"121.45602","lat":"31.22851","category":"119","category_name":"商场","address":"\"南京西路1168号中信泰富广场，店铺号221.\r\n\""},{"poiid":"B2094750DA6DAAFD4099","title":"MOOK CLUB","lon":"121.4629","lat":"31.23149","category":"172","category_name":"酒吧","address":"静安区南京西路758号5-6楼(近凤阳路)"},{"poiid":"B2094655D26FA6FB4892","title":"文新报业大厦","lon":"121.464","lat":"31.2318","category":"46","category_name":"楼宇","address":"上海市静安区威海路755号"},{"poiid":"B2094757D06FA0F44298","title":"WINDOWS(青海路店)","lon":"121.46414","lat":"31.2309","category":"260","category_name":"其他","address":"静安区南京西路698号(上海电视台对面)"},{"poiid":"B2094751DA69A6FB499A","title":"王品  仙乐斯广场","lon":"121.465452","lat":"31.233329","category":"247","category_name":"餐饮美食","address":"南京西路338号"},{"poiid":"B2094750DA6DABF5439F","title":"MOOK CLUB","lon":"121.462947","lat":"31.231401","category":"248","category_name":"生活娱乐","address":"静安区南京西路758号"},{"poiid":"B2094757D06FA2F54492","title":"沪上一家辣肉面馆(成都北路店)","lon":"121.46618","lat":"31.23239","category":"68","category_name":"快餐厅","address":"黄浦区凤阳路535号(近成都北路)"},{"poiid":"B2094750DB6CA1F8439B","title":"人民公园","lon":"121.466559","lat":"31.233402","category":"196","category_name":"公园","address":"黄浦区南京西路75号人民公园内(近黄陂北路)"},{"poiid":"B2094757D16EA2FB419D","title":"长征医院门诊部","lon":"121.466702738","lat":"31.2317713329","category":"162","category_name":"医院","address":"上海成都北路480号"},{"poiid":"B2094757D068A3FB429B","title":"上海市东方公证处","lon":"121.4634585","lat":"31.231949636","category":"46","category_name":"楼宇","address":"上海静安区凤阳路660号（接待大厅 凤阳路598号）"},{"poiid":"B2094757DA6EAAFD429A","title":"御景轩凯宾斯基酒店","lon":"121.465211999998","lat":"31.2323450000001","category":"251","category_name":"出行住宿","address":"静安区凤阳路601号"},{"poiid":"B2094757D06FAAF8499A","title":"嘉发大厦","lon":"121.4627151","lat":"31.23285293","category":"46","category_name":"楼宇","address":"新华都商务花园位于长宁定西路685号"},{"poiid":"B2094757D06FA0FA4992","title":"上海壹街区","lon":"121.465136","lat":"31.232562","category":"47","category_name":"住宅区","address":"静安区凤阳路588弄"},{"poiid":"B2094752D069A5FA4393","title":"上海国际时尚中心","lon":"121.465475","lat":"31.233833","category":"249","category_name":"购物服务","address":"上海市杨树浦路2866号"},{"poiid":"B2094751D56FA4F4419B","title":"木有鸭梨餐吧","lon":"121.4664323","lat":"31.2333259","category":"247","category_name":"餐饮美食","address":"南京西路456号4楼"},{"poiid":"B2094752D06FA4FA499D","title":"MOCA ON THE PARK","lon":"121.465445","lat":"31.233023","category":"247","category_name":"餐饮美食","address":"南京西路231号人民公园内上海当代艺术馆3楼"},{"poiid":"B2094757D16FAAFA429B","title":"长征医院住院部","lon":"121.466941738","lat":"31.2327763544","category":"162","category_name":"医院","address":"上海凤阳路415号"},{"poiid":"B2094757D064A7FA499D","title":"上海电视台17楼东方卫视","lon":"121.46445823","lat":"31.232827705","category":"500","category_name":"未知分类","address":"上海威海路298号"},{"poiid":"B2094757D16EA7FD4293","title":"东来顺","lon":"121.462352738","lat":"31.2320483388","category":"500","category_name":"未知分类","address":"上海石门二路215号"},{"poiid":"B2094753D26EA3FE499A","title":"The Cookery酷瑞西餐馆","lon":"121.464401","lat":"31.233083","category":"247","category_name":"餐饮美食","address":"上海市 南京西路388号仙乐斯广场108单元(近黄陂北路)"},{"poiid":"B2094757DA68A1F84099","title":"Starbucks","lon":"121.4661986","lat":"31.2337571","category":"247","category_name":"餐饮美食","address":"People square"},{"poiid":"B2094654DA6CA2F9429B","title":"静安华庭","lon":"121.46486","lat":"31.2334","category":"47","category_name":"住宅区","address":"大田路158"},{"poiid":"B2094655D26CABF84298","title":"嘉发大厦A栋","lon":"121.46391","lat":"31.23291","category":"46","category_name":"楼宇","address":"大田路129弄1号"},{"poiid":"B2094654DA6CA2FF469A","title":"东展商业大厦","lon":"121.46185","lat":"31.23266","category":"46","category_name":"楼宇","address":"丰台学城海鹰路1号，3号"},{"poiid":"B2094752DA65A2FD439E","title":"上海明天广场JW万豪酒店","lon":"121.46729","lat":"31.233113","category":"500","category_name":"未知分类","address":"上海市 南京西路399号"},{"poiid":"B2094750D164ABFC419E","title":"凯宾斯基御锦轩(The One Shanghai)","lon":"121.46516923247","lat":"31.232415869772","category":"215","category_name":"三星级宾馆","address":"上海市静安区凤阳路601号"},{"poiid":"B2094654DA6FAAF5489C","title":"中华保险华盛大厦","lon":"121.46685","lat":"31.23415","category":"46","category_name":"楼宇","address":"成都北路600"},{"poiid":"B2094757D068A0F4469E","title":"韩膳宫","lon":"121.4661986","lat":"31.2337571","category":"46","category_name":"楼宇","address":"上海静安区成都北路333号"},{"poiid":"B2094654DA6CA2F9499D","title":"芬芳上瑞","lon":"121.46459","lat":"31.23383","category":"162","category_name":"医院","address":"北京西路509-511"},{"poiid":"B2094655D26AA0FD449A","title":"Neverland桌面游戏南京西路店","lon":"121.46413","lat":"31.23307","category":"247","category_name":"餐饮美食","address":"静安区大田路129弄嘉发大厦B幢8A室(近凤阳路)"},{"poiid":"B2094655D26EA2F9489D","title":"一街坊口腔门诊部","lon":"121.46475","lat":"31.23389","category":"162","category_name":"医院","address":"静安区北京西路503号(近大田路)"},{"poiid":"B2094757DB69A4FE489E","title":"苏浙汇","lon":"121.4655447326625","lat":"31.23379043700509","category":"500","category_name":"未知分类","address":null},{"poiid":"B2094751D565A7F5479C","title":"中华艺术宫","lon":"121.465068","lat":"31.234241","category":"500","category_name":"未知分类","address":null},{"poiid":"B2094655D26CABFE489A","title":"威海别墅","lon":"121.464","lat":"31.2322","category":"47","category_name":"住宅区","address":"威海路727弄2-40号"},{"poiid":"B2094757D16AA6F84193","title":"地铁一号线衡山路","lon":"121.461844738","lat":"31.2327313534","category":"500","category_name":"未知分类","address":"上海市静安区泰兴路"},{"poiid":"B2094757D164A2F8499C","title":"上外静安外国语小学","lon":"121.463903738","lat":"31.2331573625","category":"253","category_name":"校园生活","address":"静安区北京西路605弄47号(近大田路)"},{"poiid":"B2094655D26DABF54099","title":"上海147桌球俱乐部","lon":"121.46455","lat":"31.23286","category":"171","category_name":"台球厅","address":"静安区大田路128号B1楼(近北京西路)"},{"poiid":"B2094654DB6BA6F4449D","title":"嘉发大厦B栋","lon":"121.46347","lat":"31.23278","category":"46","category_name":"楼宇","address":"北京西路605弄57号"},{"poiid":"B2094655D265A0F54799","title":"剑锋击剑俱乐部","lon":"121.46461","lat":"31.23384","category":"220","category_name":"运动场所","address":"北京西路511"},{"poiid":"B2094654DA6CA2F9419F","title":"华联投资商务楼","lon":"121.46437","lat":"31.23258","category":"46","category_name":"楼宇","address":"大田路105"},{"poiid":"B2094757D16BA2FC4198","title":"大田路","lon":"121.464386","lat":"31.232592","category":"500","category_name":"未知分类","address":"上海市静安区,大田路山海关路"},{"poiid":"B2094757D169A3FC469B","title":"吉藏日本料理","lon":"121.461995738","lat":"31.2331023613","category":"500","category_name":"未知分类","address":"上海静安区石门二路19号(近南京西路)"},{"poiid":"B2094655D265A4FA4993","title":"喜士多华庭门市","lon":"121.46551","lat":"31.23409","category":"117","category_name":"便民商店/便利店","address":"北京西路485弄2"},{"poiid":"B2094655D264A1FB4498","title":"喜士多便利(华庭店)","lon":"121.46556","lat":"31.23412","category":"117","category_name":"便民商店/便利店","address":"北京西路483号"},{"poiid":"B2094654DA6CA2F94992","title":"舞风休闲会所","lon":"121.46459","lat":"31.23383","category":"208","category_name":"休闲场所","address":"静安区北京西路509-511"},{"poiid":"B2094757D06FA3F4449B","title":"泰廊","lon":"121.46409","lat":"31.2338","category":"99","category_name":"泰国／越南菜品餐厅","address":"静安区大田路127号(近北京西路)"},{"poiid":"B2094654DA6FAAF5479E","title":"上海长征医院","lon":"121.46721","lat":"31.23279","category":"162","category_name":"医院","address":"黄浦区凤阳路415号(近成都北路)"},{"poiid":"B2094655D26CAAFF4992","title":"静安别墅","lon":"121.464","lat":"31.2349","category":"47","category_name":"住宅区","address":"静安区南京西路1025弄静安别墅81号(近茂名北路)"},{"poiid":"B2094753D76FAAFA449C","title":"上海滩国泰旗舰店","lon":"121.466011","lat":"31.216125","category":"249","category_name":"购物服务","address":"淮海中路868号"},{"poiid":"B209475CD564A7F84292","title":"上海滩新天地店","lon":"121.47463","lat":"31.22164","category":"119","category_name":"商场","address":"\"太仓路181弄新天地北里15号\r\n\""},{"poiid":"B209475CD564A7F8439E","title":"上海滩中信泰富店","lon":"121.45602","lat":"31.22851","category":"119","category_name":"商场","address":"\"南京西路1168号中信泰富广场，店铺号221.\r\n\""},{"poiid":"B2094750DA6DAAFD4099","title":"MOOK CLUB","lon":"121.4629","lat":"31.23149","category":"172","category_name":"酒吧","address":"静安区南京西路758号5-6楼(近凤阳路)"},{"poiid":"B2094655D26FA6FB4892","title":"文新报业大厦","lon":"121.464","lat":"31.2318","category":"46","category_name":"楼宇","address":"上海市静安区威海路755号"},{"poiid":"B2094757D06FA0F44298","title":"WINDOWS(青海路店)","lon":"121.46414","lat":"31.2309","category":"260","category_name":"其他","address":"静安区南京西路698号(上海电视台对面)"},{"poiid":"B2094751DA69A6FB499A","title":"王品  仙乐斯广场","lon":"121.465452","lat":"31.233329","category":"247","category_name":"餐饮美食","address":"南京西路338号"},{"poiid":"B2094750DA6DABF5439F","title":"MOOK CLUB","lon":"121.462947","lat":"31.231401","category":"248","category_name":"生活娱乐","address":"静安区南京西路758号"},{"poiid":"B2094757D06FA2F54492","title":"沪上一家辣肉面馆(成都北路店)","lon":"121.46618","lat":"31.23239","category":"68","category_name":"快餐厅","address":"黄浦区凤阳路535号(近成都北路)"},{"poiid":"B2094750DB6CA1F8439B","title":"人民公园","lon":"121.466559","lat":"31.233402","category":"196","category_name":"公园","address":"黄浦区南京西路75号人民公园内(近黄陂北路)"},{"poiid":"B2094757D16EA2FB419D","title":"长征医院门诊部","lon":"121.466702738","lat":"31.2317713329","category":"162","category_name":"医院","address":"上海成都北路480号"},{"poiid":"B2094757D068A3FB429B","title":"上海市东方公证处","lon":"121.4634585","lat":"31.231949636","category":"46","category_name":"楼宇","address":"上海静安区凤阳路660号（接待大厅 凤阳路598号）"},{"poiid":"B2094757DA6EAAFD429A","title":"御景轩凯宾斯基酒店","lon":"121.465211999998","lat":"31.2323450000001","category":"251","category_name":"出行住宿","address":"静安区凤阳路601号"},{"poiid":"B2094757D06FAAF8499A","title":"嘉发大厦","lon":"121.4627151","lat":"31.23285293","category":"46","category_name":"楼宇","address":"新华都商务花园位于长宁定西路685号"},{"poiid":"B2094757D06FA0FA4992","title":"上海壹街区","lon":"121.465136","lat":"31.232562","category":"47","category_name":"住宅区","address":"静安区凤阳路588弄"},{"poiid":"B2094752D069A5FA4393","title":"上海国际时尚中心","lon":"121.465475","lat":"31.233833","category":"249","category_name":"购物服务","address":"上海市杨树浦路2866号"},{"poiid":"B2094751D56FA4F4419B","title":"木有鸭梨餐吧","lon":"121.4664323","lat":"31.2333259","category":"247","category_name":"餐饮美食","address":"南京西路456号4楼"},{"poiid":"B2094752D06FA4FA499D","title":"MOCA ON THE PARK","lon":"121.465445","lat":"31.233023","category":"247","category_name":"餐饮美食","address":"南京西路231号人民公园内上海当代艺术馆3楼"},{"poiid":"B2094757D16FAAFA429B","title":"长征医院住院部","lon":"121.466941738","lat":"31.2327763544","category":"162","category_name":"医院","address":"上海凤阳路415号"},{"poiid":"B2094757D064A7FA499D","title":"上海电视台17楼东方卫视","lon":"121.46445823","lat":"31.232827705","category":"500","category_name":"未知分类","address":"上海威海路298号"},{"poiid":"B2094757D16EA7FD4293","title":"东来顺","lon":"121.462352738","lat":"31.2320483388","category":"500","category_name":"未知分类","address":"上海石门二路215号"},{"poiid":"B2094753D26EA3FE499A","title":"The Cookery酷瑞西餐馆","lon":"121.464401","lat":"31.233083","category":"247","category_name":"餐饮美食","address":"上海市 南京西路388号仙乐斯广场108单元(近黄陂北路)"},{"poiid":"B2094757DA68A1F84099","title":"Starbucks","lon":"121.4661986","lat":"31.2337571","category":"247","category_name":"餐饮美食","address":"People square"},{"poiid":"B2094654DA6CA2F9429B","title":"静安华庭","lon":"121.46486","lat":"31.2334","category":"47","category_name":"住宅区","address":"大田路158"},{"poiid":"B2094655D26CABF84298","title":"嘉发大厦A栋","lon":"121.46391","lat":"31.23291","category":"46","category_name":"楼宇","address":"大田路129弄1号"},{"poiid":"B2094654DA6CA2FF469A","title":"东展商业大厦","lon":"121.46185","lat":"31.23266","category":"46","category_name":"楼宇","address":"丰台学城海鹰路1号，3号"},{"poiid":"B2094752DA65A2FD439E","title":"上海明天广场JW万豪酒店","lon":"121.46729","lat":"31.233113","category":"500","category_name":"未知分类","address":"上海市 南京西路399号"},{"poiid":"B2094750D164ABFC419E","title":"凯宾斯基御锦轩(The One Shanghai)","lon":"121.46516923247","lat":"31.232415869772","category":"215","category_name":"三星级宾馆","address":"上海市静安区凤阳路601号"},{"poiid":"B2094654DA6FAAF5489C","title":"中华保险华盛大厦","lon":"121.46685","lat":"31.23415","category":"46","category_name":"楼宇","address":"成都北路600"},{"poiid":"B2094757D068A0F4469E","title":"韩膳宫","lon":"121.4661986","lat":"31.2337571","category":"46","category_name":"楼宇","address":"上海静安区成都北路333号"},{"poiid":"B2094654DA6CA2F9499D","title":"芬芳上瑞","lon":"121.46459","lat":"31.23383","category":"162","category_name":"医院","address":"北京西路509-511"},{"poiid":"B2094655D26AA0FD449A","title":"Neverland桌面游戏南京西路店","lon":"121.46413","lat":"31.23307","category":"247","category_name":"餐饮美食","address":"静安区大田路129弄嘉发大厦B幢8A室(近凤阳路)"},{"poiid":"B2094655D26EA2F9489D","title":"一街坊口腔门诊部","lon":"121.46475","lat":"31.23389","category":"162","category_name":"医院","address":"静安区北京西路503号(近大田路)"},{"poiid":"B2094757DB69A4FE489E","title":"苏浙汇","lon":"121.4655447326625","lat":"31.23379043700509","category":"500","category_name":"未知分类","address":null},{"poiid":"B2094751D565A7F5479C","title":"中华艺术宫","lon":"121.465068","lat":"31.234241","category":"500","category_name":"未知分类","address":null},{"poiid":"B2094655D26CABFE489A","title":"威海别墅","lon":"121.464","lat":"31.2322","category":"47","category_name":"住宅区","address":"威海路727弄2-40号"},{"poiid":"B2094757D16AA6F84193","title":"地铁一号线衡山路","lon":"121.461844738","lat":"31.2327313534","category":"500","category_name":"未知分类","address":"上海市静安区泰兴路"},{"poiid":"B2094757D164A2F8499C","title":"上外静安外国语小学","lon":"121.463903738","lat":"31.2331573625","category":"253","category_name":"校园生活","address":"静安区北京西路605弄47号(近大田路)"},{"poiid":"B2094655D26DABF54099","title":"上海147桌球俱乐部","lon":"121.46455","lat":"31.23286","category":"171","category_name":"台球厅","address":"静安区大田路128号B1楼(近北京西路)"},{"poiid":"B2094654DB6BA6F4449D","title":"嘉发大厦B栋","lon":"121.46347","lat":"31.23278","category":"46","category_name":"楼宇","address":"北京西路605弄57号"},{"poiid":"B2094655D265A0F54799","title":"剑锋击剑俱乐部","lon":"121.46461","lat":"31.23384","category":"220","category_name":"运动场所","address":"北京西路511"},{"poiid":"B2094654DA6CA2F9419F","title":"华联投资商务楼","lon":"121.46437","lat":"31.23258","category":"46","category_name":"楼宇","address":"大田路105"},{"poiid":"B2094757D16BA2FC4198","title":"大田路","lon":"121.464386","lat":"31.232592","category":"500","category_name":"未知分类","address":"上海市静安区,大田路山海关路"},{"poiid":"B2094757D169A3FC469B","title":"吉藏日本料理","lon":"121.461995738","lat":"31.2331023613","category":"500","category_name":"未知分类","address":"上海静安区石门二路19号(近南京西路)"},{"poiid":"B2094655D265A4FA4993","title":"喜士多华庭门市","lon":"121.46551","lat":"31.23409","category":"117","category_name":"便民商店/便利店","address":"北京西路485弄2"},{"poiid":"B2094655D264A1FB4498","title":"喜士多便利(华庭店)","lon":"121.46556","lat":"31.23412","category":"117","category_name":"便民商店/便利店","address":"北京西路483号"},{"poiid":"B2094654DA6CA2F94992","title":"舞风休闲会所","lon":"121.46459","lat":"31.23383","category":"208","category_name":"休闲场所","address":"静安区北京西路509-511"},{"poiid":"B2094757D06FA3F4449B","title":"泰廊","lon":"121.46409","lat":"31.2338","category":"99","category_name":"泰国／越南菜品餐厅","address":"静安区大田路127号(近北京西路)"},{"poiid":"B2094654DA6FAAF5479E","title":"上海长征医院","lon":"121.46721","lat":"31.23279","category":"162","category_name":"医院","address":"黄浦区凤阳路415号(近成都北路)"},{"poiid":"B2094655D26CAAFF4992","title":"静安别墅","lon":"121.464","lat":"31.2349","category":"47","category_name":"住宅区","address":"静安区南京西路1025弄静安别墅81号(近茂名北路)"},{"poiid":"B2094753D76FAAFA449C","title":"上海滩国泰旗舰店","lon":"121.466011","lat":"31.216125","category":"249","category_name":"购物服务","address":"淮海中路868号"},{"poiid":"B209475CD564A7F84292","title":"上海滩新天地店","lon":"121.47463","lat":"31.22164","category":"119","category_name":"商场","address":"\"太仓路181弄新天地北里15号\r\n\""},{"poiid":"B209475CD564A7F8439E","title":"上海滩中信泰富店","lon":"121.45602","lat":"31.22851","category":"119","category_name":"商场","address":"\"南京西路1168号中信泰富广场，店铺号221.\r\n\""},{"poiid":"B2094750DA6DAAFD4099","title":"MOOK CLUB","lon":"121.4629","lat":"31.23149","category":"172","category_name":"酒吧","address":"静安区南京西路758号5-6楼(近凤阳路)"},{"poiid":"B2094655D26FA6FB4892","title":"文新报业大厦","lon":"121.464","lat":"31.2318","category":"46","category_name":"楼宇","address":"上海市静安区威海路755号"},{"poiid":"B2094757D06FA0F44298","title":"WINDOWS(青海路店)","lon":"121.46414","lat":"31.2309","category":"260","category_name":"其他","address":"静安区南京西路698号(上海电视台对面)"},{"poiid":"B2094751DA69A6FB499A","title":"王品  仙乐斯广场","lon":"121.465452","lat":"31.233329","category":"247","category_name":"餐饮美食","address":"南京西路338号"},{"poiid":"B2094750DA6DABF5439F","title":"MOOK CLUB","lon":"121.462947","lat":"31.231401","category":"248","category_name":"生活娱乐","address":"静安区南京西路758号"},{"poiid":"B2094757D06FA2F54492","title":"沪上一家辣肉面馆(成都北路店)","lon":"121.46618","lat":"31.23239","category":"68","category_name":"快餐厅","address":"黄浦区凤阳路535号(近成都北路)"},{"poiid":"B2094750DB6CA1F8439B","title":"人民公园","lon":"121.466559","lat":"31.233402","category":"196","category_name":"公园","address":"黄浦区南京西路75号人民公园内(近黄陂北路)"},{"poiid":"B2094757D16EA2FB419D","title":"长征医院门诊部","lon":"121.466702738","lat":"31.2317713329","category":"162","category_name":"医院","address":"上海成都北路480号"},{"poiid":"B2094757D068A3FB429B","title":"上海市东方公证处","lon":"121.4634585","lat":"31.231949636","category":"46","category_name":"楼宇","address":"上海静安区凤阳路660号（接待大厅 凤阳路598号）"},{"poiid":"B2094757DA6EAAFD429A","title":"御景轩凯宾斯基酒店","lon":"121.465211999998","lat":"31.2323450000001","category":"251","category_name":"出行住宿","address":"静安区凤阳路601号"},{"poiid":"B2094757D06FAAF8499A","title":"嘉发大厦","lon":"121.4627151","lat":"31.23285293","category":"46","category_name":"楼宇","address":"新华都商务花园位于长宁定西路685号"},{"poiid":"B2094757D06FA0FA4992","title":"上海壹街区","lon":"121.465136","lat":"31.232562","category":"47","category_name":"住宅区","address":"静安区凤阳路588弄"},{"poiid":"B2094752D069A5FA4393","title":"上海国际时尚中心","lon":"121.465475","lat":"31.233833","category":"249","category_name":"购物服务","address":"上海市杨树浦路2866号"},{"poiid":"B2094751D56FA4F4419B","title":"木有鸭梨餐吧","lon":"121.4664323","lat":"31.2333259","category":"247","category_name":"餐饮美食","address":"南京西路456号4楼"},{"poiid":"B2094752D06FA4FA499D","title":"MOCA ON THE PARK","lon":"121.465445","lat":"31.233023","category":"247","category_name":"餐饮美食","address":"南京西路231号人民公园内上海当代艺术馆3楼"},{"poiid":"B2094757D16FAAFA429B","title":"长征医院住院部","lon":"121.466941738","lat":"31.2327763544","category":"162","category_name":"医院","address":"上海凤阳路415号"},{"poiid":"B2094757D064A7FA499D","title":"上海电视台17楼东方卫视","lon":"121.46445823","lat":"31.232827705","category":"500","category_name":"未知分类","address":"上海威海路298号"},{"poiid":"B2094757D16EA7FD4293","title":"东来顺","lon":"121.462352738","lat":"31.2320483388","category":"500","category_name":"未知分类","address":"上海石门二路215号"},{"poiid":"B2094753D26EA3FE499A","title":"The Cookery酷瑞西餐馆","lon":"121.464401","lat":"31.233083","category":"247","category_name":"餐饮美食","address":"上海市 南京西路388号仙乐斯广场108单元(近黄陂北路)"},{"poiid":"B2094757DA68A1F84099","title":"Starbucks","lon":"121.4661986","lat":"31.2337571","category":"247","category_name":"餐饮美食","address":"People square"},{"poiid":"B2094654DA6CA2F9429B","title":"静安华庭","lon":"121.46486","lat":"31.2334","category":"47","category_name":"住宅区","address":"大田路158"},{"poiid":"B2094655D26CABF84298","title":"嘉发大厦A栋","lon":"121.46391","lat":"31.23291","category":"46","category_name":"楼宇","address":"大田路129弄1号"},{"poiid":"B2094654DA6CA2FF469A","title":"东展商业大厦","lon":"121.46185","lat":"31.23266","category":"46","category_name":"楼宇","address":"丰台学城海鹰路1号，3号"},{"poiid":"B2094752DA65A2FD439E","title":"上海明天广场JW万豪酒店","lon":"121.46729","lat":"31.233113","category":"500","category_name":"未知分类","address":"上海市 南京西路399号"},{"poiid":"B2094750D164ABFC419E","title":"凯宾斯基御锦轩(The One Shanghai)","lon":"121.46516923247","lat":"31.232415869772","category":"215","category_name":"三星级宾馆","address":"上海市静安区凤阳路601号"},{"poiid":"B2094654DA6FAAF5489C","title":"中华保险华盛大厦","lon":"121.46685","lat":"31.23415","category":"46","category_name":"楼宇","address":"成都北路600"},{"poiid":"B2094757D068A0F4469E","title":"韩膳宫","lon":"121.4661986","lat":"31.2337571","category":"46","category_name":"楼宇","address":"上海静安区成都北路333号"},{"poiid":"B2094654DA6CA2F9499D","title":"芬芳上瑞","lon":"121.46459","lat":"31.23383","category":"162","category_name":"医院","address":"北京西路509-511"},{"poiid":"B2094655D26AA0FD449A","title":"Neverland桌面游戏南京西路店","lon":"121.46413","lat":"31.23307","category":"247","category_name":"餐饮美食","address":"静安区大田路129弄嘉发大厦B幢8A室(近凤阳路)"},{"poiid":"B2094655D26EA2F9489D","title":"一街坊口腔门诊部","lon":"121.46475","lat":"31.23389","category":"162","category_name":"医院","address":"静安区北京西路503号(近大田路)"},{"poiid":"B2094757DB69A4FE489E","title":"苏浙汇","lon":"121.4655447326625","lat":"31.23379043700509","category":"500","category_name":"未知分类","address":null},{"poiid":"B2094751D565A7F5479C","title":"中华艺术宫","lon":"121.465068","lat":"31.234241","category":"500","category_name":"未知分类","address":null},{"poiid":"B2094655D26CABFE489A","title":"威海别墅","lon":"121.464","lat":"31.2322","category":"47","category_name":"住宅区","address":"威海路727弄2-40号"},{"poiid":"B2094757D16AA6F84193","title":"地铁一号线衡山路","lon":"121.461844738","lat":"31.2327313534","category":"500","category_name":"未知分类","address":"上海市静安区泰兴路"},{"poiid":"B2094757D164A2F8499C","title":"上外静安外国语小学","lon":"121.463903738","lat":"31.2331573625","category":"253","category_name":"校园生活","address":"静安区北京西路605弄47号(近大田路)"},{"poiid":"B2094655D26DABF54099","title":"上海147桌球俱乐部","lon":"121.46455","lat":"31.23286","category":"171","category_name":"台球厅","address":"静安区大田路128号B1楼(近北京西路)"},{"poiid":"B2094654DB6BA6F4449D","title":"嘉发大厦B栋","lon":"121.46347","lat":"31.23278","category":"46","category_name":"楼宇","address":"北京西路605弄57号"},{"poiid":"B2094655D265A0F54799","title":"剑锋击剑俱乐部","lon":"121.46461","lat":"31.23384","category":"220","category_name":"运动场所","address":"北京西路511"},{"poiid":"B2094654DA6CA2F9419F","title":"华联投资商务楼","lon":"121.46437","lat":"31.23258","category":"46","category_name":"楼宇","address":"大田路105"},{"poiid":"B2094757D16BA2FC4198","title":"大田路","lon":"121.464386","lat":"31.232592","category":"500","category_name":"未知分类","address":"上海市静安区,大田路山海关路"},{"poiid":"B2094757D169A3FC469B","title":"吉藏日本料理","lon":"121.461995738","lat":"31.2331023613","category":"500","category_name":"未知分类","address":"上海静安区石门二路19号(近南京西路)"},{"poiid":"B2094655D265A4FA4993","title":"喜士多华庭门市","lon":"121.46551","lat":"31.23409","category":"117","category_name":"便民商店/便利店","address":"北京西路485弄2"},{"poiid":"B2094655D264A1FB4498","title":"喜士多便利(华庭店)","lon":"121.46556","lat":"31.23412","category":"117","category_name":"便民商店/便利店","address":"北京西路483号"},{"poiid":"B2094654DA6CA2F94992","title":"舞风休闲会所","lon":"121.46459","lat":"31.23383","category":"208","category_name":"休闲场所","address":"静安区北京西路509-511"},{"poiid":"B2094757D06FA3F4449B","title":"泰廊","lon":"121.46409","lat":"31.2338","category":"99","category_name":"泰国／越南菜品餐厅","address":"静安区大田路127号(近北京西路)"},{"poiid":"B2094654DA6FAAF5479E","title":"上海长征医院","lon":"121.46721","lat":"31.23279","category":"162","category_name":"医院","address":"黄浦区凤阳路415号(近成都北路)"},{"poiid":"B2094655D26CAAFF4992","title":"静安别墅","lon":"121.464","lat":"31.2349","category":"47","category_name":"住宅区","address":"静安区南京西路1025弄静安别墅81号(近茂名北路)"},{"poiid":"B2094753D76FAAFA449C","title":"上海滩国泰旗舰店","lon":"121.466011","lat":"31.216125","category":"249","category_name":"购物服务","address":"淮海中路868号"},{"poiid":"B209475CD564A7F84292","title":"上海滩新天地店","lon":"121.47463","lat":"31.22164","category":"119","category_name":"商场","address":"\"太仓路181弄新天地北里15号\r\n\""},{"poiid":"B209475CD564A7F8439E","title":"上海滩中信泰富店","lon":"121.45602","lat":"31.22851","category":"119","category_name":"商场","address":"\"南京西路1168号中信泰富广场，店铺号221.\r\n\""},{"poiid":"B2094750DA6DAAFD4099","title":"MOOK CLUB","lon":"121.4629","lat":"31.23149","category":"172","category_name":"酒吧","address":"静安区南京西路758号5-6楼(近凤阳路)"},{"poiid":"B2094655D26FA6FB4892","title":"文新报业大厦","lon":"121.464","lat":"31.2318","category":"46","category_name":"楼宇","address":"上海市静安区威海路755号"},{"poiid":"B2094757D06FA0F44298","title":"WINDOWS(青海路店)","lon":"121.46414","lat":"31.2309","category":"260","category_name":"其他","address":"静安区南京西路698号(上海电视台对面)"},{"poiid":"B2094751DA69A6FB499A","title":"王品  仙乐斯广场","lon":"121.465452","lat":"31.233329","category":"247","category_name":"餐饮美食","address":"南京西路338号"},{"poiid":"B2094750DA6DABF5439F","title":"MOOK CLUB","lon":"121.462947","lat":"31.231401","category":"248","category_name":"生活娱乐","address":"静安区南京西路758号"},{"poiid":"B2094757D06FA2F54492","title":"沪上一家辣肉面馆(成都北路店)","lon":"121.46618","lat":"31.23239","category":"68","category_name":"快餐厅","address":"黄浦区凤阳路535号(近成都北路)"},{"poiid":"B2094750DB6CA1F8439B","title":"人民公园","lon":"121.466559","lat":"31.233402","category":"196","category_name":"公园","address":"黄浦区南京西路75号人民公园内(近黄陂北路)"},{"poiid":"B2094757D16EA2FB419D","title":"长征医院门诊部","lon":"121.466702738","lat":"31.2317713329","category":"162","category_name":"医院","address":"上海成都北路480号"},{"poiid":"B2094757D068A3FB429B","title":"上海市东方公证处","lon":"121.4634585","lat":"31.231949636","category":"46","category_name":"楼宇","address":"上海静安区凤阳路660号（接待大厅 凤阳路598号）"},{"poiid":"B2094757DA6EAAFD429A","title":"御景轩凯宾斯基酒店","lon":"121.465211999998","lat":"31.2323450000001","category":"251","category_name":"出行住宿","address":"静安区凤阳路601号"},{"poiid":"B2094757D06FAAF8499A","title":"嘉发大厦","lon":"121.4627151","lat":"31.23285293","category":"46","category_name":"楼宇","address":"新华都商务花园位于长宁定西路685号"},{"poiid":"B2094757D06FA0FA4992","title":"上海壹街区","lon":"121.465136","lat":"31.232562","category":"47","category_name":"住宅区","address":"静安区凤阳路588弄"},{"poiid":"B2094752D069A5FA4393","title":"上海国际时尚中心","lon":"121.465475","lat":"31.233833","category":"249","category_name":"购物服务","address":"上海市杨树浦路2866号"},{"poiid":"B2094751D56FA4F4419B","title":"木有鸭梨餐吧","lon":"121.4664323","lat":"31.2333259","category":"247","category_name":"餐饮美食","address":"南京西路456号4楼"},{"poiid":"B2094752D06FA4FA499D","title":"MOCA ON THE PARK","lon":"121.465445","lat":"31.233023","category":"247","category_name":"餐饮美食","address":"南京西路231号人民公园内上海当代艺术馆3楼"},{"poiid":"B2094757D16FAAFA429B","title":"长征医院住院部","lon":"121.466941738","lat":"31.2327763544","category":"162","category_name":"医院","address":"上海凤阳路415号"},{"poiid":"B2094757D064A7FA499D","title":"上海电视台17楼东方卫视","lon":"121.46445823","lat":"31.232827705","category":"500","category_name":"未知分类","address":"上海威海路298号"},{"poiid":"B2094757D16EA7FD4293","title":"东来顺","lon":"121.462352738","lat":"31.2320483388","category":"500","category_name":"未知分类","address":"上海石门二路215号"},{"poiid":"B2094753D26EA3FE499A","title":"The Cookery酷瑞西餐馆","lon":"121.464401","lat":"31.233083","category":"247","category_name":"餐饮美食","address":"上海市 南京西路388号仙乐斯广场108单元(近黄陂北路)"},{"poiid":"B2094757DA68A1F84099","title":"Starbucks","lon":"121.4661986","lat":"31.2337571","category":"247","category_name":"餐饮美食","address":"People square"},{"poiid":"B2094654DA6CA2F9429B","title":"静安华庭","lon":"121.46486","lat":"31.2334","category":"47","category_name":"住宅区","address":"大田路158"},{"poiid":"B2094655D26CABF84298","title":"嘉发大厦A栋","lon":"121.46391","lat":"31.23291","category":"46","category_name":"楼宇","address":"大田路129弄1号"},{"poiid":"B2094654DA6CA2FF469A","title":"东展商业大厦","lon":"121.46185","lat":"31.23266","category":"46","category_name":"楼宇","address":"丰台学城海鹰路1号，3号"},{"poiid":"B2094752DA65A2FD439E","title":"上海明天广场JW万豪酒店","lon":"121.46729","lat":"31.233113","category":"500","category_name":"未知分类","address":"上海市 南京西路399号"},{"poiid":"B2094750D164ABFC419E","title":"凯宾斯基御锦轩(The One Shanghai)","lon":"121.46516923247","lat":"31.232415869772","category":"215","category_name":"三星级宾馆","address":"上海市静安区凤阳路601号"},{"poiid":"B2094654DA6FAAF5489C","title":"中华保险华盛大厦","lon":"121.46685","lat":"31.23415","category":"46","category_name":"楼宇","address":"成都北路600"},{"poiid":"B2094757D068A0F4469E","title":"韩膳宫","lon":"121.4661986","lat":"31.2337571","category":"46","category_name":"楼宇","address":"上海静安区成都北路333号"},{"poiid":"B2094654DA6CA2F9499D","title":"芬芳上瑞","lon":"121.46459","lat":"31.23383","category":"162","category_name":"医院","address":"北京西路509-511"},{"poiid":"B2094655D26AA0FD449A","title":"Neverland桌面游戏南京西路店","lon":"121.46413","lat":"31.23307","category":"247","category_name":"餐饮美食","address":"静安区大田路129弄嘉发大厦B幢8A室(近凤阳路)"},{"poiid":"B2094655D26EA2F9489D","title":"一街坊口腔门诊部","lon":"121.46475","lat":"31.23389","category":"162","category_name":"医院","address":"静安区北京西路503号(近大田路)"},{"poiid":"B2094757DB69A4FE489E","title":"苏浙汇","lon":"121.4655447326625","lat":"31.23379043700509","category":"500","category_name":"未知分类","address":null},{"poiid":"B2094751D565A7F5479C","title":"中华艺术宫","lon":"121.465068","lat":"31.234241","category":"500","category_name":"未知分类","address":null},{"poiid":"B2094655D26CABFE489A","title":"威海别墅","lon":"121.464","lat":"31.2322","category":"47","category_name":"住宅区","address":"威海路727弄2-40号"},{"poiid":"B2094757D16AA6F84193","title":"地铁一号线衡山路","lon":"121.461844738","lat":"31.2327313534","category":"500","category_name":"未知分类","address":"上海市静安区泰兴路"},{"poiid":"B2094757D164A2F8499C","title":"上外静安外国语小学","lon":"121.463903738","lat":"31.2331573625","category":"253","category_name":"校园生活","address":"静安区北京西路605弄47号(近大田路)"},{"poiid":"B2094655D26DABF54099","title":"上海147桌球俱乐部","lon":"121.46455","lat":"31.23286","category":"171","category_name":"台球厅","address":"静安区大田路128号B1楼(近北京西路)"},{"poiid":"B2094654DB6BA6F4449D","title":"嘉发大厦B栋","lon":"121.46347","lat":"31.23278","category":"46","category_name":"楼宇","address":"北京西路605弄57号"},{"poiid":"B2094655D265A0F54799","title":"剑锋击剑俱乐部","lon":"121.46461","lat":"31.23384","category":"220","category_name":"运动场所","address":"北京西路511"},{"poiid":"B2094654DA6CA2F9419F","title":"华联投资商务楼","lon":"121.46437","lat":"31.23258","category":"46","category_name":"楼宇","address":"大田路105"},{"poiid":"B2094757D16BA2FC4198","title":"大田路","lon":"121.464386","lat":"31.232592","category":"500","category_name":"未知分类","address":"上海市静安区,大田路山海关路"},{"poiid":"B2094757D169A3FC469B","title":"吉藏日本料理","lon":"121.461995738","lat":"31.2331023613","category":"500","category_name":"未知分类","address":"上海静安区石门二路19号(近南京西路)"},{"poiid":"B2094655D265A4FA4993","title":"喜士多华庭门市","lon":"121.46551","lat":"31.23409","category":"117","category_name":"便民商店/便利店","address":"北京西路485弄2"},{"poiid":"B2094655D264A1FB4498","title":"喜士多便利(华庭店)","lon":"121.46556","lat":"31.23412","category":"117","category_name":"便民商店/便利店","address":"北京西路483号"},{"poiid":"B2094654DA6CA2F94992","title":"舞风休闲会所","lon":"121.46459","lat":"31.23383","category":"208","category_name":"休闲场所","address":"静安区北京西路509-511"}]