[{"poiid":"B2094654DB65A4FE4793","title":"上海交通大学医学院","lon":"121.47212","lat":"31.21238","category":"671","category_name":"高校中心点","address":"上海市重庆南路227号"},{"poiid":"B2094757D06FA2FD4399","title":"吉祥草","lon":"121.47559","lat":"31.21365","category":"89","category_name":"中式素餐馆","address":"卢湾区马当路428号2楼(近合肥路)"},{"poiid":"B2094757D06FA4FA4192","title":"SMUDGEstore(林俊杰SMG)","lon":"121.47483764","lat":"31.215852575","category":"141","category_name":"服装鞋帽皮具店","address":"上海市卢湾区马当路新天地时尚B108号"},{"poiid":"B2094753D76FAAFA449C","title":"上海滩国泰旗舰店","lon":"121.466011","lat":"31.216125","category":"249","category_name":"购物服务","address":"淮海中路868号"},{"poiid":"B209475CD564A7F84292","title":"上海滩新天地店","lon":"121.47463","lat":"31.22164","category":"119","category_name":"商场","address":"\"太仓路181弄新天地北里15号\r\n\""},{"poiid":"B209475CD564A7F8439E","title":"上海滩中信泰富店","lon":"121.45602","lat":"31.22851","category":"119","category_name":"商场","address":"\"南京西路1168号中信泰富广场，店铺号221.\r\n\""},{"poiid":"B2094654DA6EA3F8499E","title":"海兴广场","lon":"121.474","lat":"31.2106","category":"119","category_name":"商场","address":"卢湾区瑞金南路1号(近徐家汇路)"},{"poiid":"B2094751D56BA1F44893","title":"壹品饼家（新天地店）","lon":"121.47524","lat":"31.21418","category":"67","category_name":"甜品店","address":"卢湾区卢湾区马当路245号新天地时尚B1楼(近复兴中路)"},{"poiid":"B2094757D06AA4FE439E","title":"交大医学院","lon":"121.47128583","lat":"31.211549299","category":"253","category_name":"校园生活","address":"上海重庆南路靠近建国路"},{"poiid":"B2094757D069ABFA409C","title":"上海市基督教诸圣堂","lon":"121.473615","lat":"31.215621","category":"245","category_name":"教堂","address":"上海复兴中路425号(近淡水路)"},{"poiid":"B2094757D065ABF94893","title":"交大医学院懿德楼","lon":"121.472265","lat":"31.212037","category":"500","category_name":"未知分类","address":"上海重庆南路227号"},{"poiid":"B2094757D06FA2F4409F","title":"巴士大厦","lon":"121.47304474","lat":"31.210916296","category":"46","category_name":"楼宇","address":"上海卢湾区建国东路525号(近重庆南路)"},{"poiid":"B2094750D26EABFA499F","title":"吉祥草素食馆 Lucky  Zen&Veg  Restaurant","lon":"121.47517238998","lat":"31.213610898688","category":"89","category_name":"中式素餐馆","address":"马当路428号2楼近合肥路"},{"poiid":"B2094757D06BA4FF4299","title":"卢湾区第一中心小学","lon":"121.47419","lat":"31.21231","category":"56","category_name":"小学","address":"卢湾区淡水路416号(淡水路建国东路)"},{"poiid":"B2094753D76AA5FC439A","title":"树洞咖啡","lon":"121.47134","lat":"31.21385","category":"65","category_name":"咖啡厅","address":"上海市卢湾区合肥路636号(近重庆南路)"},{"poiid":"B2094654DA6FA3FE4793","title":"圣乐大酒店","lon":"121.47262","lat":"31.21314","category":"88","category_name":"海鲜酒楼","address":"卢湾区金陵西路38号(连云路口)"},{"poiid":"B2094750D76CA3FF4098","title":"3Q脆皮鸡排","lon":"121.474","lat":"31.2144","category":"68","category_name":"快餐厅","address":"卢湾区合肥路297号(近淡水路)"},{"poiid":"B209475CD06BA7F9479B","title":"Small Spice","lon":"121.474174","lat":"31.213106","category":"75","category_name":"浙江菜","address":"淡水路250号"},{"poiid":"B2094757D064ABFF459C","title":"海文商务楼","lon":"121.47376723","lat":"31.213863451","category":"252","category_name":"楼宇机构","address":"上海合肥路315号"},{"poiid":"B2094654DB6BA4FB469D","title":"豪享来中西餐厅(马当路)","lon":"121.47533","lat":"31.21392","category":"94","category_name":"西餐厅","address":"卢湾区马当路428号(近合肥路)"},{"poiid":"B2094757D66DA1FD489E","title":"嘉定汽车公园","lon":"121.47260803","lat":"31.213414041","category":"196","category_name":"公园","address":"上海嘉定汽车博物馆"},{"poiid":"B2094757D064A5FB469E","title":"黎云阁","lon":"121.47304678","lat":"31.215470918","category":"76","category_name":"上海菜","address":"卢湾区复兴中路470号(近淡水路)"},{"poiid":"B2094757D069A4F94393","title":"上海交通大学医学院合肥路学生公寓","lon":"121.47309764","lat":"31.213114581","category":"500","category_name":"未知分类","address":"卢湾区重庆南路227号交通大学医学院内(近合肥路)"},{"poiid":"B2094751DA6FA6FA439B","title":"cafe espmark","lon":"121.472498","lat":"31.213737","category":"248","category_name":"生活娱乐","address":"上海市黄浦区合肥路588号"},{"poiid":"B2094654DA6FA3FE4299","title":"淡水公寓","lon":"121.47429","lat":"31.212645","category":"47","category_name":"住宅区","address":"上海市卢湾区淡水路361号"},{"poiid":"B209475DD76EA1FB439E","title":"新天地","lon":"121.473968","lat":"31.213369","category":"249","category_name":"购物服务","address":"上海市 淮海路"},{"poiid":"B2094654DA6FA3FF409E","title":"沧浪亭(马当路)","lon":"121.47561","lat":"31.21362","category":"87","category_name":"特色／地方风味餐厅","address":"卢湾区马当路355号(近合肥路)"},{"poiid":"B2094757D16AA6F9489C","title":"大桥一线","lon":"121.47371208","lat":"31.214056722","category":"38","category_name":"公交车站","address":"上海重庆南路建国中路"},{"poiid":"B2094757D064AAFA459A","title":"喜士多便利(淡水路店)","lon":"121.47392","lat":"31.2137","category":"117","category_name":"便民商店/便利店","address":"卢湾区淡水路372号(近合肥路)"},{"poiid":"B2094654DA6FA3FE4293","title":"复兴苑(淡水路门)","lon":"121.47415","lat":"31.21334","category":"47","category_name":"住宅区","address":"淡水路"},{"poiid":"B2094654DA6FA3FE499A","title":"淮海中路街道社区卫生服务中心","lon":"121.47365","lat":"31.21475","category":"162","category_name":"医院","address":"卢湾区淡水路285号(近合肥路)"},{"poiid":"B2094654DA6FA3FD489E","title":"福悦楼酒家","lon":"121.47520771349","lat":"31.214405676936","category":"76","category_name":"上海菜","address":"卢湾区马当路408号(近合肥路)"},{"poiid":"B2094757D064A4F94598","title":"复兴苑","lon":"121.47475","lat":"31.213816","category":"252","category_name":"楼宇机构","address":"上海合肥路淡水路"},{"poiid":"B2094654DA6FA3FF409F","title":"马当小区","lon":"121.47568","lat":"31.21344","category":"47","category_name":"住宅区","address":"马当路357弄1-8号"},{"poiid":"B2094757D064A4FD429E","title":"香山路7号","lon":"121.47295173","lat":"31.213255938","category":"500","category_name":"未知分类","address":"上海香山路7号"},{"poiid":"B2094654DA6FA3FF4492","title":"上海市兴业中学","lon":"121.47257","lat":"31.21138","category":"55","category_name":"中学","address":"卢湾区建国东路518号"},{"poiid":"B2094752DB6CA5FA469D","title":"思南公館","lon":"121.473636","lat":"31.21627","category":"500","category_name":"未知分类","address":"上海市 上海市思南路"},{"poiid":"B2094655D268A6F44598","title":"体育馆","lon":"121.47292","lat":"31.21284","category":"224","category_name":"综合体育馆","address":""},{"poiid":"B2094757D065ABF5489D","title":"大旺旺特色馄饨(淡水路店)","lon":"121.473931","lat":"31.212588","category":"247","category_name":"餐饮美食","address":"上海淡水路(近淮海中路)"},{"poiid":"B2094655D26CA4F4469B","title":"健乐小区","lon":"121.47493","lat":"31.2132","category":"47","category_name":"住宅区","address":"淡水路345弄1-32号"},{"poiid":"B2094655D268A0FF449C","title":"上海交通大学医学院(北门)","lon":"121.4725","lat":"31.21357","category":"656","category_name":"大门","address":"合肥路381"},{"poiid":"B2094655D26CA4F5419D","title":"淡水小区(淡水路)","lon":"121.47348","lat":"31.21449","category":"47","category_name":"住宅区","address":"淡水路332弄1-15号"},{"poiid":"B2094757D069A1FE4999","title":"宝宝文具店","lon":"121.475321","lat":"31.213992","category":"139","category_name":"文化用品店","address":"卢湾区马当路420号(近合肥路)"},{"poiid":"B2094757D66DA3FB429B","title":"肇嘉浜路地铁站","lon":"121.472531","lat":"31.210758","category":"36","category_name":"地铁站","address":"上海轨道交通7/9号线 肇嘉浜路站"},{"poiid":"B2094757D06AA2FC409E","title":"瑞金医院干部病房","lon":"121.47264301","lat":"31.212139202","category":"162","category_name":"医院","address":"上海市卢湾区建德路9号瑞金医院一号门内九号楼"},{"poiid":"B2094655D26BA0FB4493","title":"重庆南路杂粮煎饼摊","lon":"121.47213","lat":"31.21238","category":"68","category_name":"快餐厅","address":"卢湾区重庆南路227号二医大教育超市门口"},{"poiid":"B2094654DA6FA3FE449C","title":"联茂商务酒店","lon":"121.47407","lat":"31.21408","category":"250","category_name":"公园户外","address":"卢湾区合肥路301号"},{"poiid":"B2094654DA6FA3FF429A","title":"邦德造型设计","lon":"121.47606","lat":"31.21234","category":"148","category_name":"美容美发店","address":"卢湾区建国东路342号(近马当路)"},{"poiid":"B2094655D265ABF5429F","title":"中国农工民主党第一次全国干部会议会址","lon":"121.47355","lat":"31.21427","category":"250","category_name":"公园户外","address":"淡水路338-1临"},{"poiid":"B2094654DA6FA3FE469E","title":"韬奋纪念馆","lon":"121.47106","lat":"31.2141","category":"243","category_name":"纪念馆","address":"卢湾区重庆南路205弄53-54号(合肥路重庆南路)"},{"poiid":"B2094654DB65A4FE4793","title":"上海交通大学医学院","lon":"121.47212","lat":"31.21238","category":"671","category_name":"高校中心点","address":"上海市重庆南路227号"},{"poiid":"B2094757D06FA2FD4399","title":"吉祥草","lon":"121.47559","lat":"31.21365","category":"89","category_name":"中式素餐馆","address":"卢湾区马当路428号2楼(近合肥路)"},{"poiid":"B2094757D06FA4FA4192","title":"SMUDGEstore(林俊杰SMG)","lon":"121.47483764","lat":"31.215852575","category":"141","category_name":"服装鞋帽皮具店","address":"上海市卢湾区马当路新天地时尚B108号"},{"poiid":"B2094753D76FAAFA449C","title":"上海滩国泰旗舰店","lon":"121.466011","lat":"31.216125","category":"249","category_name":"购物服务","address":"淮海中路868号"},{"poiid":"B209475CD564A7F84292","title":"上海滩新天地店","lon":"121.47463","lat":"31.22164","category":"119","category_name":"商场","address":"\"太仓路181弄新天地北里15号\r\n\""},{"poiid":"B209475CD564A7F8439E","title":"上海滩中信泰富店","lon":"121.45602","lat":"31.22851","category":"119","category_name":"商场","address":"\"南京西路1168号中信泰富广场，店铺号221.\r\n\""},{"poiid":"B2094654DA6EA3F8499E","title":"海兴广场","lon":"121.474","lat":"31.2106","category":"119","category_name":"商场","address":"卢湾区瑞金南路1号(近徐家汇路)"},{"poiid":"B2094751D56BA1F44893","title":"壹品饼家（新天地店）","lon":"121.47524","lat":"31.21418","category":"67","category_name":"甜品店","address":"卢湾区卢湾区马当路245号新天地时尚B1楼(近复兴中路)"},{"poiid":"B2094757D06AA4FE439E","title":"交大医学院","lon":"121.47128583","lat":"31.211549299","category":"253","category_name":"校园生活","address":"上海重庆南路靠近建国路"},{"poiid":"B2094757D069ABFA409C","title":"上海市基督教诸圣堂","lon":"121.473615","lat":"31.215621","category":"245","category_name":"教堂","address":"上海复兴中路425号(近淡水路)"},{"poiid":"B2094757D065ABF94893","title":"交大医学院懿德楼","lon":"121.472265","lat":"31.212037","category":"500","category_name":"未知分类","address":"上海重庆南路227号"},{"poiid":"B2094757D06FA2F4409F","title":"巴士大厦","lon":"121.47304474","lat":"31.210916296","category":"46","category_name":"楼宇","address":"上海卢湾区建国东路525号(近重庆南路)"},{"poiid":"B2094750D26EABFA499F","title":"吉祥草素食馆 Lucky  Zen&Veg  Restaurant","lon":"121.47517238998","lat":"31.213610898688","category":"89","category_name":"中式素餐馆","address":"马当路428号2楼近合肥路"},{"poiid":"B2094757D06BA4FF4299","title":"卢湾区第一中心小学","lon":"121.47419","lat":"31.21231","category":"56","category_name":"小学","address":"卢湾区淡水路416号(淡水路建国东路)"},{"poiid":"B2094753D76AA5FC439A","title":"树洞咖啡","lon":"121.47134","lat":"31.21385","category":"65","category_name":"咖啡厅","address":"上海市卢湾区合肥路636号(近重庆南路)"},{"poiid":"B2094654DA6FA3FE4793","title":"圣乐大酒店","lon":"121.47262","lat":"31.21314","category":"88","category_name":"海鲜酒楼","address":"卢湾区金陵西路38号(连云路口)"},{"poiid":"B2094750D76CA3FF4098","title":"3Q脆皮鸡排","lon":"121.474","lat":"31.2144","category":"68","category_name":"快餐厅","address":"卢湾区合肥路297号(近淡水路)"},{"poiid":"B209475CD06BA7F9479B","title":"Small Spice","lon":"121.474174","lat":"31.213106","category":"75","category_name":"浙江菜","address":"淡水路250号"},{"poiid":"B2094757D064ABFF459C","title":"海文商务楼","lon":"121.47376723","lat":"31.213863451","category":"252","category_name":"楼宇机构","address":"上海合肥路315号"},{"poiid":"B2094654DB6BA4FB469D","title":"豪享来中西餐厅(马当路)","lon":"121.47533","lat":"31.21392","category":"94","category_name":"西餐厅","address":"卢湾区马当路428号(近合肥路)"},{"poiid":"B2094757D66DA1FD489E","title":"嘉定汽车公园","lon":"121.47260803","lat":"31.213414041","category":"196","category_name":"公园","address":"上海嘉定汽车博物馆"},{"poiid":"B2094757D064A5FB469E","title":"黎云阁","lon":"121.47304678","lat":"31.215470918","category":"76","category_name":"上海菜","address":"卢湾区复兴中路470号(近淡水路)"},{"poiid":"B2094757D069A4F94393","title":"上海交通大学医学院合肥路学生公寓","lon":"121.47309764","lat":"31.213114581","category":"500","category_name":"未知分类","address":"卢湾区重庆南路227号交通大学医学院内(近合肥路)"},{"poiid":"B2094751DA6FA6FA439B","title":"cafe espmark","lon":"121.472498","lat":"31.213737","category":"248","category_name":"生活娱乐","address":"上海市黄浦区合肥路588号"},{"poiid":"B2094654DA6FA3FE4299","title":"淡水公寓","lon":"121.47429","lat":"31.212645","category":"47","category_name":"住宅区","address":"上海市卢湾区淡水路361号"},{"poiid":"B209475DD76EA1FB439E","title":"新天地","lon":"121.473968","lat":"31.213369","category":"249","category_name":"购物服务","address":"上海市 淮海路"},{"poiid":"B2094654DA6FA3FF409E","title":"沧浪亭(马当路)","lon":"121.47561","lat":"31.21362","category":"87","category_name":"特色／地方风味餐厅","address":"卢湾区马当路355号(近合肥路)"},{"poiid":"B2094757D16AA6F9489C","title":"大桥一线","lon":"121.47371208","lat":"31.214056722","category":"38","category_name":"公交车站","address":"上海重庆南路建国中路"},{"poiid":"B2094757D064AAFA459A","title":"喜士多便利(淡水路店)","lon":"121.47392","lat":"31.2137","category":"117","category_name":"便民商店/便利店","address":"卢湾区淡水路372号(近合肥路)"},{"poiid":"B2094654DA6FA3FE4293","title":"复兴苑(淡水路门)","lon":"121.47415","lat":"31.21334","category":"47","category_name":"住宅区","address":"淡水路"},{"poiid":"B2094654DA6FA3FE499A","title":"淮海中路街道社区卫生服务中心","lon":"121.47365","lat":"31.21475","category":"162","category_name":"医院","address":"卢湾区淡水路285号(近合肥路)"},{"poiid":"B2094654DA6FA3FD489E","title":"福悦楼酒家","lon":"121.47520771349","lat":"31.214405676936","category":"76","category_name":"上海菜","address":"卢湾区马当路408号(近合肥路)"},{"poiid":"B2094757D064A4F94598","title":"复兴苑","lon":"121.47475","lat":"31.213816","category":"252","category_name":"楼宇机构","address":"上海合肥路淡水路"},{"poiid":"B2094654DA6FA3FF409F","title":"马当小区","lon":"121.47568","lat":"31.21344","category":"47","category_name":"住宅区","address":"马当路357弄1-8号"},{"poiid":"B2094757D064A4FD429E","title":"香山路7号","lon":"121.47295173","lat":"31.213255938","category":"500","category_name":"未知分类","address":"上海香山路7号"},{"poiid":"B2094654DA6FA3FF4492","title":"上海市兴业中学","lon":"121.47257","lat":"31.21138","category":"55","category_name":"中学","address":"卢湾区建国东路518号"},{"poiid":"B2094752DB6CA5FA469D","title":"思南公館","lon":"121.473636","lat":"31.21627","category":"500","category_name":"未知分类","address":"上海市 上海市思南路"},{"poiid":"B2094655D268A6F44598","title":"体育馆","lon":"121.47292","lat":"31.21284","category":"224","category_name":"综合体育馆","address":""},{"poiid":"B2094757D065ABF5489D","title":"大旺旺特色馄饨(淡水路店)","lon":"121.473931","lat":"31.212588","category":"247","category_name":"餐饮美食","address":"上海淡水路(近淮海中路)"},{"poiid":"B2094655D26CA4F4469B","title":"健乐小区","lon":"121.47493","lat":"31.2132","category":"47","category_name":"住宅区","address":"淡水路345弄1-32号"},{"poiid":"B2094655D268A0FF449C","title":"上海交通大学医学院(北门)","lon":"121.4725","lat":"31.21357","category":"656","category_name":"大门","address":"合肥路381"},{"poiid":"B2094655D26CA4F5419D","title":"淡水小区(淡水路)","lon":"121.47348","lat":"31.21449","category":"47","category_name":"住宅区","address":"淡水路332弄1-15号"},{"poiid":"B2094757D069A1FE4999","title":"宝宝文具店","lon":"121.475321","lat":"31.213992","category":"139","category_name":"文化用品店","address":"卢湾区马当路420号(近合肥路)"},{"poiid":"B2094757D66DA3FB429B","title":"肇嘉浜路地铁站","lon":"121.472531","lat":"31.210758","category":"36","category_name":"地铁站","address":"上海轨道交通7/9号线 肇嘉浜路站"},{"poiid":"B2094757D06AA2FC409E","title":"瑞金医院干部病房","lon":"121.47264301","lat":"31.212139202","category":"162","category_name":"医院","address":"上海市卢湾区建德路9号瑞金医院一号门内九号楼"},{"poiid":"B2094655D26BA0FB4493","title":"重庆南路杂粮煎饼摊","lon":"121.47213","lat":"31.21238","category":"68","category_name":"快餐厅","address":"卢湾区重庆南路227号二医大教育超市门口"},{"poiid":"B2094654DA6FA3FE449C","title":"联茂商务酒店","lon":"121.47407","lat":"31.21408","category":"250","category_name":"公园户外","address":"卢湾区合肥路301号"},{"poiid":"B2094654DA6FA3FF429A","title":"邦德造型设计","lon":"121.47606","lat":"31.21234","category":"148","category_name":"美容美发店","address":"卢湾区建国东路342号(近马当路)"},{"poiid":"B2094655D265ABF5429F","title":"中国农工民主党第一次全国干部会议会址","lon":"121.47355","lat":"31.21427","category":"250","category_name":"公园户外","address":"淡水路338-1临"},{"poiid":"B2094654DA6FA3FE469E","title":"韬奋纪念馆","lon":"121.47106","lat":"31.2141","category":"243","category_name":"纪念馆","address":"卢湾区重庆南路205弄53-54号(合肥路重庆南路)"},{"poiid":"B2094654DB65A4FE4793","title":"上海交通大学医学院","lon":"121.47212","lat":"31.21238","category":"671","category_name":"高校中心点","address":"上海市重庆南路227号"},{"poiid":"B2094757D06FA2FD4399","title":"吉祥草","lon":"121.47559","lat":"31.21365","category":"89","category_name":"中式素餐馆","address":"卢湾区马当路428号2楼(近合肥路)"},{"poiid":"B2094757D06FA4FA4192","title":"SMUDGEstore(林俊杰SMG)","lon":"121.47483764","lat":"31.215852575","category":"141","category_name":"服装鞋帽皮具店","address":"上海市卢湾区马当路新天地时尚B108号"},{"poiid":"B2094753D76FAAFA449C","title":"上海滩国泰旗舰店","lon":"121.466011","lat":"31.216125","category":"249","category_name":"购物服务","address":"淮海中路868号"},{"poiid":"B209475CD564A7F84292","title":"上海滩新天地店","lon":"121.47463","lat":"31.22164","category":"119","category_name":"商场","address":"\"太仓路181弄新天地北里15号\r\n\""},{"poiid":"B209475CD564A7F8439E","title":"上海滩中信泰富店","lon":"121.45602","lat":"31.22851","category":"119","category_name":"商场","address":"\"南京西路1168号中信泰富广场，店铺号221.\r\n\""},{"poiid":"B2094654DA6EA3F8499E","title":"海兴广场","lon":"121.474","lat":"31.2106","category":"119","category_name":"商场","address":"卢湾区瑞金南路1号(近徐家汇路)"},{"poiid":"B2094751D56BA1F44893","title":"壹品饼家（新天地店）","lon":"121.47524","lat":"31.21418","category":"67","category_name":"甜品店","address":"卢湾区卢湾区马当路245号新天地时尚B1楼(近复兴中路)"},{"poiid":"B2094757D06AA4FE439E","title":"交大医学院","lon":"121.47128583","lat":"31.211549299","category":"253","category_name":"校园生活","address":"上海重庆南路靠近建国路"},{"poiid":"B2094757D069ABFA409C","title":"上海市基督教诸圣堂","lon":"121.473615","lat":"31.215621","category":"245","category_name":"教堂","address":"上海复兴中路425号(近淡水路)"},{"poiid":"B2094757D065ABF94893","title":"交大医学院懿德楼","lon":"121.472265","lat":"31.212037","category":"500","category_name":"未知分类","address":"上海重庆南路227号"},{"poiid":"B2094757D06FA2F4409F","title":"巴士大厦","lon":"121.47304474","lat":"31.210916296","category":"46","category_name":"楼宇","address":"上海卢湾区建国东路525号(近重庆南路)"},{"poiid":"B2094750D26EABFA499F","title":"吉祥草素食馆 Lucky  Zen&Veg  Restaurant","lon":"121.47517238998","lat":"31.213610898688","category":"89","category_name":"中式素餐馆","address":"马当路428号2楼近合肥路"},{"poiid":"B2094757D06BA4FF4299","title":"卢湾区第一中心小学","lon":"121.47419","lat":"31.21231","category":"56","category_name":"小学","address":"卢湾区淡水路416号(淡水路建国东路)"},{"poiid":"B2094753D76AA5FC439A","title":"树洞咖啡","lon":"121.47134","lat":"31.21385","category":"65","category_name":"咖啡厅","address":"上海市卢湾区合肥路636号(近重庆南路)"},{"poiid":"B2094654DA6FA3FE4793","title":"圣乐大酒店","lon":"121.47262","lat":"31.21314","category":"88","category_name":"海鲜酒楼","address":"卢湾区金陵西路38号(连云路口)"},{"poiid":"B2094750D76CA3FF4098","title":"3Q脆皮鸡排","lon":"121.474","lat":"31.2144","category":"68","category_name":"快餐厅","address":"卢湾区合肥路297号(近淡水路)"},{"poiid":"B209475CD06BA7F9479B","title":"Small Spice","lon":"121.474174","lat":"31.213106","category":"75","category_name":"浙江菜","address":"淡水路250号"},{"poiid":"B2094757D064ABFF459C","title":"海文商务楼","lon":"121.47376723","lat":"31.213863451","category":"252","category_name":"楼宇机构","address":"上海合肥路315号"},{"poiid":"B2094654DB6BA4FB469D","title":"豪享来中西餐厅(马当路)","lon":"121.47533","lat":"31.21392","category":"94","category_name":"西餐厅","address":"卢湾区马当路428号(近合肥路)"},{"poiid":"B2094757D66DA1FD489E","title":"嘉定汽车公园","lon":"121.47260803","lat":"31.213414041","category":"196","category_name":"公园","address":"上海嘉定汽车博物馆"},{"poiid":"B2094757D064A5FB469E","title":"黎云阁","lon":"121.47304678","lat":"31.215470918","category":"76","category_name":"上海菜","address":"卢湾区复兴中路470号(近淡水路)"},{"poiid":"B2094757D069A4F94393","title":"上海交通大学医学院合肥路学生公寓","lon":"121.47309764","lat":"31.213114581","category":"500","category_name":"未知分类","address":"卢湾区重庆南路227号交通大学医学院内(近合肥路)"},{"poiid":"B2094751DA6FA6FA439B","title":"cafe espmark","lon":"121.472498","lat":"31.213737","category":"248","category_name":"生活娱乐","address":"上海市黄浦区合肥路588号"},{"poiid":"B2094654DA6FA3FE4299","title":"淡水公寓","lon":"121.47429","lat":"31.212645","category":"47","category_name":"住宅区","address":"上海市卢湾区淡水路361号"},{"poiid":"B209475DD76EA1FB439E","title":"新天地","lon":"121.473968","lat":"31.213369","category":"249","category_name":"购物服务","address":"上海市 淮海路"},{"poiid":"B2094654DA6FA3FF409E","title":"沧浪亭(马当路)","lon":"121.47561","lat":"31.21362","category":"87","category_name":"特色／地方风味餐厅","address":"卢湾区马当路355号(近合肥路)"},{"poiid":"B2094757D16AA6F9489C","title":"大桥一线","lon":"121.47371208","lat":"31.214056722","category":"38","category_name":"公交车站","address":"上海重庆南路建国中路"},{"poiid":"B2094757D064AAFA459A","title":"喜士多便利(淡水路店)","lon":"121.47392","lat":"31.2137","category":"117","category_name":"便民商店/便利店","address":"卢湾区淡水路372号(近合肥路)"},{"poiid":"B2094654DA6FA3FE4293","title":"复兴苑(淡水路门)","lon":"121.47415","lat":"31.21334","category":"47","category_name":"住宅区","address":"淡水路"},{"poiid":"B2094654DA6FA3FE499A","title":"淮海中路街道社区卫生服务中心","lon":"121.47365","lat":"31.21475","category":"162","category_name":"医院","address":"卢湾区淡水路285号(近合肥路)"},{"poiid":"B2094654DA6FA3FD489E","title":"福悦楼酒家","lon":"121.47520771349","lat":"31.214405676936","category":"76","category_name":"上海菜","address":"卢湾区马当路408号(近合肥路)"},{"poiid":"B2094757D064A4F94598","title":"复兴苑","lon":"121.47475","lat":"31.213816","category":"252","category_name":"楼宇机构","address":"上海合肥路淡水路"},{"poiid":"B2094654DA6FA3FF409F","title":"马当小区","lon":"121.47568","lat":"31.21344","category":"47","category_name":"住宅区","address":"马当路357弄1-8号"},{"poiid":"B2094757D064A4FD429E","title":"香山路7号","lon":"121.47295173","lat":"31.213255938","category":"500","category_name":"未知分类","address":"上海香山路7号"},{"poiid":"B2094654DA6FA3FF4492","title":"上海市兴业中学","lon":"121.47257","lat":"31.21138","category":"55","category_name":"中学","address":"卢湾区建国东路518号"},{"poiid":"B2094752DB6CA5FA469D","title":"思南公館","lon":"121.473636","lat":"31.21627","category":"500","category_name":"未知分类","address":"上海市 上海市思南路"},{"poiid":"B2094655D268A6F44598","title":"体育馆","lon":"121.47292","lat":"31.21284","category":"224","category_name":"综合体育馆","address":""},{"poiid":"B2094757D065ABF5489D","title":"大旺旺特色馄饨(淡水路店)","lon":"121.473931","lat":"31.212588","category":"247","category_name":"餐饮美食","address":"上海淡水路(近淮海中路)"},{"poiid":"B2094655D26CA4F4469B","title":"健乐小区","lon":"121.47493","lat":"31.2132","category":"47","category_name":"住宅区","address":"淡水路345弄1-32号"},{"poiid":"B2094655D268A0FF449C","title":"上海交通大学医学院(北门)","lon":"121.4725","lat":"31.21357","category":"656","category_name":"大门","address":"合肥路381"},{"poiid":"B2094655D26CA4F5419D","title":"淡水小区(淡水路)","lon":"121.47348","lat":"31.21449","category":"47","category_name":"住宅区","address":"淡水路332弄1-15号"},{"poiid":"B2094757D069A1FE4999","title":"宝宝文具店","lon":"121.475321","lat":"31.213992","category":"139","category_name":"文化用品店","address":"卢湾区马当路420号(近合肥路)"},{"poiid":"B2094757D66DA3FB429B","title":"肇嘉浜路地铁站","lon":"121.472531","lat":"31.210758","category":"36","category_name":"地铁站","address":"上海轨道交通7/9号线 肇嘉浜路站"},{"poiid":"B2094757D06AA2FC409E","title":"瑞金医院干部病房","lon":"121.47264301","lat":"31.212139202","category":"162","category_name":"医院","address":"上海市卢湾区建德路9号瑞金医院一号门内九号楼"},{"poiid":"B2094655D26BA0FB4493","title":"重庆南路杂粮煎饼摊","lon":"121.47213","lat":"31.21238","category":"68","category_name":"快餐厅","address":"卢湾区重庆南路227号二医大教育超市门口"},{"poiid":"B2094654DA6FA3FE449C","title":"联茂商务酒店","lon":"121.47407","lat":"31.21408","category":"250","category_name":"公园户外","address":"卢湾区合肥路301号"},{"poiid":"B2094654DA6FA3FF429A","title":"邦德造型设计","lon":"121.47606","lat":"31.21234","category":"148","category_name":"美容美发店","address":"卢湾区建国东路342号(近马当路)"},{"poiid":"B2094655D265ABF5429F","title":"中国农工民主党第一次全国干部会议会址","lon":"121.47355","lat":"31.21427","category":"250","category_name":"公园户外","address":"淡水路338-1临"},{"poiid":"B2094654DA6FA3FE469E","title":"韬奋纪念馆","lon":"121.47106","lat":"31.2141","category":"243","category_name":"纪念馆","address":"卢湾区重庆南路205弄53-54号(合肥路重庆南路)"},{"poiid":"B2094654DB65A4FE4793","title":"上海交通大学医学院","lon":"121.47212","lat":"31.21238","category":"671","category_name":"高校中心点","address":"上海市重庆南路227号"},{"poiid":"B2094757D06FA2FD4399","title":"吉祥草","lon":"121.47559","lat":"31.21365","category":"89","category_name":"中式素餐馆","address":"卢湾区马当路428号2楼(近合肥路)"},{"poiid":"B2094757D06FA4FA4192","title":"SMUDGEstore(林俊杰SMG)","lon":"121.47483764","lat":"31.215852575","category":"141","category_name":"服装鞋帽皮具店","address":"上海市卢湾区马当路新天地时尚B108号"},{"poiid":"B2094753D76FAAFA449C","title":"上海滩国泰旗舰店","lon":"121.466011","lat":"31.216125","category":"249","category_name":"购物服务","address":"淮海中路868号"},{"poiid":"B209475CD564A7F84292","title":"上海滩新天地店","lon":"121.47463","lat":"31.22164","category":"119","category_name":"商场","address":"\"太仓路181弄新天地北里15号\r\n\""},{"poiid":"B209475CD564A7F8439E","title":"上海滩中信泰富店","lon":"121.45602","lat":"31.22851","category":"119","category_name":"商场","address":"\"南京西路1168号中信泰富广场，店铺号221.\r\n\""},{"poiid":"B2094654DA6EA3F8499E","title":"海兴广场","lon":"121.474","lat":"31.2106","category":"119","category_name":"商场","address":"卢湾区瑞金南路1号(近徐家汇路)"},{"poiid":"B2094751D56BA1F44893","title":"壹品饼家（新天地店）","lon":"121.47524","lat":"31.21418","category":"67","category_name":"甜品店","address":"卢湾区卢湾区马当路245号新天地时尚B1楼(近复兴中路)"},{"poiid":"B2094757D06AA4FE439E","title":"交大医学院","lon":"121.47128583","lat":"31.211549299","category":"253","category_name":"校园生活","address":"上海重庆南路靠近建国路"},{"poiid":"B2094757D069ABFA409C","title":"上海市基督教诸圣堂","lon":"121.473615","lat":"31.215621","category":"245","category_name":"教堂","address":"上海复兴中路425号(近淡水路)"},{"poiid":"B2094757D065ABF94893","title":"交大医学院懿德楼","lon":"121.472265","lat":"31.212037","category":"500","category_name":"未知分类","address":"上海重庆南路227号"},{"poiid":"B2094757D06FA2F4409F","title":"巴士大厦","lon":"121.47304474","lat":"31.210916296","category":"46","category_name":"楼宇","address":"上海卢湾区建国东路525号(近重庆南路)"},{"poiid":"B2094750D26EABFA499F","title":"吉祥草素食馆 Lucky  Zen&Veg  Restaurant","lon":"121.47517238998","lat":"31.213610898688","category":"89","category_name":"中式素餐馆","address":"马当路428号2楼近合肥路"},{"poiid":"B2094757D06BA4FF4299","title":"卢湾区第一中心小学","lon":"121.47419","lat":"31.21231","category":"56","category_name":"小学","address":"卢湾区淡水路416号(淡水路建国东路)"},{"poiid":"B2094753D76AA5FC439A","title":"树洞咖啡","lon":"121.47134","lat":"31.21385","category":"65","category_name":"咖啡厅","address":"上海市卢湾区合肥路636号(近重庆南路)"},{"poiid":"B2094654DA6FA3FE4793","title":"圣乐大酒店","lon":"121.47262","lat":"31.21314","category":"88","category_name":"海鲜酒楼","address":"卢湾区金陵西路38号(连云路口)"},{"poiid":"B2094750D76CA3FF4098","title":"3Q脆皮鸡排","lon":"121.474","lat":"31.2144","category":"68","category_name":"快餐厅","address":"卢湾区合肥路297号(近淡水路)"},{"poiid":"B209475CD06BA7F9479B","title":"Small Spice","lon":"121.474174","lat":"31.213106","category":"75","category_name":"浙江菜","address":"淡水路250号"},{"poiid":"B2094757D064ABFF459C","title":"海文商务楼","lon":"121.47376723","lat":"31.213863451","category":"252","category_name":"楼宇机构","address":"上海合肥路315号"},{"poiid":"B2094654DB6BA4FB469D","title":"豪享来中西餐厅(马当路)","lon":"121.47533","lat":"31.21392","category":"94","category_name":"西餐厅","address":"卢湾区马当路428号(近合肥路)"},{"poiid":"B2094757D66DA1FD489E","title":"嘉定汽车公园","lon":"121.47260803","lat":"31.213414041","category":"196","category_name":"公园","address":"上海嘉定汽车博物馆"},{"poiid":"B2094757D064A5FB469E","title":"黎云阁","lon":"121.47304678","lat":"31.215470918","category":"76","category_name":"上海菜","address":"卢湾区复兴中路470号(近淡水路)"},{"poiid":"B2094757D069A4F94393","title":"上海交通大学医学院合肥路学生公寓","lon":"121.47309764","lat":"31.213114581","category":"500","category_name":"未知分类","address":"卢湾区重庆南路227号交通大学医学院内(近合肥路)"},{"poiid":"B2094751DA6FA6FA439B","title":"cafe espmark","lon":"121.472498","lat":"31.213737","category":"248","category_name":"生活娱乐","address":"上海市黄浦区合肥路588号"},{"poiid":"B2094654DA6FA3FE4299","title":"淡水公寓","lon":"121.47429","lat":"31.212645","category":"47","category_name":"住宅区","address":"上海市卢湾区淡水路361号"},{"poiid":"B209475DD76EA1FB439E","title":"新天地","lon":"121.473968","lat":"31.213369","category":"249","category_name":"购物服务","address":"上海市 淮海路"},{"poiid":"B2094654DA6FA3FF409E","title":"沧浪亭(马当路)","lon":"121.47561","lat":"31.21362","category":"87","category_name":"特色／地方风味餐厅","address":"卢湾区马当路355号(近合肥路)"},{"poiid":"B2094757D16AA6F9489C","title":"大桥一线","lon":"121.47371208","lat":"31.214056722","category":"38","category_name":"公交车站","address":"上海重庆南路建国中路"},{"poiid":"B2094757D064AAFA459A","title":"喜士多便利(淡水路店)","lon":"121.47392","lat":"31.2137","category":"117","category_name":"便民商店/便利店","address":"卢湾区淡水路372号(近合肥路)"},{"poiid":"B2094654DA6FA3FE4293","title":"复兴苑(淡水路门)","lon":"121.47415","lat":"31.21334","category":"47","category_name":"住宅区","address":"淡水路"},{"poiid":"B2094654DA6FA3FE499A","title":"淮海中路街道社区卫生服务中心","lon":"121.47365","lat":"31.21475","category":"162","category_name":"医院","address":"卢湾区淡水路285号(近合肥路)"},{"poiid":"B2094654DA6FA3FD489E","title":"福悦楼酒家","lon":"121.47520771349","lat":"31.214405676936","category":"76","category_name":"上海菜","address":"卢湾区马当路408号(近合肥路)"},{"poiid":"B2094757D064A4F94598","title":"复兴苑","lon":"121.47475","lat":"31.213816","category":"252","category_name":"楼宇机构","address":"上海合肥路淡水路"},{"poiid":"B2094654DA6FA3FF409F","title":"马当小区","lon":"121.47568","lat":"31.21344","category":"47","category_name":"住宅区","address":"马当路357弄1-8号"},{"poiid":"B2094757D064A4FD429E","title":"香山路7号","lon":"121.47295173","lat":"31.213255938","category":"500","category_name":"未知分类","address":"上海香山路7号"},{"poiid":"B2094654DA6FA3FF4492","title":"上海市兴业中学","lon":"121.47257","lat":"31.21138","category":"55","category_name":"中学","address":"卢湾区建国东路518号"},{"poiid":"B2094752DB6CA5FA469D","title":"思南公館","lon":"121.473636","lat":"31.21627","category":"500","category_name":"未知分类","address":"上海市 上海市思南路"},{"poiid":"B2094655D268A6F44598","title":"体育馆","lon":"121.47292","lat":"31.21284","category":"224","category_name":"综合体育馆","address":""},{"poiid":"B2094757D065ABF5489D","title":"大旺旺特色馄饨(淡水路店)","lon":"121.473931","lat":"31.212588","category":"247","category_name":"餐饮美食","address":"上海淡水路(近淮海中路)"},{"poiid":"B2094655D26CA4F4469B","title":"健乐小区","lon":"121.47493","lat":"31.2132","category":"47","category_name":"住宅区","address":"淡水路345弄1-32号"},{"poiid":"B2094655D268A0FF449C","title":"上海交通大学医学院(北门)","lon":"121.4725","lat":"31.21357","category":"656","category_name":"大门","address":"合肥路381"},{"poiid":"B2094655D26CA4F5419D","title":"淡水小区(淡水路)","lon":"121.47348","lat":"31.21449","category":"47","category_name":"住宅区","address":"淡水路332弄1-15号"},{"poiid":"B2094757D069A1FE4999","title":"宝宝文具店","lon":"121.475321","lat":"31.213992","category":"139","category_name":"文化用品店","address":"卢湾区马当路420号(近合肥路)"},{"poiid":"B2094757D66DA3FB429B","title":"肇嘉浜路地铁站","lon":"121.472531","lat":"31.210758","category":"36","category_name":"地铁站","address":"上海轨道交通7/9号线 肇嘉浜路站"},{"poiid":"B2094757D06AA2FC409E","title":"瑞金医院干部病房","lon":"121.47264301","lat":"31.212139202","category":"162","category_name":"医院","address":"上海市卢湾区建德路9号瑞金医院一号门内九号楼"},{"poiid":"B2094655D26BA0FB4493","title":"重庆南路杂粮煎饼摊","lon":"121.47213","lat":"31.21238","category":"68","category_name":"快餐厅","address":"卢湾区重庆南路227号二医大教育超市门口"},{"poiid":"B2094654DA6FA3FE449C","title":"联茂商务酒店","lon":"121.47407","lat":"31.21408","category":"250","category_name":"公园户外","address":"卢湾区合肥路301号"},{"poiid":"B2094654DA6FA3FF429A","title":"邦德造型设计","lon":"121.47606","lat":"31.21234","category":"148","category_name":"美容美发店","address":"卢湾区建国东路342号(近马当路)"},{"poiid":"B2094655D265ABF5429F","title":"中国农工民主党第一次全国干部会议会址","lon":"121.47355","lat":"31.21427","category":"250","category_name":"公园户外","address":"淡水路338-1临"},{"poiid":"B2094654DA6FA3FE469E","title":"韬奋纪念馆","lon":"121.47106","lat":"31.2141","category":"243","category_name":"纪念馆","address":"卢湾区重庆南路205弄53-54号(合肥路重庆南路)"}]