[{"poiid":"B2094757D06FA3F8429C","title":"淮海路","lon":"121.46398412","lat":"31.222631868","category":"260","category_name":"其他","address":"上海淮海路"},{"poiid":"B2094655D26FA2FA439D","title":"复茂小龙虾 淮海中路店 FOMO","lon":"121.47673364297","lat":"31.224215393217","category":"68","category_name":"快餐厅","address":"卢湾区淮海中路172号(近普安路)"},{"poiid":"B2094757D06EAAFF429D","title":"揽香川菜馆 无限度广场店","lon":"121.478155054","lat":"31.224894793","category":"247","category_name":"餐饮美食","address":"卢湾区淮海中路138号无限度广场4楼(近普安路)"},{"poiid":"B2094753D76FAAFA449C","title":"上海滩国泰旗舰店","lon":"121.466011","lat":"31.216125","category":"249","category_name":"购物服务","address":"淮海中路868号"},{"poiid":"B209475CD564A7F84292","title":"上海滩新天地店","lon":"121.47463","lat":"31.22164","category":"119","category_name":"商场","address":"\"太仓路181弄新天地北里15号\r\n\""},{"poiid":"B209475CD564A7F8439E","title":"上海滩中信泰富店","lon":"121.45602","lat":"31.22851","category":"119","category_name":"商场","address":"\"南京西路1168号中信泰富广场，店铺号221.\r\n\""},{"poiid":"B209475CD564A7F84392","title":"上海滩浦东香格里拉店","lon":"121.50058","lat":"31.23634","category":"119","category_name":"商场","address":"浦东富成路33号香格里拉酒店内大堂层"},{"poiid":"B2094750D56DABFB469A","title":"上海广场（原无限度广场）","lon":"121.47599","lat":"31.22404","category":"500","category_name":"未知分类","address":"上海卢湾区淮海中路138号(近普安路)"},{"poiid":"B2094757D66CA4FB499C","title":"好樂迪","lon":"121.477838738","lat":"31.2232501514","category":"500","category_name":"未知分类","address":"上海市黄浦区黄陂南路"},{"poiid":"B2094757D06FA1F8489D","title":"淮海公园","lon":"121.47755186","lat":"31.222709558","category":"196","category_name":"公园","address":"卢湾区淮海中路177号(近普安路)"},{"poiid":"B2094757D66FA6FA499E","title":"路易威登Louis Vuitton(淮海旗舰店)","lon":"121.4759","lat":"31.22392","category":"141","category_name":"服装鞋帽皮具店","address":"上海卢湾区淮海中路222号力宝广场1楼105商铺(近嵩山路)"},{"poiid":"B2094752D36DA7FD4598","title":"同济大学","lon":"121.47591","lat":"31.22435","category":"671","category_name":"高校中心点","address":"上海市四平路1239号"},{"poiid":"B2094757D168A7FC469A","title":"连卡佛","lon":"121.477417738","lat":"31.2243821755","category":"249","category_name":"购物服务","address":"上海时代广场"},{"poiid":"B2094751DA6DA1FF489A","title":"新世纪影城","lon":"121.47591","lat":"31.22435","category":"178","category_name":"电影院","address":null},{"poiid":"B2094752D268A1FB429F","title":"虹橋機場2號航站樓","lon":"121.47591","lat":"31.22435","category":"500","category_name":"未知分类","address":null},{"poiid":"B2094654DA6EAAFA4493","title":"傣妹淮海店","lon":"121.47688","lat":"31.22439","category":"86","category_name":"火锅店","address":"卢湾区淮海中路188号4楼(近普安路)"},{"poiid":"B2094655D36DA6FF4993","title":"金逸国际电影城","lon":"121.47591","lat":"31.22435","category":"178","category_name":"电影院","address":"上海海上海店"},{"poiid":"B2094751D564ABFC4693","title":"上海大学","lon":"121.47591","lat":"31.22435","category":"253","category_name":"校园生活","address":"上大路99号"},{"poiid":"B2094757D068ABF5419F","title":"禾绿回转寿司(海慈店)","lon":"121.47761","lat":"31.2243","category":"95","category_name":"日本料理","address":"卢湾区淮海中路158号海慈大厦2楼(近普安路)"},{"poiid":"B2094654DA6EAAFA459A","title":"中国建设银行上海市分行营业部","lon":"121.47667","lat":"31.22432","category":"150","category_name":"银行","address":"淮海中路200"},{"poiid":"B2094750D76DA5FE469C","title":"竹家庄避风塘(淮海中路店)","lon":"121.477","lat":"31.2244","category":"72","category_name":"广东菜","address":"卢湾区淮海中路158号(近普安路)"},{"poiid":"B2094757D06FA2F4429D","title":"阿童木火锅超人(淮海中路店)","lon":"121.47747","lat":"31.22429","category":"86","category_name":"火锅店","address":"卢湾区淮海中路158号B1楼(近普安路)"},{"poiid":"B2094750D76DAAF94599","title":"Éclair","lon":"121.476","lat":"31.2228","category":"67","category_name":"甜品店","address":"卢湾区嵩山路88号上海安达仕酒店1楼"},{"poiid":"B2094751D564A0F8409F","title":"王鼎铁板烧精致料理","lon":"121.47591","lat":"31.22435","category":"247","category_name":"餐饮美食","address":"世博大道1368号1L M 0304"},{"poiid":"B2094751DA6AA2FD4999","title":"上海浦东国际机场T1航站楼","lon":"121.47591","lat":"31.22435","category":"500","category_name":"未知分类","address":null},{"poiid":"B2094757D06FA3FB459E","title":"竹家庄避风塘 福州路店","lon":"121.477716","lat":"31.232561","category":"72","category_name":"广东菜","address":"福州路666号金陵海欣大厦内近云南中路"},{"poiid":"B2094751DA6EA6F8419E","title":"金逸影城","lon":"121.47591","lat":"31.22435","category":"178","category_name":"电影院","address":"虹口龙之梦"},{"poiid":"B2094654DA6DABFA469B","title":"复兴广场","lon":"121.477","lat":"31.2237","category":"248","category_name":"生活娱乐","address":"卢湾区重庆南路208号(近南昌路)"},{"poiid":"B2094757D064ABF5459C","title":"Whittard of Chelsea","lon":"121.47663773","lat":"31.223583158","category":"260","category_name":"其他","address":"卢湾区淮海中路222号力宝广场B1楼101店铺(近嵩山路)"},{"poiid":"B2094751D565A0F4419E","title":"华东理工大学徐汇校区","lon":"121.47591","lat":"31.22435","category":"627","category_name":"一般地点标志","address":"梅陇路130号"},{"poiid":"B2094752D269A2F4429A","title":"外婆家(华润时代广场店)","lon":"121.47591","lat":"31.22435","category":"500","category_name":"未知分类","address":"张扬路500号华润时代广场8楼"},{"poiid":"B2094757D06FA2FE439D","title":"传奇台球(淮海路店)","lon":"121.47703","lat":"31.22407","category":"171","category_name":"台球厅","address":"上海卢湾区淮海中路188号5楼(近普安路)"},{"poiid":"B2094752D16FA2F84692","title":"虹桥机场2号航站楼","lon":"121.47591","lat":"31.22435","category":"500","category_name":"未知分类","address":null},{"poiid":"B2094752D26BA6FC439D","title":"虹桥机场一号航站楼","lon":"121.47591","lat":"31.22435","category":"251","category_name":"出行住宿","address":"上海卢湾区虹桥机场"},{"poiid":"B2094757D468A6F8469D","title":"赛百味 普安路店 Subway","lon":"121.477480054","lat":"31.224371793","category":"94","category_name":"西餐厅","address":"黄浦区普安路158号(近淮海中路)"},{"poiid":"B2094751DA6AA7FF419E","title":"上海动物园","lon":"121.47591","lat":"31.22435","category":"500","category_name":"未知分类","address":null},{"poiid":"B2094751DA6EA3FA4098","title":"上海市，松江区","lon":"121.47591","lat":"31.22435","category":"500","category_name":"未知分类","address":"松江区"},{"poiid":"B2094751D569A7FE439F","title":"松江开元地中海","lon":"121.47591","lat":"31.22435","category":"500","category_name":"未知分类","address":null},{"poiid":"B2094753DA68A4FB469D","title":"哈根达斯","lon":"121.476013","lat":"31.223781","category":"263","category_name":"公司","address":"上海市 淮海中路138号无限度广场"},{"poiid":"B2094654DB69AAF54893","title":"福客桂林米粉","lon":"121.47751","lat":"31.22371","category":"68","category_name":"快餐厅","address":"卢湾区淮海中路177号淮海公园门口(近普安路)"},{"poiid":"B2094751D569A7FF4693","title":"宜家家具","lon":"121.47591","lat":"31.22435","category":"249","category_name":"购物服务","address":null},{"poiid":"B2094751D464A0F4429C","title":"上海影城","lon":"121.47591","lat":"31.22435","category":"178","category_name":"电影院","address":null},{"poiid":"B2094757D16DA6FB4598","title":"韩尚宫","lon":"121.476195738","lat":"31.2241901714","category":"500","category_name":"未知分类","address":"上海百联世贸"},{"poiid":"B2094654DA6EAAFA4492","title":"必胜客 普安店 Pizza Hut","lon":"121.477104054","lat":"31.224472793","category":"68","category_name":"快餐厅","address":"淮海中路158号1楼近嵩山路"},{"poiid":"B2094751D56BABFF4499","title":"周浦万达影城","lon":"121.47591","lat":"31.22435","category":"178","category_name":"电影院","address":"年家浜路"},{"poiid":"B2094751DA6CA7F8499B","title":"联洋大拇指广场","lon":"121.47591","lat":"31.22435","category":"247","category_name":"餐饮美食","address":"芳甸路199弄19号"},{"poiid":"B2094751D464A2F8469C","title":"上海市第十人民医院","lon":"121.47591","lat":"31.22435","category":"162","category_name":"医院","address":null},{"poiid":"B2094751DA6DA1FC4399","title":"芮欧百货","lon":"121.47591","lat":"31.22435","category":"119","category_name":"商场","address":"南京西路"},{"poiid":"B2094752D06BA0FF419C","title":"五角场","lon":"121.47591","lat":"31.22435","category":"500","category_name":"未知分类","address":"邯郸路"},{"poiid":"B2094751D46BABFA4999","title":"上海市青浦区","lon":"121.47591","lat":"31.22435","category":"500","category_name":"未知分类","address":null},{"poiid":"B2094757D06FA3F8429C","title":"淮海路","lon":"121.46398412","lat":"31.222631868","category":"260","category_name":"其他","address":"上海淮海路"},{"poiid":"B2094655D26FA2FA439D","title":"复茂小龙虾 淮海中路店 FOMO","lon":"121.47673364297","lat":"31.224215393217","category":"68","category_name":"快餐厅","address":"卢湾区淮海中路172号(近普安路)"},{"poiid":"B2094757D06EAAFF429D","title":"揽香川菜馆 无限度广场店","lon":"121.478155054","lat":"31.224894793","category":"247","category_name":"餐饮美食","address":"卢湾区淮海中路138号无限度广场4楼(近普安路)"},{"poiid":"B2094753D76FAAFA449C","title":"上海滩国泰旗舰店","lon":"121.466011","lat":"31.216125","category":"249","category_name":"购物服务","address":"淮海中路868号"},{"poiid":"B209475CD564A7F84292","title":"上海滩新天地店","lon":"121.47463","lat":"31.22164","category":"119","category_name":"商场","address":"\"太仓路181弄新天地北里15号\r\n\""},{"poiid":"B209475CD564A7F8439E","title":"上海滩中信泰富店","lon":"121.45602","lat":"31.22851","category":"119","category_name":"商场","address":"\"南京西路1168号中信泰富广场，店铺号221.\r\n\""},{"poiid":"B209475CD564A7F84392","title":"上海滩浦东香格里拉店","lon":"121.50058","lat":"31.23634","category":"119","category_name":"商场","address":"浦东富成路33号香格里拉酒店内大堂层"},{"poiid":"B2094750D56DABFB469A","title":"上海广场（原无限度广场）","lon":"121.47599","lat":"31.22404","category":"500","category_name":"未知分类","address":"上海卢湾区淮海中路138号(近普安路)"},{"poiid":"B2094757D66CA4FB499C","title":"好樂迪","lon":"121.477838738","lat":"31.2232501514","category":"500","category_name":"未知分类","address":"上海市黄浦区黄陂南路"},{"poiid":"B2094757D06FA1F8489D","title":"淮海公园","lon":"121.47755186","lat":"31.222709558","category":"196","category_name":"公园","address":"卢湾区淮海中路177号(近普安路)"},{"poiid":"B2094757D66FA6FA499E","title":"路易威登Louis Vuitton(淮海旗舰店)","lon":"121.4759","lat":"31.22392","category":"141","category_name":"服装鞋帽皮具店","address":"上海卢湾区淮海中路222号力宝广场1楼105商铺(近嵩山路)"},{"poiid":"B2094752D36DA7FD4598","title":"同济大学","lon":"121.47591","lat":"31.22435","category":"671","category_name":"高校中心点","address":"上海市四平路1239号"},{"poiid":"B2094757D168A7FC469A","title":"连卡佛","lon":"121.477417738","lat":"31.2243821755","category":"249","category_name":"购物服务","address":"上海时代广场"},{"poiid":"B2094751DA6DA1FF489A","title":"新世纪影城","lon":"121.47591","lat":"31.22435","category":"178","category_name":"电影院","address":null},{"poiid":"B2094752D268A1FB429F","title":"虹橋機場2號航站樓","lon":"121.47591","lat":"31.22435","category":"500","category_name":"未知分类","address":null},{"poiid":"B2094654DA6EAAFA4493","title":"傣妹淮海店","lon":"121.47688","lat":"31.22439","category":"86","category_name":"火锅店","address":"卢湾区淮海中路188号4楼(近普安路)"},{"poiid":"B2094655D36DA6FF4993","title":"金逸国际电影城","lon":"121.47591","lat":"31.22435","category":"178","category_name":"电影院","address":"上海海上海店"},{"poiid":"B2094751D564ABFC4693","title":"上海大学","lon":"121.47591","lat":"31.22435","category":"253","category_name":"校园生活","address":"上大路99号"},{"poiid":"B2094757D068ABF5419F","title":"禾绿回转寿司(海慈店)","lon":"121.47761","lat":"31.2243","category":"95","category_name":"日本料理","address":"卢湾区淮海中路158号海慈大厦2楼(近普安路)"},{"poiid":"B2094654DA6EAAFA459A","title":"中国建设银行上海市分行营业部","lon":"121.47667","lat":"31.22432","category":"150","category_name":"银行","address":"淮海中路200"},{"poiid":"B2094750D76DA5FE469C","title":"竹家庄避风塘(淮海中路店)","lon":"121.477","lat":"31.2244","category":"72","category_name":"广东菜","address":"卢湾区淮海中路158号(近普安路)"},{"poiid":"B2094757D06FA2F4429D","title":"阿童木火锅超人(淮海中路店)","lon":"121.47747","lat":"31.22429","category":"86","category_name":"火锅店","address":"卢湾区淮海中路158号B1楼(近普安路)"},{"poiid":"B2094750D76DAAF94599","title":"Éclair","lon":"121.476","lat":"31.2228","category":"67","category_name":"甜品店","address":"卢湾区嵩山路88号上海安达仕酒店1楼"},{"poiid":"B2094751D564A0F8409F","title":"王鼎铁板烧精致料理","lon":"121.47591","lat":"31.22435","category":"247","category_name":"餐饮美食","address":"世博大道1368号1L M 0304"},{"poiid":"B2094751DA6AA2FD4999","title":"上海浦东国际机场T1航站楼","lon":"121.47591","lat":"31.22435","category":"500","category_name":"未知分类","address":null},{"poiid":"B2094757D06FA3FB459E","title":"竹家庄避风塘 福州路店","lon":"121.477716","lat":"31.232561","category":"72","category_name":"广东菜","address":"福州路666号金陵海欣大厦内近云南中路"},{"poiid":"B2094751DA6EA6F8419E","title":"金逸影城","lon":"121.47591","lat":"31.22435","category":"178","category_name":"电影院","address":"虹口龙之梦"},{"poiid":"B2094654DA6DABFA469B","title":"复兴广场","lon":"121.477","lat":"31.2237","category":"248","category_name":"生活娱乐","address":"卢湾区重庆南路208号(近南昌路)"},{"poiid":"B2094757D064ABF5459C","title":"Whittard of Chelsea","lon":"121.47663773","lat":"31.223583158","category":"260","category_name":"其他","address":"卢湾区淮海中路222号力宝广场B1楼101店铺(近嵩山路)"},{"poiid":"B2094751D565A0F4419E","title":"华东理工大学徐汇校区","lon":"121.47591","lat":"31.22435","category":"627","category_name":"一般地点标志","address":"梅陇路130号"},{"poiid":"B2094752D269A2F4429A","title":"外婆家(华润时代广场店)","lon":"121.47591","lat":"31.22435","category":"500","category_name":"未知分类","address":"张扬路500号华润时代广场8楼"},{"poiid":"B2094757D06FA2FE439D","title":"传奇台球(淮海路店)","lon":"121.47703","lat":"31.22407","category":"171","category_name":"台球厅","address":"上海卢湾区淮海中路188号5楼(近普安路)"},{"poiid":"B2094752D16FA2F84692","title":"虹桥机场2号航站楼","lon":"121.47591","lat":"31.22435","category":"500","category_name":"未知分类","address":null},{"poiid":"B2094752D26BA6FC439D","title":"虹桥机场一号航站楼","lon":"121.47591","lat":"31.22435","category":"251","category_name":"出行住宿","address":"上海卢湾区虹桥机场"},{"poiid":"B2094757D468A6F8469D","title":"赛百味 普安路店 Subway","lon":"121.477480054","lat":"31.224371793","category":"94","category_name":"西餐厅","address":"黄浦区普安路158号(近淮海中路)"},{"poiid":"B2094751DA6AA7FF419E","title":"上海动物园","lon":"121.47591","lat":"31.22435","category":"500","category_name":"未知分类","address":null},{"poiid":"B2094751DA6EA3FA4098","title":"上海市，松江区","lon":"121.47591","lat":"31.22435","category":"500","category_name":"未知分类","address":"松江区"},{"poiid":"B2094751D569A7FE439F","title":"松江开元地中海","lon":"121.47591","lat":"31.22435","category":"500","category_name":"未知分类","address":null},{"poiid":"B2094753DA68A4FB469D","title":"哈根达斯","lon":"121.476013","lat":"31.223781","category":"263","category_name":"公司","address":"上海市 淮海中路138号无限度广场"},{"poiid":"B2094654DB69AAF54893","title":"福客桂林米粉","lon":"121.47751","lat":"31.22371","category":"68","category_name":"快餐厅","address":"卢湾区淮海中路177号淮海公园门口(近普安路)"},{"poiid":"B2094751D569A7FF4693","title":"宜家家具","lon":"121.47591","lat":"31.22435","category":"249","category_name":"购物服务","address":null},{"poiid":"B2094751D464A0F4429C","title":"上海影城","lon":"121.47591","lat":"31.22435","category":"178","category_name":"电影院","address":null},{"poiid":"B2094757D16DA6FB4598","title":"韩尚宫","lon":"121.476195738","lat":"31.2241901714","category":"500","category_name":"未知分类","address":"上海百联世贸"},{"poiid":"B2094654DA6EAAFA4492","title":"必胜客 普安店 Pizza Hut","lon":"121.477104054","lat":"31.224472793","category":"68","category_name":"快餐厅","address":"淮海中路158号1楼近嵩山路"},{"poiid":"B2094751D56BABFF4499","title":"周浦万达影城","lon":"121.47591","lat":"31.22435","category":"178","category_name":"电影院","address":"年家浜路"},{"poiid":"B2094751DA6CA7F8499B","title":"联洋大拇指广场","lon":"121.47591","lat":"31.22435","category":"247","category_name":"餐饮美食","address":"芳甸路199弄19号"},{"poiid":"B2094751D464A2F8469C","title":"上海市第十人民医院","lon":"121.47591","lat":"31.22435","category":"162","category_name":"医院","address":null},{"poiid":"B2094751DA6DA1FC4399","title":"芮欧百货","lon":"121.47591","lat":"31.22435","category":"119","category_name":"商场","address":"南京西路"},{"poiid":"B2094752D06BA0FF419C","title":"五角场","lon":"121.47591","lat":"31.22435","category":"500","category_name":"未知分类","address":"邯郸路"},{"poiid":"B2094751D46BABFA4999","title":"上海市青浦区","lon":"121.47591","lat":"31.22435","category":"500","category_name":"未知分类","address":null},{"poiid":"B2094757D06FA3F8429C","title":"淮海路","lon":"121.46398412","lat":"31.222631868","category":"260","category_name":"其他","address":"上海淮海路"},{"poiid":"B2094655D26FA2FA439D","title":"复茂小龙虾 淮海中路店 FOMO","lon":"121.47673364297","lat":"31.224215393217","category":"68","category_name":"快餐厅","address":"卢湾区淮海中路172号(近普安路)"},{"poiid":"B2094757D06EAAFF429D","title":"揽香川菜馆 无限度广场店","lon":"121.478155054","lat":"31.224894793","category":"247","category_name":"餐饮美食","address":"卢湾区淮海中路138号无限度广场4楼(近普安路)"},{"poiid":"B2094753D76FAAFA449C","title":"上海滩国泰旗舰店","lon":"121.466011","lat":"31.216125","category":"249","category_name":"购物服务","address":"淮海中路868号"},{"poiid":"B209475CD564A7F84292","title":"上海滩新天地店","lon":"121.47463","lat":"31.22164","category":"119","category_name":"商场","address":"\"太仓路181弄新天地北里15号\r\n\""},{"poiid":"B209475CD564A7F8439E","title":"上海滩中信泰富店","lon":"121.45602","lat":"31.22851","category":"119","category_name":"商场","address":"\"南京西路1168号中信泰富广场，店铺号221.\r\n\""},{"poiid":"B209475CD564A7F84392","title":"上海滩浦东香格里拉店","lon":"121.50058","lat":"31.23634","category":"119","category_name":"商场","address":"浦东富成路33号香格里拉酒店内大堂层"},{"poiid":"B2094750D56DABFB469A","title":"上海广场（原无限度广场）","lon":"121.47599","lat":"31.22404","category":"500","category_name":"未知分类","address":"上海卢湾区淮海中路138号(近普安路)"},{"poiid":"B2094757D66CA4FB499C","title":"好樂迪","lon":"121.477838738","lat":"31.2232501514","category":"500","category_name":"未知分类","address":"上海市黄浦区黄陂南路"},{"poiid":"B2094757D06FA1F8489D","title":"淮海公园","lon":"121.47755186","lat":"31.222709558","category":"196","category_name":"公园","address":"卢湾区淮海中路177号(近普安路)"},{"poiid":"B2094757D66FA6FA499E","title":"路易威登Louis Vuitton(淮海旗舰店)","lon":"121.4759","lat":"31.22392","category":"141","category_name":"服装鞋帽皮具店","address":"上海卢湾区淮海中路222号力宝广场1楼105商铺(近嵩山路)"},{"poiid":"B2094752D36DA7FD4598","title":"同济大学","lon":"121.47591","lat":"31.22435","category":"671","category_name":"高校中心点","address":"上海市四平路1239号"},{"poiid":"B2094757D168A7FC469A","title":"连卡佛","lon":"121.477417738","lat":"31.2243821755","category":"249","category_name":"购物服务","address":"上海时代广场"},{"poiid":"B2094751DA6DA1FF489A","title":"新世纪影城","lon":"121.47591","lat":"31.22435","category":"178","category_name":"电影院","address":null},{"poiid":"B2094752D268A1FB429F","title":"虹橋機場2號航站樓","lon":"121.47591","lat":"31.22435","category":"500","category_name":"未知分类","address":null},{"poiid":"B2094654DA6EAAFA4493","title":"傣妹淮海店","lon":"121.47688","lat":"31.22439","category":"86","category_name":"火锅店","address":"卢湾区淮海中路188号4楼(近普安路)"},{"poiid":"B2094655D36DA6FF4993","title":"金逸国际电影城","lon":"121.47591","lat":"31.22435","category":"178","category_name":"电影院","address":"上海海上海店"},{"poiid":"B2094751D564ABFC4693","title":"上海大学","lon":"121.47591","lat":"31.22435","category":"253","category_name":"校园生活","address":"上大路99号"},{"poiid":"B2094757D068ABF5419F","title":"禾绿回转寿司(海慈店)","lon":"121.47761","lat":"31.2243","category":"95","category_name":"日本料理","address":"卢湾区淮海中路158号海慈大厦2楼(近普安路)"},{"poiid":"B2094654DA6EAAFA459A","title":"中国建设银行上海市分行营业部","lon":"121.47667","lat":"31.22432","category":"150","category_name":"银行","address":"淮海中路200"},{"poiid":"B2094750D76DA5FE469C","title":"竹家庄避风塘(淮海中路店)","lon":"121.477","lat":"31.2244","category":"72","category_name":"广东菜","address":"卢湾区淮海中路158号(近普安路)"},{"poiid":"B2094757D06FA2F4429D","title":"阿童木火锅超人(淮海中路店)","lon":"121.47747","lat":"31.22429","category":"86","category_name":"火锅店","address":"卢湾区淮海中路158号B1楼(近普安路)"},{"poiid":"B2094750D76DAAF94599","title":"Éclair","lon":"121.476","lat":"31.2228","category":"67","category_name":"甜品店","address":"卢湾区嵩山路88号上海安达仕酒店1楼"},{"poiid":"B2094751D564A0F8409F","title":"王鼎铁板烧精致料理","lon":"121.47591","lat":"31.22435","category":"247","category_name":"餐饮美食","address":"世博大道1368号1L M 0304"},{"poiid":"B2094751DA6AA2FD4999","title":"上海浦东国际机场T1航站楼","lon":"121.47591","lat":"31.22435","category":"500","category_name":"未知分类","address":null},{"poiid":"B2094757D06FA3FB459E","title":"竹家庄避风塘 福州路店","lon":"121.477716","lat":"31.232561","category":"72","category_name":"广东菜","address":"福州路666号金陵海欣大厦内近云南中路"},{"poiid":"B2094751DA6EA6F8419E","title":"金逸影城","lon":"121.47591","lat":"31.22435","category":"178","category_name":"电影院","address":"虹口龙之梦"},{"poiid":"B2094654DA6DABFA469B","title":"复兴广场","lon":"121.477","lat":"31.2237","category":"248","category_name":"生活娱乐","address":"卢湾区重庆南路208号(近南昌路)"},{"poiid":"B2094757D064ABF5459C","title":"Whittard of Chelsea","lon":"121.47663773","lat":"31.223583158","category":"260","category_name":"其他","address":"卢湾区淮海中路222号力宝广场B1楼101店铺(近嵩山路)"},{"poiid":"B2094751D565A0F4419E","title":"华东理工大学徐汇校区","lon":"121.47591","lat":"31.22435","category":"627","category_name":"一般地点标志","address":"梅陇路130号"},{"poiid":"B2094752D269A2F4429A","title":"外婆家(华润时代广场店)","lon":"121.47591","lat":"31.22435","category":"500","category_name":"未知分类","address":"张扬路500号华润时代广场8楼"},{"poiid":"B2094757D06FA2FE439D","title":"传奇台球(淮海路店)","lon":"121.47703","lat":"31.22407","category":"171","category_name":"台球厅","address":"上海卢湾区淮海中路188号5楼(近普安路)"},{"poiid":"B2094752D16FA2F84692","title":"虹桥机场2号航站楼","lon":"121.47591","lat":"31.22435","category":"500","category_name":"未知分类","address":null},{"poiid":"B2094752D26BA6FC439D","title":"虹桥机场一号航站楼","lon":"121.47591","lat":"31.22435","category":"251","category_name":"出行住宿","address":"上海卢湾区虹桥机场"},{"poiid":"B2094757D468A6F8469D","title":"赛百味 普安路店 Subway","lon":"121.477480054","lat":"31.224371793","category":"94","category_name":"西餐厅","address":"黄浦区普安路158号(近淮海中路)"},{"poiid":"B2094751DA6AA7FF419E","title":"上海动物园","lon":"121.47591","lat":"31.22435","category":"500","category_name":"未知分类","address":null},{"poiid":"B2094751DA6EA3FA4098","title":"上海市，松江区","lon":"121.47591","lat":"31.22435","category":"500","category_name":"未知分类","address":"松江区"},{"poiid":"B2094751D569A7FE439F","title":"松江开元地中海","lon":"121.47591","lat":"31.22435","category":"500","category_name":"未知分类","address":null},{"poiid":"B2094753DA68A4FB469D","title":"哈根达斯","lon":"121.476013","lat":"31.223781","category":"263","category_name":"公司","address":"上海市 淮海中路138号无限度广场"},{"poiid":"B2094654DB69AAF54893","title":"福客桂林米粉","lon":"121.47751","lat":"31.22371","category":"68","category_name":"快餐厅","address":"卢湾区淮海中路177号淮海公园门口(近普安路)"},{"poiid":"B2094751D569A7FF4693","title":"宜家家具","lon":"121.47591","lat":"31.22435","category":"249","category_name":"购物服务","address":null},{"poiid":"B2094751D464A0F4429C","title":"上海影城","lon":"121.47591","lat":"31.22435","category":"178","category_name":"电影院","address":null},{"poiid":"B2094757D16DA6FB4598","title":"韩尚宫","lon":"121.476195738","lat":"31.2241901714","category":"500","category_name":"未知分类","address":"上海百联世贸"},{"poiid":"B2094654DA6EAAFA4492","title":"必胜客 普安店 Pizza Hut","lon":"121.477104054","lat":"31.224472793","category":"68","category_name":"快餐厅","address":"淮海中路158号1楼近嵩山路"},{"poiid":"B2094751D56BABFF4499","title":"周浦万达影城","lon":"121.47591","lat":"31.22435","category":"178","category_name":"电影院","address":"年家浜路"},{"poiid":"B2094751DA6CA7F8499B","title":"联洋大拇指广场","lon":"121.47591","lat":"31.22435","category":"247","category_name":"餐饮美食","address":"芳甸路199弄19号"},{"poiid":"B2094751D464A2F8469C","title":"上海市第十人民医院","lon":"121.47591","lat":"31.22435","category":"162","category_name":"医院","address":null},{"poiid":"B2094751DA6DA1FC4399","title":"芮欧百货","lon":"121.47591","lat":"31.22435","category":"119","category_name":"商场","address":"南京西路"},{"poiid":"B2094752D06BA0FF419C","title":"五角场","lon":"121.47591","lat":"31.22435","category":"500","category_name":"未知分类","address":"邯郸路"},{"poiid":"B2094751D46BABFA4999","title":"上海市青浦区","lon":"121.47591","lat":"31.22435","category":"500","category_name":"未知分类","address":null},{"poiid":"B2094757D06FA3F8429C","title":"淮海路","lon":"121.46398412","lat":"31.222631868","category":"260","category_name":"其他","address":"上海淮海路"},{"poiid":"B2094655D26FA2FA439D","title":"复茂小龙虾 淮海中路店 FOMO","lon":"121.47673364297","lat":"31.224215393217","category":"68","category_name":"快餐厅","address":"卢湾区淮海中路172号(近普安路)"},{"poiid":"B2094757D06EAAFF429D","title":"揽香川菜馆 无限度广场店","lon":"121.478155054","lat":"31.224894793","category":"247","category_name":"餐饮美食","address":"卢湾区淮海中路138号无限度广场4楼(近普安路)"},{"poiid":"B2094753D76FAAFA449C","title":"上海滩国泰旗舰店","lon":"121.466011","lat":"31.216125","category":"249","category_name":"购物服务","address":"淮海中路868号"},{"poiid":"B209475CD564A7F84292","title":"上海滩新天地店","lon":"121.47463","lat":"31.22164","category":"119","category_name":"商场","address":"\"太仓路181弄新天地北里15号\r\n\""},{"poiid":"B209475CD564A7F8439E","title":"上海滩中信泰富店","lon":"121.45602","lat":"31.22851","category":"119","category_name":"商场","address":"\"南京西路1168号中信泰富广场，店铺号221.\r\n\""},{"poiid":"B209475CD564A7F84392","title":"上海滩浦东香格里拉店","lon":"121.50058","lat":"31.23634","category":"119","category_name":"商场","address":"浦东富成路33号香格里拉酒店内大堂层"},{"poiid":"B2094750D56DABFB469A","title":"上海广场（原无限度广场）","lon":"121.47599","lat":"31.22404","category":"500","category_name":"未知分类","address":"上海卢湾区淮海中路138号(近普安路)"},{"poiid":"B2094757D66CA4FB499C","title":"好樂迪","lon":"121.477838738","lat":"31.2232501514","category":"500","category_name":"未知分类","address":"上海市黄浦区黄陂南路"},{"poiid":"B2094757D06FA1F8489D","title":"淮海公园","lon":"121.47755186","lat":"31.222709558","category":"196","category_name":"公园","address":"卢湾区淮海中路177号(近普安路)"},{"poiid":"B2094757D66FA6FA499E","title":"路易威登Louis Vuitton(淮海旗舰店)","lon":"121.4759","lat":"31.22392","category":"141","category_name":"服装鞋帽皮具店","address":"上海卢湾区淮海中路222号力宝广场1楼105商铺(近嵩山路)"},{"poiid":"B2094752D36DA7FD4598","title":"同济大学","lon":"121.47591","lat":"31.22435","category":"671","category_name":"高校中心点","address":"上海市四平路1239号"},{"poiid":"B2094757D168A7FC469A","title":"连卡佛","lon":"121.477417738","lat":"31.2243821755","category":"249","category_name":"购物服务","address":"上海时代广场"},{"poiid":"B2094751DA6DA1FF489A","title":"新世纪影城","lon":"121.47591","lat":"31.22435","category":"178","category_name":"电影院","address":null},{"poiid":"B2094752D268A1FB429F","title":"虹橋機場2號航站樓","lon":"121.47591","lat":"31.22435","category":"500","category_name":"未知分类","address":null},{"poiid":"B2094654DA6EAAFA4493","title":"傣妹淮海店","lon":"121.47688","lat":"31.22439","category":"86","category_name":"火锅店","address":"卢湾区淮海中路188号4楼(近普安路)"},{"poiid":"B2094655D36DA6FF4993","title":"金逸国际电影城","lon":"121.47591","lat":"31.22435","category":"178","category_name":"电影院","address":"上海海上海店"},{"poiid":"B2094751D564ABFC4693","title":"上海大学","lon":"121.47591","lat":"31.22435","category":"253","category_name":"校园生活","address":"上大路99号"},{"poiid":"B2094757D068ABF5419F","title":"禾绿回转寿司(海慈店)","lon":"121.47761","lat":"31.2243","category":"95","category_name":"日本料理","address":"卢湾区淮海中路158号海慈大厦2楼(近普安路)"},{"poiid":"B2094654DA6EAAFA459A","title":"中国建设银行上海市分行营业部","lon":"121.47667","lat":"31.22432","category":"150","category_name":"银行","address":"淮海中路200"},{"poiid":"B2094750D76DA5FE469C","title":"竹家庄避风塘(淮海中路店)","lon":"121.477","lat":"31.2244","category":"72","category_name":"广东菜","address":"卢湾区淮海中路158号(近普安路)"},{"poiid":"B2094757D06FA2F4429D","title":"阿童木火锅超人(淮海中路店)","lon":"121.47747","lat":"31.22429","category":"86","category_name":"火锅店","address":"卢湾区淮海中路158号B1楼(近普安路)"},{"poiid":"B2094750D76DAAF94599","title":"Éclair","lon":"121.476","lat":"31.2228","category":"67","category_name":"甜品店","address":"卢湾区嵩山路88号上海安达仕酒店1楼"},{"poiid":"B2094751D564A0F8409F","title":"王鼎铁板烧精致料理","lon":"121.47591","lat":"31.22435","category":"247","category_name":"餐饮美食","address":"世博大道1368号1L M 0304"},{"poiid":"B2094751DA6AA2FD4999","title":"上海浦东国际机场T1航站楼","lon":"121.47591","lat":"31.22435","category":"500","category_name":"未知分类","address":null},{"poiid":"B2094757D06FA3FB459E","title":"竹家庄避风塘 福州路店","lon":"121.477716","lat":"31.232561","category":"72","category_name":"广东菜","address":"福州路666号金陵海欣大厦内近云南中路"},{"poiid":"B2094751DA6EA6F8419E","title":"金逸影城","lon":"121.47591","lat":"31.22435","category":"178","category_name":"电影院","address":"虹口龙之梦"},{"poiid":"B2094654DA6DABFA469B","title":"复兴广场","lon":"121.477","lat":"31.2237","category":"248","category_name":"生活娱乐","address":"卢湾区重庆南路208号(近南昌路)"},{"poiid":"B2094757D064ABF5459C","title":"Whittard of Chelsea","lon":"121.47663773","lat":"31.223583158","category":"260","category_name":"其他","address":"卢湾区淮海中路222号力宝广场B1楼101店铺(近嵩山路)"},{"poiid":"B2094751D565A0F4419E","title":"华东理工大学徐汇校区","lon":"121.47591","lat":"31.22435","category":"627","category_name":"一般地点标志","address":"梅陇路130号"},{"poiid":"B2094752D269A2F4429A","title":"外婆家(华润时代广场店)","lon":"121.47591","lat":"31.22435","category":"500","category_name":"未知分类","address":"张扬路500号华润时代广场8楼"},{"poiid":"B2094757D06FA2FE439D","title":"传奇台球(淮海路店)","lon":"121.47703","lat":"31.22407","category":"171","category_name":"台球厅","address":"上海卢湾区淮海中路188号5楼(近普安路)"},{"poiid":"B2094752D16FA2F84692","title":"虹桥机场2号航站楼","lon":"121.47591","lat":"31.22435","category":"500","category_name":"未知分类","address":null},{"poiid":"B2094752D26BA6FC439D","title":"虹桥机场一号航站楼","lon":"121.47591","lat":"31.22435","category":"251","category_name":"出行住宿","address":"上海卢湾区虹桥机场"},{"poiid":"B2094757D468A6F8469D","title":"赛百味 普安路店 Subway","lon":"121.477480054","lat":"31.224371793","category":"94","category_name":"西餐厅","address":"黄浦区普安路158号(近淮海中路)"},{"poiid":"B2094751DA6AA7FF419E","title":"上海动物园","lon":"121.47591","lat":"31.22435","category":"500","category_name":"未知分类","address":null},{"poiid":"B2094751DA6EA3FA4098","title":"上海市，松江区","lon":"121.47591","lat":"31.22435","category":"500","category_name":"未知分类","address":"松江区"},{"poiid":"B2094751D569A7FE439F","title":"松江开元地中海","lon":"121.47591","lat":"31.22435","category":"500","category_name":"未知分类","address":null},{"poiid":"B2094753DA68A4FB469D","title":"哈根达斯","lon":"121.476013","lat":"31.223781","category":"263","category_name":"公司","address":"上海市 淮海中路138号无限度广场"},{"poiid":"B2094654DB69AAF54893","title":"福客桂林米粉","lon":"121.47751","lat":"31.22371","category":"68","category_name":"快餐厅","address":"卢湾区淮海中路177号淮海公园门口(近普安路)"},{"poiid":"B2094751D569A7FF4693","title":"宜家家具","lon":"121.47591","lat":"31.22435","category":"249","category_name":"购物服务","address":null},{"poiid":"B2094751D464A0F4429C","title":"上海影城","lon":"121.47591","lat":"31.22435","category":"178","category_name":"电影院","address":null},{"poiid":"B2094757D16DA6FB4598","title":"韩尚宫","lon":"121.476195738","lat":"31.2241901714","category":"500","category_name":"未知分类","address":"上海百联世贸"},{"poiid":"B2094654DA6EAAFA4492","title":"必胜客 普安店 Pizza Hut","lon":"121.477104054","lat":"31.224472793","category":"68","category_name":"快餐厅","address":"淮海中路158号1楼近嵩山路"},{"poiid":"B2094751D56BABFF4499","title":"周浦万达影城","lon":"121.47591","lat":"31.22435","category":"178","category_name":"电影院","address":"年家浜路"},{"poiid":"B2094751DA6CA7F8499B","title":"联洋大拇指广场","lon":"121.47591","lat":"31.22435","category":"247","category_name":"餐饮美食","address":"芳甸路199弄19号"},{"poiid":"B2094751D464A2F8469C","title":"上海市第十人民医院","lon":"121.47591","lat":"31.22435","category":"162","category_name":"医院","address":null},{"poiid":"B2094751DA6DA1FC4399","title":"芮欧百货","lon":"121.47591","lat":"31.22435","category":"119","category_name":"商场","address":"南京西路"},{"poiid":"B2094752D06BA0FF419C","title":"五角场","lon":"121.47591","lat":"31.22435","category":"500","category_name":"未知分类","address":"邯郸路"},{"poiid":"B2094751D46BABFA4999","title":"上海市青浦区","lon":"121.47591","lat":"31.22435","category":"500","category_name":"未知分类","address":null},{"poiid":"B2094757D06FA3F8429C","title":"淮海路","lon":"121.46398412","lat":"31.222631868","category":"260","category_name":"其他","address":"上海淮海路"},{"poiid":"B2094655D26FA2FA439D","title":"复茂小龙虾 淮海中路店 FOMO","lon":"121.47673364297","lat":"31.224215393217","category":"68","category_name":"快餐厅","address":"卢湾区淮海中路172号(近普安路)"},{"poiid":"B2094757D06EAAFF429D","title":"揽香川菜馆 无限度广场店","lon":"121.478155054","lat":"31.224894793","category":"247","category_name":"餐饮美食","address":"卢湾区淮海中路138号无限度广场4楼(近普安路)"},{"poiid":"B2094753D76FAAFA449C","title":"上海滩国泰旗舰店","lon":"121.466011","lat":"31.216125","category":"249","category_name":"购物服务","address":"淮海中路868号"},{"poiid":"B209475CD564A7F84292","title":"上海滩新天地店","lon":"121.47463","lat":"31.22164","category":"119","category_name":"商场","address":"\"太仓路181弄新天地北里15号\r\n\""},{"poiid":"B209475CD564A7F8439E","title":"上海滩中信泰富店","lon":"121.45602","lat":"31.22851","category":"119","category_name":"商场","address":"\"南京西路1168号中信泰富广场，店铺号221.\r\n\""},{"poiid":"B209475CD564A7F84392","title":"上海滩浦东香格里拉店","lon":"121.50058","lat":"31.23634","category":"119","category_name":"商场","address":"浦东富成路33号香格里拉酒店内大堂层"},{"poiid":"B2094750D56DABFB469A","title":"上海广场（原无限度广场）","lon":"121.47599","lat":"31.22404","category":"500","category_name":"未知分类","address":"上海卢湾区淮海中路138号(近普安路)"},{"poiid":"B2094757D66CA4FB499C","title":"好樂迪","lon":"121.477838738","lat":"31.2232501514","category":"500","category_name":"未知分类","address":"上海市黄浦区黄陂南路"},{"poiid":"B2094757D06FA1F8489D","title":"淮海公园","lon":"121.47755186","lat":"31.222709558","category":"196","category_name":"公园","address":"卢湾区淮海中路177号(近普安路)"},{"poiid":"B2094757D66FA6FA499E","title":"路易威登Louis Vuitton(淮海旗舰店)","lon":"121.4759","lat":"31.22392","category":"141","category_name":"服装鞋帽皮具店","address":"上海卢湾区淮海中路222号力宝广场1楼105商铺(近嵩山路)"},{"poiid":"B2094752D36DA7FD4598","title":"同济大学","lon":"121.47591","lat":"31.22435","category":"671","category_name":"高校中心点","address":"上海市四平路1239号"},{"poiid":"B2094757D168A7FC469A","title":"连卡佛","lon":"121.477417738","lat":"31.2243821755","category":"249","category_name":"购物服务","address":"上海时代广场"},{"poiid":"B2094751DA6DA1FF489A","title":"新世纪影城","lon":"121.47591","lat":"31.22435","category":"178","category_name":"电影院","address":null},{"poiid":"B2094752D268A1FB429F","title":"虹橋機場2號航站樓","lon":"121.47591","lat":"31.22435","category":"500","category_name":"未知分类","address":null},{"poiid":"B2094654DA6EAAFA4493","title":"傣妹淮海店","lon":"121.47688","lat":"31.22439","category":"86","category_name":"火锅店","address":"卢湾区淮海中路188号4楼(近普安路)"},{"poiid":"B2094655D36DA6FF4993","title":"金逸国际电影城","lon":"121.47591","lat":"31.22435","category":"178","category_name":"电影院","address":"上海海上海店"},{"poiid":"B2094751D564ABFC4693","title":"上海大学","lon":"121.47591","lat":"31.22435","category":"253","category_name":"校园生活","address":"上大路99号"},{"poiid":"B2094757D068ABF5419F","title":"禾绿回转寿司(海慈店)","lon":"121.47761","lat":"31.2243","category":"95","category_name":"日本料理","address":"卢湾区淮海中路158号海慈大厦2楼(近普安路)"},{"poiid":"B2094654DA6EAAFA459A","title":"中国建设银行上海市分行营业部","lon":"121.47667","lat":"31.22432","category":"150","category_name":"银行","address":"淮海中路200"},{"poiid":"B2094750D76DA5FE469C","title":"竹家庄避风塘(淮海中路店)","lon":"121.477","lat":"31.2244","category":"72","category_name":"广东菜","address":"卢湾区淮海中路158号(近普安路)"},{"poiid":"B2094757D06FA2F4429D","title":"阿童木火锅超人(淮海中路店)","lon":"121.47747","lat":"31.22429","category":"86","category_name":"火锅店","address":"卢湾区淮海中路158号B1楼(近普安路)"},{"poiid":"B2094750D76DAAF94599","title":"Éclair","lon":"121.476","lat":"31.2228","category":"67","category_name":"甜品店","address":"卢湾区嵩山路88号上海安达仕酒店1楼"},{"poiid":"B2094751D564A0F8409F","title":"王鼎铁板烧精致料理","lon":"121.47591","lat":"31.22435","category":"247","category_name":"餐饮美食","address":"世博大道1368号1L M 0304"},{"poiid":"B2094751DA6AA2FD4999","title":"上海浦东国际机场T1航站楼","lon":"121.47591","lat":"31.22435","category":"500","category_name":"未知分类","address":null},{"poiid":"B2094757D06FA3FB459E","title":"竹家庄避风塘 福州路店","lon":"121.477716","lat":"31.232561","category":"72","category_name":"广东菜","address":"福州路666号金陵海欣大厦内近云南中路"},{"poiid":"B2094751DA6EA6F8419E","title":"金逸影城","lon":"121.47591","lat":"31.22435","category":"178","category_name":"电影院","address":"虹口龙之梦"},{"poiid":"B2094654DA6DABFA469B","title":"复兴广场","lon":"121.477","lat":"31.2237","category":"248","category_name":"生活娱乐","address":"卢湾区重庆南路208号(近南昌路)"},{"poiid":"B2094757D064ABF5459C","title":"Whittard of Chelsea","lon":"121.47663773","lat":"31.223583158","category":"260","category_name":"其他","address":"卢湾区淮海中路222号力宝广场B1楼101店铺(近嵩山路)"},{"poiid":"B2094751D565A0F4419E","title":"华东理工大学徐汇校区","lon":"121.47591","lat":"31.22435","category":"627","category_name":"一般地点标志","address":"梅陇路130号"},{"poiid":"B2094752D269A2F4429A","title":"外婆家(华润时代广场店)","lon":"121.47591","lat":"31.22435","category":"500","category_name":"未知分类","address":"张扬路500号华润时代广场8楼"},{"poiid":"B2094757D06FA2FE439D","title":"传奇台球(淮海路店)","lon":"121.47703","lat":"31.22407","category":"171","category_name":"台球厅","address":"上海卢湾区淮海中路188号5楼(近普安路)"},{"poiid":"B2094752D16FA2F84692","title":"虹桥机场2号航站楼","lon":"121.47591","lat":"31.22435","category":"500","category_name":"未知分类","address":null},{"poiid":"B2094752D26BA6FC439D","title":"虹桥机场一号航站楼","lon":"121.47591","lat":"31.22435","category":"251","category_name":"出行住宿","address":"上海卢湾区虹桥机场"},{"poiid":"B2094757D468A6F8469D","title":"赛百味 普安路店 Subway","lon":"121.477480054","lat":"31.224371793","category":"94","category_name":"西餐厅","address":"黄浦区普安路158号(近淮海中路)"},{"poiid":"B2094751DA6AA7FF419E","title":"上海动物园","lon":"121.47591","lat":"31.22435","category":"500","category_name":"未知分类","address":null},{"poiid":"B2094751DA6EA3FA4098","title":"上海市，松江区","lon":"121.47591","lat":"31.22435","category":"500","category_name":"未知分类","address":"松江区"},{"poiid":"B2094751D569A7FE439F","title":"松江开元地中海","lon":"121.47591","lat":"31.22435","category":"500","category_name":"未知分类","address":null},{"poiid":"B2094753DA68A4FB469D","title":"哈根达斯","lon":"121.476013","lat":"31.223781","category":"263","category_name":"公司","address":"上海市 淮海中路138号无限度广场"},{"poiid":"B2094654DB69AAF54893","title":"福客桂林米粉","lon":"121.47751","lat":"31.22371","category":"68","category_name":"快餐厅","address":"卢湾区淮海中路177号淮海公园门口(近普安路)"},{"poiid":"B2094751D569A7FF4693","title":"宜家家具","lon":"121.47591","lat":"31.22435","category":"249","category_name":"购物服务","address":null},{"poiid":"B2094751D464A0F4429C","title":"上海影城","lon":"121.47591","lat":"31.22435","category":"178","category_name":"电影院","address":null},{"poiid":"B2094757D16DA6FB4598","title":"韩尚宫","lon":"121.476195738","lat":"31.2241901714","category":"500","category_name":"未知分类","address":"上海百联世贸"},{"poiid":"B2094654DA6EAAFA4492","title":"必胜客 普安店 Pizza Hut","lon":"121.477104054","lat":"31.224472793","category":"68","category_name":"快餐厅","address":"淮海中路158号1楼近嵩山路"},{"poiid":"B2094751D56BABFF4499","title":"周浦万达影城","lon":"121.47591","lat":"31.22435","category":"178","category_name":"电影院","address":"年家浜路"},{"poiid":"B2094751DA6CA7F8499B","title":"联洋大拇指广场","lon":"121.47591","lat":"31.22435","category":"247","category_name":"餐饮美食","address":"芳甸路199弄19号"},{"poiid":"B2094751D464A2F8469C","title":"上海市第十人民医院","lon":"121.47591","lat":"31.22435","category":"162","category_name":"医院","address":null},{"poiid":"B2094751DA6DA1FC4399","title":"芮欧百货","lon":"121.47591","lat":"31.22435","category":"119","category_name":"商场","address":"南京西路"},{"poiid":"B2094752D06BA0FF419C","title":"五角场","lon":"121.47591","lat":"31.22435","category":"500","category_name":"未知分类","address":"邯郸路"},{"poiid":"B2094751D46BABFA4999","title":"上海市青浦区","lon":"121.47591","lat":"31.22435","category":"500","category_name":"未知分类","address":null}]