[{"poiid":"B2094655D26BA2FB439E","title":"松江新城地铁站","lon":"121.23194","lat":"31.02848","category":"36","category_name":"地铁站","address":"上海轨道交通 九号线 轨交松江新城站 9"},{"poiid":"B2094654DB64A0FC4993","title":"上海市第一人民医院（南部分院）","lon":"121.22572","lat":"31.04036","category":"162","category_name":"医院","address":"近郊新松江路650号(近人民北路)"},{"poiid":"B2094757D068ABFE4099","title":"榕港海鲜大酒楼(松江店)","lon":"121.23506","lat":"31.03308","category":"88","category_name":"海鲜酒楼","address":"松江区谷阳北路1425弄88号(谷阳北路南青路)"},{"poiid":"B2094757D06FA4F5469B","title":"阳光绿洲生态酒店","lon":"121.240118","lat":"31.0294","category":"76","category_name":"上海菜","address":"松江区通波路50号(近思贤路)"},{"poiid":"B2094757D069A2FA429B","title":"中央公园","lon":"121.227502823","lat":"31.0360280584","category":"196","category_name":"公园","address":"上海松江新城翠湖路"},{"poiid":"B2094655D26AA0FA4592","title":"地铁松江新城站","lon":"121.23099","lat":"31.03072","category":"36","category_name":"地铁站","address":""},{"poiid":"B2094757D069A0FF4993","title":"松江区政府行政一中心","lon":"121.227747","lat":"31.032243","category":"500","category_name":"未知分类","address":"上海松江区园中路1号"},{"poiid":"B2094654DB6EA2F4439E","title":"东其昌酒家","lon":"121.23316","lat":"31.03389","category":"76","category_name":"上海菜","address":"松江区松江谷阳北路371弄100号(南青路通跃路)"},{"poiid":"B2094757D068A6FE4799","title":"思贤公园","lon":"121.22401","lat":"31.02957","category":"196","category_name":"公园","address":"松江区思贤路北侧(近人民北路)"},{"poiid":"B2094655D268A1FE439C","title":"上海市第一人民医院(南部)急诊部","lon":"121.22573","lat":"31.04159","category":"162","category_name":"医院","address":"文翔路1485"},{"poiid":"B2094757D068A3F5489C","title":"肯德基 KFC (松江新城店)","lon":"121.231486524","lat":"31.0362641114","category":"68","category_name":"快餐厅","address":"上海新松江路935号"},{"poiid":"B2094654DB6EA2F44593","title":"永翔商业","lon":"121.2357","lat":"31.03316","category":"119","category_name":"商场","address":"松江区谷阳北路1470弄1号"},{"poiid":"B2094654DB64ABFD479A","title":"上岛咖啡(谷阳北路店)","lon":"121.23209","lat":"31.03312","category":"65","category_name":"咖啡厅","address":""},{"poiid":"B2094757D66DA7FD4199","title":"H3club","lon":"121.23237358","lat":"31.034370424","category":"500","category_name":"未知分类","address":"松江区南清路248号锦桂服饰商场1-4楼(近轻轨9号线松江新城站)"},{"poiid":"B2094757D06AAAF94692","title":"江中公寓","lon":"121.23276369112","lat":"31.032426619931","category":"47","category_name":"住宅区","address":"上海市松江区松江·人民北路"},{"poiid":"B2094757D16EA6FB489B","title":"芭莎摄影","lon":"121.233088967","lat":"31.0345954997","category":"500","category_name":"未知分类","address":"松江区谷阳北路1425弄211号(近松江新城地铁站)查看地图"},{"poiid":"B2094757D66CA1FB479E","title":"传奇干锅","lon":"121.231288","lat":"31.031819","category":"71","category_name":"四川菜","address":"松江区通跃路161号(近松江新城地铁站)"},{"poiid":"B2094757D065A2F8409E","title":"香茜大嘴蛙","lon":"121.231935044","lat":"31.0342126048","category":"71","category_name":"四川菜","address":"松江区通跃路75号(近9号线松江新城站)"},{"poiid":"B2094757D66DA0FF4792","title":"千里马酒楼松江二店","lon":"121.23263897","lat":"31.0330600856","category":"76","category_name":"上海菜","address":"松江区谷阳北路翔峰商业广场147号商铺"},{"poiid":"B2094655D36CA7F54993","title":"谷阳北路南青路","lon":"121.23502","lat":"31.03392","category":"38","category_name":"公交车站","address":""},{"poiid":"B2094757D76CA3FA409C","title":"阳光咖喱工坊 通跃路店","lon":"121.23114","lat":"31.02975","category":"68","category_name":"快餐厅","address":"松江区通跃路39号(近松江新城地铁站)"},{"poiid":"B2094751D56CA1F5459B","title":"大嘴蛙","lon":"121.23252","lat":"31.03234","category":"71","category_name":"四川菜","address":"松江区绿城路169-170号(九号线松江新城站旁)"},{"poiid":"B2094757D16CA0FA459F","title":"鼎信公寓","lon":"121.23335","lat":"31.03089","category":"47","category_name":"住宅区","address":"上海市长宁区长宁路820号"},{"poiid":"B2094654DB6EA2F44399","title":"快客NO.01718","lon":"121.23384","lat":"31.03369","category":"117","category_name":"便民商店/便利店","address":"翔峰路371弄4幢89-105号"},{"poiid":"B2094757D568AAF8499F","title":"名乐No.88酒吧","lon":"121.23462972","lat":"31.03312066","category":"172","category_name":"酒吧","address":"中国上海市松江区"},{"poiid":"B2094654DB6EA2F44398","title":"梦园茶楼(锦桂苑东南)","lon":"121.23398","lat":"31.03383","category":"66","category_name":"茶艺馆","address":"翔峰路371弄"},{"poiid":"B2094655D36DA6FE4592","title":"松江新城","lon":"121.23099","lat":"31.03072","category":"38","category_name":"公交车站","address":""},{"poiid":"B2094654DB6EA2F8469A","title":"嘉和休闲广场","lon":"121.22469730537","lat":"31.038981603495","category":"201","category_name":"城市广场","address":"崇文区前门大街东打磨厂"},{"poiid":"B2094757D16CA3FD469C","title":"友福咖啡","lon":"121.2347618","lat":"31.0387261","category":"260","category_name":"其他","address":"松江区新松江路265号(近开元地中海)"},{"poiid":"B2094757D164A2FC429A","title":"上海外国语大学西外外国语学校","lon":"121.23489246","lat":"31.042756779","category":"500","category_name":"未知分类","address":"松江区文翔路1100号"},{"poiid":"B2094655D36CA5F54499","title":"北翠路","lon":"121.23497","lat":"31.03668","category":"38","category_name":"公交车站","address":""},{"poiid":"B2094757D069A6FF4692","title":"松江区图书馆","lon":"121.22335","lat":"31.03541","category":"181","category_name":"图书馆","address":"松江区龙兴路888号"},{"poiid":"B2094757D06AA0FB459E","title":"迪豪小田园酒店","lon":"121.23508","lat":"31.02609","category":"75","category_name":"浙江菜","address":"松江区谷阳北路1027号(近思贤路)"},{"poiid":"B2094757D16BA0F9469B","title":"锦桂苑","lon":"121.23357","lat":"31.035553","category":"500","category_name":"未知分类","address":"上海市松江区南青路276弄"},{"poiid":"B2094757D569A0FE469D","title":"馨与歆足浴会所","lon":"121.23223741","lat":"31.03442301","category":"149","category_name":"洗浴推拿场所","address":"松江区南青路278号4楼(近新城区地铁站)"},{"poiid":"B2094654DB6EA2F44299","title":"黛菲","lon":"121.23483","lat":"31.03379","category":"148","category_name":"美容美发店","address":"翔峰路393"},{"poiid":"B2094655D268A0F44499","title":"肯德基","lon":"121.23094","lat":"31.02897","category":"68","category_name":"快餐厅","address":"松江区思贤路(近松江新城地铁站)"},{"poiid":"B2094655D26BA1FB479C","title":"绿城路","lon":"121.23503","lat":"31.03276","category":"38","category_name":"公交车站","address":""},{"poiid":"B2094655D264A0FB429F","title":"健康煮谷阳北路店","lon":"121.23417","lat":"31.03258","category":"86","category_name":"火锅店","address":"谷阳北路1425弄商业广场149号"},{"poiid":"B2094654DB6EA2FB469F","title":"上海师范大学附属外国语小学(谷阳北路)","lon":"121.23428","lat":"31.03171","category":"56","category_name":"小学","address":"松江区谷阳北路1355号"},{"poiid":"B209475CD065A2F4499C","title":"千里马新派川菜","lon":"121.234791","lat":"31.032472","category":"247","category_name":"餐饮美食","address":"松江区谷阳北路商业广场东南侧30号3楼"},{"poiid":"B2094654DB6EA2F4459B","title":"华东师范大学松江实验中学","lon":"121.23752","lat":"31.03525","category":"55","category_name":"中学","address":"南青路100"},{"poiid":"B2094753D465A1FD419E","title":"新疆味道","lon":"121.232521","lat":"31.036258","category":"247","category_name":"餐饮美食","address":"上海市 松江区通跃路"},{"poiid":"B2094654DB6EA2FB489D","title":"好德(绿城路)","lon":"121.23417","lat":"31.03257","category":"117","category_name":"便民商店/便利店","address":"谷阳北路1425弄26号"},{"poiid":"B2094750D26FA1F94892","title":"味千拉面(松江店)","lon":"121.232223","lat":"31.029062","category":"247","category_name":"餐饮美食","address":"松江区通跃路113号商业广场1楼(近地铁九号线松江新城站)"},{"poiid":"B2094654DB6EA2FB4799","title":"克丽缇娜护肤中心","lon":"121.23468","lat":"31.03259","category":"148","category_name":"美容美发店","address":""},{"poiid":"B2094757D16DABF9469D","title":"外门山足浴城","lon":"121.236618042","lat":"31.0363769531","category":"148","category_name":"美容美发店","address":"松江区西林北路(近北翠路)"},{"poiid":"B2094757D16DA6FA459B","title":"建设花园","lon":"121.23701","lat":"31.030113","category":"47","category_name":"住宅区","address":"上海市浦东新区龙东大道路3988弄"},{"poiid":"B2094757D56CA0F9489F","title":"千里马火锅","lon":"121.2350558","lat":"31.0323283","category":"247","category_name":"餐饮美食","address":"谷阳北路绿城路口近9号线松江新城站"},{"poiid":"B2094757D168ABFB4098","title":"华亭绿景苑","lon":"121.23682","lat":"31.035601","category":"47","category_name":"住宅区","address":"上海市长宁区虹桥路1165弄"},{"poiid":"B2094655D26BA2FB439E","title":"松江新城地铁站","lon":"121.23194","lat":"31.02848","category":"36","category_name":"地铁站","address":"上海轨道交通 九号线 轨交松江新城站 9"},{"poiid":"B2094654DB64A0FC4993","title":"上海市第一人民医院（南部分院）","lon":"121.22572","lat":"31.04036","category":"162","category_name":"医院","address":"近郊新松江路650号(近人民北路)"},{"poiid":"B2094757D068ABFE4099","title":"榕港海鲜大酒楼(松江店)","lon":"121.23506","lat":"31.03308","category":"88","category_name":"海鲜酒楼","address":"松江区谷阳北路1425弄88号(谷阳北路南青路)"},{"poiid":"B2094757D06FA4F5469B","title":"阳光绿洲生态酒店","lon":"121.240118","lat":"31.0294","category":"76","category_name":"上海菜","address":"松江区通波路50号(近思贤路)"},{"poiid":"B2094757D069A2FA429B","title":"中央公园","lon":"121.227502823","lat":"31.0360280584","category":"196","category_name":"公园","address":"上海松江新城翠湖路"},{"poiid":"B2094655D26AA0FA4592","title":"地铁松江新城站","lon":"121.23099","lat":"31.03072","category":"36","category_name":"地铁站","address":""},{"poiid":"B2094757D069A0FF4993","title":"松江区政府行政一中心","lon":"121.227747","lat":"31.032243","category":"500","category_name":"未知分类","address":"上海松江区园中路1号"},{"poiid":"B2094654DB6EA2F4439E","title":"东其昌酒家","lon":"121.23316","lat":"31.03389","category":"76","category_name":"上海菜","address":"松江区松江谷阳北路371弄100号(南青路通跃路)"},{"poiid":"B2094757D068A6FE4799","title":"思贤公园","lon":"121.22401","lat":"31.02957","category":"196","category_name":"公园","address":"松江区思贤路北侧(近人民北路)"},{"poiid":"B2094655D268A1FE439C","title":"上海市第一人民医院(南部)急诊部","lon":"121.22573","lat":"31.04159","category":"162","category_name":"医院","address":"文翔路1485"},{"poiid":"B2094757D068A3F5489C","title":"肯德基 KFC (松江新城店)","lon":"121.231486524","lat":"31.0362641114","category":"68","category_name":"快餐厅","address":"上海新松江路935号"},{"poiid":"B2094654DB6EA2F44593","title":"永翔商业","lon":"121.2357","lat":"31.03316","category":"119","category_name":"商场","address":"松江区谷阳北路1470弄1号"},{"poiid":"B2094654DB64ABFD479A","title":"上岛咖啡(谷阳北路店)","lon":"121.23209","lat":"31.03312","category":"65","category_name":"咖啡厅","address":""},{"poiid":"B2094757D66DA7FD4199","title":"H3club","lon":"121.23237358","lat":"31.034370424","category":"500","category_name":"未知分类","address":"松江区南清路248号锦桂服饰商场1-4楼(近轻轨9号线松江新城站)"},{"poiid":"B2094757D06AAAF94692","title":"江中公寓","lon":"121.23276369112","lat":"31.032426619931","category":"47","category_name":"住宅区","address":"上海市松江区松江·人民北路"},{"poiid":"B2094757D16EA6FB489B","title":"芭莎摄影","lon":"121.233088967","lat":"31.0345954997","category":"500","category_name":"未知分类","address":"松江区谷阳北路1425弄211号(近松江新城地铁站)查看地图"},{"poiid":"B2094757D66CA1FB479E","title":"传奇干锅","lon":"121.231288","lat":"31.031819","category":"71","category_name":"四川菜","address":"松江区通跃路161号(近松江新城地铁站)"},{"poiid":"B2094757D065A2F8409E","title":"香茜大嘴蛙","lon":"121.231935044","lat":"31.0342126048","category":"71","category_name":"四川菜","address":"松江区通跃路75号(近9号线松江新城站)"},{"poiid":"B2094757D66DA0FF4792","title":"千里马酒楼松江二店","lon":"121.23263897","lat":"31.0330600856","category":"76","category_name":"上海菜","address":"松江区谷阳北路翔峰商业广场147号商铺"},{"poiid":"B2094655D36CA7F54993","title":"谷阳北路南青路","lon":"121.23502","lat":"31.03392","category":"38","category_name":"公交车站","address":""},{"poiid":"B2094757D76CA3FA409C","title":"阳光咖喱工坊 通跃路店","lon":"121.23114","lat":"31.02975","category":"68","category_name":"快餐厅","address":"松江区通跃路39号(近松江新城地铁站)"},{"poiid":"B2094751D56CA1F5459B","title":"大嘴蛙","lon":"121.23252","lat":"31.03234","category":"71","category_name":"四川菜","address":"松江区绿城路169-170号(九号线松江新城站旁)"},{"poiid":"B2094757D16CA0FA459F","title":"鼎信公寓","lon":"121.23335","lat":"31.03089","category":"47","category_name":"住宅区","address":"上海市长宁区长宁路820号"},{"poiid":"B2094654DB6EA2F44399","title":"快客NO.01718","lon":"121.23384","lat":"31.03369","category":"117","category_name":"便民商店/便利店","address":"翔峰路371弄4幢89-105号"},{"poiid":"B2094757D568AAF8499F","title":"名乐No.88酒吧","lon":"121.23462972","lat":"31.03312066","category":"172","category_name":"酒吧","address":"中国上海市松江区"},{"poiid":"B2094654DB6EA2F44398","title":"梦园茶楼(锦桂苑东南)","lon":"121.23398","lat":"31.03383","category":"66","category_name":"茶艺馆","address":"翔峰路371弄"},{"poiid":"B2094655D36DA6FE4592","title":"松江新城","lon":"121.23099","lat":"31.03072","category":"38","category_name":"公交车站","address":""},{"poiid":"B2094654DB6EA2F8469A","title":"嘉和休闲广场","lon":"121.22469730537","lat":"31.038981603495","category":"201","category_name":"城市广场","address":"崇文区前门大街东打磨厂"},{"poiid":"B2094757D16CA3FD469C","title":"友福咖啡","lon":"121.2347618","lat":"31.0387261","category":"260","category_name":"其他","address":"松江区新松江路265号(近开元地中海)"},{"poiid":"B2094757D164A2FC429A","title":"上海外国语大学西外外国语学校","lon":"121.23489246","lat":"31.042756779","category":"500","category_name":"未知分类","address":"松江区文翔路1100号"},{"poiid":"B2094655D36CA5F54499","title":"北翠路","lon":"121.23497","lat":"31.03668","category":"38","category_name":"公交车站","address":""},{"poiid":"B2094757D069A6FF4692","title":"松江区图书馆","lon":"121.22335","lat":"31.03541","category":"181","category_name":"图书馆","address":"松江区龙兴路888号"},{"poiid":"B2094757D06AA0FB459E","title":"迪豪小田园酒店","lon":"121.23508","lat":"31.02609","category":"75","category_name":"浙江菜","address":"松江区谷阳北路1027号(近思贤路)"},{"poiid":"B2094757D16BA0F9469B","title":"锦桂苑","lon":"121.23357","lat":"31.035553","category":"500","category_name":"未知分类","address":"上海市松江区南青路276弄"},{"poiid":"B2094757D569A0FE469D","title":"馨与歆足浴会所","lon":"121.23223741","lat":"31.03442301","category":"149","category_name":"洗浴推拿场所","address":"松江区南青路278号4楼(近新城区地铁站)"},{"poiid":"B2094654DB6EA2F44299","title":"黛菲","lon":"121.23483","lat":"31.03379","category":"148","category_name":"美容美发店","address":"翔峰路393"},{"poiid":"B2094655D268A0F44499","title":"肯德基","lon":"121.23094","lat":"31.02897","category":"68","category_name":"快餐厅","address":"松江区思贤路(近松江新城地铁站)"},{"poiid":"B2094655D26BA1FB479C","title":"绿城路","lon":"121.23503","lat":"31.03276","category":"38","category_name":"公交车站","address":""},{"poiid":"B2094655D264A0FB429F","title":"健康煮谷阳北路店","lon":"121.23417","lat":"31.03258","category":"86","category_name":"火锅店","address":"谷阳北路1425弄商业广场149号"},{"poiid":"B2094654DB6EA2FB469F","title":"上海师范大学附属外国语小学(谷阳北路)","lon":"121.23428","lat":"31.03171","category":"56","category_name":"小学","address":"松江区谷阳北路1355号"},{"poiid":"B209475CD065A2F4499C","title":"千里马新派川菜","lon":"121.234791","lat":"31.032472","category":"247","category_name":"餐饮美食","address":"松江区谷阳北路商业广场东南侧30号3楼"},{"poiid":"B2094654DB6EA2F4459B","title":"华东师范大学松江实验中学","lon":"121.23752","lat":"31.03525","category":"55","category_name":"中学","address":"南青路100"},{"poiid":"B2094753D465A1FD419E","title":"新疆味道","lon":"121.232521","lat":"31.036258","category":"247","category_name":"餐饮美食","address":"上海市 松江区通跃路"},{"poiid":"B2094654DB6EA2FB489D","title":"好德(绿城路)","lon":"121.23417","lat":"31.03257","category":"117","category_name":"便民商店/便利店","address":"谷阳北路1425弄26号"},{"poiid":"B2094750D26FA1F94892","title":"味千拉面(松江店)","lon":"121.232223","lat":"31.029062","category":"247","category_name":"餐饮美食","address":"松江区通跃路113号商业广场1楼(近地铁九号线松江新城站)"},{"poiid":"B2094654DB6EA2FB4799","title":"克丽缇娜护肤中心","lon":"121.23468","lat":"31.03259","category":"148","category_name":"美容美发店","address":""},{"poiid":"B2094757D16DABF9469D","title":"外门山足浴城","lon":"121.236618042","lat":"31.0363769531","category":"148","category_name":"美容美发店","address":"松江区西林北路(近北翠路)"},{"poiid":"B2094757D16DA6FA459B","title":"建设花园","lon":"121.23701","lat":"31.030113","category":"47","category_name":"住宅区","address":"上海市浦东新区龙东大道路3988弄"},{"poiid":"B2094757D56CA0F9489F","title":"千里马火锅","lon":"121.2350558","lat":"31.0323283","category":"247","category_name":"餐饮美食","address":"谷阳北路绿城路口近9号线松江新城站"},{"poiid":"B2094757D168ABFB4098","title":"华亭绿景苑","lon":"121.23682","lat":"31.035601","category":"47","category_name":"住宅区","address":"上海市长宁区虹桥路1165弄"},{"poiid":"B2094655D26BA2FB439E","title":"松江新城地铁站","lon":"121.23194","lat":"31.02848","category":"36","category_name":"地铁站","address":"上海轨道交通 九号线 轨交松江新城站 9"},{"poiid":"B2094654DB64A0FC4993","title":"上海市第一人民医院（南部分院）","lon":"121.22572","lat":"31.04036","category":"162","category_name":"医院","address":"近郊新松江路650号(近人民北路)"},{"poiid":"B2094757D068ABFE4099","title":"榕港海鲜大酒楼(松江店)","lon":"121.23506","lat":"31.03308","category":"88","category_name":"海鲜酒楼","address":"松江区谷阳北路1425弄88号(谷阳北路南青路)"},{"poiid":"B2094757D06FA4F5469B","title":"阳光绿洲生态酒店","lon":"121.240118","lat":"31.0294","category":"76","category_name":"上海菜","address":"松江区通波路50号(近思贤路)"},{"poiid":"B2094757D069A2FA429B","title":"中央公园","lon":"121.227502823","lat":"31.0360280584","category":"196","category_name":"公园","address":"上海松江新城翠湖路"},{"poiid":"B2094655D26AA0FA4592","title":"地铁松江新城站","lon":"121.23099","lat":"31.03072","category":"36","category_name":"地铁站","address":""},{"poiid":"B2094757D069A0FF4993","title":"松江区政府行政一中心","lon":"121.227747","lat":"31.032243","category":"500","category_name":"未知分类","address":"上海松江区园中路1号"},{"poiid":"B2094654DB6EA2F4439E","title":"东其昌酒家","lon":"121.23316","lat":"31.03389","category":"76","category_name":"上海菜","address":"松江区松江谷阳北路371弄100号(南青路通跃路)"},{"poiid":"B2094757D068A6FE4799","title":"思贤公园","lon":"121.22401","lat":"31.02957","category":"196","category_name":"公园","address":"松江区思贤路北侧(近人民北路)"},{"poiid":"B2094655D268A1FE439C","title":"上海市第一人民医院(南部)急诊部","lon":"121.22573","lat":"31.04159","category":"162","category_name":"医院","address":"文翔路1485"},{"poiid":"B2094757D068A3F5489C","title":"肯德基 KFC (松江新城店)","lon":"121.231486524","lat":"31.0362641114","category":"68","category_name":"快餐厅","address":"上海新松江路935号"},{"poiid":"B2094654DB6EA2F44593","title":"永翔商业","lon":"121.2357","lat":"31.03316","category":"119","category_name":"商场","address":"松江区谷阳北路1470弄1号"},{"poiid":"B2094654DB64ABFD479A","title":"上岛咖啡(谷阳北路店)","lon":"121.23209","lat":"31.03312","category":"65","category_name":"咖啡厅","address":""},{"poiid":"B2094757D66DA7FD4199","title":"H3club","lon":"121.23237358","lat":"31.034370424","category":"500","category_name":"未知分类","address":"松江区南清路248号锦桂服饰商场1-4楼(近轻轨9号线松江新城站)"},{"poiid":"B2094757D06AAAF94692","title":"江中公寓","lon":"121.23276369112","lat":"31.032426619931","category":"47","category_name":"住宅区","address":"上海市松江区松江·人民北路"},{"poiid":"B2094757D16EA6FB489B","title":"芭莎摄影","lon":"121.233088967","lat":"31.0345954997","category":"500","category_name":"未知分类","address":"松江区谷阳北路1425弄211号(近松江新城地铁站)查看地图"},{"poiid":"B2094757D66CA1FB479E","title":"传奇干锅","lon":"121.231288","lat":"31.031819","category":"71","category_name":"四川菜","address":"松江区通跃路161号(近松江新城地铁站)"},{"poiid":"B2094757D065A2F8409E","title":"香茜大嘴蛙","lon":"121.231935044","lat":"31.0342126048","category":"71","category_name":"四川菜","address":"松江区通跃路75号(近9号线松江新城站)"},{"poiid":"B2094757D66DA0FF4792","title":"千里马酒楼松江二店","lon":"121.23263897","lat":"31.0330600856","category":"76","category_name":"上海菜","address":"松江区谷阳北路翔峰商业广场147号商铺"},{"poiid":"B2094655D36CA7F54993","title":"谷阳北路南青路","lon":"121.23502","lat":"31.03392","category":"38","category_name":"公交车站","address":""},{"poiid":"B2094757D76CA3FA409C","title":"阳光咖喱工坊 通跃路店","lon":"121.23114","lat":"31.02975","category":"68","category_name":"快餐厅","address":"松江区通跃路39号(近松江新城地铁站)"},{"poiid":"B2094751D56CA1F5459B","title":"大嘴蛙","lon":"121.23252","lat":"31.03234","category":"71","category_name":"四川菜","address":"松江区绿城路169-170号(九号线松江新城站旁)"},{"poiid":"B2094757D16CA0FA459F","title":"鼎信公寓","lon":"121.23335","lat":"31.03089","category":"47","category_name":"住宅区","address":"上海市长宁区长宁路820号"},{"poiid":"B2094654DB6EA2F44399","title":"快客NO.01718","lon":"121.23384","lat":"31.03369","category":"117","category_name":"便民商店/便利店","address":"翔峰路371弄4幢89-105号"},{"poiid":"B2094757D568AAF8499F","title":"名乐No.88酒吧","lon":"121.23462972","lat":"31.03312066","category":"172","category_name":"酒吧","address":"中国上海市松江区"},{"poiid":"B2094654DB6EA2F44398","title":"梦园茶楼(锦桂苑东南)","lon":"121.23398","lat":"31.03383","category":"66","category_name":"茶艺馆","address":"翔峰路371弄"},{"poiid":"B2094655D36DA6FE4592","title":"松江新城","lon":"121.23099","lat":"31.03072","category":"38","category_name":"公交车站","address":""},{"poiid":"B2094654DB6EA2F8469A","title":"嘉和休闲广场","lon":"121.22469730537","lat":"31.038981603495","category":"201","category_name":"城市广场","address":"崇文区前门大街东打磨厂"},{"poiid":"B2094757D16CA3FD469C","title":"友福咖啡","lon":"121.2347618","lat":"31.0387261","category":"260","category_name":"其他","address":"松江区新松江路265号(近开元地中海)"},{"poiid":"B2094757D164A2FC429A","title":"上海外国语大学西外外国语学校","lon":"121.23489246","lat":"31.042756779","category":"500","category_name":"未知分类","address":"松江区文翔路1100号"},{"poiid":"B2094655D36CA5F54499","title":"北翠路","lon":"121.23497","lat":"31.03668","category":"38","category_name":"公交车站","address":""},{"poiid":"B2094757D069A6FF4692","title":"松江区图书馆","lon":"121.22335","lat":"31.03541","category":"181","category_name":"图书馆","address":"松江区龙兴路888号"},{"poiid":"B2094757D06AA0FB459E","title":"迪豪小田园酒店","lon":"121.23508","lat":"31.02609","category":"75","category_name":"浙江菜","address":"松江区谷阳北路1027号(近思贤路)"},{"poiid":"B2094757D16BA0F9469B","title":"锦桂苑","lon":"121.23357","lat":"31.035553","category":"500","category_name":"未知分类","address":"上海市松江区南青路276弄"},{"poiid":"B2094757D569A0FE469D","title":"馨与歆足浴会所","lon":"121.23223741","lat":"31.03442301","category":"149","category_name":"洗浴推拿场所","address":"松江区南青路278号4楼(近新城区地铁站)"},{"poiid":"B2094654DB6EA2F44299","title":"黛菲","lon":"121.23483","lat":"31.03379","category":"148","category_name":"美容美发店","address":"翔峰路393"},{"poiid":"B2094655D268A0F44499","title":"肯德基","lon":"121.23094","lat":"31.02897","category":"68","category_name":"快餐厅","address":"松江区思贤路(近松江新城地铁站)"},{"poiid":"B2094655D26BA1FB479C","title":"绿城路","lon":"121.23503","lat":"31.03276","category":"38","category_name":"公交车站","address":""},{"poiid":"B2094655D264A0FB429F","title":"健康煮谷阳北路店","lon":"121.23417","lat":"31.03258","category":"86","category_name":"火锅店","address":"谷阳北路1425弄商业广场149号"},{"poiid":"B2094654DB6EA2FB469F","title":"上海师范大学附属外国语小学(谷阳北路)","lon":"121.23428","lat":"31.03171","category":"56","category_name":"小学","address":"松江区谷阳北路1355号"},{"poiid":"B209475CD065A2F4499C","title":"千里马新派川菜","lon":"121.234791","lat":"31.032472","category":"247","category_name":"餐饮美食","address":"松江区谷阳北路商业广场东南侧30号3楼"},{"poiid":"B2094654DB6EA2F4459B","title":"华东师范大学松江实验中学","lon":"121.23752","lat":"31.03525","category":"55","category_name":"中学","address":"南青路100"},{"poiid":"B2094753D465A1FD419E","title":"新疆味道","lon":"121.232521","lat":"31.036258","category":"247","category_name":"餐饮美食","address":"上海市 松江区通跃路"},{"poiid":"B2094654DB6EA2FB489D","title":"好德(绿城路)","lon":"121.23417","lat":"31.03257","category":"117","category_name":"便民商店/便利店","address":"谷阳北路1425弄26号"},{"poiid":"B2094750D26FA1F94892","title":"味千拉面(松江店)","lon":"121.232223","lat":"31.029062","category":"247","category_name":"餐饮美食","address":"松江区通跃路113号商业广场1楼(近地铁九号线松江新城站)"},{"poiid":"B2094654DB6EA2FB4799","title":"克丽缇娜护肤中心","lon":"121.23468","lat":"31.03259","category":"148","category_name":"美容美发店","address":""},{"poiid":"B2094757D16DABF9469D","title":"外门山足浴城","lon":"121.236618042","lat":"31.0363769531","category":"148","category_name":"美容美发店","address":"松江区西林北路(近北翠路)"},{"poiid":"B2094757D16DA6FA459B","title":"建设花园","lon":"121.23701","lat":"31.030113","category":"47","category_name":"住宅区","address":"上海市浦东新区龙东大道路3988弄"},{"poiid":"B2094757D56CA0F9489F","title":"千里马火锅","lon":"121.2350558","lat":"31.0323283","category":"247","category_name":"餐饮美食","address":"谷阳北路绿城路口近9号线松江新城站"},{"poiid":"B2094757D168ABFB4098","title":"华亭绿景苑","lon":"121.23682","lat":"31.035601","category":"47","category_name":"住宅区","address":"上海市长宁区虹桥路1165弄"},{"poiid":"B2094655D26BA2FB439E","title":"松江新城地铁站","lon":"121.23194","lat":"31.02848","category":"36","category_name":"地铁站","address":"上海轨道交通 九号线 轨交松江新城站 9"},{"poiid":"B2094654DB64A0FC4993","title":"上海市第一人民医院（南部分院）","lon":"121.22572","lat":"31.04036","category":"162","category_name":"医院","address":"近郊新松江路650号(近人民北路)"},{"poiid":"B2094757D068ABFE4099","title":"榕港海鲜大酒楼(松江店)","lon":"121.23506","lat":"31.03308","category":"88","category_name":"海鲜酒楼","address":"松江区谷阳北路1425弄88号(谷阳北路南青路)"},{"poiid":"B2094757D06FA4F5469B","title":"阳光绿洲生态酒店","lon":"121.240118","lat":"31.0294","category":"76","category_name":"上海菜","address":"松江区通波路50号(近思贤路)"},{"poiid":"B2094757D069A2FA429B","title":"中央公园","lon":"121.227502823","lat":"31.0360280584","category":"196","category_name":"公园","address":"上海松江新城翠湖路"},{"poiid":"B2094655D26AA0FA4592","title":"地铁松江新城站","lon":"121.23099","lat":"31.03072","category":"36","category_name":"地铁站","address":""},{"poiid":"B2094757D069A0FF4993","title":"松江区政府行政一中心","lon":"121.227747","lat":"31.032243","category":"500","category_name":"未知分类","address":"上海松江区园中路1号"},{"poiid":"B2094654DB6EA2F4439E","title":"东其昌酒家","lon":"121.23316","lat":"31.03389","category":"76","category_name":"上海菜","address":"松江区松江谷阳北路371弄100号(南青路通跃路)"},{"poiid":"B2094757D068A6FE4799","title":"思贤公园","lon":"121.22401","lat":"31.02957","category":"196","category_name":"公园","address":"松江区思贤路北侧(近人民北路)"},{"poiid":"B2094655D268A1FE439C","title":"上海市第一人民医院(南部)急诊部","lon":"121.22573","lat":"31.04159","category":"162","category_name":"医院","address":"文翔路1485"},{"poiid":"B2094757D068A3F5489C","title":"肯德基 KFC (松江新城店)","lon":"121.231486524","lat":"31.0362641114","category":"68","category_name":"快餐厅","address":"上海新松江路935号"},{"poiid":"B2094654DB6EA2F44593","title":"永翔商业","lon":"121.2357","lat":"31.03316","category":"119","category_name":"商场","address":"松江区谷阳北路1470弄1号"},{"poiid":"B2094654DB64ABFD479A","title":"上岛咖啡(谷阳北路店)","lon":"121.23209","lat":"31.03312","category":"65","category_name":"咖啡厅","address":""},{"poiid":"B2094757D66DA7FD4199","title":"H3club","lon":"121.23237358","lat":"31.034370424","category":"500","category_name":"未知分类","address":"松江区南清路248号锦桂服饰商场1-4楼(近轻轨9号线松江新城站)"},{"poiid":"B2094757D06AAAF94692","title":"江中公寓","lon":"121.23276369112","lat":"31.032426619931","category":"47","category_name":"住宅区","address":"上海市松江区松江·人民北路"},{"poiid":"B2094757D16EA6FB489B","title":"芭莎摄影","lon":"121.233088967","lat":"31.0345954997","category":"500","category_name":"未知分类","address":"松江区谷阳北路1425弄211号(近松江新城地铁站)查看地图"},{"poiid":"B2094757D66CA1FB479E","title":"传奇干锅","lon":"121.231288","lat":"31.031819","category":"71","category_name":"四川菜","address":"松江区通跃路161号(近松江新城地铁站)"},{"poiid":"B2094757D065A2F8409E","title":"香茜大嘴蛙","lon":"121.231935044","lat":"31.0342126048","category":"71","category_name":"四川菜","address":"松江区通跃路75号(近9号线松江新城站)"},{"poiid":"B2094757D66DA0FF4792","title":"千里马酒楼松江二店","lon":"121.23263897","lat":"31.0330600856","category":"76","category_name":"上海菜","address":"松江区谷阳北路翔峰商业广场147号商铺"},{"poiid":"B2094655D36CA7F54993","title":"谷阳北路南青路","lon":"121.23502","lat":"31.03392","category":"38","category_name":"公交车站","address":""},{"poiid":"B2094757D76CA3FA409C","title":"阳光咖喱工坊 通跃路店","lon":"121.23114","lat":"31.02975","category":"68","category_name":"快餐厅","address":"松江区通跃路39号(近松江新城地铁站)"},{"poiid":"B2094751D56CA1F5459B","title":"大嘴蛙","lon":"121.23252","lat":"31.03234","category":"71","category_name":"四川菜","address":"松江区绿城路169-170号(九号线松江新城站旁)"},{"poiid":"B2094757D16CA0FA459F","title":"鼎信公寓","lon":"121.23335","lat":"31.03089","category":"47","category_name":"住宅区","address":"上海市长宁区长宁路820号"},{"poiid":"B2094654DB6EA2F44399","title":"快客NO.01718","lon":"121.23384","lat":"31.03369","category":"117","category_name":"便民商店/便利店","address":"翔峰路371弄4幢89-105号"},{"poiid":"B2094757D568AAF8499F","title":"名乐No.88酒吧","lon":"121.23462972","lat":"31.03312066","category":"172","category_name":"酒吧","address":"中国上海市松江区"},{"poiid":"B2094654DB6EA2F44398","title":"梦园茶楼(锦桂苑东南)","lon":"121.23398","lat":"31.03383","category":"66","category_name":"茶艺馆","address":"翔峰路371弄"},{"poiid":"B2094655D36DA6FE4592","title":"松江新城","lon":"121.23099","lat":"31.03072","category":"38","category_name":"公交车站","address":""},{"poiid":"B2094654DB6EA2F8469A","title":"嘉和休闲广场","lon":"121.22469730537","lat":"31.038981603495","category":"201","category_name":"城市广场","address":"崇文区前门大街东打磨厂"},{"poiid":"B2094757D16CA3FD469C","title":"友福咖啡","lon":"121.2347618","lat":"31.0387261","category":"260","category_name":"其他","address":"松江区新松江路265号(近开元地中海)"},{"poiid":"B2094757D164A2FC429A","title":"上海外国语大学西外外国语学校","lon":"121.23489246","lat":"31.042756779","category":"500","category_name":"未知分类","address":"松江区文翔路1100号"},{"poiid":"B2094655D36CA5F54499","title":"北翠路","lon":"121.23497","lat":"31.03668","category":"38","category_name":"公交车站","address":""},{"poiid":"B2094757D069A6FF4692","title":"松江区图书馆","lon":"121.22335","lat":"31.03541","category":"181","category_name":"图书馆","address":"松江区龙兴路888号"},{"poiid":"B2094757D06AA0FB459E","title":"迪豪小田园酒店","lon":"121.23508","lat":"31.02609","category":"75","category_name":"浙江菜","address":"松江区谷阳北路1027号(近思贤路)"},{"poiid":"B2094757D16BA0F9469B","title":"锦桂苑","lon":"121.23357","lat":"31.035553","category":"500","category_name":"未知分类","address":"上海市松江区南青路276弄"},{"poiid":"B2094757D569A0FE469D","title":"馨与歆足浴会所","lon":"121.23223741","lat":"31.03442301","category":"149","category_name":"洗浴推拿场所","address":"松江区南青路278号4楼(近新城区地铁站)"},{"poiid":"B2094654DB6EA2F44299","title":"黛菲","lon":"121.23483","lat":"31.03379","category":"148","category_name":"美容美发店","address":"翔峰路393"},{"poiid":"B2094655D268A0F44499","title":"肯德基","lon":"121.23094","lat":"31.02897","category":"68","category_name":"快餐厅","address":"松江区思贤路(近松江新城地铁站)"},{"poiid":"B2094655D26BA1FB479C","title":"绿城路","lon":"121.23503","lat":"31.03276","category":"38","category_name":"公交车站","address":""},{"poiid":"B2094655D264A0FB429F","title":"健康煮谷阳北路店","lon":"121.23417","lat":"31.03258","category":"86","category_name":"火锅店","address":"谷阳北路1425弄商业广场149号"},{"poiid":"B2094654DB6EA2FB469F","title":"上海师范大学附属外国语小学(谷阳北路)","lon":"121.23428","lat":"31.03171","category":"56","category_name":"小学","address":"松江区谷阳北路1355号"},{"poiid":"B209475CD065A2F4499C","title":"千里马新派川菜","lon":"121.234791","lat":"31.032472","category":"247","category_name":"餐饮美食","address":"松江区谷阳北路商业广场东南侧30号3楼"},{"poiid":"B2094654DB6EA2F4459B","title":"华东师范大学松江实验中学","lon":"121.23752","lat":"31.03525","category":"55","category_name":"中学","address":"南青路100"},{"poiid":"B2094753D465A1FD419E","title":"新疆味道","lon":"121.232521","lat":"31.036258","category":"247","category_name":"餐饮美食","address":"上海市 松江区通跃路"},{"poiid":"B2094654DB6EA2FB489D","title":"好德(绿城路)","lon":"121.23417","lat":"31.03257","category":"117","category_name":"便民商店/便利店","address":"谷阳北路1425弄26号"},{"poiid":"B2094750D26FA1F94892","title":"味千拉面(松江店)","lon":"121.232223","lat":"31.029062","category":"247","category_name":"餐饮美食","address":"松江区通跃路113号商业广场1楼(近地铁九号线松江新城站)"},{"poiid":"B2094654DB6EA2FB4799","title":"克丽缇娜护肤中心","lon":"121.23468","lat":"31.03259","category":"148","category_name":"美容美发店","address":""},{"poiid":"B2094757D16DABF9469D","title":"外门山足浴城","lon":"121.236618042","lat":"31.0363769531","category":"148","category_name":"美容美发店","address":"松江区西林北路(近北翠路)"},{"poiid":"B2094757D16DA6FA459B","title":"建设花园","lon":"121.23701","lat":"31.030113","category":"47","category_name":"住宅区","address":"上海市浦东新区龙东大道路3988弄"},{"poiid":"B2094757D56CA0F9489F","title":"千里马火锅","lon":"121.2350558","lat":"31.0323283","category":"247","category_name":"餐饮美食","address":"谷阳北路绿城路口近9号线松江新城站"},{"poiid":"B2094757D168ABFB4098","title":"华亭绿景苑","lon":"121.23682","lat":"31.035601","category":"47","category_name":"住宅区","address":"上海市长宁区虹桥路1165弄"}]