[{"poiid":"B2094655D264A4FC489F","title":"芳心园农庄","lon":"121.25078","lat":"30.82063","category":"247","category_name":"餐饮美食","address":"近郊金山区吕巷镇金张公路1818号"},{"poiid":"B2094757D168ABF84693","title":"金山芳心园","lon":"121.253547574","lat":"30.8178166888","category":"196","category_name":"公园","address":"上海近郊金山区金张公路1818号  "},{"poiid":"B2094757D169A3FF4298","title":"华联吉买盛(朱泾店)","lon":"121.26735","lat":"30.81235","category":"260","category_name":"其他","address":"近郊金山区南圩路312号"},{"poiid":"B2094654DB68ABF44999","title":"诚新园","lon":"121.25053","lat":"30.8205","category":"47","category_name":"住宅区","address":""},{"poiid":"B2094757D66EA4F84193","title":"怡神园","lon":"121.25363267","lat":"30.817751187","category":"260","category_name":"其他","address":"近郊金山区金张公路1588号干巷龙跃村南"},{"poiid":"B2094757D16AA7F4419D","title":"三园农家乐","lon":"121.25363","lat":"30.81595","category":"260","category_name":"其他","address":"近郊金山区金张公路1588-1860号(近金山干巷)"},{"poiid":"B2094757D065A5FD4299","title":"干巷","lon":"121.272001","lat":"30.832864","category":"500","category_name":"未知分类","address":"上海金山区吕巷镇干巷街道"},{"poiid":"B2094757D66DA3FA4398","title":"阿什福德城堡大酒店","lon":"121.264113809","lat":"30.8066771108","category":"260","category_name":"其他","address":"上海金山区红旗东路500号"},{"poiid":"B2094757D16FABF44099","title":"金山鸵鸟园","lon":"121.27227","lat":"30.83259","category":"260","category_name":"其他","address":"近郊金山吕巷镇干林路555号(干林路朱吕公路)"}]