[{"poiid":"B2094757D06FA1FF4799","title":"豫园","lon":"121.49209476305077","lat":"31.227224682757594","category":"240","category_name":"国家级景点","address":"上海市黄浦区安仁街218号"},{"poiid":"B2094757D165A6FD409E","title":"外滩二十二号","lon":"121.48842638473934","lat":"31.239447501314032","category":"627","category_name":"一般地点标志","address":"上海市黄埔区中山东一路"},{"poiid":"B2094757D06FA6F4449A","title":"城隍庙第一购物中心","lon":"121.490396152","lat":"31.229039814","category":"119","category_name":"商场","address":"黄浦区丽水路88号城隍珠宝内(近城隍庙)"},{"poiid":"B2094753D76FAAFA449C","title":"上海滩国泰旗舰店","lon":"121.466011","lat":"31.216125","category":"249","category_name":"购物服务","address":"淮海中路868号"},{"poiid":"B209475CD564A7F84292","title":"上海滩新天地店","lon":"121.47463","lat":"31.22164","category":"119","category_name":"商场","address":"\"太仓路181弄新天地北里15号\r\n\""},{"poiid":"B209475CD564A7F84392","title":"上海滩浦东香格里拉店","lon":"121.50058","lat":"31.23634","category":"119","category_name":"商场","address":"浦东富成路33号香格里拉酒店内大堂层"},{"poiid":"B2094757D065AAF84892","title":"上海老飯店","lon":"121.490577698","lat":"31.2276554108","category":"75","category_name":"浙江菜","address":"黄浦区福佑路242号"},{"poiid":"B2094654DB6BA4F9449B","title":"豫园老街","lon":"121.49114","lat":"31.22713","category":"116","category_name":"特色商业街","address":"黄浦区福佑路238号豫园内(近河南南路)"},{"poiid":"B2094654DB64AAF44592","title":"哈根达斯豫园店","lon":"121.49119","lat":"31.2269","category":"113","category_name":"冷饮店","address":"黄浦区方浜中路168号豫龙坊1楼L122A号商铺(近昼锦路)"},{"poiid":"B2094757D06FA0F5449B","title":"必胜客(丽水店)","lon":"121.490532","lat":"31.228192","category":"94","category_name":"西餐厅","address":"黄浦区丽水路69号(近福佑路)"},{"poiid":"B2094757D069A2F44693","title":"黄浦江畔","lon":"121.490871","lat":"31.230903","category":"260","category_name":"其他","address":"上海黄浦江畔"},{"poiid":"B2094654DB65AAF4439B","title":"麦当劳(豫园店)","lon":"121.49037","lat":"31.22825","category":"68","category_name":"快餐厅","address":"黄浦区丽水路88号城隍珠宝内(近城隍庙)"},{"poiid":"B2094654DA6EA5F54399","title":"小世界会所","lon":"121.4914","lat":"31.22774","category":"76","category_name":"上海菜","address":"黄浦区福佑路234号豫园3-4楼"},{"poiid":"B2094757D06FA1FA409D","title":"淮海中华大厦","lon":"121.49016706473","lat":"31.231560906818","category":"46","category_name":"楼宇","address":"朝阳华威桥东北角"},{"poiid":"B2094757D06FA4FE499B","title":"亚一金店(城隍庙店)","lon":"121.49034347","lat":"31.2277079844","category":"131","category_name":"珠宝首饰工艺品","address":"黄浦区福佑路288号(福佑路旧校场路)查看地图"},{"poiid":"B2094654DA6EA5F54699","title":"豫园商城","lon":"121.49107","lat":"31.22773","category":"119","category_name":"商场","address":"黄浦区方浜中路269号(近城隍庙豫龙坊)"},{"poiid":"B2094757D164AAF8419B","title":"南翔饅頭店-長兴樓","lon":"121.49004573","lat":"31.22789725","category":"500","category_name":"未知分类","address":"上海城隍廟"},{"poiid":"B2094757D06FA4FB4493","title":"黄浦区业余大学","lon":"121.4913","lat":"31.22992","category":"52","category_name":"高等院校","address":"黄浦区四川南路37号(近金陵东路)"},{"poiid":"B2094757D069A0FC4992","title":"松月楼","lon":"121.49108","lat":"31.22666","category":"89","category_name":"中式素餐馆","address":"黄浦区旧校场路99号(近方浜中路)"},{"poiid":"B2094757D068A2FA4192","title":"肯德基 KFC (豫园店)","lon":"121.491322","lat":"31.227603","category":"68","category_name":"快餐厅","address":"黄浦区福佑路234号豫园商城内(近旧校场路)"},{"poiid":"B2094757D068A7F8429A","title":"老凤祥银楼(福佑路店)","lon":"121.49116","lat":"31.22737","category":"500","category_name":"未知分类","address":"黄浦区福佑路239号1-3楼(近旧校场路)查看地图"},{"poiid":"B2094655D26AABFA469B","title":"上海兴宇大酒店——原东莱大酒店","lon":"121.492","lat":"31.22982","category":"250","category_name":"公园户外","address":"上海市黄浦区人民路386号(永安路口)"},{"poiid":"B2094757D06FA1FA449D","title":"城隍庙小商品市场","lon":"121.49124873","lat":"31.226930229","category":"249","category_name":"购物服务","address":"上海福佑路"},{"poiid":"B2094757D465A5FF4793","title":"小绍兴 丽水路店","lon":"121.490792054","lat":"31.229288793","category":"68","category_name":"快餐厅","address":"黄浦区丽水路1号悦园商厦6楼六纯香美食港内(丽水路四川南路)"},{"poiid":"B2094757D16CA5F84192","title":"福都商厦","lon":"121.49040773","lat":"31.229416282","category":"119","category_name":"商场","address":"黄浦区丽水路(近福佑路)"},{"poiid":"B2094654DA6EA5F4499C","title":"悦园商厦小商品批发市场","lon":"121.49125","lat":"31.22926","category":"120","category_name":"小商品市场","address":"丽水路1"},{"poiid":"B2094757D568A0F5489D","title":"城隍庙香酥鸡摊","lon":"121.4906767","lat":"31.22967639","category":"68","category_name":"快餐厅","address":"黄浦区四川南路80弄(近人民路)"},{"poiid":"B2094757D068ABF8409B","title":"上海滩商厦","lon":"121.492","lat":"31.22937","category":"249","category_name":"购物服务","address":"黄浦区人民路388号(人民路永安路)"},{"poiid":"B2094655D36CA2F9459C","title":"人民路新北门","lon":"121.49162","lat":"31.22949","category":"38","category_name":"公交车站","address":""},{"poiid":"B2094654DB65A7FE4498","title":"巴比馒头 新永安路店 Babi Food","lon":"121.491625054","lat":"31.230168793","category":"68","category_name":"快餐厅","address":"黄浦区新永安路62号(近四川南路)"},{"poiid":"B2094757D069A2F9419C","title":"Horizen Lounge","lon":"121.49230372","lat":"31.230716185","category":"260","category_name":"其他","address":"黄浦区中山东二路12号23楼(近金陵东路)"},{"poiid":"B2094654DA6EA5F44899","title":"帕格尼尼KTV","lon":"121.49114","lat":"31.22978","category":"170","category_name":"KTV","address":"人民路388号"},{"poiid":"B2094654DA6EA4FC4399","title":"沈香阁","lon":"121.48999","lat":"31.22723","category":"244","category_name":"寺庙道观","address":"上海黄浦区沉香阁路29号(近福佑路)"},{"poiid":"B2094757D069A4FD4292","title":"紫锦城珠宝交易中心","lon":"121.490552","lat":"31.228394","category":"131","category_name":"珠宝首饰工艺品","address":"黄浦区丽水路81号2-6楼(上海老饭店对面)"},{"poiid":"B2094753D76AAAF9429C","title":"鹿港小镇（宏伊店）","lon":"121.489372","lat":"31.231023","category":"500","category_name":"未知分类","address":"上海市 山东路"},{"poiid":"B2094655D268ABFE4899","title":"环城商厦","lon":"121.49202","lat":"31.22912","category":"46","category_name":"楼宇","address":""},{"poiid":"B2094654DA6EA5FB4298","title":"天主堂(四川南路)","lon":"121.49021","lat":"31.23067","category":"245","category_name":"教堂","address":"四川南路36"},{"poiid":"B2094655D26AA1F8499D","title":"上海滩商厦停车场","lon":"121.49204","lat":"31.2297","category":"247","category_name":"餐饮美食","address":"黄浦区人民路388号"},{"poiid":"B2094757D069A7FF4398","title":"城隍珠宝(福佑路店)","lon":"121.49038","lat":"31.22773","category":"131","category_name":"珠宝首饰工艺品","address":"黄浦区丽水路88号城隍珠宝内(近城隍庙)查看地图"},{"poiid":"B2094757D165A3FF4099","title":"四川南路香酥鸡","lon":"121.490683","lat":"31.229918","category":"500","category_name":"未知分类","address":"上海四川南路人民路"},{"poiid":"B2094654DA6EA5F54299","title":"上海福民街小商品市场","lon":"121.49166","lat":"31.228","category":"120","category_name":"小商品市场","address":"黄浦区文昌路10号福佑商厦5楼(近老凤祥银楼)"},{"poiid":"B2094654DB69A0FA4692","title":"可颂坊(金陵店)","lon":"121.49076","lat":"31.23143","category":"112","category_name":"糕饼店","address":"黄浦区金陵东路14号乙(近四川南路口)"},{"poiid":"B2094757D569A1F44992","title":"环北福都商厦","lon":"121.49171278","lat":"31.22910292","category":"249","category_name":"购物服务","address":"人民路399号"},{"poiid":"B2094757D069A0FC499C","title":"东华美钻(丽水路店)","lon":"121.49108","lat":"31.22793","category":"131","category_name":"珠宝首饰工艺品","address":"黄浦区丽水路81号1楼(近福佑路)查看地图"},{"poiid":"B2094757D069A3F4479F","title":"阿四妈","lon":"121.48989107489","lat":"31.23097215007","category":"257","category_name":"中餐厅","address":"黄浦区金陵东路79号(近四川南路)"},{"poiid":"B2094655D26EA1FA4293","title":"避风塘福水缘茶楼","lon":"121.48905","lat":"31.22852","category":"66","category_name":"茶艺馆","address":"福佑路333号2层"},{"poiid":"B2094655D265AAF54293","title":"对外贸易展览馆","lon":"121.49076","lat":"31.23064","category":"183","category_name":"展览馆","address":"黄浦区四川南路38号(四川南路新永安路)"},{"poiid":"B2094654DA6EA5F44398","title":"柳青线(新永安路)","lon":"121.49138","lat":"31.23014","category":"123","category_name":"家具建材市场","address":"新永安路46号"},{"poiid":"B2094654DA6EA5FA4993","title":"上海市商贸旅游学校四川路校区","lon":"121.49089","lat":"31.23075","category":"54","category_name":"职业技术学校","address":"四川南路35"},{"poiid":"B2094750DA6DA7FF4892","title":"均鲜","lon":"121.490104","lat":"31.229932","category":"68","category_name":"快餐厅","address":"黄浦区金陵东路68号(近江西南路)"},{"poiid":"B2094757D06FA1FF4799","title":"豫园","lon":"121.49209476305077","lat":"31.227224682757594","category":"240","category_name":"国家级景点","address":"上海市黄浦区安仁街218号"},{"poiid":"B2094757D165A6FD409E","title":"外滩二十二号","lon":"121.48842638473934","lat":"31.239447501314032","category":"627","category_name":"一般地点标志","address":"上海市黄埔区中山东一路"},{"poiid":"B2094757D06FA6F4449A","title":"城隍庙第一购物中心","lon":"121.490396152","lat":"31.229039814","category":"119","category_name":"商场","address":"黄浦区丽水路88号城隍珠宝内(近城隍庙)"},{"poiid":"B2094753D76FAAFA449C","title":"上海滩国泰旗舰店","lon":"121.466011","lat":"31.216125","category":"249","category_name":"购物服务","address":"淮海中路868号"},{"poiid":"B209475CD564A7F84292","title":"上海滩新天地店","lon":"121.47463","lat":"31.22164","category":"119","category_name":"商场","address":"\"太仓路181弄新天地北里15号\r\n\""},{"poiid":"B209475CD564A7F84392","title":"上海滩浦东香格里拉店","lon":"121.50058","lat":"31.23634","category":"119","category_name":"商场","address":"浦东富成路33号香格里拉酒店内大堂层"},{"poiid":"B2094757D065AAF84892","title":"上海老飯店","lon":"121.490577698","lat":"31.2276554108","category":"75","category_name":"浙江菜","address":"黄浦区福佑路242号"},{"poiid":"B2094654DB6BA4F9449B","title":"豫园老街","lon":"121.49114","lat":"31.22713","category":"116","category_name":"特色商业街","address":"黄浦区福佑路238号豫园内(近河南南路)"},{"poiid":"B2094654DB64AAF44592","title":"哈根达斯豫园店","lon":"121.49119","lat":"31.2269","category":"113","category_name":"冷饮店","address":"黄浦区方浜中路168号豫龙坊1楼L122A号商铺(近昼锦路)"},{"poiid":"B2094757D06FA0F5449B","title":"必胜客(丽水店)","lon":"121.490532","lat":"31.228192","category":"94","category_name":"西餐厅","address":"黄浦区丽水路69号(近福佑路)"},{"poiid":"B2094757D069A2F44693","title":"黄浦江畔","lon":"121.490871","lat":"31.230903","category":"260","category_name":"其他","address":"上海黄浦江畔"},{"poiid":"B2094654DB65AAF4439B","title":"麦当劳(豫园店)","lon":"121.49037","lat":"31.22825","category":"68","category_name":"快餐厅","address":"黄浦区丽水路88号城隍珠宝内(近城隍庙)"},{"poiid":"B2094654DA6EA5F54399","title":"小世界会所","lon":"121.4914","lat":"31.22774","category":"76","category_name":"上海菜","address":"黄浦区福佑路234号豫园3-4楼"},{"poiid":"B2094757D06FA1FA409D","title":"淮海中华大厦","lon":"121.49016706473","lat":"31.231560906818","category":"46","category_name":"楼宇","address":"朝阳华威桥东北角"},{"poiid":"B2094757D06FA4FE499B","title":"亚一金店(城隍庙店)","lon":"121.49034347","lat":"31.2277079844","category":"131","category_name":"珠宝首饰工艺品","address":"黄浦区福佑路288号(福佑路旧校场路)查看地图"},{"poiid":"B2094654DA6EA5F54699","title":"豫园商城","lon":"121.49107","lat":"31.22773","category":"119","category_name":"商场","address":"黄浦区方浜中路269号(近城隍庙豫龙坊)"},{"poiid":"B2094757D164AAF8419B","title":"南翔饅頭店-長兴樓","lon":"121.49004573","lat":"31.22789725","category":"500","category_name":"未知分类","address":"上海城隍廟"},{"poiid":"B2094757D06FA4FB4493","title":"黄浦区业余大学","lon":"121.4913","lat":"31.22992","category":"52","category_name":"高等院校","address":"黄浦区四川南路37号(近金陵东路)"},{"poiid":"B2094757D069A0FC4992","title":"松月楼","lon":"121.49108","lat":"31.22666","category":"89","category_name":"中式素餐馆","address":"黄浦区旧校场路99号(近方浜中路)"},{"poiid":"B2094757D068A2FA4192","title":"肯德基 KFC (豫园店)","lon":"121.491322","lat":"31.227603","category":"68","category_name":"快餐厅","address":"黄浦区福佑路234号豫园商城内(近旧校场路)"},{"poiid":"B2094757D068A7F8429A","title":"老凤祥银楼(福佑路店)","lon":"121.49116","lat":"31.22737","category":"500","category_name":"未知分类","address":"黄浦区福佑路239号1-3楼(近旧校场路)查看地图"},{"poiid":"B2094655D26AABFA469B","title":"上海兴宇大酒店——原东莱大酒店","lon":"121.492","lat":"31.22982","category":"250","category_name":"公园户外","address":"上海市黄浦区人民路386号(永安路口)"},{"poiid":"B2094757D06FA1FA449D","title":"城隍庙小商品市场","lon":"121.49124873","lat":"31.226930229","category":"249","category_name":"购物服务","address":"上海福佑路"},{"poiid":"B2094757D465A5FF4793","title":"小绍兴 丽水路店","lon":"121.490792054","lat":"31.229288793","category":"68","category_name":"快餐厅","address":"黄浦区丽水路1号悦园商厦6楼六纯香美食港内(丽水路四川南路)"},{"poiid":"B2094757D16CA5F84192","title":"福都商厦","lon":"121.49040773","lat":"31.229416282","category":"119","category_name":"商场","address":"黄浦区丽水路(近福佑路)"},{"poiid":"B2094654DA6EA5F4499C","title":"悦园商厦小商品批发市场","lon":"121.49125","lat":"31.22926","category":"120","category_name":"小商品市场","address":"丽水路1"},{"poiid":"B2094757D568A0F5489D","title":"城隍庙香酥鸡摊","lon":"121.4906767","lat":"31.22967639","category":"68","category_name":"快餐厅","address":"黄浦区四川南路80弄(近人民路)"},{"poiid":"B2094757D068ABF8409B","title":"上海滩商厦","lon":"121.492","lat":"31.22937","category":"249","category_name":"购物服务","address":"黄浦区人民路388号(人民路永安路)"},{"poiid":"B2094655D36CA2F9459C","title":"人民路新北门","lon":"121.49162","lat":"31.22949","category":"38","category_name":"公交车站","address":""},{"poiid":"B2094654DB65A7FE4498","title":"巴比馒头 新永安路店 Babi Food","lon":"121.491625054","lat":"31.230168793","category":"68","category_name":"快餐厅","address":"黄浦区新永安路62号(近四川南路)"},{"poiid":"B2094757D069A2F9419C","title":"Horizen Lounge","lon":"121.49230372","lat":"31.230716185","category":"260","category_name":"其他","address":"黄浦区中山东二路12号23楼(近金陵东路)"},{"poiid":"B2094654DA6EA5F44899","title":"帕格尼尼KTV","lon":"121.49114","lat":"31.22978","category":"170","category_name":"KTV","address":"人民路388号"},{"poiid":"B2094654DA6EA4FC4399","title":"沈香阁","lon":"121.48999","lat":"31.22723","category":"244","category_name":"寺庙道观","address":"上海黄浦区沉香阁路29号(近福佑路)"},{"poiid":"B2094757D069A4FD4292","title":"紫锦城珠宝交易中心","lon":"121.490552","lat":"31.228394","category":"131","category_name":"珠宝首饰工艺品","address":"黄浦区丽水路81号2-6楼(上海老饭店对面)"},{"poiid":"B2094753D76AAAF9429C","title":"鹿港小镇（宏伊店）","lon":"121.489372","lat":"31.231023","category":"500","category_name":"未知分类","address":"上海市 山东路"},{"poiid":"B2094655D268ABFE4899","title":"环城商厦","lon":"121.49202","lat":"31.22912","category":"46","category_name":"楼宇","address":""},{"poiid":"B2094654DA6EA5FB4298","title":"天主堂(四川南路)","lon":"121.49021","lat":"31.23067","category":"245","category_name":"教堂","address":"四川南路36"},{"poiid":"B2094655D26AA1F8499D","title":"上海滩商厦停车场","lon":"121.49204","lat":"31.2297","category":"247","category_name":"餐饮美食","address":"黄浦区人民路388号"},{"poiid":"B2094757D069A7FF4398","title":"城隍珠宝(福佑路店)","lon":"121.49038","lat":"31.22773","category":"131","category_name":"珠宝首饰工艺品","address":"黄浦区丽水路88号城隍珠宝内(近城隍庙)查看地图"},{"poiid":"B2094757D165A3FF4099","title":"四川南路香酥鸡","lon":"121.490683","lat":"31.229918","category":"500","category_name":"未知分类","address":"上海四川南路人民路"},{"poiid":"B2094654DA6EA5F54299","title":"上海福民街小商品市场","lon":"121.49166","lat":"31.228","category":"120","category_name":"小商品市场","address":"黄浦区文昌路10号福佑商厦5楼(近老凤祥银楼)"},{"poiid":"B2094654DB69A0FA4692","title":"可颂坊(金陵店)","lon":"121.49076","lat":"31.23143","category":"112","category_name":"糕饼店","address":"黄浦区金陵东路14号乙(近四川南路口)"},{"poiid":"B2094757D569A1F44992","title":"环北福都商厦","lon":"121.49171278","lat":"31.22910292","category":"249","category_name":"购物服务","address":"人民路399号"},{"poiid":"B2094757D069A0FC499C","title":"东华美钻(丽水路店)","lon":"121.49108","lat":"31.22793","category":"131","category_name":"珠宝首饰工艺品","address":"黄浦区丽水路81号1楼(近福佑路)查看地图"},{"poiid":"B2094757D069A3F4479F","title":"阿四妈","lon":"121.48989107489","lat":"31.23097215007","category":"257","category_name":"中餐厅","address":"黄浦区金陵东路79号(近四川南路)"},{"poiid":"B2094655D26EA1FA4293","title":"避风塘福水缘茶楼","lon":"121.48905","lat":"31.22852","category":"66","category_name":"茶艺馆","address":"福佑路333号2层"},{"poiid":"B2094655D265AAF54293","title":"对外贸易展览馆","lon":"121.49076","lat":"31.23064","category":"183","category_name":"展览馆","address":"黄浦区四川南路38号(四川南路新永安路)"},{"poiid":"B2094654DA6EA5F44398","title":"柳青线(新永安路)","lon":"121.49138","lat":"31.23014","category":"123","category_name":"家具建材市场","address":"新永安路46号"},{"poiid":"B2094654DA6EA5FA4993","title":"上海市商贸旅游学校四川路校区","lon":"121.49089","lat":"31.23075","category":"54","category_name":"职业技术学校","address":"四川南路35"},{"poiid":"B2094750DA6DA7FF4892","title":"均鲜","lon":"121.490104","lat":"31.229932","category":"68","category_name":"快餐厅","address":"黄浦区金陵东路68号(近江西南路)"},{"poiid":"B2094757D06FA1FF4799","title":"豫园","lon":"121.49209476305077","lat":"31.227224682757594","category":"240","category_name":"国家级景点","address":"上海市黄浦区安仁街218号"},{"poiid":"B2094757D165A6FD409E","title":"外滩二十二号","lon":"121.48842638473934","lat":"31.239447501314032","category":"627","category_name":"一般地点标志","address":"上海市黄埔区中山东一路"},{"poiid":"B2094757D06FA6F4449A","title":"城隍庙第一购物中心","lon":"121.490396152","lat":"31.229039814","category":"119","category_name":"商场","address":"黄浦区丽水路88号城隍珠宝内(近城隍庙)"},{"poiid":"B2094753D76FAAFA449C","title":"上海滩国泰旗舰店","lon":"121.466011","lat":"31.216125","category":"249","category_name":"购物服务","address":"淮海中路868号"},{"poiid":"B209475CD564A7F84292","title":"上海滩新天地店","lon":"121.47463","lat":"31.22164","category":"119","category_name":"商场","address":"\"太仓路181弄新天地北里15号\r\n\""},{"poiid":"B209475CD564A7F84392","title":"上海滩浦东香格里拉店","lon":"121.50058","lat":"31.23634","category":"119","category_name":"商场","address":"浦东富成路33号香格里拉酒店内大堂层"},{"poiid":"B2094757D065AAF84892","title":"上海老飯店","lon":"121.490577698","lat":"31.2276554108","category":"75","category_name":"浙江菜","address":"黄浦区福佑路242号"},{"poiid":"B2094654DB6BA4F9449B","title":"豫园老街","lon":"121.49114","lat":"31.22713","category":"116","category_name":"特色商业街","address":"黄浦区福佑路238号豫园内(近河南南路)"},{"poiid":"B2094654DB64AAF44592","title":"哈根达斯豫园店","lon":"121.49119","lat":"31.2269","category":"113","category_name":"冷饮店","address":"黄浦区方浜中路168号豫龙坊1楼L122A号商铺(近昼锦路)"},{"poiid":"B2094757D06FA0F5449B","title":"必胜客(丽水店)","lon":"121.490532","lat":"31.228192","category":"94","category_name":"西餐厅","address":"黄浦区丽水路69号(近福佑路)"},{"poiid":"B2094757D069A2F44693","title":"黄浦江畔","lon":"121.490871","lat":"31.230903","category":"260","category_name":"其他","address":"上海黄浦江畔"},{"poiid":"B2094654DB65AAF4439B","title":"麦当劳(豫园店)","lon":"121.49037","lat":"31.22825","category":"68","category_name":"快餐厅","address":"黄浦区丽水路88号城隍珠宝内(近城隍庙)"},{"poiid":"B2094654DA6EA5F54399","title":"小世界会所","lon":"121.4914","lat":"31.22774","category":"76","category_name":"上海菜","address":"黄浦区福佑路234号豫园3-4楼"},{"poiid":"B2094757D06FA1FA409D","title":"淮海中华大厦","lon":"121.49016706473","lat":"31.231560906818","category":"46","category_name":"楼宇","address":"朝阳华威桥东北角"},{"poiid":"B2094757D06FA4FE499B","title":"亚一金店(城隍庙店)","lon":"121.49034347","lat":"31.2277079844","category":"131","category_name":"珠宝首饰工艺品","address":"黄浦区福佑路288号(福佑路旧校场路)查看地图"},{"poiid":"B2094654DA6EA5F54699","title":"豫园商城","lon":"121.49107","lat":"31.22773","category":"119","category_name":"商场","address":"黄浦区方浜中路269号(近城隍庙豫龙坊)"},{"poiid":"B2094757D164AAF8419B","title":"南翔饅頭店-長兴樓","lon":"121.49004573","lat":"31.22789725","category":"500","category_name":"未知分类","address":"上海城隍廟"},{"poiid":"B2094757D06FA4FB4493","title":"黄浦区业余大学","lon":"121.4913","lat":"31.22992","category":"52","category_name":"高等院校","address":"黄浦区四川南路37号(近金陵东路)"},{"poiid":"B2094757D069A0FC4992","title":"松月楼","lon":"121.49108","lat":"31.22666","category":"89","category_name":"中式素餐馆","address":"黄浦区旧校场路99号(近方浜中路)"},{"poiid":"B2094757D068A2FA4192","title":"肯德基 KFC (豫园店)","lon":"121.491322","lat":"31.227603","category":"68","category_name":"快餐厅","address":"黄浦区福佑路234号豫园商城内(近旧校场路)"},{"poiid":"B2094757D068A7F8429A","title":"老凤祥银楼(福佑路店)","lon":"121.49116","lat":"31.22737","category":"500","category_name":"未知分类","address":"黄浦区福佑路239号1-3楼(近旧校场路)查看地图"},{"poiid":"B2094655D26AABFA469B","title":"上海兴宇大酒店——原东莱大酒店","lon":"121.492","lat":"31.22982","category":"250","category_name":"公园户外","address":"上海市黄浦区人民路386号(永安路口)"},{"poiid":"B2094757D06FA1FA449D","title":"城隍庙小商品市场","lon":"121.49124873","lat":"31.226930229","category":"249","category_name":"购物服务","address":"上海福佑路"},{"poiid":"B2094757D465A5FF4793","title":"小绍兴 丽水路店","lon":"121.490792054","lat":"31.229288793","category":"68","category_name":"快餐厅","address":"黄浦区丽水路1号悦园商厦6楼六纯香美食港内(丽水路四川南路)"},{"poiid":"B2094757D16CA5F84192","title":"福都商厦","lon":"121.49040773","lat":"31.229416282","category":"119","category_name":"商场","address":"黄浦区丽水路(近福佑路)"},{"poiid":"B2094654DA6EA5F4499C","title":"悦园商厦小商品批发市场","lon":"121.49125","lat":"31.22926","category":"120","category_name":"小商品市场","address":"丽水路1"},{"poiid":"B2094757D568A0F5489D","title":"城隍庙香酥鸡摊","lon":"121.4906767","lat":"31.22967639","category":"68","category_name":"快餐厅","address":"黄浦区四川南路80弄(近人民路)"},{"poiid":"B2094757D068ABF8409B","title":"上海滩商厦","lon":"121.492","lat":"31.22937","category":"249","category_name":"购物服务","address":"黄浦区人民路388号(人民路永安路)"},{"poiid":"B2094655D36CA2F9459C","title":"人民路新北门","lon":"121.49162","lat":"31.22949","category":"38","category_name":"公交车站","address":""},{"poiid":"B2094654DB65A7FE4498","title":"巴比馒头 新永安路店 Babi Food","lon":"121.491625054","lat":"31.230168793","category":"68","category_name":"快餐厅","address":"黄浦区新永安路62号(近四川南路)"},{"poiid":"B2094757D069A2F9419C","title":"Horizen Lounge","lon":"121.49230372","lat":"31.230716185","category":"260","category_name":"其他","address":"黄浦区中山东二路12号23楼(近金陵东路)"},{"poiid":"B2094654DA6EA5F44899","title":"帕格尼尼KTV","lon":"121.49114","lat":"31.22978","category":"170","category_name":"KTV","address":"人民路388号"},{"poiid":"B2094654DA6EA4FC4399","title":"沈香阁","lon":"121.48999","lat":"31.22723","category":"244","category_name":"寺庙道观","address":"上海黄浦区沉香阁路29号(近福佑路)"},{"poiid":"B2094757D069A4FD4292","title":"紫锦城珠宝交易中心","lon":"121.490552","lat":"31.228394","category":"131","category_name":"珠宝首饰工艺品","address":"黄浦区丽水路81号2-6楼(上海老饭店对面)"},{"poiid":"B2094753D76AAAF9429C","title":"鹿港小镇（宏伊店）","lon":"121.489372","lat":"31.231023","category":"500","category_name":"未知分类","address":"上海市 山东路"},{"poiid":"B2094655D268ABFE4899","title":"环城商厦","lon":"121.49202","lat":"31.22912","category":"46","category_name":"楼宇","address":""},{"poiid":"B2094654DA6EA5FB4298","title":"天主堂(四川南路)","lon":"121.49021","lat":"31.23067","category":"245","category_name":"教堂","address":"四川南路36"},{"poiid":"B2094655D26AA1F8499D","title":"上海滩商厦停车场","lon":"121.49204","lat":"31.2297","category":"247","category_name":"餐饮美食","address":"黄浦区人民路388号"},{"poiid":"B2094757D069A7FF4398","title":"城隍珠宝(福佑路店)","lon":"121.49038","lat":"31.22773","category":"131","category_name":"珠宝首饰工艺品","address":"黄浦区丽水路88号城隍珠宝内(近城隍庙)查看地图"},{"poiid":"B2094757D165A3FF4099","title":"四川南路香酥鸡","lon":"121.490683","lat":"31.229918","category":"500","category_name":"未知分类","address":"上海四川南路人民路"},{"poiid":"B2094654DA6EA5F54299","title":"上海福民街小商品市场","lon":"121.49166","lat":"31.228","category":"120","category_name":"小商品市场","address":"黄浦区文昌路10号福佑商厦5楼(近老凤祥银楼)"},{"poiid":"B2094654DB69A0FA4692","title":"可颂坊(金陵店)","lon":"121.49076","lat":"31.23143","category":"112","category_name":"糕饼店","address":"黄浦区金陵东路14号乙(近四川南路口)"},{"poiid":"B2094757D569A1F44992","title":"环北福都商厦","lon":"121.49171278","lat":"31.22910292","category":"249","category_name":"购物服务","address":"人民路399号"},{"poiid":"B2094757D069A0FC499C","title":"东华美钻(丽水路店)","lon":"121.49108","lat":"31.22793","category":"131","category_name":"珠宝首饰工艺品","address":"黄浦区丽水路81号1楼(近福佑路)查看地图"},{"poiid":"B2094757D069A3F4479F","title":"阿四妈","lon":"121.48989107489","lat":"31.23097215007","category":"257","category_name":"中餐厅","address":"黄浦区金陵东路79号(近四川南路)"},{"poiid":"B2094655D26EA1FA4293","title":"避风塘福水缘茶楼","lon":"121.48905","lat":"31.22852","category":"66","category_name":"茶艺馆","address":"福佑路333号2层"},{"poiid":"B2094655D265AAF54293","title":"对外贸易展览馆","lon":"121.49076","lat":"31.23064","category":"183","category_name":"展览馆","address":"黄浦区四川南路38号(四川南路新永安路)"},{"poiid":"B2094654DA6EA5F44398","title":"柳青线(新永安路)","lon":"121.49138","lat":"31.23014","category":"123","category_name":"家具建材市场","address":"新永安路46号"},{"poiid":"B2094654DA6EA5FA4993","title":"上海市商贸旅游学校四川路校区","lon":"121.49089","lat":"31.23075","category":"54","category_name":"职业技术学校","address":"四川南路35"},{"poiid":"B2094750DA6DA7FF4892","title":"均鲜","lon":"121.490104","lat":"31.229932","category":"68","category_name":"快餐厅","address":"黄浦区金陵东路68号(近江西南路)"}]