[{"poiid":"B2094654D569A4F4469D","title":"长宁区中心医院","lon":"121.37709335276122","lat":"31.208426558908037","category":"162","category_name":"医院","address":"长宁区仙霞路1111号(近林泉路)"},{"poiid":"B2094757D06FA4FF469C","title":"上海和睦家医院","lon":"121.376266031","lat":"31.208341498","category":"162","category_name":"医院","address":"哈密路442号铭晖商务楼601-604、609"},{"poiid":"B2094757D06BA2FC449E","title":"长宁区中心医院急诊部","lon":"121.377094512","lat":"31.2084245186","category":"162","category_name":"医院","address":"上海长宁区仙霞路1111号(近林泉路)"},{"poiid":"B2094757D06FA7F4499A","title":"柚子林炭火烧肉(仙霞路店)","lon":"121.38361","lat":"31.20748","category":"269","category_name":"烧烤","address":"长宁区威宁路55号(近仙霞路)"},{"poiid":"B2094757D06FA1FE459A","title":"延安中学","lon":"121.37963","lat":"31.20991","category":"55","category_name":"中学","address":"长宁区茅台路1111号(茅台路双流路)"},{"poiid":"B2094757DA6EABF8439F","title":"17.5影院(北虹路店)","lon":"121.37688","lat":"31.214945","category":"178","category_name":"电影院","address":"长宁区北虹路1068号4楼(近2号线北新泾地铁站)"},{"poiid":"B2094757D06AA2FE4999","title":"西郊5号","lon":"121.37692","lat":"31.20522","category":"47","category_name":"住宅区","address":"长宁区虹古路669号(近青溪路西郊宾馆四号门一侧)"},{"poiid":"B2094757D06FA6FC4692","title":"长宁区中心医院住院部","lon":"121.37709529","lat":"31.208426746","category":"162","category_name":"医院","address":"上海市长宁区仙霞路1111号(近林泉路)"},{"poiid":"B2094655D26FA4F84799","title":"上海西郊宾馆东湖公寓酒店","lon":"121.37792","lat":"31.20489","category":"250","category_name":"公园户外","address":"上海市长宁区虹古路619号(近青溪路)"},{"poiid":"B2094757D16DA1FB4892","title":"长中心输液室","lon":"121.37839049","lat":"31.208851247","category":"162","category_name":"医院","address":"上海仙霞路1111"},{"poiid":"B2094757D068AAFF449E","title":"老外街101","lon":"121.38253592","lat":"31.206084875","category":"500","category_name":"未知分类","address":"闵行区虹梅路3338弄(虹梅路华光路)"},{"poiid":"B2094654DB6BA0FC449C","title":"如家快捷酒店(上海虹桥北虹路店)","lon":"121.37634","lat":"31.21165","category":"216","category_name":"经济型连锁酒店","address":"上海市长宁区北虹路1129号(近天山路)"},{"poiid":"B2094757D069A3FA459B","title":"新农庄(仙霞路店)","lon":"121.37434","lat":"31.20749","category":"76","category_name":"上海菜","address":"长宁区仙霞路1181号(林泉路口)"},{"poiid":"B2094654D569A4F4489A","title":"红宝石 仙霞店 Ruby","lon":"121.376869054","lat":"31.208060793","category":"67","category_name":"甜品店","address":"长宁区仙霞路1007号(北虹路与青溪路之间)"},{"poiid":"B2094654D56BA6FC409C","title":"上海市公安局长宁分局","lon":"121.38357","lat":"31.21023","category":"248","category_name":"生活娱乐","address":"威宁路201"},{"poiid":"B2094757D16BA5FF479F","title":"长宁区中心医院特需门诊","lon":"121.375803586","lat":"31.2074649858","category":"162","category_name":"医院","address":"上海市长宁区仙霞路1111号(近林泉路)"},{"poiid":"B2094654D569A4F44898","title":"北虹公寓","lon":"121.3784","lat":"31.208519","category":"47","category_name":"住宅区","address":"仙霞路1001弄1-20号"},{"poiid":"B2094757D069A5F84993","title":"长中心急诊住院处","lon":"121.37756558","lat":"31.208024996","category":"162","category_name":"医院","address":"上海市长宁区仙霞路1111"},{"poiid":"B2094757D76CA1F4479A","title":"来伊份 仙霞路二店","lon":"121.37883","lat":"31.20776","category":"68","category_name":"快餐厅","address":"长宁区仙霞路981号(近北虹路)"},{"poiid":"B2094655D36DA1F4459D","title":"仙霞路威宁路","lon":"121.38266","lat":"31.20742","category":"38","category_name":"公交车站","address":"上海市长宁区仙霞路威宁路"},{"poiid":"B2094654DB6BA7FD4592","title":"天台家园","lon":"121.38205","lat":"31.211514","category":"47","category_name":"住宅区","address":"上海长宁区茅台路900弄,新渔东路455弄"},{"poiid":"B2094654D569A4F4499E","title":"盛海商务","lon":"121.3794","lat":"31.2081","category":"46","category_name":"楼宇","address":"仙霞路953"},{"poiid":"B2094757D464A0F5449B","title":"新德记","lon":"121.3757703963","lat":"31.207665003279","category":"72","category_name":"广东菜","address":"长宁区仙霞路1088弄15号(近青溪路)"},{"poiid":"B2094655D26CA4FF4293","title":"光明便利No.309","lon":"121.37879","lat":"31.20791","category":"117","category_name":"便民商店/便利店","address":""},{"poiid":"B2094654D569A4F44799","title":"快客(仙霞路)","lon":"121.37805","lat":"31.20794","category":"117","category_name":"便民商店/便利店","address":"仙霞路1017"},{"poiid":"B2094757D06BABFE4492","title":"长宁区中心医院住院部三楼内科","lon":"121.37745328","lat":"31.208376403","category":"162","category_name":"医院","address":"上海仙霞路1111号"},{"poiid":"B2094654D569A4F4479B","title":"好上好鲜花水果店","lon":"121.37799","lat":"31.20794","category":"117","category_name":"便民商店/便利店","address":"仙霞路1021"},{"poiid":"B2094757D66DA1FC4193","title":"俊记餐厅","lon":"121.37681","lat":"31.20972","category":"68","category_name":"快餐厅","address":"长宁区林泉路537号(近泉口路)"},{"poiid":"B2094655D36CA5F5429D","title":"北虹路茅台路","lon":"121.37753","lat":"31.21004","category":"38","category_name":"公交车站","address":""},{"poiid":"B2094757D069A5FE489B","title":"长宁区中心医院住院部三楼外科","lon":"121.37738658","lat":"31.208351403","category":"162","category_name":"医院","address":"上海长宁区中心医院住院部三楼外科"},{"poiid":"B2094654D56BA6FC449A","title":"上海市延安中学体育场","lon":"121.38186","lat":"31.20912","category":"224","category_name":"综合体育馆","address":"茅台路999"},{"poiid":"B2094751D569A7F5479C","title":"柚子林碳火烤肉","lon":"121.3769629","lat":"31.2096943","category":"247","category_name":"餐饮美食","address":"威宁路55号"},{"poiid":"B2094757D169A5FA479F","title":"长宁区中心医院多功能厅","lon":"121.37711958","lat":"31.207933895","category":"162","category_name":"医院","address":"上海仙霞路"},{"poiid":"B2094654D569AAFB459D","title":"虹桥绿苑","lon":"121.37956","lat":"31.207151","category":"47","category_name":"住宅区","address":"虹桥绿苑位于长宁青溪路770弄25号"},{"poiid":"B2094757D16BA0FA4999","title":"LOVE HOUSE","lon":"121.378888786","lat":"31.2094562248","category":"500","category_name":"未知分类","address":null},{"poiid":"B2094654D569A4FB4493","title":"佳辰假日酒店","lon":"121.37915","lat":"31.211","category":"250","category_name":"公园户外","address":"长宁区茅台路1006号(近威宁路)"},{"poiid":"B2094655D264A5F4489E","title":"臻记","lon":"121.37582","lat":"31.20762","category":"68","category_name":"快餐厅","address":"长宁区仙霞路1122号(近林泉路)"},{"poiid":"B2094654D569AAFB4592","title":"龙庭公寓","lon":"121.37852","lat":"31.207087","category":"47","category_name":"住宅区","address":"仙霞路1088弄1-21号"},{"poiid":"B2094655D26FA0F5429F","title":"天祥大厦(南一门)","lon":"121.37754","lat":"31.211","category":"46","category_name":"楼宇","address":"茅台路1068号"},{"poiid":"B2094654D569A4F44593","title":"上海市(复旦大学附属)公共卫生临床中心长宁区分中心","lon":"121.37647","lat":"31.20895","category":"162","category_name":"医院","address":""},{"poiid":"B2094655D26CA4F8459F","title":"绿地公寓小区(北门)","lon":"121.37731","lat":"31.20752","category":"47","category_name":"住宅区","address":"仙霞路1118弄1-6号"},{"poiid":"B2094757DA64A0FF4893","title":"うな吉","lon":"121.381205","lat":"31.211706","category":"247","category_name":"餐饮美食","address":"长宁区安龙路695号(近仙霞路)"},{"poiid":"B2094757D66EA2F5489D","title":"东南汽车","lon":"121.377854","lat":"31.208379","category":"500","category_name":"未知分类","address":"上海长宁区仙霞路957号"},{"poiid":"B2094654D569AAFB469F","title":"顶尚美容美发院","lon":"121.37775","lat":"31.20723","category":"148","category_name":"美容美发店","address":"仙霞路1082"},{"poiid":"B2094757D66CA3F94093","title":"长中心","lon":"121.38190458","lat":"31.207291982","category":"500","category_name":"未知分类","address":"上海市长宁区林泉路"},{"poiid":"B2094654D569A4F44493","title":"鑫光商务中心","lon":"121.37648","lat":"31.21008","category":"46","category_name":"楼宇","address":"林泉路537号"},{"poiid":"B2094654D56BA6FD499A","title":"柏仕晶舍","lon":"121.3805007","lat":"31.20672225","category":"47","category_name":"住宅区","address":"柏仕晶舍位于长宁北虹路579号(近仙霞路)"},{"poiid":"B2094757D16EAAF9429D","title":"厦门沙茶面","lon":"121.383235586","lat":"31.2067039709","category":"68","category_name":"快餐厅","address":"长宁区仙霞路792号(近威宁路)"},{"poiid":"B2094757D66EA7F44199","title":"长宁区中心医院六楼手术室","lon":"121.37614508","lat":"31.207882194","category":"162","category_name":"医院","address":"上海仙霞路1111号"},{"poiid":"B2094654D56BA6FD479E","title":"西郊一品花园","lon":"121.37979","lat":"31.205698","category":"47","category_name":"住宅区","address":"上海市长宁区北虹路555弄66号"},{"poiid":"B2094654D569A4F4469D","title":"长宁区中心医院","lon":"121.37709335276122","lat":"31.208426558908037","category":"162","category_name":"医院","address":"长宁区仙霞路1111号(近林泉路)"},{"poiid":"B2094757D06FA4FF469C","title":"上海和睦家医院","lon":"121.376266031","lat":"31.208341498","category":"162","category_name":"医院","address":"哈密路442号铭晖商务楼601-604、609"},{"poiid":"B2094757D06BA2FC449E","title":"长宁区中心医院急诊部","lon":"121.377094512","lat":"31.2084245186","category":"162","category_name":"医院","address":"上海长宁区仙霞路1111号(近林泉路)"},{"poiid":"B2094757D06FA7F4499A","title":"柚子林炭火烧肉(仙霞路店)","lon":"121.38361","lat":"31.20748","category":"269","category_name":"烧烤","address":"长宁区威宁路55号(近仙霞路)"},{"poiid":"B2094757D06FA1FE459A","title":"延安中学","lon":"121.37963","lat":"31.20991","category":"55","category_name":"中学","address":"长宁区茅台路1111号(茅台路双流路)"},{"poiid":"B2094757DA6EABF8439F","title":"17.5影院(北虹路店)","lon":"121.37688","lat":"31.214945","category":"178","category_name":"电影院","address":"长宁区北虹路1068号4楼(近2号线北新泾地铁站)"},{"poiid":"B2094757D06AA2FE4999","title":"西郊5号","lon":"121.37692","lat":"31.20522","category":"47","category_name":"住宅区","address":"长宁区虹古路669号(近青溪路西郊宾馆四号门一侧)"},{"poiid":"B2094757D06FA6FC4692","title":"长宁区中心医院住院部","lon":"121.37709529","lat":"31.208426746","category":"162","category_name":"医院","address":"上海市长宁区仙霞路1111号(近林泉路)"},{"poiid":"B2094655D26FA4F84799","title":"上海西郊宾馆东湖公寓酒店","lon":"121.37792","lat":"31.20489","category":"250","category_name":"公园户外","address":"上海市长宁区虹古路619号(近青溪路)"},{"poiid":"B2094757D16DA1FB4892","title":"长中心输液室","lon":"121.37839049","lat":"31.208851247","category":"162","category_name":"医院","address":"上海仙霞路1111"},{"poiid":"B2094757D068AAFF449E","title":"老外街101","lon":"121.38253592","lat":"31.206084875","category":"500","category_name":"未知分类","address":"闵行区虹梅路3338弄(虹梅路华光路)"},{"poiid":"B2094654DB6BA0FC449C","title":"如家快捷酒店(上海虹桥北虹路店)","lon":"121.37634","lat":"31.21165","category":"216","category_name":"经济型连锁酒店","address":"上海市长宁区北虹路1129号(近天山路)"},{"poiid":"B2094757D069A3FA459B","title":"新农庄(仙霞路店)","lon":"121.37434","lat":"31.20749","category":"76","category_name":"上海菜","address":"长宁区仙霞路1181号(林泉路口)"},{"poiid":"B2094654D569A4F4489A","title":"红宝石 仙霞店 Ruby","lon":"121.376869054","lat":"31.208060793","category":"67","category_name":"甜品店","address":"长宁区仙霞路1007号(北虹路与青溪路之间)"},{"poiid":"B2094654D56BA6FC409C","title":"上海市公安局长宁分局","lon":"121.38357","lat":"31.21023","category":"248","category_name":"生活娱乐","address":"威宁路201"},{"poiid":"B2094757D16BA5FF479F","title":"长宁区中心医院特需门诊","lon":"121.375803586","lat":"31.2074649858","category":"162","category_name":"医院","address":"上海市长宁区仙霞路1111号(近林泉路)"},{"poiid":"B2094654D569A4F44898","title":"北虹公寓","lon":"121.3784","lat":"31.208519","category":"47","category_name":"住宅区","address":"仙霞路1001弄1-20号"},{"poiid":"B2094757D069A5F84993","title":"长中心急诊住院处","lon":"121.37756558","lat":"31.208024996","category":"162","category_name":"医院","address":"上海市长宁区仙霞路1111"},{"poiid":"B2094757D76CA1F4479A","title":"来伊份 仙霞路二店","lon":"121.37883","lat":"31.20776","category":"68","category_name":"快餐厅","address":"长宁区仙霞路981号(近北虹路)"},{"poiid":"B2094655D36DA1F4459D","title":"仙霞路威宁路","lon":"121.38266","lat":"31.20742","category":"38","category_name":"公交车站","address":"上海市长宁区仙霞路威宁路"},{"poiid":"B2094654DB6BA7FD4592","title":"天台家园","lon":"121.38205","lat":"31.211514","category":"47","category_name":"住宅区","address":"上海长宁区茅台路900弄,新渔东路455弄"},{"poiid":"B2094654D569A4F4499E","title":"盛海商务","lon":"121.3794","lat":"31.2081","category":"46","category_name":"楼宇","address":"仙霞路953"},{"poiid":"B2094757D464A0F5449B","title":"新德记","lon":"121.3757703963","lat":"31.207665003279","category":"72","category_name":"广东菜","address":"长宁区仙霞路1088弄15号(近青溪路)"},{"poiid":"B2094655D26CA4FF4293","title":"光明便利No.309","lon":"121.37879","lat":"31.20791","category":"117","category_name":"便民商店/便利店","address":""},{"poiid":"B2094654D569A4F44799","title":"快客(仙霞路)","lon":"121.37805","lat":"31.20794","category":"117","category_name":"便民商店/便利店","address":"仙霞路1017"},{"poiid":"B2094757D06BABFE4492","title":"长宁区中心医院住院部三楼内科","lon":"121.37745328","lat":"31.208376403","category":"162","category_name":"医院","address":"上海仙霞路1111号"},{"poiid":"B2094654D569A4F4479B","title":"好上好鲜花水果店","lon":"121.37799","lat":"31.20794","category":"117","category_name":"便民商店/便利店","address":"仙霞路1021"},{"poiid":"B2094757D66DA1FC4193","title":"俊记餐厅","lon":"121.37681","lat":"31.20972","category":"68","category_name":"快餐厅","address":"长宁区林泉路537号(近泉口路)"},{"poiid":"B2094655D36CA5F5429D","title":"北虹路茅台路","lon":"121.37753","lat":"31.21004","category":"38","category_name":"公交车站","address":""},{"poiid":"B2094757D069A5FE489B","title":"长宁区中心医院住院部三楼外科","lon":"121.37738658","lat":"31.208351403","category":"162","category_name":"医院","address":"上海长宁区中心医院住院部三楼外科"},{"poiid":"B2094654D56BA6FC449A","title":"上海市延安中学体育场","lon":"121.38186","lat":"31.20912","category":"224","category_name":"综合体育馆","address":"茅台路999"},{"poiid":"B2094751D569A7F5479C","title":"柚子林碳火烤肉","lon":"121.3769629","lat":"31.2096943","category":"247","category_name":"餐饮美食","address":"威宁路55号"},{"poiid":"B2094757D169A5FA479F","title":"长宁区中心医院多功能厅","lon":"121.37711958","lat":"31.207933895","category":"162","category_name":"医院","address":"上海仙霞路"},{"poiid":"B2094654D569AAFB459D","title":"虹桥绿苑","lon":"121.37956","lat":"31.207151","category":"47","category_name":"住宅区","address":"虹桥绿苑位于长宁青溪路770弄25号"},{"poiid":"B2094757D16BA0FA4999","title":"LOVE HOUSE","lon":"121.378888786","lat":"31.2094562248","category":"500","category_name":"未知分类","address":null},{"poiid":"B2094654D569A4FB4493","title":"佳辰假日酒店","lon":"121.37915","lat":"31.211","category":"250","category_name":"公园户外","address":"长宁区茅台路1006号(近威宁路)"},{"poiid":"B2094655D264A5F4489E","title":"臻记","lon":"121.37582","lat":"31.20762","category":"68","category_name":"快餐厅","address":"长宁区仙霞路1122号(近林泉路)"},{"poiid":"B2094654D569AAFB4592","title":"龙庭公寓","lon":"121.37852","lat":"31.207087","category":"47","category_name":"住宅区","address":"仙霞路1088弄1-21号"},{"poiid":"B2094655D26FA0F5429F","title":"天祥大厦(南一门)","lon":"121.37754","lat":"31.211","category":"46","category_name":"楼宇","address":"茅台路1068号"},{"poiid":"B2094654D569A4F44593","title":"上海市(复旦大学附属)公共卫生临床中心长宁区分中心","lon":"121.37647","lat":"31.20895","category":"162","category_name":"医院","address":""},{"poiid":"B2094655D26CA4F8459F","title":"绿地公寓小区(北门)","lon":"121.37731","lat":"31.20752","category":"47","category_name":"住宅区","address":"仙霞路1118弄1-6号"},{"poiid":"B2094757DA64A0FF4893","title":"うな吉","lon":"121.381205","lat":"31.211706","category":"247","category_name":"餐饮美食","address":"长宁区安龙路695号(近仙霞路)"},{"poiid":"B2094757D66EA2F5489D","title":"东南汽车","lon":"121.377854","lat":"31.208379","category":"500","category_name":"未知分类","address":"上海长宁区仙霞路957号"},{"poiid":"B2094654D569AAFB469F","title":"顶尚美容美发院","lon":"121.37775","lat":"31.20723","category":"148","category_name":"美容美发店","address":"仙霞路1082"},{"poiid":"B2094757D66CA3F94093","title":"长中心","lon":"121.38190458","lat":"31.207291982","category":"500","category_name":"未知分类","address":"上海市长宁区林泉路"},{"poiid":"B2094654D569A4F44493","title":"鑫光商务中心","lon":"121.37648","lat":"31.21008","category":"46","category_name":"楼宇","address":"林泉路537号"},{"poiid":"B2094654D56BA6FD499A","title":"柏仕晶舍","lon":"121.3805007","lat":"31.20672225","category":"47","category_name":"住宅区","address":"柏仕晶舍位于长宁北虹路579号(近仙霞路)"},{"poiid":"B2094757D16EAAF9429D","title":"厦门沙茶面","lon":"121.383235586","lat":"31.2067039709","category":"68","category_name":"快餐厅","address":"长宁区仙霞路792号(近威宁路)"},{"poiid":"B2094757D66EA7F44199","title":"长宁区中心医院六楼手术室","lon":"121.37614508","lat":"31.207882194","category":"162","category_name":"医院","address":"上海仙霞路1111号"},{"poiid":"B2094654D56BA6FD479E","title":"西郊一品花园","lon":"121.37979","lat":"31.205698","category":"47","category_name":"住宅区","address":"上海市长宁区北虹路555弄66号"},{"poiid":"B2094654D569A4F4469D","title":"长宁区中心医院","lon":"121.37709335276122","lat":"31.208426558908037","category":"162","category_name":"医院","address":"长宁区仙霞路1111号(近林泉路)"},{"poiid":"B2094757D06FA4FF469C","title":"上海和睦家医院","lon":"121.376266031","lat":"31.208341498","category":"162","category_name":"医院","address":"哈密路442号铭晖商务楼601-604、609"},{"poiid":"B2094757D06BA2FC449E","title":"长宁区中心医院急诊部","lon":"121.377094512","lat":"31.2084245186","category":"162","category_name":"医院","address":"上海长宁区仙霞路1111号(近林泉路)"},{"poiid":"B2094757D06FA7F4499A","title":"柚子林炭火烧肉(仙霞路店)","lon":"121.38361","lat":"31.20748","category":"269","category_name":"烧烤","address":"长宁区威宁路55号(近仙霞路)"},{"poiid":"B2094757D06FA1FE459A","title":"延安中学","lon":"121.37963","lat":"31.20991","category":"55","category_name":"中学","address":"长宁区茅台路1111号(茅台路双流路)"},{"poiid":"B2094757DA6EABF8439F","title":"17.5影院(北虹路店)","lon":"121.37688","lat":"31.214945","category":"178","category_name":"电影院","address":"长宁区北虹路1068号4楼(近2号线北新泾地铁站)"},{"poiid":"B2094757D06AA2FE4999","title":"西郊5号","lon":"121.37692","lat":"31.20522","category":"47","category_name":"住宅区","address":"长宁区虹古路669号(近青溪路西郊宾馆四号门一侧)"},{"poiid":"B2094757D06FA6FC4692","title":"长宁区中心医院住院部","lon":"121.37709529","lat":"31.208426746","category":"162","category_name":"医院","address":"上海市长宁区仙霞路1111号(近林泉路)"},{"poiid":"B2094655D26FA4F84799","title":"上海西郊宾馆东湖公寓酒店","lon":"121.37792","lat":"31.20489","category":"250","category_name":"公园户外","address":"上海市长宁区虹古路619号(近青溪路)"},{"poiid":"B2094757D16DA1FB4892","title":"长中心输液室","lon":"121.37839049","lat":"31.208851247","category":"162","category_name":"医院","address":"上海仙霞路1111"},{"poiid":"B2094757D068AAFF449E","title":"老外街101","lon":"121.38253592","lat":"31.206084875","category":"500","category_name":"未知分类","address":"闵行区虹梅路3338弄(虹梅路华光路)"},{"poiid":"B2094654DB6BA0FC449C","title":"如家快捷酒店(上海虹桥北虹路店)","lon":"121.37634","lat":"31.21165","category":"216","category_name":"经济型连锁酒店","address":"上海市长宁区北虹路1129号(近天山路)"},{"poiid":"B2094757D069A3FA459B","title":"新农庄(仙霞路店)","lon":"121.37434","lat":"31.20749","category":"76","category_name":"上海菜","address":"长宁区仙霞路1181号(林泉路口)"},{"poiid":"B2094654D569A4F4489A","title":"红宝石 仙霞店 Ruby","lon":"121.376869054","lat":"31.208060793","category":"67","category_name":"甜品店","address":"长宁区仙霞路1007号(北虹路与青溪路之间)"},{"poiid":"B2094654D56BA6FC409C","title":"上海市公安局长宁分局","lon":"121.38357","lat":"31.21023","category":"248","category_name":"生活娱乐","address":"威宁路201"},{"poiid":"B2094757D16BA5FF479F","title":"长宁区中心医院特需门诊","lon":"121.375803586","lat":"31.2074649858","category":"162","category_name":"医院","address":"上海市长宁区仙霞路1111号(近林泉路)"},{"poiid":"B2094654D569A4F44898","title":"北虹公寓","lon":"121.3784","lat":"31.208519","category":"47","category_name":"住宅区","address":"仙霞路1001弄1-20号"},{"poiid":"B2094757D069A5F84993","title":"长中心急诊住院处","lon":"121.37756558","lat":"31.208024996","category":"162","category_name":"医院","address":"上海市长宁区仙霞路1111"},{"poiid":"B2094757D76CA1F4479A","title":"来伊份 仙霞路二店","lon":"121.37883","lat":"31.20776","category":"68","category_name":"快餐厅","address":"长宁区仙霞路981号(近北虹路)"},{"poiid":"B2094655D36DA1F4459D","title":"仙霞路威宁路","lon":"121.38266","lat":"31.20742","category":"38","category_name":"公交车站","address":"上海市长宁区仙霞路威宁路"},{"poiid":"B2094654DB6BA7FD4592","title":"天台家园","lon":"121.38205","lat":"31.211514","category":"47","category_name":"住宅区","address":"上海长宁区茅台路900弄,新渔东路455弄"},{"poiid":"B2094654D569A4F4499E","title":"盛海商务","lon":"121.3794","lat":"31.2081","category":"46","category_name":"楼宇","address":"仙霞路953"},{"poiid":"B2094757D464A0F5449B","title":"新德记","lon":"121.3757703963","lat":"31.207665003279","category":"72","category_name":"广东菜","address":"长宁区仙霞路1088弄15号(近青溪路)"},{"poiid":"B2094655D26CA4FF4293","title":"光明便利No.309","lon":"121.37879","lat":"31.20791","category":"117","category_name":"便民商店/便利店","address":""},{"poiid":"B2094654D569A4F44799","title":"快客(仙霞路)","lon":"121.37805","lat":"31.20794","category":"117","category_name":"便民商店/便利店","address":"仙霞路1017"},{"poiid":"B2094757D06BABFE4492","title":"长宁区中心医院住院部三楼内科","lon":"121.37745328","lat":"31.208376403","category":"162","category_name":"医院","address":"上海仙霞路1111号"},{"poiid":"B2094654D569A4F4479B","title":"好上好鲜花水果店","lon":"121.37799","lat":"31.20794","category":"117","category_name":"便民商店/便利店","address":"仙霞路1021"},{"poiid":"B2094757D66DA1FC4193","title":"俊记餐厅","lon":"121.37681","lat":"31.20972","category":"68","category_name":"快餐厅","address":"长宁区林泉路537号(近泉口路)"},{"poiid":"B2094655D36CA5F5429D","title":"北虹路茅台路","lon":"121.37753","lat":"31.21004","category":"38","category_name":"公交车站","address":""},{"poiid":"B2094757D069A5FE489B","title":"长宁区中心医院住院部三楼外科","lon":"121.37738658","lat":"31.208351403","category":"162","category_name":"医院","address":"上海长宁区中心医院住院部三楼外科"},{"poiid":"B2094654D56BA6FC449A","title":"上海市延安中学体育场","lon":"121.38186","lat":"31.20912","category":"224","category_name":"综合体育馆","address":"茅台路999"},{"poiid":"B2094751D569A7F5479C","title":"柚子林碳火烤肉","lon":"121.3769629","lat":"31.2096943","category":"247","category_name":"餐饮美食","address":"威宁路55号"},{"poiid":"B2094757D169A5FA479F","title":"长宁区中心医院多功能厅","lon":"121.37711958","lat":"31.207933895","category":"162","category_name":"医院","address":"上海仙霞路"},{"poiid":"B2094654D569AAFB459D","title":"虹桥绿苑","lon":"121.37956","lat":"31.207151","category":"47","category_name":"住宅区","address":"虹桥绿苑位于长宁青溪路770弄25号"},{"poiid":"B2094757D16BA0FA4999","title":"LOVE HOUSE","lon":"121.378888786","lat":"31.2094562248","category":"500","category_name":"未知分类","address":null},{"poiid":"B2094654D569A4FB4493","title":"佳辰假日酒店","lon":"121.37915","lat":"31.211","category":"250","category_name":"公园户外","address":"长宁区茅台路1006号(近威宁路)"},{"poiid":"B2094655D264A5F4489E","title":"臻记","lon":"121.37582","lat":"31.20762","category":"68","category_name":"快餐厅","address":"长宁区仙霞路1122号(近林泉路)"},{"poiid":"B2094654D569AAFB4592","title":"龙庭公寓","lon":"121.37852","lat":"31.207087","category":"47","category_name":"住宅区","address":"仙霞路1088弄1-21号"},{"poiid":"B2094655D26FA0F5429F","title":"天祥大厦(南一门)","lon":"121.37754","lat":"31.211","category":"46","category_name":"楼宇","address":"茅台路1068号"},{"poiid":"B2094654D569A4F44593","title":"上海市(复旦大学附属)公共卫生临床中心长宁区分中心","lon":"121.37647","lat":"31.20895","category":"162","category_name":"医院","address":""},{"poiid":"B2094655D26CA4F8459F","title":"绿地公寓小区(北门)","lon":"121.37731","lat":"31.20752","category":"47","category_name":"住宅区","address":"仙霞路1118弄1-6号"},{"poiid":"B2094757DA64A0FF4893","title":"うな吉","lon":"121.381205","lat":"31.211706","category":"247","category_name":"餐饮美食","address":"长宁区安龙路695号(近仙霞路)"},{"poiid":"B2094757D66EA2F5489D","title":"东南汽车","lon":"121.377854","lat":"31.208379","category":"500","category_name":"未知分类","address":"上海长宁区仙霞路957号"},{"poiid":"B2094654D569AAFB469F","title":"顶尚美容美发院","lon":"121.37775","lat":"31.20723","category":"148","category_name":"美容美发店","address":"仙霞路1082"},{"poiid":"B2094757D66CA3F94093","title":"长中心","lon":"121.38190458","lat":"31.207291982","category":"500","category_name":"未知分类","address":"上海市长宁区林泉路"},{"poiid":"B2094654D569A4F44493","title":"鑫光商务中心","lon":"121.37648","lat":"31.21008","category":"46","category_name":"楼宇","address":"林泉路537号"},{"poiid":"B2094654D56BA6FD499A","title":"柏仕晶舍","lon":"121.3805007","lat":"31.20672225","category":"47","category_name":"住宅区","address":"柏仕晶舍位于长宁北虹路579号(近仙霞路)"},{"poiid":"B2094757D16EAAF9429D","title":"厦门沙茶面","lon":"121.383235586","lat":"31.2067039709","category":"68","category_name":"快餐厅","address":"长宁区仙霞路792号(近威宁路)"},{"poiid":"B2094757D66EA7F44199","title":"长宁区中心医院六楼手术室","lon":"121.37614508","lat":"31.207882194","category":"162","category_name":"医院","address":"上海仙霞路1111号"},{"poiid":"B2094654D56BA6FD479E","title":"西郊一品花园","lon":"121.37979","lat":"31.205698","category":"47","category_name":"住宅区","address":"上海市长宁区北虹路555弄66号"},{"poiid":"B2094654D569A4F4469D","title":"长宁区中心医院","lon":"121.37709335276122","lat":"31.208426558908037","category":"162","category_name":"医院","address":"长宁区仙霞路1111号(近林泉路)"},{"poiid":"B2094757D06FA4FF469C","title":"上海和睦家医院","lon":"121.376266031","lat":"31.208341498","category":"162","category_name":"医院","address":"哈密路442号铭晖商务楼601-604、609"},{"poiid":"B2094757D06BA2FC449E","title":"长宁区中心医院急诊部","lon":"121.377094512","lat":"31.2084245186","category":"162","category_name":"医院","address":"上海长宁区仙霞路1111号(近林泉路)"},{"poiid":"B2094757D06FA7F4499A","title":"柚子林炭火烧肉(仙霞路店)","lon":"121.38361","lat":"31.20748","category":"269","category_name":"烧烤","address":"长宁区威宁路55号(近仙霞路)"},{"poiid":"B2094757D06FA1FE459A","title":"延安中学","lon":"121.37963","lat":"31.20991","category":"55","category_name":"中学","address":"长宁区茅台路1111号(茅台路双流路)"},{"poiid":"B2094757DA6EABF8439F","title":"17.5影院(北虹路店)","lon":"121.37688","lat":"31.214945","category":"178","category_name":"电影院","address":"长宁区北虹路1068号4楼(近2号线北新泾地铁站)"},{"poiid":"B2094757D06AA2FE4999","title":"西郊5号","lon":"121.37692","lat":"31.20522","category":"47","category_name":"住宅区","address":"长宁区虹古路669号(近青溪路西郊宾馆四号门一侧)"},{"poiid":"B2094757D06FA6FC4692","title":"长宁区中心医院住院部","lon":"121.37709529","lat":"31.208426746","category":"162","category_name":"医院","address":"上海市长宁区仙霞路1111号(近林泉路)"},{"poiid":"B2094655D26FA4F84799","title":"上海西郊宾馆东湖公寓酒店","lon":"121.37792","lat":"31.20489","category":"250","category_name":"公园户外","address":"上海市长宁区虹古路619号(近青溪路)"},{"poiid":"B2094757D16DA1FB4892","title":"长中心输液室","lon":"121.37839049","lat":"31.208851247","category":"162","category_name":"医院","address":"上海仙霞路1111"},{"poiid":"B2094757D068AAFF449E","title":"老外街101","lon":"121.38253592","lat":"31.206084875","category":"500","category_name":"未知分类","address":"闵行区虹梅路3338弄(虹梅路华光路)"},{"poiid":"B2094654DB6BA0FC449C","title":"如家快捷酒店(上海虹桥北虹路店)","lon":"121.37634","lat":"31.21165","category":"216","category_name":"经济型连锁酒店","address":"上海市长宁区北虹路1129号(近天山路)"},{"poiid":"B2094757D069A3FA459B","title":"新农庄(仙霞路店)","lon":"121.37434","lat":"31.20749","category":"76","category_name":"上海菜","address":"长宁区仙霞路1181号(林泉路口)"},{"poiid":"B2094654D569A4F4489A","title":"红宝石 仙霞店 Ruby","lon":"121.376869054","lat":"31.208060793","category":"67","category_name":"甜品店","address":"长宁区仙霞路1007号(北虹路与青溪路之间)"},{"poiid":"B2094654D56BA6FC409C","title":"上海市公安局长宁分局","lon":"121.38357","lat":"31.21023","category":"248","category_name":"生活娱乐","address":"威宁路201"},{"poiid":"B2094757D16BA5FF479F","title":"长宁区中心医院特需门诊","lon":"121.375803586","lat":"31.2074649858","category":"162","category_name":"医院","address":"上海市长宁区仙霞路1111号(近林泉路)"},{"poiid":"B2094654D569A4F44898","title":"北虹公寓","lon":"121.3784","lat":"31.208519","category":"47","category_name":"住宅区","address":"仙霞路1001弄1-20号"},{"poiid":"B2094757D069A5F84993","title":"长中心急诊住院处","lon":"121.37756558","lat":"31.208024996","category":"162","category_name":"医院","address":"上海市长宁区仙霞路1111"},{"poiid":"B2094757D76CA1F4479A","title":"来伊份 仙霞路二店","lon":"121.37883","lat":"31.20776","category":"68","category_name":"快餐厅","address":"长宁区仙霞路981号(近北虹路)"},{"poiid":"B2094655D36DA1F4459D","title":"仙霞路威宁路","lon":"121.38266","lat":"31.20742","category":"38","category_name":"公交车站","address":"上海市长宁区仙霞路威宁路"},{"poiid":"B2094654DB6BA7FD4592","title":"天台家园","lon":"121.38205","lat":"31.211514","category":"47","category_name":"住宅区","address":"上海长宁区茅台路900弄,新渔东路455弄"},{"poiid":"B2094654D569A4F4499E","title":"盛海商务","lon":"121.3794","lat":"31.2081","category":"46","category_name":"楼宇","address":"仙霞路953"},{"poiid":"B2094757D464A0F5449B","title":"新德记","lon":"121.3757703963","lat":"31.207665003279","category":"72","category_name":"广东菜","address":"长宁区仙霞路1088弄15号(近青溪路)"},{"poiid":"B2094655D26CA4FF4293","title":"光明便利No.309","lon":"121.37879","lat":"31.20791","category":"117","category_name":"便民商店/便利店","address":""},{"poiid":"B2094654D569A4F44799","title":"快客(仙霞路)","lon":"121.37805","lat":"31.20794","category":"117","category_name":"便民商店/便利店","address":"仙霞路1017"},{"poiid":"B2094757D06BABFE4492","title":"长宁区中心医院住院部三楼内科","lon":"121.37745328","lat":"31.208376403","category":"162","category_name":"医院","address":"上海仙霞路1111号"},{"poiid":"B2094654D569A4F4479B","title":"好上好鲜花水果店","lon":"121.37799","lat":"31.20794","category":"117","category_name":"便民商店/便利店","address":"仙霞路1021"},{"poiid":"B2094757D66DA1FC4193","title":"俊记餐厅","lon":"121.37681","lat":"31.20972","category":"68","category_name":"快餐厅","address":"长宁区林泉路537号(近泉口路)"},{"poiid":"B2094655D36CA5F5429D","title":"北虹路茅台路","lon":"121.37753","lat":"31.21004","category":"38","category_name":"公交车站","address":""},{"poiid":"B2094757D069A5FE489B","title":"长宁区中心医院住院部三楼外科","lon":"121.37738658","lat":"31.208351403","category":"162","category_name":"医院","address":"上海长宁区中心医院住院部三楼外科"},{"poiid":"B2094654D56BA6FC449A","title":"上海市延安中学体育场","lon":"121.38186","lat":"31.20912","category":"224","category_name":"综合体育馆","address":"茅台路999"},{"poiid":"B2094751D569A7F5479C","title":"柚子林碳火烤肉","lon":"121.3769629","lat":"31.2096943","category":"247","category_name":"餐饮美食","address":"威宁路55号"},{"poiid":"B2094757D169A5FA479F","title":"长宁区中心医院多功能厅","lon":"121.37711958","lat":"31.207933895","category":"162","category_name":"医院","address":"上海仙霞路"},{"poiid":"B2094654D569AAFB459D","title":"虹桥绿苑","lon":"121.37956","lat":"31.207151","category":"47","category_name":"住宅区","address":"虹桥绿苑位于长宁青溪路770弄25号"},{"poiid":"B2094757D16BA0FA4999","title":"LOVE HOUSE","lon":"121.378888786","lat":"31.2094562248","category":"500","category_name":"未知分类","address":null},{"poiid":"B2094654D569A4FB4493","title":"佳辰假日酒店","lon":"121.37915","lat":"31.211","category":"250","category_name":"公园户外","address":"长宁区茅台路1006号(近威宁路)"},{"poiid":"B2094655D264A5F4489E","title":"臻记","lon":"121.37582","lat":"31.20762","category":"68","category_name":"快餐厅","address":"长宁区仙霞路1122号(近林泉路)"},{"poiid":"B2094654D569AAFB4592","title":"龙庭公寓","lon":"121.37852","lat":"31.207087","category":"47","category_name":"住宅区","address":"仙霞路1088弄1-21号"},{"poiid":"B2094655D26FA0F5429F","title":"天祥大厦(南一门)","lon":"121.37754","lat":"31.211","category":"46","category_name":"楼宇","address":"茅台路1068号"},{"poiid":"B2094654D569A4F44593","title":"上海市(复旦大学附属)公共卫生临床中心长宁区分中心","lon":"121.37647","lat":"31.20895","category":"162","category_name":"医院","address":""},{"poiid":"B2094655D26CA4F8459F","title":"绿地公寓小区(北门)","lon":"121.37731","lat":"31.20752","category":"47","category_name":"住宅区","address":"仙霞路1118弄1-6号"},{"poiid":"B2094757DA64A0FF4893","title":"うな吉","lon":"121.381205","lat":"31.211706","category":"247","category_name":"餐饮美食","address":"长宁区安龙路695号(近仙霞路)"},{"poiid":"B2094757D66EA2F5489D","title":"东南汽车","lon":"121.377854","lat":"31.208379","category":"500","category_name":"未知分类","address":"上海长宁区仙霞路957号"},{"poiid":"B2094654D569AAFB469F","title":"顶尚美容美发院","lon":"121.37775","lat":"31.20723","category":"148","category_name":"美容美发店","address":"仙霞路1082"},{"poiid":"B2094757D66CA3F94093","title":"长中心","lon":"121.38190458","lat":"31.207291982","category":"500","category_name":"未知分类","address":"上海市长宁区林泉路"},{"poiid":"B2094654D569A4F44493","title":"鑫光商务中心","lon":"121.37648","lat":"31.21008","category":"46","category_name":"楼宇","address":"林泉路537号"},{"poiid":"B2094654D56BA6FD499A","title":"柏仕晶舍","lon":"121.3805007","lat":"31.20672225","category":"47","category_name":"住宅区","address":"柏仕晶舍位于长宁北虹路579号(近仙霞路)"},{"poiid":"B2094757D16EAAF9429D","title":"厦门沙茶面","lon":"121.383235586","lat":"31.2067039709","category":"68","category_name":"快餐厅","address":"长宁区仙霞路792号(近威宁路)"},{"poiid":"B2094757D66EA7F44199","title":"长宁区中心医院六楼手术室","lon":"121.37614508","lat":"31.207882194","category":"162","category_name":"医院","address":"上海仙霞路1111号"},{"poiid":"B2094654D56BA6FD479E","title":"西郊一品花园","lon":"121.37979","lat":"31.205698","category":"47","category_name":"住宅区","address":"上海市长宁区北虹路555弄66号"}]