[{"poiid":"B2094757D068A6F8469A","title":"婚姻登记处(黄浦区登记处)","lon":"121.49044443","lat":"31.214748925","category":"46","category_name":"楼宇","address":"黄浦区中华路1011号(近学前街)查看地图"},{"poiid":"B2094757D06FA7F8449D","title":"中西医结合医院(黄家路分院)","lon":"121.49420315","lat":"31.216321354","category":"162","category_name":"医院","address":"上海黄浦区黄家路163号(近光启南路)"},{"poiid":"B2094757D068A3FB469B","title":"明日星城","lon":"121.49450701","lat":"31.214300838","category":"500","category_name":"未知分类","address":"河南南路1009弄3-11号"},{"poiid":"B2094753D76FAAFA449C","title":"上海滩国泰旗舰店","lon":"121.466011","lat":"31.216125","category":"249","category_name":"购物服务","address":"淮海中路868号"},{"poiid":"B209475CD564A7F84292","title":"上海滩新天地店","lon":"121.47463","lat":"31.22164","category":"119","category_name":"商场","address":"\"太仓路181弄新天地北里15号\r\n\""},{"poiid":"B209475CD564A7F84392","title":"上海滩浦东香格里拉店","lon":"121.50058","lat":"31.23634","category":"119","category_name":"商场","address":"浦东富成路33号香格里拉酒店内大堂层"},{"poiid":"B2094757D069AAF54499","title":"河南南路蓬莱路路口","lon":"121.492031","lat":"31.217954","category":"500","category_name":"未知分类","address":"上海黄浦区河南南路蓬莱路路口"},{"poiid":"B2094654DB69A6FC469F","title":"南浦大桥","lon":"121.4933","lat":"31.21249","category":"250","category_name":"公园户外","address":"浦东新区南码头之间"},{"poiid":"B2094655D26FA4FA449E","title":"上海商业会计学校北门(陆家浜路)","lon":"121.49092","lat":"31.21225","category":"54","category_name":"职业技术学校","address":"陆家浜路804弄25"},{"poiid":"B2094757D168A6FD499E","title":"蓬萊路","lon":"121.49024373","lat":"31.217709033","category":"500","category_name":"未知分类","address":"上海市黄浦區蓬萊路"},{"poiid":"B2094654DA6EA0F4469F","title":"上海市工商行政管理局黄浦分局","lon":"121.49203","lat":"31.21602","category":"250","category_name":"公园户外","address":"上海河南南路800号"},{"poiid":"B2094757D068A7F4429D","title":"南开大厦","lon":"121.49065","lat":"31.217077","category":"46","category_name":"楼宇","address":"浦东新区金湘路225弄"},{"poiid":"B2094655D268A4F54493","title":"黄浦区敬业游泳馆","lon":"121.49069","lat":"31.21562","category":"231","category_name":"游泳馆","address":"黄浦区尚文路183号(尚文路迎勋北路)"},{"poiid":"B2094757D069A2F4419B","title":"园林大厦","lon":"121.48939228085","lat":"31.215035569363","category":"46","category_name":"楼宇","address":"北一环与亳州路交叉口(庐阳区政府对面)"},{"poiid":"B2094757D069A4FD499B","title":"燕山楼烧烤","lon":"121.49052","lat":"31.21522","category":"68","category_name":"快餐厅","address":"黄浦区黄家阙路180号(近中华路)"},{"poiid":"B2094655D26FABF5429E","title":"明日星城一期","lon":"121.49416","lat":"31.2136","category":"47","category_name":"住宅区","address":"上海市黄浦区河南南路1号"},{"poiid":"B2094750DA6CABF5409B","title":"翔鹰十三香小龙虾","lon":"121.491477","lat":"31.215105","category":"247","category_name":"餐饮美食","address":"陆家浜路大兴街3号"},{"poiid":"B2094757D169ABF44898","title":"黄浦区工商局","lon":"121.491909738","lat":"31.2159349955","category":"500","category_name":"未知分类","address":"上海河南南路800号"},{"poiid":"B2094757D468A5FB469C","title":"阿平面馆","lon":"121.49074","lat":"31.21517","category":"68","category_name":"快餐厅","address":"黄浦区尚文路243号(近中华路)"},{"poiid":"B2094654DA6EA0FD479A","title":"上海市中心图书馆黄浦第二分馆","lon":"121.49108","lat":"31.21451","category":"181","category_name":"图书馆","address":"中华路990号老西门社区文化活动中心"},{"poiid":"B2094751D26EA2FF4799","title":"好面道--大肠面","lon":"121.493088","lat":"31.215195","category":"68","category_name":"快餐厅","address":"黄浦区中华路926号(近河南南路)"},{"poiid":"B2094654DA6EA7FD439D","title":"申升公寓","lon":"121.4928","lat":"31.215782","category":"47","category_name":"住宅区","address":"申升公寓位于卢湾河南南路737号"},{"poiid":"B2094757D16FA1F8489E","title":"敬业初级中学","lon":"121.492916","lat":"31.216386","category":"55","category_name":"中学","address":"上海黄浦区尚文路73号"},{"poiid":"B2094655D26AA7F54092","title":"黄浦区第二图书馆","lon":"121.49108","lat":"31.21451","category":"247","category_name":"餐饮美食","address":"黄浦区中华路990号(迎勋路中华路)"},{"poiid":"B2094655D26CA4FB469E","title":"龙门邨尚文路","lon":"121.49147","lat":"31.21576","category":"47","category_name":"住宅区","address":""},{"poiid":"B2094655D268A1F9479B","title":"文富里","lon":"121.49156","lat":"31.21543","category":"47","category_name":"住宅区","address":"尚文路138弄1-6号"},{"poiid":"B2094757D66AA6F94398","title":"黄浦象山海鲜馆","lon":"121.48920434293","lat":"31.214798295002","category":"75","category_name":"浙江菜","address":"黄浦区中华路1117号(近尚文路)"},{"poiid":"B2094654DA6EA7FC499D","title":"西贝造型","lon":"121.49409","lat":"31.21407","category":"148","category_name":"美容美发店","address":"黄浦区东江阴街26号(近跨龙路)"},{"poiid":"B2094655D268A1F94798","title":"文富里(北门)","lon":"121.49152","lat":"31.21557","category":"47","category_name":"住宅区","address":"尚文路138弄1-6号"},{"poiid":"B2094654DA68A0FA489B","title":"龙悦大厦","lon":"121.491283","lat":"31.213294","category":"46","category_name":"楼宇","address":"越秀区环市东路362-366号"},{"poiid":"B2094757D06AABFB489D","title":"明日星城二期","lon":"121.49499","lat":"31.214718","category":"500","category_name":"未知分类","address":"上海市黄浦区中华路868弄"},{"poiid":"B2094750D665ABF4449D","title":"江阴街排档","lon":"121.494","lat":"31.2154","category":"76","category_name":"上海菜","address":"黄浦区江阴街"},{"poiid":"B2094757D064A6F9449F","title":"明日星城会所游泳馆","lon":"121.49261","lat":"31.21471","category":"220","category_name":"运动场所","address":"黄浦区河南南路1009号(近陆家浜路)"},{"poiid":"B2094654DA6EA0F4469D","title":"龙门邨","lon":"121.4912","lat":"31.2164","category":"47","category_name":"住宅区","address":"上海尚文路133弄"},{"poiid":"B2094752D76AA6F94993","title":"地铁9号线世纪大道站","lon":"121.492628","lat":"31.214664","category":"627","category_name":"一般地点标志","address":null},{"poiid":"B2094757D06FABF4429D","title":"宾利特健身会所","lon":"121.49351","lat":"31.21349","category":"221","category_name":"健身中心","address":"黄浦区河南南路1001弄(河南南路陆家浜后街)"},{"poiid":"B2094654DB69A6FE459D","title":"中华东泼","lon":"121.49094","lat":"31.21534","category":"47","category_name":"住宅区","address":"黄浦区尚文路168-198号"},{"poiid":"B2094654DA6EA0F5419F","title":"大成艺校","lon":"121.49036","lat":"31.21545","category":"54","category_name":"职业技术学校","address":"尚文路185号平利大厦B楼7层"},{"poiid":"B2094654DA68A0F54692","title":"银南大厦","lon":"121.493","lat":"31.2169","category":"46","category_name":"楼宇","address":"西藏南路1090弄1-2号"},{"poiid":"B2094751DA6EA6FE409A","title":"上海体育场","lon":"121.4908603","lat":"31.2169628","category":"500","category_name":"未知分类","address":null},{"poiid":"B2094757D16FA1F94992","title":"全家超市","lon":"121.493131098","lat":"31.2145596162","category":"118","category_name":"超级市场","address":"上海河南南路1002号"},{"poiid":"B2094654DA6EA7FD4398","title":"光明乳业尚文配送站","lon":"121.49309","lat":"31.21597","category":"117","category_name":"便民商店/便利店","address":"尚文路36"},{"poiid":"B2094654DB6BA4FF429C","title":"平利大厦B幢","lon":"121.49035","lat":"31.21545","category":"46","category_name":"楼宇","address":"尚文路185号"},{"poiid":"B2094750D06DAAF5459D","title":"中国工商银行ATM机","lon":"121.492","lat":"31.215","category":"152","category_name":"ATM","address":"中华路支行"},{"poiid":"B2094654DB6BABF9409B","title":"协作大厦","lon":"121.493373","lat":"31.212919","category":"46","category_name":"楼宇","address":"黄浦区西藏南路1332号"},{"poiid":"B2094757D469A2FE449B","title":"普明面馆 黄家路店","lon":"121.494090054","lat":"31.216242793","category":"68","category_name":"快餐厅","address":"黄浦区黄家路195号(近光启南路)"},{"poiid":"B2094655D264A0F54498","title":"中华东波小区","lon":"121.49065","lat":"31.2149","category":"47","category_name":"住宅区","address":"尚文路168"},{"poiid":"B2094752D469A5F94699","title":"上海市宝山区","lon":"121.4928731","lat":"31.2147555","category":"500","category_name":"未知分类","address":null},{"poiid":"B2094757D568A0F4489D","title":"全家便利店(学前街)","lon":"121.49004313","lat":"31.21533908","category":"117","category_name":"便民商店/便利店","address":"尚文路191号"},{"poiid":"B2094655D265A7F5409A","title":"庙街礼品服饰商厦","lon":"121.48966","lat":"31.2147","category":"119","category_name":"商场","address":"黄浦中华路1051号"},{"poiid":"B2094757D068A6F8469A","title":"婚姻登记处(黄浦区登记处)","lon":"121.49044443","lat":"31.214748925","category":"46","category_name":"楼宇","address":"黄浦区中华路1011号(近学前街)查看地图"},{"poiid":"B2094757D06FA7F8449D","title":"中西医结合医院(黄家路分院)","lon":"121.49420315","lat":"31.216321354","category":"162","category_name":"医院","address":"上海黄浦区黄家路163号(近光启南路)"},{"poiid":"B2094757D068A3FB469B","title":"明日星城","lon":"121.49450701","lat":"31.214300838","category":"500","category_name":"未知分类","address":"河南南路1009弄3-11号"},{"poiid":"B2094753D76FAAFA449C","title":"上海滩国泰旗舰店","lon":"121.466011","lat":"31.216125","category":"249","category_name":"购物服务","address":"淮海中路868号"},{"poiid":"B209475CD564A7F84292","title":"上海滩新天地店","lon":"121.47463","lat":"31.22164","category":"119","category_name":"商场","address":"\"太仓路181弄新天地北里15号\r\n\""},{"poiid":"B209475CD564A7F84392","title":"上海滩浦东香格里拉店","lon":"121.50058","lat":"31.23634","category":"119","category_name":"商场","address":"浦东富成路33号香格里拉酒店内大堂层"},{"poiid":"B2094757D069AAF54499","title":"河南南路蓬莱路路口","lon":"121.492031","lat":"31.217954","category":"500","category_name":"未知分类","address":"上海黄浦区河南南路蓬莱路路口"},{"poiid":"B2094654DB69A6FC469F","title":"南浦大桥","lon":"121.4933","lat":"31.21249","category":"250","category_name":"公园户外","address":"浦东新区南码头之间"},{"poiid":"B2094655D26FA4FA449E","title":"上海商业会计学校北门(陆家浜路)","lon":"121.49092","lat":"31.21225","category":"54","category_name":"职业技术学校","address":"陆家浜路804弄25"},{"poiid":"B2094757D168A6FD499E","title":"蓬萊路","lon":"121.49024373","lat":"31.217709033","category":"500","category_name":"未知分类","address":"上海市黄浦區蓬萊路"},{"poiid":"B2094654DA6EA0F4469F","title":"上海市工商行政管理局黄浦分局","lon":"121.49203","lat":"31.21602","category":"250","category_name":"公园户外","address":"上海河南南路800号"},{"poiid":"B2094757D068A7F4429D","title":"南开大厦","lon":"121.49065","lat":"31.217077","category":"46","category_name":"楼宇","address":"浦东新区金湘路225弄"},{"poiid":"B2094655D268A4F54493","title":"黄浦区敬业游泳馆","lon":"121.49069","lat":"31.21562","category":"231","category_name":"游泳馆","address":"黄浦区尚文路183号(尚文路迎勋北路)"},{"poiid":"B2094757D069A2F4419B","title":"园林大厦","lon":"121.48939228085","lat":"31.215035569363","category":"46","category_name":"楼宇","address":"北一环与亳州路交叉口(庐阳区政府对面)"},{"poiid":"B2094757D069A4FD499B","title":"燕山楼烧烤","lon":"121.49052","lat":"31.21522","category":"68","category_name":"快餐厅","address":"黄浦区黄家阙路180号(近中华路)"},{"poiid":"B2094655D26FABF5429E","title":"明日星城一期","lon":"121.49416","lat":"31.2136","category":"47","category_name":"住宅区","address":"上海市黄浦区河南南路1号"},{"poiid":"B2094750DA6CABF5409B","title":"翔鹰十三香小龙虾","lon":"121.491477","lat":"31.215105","category":"247","category_name":"餐饮美食","address":"陆家浜路大兴街3号"},{"poiid":"B2094757D169ABF44898","title":"黄浦区工商局","lon":"121.491909738","lat":"31.2159349955","category":"500","category_name":"未知分类","address":"上海河南南路800号"},{"poiid":"B2094757D468A5FB469C","title":"阿平面馆","lon":"121.49074","lat":"31.21517","category":"68","category_name":"快餐厅","address":"黄浦区尚文路243号(近中华路)"},{"poiid":"B2094654DA6EA0FD479A","title":"上海市中心图书馆黄浦第二分馆","lon":"121.49108","lat":"31.21451","category":"181","category_name":"图书馆","address":"中华路990号老西门社区文化活动中心"},{"poiid":"B2094751D26EA2FF4799","title":"好面道--大肠面","lon":"121.493088","lat":"31.215195","category":"68","category_name":"快餐厅","address":"黄浦区中华路926号(近河南南路)"},{"poiid":"B2094654DA6EA7FD439D","title":"申升公寓","lon":"121.4928","lat":"31.215782","category":"47","category_name":"住宅区","address":"申升公寓位于卢湾河南南路737号"},{"poiid":"B2094757D16FA1F8489E","title":"敬业初级中学","lon":"121.492916","lat":"31.216386","category":"55","category_name":"中学","address":"上海黄浦区尚文路73号"},{"poiid":"B2094655D26AA7F54092","title":"黄浦区第二图书馆","lon":"121.49108","lat":"31.21451","category":"247","category_name":"餐饮美食","address":"黄浦区中华路990号(迎勋路中华路)"},{"poiid":"B2094655D26CA4FB469E","title":"龙门邨尚文路","lon":"121.49147","lat":"31.21576","category":"47","category_name":"住宅区","address":""},{"poiid":"B2094655D268A1F9479B","title":"文富里","lon":"121.49156","lat":"31.21543","category":"47","category_name":"住宅区","address":"尚文路138弄1-6号"},{"poiid":"B2094757D66AA6F94398","title":"黄浦象山海鲜馆","lon":"121.48920434293","lat":"31.214798295002","category":"75","category_name":"浙江菜","address":"黄浦区中华路1117号(近尚文路)"},{"poiid":"B2094654DA6EA7FC499D","title":"西贝造型","lon":"121.49409","lat":"31.21407","category":"148","category_name":"美容美发店","address":"黄浦区东江阴街26号(近跨龙路)"},{"poiid":"B2094655D268A1F94798","title":"文富里(北门)","lon":"121.49152","lat":"31.21557","category":"47","category_name":"住宅区","address":"尚文路138弄1-6号"},{"poiid":"B2094654DA68A0FA489B","title":"龙悦大厦","lon":"121.491283","lat":"31.213294","category":"46","category_name":"楼宇","address":"越秀区环市东路362-366号"},{"poiid":"B2094757D06AABFB489D","title":"明日星城二期","lon":"121.49499","lat":"31.214718","category":"500","category_name":"未知分类","address":"上海市黄浦区中华路868弄"},{"poiid":"B2094750D665ABF4449D","title":"江阴街排档","lon":"121.494","lat":"31.2154","category":"76","category_name":"上海菜","address":"黄浦区江阴街"},{"poiid":"B2094757D064A6F9449F","title":"明日星城会所游泳馆","lon":"121.49261","lat":"31.21471","category":"220","category_name":"运动场所","address":"黄浦区河南南路1009号(近陆家浜路)"},{"poiid":"B2094654DA6EA0F4469D","title":"龙门邨","lon":"121.4912","lat":"31.2164","category":"47","category_name":"住宅区","address":"上海尚文路133弄"},{"poiid":"B2094752D76AA6F94993","title":"地铁9号线世纪大道站","lon":"121.492628","lat":"31.214664","category":"627","category_name":"一般地点标志","address":null},{"poiid":"B2094757D06FABF4429D","title":"宾利特健身会所","lon":"121.49351","lat":"31.21349","category":"221","category_name":"健身中心","address":"黄浦区河南南路1001弄(河南南路陆家浜后街)"},{"poiid":"B2094654DB69A6FE459D","title":"中华东泼","lon":"121.49094","lat":"31.21534","category":"47","category_name":"住宅区","address":"黄浦区尚文路168-198号"},{"poiid":"B2094654DA6EA0F5419F","title":"大成艺校","lon":"121.49036","lat":"31.21545","category":"54","category_name":"职业技术学校","address":"尚文路185号平利大厦B楼7层"},{"poiid":"B2094654DA68A0F54692","title":"银南大厦","lon":"121.493","lat":"31.2169","category":"46","category_name":"楼宇","address":"西藏南路1090弄1-2号"},{"poiid":"B2094751DA6EA6FE409A","title":"上海体育场","lon":"121.4908603","lat":"31.2169628","category":"500","category_name":"未知分类","address":null},{"poiid":"B2094757D16FA1F94992","title":"全家超市","lon":"121.493131098","lat":"31.2145596162","category":"118","category_name":"超级市场","address":"上海河南南路1002号"},{"poiid":"B2094654DA6EA7FD4398","title":"光明乳业尚文配送站","lon":"121.49309","lat":"31.21597","category":"117","category_name":"便民商店/便利店","address":"尚文路36"},{"poiid":"B2094654DB6BA4FF429C","title":"平利大厦B幢","lon":"121.49035","lat":"31.21545","category":"46","category_name":"楼宇","address":"尚文路185号"},{"poiid":"B2094750D06DAAF5459D","title":"中国工商银行ATM机","lon":"121.492","lat":"31.215","category":"152","category_name":"ATM","address":"中华路支行"},{"poiid":"B2094654DB6BABF9409B","title":"协作大厦","lon":"121.493373","lat":"31.212919","category":"46","category_name":"楼宇","address":"黄浦区西藏南路1332号"},{"poiid":"B2094757D469A2FE449B","title":"普明面馆 黄家路店","lon":"121.494090054","lat":"31.216242793","category":"68","category_name":"快餐厅","address":"黄浦区黄家路195号(近光启南路)"},{"poiid":"B2094655D264A0F54498","title":"中华东波小区","lon":"121.49065","lat":"31.2149","category":"47","category_name":"住宅区","address":"尚文路168"},{"poiid":"B2094752D469A5F94699","title":"上海市宝山区","lon":"121.4928731","lat":"31.2147555","category":"500","category_name":"未知分类","address":null},{"poiid":"B2094757D568A0F4489D","title":"全家便利店(学前街)","lon":"121.49004313","lat":"31.21533908","category":"117","category_name":"便民商店/便利店","address":"尚文路191号"},{"poiid":"B2094655D265A7F5409A","title":"庙街礼品服饰商厦","lon":"121.48966","lat":"31.2147","category":"119","category_name":"商场","address":"黄浦中华路1051号"},{"poiid":"B2094757D068A6F8469A","title":"婚姻登记处(黄浦区登记处)","lon":"121.49044443","lat":"31.214748925","category":"46","category_name":"楼宇","address":"黄浦区中华路1011号(近学前街)查看地图"},{"poiid":"B2094757D06FA7F8449D","title":"中西医结合医院(黄家路分院)","lon":"121.49420315","lat":"31.216321354","category":"162","category_name":"医院","address":"上海黄浦区黄家路163号(近光启南路)"},{"poiid":"B2094757D068A3FB469B","title":"明日星城","lon":"121.49450701","lat":"31.214300838","category":"500","category_name":"未知分类","address":"河南南路1009弄3-11号"},{"poiid":"B2094753D76FAAFA449C","title":"上海滩国泰旗舰店","lon":"121.466011","lat":"31.216125","category":"249","category_name":"购物服务","address":"淮海中路868号"},{"poiid":"B209475CD564A7F84292","title":"上海滩新天地店","lon":"121.47463","lat":"31.22164","category":"119","category_name":"商场","address":"\"太仓路181弄新天地北里15号\r\n\""},{"poiid":"B209475CD564A7F84392","title":"上海滩浦东香格里拉店","lon":"121.50058","lat":"31.23634","category":"119","category_name":"商场","address":"浦东富成路33号香格里拉酒店内大堂层"},{"poiid":"B2094757D069AAF54499","title":"河南南路蓬莱路路口","lon":"121.492031","lat":"31.217954","category":"500","category_name":"未知分类","address":"上海黄浦区河南南路蓬莱路路口"},{"poiid":"B2094654DB69A6FC469F","title":"南浦大桥","lon":"121.4933","lat":"31.21249","category":"250","category_name":"公园户外","address":"浦东新区南码头之间"},{"poiid":"B2094655D26FA4FA449E","title":"上海商业会计学校北门(陆家浜路)","lon":"121.49092","lat":"31.21225","category":"54","category_name":"职业技术学校","address":"陆家浜路804弄25"},{"poiid":"B2094757D168A6FD499E","title":"蓬萊路","lon":"121.49024373","lat":"31.217709033","category":"500","category_name":"未知分类","address":"上海市黄浦區蓬萊路"},{"poiid":"B2094654DA6EA0F4469F","title":"上海市工商行政管理局黄浦分局","lon":"121.49203","lat":"31.21602","category":"250","category_name":"公园户外","address":"上海河南南路800号"},{"poiid":"B2094757D068A7F4429D","title":"南开大厦","lon":"121.49065","lat":"31.217077","category":"46","category_name":"楼宇","address":"浦东新区金湘路225弄"},{"poiid":"B2094655D268A4F54493","title":"黄浦区敬业游泳馆","lon":"121.49069","lat":"31.21562","category":"231","category_name":"游泳馆","address":"黄浦区尚文路183号(尚文路迎勋北路)"},{"poiid":"B2094757D069A2F4419B","title":"园林大厦","lon":"121.48939228085","lat":"31.215035569363","category":"46","category_name":"楼宇","address":"北一环与亳州路交叉口(庐阳区政府对面)"},{"poiid":"B2094757D069A4FD499B","title":"燕山楼烧烤","lon":"121.49052","lat":"31.21522","category":"68","category_name":"快餐厅","address":"黄浦区黄家阙路180号(近中华路)"},{"poiid":"B2094655D26FABF5429E","title":"明日星城一期","lon":"121.49416","lat":"31.2136","category":"47","category_name":"住宅区","address":"上海市黄浦区河南南路1号"},{"poiid":"B2094750DA6CABF5409B","title":"翔鹰十三香小龙虾","lon":"121.491477","lat":"31.215105","category":"247","category_name":"餐饮美食","address":"陆家浜路大兴街3号"},{"poiid":"B2094757D169ABF44898","title":"黄浦区工商局","lon":"121.491909738","lat":"31.2159349955","category":"500","category_name":"未知分类","address":"上海河南南路800号"},{"poiid":"B2094757D468A5FB469C","title":"阿平面馆","lon":"121.49074","lat":"31.21517","category":"68","category_name":"快餐厅","address":"黄浦区尚文路243号(近中华路)"},{"poiid":"B2094654DA6EA0FD479A","title":"上海市中心图书馆黄浦第二分馆","lon":"121.49108","lat":"31.21451","category":"181","category_name":"图书馆","address":"中华路990号老西门社区文化活动中心"},{"poiid":"B2094751D26EA2FF4799","title":"好面道--大肠面","lon":"121.493088","lat":"31.215195","category":"68","category_name":"快餐厅","address":"黄浦区中华路926号(近河南南路)"},{"poiid":"B2094654DA6EA7FD439D","title":"申升公寓","lon":"121.4928","lat":"31.215782","category":"47","category_name":"住宅区","address":"申升公寓位于卢湾河南南路737号"},{"poiid":"B2094757D16FA1F8489E","title":"敬业初级中学","lon":"121.492916","lat":"31.216386","category":"55","category_name":"中学","address":"上海黄浦区尚文路73号"},{"poiid":"B2094655D26AA7F54092","title":"黄浦区第二图书馆","lon":"121.49108","lat":"31.21451","category":"247","category_name":"餐饮美食","address":"黄浦区中华路990号(迎勋路中华路)"},{"poiid":"B2094655D26CA4FB469E","title":"龙门邨尚文路","lon":"121.49147","lat":"31.21576","category":"47","category_name":"住宅区","address":""},{"poiid":"B2094655D268A1F9479B","title":"文富里","lon":"121.49156","lat":"31.21543","category":"47","category_name":"住宅区","address":"尚文路138弄1-6号"},{"poiid":"B2094757D66AA6F94398","title":"黄浦象山海鲜馆","lon":"121.48920434293","lat":"31.214798295002","category":"75","category_name":"浙江菜","address":"黄浦区中华路1117号(近尚文路)"},{"poiid":"B2094654DA6EA7FC499D","title":"西贝造型","lon":"121.49409","lat":"31.21407","category":"148","category_name":"美容美发店","address":"黄浦区东江阴街26号(近跨龙路)"},{"poiid":"B2094655D268A1F94798","title":"文富里(北门)","lon":"121.49152","lat":"31.21557","category":"47","category_name":"住宅区","address":"尚文路138弄1-6号"},{"poiid":"B2094654DA68A0FA489B","title":"龙悦大厦","lon":"121.491283","lat":"31.213294","category":"46","category_name":"楼宇","address":"越秀区环市东路362-366号"},{"poiid":"B2094757D06AABFB489D","title":"明日星城二期","lon":"121.49499","lat":"31.214718","category":"500","category_name":"未知分类","address":"上海市黄浦区中华路868弄"},{"poiid":"B2094750D665ABF4449D","title":"江阴街排档","lon":"121.494","lat":"31.2154","category":"76","category_name":"上海菜","address":"黄浦区江阴街"},{"poiid":"B2094757D064A6F9449F","title":"明日星城会所游泳馆","lon":"121.49261","lat":"31.21471","category":"220","category_name":"运动场所","address":"黄浦区河南南路1009号(近陆家浜路)"},{"poiid":"B2094654DA6EA0F4469D","title":"龙门邨","lon":"121.4912","lat":"31.2164","category":"47","category_name":"住宅区","address":"上海尚文路133弄"},{"poiid":"B2094752D76AA6F94993","title":"地铁9号线世纪大道站","lon":"121.492628","lat":"31.214664","category":"627","category_name":"一般地点标志","address":null},{"poiid":"B2094757D06FABF4429D","title":"宾利特健身会所","lon":"121.49351","lat":"31.21349","category":"221","category_name":"健身中心","address":"黄浦区河南南路1001弄(河南南路陆家浜后街)"},{"poiid":"B2094654DB69A6FE459D","title":"中华东泼","lon":"121.49094","lat":"31.21534","category":"47","category_name":"住宅区","address":"黄浦区尚文路168-198号"},{"poiid":"B2094654DA6EA0F5419F","title":"大成艺校","lon":"121.49036","lat":"31.21545","category":"54","category_name":"职业技术学校","address":"尚文路185号平利大厦B楼7层"},{"poiid":"B2094654DA68A0F54692","title":"银南大厦","lon":"121.493","lat":"31.2169","category":"46","category_name":"楼宇","address":"西藏南路1090弄1-2号"},{"poiid":"B2094751DA6EA6FE409A","title":"上海体育场","lon":"121.4908603","lat":"31.2169628","category":"500","category_name":"未知分类","address":null},{"poiid":"B2094757D16FA1F94992","title":"全家超市","lon":"121.493131098","lat":"31.2145596162","category":"118","category_name":"超级市场","address":"上海河南南路1002号"},{"poiid":"B2094654DA6EA7FD4398","title":"光明乳业尚文配送站","lon":"121.49309","lat":"31.21597","category":"117","category_name":"便民商店/便利店","address":"尚文路36"},{"poiid":"B2094654DB6BA4FF429C","title":"平利大厦B幢","lon":"121.49035","lat":"31.21545","category":"46","category_name":"楼宇","address":"尚文路185号"},{"poiid":"B2094750D06DAAF5459D","title":"中国工商银行ATM机","lon":"121.492","lat":"31.215","category":"152","category_name":"ATM","address":"中华路支行"},{"poiid":"B2094654DB6BABF9409B","title":"协作大厦","lon":"121.493373","lat":"31.212919","category":"46","category_name":"楼宇","address":"黄浦区西藏南路1332号"},{"poiid":"B2094757D469A2FE449B","title":"普明面馆 黄家路店","lon":"121.494090054","lat":"31.216242793","category":"68","category_name":"快餐厅","address":"黄浦区黄家路195号(近光启南路)"},{"poiid":"B2094655D264A0F54498","title":"中华东波小区","lon":"121.49065","lat":"31.2149","category":"47","category_name":"住宅区","address":"尚文路168"},{"poiid":"B2094752D469A5F94699","title":"上海市宝山区","lon":"121.4928731","lat":"31.2147555","category":"500","category_name":"未知分类","address":null},{"poiid":"B2094757D568A0F4489D","title":"全家便利店(学前街)","lon":"121.49004313","lat":"31.21533908","category":"117","category_name":"便民商店/便利店","address":"尚文路191号"},{"poiid":"B2094655D265A7F5409A","title":"庙街礼品服饰商厦","lon":"121.48966","lat":"31.2147","category":"119","category_name":"商场","address":"黄浦中华路1051号"},{"poiid":"B2094757D068A6F8469A","title":"婚姻登记处(黄浦区登记处)","lon":"121.49044443","lat":"31.214748925","category":"46","category_name":"楼宇","address":"黄浦区中华路1011号(近学前街)查看地图"},{"poiid":"B2094757D06FA7F8449D","title":"中西医结合医院(黄家路分院)","lon":"121.49420315","lat":"31.216321354","category":"162","category_name":"医院","address":"上海黄浦区黄家路163号(近光启南路)"},{"poiid":"B2094757D068A3FB469B","title":"明日星城","lon":"121.49450701","lat":"31.214300838","category":"500","category_name":"未知分类","address":"河南南路1009弄3-11号"},{"poiid":"B2094753D76FAAFA449C","title":"上海滩国泰旗舰店","lon":"121.466011","lat":"31.216125","category":"249","category_name":"购物服务","address":"淮海中路868号"},{"poiid":"B209475CD564A7F84292","title":"上海滩新天地店","lon":"121.47463","lat":"31.22164","category":"119","category_name":"商场","address":"\"太仓路181弄新天地北里15号\r\n\""},{"poiid":"B209475CD564A7F84392","title":"上海滩浦东香格里拉店","lon":"121.50058","lat":"31.23634","category":"119","category_name":"商场","address":"浦东富成路33号香格里拉酒店内大堂层"},{"poiid":"B2094757D069AAF54499","title":"河南南路蓬莱路路口","lon":"121.492031","lat":"31.217954","category":"500","category_name":"未知分类","address":"上海黄浦区河南南路蓬莱路路口"},{"poiid":"B2094654DB69A6FC469F","title":"南浦大桥","lon":"121.4933","lat":"31.21249","category":"250","category_name":"公园户外","address":"浦东新区南码头之间"},{"poiid":"B2094655D26FA4FA449E","title":"上海商业会计学校北门(陆家浜路)","lon":"121.49092","lat":"31.21225","category":"54","category_name":"职业技术学校","address":"陆家浜路804弄25"},{"poiid":"B2094757D168A6FD499E","title":"蓬萊路","lon":"121.49024373","lat":"31.217709033","category":"500","category_name":"未知分类","address":"上海市黄浦區蓬萊路"},{"poiid":"B2094654DA6EA0F4469F","title":"上海市工商行政管理局黄浦分局","lon":"121.49203","lat":"31.21602","category":"250","category_name":"公园户外","address":"上海河南南路800号"},{"poiid":"B2094757D068A7F4429D","title":"南开大厦","lon":"121.49065","lat":"31.217077","category":"46","category_name":"楼宇","address":"浦东新区金湘路225弄"},{"poiid":"B2094655D268A4F54493","title":"黄浦区敬业游泳馆","lon":"121.49069","lat":"31.21562","category":"231","category_name":"游泳馆","address":"黄浦区尚文路183号(尚文路迎勋北路)"},{"poiid":"B2094757D069A2F4419B","title":"园林大厦","lon":"121.48939228085","lat":"31.215035569363","category":"46","category_name":"楼宇","address":"北一环与亳州路交叉口(庐阳区政府对面)"},{"poiid":"B2094757D069A4FD499B","title":"燕山楼烧烤","lon":"121.49052","lat":"31.21522","category":"68","category_name":"快餐厅","address":"黄浦区黄家阙路180号(近中华路)"},{"poiid":"B2094655D26FABF5429E","title":"明日星城一期","lon":"121.49416","lat":"31.2136","category":"47","category_name":"住宅区","address":"上海市黄浦区河南南路1号"},{"poiid":"B2094750DA6CABF5409B","title":"翔鹰十三香小龙虾","lon":"121.491477","lat":"31.215105","category":"247","category_name":"餐饮美食","address":"陆家浜路大兴街3号"},{"poiid":"B2094757D169ABF44898","title":"黄浦区工商局","lon":"121.491909738","lat":"31.2159349955","category":"500","category_name":"未知分类","address":"上海河南南路800号"},{"poiid":"B2094757D468A5FB469C","title":"阿平面馆","lon":"121.49074","lat":"31.21517","category":"68","category_name":"快餐厅","address":"黄浦区尚文路243号(近中华路)"},{"poiid":"B2094654DA6EA0FD479A","title":"上海市中心图书馆黄浦第二分馆","lon":"121.49108","lat":"31.21451","category":"181","category_name":"图书馆","address":"中华路990号老西门社区文化活动中心"},{"poiid":"B2094751D26EA2FF4799","title":"好面道--大肠面","lon":"121.493088","lat":"31.215195","category":"68","category_name":"快餐厅","address":"黄浦区中华路926号(近河南南路)"},{"poiid":"B2094654DA6EA7FD439D","title":"申升公寓","lon":"121.4928","lat":"31.215782","category":"47","category_name":"住宅区","address":"申升公寓位于卢湾河南南路737号"},{"poiid":"B2094757D16FA1F8489E","title":"敬业初级中学","lon":"121.492916","lat":"31.216386","category":"55","category_name":"中学","address":"上海黄浦区尚文路73号"},{"poiid":"B2094655D26AA7F54092","title":"黄浦区第二图书馆","lon":"121.49108","lat":"31.21451","category":"247","category_name":"餐饮美食","address":"黄浦区中华路990号(迎勋路中华路)"},{"poiid":"B2094655D26CA4FB469E","title":"龙门邨尚文路","lon":"121.49147","lat":"31.21576","category":"47","category_name":"住宅区","address":""},{"poiid":"B2094655D268A1F9479B","title":"文富里","lon":"121.49156","lat":"31.21543","category":"47","category_name":"住宅区","address":"尚文路138弄1-6号"},{"poiid":"B2094757D66AA6F94398","title":"黄浦象山海鲜馆","lon":"121.48920434293","lat":"31.214798295002","category":"75","category_name":"浙江菜","address":"黄浦区中华路1117号(近尚文路)"},{"poiid":"B2094654DA6EA7FC499D","title":"西贝造型","lon":"121.49409","lat":"31.21407","category":"148","category_name":"美容美发店","address":"黄浦区东江阴街26号(近跨龙路)"},{"poiid":"B2094655D268A1F94798","title":"文富里(北门)","lon":"121.49152","lat":"31.21557","category":"47","category_name":"住宅区","address":"尚文路138弄1-6号"},{"poiid":"B2094654DA68A0FA489B","title":"龙悦大厦","lon":"121.491283","lat":"31.213294","category":"46","category_name":"楼宇","address":"越秀区环市东路362-366号"},{"poiid":"B2094757D06AABFB489D","title":"明日星城二期","lon":"121.49499","lat":"31.214718","category":"500","category_name":"未知分类","address":"上海市黄浦区中华路868弄"},{"poiid":"B2094750D665ABF4449D","title":"江阴街排档","lon":"121.494","lat":"31.2154","category":"76","category_name":"上海菜","address":"黄浦区江阴街"},{"poiid":"B2094757D064A6F9449F","title":"明日星城会所游泳馆","lon":"121.49261","lat":"31.21471","category":"220","category_name":"运动场所","address":"黄浦区河南南路1009号(近陆家浜路)"},{"poiid":"B2094654DA6EA0F4469D","title":"龙门邨","lon":"121.4912","lat":"31.2164","category":"47","category_name":"住宅区","address":"上海尚文路133弄"},{"poiid":"B2094752D76AA6F94993","title":"地铁9号线世纪大道站","lon":"121.492628","lat":"31.214664","category":"627","category_name":"一般地点标志","address":null},{"poiid":"B2094757D06FABF4429D","title":"宾利特健身会所","lon":"121.49351","lat":"31.21349","category":"221","category_name":"健身中心","address":"黄浦区河南南路1001弄(河南南路陆家浜后街)"},{"poiid":"B2094654DB69A6FE459D","title":"中华东泼","lon":"121.49094","lat":"31.21534","category":"47","category_name":"住宅区","address":"黄浦区尚文路168-198号"},{"poiid":"B2094654DA6EA0F5419F","title":"大成艺校","lon":"121.49036","lat":"31.21545","category":"54","category_name":"职业技术学校","address":"尚文路185号平利大厦B楼7层"},{"poiid":"B2094654DA68A0F54692","title":"银南大厦","lon":"121.493","lat":"31.2169","category":"46","category_name":"楼宇","address":"西藏南路1090弄1-2号"},{"poiid":"B2094751DA6EA6FE409A","title":"上海体育场","lon":"121.4908603","lat":"31.2169628","category":"500","category_name":"未知分类","address":null},{"poiid":"B2094757D16FA1F94992","title":"全家超市","lon":"121.493131098","lat":"31.2145596162","category":"118","category_name":"超级市场","address":"上海河南南路1002号"},{"poiid":"B2094654DA6EA7FD4398","title":"光明乳业尚文配送站","lon":"121.49309","lat":"31.21597","category":"117","category_name":"便民商店/便利店","address":"尚文路36"},{"poiid":"B2094654DB6BA4FF429C","title":"平利大厦B幢","lon":"121.49035","lat":"31.21545","category":"46","category_name":"楼宇","address":"尚文路185号"},{"poiid":"B2094750D06DAAF5459D","title":"中国工商银行ATM机","lon":"121.492","lat":"31.215","category":"152","category_name":"ATM","address":"中华路支行"},{"poiid":"B2094654DB6BABF9409B","title":"协作大厦","lon":"121.493373","lat":"31.212919","category":"46","category_name":"楼宇","address":"黄浦区西藏南路1332号"},{"poiid":"B2094757D469A2FE449B","title":"普明面馆 黄家路店","lon":"121.494090054","lat":"31.216242793","category":"68","category_name":"快餐厅","address":"黄浦区黄家路195号(近光启南路)"},{"poiid":"B2094655D264A0F54498","title":"中华东波小区","lon":"121.49065","lat":"31.2149","category":"47","category_name":"住宅区","address":"尚文路168"},{"poiid":"B2094752D469A5F94699","title":"上海市宝山区","lon":"121.4928731","lat":"31.2147555","category":"500","category_name":"未知分类","address":null},{"poiid":"B2094757D568A0F4489D","title":"全家便利店(学前街)","lon":"121.49004313","lat":"31.21533908","category":"117","category_name":"便民商店/便利店","address":"尚文路191号"},{"poiid":"B2094655D265A7F5409A","title":"庙街礼品服饰商厦","lon":"121.48966","lat":"31.2147","category":"119","category_name":"商场","address":"黄浦中华路1051号"}]