[{"poiid":"B2094757D06FA3FD429E","title":"红房子妇产科医院(杨浦分院)","lon":"121.534619481","lat":"31.2590112668","category":"162","category_name":"医院","address":"上海杨浦区沈阳路128号(近眉州路)"},{"poiid":"B2094757D06FA3F5449C","title":"平凉路眉州路","lon":"121.534188","lat":"31.261715","category":"47","category_name":"住宅区","address":"上海平凉路眉州路"},{"poiid":"B2094757D06FA2FD469B","title":"复旦大学附属妇产科医院(杨浦院区)","lon":"121.53505897","lat":"31.260293398","category":"68","category_name":"快餐厅","address":"杨浦区沈阳路128号(近眉州路)"},{"poiid":"B2094757D06FA3F84493","title":"85度C(平凉店)","lon":"121.534764","lat":"31.261609","category":"112","category_name":"糕饼店","address":"杨浦区平凉路1200号1楼(近眉州路)"},{"poiid":"B2094757D16CA6FF479C","title":"平凉路宁国路","lon":"121.536385103","lat":"31.262084248","category":"500","category_name":"未知分类","address":"上海市杨浦区平凉路宁国路"},{"poiid":"B2094757D065A2FC4392","title":"东宫","lon":"121.53514872","lat":"31.261538216","category":"260","category_name":"其他","address":"上海三星路"},{"poiid":"B2094757D06BA1F9459D","title":"美好人声","lon":"121.53430335","lat":"31.261921044","category":"170","category_name":"KTV","address":"杨浦区平凉路1295号2楼(近渭南路)"},{"poiid":"B2094654D56EA7F94092","title":"华谊星城大厦","lon":"121.53456","lat":"31.2615","category":"46","category_name":"楼宇","address":"越秀区广州沿江中路298号"},{"poiid":"B2094757D064A3FB4592","title":"天目山农庄","lon":"121.5339941","lat":"31.261634238","category":"87","category_name":"特色／地方风味餐厅","address":"杨浦区平凉路1158号"},{"poiid":"B2094757D069A3FC459C","title":"杨浦区人民法院","lon":"121.530405","lat":"31.263854","category":"608","category_name":"法院","address":"上海河间路29号"},{"poiid":"B2094655D268ABFE409C","title":"圣骊河滨苑","lon":"121.531363","lat":"31.258321","category":"47","category_name":"住宅区","address":"杨浦平凉路923-925号"},{"poiid":"B2094757D069A6FB499F","title":"中国银行(杨浦支行)","lon":"121.53367","lat":"31.26103","category":"150","category_name":"银行","address":"杨浦区平凉路1128号"},{"poiid":"B2094757D069A2FB4693","title":"齐齐哈尔路","lon":"121.529077103","lat":"31.2606302176","category":"38","category_name":"公交车站","address":"上海37路终点站齐齐哈尔路"},{"poiid":"B2094757D068A4F94692","title":"荣丰花园","lon":"121.53181","lat":"31.265228","category":"47","category_name":"住宅区","address":"上海市杨浦区长阳路1440弄内"},{"poiid":"B2094654D56EA7F9489E","title":"上海纺织科技工业园","lon":"121.53138","lat":"31.25975","category":"45","category_name":"产业园区","address":"上海杨浦区平凉路988号"},{"poiid":"B2094654DB6BA2FD469C","title":"创意联盟产业园区","lon":"121.53234","lat":"31.26096","category":"46","category_name":"楼宇","address":"杨浦区平凉路1055号(近兰州路)"},{"poiid":"B2094750D36BA0F9429A","title":"上海市杨浦区中医医院","lon":"121.534133","lat":"31.261646","category":"162","category_name":"医院","address":null},{"poiid":"B2094654DB69A6F54399","title":"上岛咖啡 平凉店 UBC Coffee","lon":"121.531594054","lat":"31.260515793","category":"260","category_name":"其他","address":"杨浦区平凉路1055号(近兰州路)"},{"poiid":"B2094757D164A0FB4992","title":"博顺桌球俱乐部","lon":"121.534199103","lat":"31.2614702352","category":"500","category_name":"未知分类","address":"杨浦区平凉路1136号2楼"},{"poiid":"B2094654D56FA3FE429B","title":"鑫隆公寓","lon":"121.53342","lat":"31.261616","category":"47","category_name":"住宅区","address":"平凉路1157弄1-12号"},{"poiid":"B2094654DB6BA2FD469D","title":"兰州路滨河休闲街(兰州路)","lon":"121.53128","lat":"31.26045","category":"116","category_name":"特色商业街","address":""},{"poiid":"B2094757D16BA4FB439B","title":"上海浦东国际货运有限公司","lon":"121.533054","lat":"31.261418","category":"46","category_name":"楼宇","address":"上海市杨浦区平凉路1090号天科国际大厦3楼"},{"poiid":"B2094757D064A1F9469F","title":"辽阳中学","lon":"121.53376013","lat":"31.263913252","category":"55","category_name":"中学","address":"杨浦区眉州路540号(近平凉路)"},{"poiid":"B2094757D06AA0FA439E","title":"华谊星城","lon":"121.534816","lat":"31.260837","category":"47","category_name":"住宅区","address":"上海华谊星城名苑"},{"poiid":"B2094757D66FA3FF4692","title":"老盛兴","lon":"121.5339477","lat":"31.261841943","category":"500","category_name":"未知分类","address":"上海平凉路眉州路"},{"poiid":"B2094654DB6BA2FD469E","title":"爱齿口腔专科门诊部","lon":"121.53319","lat":"31.2614","category":"162","category_name":"医院","address":"杨浦区平凉路1127号(近兰州路)"},{"poiid":"B2094655D26CA7FA409C","title":"九州家园","lon":"121.53374","lat":"31.262096","category":"47","category_name":"住宅区","address":"上海市闵行区莘朱路879弄"},{"poiid":"B2094654D56FA3FE429E","title":"好德便利No.270","lon":"121.53344","lat":"31.26154","category":"117","category_name":"便民商店/便利店","address":"平凉路1151"},{"poiid":"B2094750DB6FA5F84598","title":"杨浦区中医医院","lon":"121.534004","lat":"31.26164","category":"162","category_name":"医院","address":"眉州路185号"},{"poiid":"B2094654D56EA7F4419F","title":"界龙商务大楼","lon":"121.53094003078","lat":"31.262950574602","category":"46","category_name":"楼宇","address":"海淀区城府路,中关村东路交叉处西北方向"},{"poiid":"B2094757D66AA0F84992","title":"梅傻子酒家 眉州路店","lon":"121.53409444438","lat":"31.262823210896","category":"76","category_name":"上海菜","address":"杨浦区眉州路479号(近平凉路)"},{"poiid":"B2094655D26DABFB429B","title":"九州丽园","lon":"121.53197","lat":"31.261789","category":"47","category_name":"住宅区","address":"上海市杨浦区平凉路1099弄"},{"poiid":"B2094757D76EA3FD4998","title":"鼎旺牛奶棚 平凉路店","lon":"121.534966054","lat":"31.262045793","category":"67","category_name":"甜品店","address":"杨浦区平凉路1236号(近眉州路)"},{"poiid":"B2094654DB6BA3F44399","title":"三益里","lon":"121.532","lat":"31.2621","category":"47","category_name":"住宅区","address":"许昌路452弄"},{"poiid":"B2094757D064AAFC429F","title":"米宝宝快餐店(平凉路店)","lon":"121.53524","lat":"31.26208","category":"68","category_name":"快餐厅","address":"杨浦区平凉路1241号(近眉州路)"},{"poiid":"B2094654D56FA3FD4998","title":"锦良苑","lon":"121.533","lat":"31.262819","category":"47","category_name":"住宅区","address":"上海市杨浦区眉州路465号(近平凉路)"},{"poiid":"B2094655D26FA7FD429B","title":"鑫隆公寓(南门)","lon":"121.53353","lat":"31.26157","category":"47","category_name":"住宅区","address":"平凉路1157弄1-12号"},{"poiid":"B2094757D16FA3FC439F","title":"大汁味黄金生煎饼","lon":"121.5349381","lat":"31.261302231","category":"68","category_name":"快餐厅","address":"杨浦区眉州路311号(近平凉路)"},{"poiid":"B2094750D664A0FA479C","title":"老盛兴苏州汤包馆(眉州路店)","lon":"121.536","lat":"31.261","category":"68","category_name":"快餐厅","address":"杨浦区眉州路300号(近沈阳路)"},{"poiid":"B2094655D26BA1FA4099","title":"眉州路河间路","lon":"121.53404","lat":"31.26299","category":"38","category_name":"公交车站","address":""},{"poiid":"B2094655D26CA6FB4298","title":"平凉路1115弄小区(南门)","lon":"121.53283","lat":"31.26121","category":"47","category_name":"住宅区","address":"平凉路1115弄"},{"poiid":"B2094655D26CA6FD489C","title":"平凉路1115弄小区","lon":"121.53271","lat":"31.26136","category":"47","category_name":"住宅区","address":"平凉路1115弄"},{"poiid":"B2094757D66DA6FB429D","title":"平凉路眉州路烧烤","lon":"121.532160403","lat":"31.261891744","category":"247","category_name":"餐饮美食","address":"上海平凉路眉州路口"},{"poiid":"B2094757D46BA5FE449F","title":"苏州面馆 平凉路店","lon":"121.531782","lat":"31.260529","category":"68","category_name":"快餐厅","address":"杨浦区平凉路1055号(近兰州路)"},{"poiid":"B2094757D16CA1F84992","title":"其他画廊","lon":"121.532349","lat":"31.260962","category":"184","category_name":"美术馆","address":"上海普陀区莫干山路50号M50创意园区9号楼101"},{"poiid":"B2094757D069A1FD409F","title":"贝贝乐游泳馆","lon":"121.53412925","lat":"31.261644678","category":"231","category_name":"游泳馆","address":"上海平凉路眉洲路"},{"poiid":"B2094654D56EA7F94599","title":"永琪美容美发(华谊星城大厦西)","lon":"121.53442","lat":"31.26162","category":"148","category_name":"美容美发店","address":""},{"poiid":"B2094655D26EA0FE4493","title":"速8酒店(上海东外滩店)","lon":"121.53542","lat":"31.26133","category":"216","category_name":"经济型连锁酒店","address":"眉州路300号"},{"poiid":"B2094757D16EABFB449C","title":"星風尚","lon":"121.5339081","lat":"31.261889244","category":"148","category_name":"美容美发店","address":"上海杨浦区平凉路1177號"},{"poiid":"B2094655D26DA5FE409C","title":"眉州路515弄小区","lon":"121.53205","lat":"31.26332","category":"47","category_name":"住宅区","address":"眉州路515弄27-29号"},{"poiid":"B2094757D06FA3FD429E","title":"红房子妇产科医院(杨浦分院)","lon":"121.534619481","lat":"31.2590112668","category":"162","category_name":"医院","address":"上海杨浦区沈阳路128号(近眉州路)"},{"poiid":"B2094757D06FA3F5449C","title":"平凉路眉州路","lon":"121.534188","lat":"31.261715","category":"47","category_name":"住宅区","address":"上海平凉路眉州路"},{"poiid":"B2094757D06FA2FD469B","title":"复旦大学附属妇产科医院(杨浦院区)","lon":"121.53505897","lat":"31.260293398","category":"68","category_name":"快餐厅","address":"杨浦区沈阳路128号(近眉州路)"},{"poiid":"B2094757D06FA3F84493","title":"85度C(平凉店)","lon":"121.534764","lat":"31.261609","category":"112","category_name":"糕饼店","address":"杨浦区平凉路1200号1楼(近眉州路)"},{"poiid":"B2094757D16CA6FF479C","title":"平凉路宁国路","lon":"121.536385103","lat":"31.262084248","category":"500","category_name":"未知分类","address":"上海市杨浦区平凉路宁国路"},{"poiid":"B2094757D065A2FC4392","title":"东宫","lon":"121.53514872","lat":"31.261538216","category":"260","category_name":"其他","address":"上海三星路"},{"poiid":"B2094757D06BA1F9459D","title":"美好人声","lon":"121.53430335","lat":"31.261921044","category":"170","category_name":"KTV","address":"杨浦区平凉路1295号2楼(近渭南路)"},{"poiid":"B2094654D56EA7F94092","title":"华谊星城大厦","lon":"121.53456","lat":"31.2615","category":"46","category_name":"楼宇","address":"越秀区广州沿江中路298号"},{"poiid":"B2094757D064A3FB4592","title":"天目山农庄","lon":"121.5339941","lat":"31.261634238","category":"87","category_name":"特色／地方风味餐厅","address":"杨浦区平凉路1158号"},{"poiid":"B2094757D069A3FC459C","title":"杨浦区人民法院","lon":"121.530405","lat":"31.263854","category":"608","category_name":"法院","address":"上海河间路29号"},{"poiid":"B2094655D268ABFE409C","title":"圣骊河滨苑","lon":"121.531363","lat":"31.258321","category":"47","category_name":"住宅区","address":"杨浦平凉路923-925号"},{"poiid":"B2094757D069A6FB499F","title":"中国银行(杨浦支行)","lon":"121.53367","lat":"31.26103","category":"150","category_name":"银行","address":"杨浦区平凉路1128号"},{"poiid":"B2094757D069A2FB4693","title":"齐齐哈尔路","lon":"121.529077103","lat":"31.2606302176","category":"38","category_name":"公交车站","address":"上海37路终点站齐齐哈尔路"},{"poiid":"B2094757D068A4F94692","title":"荣丰花园","lon":"121.53181","lat":"31.265228","category":"47","category_name":"住宅区","address":"上海市杨浦区长阳路1440弄内"},{"poiid":"B2094654D56EA7F9489E","title":"上海纺织科技工业园","lon":"121.53138","lat":"31.25975","category":"45","category_name":"产业园区","address":"上海杨浦区平凉路988号"},{"poiid":"B2094654DB6BA2FD469C","title":"创意联盟产业园区","lon":"121.53234","lat":"31.26096","category":"46","category_name":"楼宇","address":"杨浦区平凉路1055号(近兰州路)"},{"poiid":"B2094750D36BA0F9429A","title":"上海市杨浦区中医医院","lon":"121.534133","lat":"31.261646","category":"162","category_name":"医院","address":null},{"poiid":"B2094654DB69A6F54399","title":"上岛咖啡 平凉店 UBC Coffee","lon":"121.531594054","lat":"31.260515793","category":"260","category_name":"其他","address":"杨浦区平凉路1055号(近兰州路)"},{"poiid":"B2094757D164A0FB4992","title":"博顺桌球俱乐部","lon":"121.534199103","lat":"31.2614702352","category":"500","category_name":"未知分类","address":"杨浦区平凉路1136号2楼"},{"poiid":"B2094654D56FA3FE429B","title":"鑫隆公寓","lon":"121.53342","lat":"31.261616","category":"47","category_name":"住宅区","address":"平凉路1157弄1-12号"},{"poiid":"B2094654DB6BA2FD469D","title":"兰州路滨河休闲街(兰州路)","lon":"121.53128","lat":"31.26045","category":"116","category_name":"特色商业街","address":""},{"poiid":"B2094757D16BA4FB439B","title":"上海浦东国际货运有限公司","lon":"121.533054","lat":"31.261418","category":"46","category_name":"楼宇","address":"上海市杨浦区平凉路1090号天科国际大厦3楼"},{"poiid":"B2094757D064A1F9469F","title":"辽阳中学","lon":"121.53376013","lat":"31.263913252","category":"55","category_name":"中学","address":"杨浦区眉州路540号(近平凉路)"},{"poiid":"B2094757D06AA0FA439E","title":"华谊星城","lon":"121.534816","lat":"31.260837","category":"47","category_name":"住宅区","address":"上海华谊星城名苑"},{"poiid":"B2094757D66FA3FF4692","title":"老盛兴","lon":"121.5339477","lat":"31.261841943","category":"500","category_name":"未知分类","address":"上海平凉路眉州路"},{"poiid":"B2094654DB6BA2FD469E","title":"爱齿口腔专科门诊部","lon":"121.53319","lat":"31.2614","category":"162","category_name":"医院","address":"杨浦区平凉路1127号(近兰州路)"},{"poiid":"B2094655D26CA7FA409C","title":"九州家园","lon":"121.53374","lat":"31.262096","category":"47","category_name":"住宅区","address":"上海市闵行区莘朱路879弄"},{"poiid":"B2094654D56FA3FE429E","title":"好德便利No.270","lon":"121.53344","lat":"31.26154","category":"117","category_name":"便民商店/便利店","address":"平凉路1151"},{"poiid":"B2094750DB6FA5F84598","title":"杨浦区中医医院","lon":"121.534004","lat":"31.26164","category":"162","category_name":"医院","address":"眉州路185号"},{"poiid":"B2094654D56EA7F4419F","title":"界龙商务大楼","lon":"121.53094003078","lat":"31.262950574602","category":"46","category_name":"楼宇","address":"海淀区城府路,中关村东路交叉处西北方向"},{"poiid":"B2094757D66AA0F84992","title":"梅傻子酒家 眉州路店","lon":"121.53409444438","lat":"31.262823210896","category":"76","category_name":"上海菜","address":"杨浦区眉州路479号(近平凉路)"},{"poiid":"B2094655D26DABFB429B","title":"九州丽园","lon":"121.53197","lat":"31.261789","category":"47","category_name":"住宅区","address":"上海市杨浦区平凉路1099弄"},{"poiid":"B2094757D76EA3FD4998","title":"鼎旺牛奶棚 平凉路店","lon":"121.534966054","lat":"31.262045793","category":"67","category_name":"甜品店","address":"杨浦区平凉路1236号(近眉州路)"},{"poiid":"B2094654DB6BA3F44399","title":"三益里","lon":"121.532","lat":"31.2621","category":"47","category_name":"住宅区","address":"许昌路452弄"},{"poiid":"B2094757D064AAFC429F","title":"米宝宝快餐店(平凉路店)","lon":"121.53524","lat":"31.26208","category":"68","category_name":"快餐厅","address":"杨浦区平凉路1241号(近眉州路)"},{"poiid":"B2094654D56FA3FD4998","title":"锦良苑","lon":"121.533","lat":"31.262819","category":"47","category_name":"住宅区","address":"上海市杨浦区眉州路465号(近平凉路)"},{"poiid":"B2094655D26FA7FD429B","title":"鑫隆公寓(南门)","lon":"121.53353","lat":"31.26157","category":"47","category_name":"住宅区","address":"平凉路1157弄1-12号"},{"poiid":"B2094757D16FA3FC439F","title":"大汁味黄金生煎饼","lon":"121.5349381","lat":"31.261302231","category":"68","category_name":"快餐厅","address":"杨浦区眉州路311号(近平凉路)"},{"poiid":"B2094750D664A0FA479C","title":"老盛兴苏州汤包馆(眉州路店)","lon":"121.536","lat":"31.261","category":"68","category_name":"快餐厅","address":"杨浦区眉州路300号(近沈阳路)"},{"poiid":"B2094655D26BA1FA4099","title":"眉州路河间路","lon":"121.53404","lat":"31.26299","category":"38","category_name":"公交车站","address":""},{"poiid":"B2094655D26CA6FB4298","title":"平凉路1115弄小区(南门)","lon":"121.53283","lat":"31.26121","category":"47","category_name":"住宅区","address":"平凉路1115弄"},{"poiid":"B2094655D26CA6FD489C","title":"平凉路1115弄小区","lon":"121.53271","lat":"31.26136","category":"47","category_name":"住宅区","address":"平凉路1115弄"},{"poiid":"B2094757D66DA6FB429D","title":"平凉路眉州路烧烤","lon":"121.532160403","lat":"31.261891744","category":"247","category_name":"餐饮美食","address":"上海平凉路眉州路口"},{"poiid":"B2094757D46BA5FE449F","title":"苏州面馆 平凉路店","lon":"121.531782","lat":"31.260529","category":"68","category_name":"快餐厅","address":"杨浦区平凉路1055号(近兰州路)"},{"poiid":"B2094757D16CA1F84992","title":"其他画廊","lon":"121.532349","lat":"31.260962","category":"184","category_name":"美术馆","address":"上海普陀区莫干山路50号M50创意园区9号楼101"},{"poiid":"B2094757D069A1FD409F","title":"贝贝乐游泳馆","lon":"121.53412925","lat":"31.261644678","category":"231","category_name":"游泳馆","address":"上海平凉路眉洲路"},{"poiid":"B2094654D56EA7F94599","title":"永琪美容美发(华谊星城大厦西)","lon":"121.53442","lat":"31.26162","category":"148","category_name":"美容美发店","address":""},{"poiid":"B2094655D26EA0FE4493","title":"速8酒店(上海东外滩店)","lon":"121.53542","lat":"31.26133","category":"216","category_name":"经济型连锁酒店","address":"眉州路300号"},{"poiid":"B2094757D16EABFB449C","title":"星風尚","lon":"121.5339081","lat":"31.261889244","category":"148","category_name":"美容美发店","address":"上海杨浦区平凉路1177號"},{"poiid":"B2094655D26DA5FE409C","title":"眉州路515弄小区","lon":"121.53205","lat":"31.26332","category":"47","category_name":"住宅区","address":"眉州路515弄27-29号"},{"poiid":"B2094757D06FA3FD429E","title":"红房子妇产科医院(杨浦分院)","lon":"121.534619481","lat":"31.2590112668","category":"162","category_name":"医院","address":"上海杨浦区沈阳路128号(近眉州路)"},{"poiid":"B2094757D06FA3F5449C","title":"平凉路眉州路","lon":"121.534188","lat":"31.261715","category":"47","category_name":"住宅区","address":"上海平凉路眉州路"},{"poiid":"B2094757D06FA2FD469B","title":"复旦大学附属妇产科医院(杨浦院区)","lon":"121.53505897","lat":"31.260293398","category":"68","category_name":"快餐厅","address":"杨浦区沈阳路128号(近眉州路)"},{"poiid":"B2094757D06FA3F84493","title":"85度C(平凉店)","lon":"121.534764","lat":"31.261609","category":"112","category_name":"糕饼店","address":"杨浦区平凉路1200号1楼(近眉州路)"},{"poiid":"B2094757D16CA6FF479C","title":"平凉路宁国路","lon":"121.536385103","lat":"31.262084248","category":"500","category_name":"未知分类","address":"上海市杨浦区平凉路宁国路"},{"poiid":"B2094757D065A2FC4392","title":"东宫","lon":"121.53514872","lat":"31.261538216","category":"260","category_name":"其他","address":"上海三星路"},{"poiid":"B2094757D06BA1F9459D","title":"美好人声","lon":"121.53430335","lat":"31.261921044","category":"170","category_name":"KTV","address":"杨浦区平凉路1295号2楼(近渭南路)"},{"poiid":"B2094654D56EA7F94092","title":"华谊星城大厦","lon":"121.53456","lat":"31.2615","category":"46","category_name":"楼宇","address":"越秀区广州沿江中路298号"},{"poiid":"B2094757D064A3FB4592","title":"天目山农庄","lon":"121.5339941","lat":"31.261634238","category":"87","category_name":"特色／地方风味餐厅","address":"杨浦区平凉路1158号"},{"poiid":"B2094757D069A3FC459C","title":"杨浦区人民法院","lon":"121.530405","lat":"31.263854","category":"608","category_name":"法院","address":"上海河间路29号"},{"poiid":"B2094655D268ABFE409C","title":"圣骊河滨苑","lon":"121.531363","lat":"31.258321","category":"47","category_name":"住宅区","address":"杨浦平凉路923-925号"},{"poiid":"B2094757D069A6FB499F","title":"中国银行(杨浦支行)","lon":"121.53367","lat":"31.26103","category":"150","category_name":"银行","address":"杨浦区平凉路1128号"},{"poiid":"B2094757D069A2FB4693","title":"齐齐哈尔路","lon":"121.529077103","lat":"31.2606302176","category":"38","category_name":"公交车站","address":"上海37路终点站齐齐哈尔路"},{"poiid":"B2094757D068A4F94692","title":"荣丰花园","lon":"121.53181","lat":"31.265228","category":"47","category_name":"住宅区","address":"上海市杨浦区长阳路1440弄内"},{"poiid":"B2094654D56EA7F9489E","title":"上海纺织科技工业园","lon":"121.53138","lat":"31.25975","category":"45","category_name":"产业园区","address":"上海杨浦区平凉路988号"},{"poiid":"B2094654DB6BA2FD469C","title":"创意联盟产业园区","lon":"121.53234","lat":"31.26096","category":"46","category_name":"楼宇","address":"杨浦区平凉路1055号(近兰州路)"},{"poiid":"B2094750D36BA0F9429A","title":"上海市杨浦区中医医院","lon":"121.534133","lat":"31.261646","category":"162","category_name":"医院","address":null},{"poiid":"B2094654DB69A6F54399","title":"上岛咖啡 平凉店 UBC Coffee","lon":"121.531594054","lat":"31.260515793","category":"260","category_name":"其他","address":"杨浦区平凉路1055号(近兰州路)"},{"poiid":"B2094757D164A0FB4992","title":"博顺桌球俱乐部","lon":"121.534199103","lat":"31.2614702352","category":"500","category_name":"未知分类","address":"杨浦区平凉路1136号2楼"},{"poiid":"B2094654D56FA3FE429B","title":"鑫隆公寓","lon":"121.53342","lat":"31.261616","category":"47","category_name":"住宅区","address":"平凉路1157弄1-12号"},{"poiid":"B2094654DB6BA2FD469D","title":"兰州路滨河休闲街(兰州路)","lon":"121.53128","lat":"31.26045","category":"116","category_name":"特色商业街","address":""},{"poiid":"B2094757D16BA4FB439B","title":"上海浦东国际货运有限公司","lon":"121.533054","lat":"31.261418","category":"46","category_name":"楼宇","address":"上海市杨浦区平凉路1090号天科国际大厦3楼"},{"poiid":"B2094757D064A1F9469F","title":"辽阳中学","lon":"121.53376013","lat":"31.263913252","category":"55","category_name":"中学","address":"杨浦区眉州路540号(近平凉路)"},{"poiid":"B2094757D06AA0FA439E","title":"华谊星城","lon":"121.534816","lat":"31.260837","category":"47","category_name":"住宅区","address":"上海华谊星城名苑"},{"poiid":"B2094757D66FA3FF4692","title":"老盛兴","lon":"121.5339477","lat":"31.261841943","category":"500","category_name":"未知分类","address":"上海平凉路眉州路"},{"poiid":"B2094654DB6BA2FD469E","title":"爱齿口腔专科门诊部","lon":"121.53319","lat":"31.2614","category":"162","category_name":"医院","address":"杨浦区平凉路1127号(近兰州路)"},{"poiid":"B2094655D26CA7FA409C","title":"九州家园","lon":"121.53374","lat":"31.262096","category":"47","category_name":"住宅区","address":"上海市闵行区莘朱路879弄"},{"poiid":"B2094654D56FA3FE429E","title":"好德便利No.270","lon":"121.53344","lat":"31.26154","category":"117","category_name":"便民商店/便利店","address":"平凉路1151"},{"poiid":"B2094750DB6FA5F84598","title":"杨浦区中医医院","lon":"121.534004","lat":"31.26164","category":"162","category_name":"医院","address":"眉州路185号"},{"poiid":"B2094654D56EA7F4419F","title":"界龙商务大楼","lon":"121.53094003078","lat":"31.262950574602","category":"46","category_name":"楼宇","address":"海淀区城府路,中关村东路交叉处西北方向"},{"poiid":"B2094757D66AA0F84992","title":"梅傻子酒家 眉州路店","lon":"121.53409444438","lat":"31.262823210896","category":"76","category_name":"上海菜","address":"杨浦区眉州路479号(近平凉路)"},{"poiid":"B2094655D26DABFB429B","title":"九州丽园","lon":"121.53197","lat":"31.261789","category":"47","category_name":"住宅区","address":"上海市杨浦区平凉路1099弄"},{"poiid":"B2094757D76EA3FD4998","title":"鼎旺牛奶棚 平凉路店","lon":"121.534966054","lat":"31.262045793","category":"67","category_name":"甜品店","address":"杨浦区平凉路1236号(近眉州路)"},{"poiid":"B2094654DB6BA3F44399","title":"三益里","lon":"121.532","lat":"31.2621","category":"47","category_name":"住宅区","address":"许昌路452弄"},{"poiid":"B2094757D064AAFC429F","title":"米宝宝快餐店(平凉路店)","lon":"121.53524","lat":"31.26208","category":"68","category_name":"快餐厅","address":"杨浦区平凉路1241号(近眉州路)"},{"poiid":"B2094654D56FA3FD4998","title":"锦良苑","lon":"121.533","lat":"31.262819","category":"47","category_name":"住宅区","address":"上海市杨浦区眉州路465号(近平凉路)"},{"poiid":"B2094655D26FA7FD429B","title":"鑫隆公寓(南门)","lon":"121.53353","lat":"31.26157","category":"47","category_name":"住宅区","address":"平凉路1157弄1-12号"},{"poiid":"B2094757D16FA3FC439F","title":"大汁味黄金生煎饼","lon":"121.5349381","lat":"31.261302231","category":"68","category_name":"快餐厅","address":"杨浦区眉州路311号(近平凉路)"},{"poiid":"B2094750D664A0FA479C","title":"老盛兴苏州汤包馆(眉州路店)","lon":"121.536","lat":"31.261","category":"68","category_name":"快餐厅","address":"杨浦区眉州路300号(近沈阳路)"},{"poiid":"B2094655D26BA1FA4099","title":"眉州路河间路","lon":"121.53404","lat":"31.26299","category":"38","category_name":"公交车站","address":""},{"poiid":"B2094655D26CA6FB4298","title":"平凉路1115弄小区(南门)","lon":"121.53283","lat":"31.26121","category":"47","category_name":"住宅区","address":"平凉路1115弄"},{"poiid":"B2094655D26CA6FD489C","title":"平凉路1115弄小区","lon":"121.53271","lat":"31.26136","category":"47","category_name":"住宅区","address":"平凉路1115弄"},{"poiid":"B2094757D66DA6FB429D","title":"平凉路眉州路烧烤","lon":"121.532160403","lat":"31.261891744","category":"247","category_name":"餐饮美食","address":"上海平凉路眉州路口"},{"poiid":"B2094757D46BA5FE449F","title":"苏州面馆 平凉路店","lon":"121.531782","lat":"31.260529","category":"68","category_name":"快餐厅","address":"杨浦区平凉路1055号(近兰州路)"},{"poiid":"B2094757D16CA1F84992","title":"其他画廊","lon":"121.532349","lat":"31.260962","category":"184","category_name":"美术馆","address":"上海普陀区莫干山路50号M50创意园区9号楼101"},{"poiid":"B2094757D069A1FD409F","title":"贝贝乐游泳馆","lon":"121.53412925","lat":"31.261644678","category":"231","category_name":"游泳馆","address":"上海平凉路眉洲路"},{"poiid":"B2094654D56EA7F94599","title":"永琪美容美发(华谊星城大厦西)","lon":"121.53442","lat":"31.26162","category":"148","category_name":"美容美发店","address":""},{"poiid":"B2094655D26EA0FE4493","title":"速8酒店(上海东外滩店)","lon":"121.53542","lat":"31.26133","category":"216","category_name":"经济型连锁酒店","address":"眉州路300号"},{"poiid":"B2094757D16EABFB449C","title":"星風尚","lon":"121.5339081","lat":"31.261889244","category":"148","category_name":"美容美发店","address":"上海杨浦区平凉路1177號"},{"poiid":"B2094655D26DA5FE409C","title":"眉州路515弄小区","lon":"121.53205","lat":"31.26332","category":"47","category_name":"住宅区","address":"眉州路515弄27-29号"},{"poiid":"B2094757D06FA3FD429E","title":"红房子妇产科医院(杨浦分院)","lon":"121.534619481","lat":"31.2590112668","category":"162","category_name":"医院","address":"上海杨浦区沈阳路128号(近眉州路)"},{"poiid":"B2094757D06FA3F5449C","title":"平凉路眉州路","lon":"121.534188","lat":"31.261715","category":"47","category_name":"住宅区","address":"上海平凉路眉州路"},{"poiid":"B2094757D06FA2FD469B","title":"复旦大学附属妇产科医院(杨浦院区)","lon":"121.53505897","lat":"31.260293398","category":"68","category_name":"快餐厅","address":"杨浦区沈阳路128号(近眉州路)"},{"poiid":"B2094757D06FA3F84493","title":"85度C(平凉店)","lon":"121.534764","lat":"31.261609","category":"112","category_name":"糕饼店","address":"杨浦区平凉路1200号1楼(近眉州路)"},{"poiid":"B2094757D16CA6FF479C","title":"平凉路宁国路","lon":"121.536385103","lat":"31.262084248","category":"500","category_name":"未知分类","address":"上海市杨浦区平凉路宁国路"},{"poiid":"B2094757D065A2FC4392","title":"东宫","lon":"121.53514872","lat":"31.261538216","category":"260","category_name":"其他","address":"上海三星路"},{"poiid":"B2094757D06BA1F9459D","title":"美好人声","lon":"121.53430335","lat":"31.261921044","category":"170","category_name":"KTV","address":"杨浦区平凉路1295号2楼(近渭南路)"},{"poiid":"B2094654D56EA7F94092","title":"华谊星城大厦","lon":"121.53456","lat":"31.2615","category":"46","category_name":"楼宇","address":"越秀区广州沿江中路298号"},{"poiid":"B2094757D064A3FB4592","title":"天目山农庄","lon":"121.5339941","lat":"31.261634238","category":"87","category_name":"特色／地方风味餐厅","address":"杨浦区平凉路1158号"},{"poiid":"B2094757D069A3FC459C","title":"杨浦区人民法院","lon":"121.530405","lat":"31.263854","category":"608","category_name":"法院","address":"上海河间路29号"},{"poiid":"B2094655D268ABFE409C","title":"圣骊河滨苑","lon":"121.531363","lat":"31.258321","category":"47","category_name":"住宅区","address":"杨浦平凉路923-925号"},{"poiid":"B2094757D069A6FB499F","title":"中国银行(杨浦支行)","lon":"121.53367","lat":"31.26103","category":"150","category_name":"银行","address":"杨浦区平凉路1128号"},{"poiid":"B2094757D069A2FB4693","title":"齐齐哈尔路","lon":"121.529077103","lat":"31.2606302176","category":"38","category_name":"公交车站","address":"上海37路终点站齐齐哈尔路"},{"poiid":"B2094757D068A4F94692","title":"荣丰花园","lon":"121.53181","lat":"31.265228","category":"47","category_name":"住宅区","address":"上海市杨浦区长阳路1440弄内"},{"poiid":"B2094654D56EA7F9489E","title":"上海纺织科技工业园","lon":"121.53138","lat":"31.25975","category":"45","category_name":"产业园区","address":"上海杨浦区平凉路988号"},{"poiid":"B2094654DB6BA2FD469C","title":"创意联盟产业园区","lon":"121.53234","lat":"31.26096","category":"46","category_name":"楼宇","address":"杨浦区平凉路1055号(近兰州路)"},{"poiid":"B2094750D36BA0F9429A","title":"上海市杨浦区中医医院","lon":"121.534133","lat":"31.261646","category":"162","category_name":"医院","address":null},{"poiid":"B2094654DB69A6F54399","title":"上岛咖啡 平凉店 UBC Coffee","lon":"121.531594054","lat":"31.260515793","category":"260","category_name":"其他","address":"杨浦区平凉路1055号(近兰州路)"},{"poiid":"B2094757D164A0FB4992","title":"博顺桌球俱乐部","lon":"121.534199103","lat":"31.2614702352","category":"500","category_name":"未知分类","address":"杨浦区平凉路1136号2楼"},{"poiid":"B2094654D56FA3FE429B","title":"鑫隆公寓","lon":"121.53342","lat":"31.261616","category":"47","category_name":"住宅区","address":"平凉路1157弄1-12号"},{"poiid":"B2094654DB6BA2FD469D","title":"兰州路滨河休闲街(兰州路)","lon":"121.53128","lat":"31.26045","category":"116","category_name":"特色商业街","address":""},{"poiid":"B2094757D16BA4FB439B","title":"上海浦东国际货运有限公司","lon":"121.533054","lat":"31.261418","category":"46","category_name":"楼宇","address":"上海市杨浦区平凉路1090号天科国际大厦3楼"},{"poiid":"B2094757D064A1F9469F","title":"辽阳中学","lon":"121.53376013","lat":"31.263913252","category":"55","category_name":"中学","address":"杨浦区眉州路540号(近平凉路)"},{"poiid":"B2094757D06AA0FA439E","title":"华谊星城","lon":"121.534816","lat":"31.260837","category":"47","category_name":"住宅区","address":"上海华谊星城名苑"},{"poiid":"B2094757D66FA3FF4692","title":"老盛兴","lon":"121.5339477","lat":"31.261841943","category":"500","category_name":"未知分类","address":"上海平凉路眉州路"},{"poiid":"B2094654DB6BA2FD469E","title":"爱齿口腔专科门诊部","lon":"121.53319","lat":"31.2614","category":"162","category_name":"医院","address":"杨浦区平凉路1127号(近兰州路)"},{"poiid":"B2094655D26CA7FA409C","title":"九州家园","lon":"121.53374","lat":"31.262096","category":"47","category_name":"住宅区","address":"上海市闵行区莘朱路879弄"},{"poiid":"B2094654D56FA3FE429E","title":"好德便利No.270","lon":"121.53344","lat":"31.26154","category":"117","category_name":"便民商店/便利店","address":"平凉路1151"},{"poiid":"B2094750DB6FA5F84598","title":"杨浦区中医医院","lon":"121.534004","lat":"31.26164","category":"162","category_name":"医院","address":"眉州路185号"},{"poiid":"B2094654D56EA7F4419F","title":"界龙商务大楼","lon":"121.53094003078","lat":"31.262950574602","category":"46","category_name":"楼宇","address":"海淀区城府路,中关村东路交叉处西北方向"},{"poiid":"B2094757D66AA0F84992","title":"梅傻子酒家 眉州路店","lon":"121.53409444438","lat":"31.262823210896","category":"76","category_name":"上海菜","address":"杨浦区眉州路479号(近平凉路)"},{"poiid":"B2094655D26DABFB429B","title":"九州丽园","lon":"121.53197","lat":"31.261789","category":"47","category_name":"住宅区","address":"上海市杨浦区平凉路1099弄"},{"poiid":"B2094757D76EA3FD4998","title":"鼎旺牛奶棚 平凉路店","lon":"121.534966054","lat":"31.262045793","category":"67","category_name":"甜品店","address":"杨浦区平凉路1236号(近眉州路)"},{"poiid":"B2094654DB6BA3F44399","title":"三益里","lon":"121.532","lat":"31.2621","category":"47","category_name":"住宅区","address":"许昌路452弄"},{"poiid":"B2094757D064AAFC429F","title":"米宝宝快餐店(平凉路店)","lon":"121.53524","lat":"31.26208","category":"68","category_name":"快餐厅","address":"杨浦区平凉路1241号(近眉州路)"},{"poiid":"B2094654D56FA3FD4998","title":"锦良苑","lon":"121.533","lat":"31.262819","category":"47","category_name":"住宅区","address":"上海市杨浦区眉州路465号(近平凉路)"},{"poiid":"B2094655D26FA7FD429B","title":"鑫隆公寓(南门)","lon":"121.53353","lat":"31.26157","category":"47","category_name":"住宅区","address":"平凉路1157弄1-12号"},{"poiid":"B2094757D16FA3FC439F","title":"大汁味黄金生煎饼","lon":"121.5349381","lat":"31.261302231","category":"68","category_name":"快餐厅","address":"杨浦区眉州路311号(近平凉路)"},{"poiid":"B2094750D664A0FA479C","title":"老盛兴苏州汤包馆(眉州路店)","lon":"121.536","lat":"31.261","category":"68","category_name":"快餐厅","address":"杨浦区眉州路300号(近沈阳路)"},{"poiid":"B2094655D26BA1FA4099","title":"眉州路河间路","lon":"121.53404","lat":"31.26299","category":"38","category_name":"公交车站","address":""},{"poiid":"B2094655D26CA6FB4298","title":"平凉路1115弄小区(南门)","lon":"121.53283","lat":"31.26121","category":"47","category_name":"住宅区","address":"平凉路1115弄"},{"poiid":"B2094655D26CA6FD489C","title":"平凉路1115弄小区","lon":"121.53271","lat":"31.26136","category":"47","category_name":"住宅区","address":"平凉路1115弄"},{"poiid":"B2094757D66DA6FB429D","title":"平凉路眉州路烧烤","lon":"121.532160403","lat":"31.261891744","category":"247","category_name":"餐饮美食","address":"上海平凉路眉州路口"},{"poiid":"B2094757D46BA5FE449F","title":"苏州面馆 平凉路店","lon":"121.531782","lat":"31.260529","category":"68","category_name":"快餐厅","address":"杨浦区平凉路1055号(近兰州路)"},{"poiid":"B2094757D16CA1F84992","title":"其他画廊","lon":"121.532349","lat":"31.260962","category":"184","category_name":"美术馆","address":"上海普陀区莫干山路50号M50创意园区9号楼101"},{"poiid":"B2094757D069A1FD409F","title":"贝贝乐游泳馆","lon":"121.53412925","lat":"31.261644678","category":"231","category_name":"游泳馆","address":"上海平凉路眉洲路"},{"poiid":"B2094654D56EA7F94599","title":"永琪美容美发(华谊星城大厦西)","lon":"121.53442","lat":"31.26162","category":"148","category_name":"美容美发店","address":""},{"poiid":"B2094655D26EA0FE4493","title":"速8酒店(上海东外滩店)","lon":"121.53542","lat":"31.26133","category":"216","category_name":"经济型连锁酒店","address":"眉州路300号"},{"poiid":"B2094757D16EABFB449C","title":"星風尚","lon":"121.5339081","lat":"31.261889244","category":"148","category_name":"美容美发店","address":"上海杨浦区平凉路1177號"},{"poiid":"B2094655D26DA5FE409C","title":"眉州路515弄小区","lon":"121.53205","lat":"31.26332","category":"47","category_name":"住宅区","address":"眉州路515弄27-29号"}]