[{"poiid":"B2094655D268A3FF499D","title":"上戏剧院","lon":"121.43994","lat":"31.21654","category":"179","category_name":"音乐厅","address":"静安区华山路600号上海戏剧学院内(近镇宁路)"},{"poiid":"B2094655D26CA4FC439B","title":"华东医院(总部)","lon":"121.44155","lat":"31.21829","category":"162","category_name":"医院","address":"上海静安区延安西路221号(近华山医院)"},{"poiid":"B2094750D26DA6F5489F","title":"上海戏剧学院","lon":"121.440468","lat":"31.216885","category":"671","category_name":"高校中心点","address":"上海静安区华山路630号(近华山医院)"},{"poiid":"B2094753D76FAAFA449C","title":"上海滩国泰旗舰店","lon":"121.466011","lat":"31.216125","category":"249","category_name":"购物服务","address":"淮海中路868号"},{"poiid":"B209475CD564A7F8439E","title":"上海滩中信泰富店","lon":"121.45602","lat":"31.22851","category":"119","category_name":"商场","address":"\"南京西路1168号中信泰富广场，店铺号221.\r\n\""},{"poiid":"B2094654DB6AA6F84099","title":"上海美丽园龙都大酒店","lon":"121.43815763806344","lat":"31.21838530295108","category":"214","category_name":"四星级宾馆","address":"上海市静安区延安西路396号(上海戏剧学院对面,圆明讲堂旁)"},{"poiid":"B2094757D568A0FF409D","title":"上海日航饭店","lon":"121.43714247","lat":"31.21759304","category":"213","category_name":"五星级宾馆","address":"长宁区延安西路488号(近镇宁路)"},{"poiid":"B2094757D068A2FE409A","title":"中国福利会儿童艺术剧院马兰花剧场","lon":"121.440491","lat":"31.216531","category":"180","category_name":"剧场","address":"上海徐汇区华山路643号"},{"poiid":"B2094757D06FA3F5429E","title":"一罗华","lon":"121.4405083858","lat":"31.219661097649","category":"95","category_name":"日本料理","address":"静安区延安西路200号2号楼底楼(近乌鲁木齐北路)"},{"poiid":"B2094757D06AA4F84893","title":"上海戏剧学院红楼","lon":"121.4407196","lat":"31.216863632","category":"500","category_name":"未知分类","address":"上海华山路630号"},{"poiid":"B2094757D06FA3FA459E","title":"星巴克(协和店)","lon":"121.43694","lat":"31.21935","category":"260","category_name":"其他","address":"静安区南京西路2068号协和城01C铺(镇宁路口)"},{"poiid":"B2094757D06FAAFD4399","title":"小南国海之源日式温泉(美丽园店)","lon":"121.437987","lat":"31.218408","category":"149","category_name":"洗浴推拿场所","address":"上海静安区延安西路396号美丽园龙都大酒店3-4楼(镇宁路口)  "},{"poiid":"B2094757D468A4FC4993","title":"FENNEL LOUNGE","lon":"121.4369483","lat":"31.2186778","category":"94","category_name":"西餐厅","address":"长宁区镇宁路(近番禺路)"},{"poiid":"B2094654D565A0F84299","title":"美丽园大厦","lon":"121.43921","lat":"31.21888","category":"46","category_name":"楼宇","address":"城西路188、200号等"},{"poiid":"B2094654DB65A3F4479E","title":"华东医院门诊急诊住院部","lon":"121.44035","lat":"31.21891","category":"162","category_name":"医院","address":"延安西路257"},{"poiid":"B2094757D16DA4FE479D","title":"上海戏剧学院学生公寓","lon":"121.439758951","lat":"31.2178285935","category":"500","category_name":"未知分类","address":"上海延安西路331号尚熙大厦"},{"poiid":"B2094654D565A7FA4992","title":"申亚金融广场","lon":"121.439","lat":"31.2206","category":"46","category_name":"楼宇","address":"上海市杨浦区邯郸路近淞沪路口"},{"poiid":"B2094757DA64A0FF469C","title":"太平洋企业中心","lon":"121.439","lat":"31.2209","category":"252","category_name":"楼宇机构","address":"上海市长宁区延安西路889号"},{"poiid":"B2094654DB6BA7F54999","title":"复旦大学附属华东医院(延安西路)","lon":"121.44165","lat":"31.21905","category":"265","category_name":"知名企业","address":"延安西路221"},{"poiid":"B2094750DA6DAAFD469F","title":"上海东方艺术中心","lon":"121.440086","lat":"31.218324","category":"500","category_name":"未知分类","address":null},{"poiid":"B2094654D564A4F4449B","title":"尚熙大厦","lon":"121.43985","lat":"31.21836","category":"46","category_name":"楼宇","address":"朝阳区北三环东路与京顺路交接处路口北侧"},{"poiid":"B2094757D06FA0FD419C","title":"乐购(镇宁店)","lon":"121.43677266","lat":"31.21965569","category":"118","category_name":"超级市场","address":"静安区南京西路2068号协和城B1-B2楼(镇宁路口)"},{"poiid":"B2094655D26FA0FA439C","title":"圆明讲堂(延安西路)","lon":"121.43772","lat":"31.21771","category":"250","category_name":"公园户外","address":"延安西路458"},{"poiid":"B2094757D064ABFF449D","title":"华东医院北楼","lon":"121.439631586","lat":"31.2164781621","category":"500","category_name":"未知分类","address":"上海延安西路221号"},{"poiid":"B2094654D564A4F44393","title":"华东医院门诊部","lon":"121.44006","lat":"31.21881","category":"162","category_name":"医院","address":""},{"poiid":"B2094654D565A0FE439C","title":"半岛品珍舫 镇宁店","lon":"121.43635956924","lat":"31.219206349993","category":"76","category_name":"上海菜","address":"静安区镇宁路227号荣轩大厦B1楼(东诸安浜路口)"},{"poiid":"B2094757D068AAF54699","title":"美丽园小区","lon":"121.43933","lat":"31.217754","category":"47","category_name":"住宅区","address":"上海南京西路延安西路"},{"poiid":"B2094757D569A3F54892","title":"复旦大学附属华东医院门诊住院部","lon":"121.4399466","lat":"31.21876763","category":"162","category_name":"医院","address":"延安西路321"},{"poiid":"B2094751D56EA0F84492","title":"清迈府泰国料理(延安西路店)","lon":"121.43834","lat":"31.21885","category":"99","category_name":"泰国／越南菜品餐厅","address":"静安区延安西路358号美丽园大厦内(近镇宁路)"},{"poiid":"B2094757D06BA2FC449F","title":"马兰花剧场","lon":"121.440384","lat":"31.216386","category":"500","category_name":"未知分类","address":"静安区华山路643号"},{"poiid":"B2094654D564A4FC4599","title":"裕丰国际大厦","lon":"121.441","lat":"31.2205","category":"46","category_name":"楼宇","address":"黄浦区南京东路311号"},{"poiid":"B2094757D165A7FE459C","title":"中福会少年宫小伙伴爱好者活动中心","lon":"121.43930558","lat":"31.218490201","category":"500","category_name":"未知分类","address":"上海延安西路300号静安大厦"},{"poiid":"B2094757D16CA5FB409F","title":"The Fennel Lounge","lon":"121.436649586","lat":"31.2185482025","category":"500","category_name":"未知分类","address":"上海镇宁路217号"},{"poiid":"B2094757D068A5F4429D","title":"欣安大厦","lon":"121.43734216","lat":"31.218569001","category":"46","category_name":"楼宇","address":"内外联公寓位于静安长宁路江苏路"},{"poiid":"B2094757D16AA4F5489B","title":"兰博基尼上海城市展厅(旗舰店)","lon":"121.439405586","lat":"31.2184011997","category":"500","category_name":"未知分类","address":"长宁区延安西路327号尚熙大夏1楼(南京西路延安西路)"},{"poiid":"B2094655D26FA6F9459D","title":"上海美丽园龙都大酒店(南门)","lon":"121.4384","lat":"31.21811","category":"214","category_name":"四星级宾馆","address":"上海市静安区延安西路396号（上海戏剧学院对面、圆明讲堂旁）"},{"poiid":"B2094757D568AAF54699","title":"上海戏剧学院综合楼","lon":"121.4391253","lat":"31.21630073","category":"52","category_name":"高等院校","address":"上海长宁区法华镇路535号上海交通大学法华校区"},{"poiid":"B2094750DB6FA3F9479D","title":"Seve Italian Restaurant","lon":"121.440879","lat":"31.2168","category":"94","category_name":"西餐厅","address":"静安区华山路600号上海戏剧学院内(近镇宁路)"},{"poiid":"B2094757D168A5FA4893","title":"老夫子 延安西路店","lon":"121.438021054","lat":"31.217313793","category":"112","category_name":"糕饼店","address":"静安区延安西路379弄4号(近镇宁路)"},{"poiid":"B2094654DB6BA6FF499A","title":"永兴商务楼","lon":"121.43759","lat":"31.21891","category":"46","category_name":"楼宇","address":"朝阳区北三环东路与京顺路交接处路口北侧"},{"poiid":"B2094757D065A3F4419E","title":"华山医院0号楼2楼内分泌科","lon":"121.43914088","lat":"31.218139594","category":"162","category_name":"医院","address":"上海市静安区乌鲁木齐中路12号"},{"poiid":"B2094654D565A0F84198","title":"静安联恒商业大厦","lon":"121.43861","lat":"31.2183","category":"46","category_name":"楼宇","address":"延安西路394弄8"},{"poiid":"B2094750DB65A1F5479F","title":"市三女中","lon":"121.438446","lat":"31.220645","category":"253","category_name":"校园生活","address":"长宁区江苏路愚园路"},{"poiid":"B2094757D16AA7FE499F","title":"Ole'","lon":"121.43934858","lat":"31.218292197","category":"500","category_name":"未知分类","address":"上海长宁区延安西路358号"},{"poiid":"B2094757D165A3FF4799","title":"大鹤日本料理","lon":"121.44042","lat":"31.21982","category":"95","category_name":"日本料理","address":"静安区南京西路2068号协和城G108铺(镇宁路口)"},{"poiid":"B2094757D065A6FA4792","title":"延安高架","lon":"121.43877382","lat":"31.217960529","category":"500","category_name":"未知分类","address":"上海空中"},{"poiid":"B2094654D565A0F8439D","title":"上海国际招标有限公司","lon":"121.43921","lat":"31.21888","category":"263","category_name":"公司","address":"延安西路358号美丽园大厦14、16层"},{"poiid":"B2094757D064A2FF429A","title":"虹梅路老外街","lon":"121.438257586","lat":"31.2187952074","category":"500","category_name":"未知分类","address":"上海虹梅路3338号"},{"poiid":"B2094757D069AAFC459D","title":"全家便利店(延安西路店)","lon":"121.44085","lat":"31.21886","category":"117","category_name":"便民商店/便利店","address":"上海静安区延安西路238号(南京西路口)"},{"poiid":"B2094757D06BAAF8439B","title":"兰博基尼上海晶品车汽车","lon":"121.43951973","lat":"31.218459325","category":"158","category_name":"汽车销售","address":"静安区延安西路331号(近镇宁路)"},{"poiid":"B2094655D268A3FF499D","title":"上戏剧院","lon":"121.43994","lat":"31.21654","category":"179","category_name":"音乐厅","address":"静安区华山路600号上海戏剧学院内(近镇宁路)"},{"poiid":"B2094655D26CA4FC439B","title":"华东医院(总部)","lon":"121.44155","lat":"31.21829","category":"162","category_name":"医院","address":"上海静安区延安西路221号(近华山医院)"},{"poiid":"B2094750D26DA6F5489F","title":"上海戏剧学院","lon":"121.440468","lat":"31.216885","category":"671","category_name":"高校中心点","address":"上海静安区华山路630号(近华山医院)"},{"poiid":"B2094753D76FAAFA449C","title":"上海滩国泰旗舰店","lon":"121.466011","lat":"31.216125","category":"249","category_name":"购物服务","address":"淮海中路868号"},{"poiid":"B209475CD564A7F8439E","title":"上海滩中信泰富店","lon":"121.45602","lat":"31.22851","category":"119","category_name":"商场","address":"\"南京西路1168号中信泰富广场，店铺号221.\r\n\""},{"poiid":"B2094654DB6AA6F84099","title":"上海美丽园龙都大酒店","lon":"121.43815763806344","lat":"31.21838530295108","category":"214","category_name":"四星级宾馆","address":"上海市静安区延安西路396号(上海戏剧学院对面,圆明讲堂旁)"},{"poiid":"B2094757D568A0FF409D","title":"上海日航饭店","lon":"121.43714247","lat":"31.21759304","category":"213","category_name":"五星级宾馆","address":"长宁区延安西路488号(近镇宁路)"},{"poiid":"B2094757D068A2FE409A","title":"中国福利会儿童艺术剧院马兰花剧场","lon":"121.440491","lat":"31.216531","category":"180","category_name":"剧场","address":"上海徐汇区华山路643号"},{"poiid":"B2094757D06FA3F5429E","title":"一罗华","lon":"121.4405083858","lat":"31.219661097649","category":"95","category_name":"日本料理","address":"静安区延安西路200号2号楼底楼(近乌鲁木齐北路)"},{"poiid":"B2094757D06AA4F84893","title":"上海戏剧学院红楼","lon":"121.4407196","lat":"31.216863632","category":"500","category_name":"未知分类","address":"上海华山路630号"},{"poiid":"B2094757D06FA3FA459E","title":"星巴克(协和店)","lon":"121.43694","lat":"31.21935","category":"260","category_name":"其他","address":"静安区南京西路2068号协和城01C铺(镇宁路口)"},{"poiid":"B2094757D06FAAFD4399","title":"小南国海之源日式温泉(美丽园店)","lon":"121.437987","lat":"31.218408","category":"149","category_name":"洗浴推拿场所","address":"上海静安区延安西路396号美丽园龙都大酒店3-4楼(镇宁路口)  "},{"poiid":"B2094757D468A4FC4993","title":"FENNEL LOUNGE","lon":"121.4369483","lat":"31.2186778","category":"94","category_name":"西餐厅","address":"长宁区镇宁路(近番禺路)"},{"poiid":"B2094654D565A0F84299","title":"美丽园大厦","lon":"121.43921","lat":"31.21888","category":"46","category_name":"楼宇","address":"城西路188、200号等"},{"poiid":"B2094654DB65A3F4479E","title":"华东医院门诊急诊住院部","lon":"121.44035","lat":"31.21891","category":"162","category_name":"医院","address":"延安西路257"},{"poiid":"B2094757D16DA4FE479D","title":"上海戏剧学院学生公寓","lon":"121.439758951","lat":"31.2178285935","category":"500","category_name":"未知分类","address":"上海延安西路331号尚熙大厦"},{"poiid":"B2094654D565A7FA4992","title":"申亚金融广场","lon":"121.439","lat":"31.2206","category":"46","category_name":"楼宇","address":"上海市杨浦区邯郸路近淞沪路口"},{"poiid":"B2094757DA64A0FF469C","title":"太平洋企业中心","lon":"121.439","lat":"31.2209","category":"252","category_name":"楼宇机构","address":"上海市长宁区延安西路889号"},{"poiid":"B2094654DB6BA7F54999","title":"复旦大学附属华东医院(延安西路)","lon":"121.44165","lat":"31.21905","category":"265","category_name":"知名企业","address":"延安西路221"},{"poiid":"B2094750DA6DAAFD469F","title":"上海东方艺术中心","lon":"121.440086","lat":"31.218324","category":"500","category_name":"未知分类","address":null},{"poiid":"B2094654D564A4F4449B","title":"尚熙大厦","lon":"121.43985","lat":"31.21836","category":"46","category_name":"楼宇","address":"朝阳区北三环东路与京顺路交接处路口北侧"},{"poiid":"B2094757D06FA0FD419C","title":"乐购(镇宁店)","lon":"121.43677266","lat":"31.21965569","category":"118","category_name":"超级市场","address":"静安区南京西路2068号协和城B1-B2楼(镇宁路口)"},{"poiid":"B2094655D26FA0FA439C","title":"圆明讲堂(延安西路)","lon":"121.43772","lat":"31.21771","category":"250","category_name":"公园户外","address":"延安西路458"},{"poiid":"B2094757D064ABFF449D","title":"华东医院北楼","lon":"121.439631586","lat":"31.2164781621","category":"500","category_name":"未知分类","address":"上海延安西路221号"},{"poiid":"B2094654D564A4F44393","title":"华东医院门诊部","lon":"121.44006","lat":"31.21881","category":"162","category_name":"医院","address":""},{"poiid":"B2094654D565A0FE439C","title":"半岛品珍舫 镇宁店","lon":"121.43635956924","lat":"31.219206349993","category":"76","category_name":"上海菜","address":"静安区镇宁路227号荣轩大厦B1楼(东诸安浜路口)"},{"poiid":"B2094757D068AAF54699","title":"美丽园小区","lon":"121.43933","lat":"31.217754","category":"47","category_name":"住宅区","address":"上海南京西路延安西路"},{"poiid":"B2094757D569A3F54892","title":"复旦大学附属华东医院门诊住院部","lon":"121.4399466","lat":"31.21876763","category":"162","category_name":"医院","address":"延安西路321"},{"poiid":"B2094751D56EA0F84492","title":"清迈府泰国料理(延安西路店)","lon":"121.43834","lat":"31.21885","category":"99","category_name":"泰国／越南菜品餐厅","address":"静安区延安西路358号美丽园大厦内(近镇宁路)"},{"poiid":"B2094757D06BA2FC449F","title":"马兰花剧场","lon":"121.440384","lat":"31.216386","category":"500","category_name":"未知分类","address":"静安区华山路643号"},{"poiid":"B2094654D564A4FC4599","title":"裕丰国际大厦","lon":"121.441","lat":"31.2205","category":"46","category_name":"楼宇","address":"黄浦区南京东路311号"},{"poiid":"B2094757D165A7FE459C","title":"中福会少年宫小伙伴爱好者活动中心","lon":"121.43930558","lat":"31.218490201","category":"500","category_name":"未知分类","address":"上海延安西路300号静安大厦"},{"poiid":"B2094757D16CA5FB409F","title":"The Fennel Lounge","lon":"121.436649586","lat":"31.2185482025","category":"500","category_name":"未知分类","address":"上海镇宁路217号"},{"poiid":"B2094757D068A5F4429D","title":"欣安大厦","lon":"121.43734216","lat":"31.218569001","category":"46","category_name":"楼宇","address":"内外联公寓位于静安长宁路江苏路"},{"poiid":"B2094757D16AA4F5489B","title":"兰博基尼上海城市展厅(旗舰店)","lon":"121.439405586","lat":"31.2184011997","category":"500","category_name":"未知分类","address":"长宁区延安西路327号尚熙大夏1楼(南京西路延安西路)"},{"poiid":"B2094655D26FA6F9459D","title":"上海美丽园龙都大酒店(南门)","lon":"121.4384","lat":"31.21811","category":"214","category_name":"四星级宾馆","address":"上海市静安区延安西路396号（上海戏剧学院对面、圆明讲堂旁）"},{"poiid":"B2094757D568AAF54699","title":"上海戏剧学院综合楼","lon":"121.4391253","lat":"31.21630073","category":"52","category_name":"高等院校","address":"上海长宁区法华镇路535号上海交通大学法华校区"},{"poiid":"B2094750DB6FA3F9479D","title":"Seve Italian Restaurant","lon":"121.440879","lat":"31.2168","category":"94","category_name":"西餐厅","address":"静安区华山路600号上海戏剧学院内(近镇宁路)"},{"poiid":"B2094757D168A5FA4893","title":"老夫子 延安西路店","lon":"121.438021054","lat":"31.217313793","category":"112","category_name":"糕饼店","address":"静安区延安西路379弄4号(近镇宁路)"},{"poiid":"B2094654DB6BA6FF499A","title":"永兴商务楼","lon":"121.43759","lat":"31.21891","category":"46","category_name":"楼宇","address":"朝阳区北三环东路与京顺路交接处路口北侧"},{"poiid":"B2094757D065A3F4419E","title":"华山医院0号楼2楼内分泌科","lon":"121.43914088","lat":"31.218139594","category":"162","category_name":"医院","address":"上海市静安区乌鲁木齐中路12号"},{"poiid":"B2094654D565A0F84198","title":"静安联恒商业大厦","lon":"121.43861","lat":"31.2183","category":"46","category_name":"楼宇","address":"延安西路394弄8"},{"poiid":"B2094750DB65A1F5479F","title":"市三女中","lon":"121.438446","lat":"31.220645","category":"253","category_name":"校园生活","address":"长宁区江苏路愚园路"},{"poiid":"B2094757D16AA7FE499F","title":"Ole'","lon":"121.43934858","lat":"31.218292197","category":"500","category_name":"未知分类","address":"上海长宁区延安西路358号"},{"poiid":"B2094757D165A3FF4799","title":"大鹤日本料理","lon":"121.44042","lat":"31.21982","category":"95","category_name":"日本料理","address":"静安区南京西路2068号协和城G108铺(镇宁路口)"},{"poiid":"B2094757D065A6FA4792","title":"延安高架","lon":"121.43877382","lat":"31.217960529","category":"500","category_name":"未知分类","address":"上海空中"},{"poiid":"B2094654D565A0F8439D","title":"上海国际招标有限公司","lon":"121.43921","lat":"31.21888","category":"263","category_name":"公司","address":"延安西路358号美丽园大厦14、16层"},{"poiid":"B2094757D064A2FF429A","title":"虹梅路老外街","lon":"121.438257586","lat":"31.2187952074","category":"500","category_name":"未知分类","address":"上海虹梅路3338号"},{"poiid":"B2094757D069AAFC459D","title":"全家便利店(延安西路店)","lon":"121.44085","lat":"31.21886","category":"117","category_name":"便民商店/便利店","address":"上海静安区延安西路238号(南京西路口)"},{"poiid":"B2094757D06BAAF8439B","title":"兰博基尼上海晶品车汽车","lon":"121.43951973","lat":"31.218459325","category":"158","category_name":"汽车销售","address":"静安区延安西路331号(近镇宁路)"},{"poiid":"B2094655D268A3FF499D","title":"上戏剧院","lon":"121.43994","lat":"31.21654","category":"179","category_name":"音乐厅","address":"静安区华山路600号上海戏剧学院内(近镇宁路)"},{"poiid":"B2094655D26CA4FC439B","title":"华东医院(总部)","lon":"121.44155","lat":"31.21829","category":"162","category_name":"医院","address":"上海静安区延安西路221号(近华山医院)"},{"poiid":"B2094750D26DA6F5489F","title":"上海戏剧学院","lon":"121.440468","lat":"31.216885","category":"671","category_name":"高校中心点","address":"上海静安区华山路630号(近华山医院)"},{"poiid":"B2094753D76FAAFA449C","title":"上海滩国泰旗舰店","lon":"121.466011","lat":"31.216125","category":"249","category_name":"购物服务","address":"淮海中路868号"},{"poiid":"B209475CD564A7F8439E","title":"上海滩中信泰富店","lon":"121.45602","lat":"31.22851","category":"119","category_name":"商场","address":"\"南京西路1168号中信泰富广场，店铺号221.\r\n\""},{"poiid":"B2094654DB6AA6F84099","title":"上海美丽园龙都大酒店","lon":"121.43815763806344","lat":"31.21838530295108","category":"214","category_name":"四星级宾馆","address":"上海市静安区延安西路396号(上海戏剧学院对面,圆明讲堂旁)"},{"poiid":"B2094757D568A0FF409D","title":"上海日航饭店","lon":"121.43714247","lat":"31.21759304","category":"213","category_name":"五星级宾馆","address":"长宁区延安西路488号(近镇宁路)"},{"poiid":"B2094757D068A2FE409A","title":"中国福利会儿童艺术剧院马兰花剧场","lon":"121.440491","lat":"31.216531","category":"180","category_name":"剧场","address":"上海徐汇区华山路643号"},{"poiid":"B2094757D06FA3F5429E","title":"一罗华","lon":"121.4405083858","lat":"31.219661097649","category":"95","category_name":"日本料理","address":"静安区延安西路200号2号楼底楼(近乌鲁木齐北路)"},{"poiid":"B2094757D06AA4F84893","title":"上海戏剧学院红楼","lon":"121.4407196","lat":"31.216863632","category":"500","category_name":"未知分类","address":"上海华山路630号"},{"poiid":"B2094757D06FA3FA459E","title":"星巴克(协和店)","lon":"121.43694","lat":"31.21935","category":"260","category_name":"其他","address":"静安区南京西路2068号协和城01C铺(镇宁路口)"},{"poiid":"B2094757D06FAAFD4399","title":"小南国海之源日式温泉(美丽园店)","lon":"121.437987","lat":"31.218408","category":"149","category_name":"洗浴推拿场所","address":"上海静安区延安西路396号美丽园龙都大酒店3-4楼(镇宁路口)  "},{"poiid":"B2094757D468A4FC4993","title":"FENNEL LOUNGE","lon":"121.4369483","lat":"31.2186778","category":"94","category_name":"西餐厅","address":"长宁区镇宁路(近番禺路)"},{"poiid":"B2094654D565A0F84299","title":"美丽园大厦","lon":"121.43921","lat":"31.21888","category":"46","category_name":"楼宇","address":"城西路188、200号等"},{"poiid":"B2094654DB65A3F4479E","title":"华东医院门诊急诊住院部","lon":"121.44035","lat":"31.21891","category":"162","category_name":"医院","address":"延安西路257"},{"poiid":"B2094757D16DA4FE479D","title":"上海戏剧学院学生公寓","lon":"121.439758951","lat":"31.2178285935","category":"500","category_name":"未知分类","address":"上海延安西路331号尚熙大厦"},{"poiid":"B2094654D565A7FA4992","title":"申亚金融广场","lon":"121.439","lat":"31.2206","category":"46","category_name":"楼宇","address":"上海市杨浦区邯郸路近淞沪路口"},{"poiid":"B2094757DA64A0FF469C","title":"太平洋企业中心","lon":"121.439","lat":"31.2209","category":"252","category_name":"楼宇机构","address":"上海市长宁区延安西路889号"},{"poiid":"B2094654DB6BA7F54999","title":"复旦大学附属华东医院(延安西路)","lon":"121.44165","lat":"31.21905","category":"265","category_name":"知名企业","address":"延安西路221"},{"poiid":"B2094750DA6DAAFD469F","title":"上海东方艺术中心","lon":"121.440086","lat":"31.218324","category":"500","category_name":"未知分类","address":null},{"poiid":"B2094654D564A4F4449B","title":"尚熙大厦","lon":"121.43985","lat":"31.21836","category":"46","category_name":"楼宇","address":"朝阳区北三环东路与京顺路交接处路口北侧"},{"poiid":"B2094757D06FA0FD419C","title":"乐购(镇宁店)","lon":"121.43677266","lat":"31.21965569","category":"118","category_name":"超级市场","address":"静安区南京西路2068号协和城B1-B2楼(镇宁路口)"},{"poiid":"B2094655D26FA0FA439C","title":"圆明讲堂(延安西路)","lon":"121.43772","lat":"31.21771","category":"250","category_name":"公园户外","address":"延安西路458"},{"poiid":"B2094757D064ABFF449D","title":"华东医院北楼","lon":"121.439631586","lat":"31.2164781621","category":"500","category_name":"未知分类","address":"上海延安西路221号"},{"poiid":"B2094654D564A4F44393","title":"华东医院门诊部","lon":"121.44006","lat":"31.21881","category":"162","category_name":"医院","address":""},{"poiid":"B2094654D565A0FE439C","title":"半岛品珍舫 镇宁店","lon":"121.43635956924","lat":"31.219206349993","category":"76","category_name":"上海菜","address":"静安区镇宁路227号荣轩大厦B1楼(东诸安浜路口)"},{"poiid":"B2094757D068AAF54699","title":"美丽园小区","lon":"121.43933","lat":"31.217754","category":"47","category_name":"住宅区","address":"上海南京西路延安西路"},{"poiid":"B2094757D569A3F54892","title":"复旦大学附属华东医院门诊住院部","lon":"121.4399466","lat":"31.21876763","category":"162","category_name":"医院","address":"延安西路321"},{"poiid":"B2094751D56EA0F84492","title":"清迈府泰国料理(延安西路店)","lon":"121.43834","lat":"31.21885","category":"99","category_name":"泰国／越南菜品餐厅","address":"静安区延安西路358号美丽园大厦内(近镇宁路)"},{"poiid":"B2094757D06BA2FC449F","title":"马兰花剧场","lon":"121.440384","lat":"31.216386","category":"500","category_name":"未知分类","address":"静安区华山路643号"},{"poiid":"B2094654D564A4FC4599","title":"裕丰国际大厦","lon":"121.441","lat":"31.2205","category":"46","category_name":"楼宇","address":"黄浦区南京东路311号"},{"poiid":"B2094757D165A7FE459C","title":"中福会少年宫小伙伴爱好者活动中心","lon":"121.43930558","lat":"31.218490201","category":"500","category_name":"未知分类","address":"上海延安西路300号静安大厦"},{"poiid":"B2094757D16CA5FB409F","title":"The Fennel Lounge","lon":"121.436649586","lat":"31.2185482025","category":"500","category_name":"未知分类","address":"上海镇宁路217号"},{"poiid":"B2094757D068A5F4429D","title":"欣安大厦","lon":"121.43734216","lat":"31.218569001","category":"46","category_name":"楼宇","address":"内外联公寓位于静安长宁路江苏路"},{"poiid":"B2094757D16AA4F5489B","title":"兰博基尼上海城市展厅(旗舰店)","lon":"121.439405586","lat":"31.2184011997","category":"500","category_name":"未知分类","address":"长宁区延安西路327号尚熙大夏1楼(南京西路延安西路)"},{"poiid":"B2094655D26FA6F9459D","title":"上海美丽园龙都大酒店(南门)","lon":"121.4384","lat":"31.21811","category":"214","category_name":"四星级宾馆","address":"上海市静安区延安西路396号（上海戏剧学院对面、圆明讲堂旁）"},{"poiid":"B2094757D568AAF54699","title":"上海戏剧学院综合楼","lon":"121.4391253","lat":"31.21630073","category":"52","category_name":"高等院校","address":"上海长宁区法华镇路535号上海交通大学法华校区"},{"poiid":"B2094750DB6FA3F9479D","title":"Seve Italian Restaurant","lon":"121.440879","lat":"31.2168","category":"94","category_name":"西餐厅","address":"静安区华山路600号上海戏剧学院内(近镇宁路)"},{"poiid":"B2094757D168A5FA4893","title":"老夫子 延安西路店","lon":"121.438021054","lat":"31.217313793","category":"112","category_name":"糕饼店","address":"静安区延安西路379弄4号(近镇宁路)"},{"poiid":"B2094654DB6BA6FF499A","title":"永兴商务楼","lon":"121.43759","lat":"31.21891","category":"46","category_name":"楼宇","address":"朝阳区北三环东路与京顺路交接处路口北侧"},{"poiid":"B2094757D065A3F4419E","title":"华山医院0号楼2楼内分泌科","lon":"121.43914088","lat":"31.218139594","category":"162","category_name":"医院","address":"上海市静安区乌鲁木齐中路12号"},{"poiid":"B2094654D565A0F84198","title":"静安联恒商业大厦","lon":"121.43861","lat":"31.2183","category":"46","category_name":"楼宇","address":"延安西路394弄8"},{"poiid":"B2094750DB65A1F5479F","title":"市三女中","lon":"121.438446","lat":"31.220645","category":"253","category_name":"校园生活","address":"长宁区江苏路愚园路"},{"poiid":"B2094757D16AA7FE499F","title":"Ole'","lon":"121.43934858","lat":"31.218292197","category":"500","category_name":"未知分类","address":"上海长宁区延安西路358号"},{"poiid":"B2094757D165A3FF4799","title":"大鹤日本料理","lon":"121.44042","lat":"31.21982","category":"95","category_name":"日本料理","address":"静安区南京西路2068号协和城G108铺(镇宁路口)"},{"poiid":"B2094757D065A6FA4792","title":"延安高架","lon":"121.43877382","lat":"31.217960529","category":"500","category_name":"未知分类","address":"上海空中"},{"poiid":"B2094654D565A0F8439D","title":"上海国际招标有限公司","lon":"121.43921","lat":"31.21888","category":"263","category_name":"公司","address":"延安西路358号美丽园大厦14、16层"},{"poiid":"B2094757D064A2FF429A","title":"虹梅路老外街","lon":"121.438257586","lat":"31.2187952074","category":"500","category_name":"未知分类","address":"上海虹梅路3338号"},{"poiid":"B2094757D069AAFC459D","title":"全家便利店(延安西路店)","lon":"121.44085","lat":"31.21886","category":"117","category_name":"便民商店/便利店","address":"上海静安区延安西路238号(南京西路口)"},{"poiid":"B2094757D06BAAF8439B","title":"兰博基尼上海晶品车汽车","lon":"121.43951973","lat":"31.218459325","category":"158","category_name":"汽车销售","address":"静安区延安西路331号(近镇宁路)"},{"poiid":"B2094655D268A3FF499D","title":"上戏剧院","lon":"121.43994","lat":"31.21654","category":"179","category_name":"音乐厅","address":"静安区华山路600号上海戏剧学院内(近镇宁路)"},{"poiid":"B2094655D26CA4FC439B","title":"华东医院(总部)","lon":"121.44155","lat":"31.21829","category":"162","category_name":"医院","address":"上海静安区延安西路221号(近华山医院)"},{"poiid":"B2094750D26DA6F5489F","title":"上海戏剧学院","lon":"121.440468","lat":"31.216885","category":"671","category_name":"高校中心点","address":"上海静安区华山路630号(近华山医院)"},{"poiid":"B2094753D76FAAFA449C","title":"上海滩国泰旗舰店","lon":"121.466011","lat":"31.216125","category":"249","category_name":"购物服务","address":"淮海中路868号"},{"poiid":"B209475CD564A7F8439E","title":"上海滩中信泰富店","lon":"121.45602","lat":"31.22851","category":"119","category_name":"商场","address":"\"南京西路1168号中信泰富广场，店铺号221.\r\n\""},{"poiid":"B2094654DB6AA6F84099","title":"上海美丽园龙都大酒店","lon":"121.43815763806344","lat":"31.21838530295108","category":"214","category_name":"四星级宾馆","address":"上海市静安区延安西路396号(上海戏剧学院对面,圆明讲堂旁)"},{"poiid":"B2094757D568A0FF409D","title":"上海日航饭店","lon":"121.43714247","lat":"31.21759304","category":"213","category_name":"五星级宾馆","address":"长宁区延安西路488号(近镇宁路)"},{"poiid":"B2094757D068A2FE409A","title":"中国福利会儿童艺术剧院马兰花剧场","lon":"121.440491","lat":"31.216531","category":"180","category_name":"剧场","address":"上海徐汇区华山路643号"},{"poiid":"B2094757D06FA3F5429E","title":"一罗华","lon":"121.4405083858","lat":"31.219661097649","category":"95","category_name":"日本料理","address":"静安区延安西路200号2号楼底楼(近乌鲁木齐北路)"},{"poiid":"B2094757D06AA4F84893","title":"上海戏剧学院红楼","lon":"121.4407196","lat":"31.216863632","category":"500","category_name":"未知分类","address":"上海华山路630号"},{"poiid":"B2094757D06FA3FA459E","title":"星巴克(协和店)","lon":"121.43694","lat":"31.21935","category":"260","category_name":"其他","address":"静安区南京西路2068号协和城01C铺(镇宁路口)"},{"poiid":"B2094757D06FAAFD4399","title":"小南国海之源日式温泉(美丽园店)","lon":"121.437987","lat":"31.218408","category":"149","category_name":"洗浴推拿场所","address":"上海静安区延安西路396号美丽园龙都大酒店3-4楼(镇宁路口)  "},{"poiid":"B2094757D468A4FC4993","title":"FENNEL LOUNGE","lon":"121.4369483","lat":"31.2186778","category":"94","category_name":"西餐厅","address":"长宁区镇宁路(近番禺路)"},{"poiid":"B2094654D565A0F84299","title":"美丽园大厦","lon":"121.43921","lat":"31.21888","category":"46","category_name":"楼宇","address":"城西路188、200号等"},{"poiid":"B2094654DB65A3F4479E","title":"华东医院门诊急诊住院部","lon":"121.44035","lat":"31.21891","category":"162","category_name":"医院","address":"延安西路257"},{"poiid":"B2094757D16DA4FE479D","title":"上海戏剧学院学生公寓","lon":"121.439758951","lat":"31.2178285935","category":"500","category_name":"未知分类","address":"上海延安西路331号尚熙大厦"},{"poiid":"B2094654D565A7FA4992","title":"申亚金融广场","lon":"121.439","lat":"31.2206","category":"46","category_name":"楼宇","address":"上海市杨浦区邯郸路近淞沪路口"},{"poiid":"B2094757DA64A0FF469C","title":"太平洋企业中心","lon":"121.439","lat":"31.2209","category":"252","category_name":"楼宇机构","address":"上海市长宁区延安西路889号"},{"poiid":"B2094654DB6BA7F54999","title":"复旦大学附属华东医院(延安西路)","lon":"121.44165","lat":"31.21905","category":"265","category_name":"知名企业","address":"延安西路221"},{"poiid":"B2094750DA6DAAFD469F","title":"上海东方艺术中心","lon":"121.440086","lat":"31.218324","category":"500","category_name":"未知分类","address":null},{"poiid":"B2094654D564A4F4449B","title":"尚熙大厦","lon":"121.43985","lat":"31.21836","category":"46","category_name":"楼宇","address":"朝阳区北三环东路与京顺路交接处路口北侧"},{"poiid":"B2094757D06FA0FD419C","title":"乐购(镇宁店)","lon":"121.43677266","lat":"31.21965569","category":"118","category_name":"超级市场","address":"静安区南京西路2068号协和城B1-B2楼(镇宁路口)"},{"poiid":"B2094655D26FA0FA439C","title":"圆明讲堂(延安西路)","lon":"121.43772","lat":"31.21771","category":"250","category_name":"公园户外","address":"延安西路458"},{"poiid":"B2094757D064ABFF449D","title":"华东医院北楼","lon":"121.439631586","lat":"31.2164781621","category":"500","category_name":"未知分类","address":"上海延安西路221号"},{"poiid":"B2094654D564A4F44393","title":"华东医院门诊部","lon":"121.44006","lat":"31.21881","category":"162","category_name":"医院","address":""},{"poiid":"B2094654D565A0FE439C","title":"半岛品珍舫 镇宁店","lon":"121.43635956924","lat":"31.219206349993","category":"76","category_name":"上海菜","address":"静安区镇宁路227号荣轩大厦B1楼(东诸安浜路口)"},{"poiid":"B2094757D068AAF54699","title":"美丽园小区","lon":"121.43933","lat":"31.217754","category":"47","category_name":"住宅区","address":"上海南京西路延安西路"},{"poiid":"B2094757D569A3F54892","title":"复旦大学附属华东医院门诊住院部","lon":"121.4399466","lat":"31.21876763","category":"162","category_name":"医院","address":"延安西路321"},{"poiid":"B2094751D56EA0F84492","title":"清迈府泰国料理(延安西路店)","lon":"121.43834","lat":"31.21885","category":"99","category_name":"泰国／越南菜品餐厅","address":"静安区延安西路358号美丽园大厦内(近镇宁路)"},{"poiid":"B2094757D06BA2FC449F","title":"马兰花剧场","lon":"121.440384","lat":"31.216386","category":"500","category_name":"未知分类","address":"静安区华山路643号"},{"poiid":"B2094654D564A4FC4599","title":"裕丰国际大厦","lon":"121.441","lat":"31.2205","category":"46","category_name":"楼宇","address":"黄浦区南京东路311号"},{"poiid":"B2094757D165A7FE459C","title":"中福会少年宫小伙伴爱好者活动中心","lon":"121.43930558","lat":"31.218490201","category":"500","category_name":"未知分类","address":"上海延安西路300号静安大厦"},{"poiid":"B2094757D16CA5FB409F","title":"The Fennel Lounge","lon":"121.436649586","lat":"31.2185482025","category":"500","category_name":"未知分类","address":"上海镇宁路217号"},{"poiid":"B2094757D068A5F4429D","title":"欣安大厦","lon":"121.43734216","lat":"31.218569001","category":"46","category_name":"楼宇","address":"内外联公寓位于静安长宁路江苏路"},{"poiid":"B2094757D16AA4F5489B","title":"兰博基尼上海城市展厅(旗舰店)","lon":"121.439405586","lat":"31.2184011997","category":"500","category_name":"未知分类","address":"长宁区延安西路327号尚熙大夏1楼(南京西路延安西路)"},{"poiid":"B2094655D26FA6F9459D","title":"上海美丽园龙都大酒店(南门)","lon":"121.4384","lat":"31.21811","category":"214","category_name":"四星级宾馆","address":"上海市静安区延安西路396号（上海戏剧学院对面、圆明讲堂旁）"},{"poiid":"B2094757D568AAF54699","title":"上海戏剧学院综合楼","lon":"121.4391253","lat":"31.21630073","category":"52","category_name":"高等院校","address":"上海长宁区法华镇路535号上海交通大学法华校区"},{"poiid":"B2094750DB6FA3F9479D","title":"Seve Italian Restaurant","lon":"121.440879","lat":"31.2168","category":"94","category_name":"西餐厅","address":"静安区华山路600号上海戏剧学院内(近镇宁路)"},{"poiid":"B2094757D168A5FA4893","title":"老夫子 延安西路店","lon":"121.438021054","lat":"31.217313793","category":"112","category_name":"糕饼店","address":"静安区延安西路379弄4号(近镇宁路)"},{"poiid":"B2094654DB6BA6FF499A","title":"永兴商务楼","lon":"121.43759","lat":"31.21891","category":"46","category_name":"楼宇","address":"朝阳区北三环东路与京顺路交接处路口北侧"},{"poiid":"B2094757D065A3F4419E","title":"华山医院0号楼2楼内分泌科","lon":"121.43914088","lat":"31.218139594","category":"162","category_name":"医院","address":"上海市静安区乌鲁木齐中路12号"},{"poiid":"B2094654D565A0F84198","title":"静安联恒商业大厦","lon":"121.43861","lat":"31.2183","category":"46","category_name":"楼宇","address":"延安西路394弄8"},{"poiid":"B2094750DB65A1F5479F","title":"市三女中","lon":"121.438446","lat":"31.220645","category":"253","category_name":"校园生活","address":"长宁区江苏路愚园路"},{"poiid":"B2094757D16AA7FE499F","title":"Ole'","lon":"121.43934858","lat":"31.218292197","category":"500","category_name":"未知分类","address":"上海长宁区延安西路358号"},{"poiid":"B2094757D165A3FF4799","title":"大鹤日本料理","lon":"121.44042","lat":"31.21982","category":"95","category_name":"日本料理","address":"静安区南京西路2068号协和城G108铺(镇宁路口)"},{"poiid":"B2094757D065A6FA4792","title":"延安高架","lon":"121.43877382","lat":"31.217960529","category":"500","category_name":"未知分类","address":"上海空中"},{"poiid":"B2094654D565A0F8439D","title":"上海国际招标有限公司","lon":"121.43921","lat":"31.21888","category":"263","category_name":"公司","address":"延安西路358号美丽园大厦14、16层"},{"poiid":"B2094757D064A2FF429A","title":"虹梅路老外街","lon":"121.438257586","lat":"31.2187952074","category":"500","category_name":"未知分类","address":"上海虹梅路3338号"},{"poiid":"B2094757D069AAFC459D","title":"全家便利店(延安西路店)","lon":"121.44085","lat":"31.21886","category":"117","category_name":"便民商店/便利店","address":"上海静安区延安西路238号(南京西路口)"},{"poiid":"B2094757D06BAAF8439B","title":"兰博基尼上海晶品车汽车","lon":"121.43951973","lat":"31.218459325","category":"158","category_name":"汽车销售","address":"静安区延安西路331号(近镇宁路)"}]