[{"poiid":"B2094757D06FA5F84598","title":"陆家嘴商务广场","lon":"121.534497475","lat":"31.2237222607","category":"46","category_name":"楼宇","address":"越秀区广州沿江中路298号"},{"poiid":"B2094757D06FA1F5429D","title":"本家韩国料理","lon":"121.52953653","lat":"31.223620009","category":"96","category_name":"韩国料理","address":"浦东新区东方路971号钱江大厦2楼(近向城路)"},{"poiid":"B2094757D06FA1F5479E","title":"通茂大酒店","lon":"121.53577","lat":"31.22589","category":"217","category_name":"旅馆招待所","address":"浦东新区松林路357号(近浦电路)"},{"poiid":"B2094757D06FA7F9409A","title":"浦东新区国家税务局第一税务所","lon":"121.531951","lat":"31.223319242","category":"150","category_name":"银行","address":"上海向城路80号"},{"poiid":"B2094757D06FA6FB4498","title":"期货大厦","lon":"121.535085","lat":"31.223555","category":"46","category_name":"楼宇","address":"上海浦东浦电路500号"},{"poiid":"B2094757D66FA0FC4292","title":"平壤高丽饭店","lon":"121.53491673","lat":"31.226411218","category":"247","category_name":"餐饮美食","address":"浦东新区松林路357号通茂大酒店1楼(近浦电路)"},{"poiid":"B2094655D268A0FD419C","title":"满记甜品 东方店","lon":"121.528440054","lat":"31.223715793","category":"67","category_name":"甜品店","address":"浦东新区向城路17号J-08室(近东方路)"},{"poiid":"B2094757D06FA3FC4799","title":"星巴克(城建大厦店)","lon":"121.531712","lat":"31.222367","category":"260","category_name":"其他","address":"浦东新区福山路500号城建国际中心(近浦电路)"},{"poiid":"B2094654DA6AA2FC4493","title":"城建国际中心","lon":"121.5317","lat":"31.22238","category":"46","category_name":"楼宇","address":"上海浦东新区福山路500号"},{"poiid":"B2094757D06FA6F9419F","title":"一品粤珍(福山路店)","lon":"121.53196","lat":"31.2222","category":"72","category_name":"广东菜","address":"浦东新区福山路500号城建国际中心2楼裙房(近浦电路)"},{"poiid":"B2094757D068A3F9449E","title":"COSTA COFFEE(向城店)","lon":"121.52895","lat":"31.22376","category":"65","category_name":"咖啡厅","address":"浦东新区向城路17号(东方路口)"},{"poiid":"B2094752D569A1F5479D","title":"芥末日本料理","lon":"121.534682","lat":"31.226723","category":"247","category_name":"餐饮美食","address":"上海市浦东新区松林路357号通茂大酒店二楼西侧"},{"poiid":"B2094655D26AABFC4993","title":"小南国海之源日式温泉(松林路店)","lon":"121.5355","lat":"31.22618","category":"247","category_name":"餐饮美食","address":"浦东新区松林路357号通茂大酒店2楼"},{"poiid":"B2094757D068A3F44093","title":"东方大厦","lon":"121.532377958","lat":"31.224922976","category":"46","category_name":"楼宇","address":"卢湾区复兴中路369号(马当路口)"},{"poiid":"B2094757D068A0FF4298","title":"柏雅居服务公寓","lon":"121.52984","lat":"31.22455","category":"217","category_name":"旅馆招待所","address":"浦东新区向城路29号爵士大厦C栋(近东方路)"},{"poiid":"B2094757DB68A5F8499A","title":"丽粤茶餐厅","lon":"121.532176","lat":"31.222387","category":"72","category_name":"广东菜","address":"浦东新区福山路517号(近浦电路地铁站)"},{"poiid":"B2094752D664AAFB4499","title":"芥末日本料理","lon":"121.532582","lat":"31.22741","category":"247","category_name":"餐饮美食","address":"上海市浦东新区松林路357号通茂大酒店二楼西侧"},{"poiid":"B2094654DA6AA2FE479B","title":"上海市浦东新区国家税务局","lon":"121.532","lat":"31.22353","category":"250","category_name":"公园户外","address":"浦东新区向城路80"},{"poiid":"B2094757D06AA1FE4299","title":"名豪鱼翅海鲜(浦东店)","lon":"121.53493","lat":"31.22356","category":"72","category_name":"广东菜","address":"浦东新区世纪大道1600号陆家嘴商务广场裙楼(近浦电路)"},{"poiid":"B2094757D06FA4FF4498","title":"億方砂锅粥(潍坊路店)","lon":"121.52899","lat":"31.22607","category":"72","category_name":"广东菜","address":"上海浦东新区潍坊路188号(近东方路)"},{"poiid":"B2094655D26AA0F84992","title":"地铁浦电路站","lon":"121.53198","lat":"31.22291","category":"36","category_name":"地铁站","address":""},{"poiid":"B2094655D26FABFE439A","title":"盛大国际金融中心","lon":"121.53138","lat":"31.22506","category":"46","category_name":"楼宇","address":"松江区荣乐东路1133弄"},{"poiid":"B2094757D069A0FF4793","title":"双鸽大厦","lon":"121.533222487","lat":"31.2227191654","category":"46","category_name":"楼宇","address":"沈河北站路与北京街的交汇处"},{"poiid":"B2094757D068A3FF439A","title":"香榭丽花园","lon":"121.53545","lat":"31.227047","category":"47","category_name":"住宅区","address":"上海市浦东新区松林路333弄"},{"poiid":"B2094752D364A3F94192","title":"辉哥海鲜火锅(松林路店)","lon":"121.53351","lat":"31.227","category":"86","category_name":"火锅店","address":"浦东新区松林路281号(近潍坊路)"},{"poiid":"B2094757D068A2FA489E","title":"星之健身(东方店)","lon":"121.53238","lat":"31.22186","category":"221","category_name":"健身中心","address":"浦东新区福山路519号3楼(近东方路)"},{"poiid":"B2094757D06AA1FC4298","title":"上海农商银行浦东分行","lon":"121.53236531","lat":"31.224993159","category":"46","category_name":"楼宇","address":"浦东新区世纪大道1500号东方大厦(近浦电路)"},{"poiid":"B2094757D064A3FA429F","title":"红叶日本料理","lon":"121.5357","lat":"31.22605","category":"95","category_name":"日本料理","address":"上海浦东新区松林路357号通茂大酒店2楼(近向城路)  "},{"poiid":"B2094757D069A2F4409F","title":"渣打银行","lon":"121.5313531","lat":"31.22228377","category":"46","category_name":"楼宇","address":"浦东新区福山路500号城建国际中心1楼(福山路浦电路)"},{"poiid":"B2094655D26EA0FE4298","title":"浦东税务大厦","lon":"121.53213","lat":"31.22352","category":"46","category_name":"楼宇","address":"向城路80"},{"poiid":"B2094751D56FA2FF4192","title":"上海纽约大学","lon":"121.532883","lat":"31.225453","category":"253","category_name":"校园生活","address":"浦东新区松林路288号"},{"poiid":"B2094751D36EA0FF459E","title":"点沁(福山路店)","lon":"121.53101","lat":"31.2241","category":"68","category_name":"快餐厅","address":"浦东新区向城路78号新天国际商厦1楼(近福山路)"},{"poiid":"B2094750DA6AA3F5489B","title":"soho世纪广场","lon":"121.533538","lat":"31.22653","category":"252","category_name":"楼宇机构","address":"向城路288号"},{"poiid":"B2094757D16CA3FC479D","title":"万寿亭高丽参鸡汤陆家嘴商务广场店","lon":"121.534708019","lat":"31.2235147345","category":"96","category_name":"韩国料理","address":"浦东新区世纪大道1600号陆家嘴商务广场裙楼(近浦电路)"},{"poiid":"B2094757D064A7FC4992","title":"潘朵拉城市行动咖啡 福山路店 Pandora","lon":"121.531210054","lat":"31.225413793","category":"65","category_name":"咖啡厅","address":"浦东新区福山路455号全华信息大厦1楼(近向城路)"},{"poiid":"B209475CD26DA0F44992","title":"糖员外私房甜品（96广场店）","lon":"121.530052","lat":"31.226718","category":"247","category_name":"餐饮美食","address":"上海市 东方路796号96广场249B"},{"poiid":"B209475CDA69ABFA4192","title":"PIZZA MARZANO","lon":"121.529724","lat":"31.225532","category":"500","category_name":"未知分类","address":"上海市 上海市浦东新区九六广场"},{"poiid":"B2094654DB69AAFF4493","title":"唐部世家","lon":"121.52995","lat":"31.22282","category":"72","category_name":"广东菜","address":"浦东新区东方路971号钱江大厦(东方路浦电路)"},{"poiid":"B2094757D16AA3FA479B","title":"德国工商会签证中心","lon":"121.53529253","lat":"31.224726782","category":"500","category_name":"未知分类","address":"上海市浦东新区世纪大道1600号陆家嘴广场20楼"},{"poiid":"B2094751D56CA4F9479B","title":"COSTA COFFEE(竹林路店)","lon":"121.53255","lat":"31.22362","category":"65","category_name":"咖啡厅","address":"浦东新区竹林路101号基金大厦大堂A单元(近福山路)"},{"poiid":"B2094757D66BA3FB4198","title":"雅园","lon":"121.5307757","lat":"31.2249032","category":"94","category_name":"西餐厅","address":"浦东新区向城路29号爵士大厦C栋柏雅居1楼(近东方路)"},{"poiid":"B2094757D16FA0FD4598","title":"赛百味 中建大厦店 Subway","lon":"121.534346","lat":"31.224483","category":"94","category_name":"西餐厅","address":"浦东新区世纪大道1588号(近浦电路)"},{"poiid":"B2094655D36CA1FD479F","title":"世纪大道浦电路","lon":"121.5339","lat":"31.22489","category":"38","category_name":"公交车站","address":""},{"poiid":"B2094750D76CAAFA439C","title":"中华经典美食","lon":"121.532","lat":"31.2246","category":"68","category_name":"快餐厅","address":"浦东新区福山路455号全华信息大厦1楼侧门(近四号线浦电路站1号口)"},{"poiid":"B2094757D464A5FE4693","title":"汉宫茶餐厅 福山路店","lon":"121.5317","lat":"31.22347","category":"68","category_name":"快餐厅","address":"浦东新区福山路458号3楼(近浦电路)"},{"poiid":"B2094752D66DA0F8429D","title":"骨谷面","lon":"121.530687","lat":"31.224375","category":"247","category_name":"餐饮美食","address":"向城路福山路"},{"poiid":"B2094655D26BA7F4469B","title":"可的超市福山三店","lon":"121.53188","lat":"31.22434","category":"117","category_name":"便民商店/便利店","address":"福山路455号"},{"poiid":"B2094757DA6BABF84198","title":"SOHO世纪大道","lon":"121.533176","lat":"31.226032","category":"252","category_name":"楼宇机构","address":"安阳市中华路与文昌大道交叉口向北200米路东"},{"poiid":"B2094654DA69ABF5479F","title":"上海期货交易所","lon":"121.53494","lat":"31.22595","category":"219","category_name":"其他","address":"浦东新区松林路300号"},{"poiid":"B2094757D068AAFC4398","title":"城建大廈","lon":"121.532206267","lat":"31.222689613","category":"46","category_name":"楼宇","address":"上海福山路500號"},{"poiid":"B2094757D06FA5F84598","title":"陆家嘴商务广场","lon":"121.534497475","lat":"31.2237222607","category":"46","category_name":"楼宇","address":"越秀区广州沿江中路298号"},{"poiid":"B2094757D06FA1F5429D","title":"本家韩国料理","lon":"121.52953653","lat":"31.223620009","category":"96","category_name":"韩国料理","address":"浦东新区东方路971号钱江大厦2楼(近向城路)"},{"poiid":"B2094757D06FA1F5479E","title":"通茂大酒店","lon":"121.53577","lat":"31.22589","category":"217","category_name":"旅馆招待所","address":"浦东新区松林路357号(近浦电路)"},{"poiid":"B2094757D06FA7F9409A","title":"浦东新区国家税务局第一税务所","lon":"121.531951","lat":"31.223319242","category":"150","category_name":"银行","address":"上海向城路80号"},{"poiid":"B2094757D06FA6FB4498","title":"期货大厦","lon":"121.535085","lat":"31.223555","category":"46","category_name":"楼宇","address":"上海浦东浦电路500号"},{"poiid":"B2094757D66FA0FC4292","title":"平壤高丽饭店","lon":"121.53491673","lat":"31.226411218","category":"247","category_name":"餐饮美食","address":"浦东新区松林路357号通茂大酒店1楼(近浦电路)"},{"poiid":"B2094655D268A0FD419C","title":"满记甜品 东方店","lon":"121.528440054","lat":"31.223715793","category":"67","category_name":"甜品店","address":"浦东新区向城路17号J-08室(近东方路)"},{"poiid":"B2094757D06FA3FC4799","title":"星巴克(城建大厦店)","lon":"121.531712","lat":"31.222367","category":"260","category_name":"其他","address":"浦东新区福山路500号城建国际中心(近浦电路)"},{"poiid":"B2094654DA6AA2FC4493","title":"城建国际中心","lon":"121.5317","lat":"31.22238","category":"46","category_name":"楼宇","address":"上海浦东新区福山路500号"},{"poiid":"B2094757D06FA6F9419F","title":"一品粤珍(福山路店)","lon":"121.53196","lat":"31.2222","category":"72","category_name":"广东菜","address":"浦东新区福山路500号城建国际中心2楼裙房(近浦电路)"},{"poiid":"B2094757D068A3F9449E","title":"COSTA COFFEE(向城店)","lon":"121.52895","lat":"31.22376","category":"65","category_name":"咖啡厅","address":"浦东新区向城路17号(东方路口)"},{"poiid":"B2094752D569A1F5479D","title":"芥末日本料理","lon":"121.534682","lat":"31.226723","category":"247","category_name":"餐饮美食","address":"上海市浦东新区松林路357号通茂大酒店二楼西侧"},{"poiid":"B2094655D26AABFC4993","title":"小南国海之源日式温泉(松林路店)","lon":"121.5355","lat":"31.22618","category":"247","category_name":"餐饮美食","address":"浦东新区松林路357号通茂大酒店2楼"},{"poiid":"B2094757D068A3F44093","title":"东方大厦","lon":"121.532377958","lat":"31.224922976","category":"46","category_name":"楼宇","address":"卢湾区复兴中路369号(马当路口)"},{"poiid":"B2094757D068A0FF4298","title":"柏雅居服务公寓","lon":"121.52984","lat":"31.22455","category":"217","category_name":"旅馆招待所","address":"浦东新区向城路29号爵士大厦C栋(近东方路)"},{"poiid":"B2094757DB68A5F8499A","title":"丽粤茶餐厅","lon":"121.532176","lat":"31.222387","category":"72","category_name":"广东菜","address":"浦东新区福山路517号(近浦电路地铁站)"},{"poiid":"B2094752D664AAFB4499","title":"芥末日本料理","lon":"121.532582","lat":"31.22741","category":"247","category_name":"餐饮美食","address":"上海市浦东新区松林路357号通茂大酒店二楼西侧"},{"poiid":"B2094654DA6AA2FE479B","title":"上海市浦东新区国家税务局","lon":"121.532","lat":"31.22353","category":"250","category_name":"公园户外","address":"浦东新区向城路80"},{"poiid":"B2094757D06AA1FE4299","title":"名豪鱼翅海鲜(浦东店)","lon":"121.53493","lat":"31.22356","category":"72","category_name":"广东菜","address":"浦东新区世纪大道1600号陆家嘴商务广场裙楼(近浦电路)"},{"poiid":"B2094757D06FA4FF4498","title":"億方砂锅粥(潍坊路店)","lon":"121.52899","lat":"31.22607","category":"72","category_name":"广东菜","address":"上海浦东新区潍坊路188号(近东方路)"},{"poiid":"B2094655D26AA0F84992","title":"地铁浦电路站","lon":"121.53198","lat":"31.22291","category":"36","category_name":"地铁站","address":""},{"poiid":"B2094655D26FABFE439A","title":"盛大国际金融中心","lon":"121.53138","lat":"31.22506","category":"46","category_name":"楼宇","address":"松江区荣乐东路1133弄"},{"poiid":"B2094757D069A0FF4793","title":"双鸽大厦","lon":"121.533222487","lat":"31.2227191654","category":"46","category_name":"楼宇","address":"沈河北站路与北京街的交汇处"},{"poiid":"B2094757D068A3FF439A","title":"香榭丽花园","lon":"121.53545","lat":"31.227047","category":"47","category_name":"住宅区","address":"上海市浦东新区松林路333弄"},{"poiid":"B2094752D364A3F94192","title":"辉哥海鲜火锅(松林路店)","lon":"121.53351","lat":"31.227","category":"86","category_name":"火锅店","address":"浦东新区松林路281号(近潍坊路)"},{"poiid":"B2094757D068A2FA489E","title":"星之健身(东方店)","lon":"121.53238","lat":"31.22186","category":"221","category_name":"健身中心","address":"浦东新区福山路519号3楼(近东方路)"},{"poiid":"B2094757D06AA1FC4298","title":"上海农商银行浦东分行","lon":"121.53236531","lat":"31.224993159","category":"46","category_name":"楼宇","address":"浦东新区世纪大道1500号东方大厦(近浦电路)"},{"poiid":"B2094757D064A3FA429F","title":"红叶日本料理","lon":"121.5357","lat":"31.22605","category":"95","category_name":"日本料理","address":"上海浦东新区松林路357号通茂大酒店2楼(近向城路)  "},{"poiid":"B2094757D069A2F4409F","title":"渣打银行","lon":"121.5313531","lat":"31.22228377","category":"46","category_name":"楼宇","address":"浦东新区福山路500号城建国际中心1楼(福山路浦电路)"},{"poiid":"B2094655D26EA0FE4298","title":"浦东税务大厦","lon":"121.53213","lat":"31.22352","category":"46","category_name":"楼宇","address":"向城路80"},{"poiid":"B2094751D56FA2FF4192","title":"上海纽约大学","lon":"121.532883","lat":"31.225453","category":"253","category_name":"校园生活","address":"浦东新区松林路288号"},{"poiid":"B2094751D36EA0FF459E","title":"点沁(福山路店)","lon":"121.53101","lat":"31.2241","category":"68","category_name":"快餐厅","address":"浦东新区向城路78号新天国际商厦1楼(近福山路)"},{"poiid":"B2094750DA6AA3F5489B","title":"soho世纪广场","lon":"121.533538","lat":"31.22653","category":"252","category_name":"楼宇机构","address":"向城路288号"},{"poiid":"B2094757D16CA3FC479D","title":"万寿亭高丽参鸡汤陆家嘴商务广场店","lon":"121.534708019","lat":"31.2235147345","category":"96","category_name":"韩国料理","address":"浦东新区世纪大道1600号陆家嘴商务广场裙楼(近浦电路)"},{"poiid":"B2094757D064A7FC4992","title":"潘朵拉城市行动咖啡 福山路店 Pandora","lon":"121.531210054","lat":"31.225413793","category":"65","category_name":"咖啡厅","address":"浦东新区福山路455号全华信息大厦1楼(近向城路)"},{"poiid":"B209475CD26DA0F44992","title":"糖员外私房甜品（96广场店）","lon":"121.530052","lat":"31.226718","category":"247","category_name":"餐饮美食","address":"上海市 东方路796号96广场249B"},{"poiid":"B209475CDA69ABFA4192","title":"PIZZA MARZANO","lon":"121.529724","lat":"31.225532","category":"500","category_name":"未知分类","address":"上海市 上海市浦东新区九六广场"},{"poiid":"B2094654DB69AAFF4493","title":"唐部世家","lon":"121.52995","lat":"31.22282","category":"72","category_name":"广东菜","address":"浦东新区东方路971号钱江大厦(东方路浦电路)"},{"poiid":"B2094757D16AA3FA479B","title":"德国工商会签证中心","lon":"121.53529253","lat":"31.224726782","category":"500","category_name":"未知分类","address":"上海市浦东新区世纪大道1600号陆家嘴广场20楼"},{"poiid":"B2094751D56CA4F9479B","title":"COSTA COFFEE(竹林路店)","lon":"121.53255","lat":"31.22362","category":"65","category_name":"咖啡厅","address":"浦东新区竹林路101号基金大厦大堂A单元(近福山路)"},{"poiid":"B2094757D66BA3FB4198","title":"雅园","lon":"121.5307757","lat":"31.2249032","category":"94","category_name":"西餐厅","address":"浦东新区向城路29号爵士大厦C栋柏雅居1楼(近东方路)"},{"poiid":"B2094757D16FA0FD4598","title":"赛百味 中建大厦店 Subway","lon":"121.534346","lat":"31.224483","category":"94","category_name":"西餐厅","address":"浦东新区世纪大道1588号(近浦电路)"},{"poiid":"B2094655D36CA1FD479F","title":"世纪大道浦电路","lon":"121.5339","lat":"31.22489","category":"38","category_name":"公交车站","address":""},{"poiid":"B2094750D76CAAFA439C","title":"中华经典美食","lon":"121.532","lat":"31.2246","category":"68","category_name":"快餐厅","address":"浦东新区福山路455号全华信息大厦1楼侧门(近四号线浦电路站1号口)"},{"poiid":"B2094757D464A5FE4693","title":"汉宫茶餐厅 福山路店","lon":"121.5317","lat":"31.22347","category":"68","category_name":"快餐厅","address":"浦东新区福山路458号3楼(近浦电路)"},{"poiid":"B2094752D66DA0F8429D","title":"骨谷面","lon":"121.530687","lat":"31.224375","category":"247","category_name":"餐饮美食","address":"向城路福山路"},{"poiid":"B2094655D26BA7F4469B","title":"可的超市福山三店","lon":"121.53188","lat":"31.22434","category":"117","category_name":"便民商店/便利店","address":"福山路455号"},{"poiid":"B2094757DA6BABF84198","title":"SOHO世纪大道","lon":"121.533176","lat":"31.226032","category":"252","category_name":"楼宇机构","address":"安阳市中华路与文昌大道交叉口向北200米路东"},{"poiid":"B2094654DA69ABF5479F","title":"上海期货交易所","lon":"121.53494","lat":"31.22595","category":"219","category_name":"其他","address":"浦东新区松林路300号"},{"poiid":"B2094757D068AAFC4398","title":"城建大廈","lon":"121.532206267","lat":"31.222689613","category":"46","category_name":"楼宇","address":"上海福山路500號"},{"poiid":"B2094757D06FA5F84598","title":"陆家嘴商务广场","lon":"121.534497475","lat":"31.2237222607","category":"46","category_name":"楼宇","address":"越秀区广州沿江中路298号"},{"poiid":"B2094757D06FA1F5429D","title":"本家韩国料理","lon":"121.52953653","lat":"31.223620009","category":"96","category_name":"韩国料理","address":"浦东新区东方路971号钱江大厦2楼(近向城路)"},{"poiid":"B2094757D06FA1F5479E","title":"通茂大酒店","lon":"121.53577","lat":"31.22589","category":"217","category_name":"旅馆招待所","address":"浦东新区松林路357号(近浦电路)"},{"poiid":"B2094757D06FA7F9409A","title":"浦东新区国家税务局第一税务所","lon":"121.531951","lat":"31.223319242","category":"150","category_name":"银行","address":"上海向城路80号"},{"poiid":"B2094757D06FA6FB4498","title":"期货大厦","lon":"121.535085","lat":"31.223555","category":"46","category_name":"楼宇","address":"上海浦东浦电路500号"},{"poiid":"B2094757D66FA0FC4292","title":"平壤高丽饭店","lon":"121.53491673","lat":"31.226411218","category":"247","category_name":"餐饮美食","address":"浦东新区松林路357号通茂大酒店1楼(近浦电路)"},{"poiid":"B2094655D268A0FD419C","title":"满记甜品 东方店","lon":"121.528440054","lat":"31.223715793","category":"67","category_name":"甜品店","address":"浦东新区向城路17号J-08室(近东方路)"},{"poiid":"B2094757D06FA3FC4799","title":"星巴克(城建大厦店)","lon":"121.531712","lat":"31.222367","category":"260","category_name":"其他","address":"浦东新区福山路500号城建国际中心(近浦电路)"},{"poiid":"B2094654DA6AA2FC4493","title":"城建国际中心","lon":"121.5317","lat":"31.22238","category":"46","category_name":"楼宇","address":"上海浦东新区福山路500号"},{"poiid":"B2094757D06FA6F9419F","title":"一品粤珍(福山路店)","lon":"121.53196","lat":"31.2222","category":"72","category_name":"广东菜","address":"浦东新区福山路500号城建国际中心2楼裙房(近浦电路)"},{"poiid":"B2094757D068A3F9449E","title":"COSTA COFFEE(向城店)","lon":"121.52895","lat":"31.22376","category":"65","category_name":"咖啡厅","address":"浦东新区向城路17号(东方路口)"},{"poiid":"B2094752D569A1F5479D","title":"芥末日本料理","lon":"121.534682","lat":"31.226723","category":"247","category_name":"餐饮美食","address":"上海市浦东新区松林路357号通茂大酒店二楼西侧"},{"poiid":"B2094655D26AABFC4993","title":"小南国海之源日式温泉(松林路店)","lon":"121.5355","lat":"31.22618","category":"247","category_name":"餐饮美食","address":"浦东新区松林路357号通茂大酒店2楼"},{"poiid":"B2094757D068A3F44093","title":"东方大厦","lon":"121.532377958","lat":"31.224922976","category":"46","category_name":"楼宇","address":"卢湾区复兴中路369号(马当路口)"},{"poiid":"B2094757D068A0FF4298","title":"柏雅居服务公寓","lon":"121.52984","lat":"31.22455","category":"217","category_name":"旅馆招待所","address":"浦东新区向城路29号爵士大厦C栋(近东方路)"},{"poiid":"B2094757DB68A5F8499A","title":"丽粤茶餐厅","lon":"121.532176","lat":"31.222387","category":"72","category_name":"广东菜","address":"浦东新区福山路517号(近浦电路地铁站)"},{"poiid":"B2094752D664AAFB4499","title":"芥末日本料理","lon":"121.532582","lat":"31.22741","category":"247","category_name":"餐饮美食","address":"上海市浦东新区松林路357号通茂大酒店二楼西侧"},{"poiid":"B2094654DA6AA2FE479B","title":"上海市浦东新区国家税务局","lon":"121.532","lat":"31.22353","category":"250","category_name":"公园户外","address":"浦东新区向城路80"},{"poiid":"B2094757D06AA1FE4299","title":"名豪鱼翅海鲜(浦东店)","lon":"121.53493","lat":"31.22356","category":"72","category_name":"广东菜","address":"浦东新区世纪大道1600号陆家嘴商务广场裙楼(近浦电路)"},{"poiid":"B2094757D06FA4FF4498","title":"億方砂锅粥(潍坊路店)","lon":"121.52899","lat":"31.22607","category":"72","category_name":"广东菜","address":"上海浦东新区潍坊路188号(近东方路)"},{"poiid":"B2094655D26AA0F84992","title":"地铁浦电路站","lon":"121.53198","lat":"31.22291","category":"36","category_name":"地铁站","address":""},{"poiid":"B2094655D26FABFE439A","title":"盛大国际金融中心","lon":"121.53138","lat":"31.22506","category":"46","category_name":"楼宇","address":"松江区荣乐东路1133弄"},{"poiid":"B2094757D069A0FF4793","title":"双鸽大厦","lon":"121.533222487","lat":"31.2227191654","category":"46","category_name":"楼宇","address":"沈河北站路与北京街的交汇处"},{"poiid":"B2094757D068A3FF439A","title":"香榭丽花园","lon":"121.53545","lat":"31.227047","category":"47","category_name":"住宅区","address":"上海市浦东新区松林路333弄"},{"poiid":"B2094752D364A3F94192","title":"辉哥海鲜火锅(松林路店)","lon":"121.53351","lat":"31.227","category":"86","category_name":"火锅店","address":"浦东新区松林路281号(近潍坊路)"},{"poiid":"B2094757D068A2FA489E","title":"星之健身(东方店)","lon":"121.53238","lat":"31.22186","category":"221","category_name":"健身中心","address":"浦东新区福山路519号3楼(近东方路)"},{"poiid":"B2094757D06AA1FC4298","title":"上海农商银行浦东分行","lon":"121.53236531","lat":"31.224993159","category":"46","category_name":"楼宇","address":"浦东新区世纪大道1500号东方大厦(近浦电路)"},{"poiid":"B2094757D064A3FA429F","title":"红叶日本料理","lon":"121.5357","lat":"31.22605","category":"95","category_name":"日本料理","address":"上海浦东新区松林路357号通茂大酒店2楼(近向城路)  "},{"poiid":"B2094757D069A2F4409F","title":"渣打银行","lon":"121.5313531","lat":"31.22228377","category":"46","category_name":"楼宇","address":"浦东新区福山路500号城建国际中心1楼(福山路浦电路)"},{"poiid":"B2094655D26EA0FE4298","title":"浦东税务大厦","lon":"121.53213","lat":"31.22352","category":"46","category_name":"楼宇","address":"向城路80"},{"poiid":"B2094751D56FA2FF4192","title":"上海纽约大学","lon":"121.532883","lat":"31.225453","category":"253","category_name":"校园生活","address":"浦东新区松林路288号"},{"poiid":"B2094751D36EA0FF459E","title":"点沁(福山路店)","lon":"121.53101","lat":"31.2241","category":"68","category_name":"快餐厅","address":"浦东新区向城路78号新天国际商厦1楼(近福山路)"},{"poiid":"B2094750DA6AA3F5489B","title":"soho世纪广场","lon":"121.533538","lat":"31.22653","category":"252","category_name":"楼宇机构","address":"向城路288号"},{"poiid":"B2094757D16CA3FC479D","title":"万寿亭高丽参鸡汤陆家嘴商务广场店","lon":"121.534708019","lat":"31.2235147345","category":"96","category_name":"韩国料理","address":"浦东新区世纪大道1600号陆家嘴商务广场裙楼(近浦电路)"},{"poiid":"B2094757D064A7FC4992","title":"潘朵拉城市行动咖啡 福山路店 Pandora","lon":"121.531210054","lat":"31.225413793","category":"65","category_name":"咖啡厅","address":"浦东新区福山路455号全华信息大厦1楼(近向城路)"},{"poiid":"B209475CD26DA0F44992","title":"糖员外私房甜品（96广场店）","lon":"121.530052","lat":"31.226718","category":"247","category_name":"餐饮美食","address":"上海市 东方路796号96广场249B"},{"poiid":"B209475CDA69ABFA4192","title":"PIZZA MARZANO","lon":"121.529724","lat":"31.225532","category":"500","category_name":"未知分类","address":"上海市 上海市浦东新区九六广场"},{"poiid":"B2094654DB69AAFF4493","title":"唐部世家","lon":"121.52995","lat":"31.22282","category":"72","category_name":"广东菜","address":"浦东新区东方路971号钱江大厦(东方路浦电路)"},{"poiid":"B2094757D16AA3FA479B","title":"德国工商会签证中心","lon":"121.53529253","lat":"31.224726782","category":"500","category_name":"未知分类","address":"上海市浦东新区世纪大道1600号陆家嘴广场20楼"},{"poiid":"B2094751D56CA4F9479B","title":"COSTA COFFEE(竹林路店)","lon":"121.53255","lat":"31.22362","category":"65","category_name":"咖啡厅","address":"浦东新区竹林路101号基金大厦大堂A单元(近福山路)"},{"poiid":"B2094757D66BA3FB4198","title":"雅园","lon":"121.5307757","lat":"31.2249032","category":"94","category_name":"西餐厅","address":"浦东新区向城路29号爵士大厦C栋柏雅居1楼(近东方路)"},{"poiid":"B2094757D16FA0FD4598","title":"赛百味 中建大厦店 Subway","lon":"121.534346","lat":"31.224483","category":"94","category_name":"西餐厅","address":"浦东新区世纪大道1588号(近浦电路)"},{"poiid":"B2094655D36CA1FD479F","title":"世纪大道浦电路","lon":"121.5339","lat":"31.22489","category":"38","category_name":"公交车站","address":""},{"poiid":"B2094750D76CAAFA439C","title":"中华经典美食","lon":"121.532","lat":"31.2246","category":"68","category_name":"快餐厅","address":"浦东新区福山路455号全华信息大厦1楼侧门(近四号线浦电路站1号口)"},{"poiid":"B2094757D464A5FE4693","title":"汉宫茶餐厅 福山路店","lon":"121.5317","lat":"31.22347","category":"68","category_name":"快餐厅","address":"浦东新区福山路458号3楼(近浦电路)"},{"poiid":"B2094752D66DA0F8429D","title":"骨谷面","lon":"121.530687","lat":"31.224375","category":"247","category_name":"餐饮美食","address":"向城路福山路"},{"poiid":"B2094655D26BA7F4469B","title":"可的超市福山三店","lon":"121.53188","lat":"31.22434","category":"117","category_name":"便民商店/便利店","address":"福山路455号"},{"poiid":"B2094757DA6BABF84198","title":"SOHO世纪大道","lon":"121.533176","lat":"31.226032","category":"252","category_name":"楼宇机构","address":"安阳市中华路与文昌大道交叉口向北200米路东"},{"poiid":"B2094654DA69ABF5479F","title":"上海期货交易所","lon":"121.53494","lat":"31.22595","category":"219","category_name":"其他","address":"浦东新区松林路300号"},{"poiid":"B2094757D068AAFC4398","title":"城建大廈","lon":"121.532206267","lat":"31.222689613","category":"46","category_name":"楼宇","address":"上海福山路500號"},{"poiid":"B2094757D06FA5F84598","title":"陆家嘴商务广场","lon":"121.534497475","lat":"31.2237222607","category":"46","category_name":"楼宇","address":"越秀区广州沿江中路298号"},{"poiid":"B2094757D06FA1F5429D","title":"本家韩国料理","lon":"121.52953653","lat":"31.223620009","category":"96","category_name":"韩国料理","address":"浦东新区东方路971号钱江大厦2楼(近向城路)"},{"poiid":"B2094757D06FA1F5479E","title":"通茂大酒店","lon":"121.53577","lat":"31.22589","category":"217","category_name":"旅馆招待所","address":"浦东新区松林路357号(近浦电路)"},{"poiid":"B2094757D06FA7F9409A","title":"浦东新区国家税务局第一税务所","lon":"121.531951","lat":"31.223319242","category":"150","category_name":"银行","address":"上海向城路80号"},{"poiid":"B2094757D06FA6FB4498","title":"期货大厦","lon":"121.535085","lat":"31.223555","category":"46","category_name":"楼宇","address":"上海浦东浦电路500号"},{"poiid":"B2094757D66FA0FC4292","title":"平壤高丽饭店","lon":"121.53491673","lat":"31.226411218","category":"247","category_name":"餐饮美食","address":"浦东新区松林路357号通茂大酒店1楼(近浦电路)"},{"poiid":"B2094655D268A0FD419C","title":"满记甜品 东方店","lon":"121.528440054","lat":"31.223715793","category":"67","category_name":"甜品店","address":"浦东新区向城路17号J-08室(近东方路)"},{"poiid":"B2094757D06FA3FC4799","title":"星巴克(城建大厦店)","lon":"121.531712","lat":"31.222367","category":"260","category_name":"其他","address":"浦东新区福山路500号城建国际中心(近浦电路)"},{"poiid":"B2094654DA6AA2FC4493","title":"城建国际中心","lon":"121.5317","lat":"31.22238","category":"46","category_name":"楼宇","address":"上海浦东新区福山路500号"},{"poiid":"B2094757D06FA6F9419F","title":"一品粤珍(福山路店)","lon":"121.53196","lat":"31.2222","category":"72","category_name":"广东菜","address":"浦东新区福山路500号城建国际中心2楼裙房(近浦电路)"},{"poiid":"B2094757D068A3F9449E","title":"COSTA COFFEE(向城店)","lon":"121.52895","lat":"31.22376","category":"65","category_name":"咖啡厅","address":"浦东新区向城路17号(东方路口)"},{"poiid":"B2094752D569A1F5479D","title":"芥末日本料理","lon":"121.534682","lat":"31.226723","category":"247","category_name":"餐饮美食","address":"上海市浦东新区松林路357号通茂大酒店二楼西侧"},{"poiid":"B2094655D26AABFC4993","title":"小南国海之源日式温泉(松林路店)","lon":"121.5355","lat":"31.22618","category":"247","category_name":"餐饮美食","address":"浦东新区松林路357号通茂大酒店2楼"},{"poiid":"B2094757D068A3F44093","title":"东方大厦","lon":"121.532377958","lat":"31.224922976","category":"46","category_name":"楼宇","address":"卢湾区复兴中路369号(马当路口)"},{"poiid":"B2094757D068A0FF4298","title":"柏雅居服务公寓","lon":"121.52984","lat":"31.22455","category":"217","category_name":"旅馆招待所","address":"浦东新区向城路29号爵士大厦C栋(近东方路)"},{"poiid":"B2094757DB68A5F8499A","title":"丽粤茶餐厅","lon":"121.532176","lat":"31.222387","category":"72","category_name":"广东菜","address":"浦东新区福山路517号(近浦电路地铁站)"},{"poiid":"B2094752D664AAFB4499","title":"芥末日本料理","lon":"121.532582","lat":"31.22741","category":"247","category_name":"餐饮美食","address":"上海市浦东新区松林路357号通茂大酒店二楼西侧"},{"poiid":"B2094654DA6AA2FE479B","title":"上海市浦东新区国家税务局","lon":"121.532","lat":"31.22353","category":"250","category_name":"公园户外","address":"浦东新区向城路80"},{"poiid":"B2094757D06AA1FE4299","title":"名豪鱼翅海鲜(浦东店)","lon":"121.53493","lat":"31.22356","category":"72","category_name":"广东菜","address":"浦东新区世纪大道1600号陆家嘴商务广场裙楼(近浦电路)"},{"poiid":"B2094757D06FA4FF4498","title":"億方砂锅粥(潍坊路店)","lon":"121.52899","lat":"31.22607","category":"72","category_name":"广东菜","address":"上海浦东新区潍坊路188号(近东方路)"},{"poiid":"B2094655D26AA0F84992","title":"地铁浦电路站","lon":"121.53198","lat":"31.22291","category":"36","category_name":"地铁站","address":""},{"poiid":"B2094655D26FABFE439A","title":"盛大国际金融中心","lon":"121.53138","lat":"31.22506","category":"46","category_name":"楼宇","address":"松江区荣乐东路1133弄"},{"poiid":"B2094757D069A0FF4793","title":"双鸽大厦","lon":"121.533222487","lat":"31.2227191654","category":"46","category_name":"楼宇","address":"沈河北站路与北京街的交汇处"},{"poiid":"B2094757D068A3FF439A","title":"香榭丽花园","lon":"121.53545","lat":"31.227047","category":"47","category_name":"住宅区","address":"上海市浦东新区松林路333弄"},{"poiid":"B2094752D364A3F94192","title":"辉哥海鲜火锅(松林路店)","lon":"121.53351","lat":"31.227","category":"86","category_name":"火锅店","address":"浦东新区松林路281号(近潍坊路)"},{"poiid":"B2094757D068A2FA489E","title":"星之健身(东方店)","lon":"121.53238","lat":"31.22186","category":"221","category_name":"健身中心","address":"浦东新区福山路519号3楼(近东方路)"},{"poiid":"B2094757D06AA1FC4298","title":"上海农商银行浦东分行","lon":"121.53236531","lat":"31.224993159","category":"46","category_name":"楼宇","address":"浦东新区世纪大道1500号东方大厦(近浦电路)"},{"poiid":"B2094757D064A3FA429F","title":"红叶日本料理","lon":"121.5357","lat":"31.22605","category":"95","category_name":"日本料理","address":"上海浦东新区松林路357号通茂大酒店2楼(近向城路)  "},{"poiid":"B2094757D069A2F4409F","title":"渣打银行","lon":"121.5313531","lat":"31.22228377","category":"46","category_name":"楼宇","address":"浦东新区福山路500号城建国际中心1楼(福山路浦电路)"},{"poiid":"B2094655D26EA0FE4298","title":"浦东税务大厦","lon":"121.53213","lat":"31.22352","category":"46","category_name":"楼宇","address":"向城路80"},{"poiid":"B2094751D56FA2FF4192","title":"上海纽约大学","lon":"121.532883","lat":"31.225453","category":"253","category_name":"校园生活","address":"浦东新区松林路288号"},{"poiid":"B2094751D36EA0FF459E","title":"点沁(福山路店)","lon":"121.53101","lat":"31.2241","category":"68","category_name":"快餐厅","address":"浦东新区向城路78号新天国际商厦1楼(近福山路)"},{"poiid":"B2094750DA6AA3F5489B","title":"soho世纪广场","lon":"121.533538","lat":"31.22653","category":"252","category_name":"楼宇机构","address":"向城路288号"},{"poiid":"B2094757D16CA3FC479D","title":"万寿亭高丽参鸡汤陆家嘴商务广场店","lon":"121.534708019","lat":"31.2235147345","category":"96","category_name":"韩国料理","address":"浦东新区世纪大道1600号陆家嘴商务广场裙楼(近浦电路)"},{"poiid":"B2094757D064A7FC4992","title":"潘朵拉城市行动咖啡 福山路店 Pandora","lon":"121.531210054","lat":"31.225413793","category":"65","category_name":"咖啡厅","address":"浦东新区福山路455号全华信息大厦1楼(近向城路)"},{"poiid":"B209475CD26DA0F44992","title":"糖员外私房甜品（96广场店）","lon":"121.530052","lat":"31.226718","category":"247","category_name":"餐饮美食","address":"上海市 东方路796号96广场249B"},{"poiid":"B209475CDA69ABFA4192","title":"PIZZA MARZANO","lon":"121.529724","lat":"31.225532","category":"500","category_name":"未知分类","address":"上海市 上海市浦东新区九六广场"},{"poiid":"B2094654DB69AAFF4493","title":"唐部世家","lon":"121.52995","lat":"31.22282","category":"72","category_name":"广东菜","address":"浦东新区东方路971号钱江大厦(东方路浦电路)"},{"poiid":"B2094757D16AA3FA479B","title":"德国工商会签证中心","lon":"121.53529253","lat":"31.224726782","category":"500","category_name":"未知分类","address":"上海市浦东新区世纪大道1600号陆家嘴广场20楼"},{"poiid":"B2094751D56CA4F9479B","title":"COSTA COFFEE(竹林路店)","lon":"121.53255","lat":"31.22362","category":"65","category_name":"咖啡厅","address":"浦东新区竹林路101号基金大厦大堂A单元(近福山路)"},{"poiid":"B2094757D66BA3FB4198","title":"雅园","lon":"121.5307757","lat":"31.2249032","category":"94","category_name":"西餐厅","address":"浦东新区向城路29号爵士大厦C栋柏雅居1楼(近东方路)"},{"poiid":"B2094757D16FA0FD4598","title":"赛百味 中建大厦店 Subway","lon":"121.534346","lat":"31.224483","category":"94","category_name":"西餐厅","address":"浦东新区世纪大道1588号(近浦电路)"},{"poiid":"B2094655D36CA1FD479F","title":"世纪大道浦电路","lon":"121.5339","lat":"31.22489","category":"38","category_name":"公交车站","address":""},{"poiid":"B2094750D76CAAFA439C","title":"中华经典美食","lon":"121.532","lat":"31.2246","category":"68","category_name":"快餐厅","address":"浦东新区福山路455号全华信息大厦1楼侧门(近四号线浦电路站1号口)"},{"poiid":"B2094757D464A5FE4693","title":"汉宫茶餐厅 福山路店","lon":"121.5317","lat":"31.22347","category":"68","category_name":"快餐厅","address":"浦东新区福山路458号3楼(近浦电路)"},{"poiid":"B2094752D66DA0F8429D","title":"骨谷面","lon":"121.530687","lat":"31.224375","category":"247","category_name":"餐饮美食","address":"向城路福山路"},{"poiid":"B2094655D26BA7F4469B","title":"可的超市福山三店","lon":"121.53188","lat":"31.22434","category":"117","category_name":"便民商店/便利店","address":"福山路455号"},{"poiid":"B2094757DA6BABF84198","title":"SOHO世纪大道","lon":"121.533176","lat":"31.226032","category":"252","category_name":"楼宇机构","address":"安阳市中华路与文昌大道交叉口向北200米路东"},{"poiid":"B2094654DA69ABF5479F","title":"上海期货交易所","lon":"121.53494","lat":"31.22595","category":"219","category_name":"其他","address":"浦东新区松林路300号"},{"poiid":"B2094757D068AAFC4398","title":"城建大廈","lon":"121.532206267","lat":"31.222689613","category":"46","category_name":"楼宇","address":"上海福山路500號"}]