[{"poiid":"B2094655D269A4FA419B","title":"徐汇游泳馆","lon":"121.45713","lat":"31.19343","category":"231","category_name":"游泳馆","address":"徐汇区枫林路329号(近零陵路)"},{"poiid":"B209475CD76CA3F8459F","title":"maan coffee漫咖啡","lon":"121.458557","lat":"31.186952","category":"500","category_name":"未知分类","address":"上海市 中山南二路699号正大乐城2楼(近东安路)"},{"poiid":"B2094654DA6DA5F9419D","title":"复旦大学护理学院(枫林路)","lon":"121.45767","lat":"31.1938","category":"52","category_name":"高等院校","address":"徐汇区枫林路305"},{"poiid":"B2094753D76FAAFA449C","title":"上海滩国泰旗舰店","lon":"121.466011","lat":"31.216125","category":"249","category_name":"购物服务","address":"淮海中路868号"},{"poiid":"B2094757D06FA4FF4393","title":"泡椒同学","lon":"121.45728","lat":"31.19275","category":"71","category_name":"四川菜","address":"上海徐汇区枫林路331号(近零陵路)"},{"poiid":"B2094757D064A1F4429C","title":"上海昆虫博物馆","lon":"121.45702","lat":"31.19306","category":"179","category_name":"音乐厅","address":"徐汇区枫林路300号(近斜土路)"},{"poiid":"B2094654DA6DA5F94398","title":"中粮大厦","lon":"121.46189","lat":"31.19029","category":"46","category_name":"楼宇","address":"北一环与亳州路交叉口(庐阳区政府对面)"},{"poiid":"B2094757D06FA4FC419C","title":"上海外经大厦","lon":"121.463529","lat":"31.189459","category":"46","category_name":"楼宇","address":"上海徐汇区小木桥路681号"},{"poiid":"B2094757D06FA5FB489E","title":"西木小区","lon":"121.45944","lat":"31.193609","category":"47","category_name":"住宅区","address":"上海市徐汇区小木桥路斜土路"},{"poiid":"B2094757D06FA6F5409B","title":"黄毛烧烤(零陵店)","lon":"121.45999908","lat":"31.19260025","category":"269","category_name":"烧烤","address":"徐汇区零陵路231号(小木桥路口)"},{"poiid":"B2094757D068A7FD4599","title":"福岛第一核电站三号机组","lon":"121.46172857","lat":"31.190548563","category":"260","category_name":"其他","address":"日本福岛县"},{"poiid":"B2094655D36DA1F54498","title":"小木桥路中山南二路","lon":"121.4611","lat":"31.19248","category":"38","category_name":"公交车站","address":""},{"poiid":"B2094757D06BA6FF469E","title":"船厂路中山南二路","lon":"121.459764","lat":"31.18839","category":"500","category_name":"未知分类","address":"上海船厂路中山南二路"},{"poiid":"B2094757D069A0F84793","title":"斯柯达4s店","lon":"121.460461","lat":"31.188615","category":"500","category_name":"未知分类","address":"上海中山南二路555号"},{"poiid":"B2094757D068A1FB4493","title":"振鼎鸡(小木桥路店)","lon":"121.45971","lat":"31.19518","category":"68","category_name":"快餐厅","address":"徐汇区小木桥路369号(近斜土路)"},{"poiid":"B2094655D26AA0F44799","title":"新偶像艺术学校","lon":"121.46105","lat":"31.18889","category":"247","category_name":"餐饮美食","address":"徐汇区中山南二路555号冠霖大楼4127室(近大木桥路)"},{"poiid":"B2094757D06FA7FA489E","title":"东安一村","lon":"121.455943","lat":"31.191161","category":"47","category_name":"住宅区","address":"上海徐汇区零陵路350弄1-110号(近东安路)"},{"poiid":"B2094654DA6DA5F9429C","title":"中国科学院上海有机化学研究所","lon":"121.45713","lat":"31.19247","category":"191","category_name":"科研机构","address":"枫林路354号"},{"poiid":"B2094757D465A0F44799","title":"风调雨顺土菜馆 小木桥路店","lon":"121.46067545609","lat":"31.193509137011","category":"77","category_name":"湖南菜","address":"徐汇区小木桥路458号(近零陵路)"},{"poiid":"B2094655D26FA6F4449A","title":"枫林新村","lon":"121.45953","lat":"31.192083","category":"47","category_name":"住宅区","address":"零陵路250弄,零陵路259弄"},{"poiid":"B2094757D16CA2F8479A","title":"零陵路小木桥路","lon":"121.462027138","lat":"31.193420016","category":"500","category_name":"未知分类","address":"上海零陵路小木桥路"},{"poiid":"B2094655D268A4FC489D","title":"上海电子信息职业技术学院徐汇校区(东门)","lon":"121.45886","lat":"31.18878","category":"52","category_name":"高等院校","address":""},{"poiid":"B2094757D165A1FB4698","title":"重庆鸡公煲 零陵路店","lon":"121.459109054","lat":"31.192281793","category":"71","category_name":"四川菜","address":"徐汇区零陵路260号(近枫林路)"},{"poiid":"B2094654DA6DA5FF459D","title":"天全鱼庄","lon":"121.458603","lat":"31.192515","category":"71","category_name":"四川菜","address":"徐汇区零陵路289弄(枫林路口)"},{"poiid":"B2094753D664AAF9469C","title":"正大乐城","lon":"121.456886","lat":"31.189115","category":"170","category_name":"KTV","address":"上海市 中山南二路679号"},{"poiid":"B2094757D16AA5FC4199","title":"宛南实验幼儿园","lon":"121.459573938","lat":"31.1927580686","category":"57","category_name":"幼儿园","address":"徐汇区大木桥路323号(茶陵路大木桥路)"},{"poiid":"B2094654DB6BA5F44093","title":"上海为波宾馆凯地店","lon":"121.46143","lat":"31.19069","category":"250","category_name":"公园户外","address":"上海市徐汇区小木桥路604号(近中山南二路)"},{"poiid":"B2094752DA6BA4F8439A","title":"华士达影城","lon":"121.457227","lat":"31.18925","category":"178","category_name":"电影院","address":"上海市 东安路599号"},{"poiid":"B2094654DA6DA5F9429D","title":"西南位育中学(东校区)","lon":"121.46072","lat":"31.19278","category":"55","category_name":"中学","address":"徐汇区小木桥路500号(近零陵路)"},{"poiid":"B2094757D16DA1FD4898","title":"海珀旭晖","lon":"121.462925","lat":"31.192106","category":"500","category_name":"未知分类","address":"徐汇区东安路800号"},{"poiid":"B2094654DA6DA5FF419C","title":"欣荣酒家","lon":"121.458470054","lat":"31.191898793","category":"76","category_name":"上海菜","address":"徐汇区零陵路342号(近枫林路)"},{"poiid":"B2094753D664A2FA4692","title":"天家（正大乐城店）","lon":"121.456863","lat":"31.189044","category":"247","category_name":"餐饮美食","address":"上海市 龙华中路"},{"poiid":"B2094655D36DA1F5449A","title":"小木桥路零陵路","lon":"121.46135","lat":"31.19161","category":"38","category_name":"公交车站","address":""},{"poiid":"B2094654DA6DA5F94293","title":"徐汇新湖云庭(2号门)","lon":"121.4615","lat":"31.191","category":"47","category_name":"住宅区","address":""},{"poiid":"B2094757D16FA7FE479C","title":"宛南幼儿园托小部","lon":"121.45880573","lat":"31.192156489","category":"57","category_name":"幼儿园","address":"上海市零陵路"},{"poiid":"B2094654DA6DA5FF479D","title":"枫林新村(北门)","lon":"121.45932","lat":"31.19229","category":"47","category_name":"住宅区","address":"零陵路250弄1-59号"},{"poiid":"B2094654DA6DA4FE449F","title":"冠霖商务楼","lon":"121.46105","lat":"31.18889","category":"46","category_name":"楼宇","address":"中山南二路555号"},{"poiid":"B2094757D06BA4F84493","title":"289弄住宅区","lon":"121.45797673","lat":"31.192104488","category":"47","category_name":"住宅区","address":"上海市徐汇区零陵路"},{"poiid":"B209475CD26BA5F9459F","title":"CIC上海总部","lon":"121.459297","lat":"31.191227","category":"263","category_name":"公司","address":"枫林路485号6号楼"},{"poiid":"B2094757DB68AAFA4099","title":"东安路","lon":"121.46082","lat":"31.19214","category":"627","category_name":"一般地点标志","address":"地铁"},{"poiid":"B2094654DA6DA5F94892","title":"上海市工业技术学校(中山南二路)","lon":"121.45996","lat":"31.18919","category":"54","category_name":"职业技术学校","address":"中山南二路530"},{"poiid":"B2094757D16DA6FD439A","title":"安吉瑞欧斯巴鲁","lon":"121.45895299","lat":"31.1923816939","category":"500","category_name":"未知分类","address":"上海东安路239号"},{"poiid":"B2094757D065A7F54998","title":"Raymond's home","lon":"121.459978738","lat":"31.1901824471","category":"500","category_name":"未知分类","address":null},{"poiid":"B2094654DB65A3FF489C","title":"好德No.336","lon":"121.458","lat":"31.19211","category":"117","category_name":"便民商店/便利店","address":"零陵路297"},{"poiid":"B2094751DA6EA3FE449B","title":"星巴克","lon":"121.459449","lat":"31.193334","category":"500","category_name":"未知分类","address":null},{"poiid":"B2094654DA6DA5F9499E","title":"东安一村(5号门)","lon":"121.45864","lat":"31.18923","category":"47","category_name":"住宅区","address":""},{"poiid":"B2094757D06AAAFE429C","title":"黄河视觉·原创摄影","lon":"121.459807931","lat":"31.1930588879","category":"46","category_name":"楼宇","address":"徐汇区零陵路231号1号楼3楼(近小木桥路)"},{"poiid":"B2094654DB6AA6FF499C","title":"上海嘉煜宾馆","lon":"121.45691","lat":"31.19106","category":"250","category_name":"公园户外","address":"上海市徐汇区零陵路342号(近东安路)"},{"poiid":"B2094655D264A1FE4192","title":"上海市徐汇区枫安菜市场","lon":"121.46133","lat":"31.18975","category":"117","category_name":"便民商店/便利店","address":"中山南二路450、450-1临"},{"poiid":"B2094654DA6DA5F9489D","title":"上海工艺美术职业学院徐汇二分院","lon":"121.45996","lat":"31.18918","category":"52","category_name":"高等院校","address":"中山南二路530"},{"poiid":"B2094655D269A4FA419B","title":"徐汇游泳馆","lon":"121.45713","lat":"31.19343","category":"231","category_name":"游泳馆","address":"徐汇区枫林路329号(近零陵路)"},{"poiid":"B209475CD76CA3F8459F","title":"maan coffee漫咖啡","lon":"121.458557","lat":"31.186952","category":"500","category_name":"未知分类","address":"上海市 中山南二路699号正大乐城2楼(近东安路)"},{"poiid":"B2094654DA6DA5F9419D","title":"复旦大学护理学院(枫林路)","lon":"121.45767","lat":"31.1938","category":"52","category_name":"高等院校","address":"徐汇区枫林路305"},{"poiid":"B2094753D76FAAFA449C","title":"上海滩国泰旗舰店","lon":"121.466011","lat":"31.216125","category":"249","category_name":"购物服务","address":"淮海中路868号"},{"poiid":"B2094757D06FA4FF4393","title":"泡椒同学","lon":"121.45728","lat":"31.19275","category":"71","category_name":"四川菜","address":"上海徐汇区枫林路331号(近零陵路)"},{"poiid":"B2094757D064A1F4429C","title":"上海昆虫博物馆","lon":"121.45702","lat":"31.19306","category":"179","category_name":"音乐厅","address":"徐汇区枫林路300号(近斜土路)"},{"poiid":"B2094654DA6DA5F94398","title":"中粮大厦","lon":"121.46189","lat":"31.19029","category":"46","category_name":"楼宇","address":"北一环与亳州路交叉口(庐阳区政府对面)"},{"poiid":"B2094757D06FA4FC419C","title":"上海外经大厦","lon":"121.463529","lat":"31.189459","category":"46","category_name":"楼宇","address":"上海徐汇区小木桥路681号"},{"poiid":"B2094757D06FA5FB489E","title":"西木小区","lon":"121.45944","lat":"31.193609","category":"47","category_name":"住宅区","address":"上海市徐汇区小木桥路斜土路"},{"poiid":"B2094757D06FA6F5409B","title":"黄毛烧烤(零陵店)","lon":"121.45999908","lat":"31.19260025","category":"269","category_name":"烧烤","address":"徐汇区零陵路231号(小木桥路口)"},{"poiid":"B2094757D068A7FD4599","title":"福岛第一核电站三号机组","lon":"121.46172857","lat":"31.190548563","category":"260","category_name":"其他","address":"日本福岛县"},{"poiid":"B2094655D36DA1F54498","title":"小木桥路中山南二路","lon":"121.4611","lat":"31.19248","category":"38","category_name":"公交车站","address":""},{"poiid":"B2094757D06BA6FF469E","title":"船厂路中山南二路","lon":"121.459764","lat":"31.18839","category":"500","category_name":"未知分类","address":"上海船厂路中山南二路"},{"poiid":"B2094757D069A0F84793","title":"斯柯达4s店","lon":"121.460461","lat":"31.188615","category":"500","category_name":"未知分类","address":"上海中山南二路555号"},{"poiid":"B2094757D068A1FB4493","title":"振鼎鸡(小木桥路店)","lon":"121.45971","lat":"31.19518","category":"68","category_name":"快餐厅","address":"徐汇区小木桥路369号(近斜土路)"},{"poiid":"B2094655D26AA0F44799","title":"新偶像艺术学校","lon":"121.46105","lat":"31.18889","category":"247","category_name":"餐饮美食","address":"徐汇区中山南二路555号冠霖大楼4127室(近大木桥路)"},{"poiid":"B2094757D06FA7FA489E","title":"东安一村","lon":"121.455943","lat":"31.191161","category":"47","category_name":"住宅区","address":"上海徐汇区零陵路350弄1-110号(近东安路)"},{"poiid":"B2094654DA6DA5F9429C","title":"中国科学院上海有机化学研究所","lon":"121.45713","lat":"31.19247","category":"191","category_name":"科研机构","address":"枫林路354号"},{"poiid":"B2094757D465A0F44799","title":"风调雨顺土菜馆 小木桥路店","lon":"121.46067545609","lat":"31.193509137011","category":"77","category_name":"湖南菜","address":"徐汇区小木桥路458号(近零陵路)"},{"poiid":"B2094655D26FA6F4449A","title":"枫林新村","lon":"121.45953","lat":"31.192083","category":"47","category_name":"住宅区","address":"零陵路250弄,零陵路259弄"},{"poiid":"B2094757D16CA2F8479A","title":"零陵路小木桥路","lon":"121.462027138","lat":"31.193420016","category":"500","category_name":"未知分类","address":"上海零陵路小木桥路"},{"poiid":"B2094655D268A4FC489D","title":"上海电子信息职业技术学院徐汇校区(东门)","lon":"121.45886","lat":"31.18878","category":"52","category_name":"高等院校","address":""},{"poiid":"B2094757D165A1FB4698","title":"重庆鸡公煲 零陵路店","lon":"121.459109054","lat":"31.192281793","category":"71","category_name":"四川菜","address":"徐汇区零陵路260号(近枫林路)"},{"poiid":"B2094654DA6DA5FF459D","title":"天全鱼庄","lon":"121.458603","lat":"31.192515","category":"71","category_name":"四川菜","address":"徐汇区零陵路289弄(枫林路口)"},{"poiid":"B2094753D664AAF9469C","title":"正大乐城","lon":"121.456886","lat":"31.189115","category":"170","category_name":"KTV","address":"上海市 中山南二路679号"},{"poiid":"B2094757D16AA5FC4199","title":"宛南实验幼儿园","lon":"121.459573938","lat":"31.1927580686","category":"57","category_name":"幼儿园","address":"徐汇区大木桥路323号(茶陵路大木桥路)"},{"poiid":"B2094654DB6BA5F44093","title":"上海为波宾馆凯地店","lon":"121.46143","lat":"31.19069","category":"250","category_name":"公园户外","address":"上海市徐汇区小木桥路604号(近中山南二路)"},{"poiid":"B2094752DA6BA4F8439A","title":"华士达影城","lon":"121.457227","lat":"31.18925","category":"178","category_name":"电影院","address":"上海市 东安路599号"},{"poiid":"B2094654DA6DA5F9429D","title":"西南位育中学(东校区)","lon":"121.46072","lat":"31.19278","category":"55","category_name":"中学","address":"徐汇区小木桥路500号(近零陵路)"},{"poiid":"B2094757D16DA1FD4898","title":"海珀旭晖","lon":"121.462925","lat":"31.192106","category":"500","category_name":"未知分类","address":"徐汇区东安路800号"},{"poiid":"B2094654DA6DA5FF419C","title":"欣荣酒家","lon":"121.458470054","lat":"31.191898793","category":"76","category_name":"上海菜","address":"徐汇区零陵路342号(近枫林路)"},{"poiid":"B2094753D664A2FA4692","title":"天家（正大乐城店）","lon":"121.456863","lat":"31.189044","category":"247","category_name":"餐饮美食","address":"上海市 龙华中路"},{"poiid":"B2094655D36DA1F5449A","title":"小木桥路零陵路","lon":"121.46135","lat":"31.19161","category":"38","category_name":"公交车站","address":""},{"poiid":"B2094654DA6DA5F94293","title":"徐汇新湖云庭(2号门)","lon":"121.4615","lat":"31.191","category":"47","category_name":"住宅区","address":""},{"poiid":"B2094757D16FA7FE479C","title":"宛南幼儿园托小部","lon":"121.45880573","lat":"31.192156489","category":"57","category_name":"幼儿园","address":"上海市零陵路"},{"poiid":"B2094654DA6DA5FF479D","title":"枫林新村(北门)","lon":"121.45932","lat":"31.19229","category":"47","category_name":"住宅区","address":"零陵路250弄1-59号"},{"poiid":"B2094654DA6DA4FE449F","title":"冠霖商务楼","lon":"121.46105","lat":"31.18889","category":"46","category_name":"楼宇","address":"中山南二路555号"},{"poiid":"B2094757D06BA4F84493","title":"289弄住宅区","lon":"121.45797673","lat":"31.192104488","category":"47","category_name":"住宅区","address":"上海市徐汇区零陵路"},{"poiid":"B209475CD26BA5F9459F","title":"CIC上海总部","lon":"121.459297","lat":"31.191227","category":"263","category_name":"公司","address":"枫林路485号6号楼"},{"poiid":"B2094757DB68AAFA4099","title":"东安路","lon":"121.46082","lat":"31.19214","category":"627","category_name":"一般地点标志","address":"地铁"},{"poiid":"B2094654DA6DA5F94892","title":"上海市工业技术学校(中山南二路)","lon":"121.45996","lat":"31.18919","category":"54","category_name":"职业技术学校","address":"中山南二路530"},{"poiid":"B2094757D16DA6FD439A","title":"安吉瑞欧斯巴鲁","lon":"121.45895299","lat":"31.1923816939","category":"500","category_name":"未知分类","address":"上海东安路239号"},{"poiid":"B2094757D065A7F54998","title":"Raymond's home","lon":"121.459978738","lat":"31.1901824471","category":"500","category_name":"未知分类","address":null},{"poiid":"B2094654DB65A3FF489C","title":"好德No.336","lon":"121.458","lat":"31.19211","category":"117","category_name":"便民商店/便利店","address":"零陵路297"},{"poiid":"B2094751DA6EA3FE449B","title":"星巴克","lon":"121.459449","lat":"31.193334","category":"500","category_name":"未知分类","address":null},{"poiid":"B2094654DA6DA5F9499E","title":"东安一村(5号门)","lon":"121.45864","lat":"31.18923","category":"47","category_name":"住宅区","address":""},{"poiid":"B2094757D06AAAFE429C","title":"黄河视觉·原创摄影","lon":"121.459807931","lat":"31.1930588879","category":"46","category_name":"楼宇","address":"徐汇区零陵路231号1号楼3楼(近小木桥路)"},{"poiid":"B2094654DB6AA6FF499C","title":"上海嘉煜宾馆","lon":"121.45691","lat":"31.19106","category":"250","category_name":"公园户外","address":"上海市徐汇区零陵路342号(近东安路)"},{"poiid":"B2094655D264A1FE4192","title":"上海市徐汇区枫安菜市场","lon":"121.46133","lat":"31.18975","category":"117","category_name":"便民商店/便利店","address":"中山南二路450、450-1临"},{"poiid":"B2094654DA6DA5F9489D","title":"上海工艺美术职业学院徐汇二分院","lon":"121.45996","lat":"31.18918","category":"52","category_name":"高等院校","address":"中山南二路530"},{"poiid":"B2094655D269A4FA419B","title":"徐汇游泳馆","lon":"121.45713","lat":"31.19343","category":"231","category_name":"游泳馆","address":"徐汇区枫林路329号(近零陵路)"},{"poiid":"B209475CD76CA3F8459F","title":"maan coffee漫咖啡","lon":"121.458557","lat":"31.186952","category":"500","category_name":"未知分类","address":"上海市 中山南二路699号正大乐城2楼(近东安路)"},{"poiid":"B2094654DA6DA5F9419D","title":"复旦大学护理学院(枫林路)","lon":"121.45767","lat":"31.1938","category":"52","category_name":"高等院校","address":"徐汇区枫林路305"},{"poiid":"B2094753D76FAAFA449C","title":"上海滩国泰旗舰店","lon":"121.466011","lat":"31.216125","category":"249","category_name":"购物服务","address":"淮海中路868号"},{"poiid":"B2094757D06FA4FF4393","title":"泡椒同学","lon":"121.45728","lat":"31.19275","category":"71","category_name":"四川菜","address":"上海徐汇区枫林路331号(近零陵路)"},{"poiid":"B2094757D064A1F4429C","title":"上海昆虫博物馆","lon":"121.45702","lat":"31.19306","category":"179","category_name":"音乐厅","address":"徐汇区枫林路300号(近斜土路)"},{"poiid":"B2094654DA6DA5F94398","title":"中粮大厦","lon":"121.46189","lat":"31.19029","category":"46","category_name":"楼宇","address":"北一环与亳州路交叉口(庐阳区政府对面)"},{"poiid":"B2094757D06FA4FC419C","title":"上海外经大厦","lon":"121.463529","lat":"31.189459","category":"46","category_name":"楼宇","address":"上海徐汇区小木桥路681号"},{"poiid":"B2094757D06FA5FB489E","title":"西木小区","lon":"121.45944","lat":"31.193609","category":"47","category_name":"住宅区","address":"上海市徐汇区小木桥路斜土路"},{"poiid":"B2094757D06FA6F5409B","title":"黄毛烧烤(零陵店)","lon":"121.45999908","lat":"31.19260025","category":"269","category_name":"烧烤","address":"徐汇区零陵路231号(小木桥路口)"},{"poiid":"B2094757D068A7FD4599","title":"福岛第一核电站三号机组","lon":"121.46172857","lat":"31.190548563","category":"260","category_name":"其他","address":"日本福岛县"},{"poiid":"B2094655D36DA1F54498","title":"小木桥路中山南二路","lon":"121.4611","lat":"31.19248","category":"38","category_name":"公交车站","address":""},{"poiid":"B2094757D06BA6FF469E","title":"船厂路中山南二路","lon":"121.459764","lat":"31.18839","category":"500","category_name":"未知分类","address":"上海船厂路中山南二路"},{"poiid":"B2094757D069A0F84793","title":"斯柯达4s店","lon":"121.460461","lat":"31.188615","category":"500","category_name":"未知分类","address":"上海中山南二路555号"},{"poiid":"B2094757D068A1FB4493","title":"振鼎鸡(小木桥路店)","lon":"121.45971","lat":"31.19518","category":"68","category_name":"快餐厅","address":"徐汇区小木桥路369号(近斜土路)"},{"poiid":"B2094655D26AA0F44799","title":"新偶像艺术学校","lon":"121.46105","lat":"31.18889","category":"247","category_name":"餐饮美食","address":"徐汇区中山南二路555号冠霖大楼4127室(近大木桥路)"},{"poiid":"B2094757D06FA7FA489E","title":"东安一村","lon":"121.455943","lat":"31.191161","category":"47","category_name":"住宅区","address":"上海徐汇区零陵路350弄1-110号(近东安路)"},{"poiid":"B2094654DA6DA5F9429C","title":"中国科学院上海有机化学研究所","lon":"121.45713","lat":"31.19247","category":"191","category_name":"科研机构","address":"枫林路354号"},{"poiid":"B2094757D465A0F44799","title":"风调雨顺土菜馆 小木桥路店","lon":"121.46067545609","lat":"31.193509137011","category":"77","category_name":"湖南菜","address":"徐汇区小木桥路458号(近零陵路)"},{"poiid":"B2094655D26FA6F4449A","title":"枫林新村","lon":"121.45953","lat":"31.192083","category":"47","category_name":"住宅区","address":"零陵路250弄,零陵路259弄"},{"poiid":"B2094757D16CA2F8479A","title":"零陵路小木桥路","lon":"121.462027138","lat":"31.193420016","category":"500","category_name":"未知分类","address":"上海零陵路小木桥路"},{"poiid":"B2094655D268A4FC489D","title":"上海电子信息职业技术学院徐汇校区(东门)","lon":"121.45886","lat":"31.18878","category":"52","category_name":"高等院校","address":""},{"poiid":"B2094757D165A1FB4698","title":"重庆鸡公煲 零陵路店","lon":"121.459109054","lat":"31.192281793","category":"71","category_name":"四川菜","address":"徐汇区零陵路260号(近枫林路)"},{"poiid":"B2094654DA6DA5FF459D","title":"天全鱼庄","lon":"121.458603","lat":"31.192515","category":"71","category_name":"四川菜","address":"徐汇区零陵路289弄(枫林路口)"},{"poiid":"B2094753D664AAF9469C","title":"正大乐城","lon":"121.456886","lat":"31.189115","category":"170","category_name":"KTV","address":"上海市 中山南二路679号"},{"poiid":"B2094757D16AA5FC4199","title":"宛南实验幼儿园","lon":"121.459573938","lat":"31.1927580686","category":"57","category_name":"幼儿园","address":"徐汇区大木桥路323号(茶陵路大木桥路)"},{"poiid":"B2094654DB6BA5F44093","title":"上海为波宾馆凯地店","lon":"121.46143","lat":"31.19069","category":"250","category_name":"公园户外","address":"上海市徐汇区小木桥路604号(近中山南二路)"},{"poiid":"B2094752DA6BA4F8439A","title":"华士达影城","lon":"121.457227","lat":"31.18925","category":"178","category_name":"电影院","address":"上海市 东安路599号"},{"poiid":"B2094654DA6DA5F9429D","title":"西南位育中学(东校区)","lon":"121.46072","lat":"31.19278","category":"55","category_name":"中学","address":"徐汇区小木桥路500号(近零陵路)"},{"poiid":"B2094757D16DA1FD4898","title":"海珀旭晖","lon":"121.462925","lat":"31.192106","category":"500","category_name":"未知分类","address":"徐汇区东安路800号"},{"poiid":"B2094654DA6DA5FF419C","title":"欣荣酒家","lon":"121.458470054","lat":"31.191898793","category":"76","category_name":"上海菜","address":"徐汇区零陵路342号(近枫林路)"},{"poiid":"B2094753D664A2FA4692","title":"天家（正大乐城店）","lon":"121.456863","lat":"31.189044","category":"247","category_name":"餐饮美食","address":"上海市 龙华中路"},{"poiid":"B2094655D36DA1F5449A","title":"小木桥路零陵路","lon":"121.46135","lat":"31.19161","category":"38","category_name":"公交车站","address":""},{"poiid":"B2094654DA6DA5F94293","title":"徐汇新湖云庭(2号门)","lon":"121.4615","lat":"31.191","category":"47","category_name":"住宅区","address":""},{"poiid":"B2094757D16FA7FE479C","title":"宛南幼儿园托小部","lon":"121.45880573","lat":"31.192156489","category":"57","category_name":"幼儿园","address":"上海市零陵路"},{"poiid":"B2094654DA6DA5FF479D","title":"枫林新村(北门)","lon":"121.45932","lat":"31.19229","category":"47","category_name":"住宅区","address":"零陵路250弄1-59号"},{"poiid":"B2094654DA6DA4FE449F","title":"冠霖商务楼","lon":"121.46105","lat":"31.18889","category":"46","category_name":"楼宇","address":"中山南二路555号"},{"poiid":"B2094757D06BA4F84493","title":"289弄住宅区","lon":"121.45797673","lat":"31.192104488","category":"47","category_name":"住宅区","address":"上海市徐汇区零陵路"},{"poiid":"B209475CD26BA5F9459F","title":"CIC上海总部","lon":"121.459297","lat":"31.191227","category":"263","category_name":"公司","address":"枫林路485号6号楼"},{"poiid":"B2094757DB68AAFA4099","title":"东安路","lon":"121.46082","lat":"31.19214","category":"627","category_name":"一般地点标志","address":"地铁"},{"poiid":"B2094654DA6DA5F94892","title":"上海市工业技术学校(中山南二路)","lon":"121.45996","lat":"31.18919","category":"54","category_name":"职业技术学校","address":"中山南二路530"},{"poiid":"B2094757D16DA6FD439A","title":"安吉瑞欧斯巴鲁","lon":"121.45895299","lat":"31.1923816939","category":"500","category_name":"未知分类","address":"上海东安路239号"},{"poiid":"B2094757D065A7F54998","title":"Raymond's home","lon":"121.459978738","lat":"31.1901824471","category":"500","category_name":"未知分类","address":null},{"poiid":"B2094654DB65A3FF489C","title":"好德No.336","lon":"121.458","lat":"31.19211","category":"117","category_name":"便民商店/便利店","address":"零陵路297"},{"poiid":"B2094751DA6EA3FE449B","title":"星巴克","lon":"121.459449","lat":"31.193334","category":"500","category_name":"未知分类","address":null},{"poiid":"B2094654DA6DA5F9499E","title":"东安一村(5号门)","lon":"121.45864","lat":"31.18923","category":"47","category_name":"住宅区","address":""},{"poiid":"B2094757D06AAAFE429C","title":"黄河视觉·原创摄影","lon":"121.459807931","lat":"31.1930588879","category":"46","category_name":"楼宇","address":"徐汇区零陵路231号1号楼3楼(近小木桥路)"},{"poiid":"B2094654DB6AA6FF499C","title":"上海嘉煜宾馆","lon":"121.45691","lat":"31.19106","category":"250","category_name":"公园户外","address":"上海市徐汇区零陵路342号(近东安路)"},{"poiid":"B2094655D264A1FE4192","title":"上海市徐汇区枫安菜市场","lon":"121.46133","lat":"31.18975","category":"117","category_name":"便民商店/便利店","address":"中山南二路450、450-1临"},{"poiid":"B2094654DA6DA5F9489D","title":"上海工艺美术职业学院徐汇二分院","lon":"121.45996","lat":"31.18918","category":"52","category_name":"高等院校","address":"中山南二路530"},{"poiid":"B2094655D269A4FA419B","title":"徐汇游泳馆","lon":"121.45713","lat":"31.19343","category":"231","category_name":"游泳馆","address":"徐汇区枫林路329号(近零陵路)"},{"poiid":"B209475CD76CA3F8459F","title":"maan coffee漫咖啡","lon":"121.458557","lat":"31.186952","category":"500","category_name":"未知分类","address":"上海市 中山南二路699号正大乐城2楼(近东安路)"},{"poiid":"B2094654DA6DA5F9419D","title":"复旦大学护理学院(枫林路)","lon":"121.45767","lat":"31.1938","category":"52","category_name":"高等院校","address":"徐汇区枫林路305"},{"poiid":"B2094753D76FAAFA449C","title":"上海滩国泰旗舰店","lon":"121.466011","lat":"31.216125","category":"249","category_name":"购物服务","address":"淮海中路868号"},{"poiid":"B2094757D06FA4FF4393","title":"泡椒同学","lon":"121.45728","lat":"31.19275","category":"71","category_name":"四川菜","address":"上海徐汇区枫林路331号(近零陵路)"},{"poiid":"B2094757D064A1F4429C","title":"上海昆虫博物馆","lon":"121.45702","lat":"31.19306","category":"179","category_name":"音乐厅","address":"徐汇区枫林路300号(近斜土路)"},{"poiid":"B2094654DA6DA5F94398","title":"中粮大厦","lon":"121.46189","lat":"31.19029","category":"46","category_name":"楼宇","address":"北一环与亳州路交叉口(庐阳区政府对面)"},{"poiid":"B2094757D06FA4FC419C","title":"上海外经大厦","lon":"121.463529","lat":"31.189459","category":"46","category_name":"楼宇","address":"上海徐汇区小木桥路681号"},{"poiid":"B2094757D06FA5FB489E","title":"西木小区","lon":"121.45944","lat":"31.193609","category":"47","category_name":"住宅区","address":"上海市徐汇区小木桥路斜土路"},{"poiid":"B2094757D06FA6F5409B","title":"黄毛烧烤(零陵店)","lon":"121.45999908","lat":"31.19260025","category":"269","category_name":"烧烤","address":"徐汇区零陵路231号(小木桥路口)"},{"poiid":"B2094757D068A7FD4599","title":"福岛第一核电站三号机组","lon":"121.46172857","lat":"31.190548563","category":"260","category_name":"其他","address":"日本福岛县"},{"poiid":"B2094655D36DA1F54498","title":"小木桥路中山南二路","lon":"121.4611","lat":"31.19248","category":"38","category_name":"公交车站","address":""},{"poiid":"B2094757D06BA6FF469E","title":"船厂路中山南二路","lon":"121.459764","lat":"31.18839","category":"500","category_name":"未知分类","address":"上海船厂路中山南二路"},{"poiid":"B2094757D069A0F84793","title":"斯柯达4s店","lon":"121.460461","lat":"31.188615","category":"500","category_name":"未知分类","address":"上海中山南二路555号"},{"poiid":"B2094757D068A1FB4493","title":"振鼎鸡(小木桥路店)","lon":"121.45971","lat":"31.19518","category":"68","category_name":"快餐厅","address":"徐汇区小木桥路369号(近斜土路)"},{"poiid":"B2094655D26AA0F44799","title":"新偶像艺术学校","lon":"121.46105","lat":"31.18889","category":"247","category_name":"餐饮美食","address":"徐汇区中山南二路555号冠霖大楼4127室(近大木桥路)"},{"poiid":"B2094757D06FA7FA489E","title":"东安一村","lon":"121.455943","lat":"31.191161","category":"47","category_name":"住宅区","address":"上海徐汇区零陵路350弄1-110号(近东安路)"},{"poiid":"B2094654DA6DA5F9429C","title":"中国科学院上海有机化学研究所","lon":"121.45713","lat":"31.19247","category":"191","category_name":"科研机构","address":"枫林路354号"},{"poiid":"B2094757D465A0F44799","title":"风调雨顺土菜馆 小木桥路店","lon":"121.46067545609","lat":"31.193509137011","category":"77","category_name":"湖南菜","address":"徐汇区小木桥路458号(近零陵路)"},{"poiid":"B2094655D26FA6F4449A","title":"枫林新村","lon":"121.45953","lat":"31.192083","category":"47","category_name":"住宅区","address":"零陵路250弄,零陵路259弄"},{"poiid":"B2094757D16CA2F8479A","title":"零陵路小木桥路","lon":"121.462027138","lat":"31.193420016","category":"500","category_name":"未知分类","address":"上海零陵路小木桥路"},{"poiid":"B2094655D268A4FC489D","title":"上海电子信息职业技术学院徐汇校区(东门)","lon":"121.45886","lat":"31.18878","category":"52","category_name":"高等院校","address":""},{"poiid":"B2094757D165A1FB4698","title":"重庆鸡公煲 零陵路店","lon":"121.459109054","lat":"31.192281793","category":"71","category_name":"四川菜","address":"徐汇区零陵路260号(近枫林路)"},{"poiid":"B2094654DA6DA5FF459D","title":"天全鱼庄","lon":"121.458603","lat":"31.192515","category":"71","category_name":"四川菜","address":"徐汇区零陵路289弄(枫林路口)"},{"poiid":"B2094753D664AAF9469C","title":"正大乐城","lon":"121.456886","lat":"31.189115","category":"170","category_name":"KTV","address":"上海市 中山南二路679号"},{"poiid":"B2094757D16AA5FC4199","title":"宛南实验幼儿园","lon":"121.459573938","lat":"31.1927580686","category":"57","category_name":"幼儿园","address":"徐汇区大木桥路323号(茶陵路大木桥路)"},{"poiid":"B2094654DB6BA5F44093","title":"上海为波宾馆凯地店","lon":"121.46143","lat":"31.19069","category":"250","category_name":"公园户外","address":"上海市徐汇区小木桥路604号(近中山南二路)"},{"poiid":"B2094752DA6BA4F8439A","title":"华士达影城","lon":"121.457227","lat":"31.18925","category":"178","category_name":"电影院","address":"上海市 东安路599号"},{"poiid":"B2094654DA6DA5F9429D","title":"西南位育中学(东校区)","lon":"121.46072","lat":"31.19278","category":"55","category_name":"中学","address":"徐汇区小木桥路500号(近零陵路)"},{"poiid":"B2094757D16DA1FD4898","title":"海珀旭晖","lon":"121.462925","lat":"31.192106","category":"500","category_name":"未知分类","address":"徐汇区东安路800号"},{"poiid":"B2094654DA6DA5FF419C","title":"欣荣酒家","lon":"121.458470054","lat":"31.191898793","category":"76","category_name":"上海菜","address":"徐汇区零陵路342号(近枫林路)"},{"poiid":"B2094753D664A2FA4692","title":"天家（正大乐城店）","lon":"121.456863","lat":"31.189044","category":"247","category_name":"餐饮美食","address":"上海市 龙华中路"},{"poiid":"B2094655D36DA1F5449A","title":"小木桥路零陵路","lon":"121.46135","lat":"31.19161","category":"38","category_name":"公交车站","address":""},{"poiid":"B2094654DA6DA5F94293","title":"徐汇新湖云庭(2号门)","lon":"121.4615","lat":"31.191","category":"47","category_name":"住宅区","address":""},{"poiid":"B2094757D16FA7FE479C","title":"宛南幼儿园托小部","lon":"121.45880573","lat":"31.192156489","category":"57","category_name":"幼儿园","address":"上海市零陵路"},{"poiid":"B2094654DA6DA5FF479D","title":"枫林新村(北门)","lon":"121.45932","lat":"31.19229","category":"47","category_name":"住宅区","address":"零陵路250弄1-59号"},{"poiid":"B2094654DA6DA4FE449F","title":"冠霖商务楼","lon":"121.46105","lat":"31.18889","category":"46","category_name":"楼宇","address":"中山南二路555号"},{"poiid":"B2094757D06BA4F84493","title":"289弄住宅区","lon":"121.45797673","lat":"31.192104488","category":"47","category_name":"住宅区","address":"上海市徐汇区零陵路"},{"poiid":"B209475CD26BA5F9459F","title":"CIC上海总部","lon":"121.459297","lat":"31.191227","category":"263","category_name":"公司","address":"枫林路485号6号楼"},{"poiid":"B2094757DB68AAFA4099","title":"东安路","lon":"121.46082","lat":"31.19214","category":"627","category_name":"一般地点标志","address":"地铁"},{"poiid":"B2094654DA6DA5F94892","title":"上海市工业技术学校(中山南二路)","lon":"121.45996","lat":"31.18919","category":"54","category_name":"职业技术学校","address":"中山南二路530"},{"poiid":"B2094757D16DA6FD439A","title":"安吉瑞欧斯巴鲁","lon":"121.45895299","lat":"31.1923816939","category":"500","category_name":"未知分类","address":"上海东安路239号"},{"poiid":"B2094757D065A7F54998","title":"Raymond's home","lon":"121.459978738","lat":"31.1901824471","category":"500","category_name":"未知分类","address":null},{"poiid":"B2094654DB65A3FF489C","title":"好德No.336","lon":"121.458","lat":"31.19211","category":"117","category_name":"便民商店/便利店","address":"零陵路297"},{"poiid":"B2094751DA6EA3FE449B","title":"星巴克","lon":"121.459449","lat":"31.193334","category":"500","category_name":"未知分类","address":null},{"poiid":"B2094654DA6DA5F9499E","title":"东安一村(5号门)","lon":"121.45864","lat":"31.18923","category":"47","category_name":"住宅区","address":""},{"poiid":"B2094757D06AAAFE429C","title":"黄河视觉·原创摄影","lon":"121.459807931","lat":"31.1930588879","category":"46","category_name":"楼宇","address":"徐汇区零陵路231号1号楼3楼(近小木桥路)"},{"poiid":"B2094654DB6AA6FF499C","title":"上海嘉煜宾馆","lon":"121.45691","lat":"31.19106","category":"250","category_name":"公园户外","address":"上海市徐汇区零陵路342号(近东安路)"},{"poiid":"B2094655D264A1FE4192","title":"上海市徐汇区枫安菜市场","lon":"121.46133","lat":"31.18975","category":"117","category_name":"便民商店/便利店","address":"中山南二路450、450-1临"},{"poiid":"B2094654DA6DA5F9489D","title":"上海工艺美术职业学院徐汇二分院","lon":"121.45996","lat":"31.18918","category":"52","category_name":"高等院校","address":"中山南二路530"}]