[{"poiid":"B2094654DB64A3F44892","title":"上海朱家角古镇旅游区","lon":"121.0539","lat":"31.11422","category":"240","category_name":"国家级景点","address":"青浦朱家角翔宁浜763号"},{"poiid":"B2094757D06FA4F84892","title":"朱家角放生桥","lon":"121.056249","lat":"31.109932","category":"260","category_name":"其他","address":"青浦区朱家角镇漕港河"},{"poiid":"B2094757D06FAAF8409D","title":"酒坛子饭桶","lon":"121.05434","lat":"31.10901","category":"76","category_name":"上海菜","address":"青浦区朱家角古镇泗景园路13号-1(近放生桥北大街)"},{"poiid":"B2094757D06AABF84699","title":"这儿","lon":"121.05384035","lat":"31.1118561871","category":"249","category_name":"购物服务","address":"上海近郊青浦区朱家角镇西井街118号(课植园对面)  "},{"poiid":"B2094757D069A4FC479B","title":"景苑水庄","lon":"121.05346","lat":"31.11489","category":"217","category_name":"旅馆招待所","address":"青浦区朱家角镇西井街300号"},{"poiid":"B2094757D06AA3F9409F","title":"朱家角淀山湖","lon":"121.06027984","lat":"31.109130859","category":"500","category_name":"未知分类","address":"上海朱家角淀山湖"},{"poiid":"B2094757D068A0FA4998","title":"西井汇","lon":"121.05414","lat":"31.11441","category":"260","category_name":"其他","address":"青浦区朱家角古镇西井街56号(近课植园)"},{"poiid":"B2094654DA6BA1F5419B","title":"朱家角汽车站","lon":"121.06065","lat":"31.10881","category":"35","category_name":"长途汽车站","address":"青浦区朱家角镇祥凝路339号"},{"poiid":"B2094757D16DABF4419E","title":"珠街阁大酒店","lon":"121.0654","lat":"31.10919","category":"72","category_name":"广东菜","address":"青浦区朱家角镇祥凝浜路118号(近东大门)"},{"poiid":"B2094757D069A6FE469D","title":"朱家角课植园","lon":"121.05209","lat":"31.11428","category":"260","category_name":"其他","address":"青浦区朱家角镇西井街119号(近涌泉桥)(近涌泉桥)"},{"poiid":"B2094654DB69A5FE4899","title":"肯德基 新风路店 KFC","lon":"121.056904054","lat":"31.109279793","category":"68","category_name":"快餐厅","address":"青浦区朱家角镇新风路148号(新溪路口)"},{"poiid":"B2094752DB6DAAF9469A","title":"满记甜品","lon":"121.056607","lat":"31.11166","category":"247","category_name":"餐饮美食","address":"上海市青浦区朱家角镇新风路268弄2号1-2层103B室104室"},{"poiid":"B2094654DA6BA0F4489F","title":"青浦区朱家角人民医院","lon":"121.05648","lat":"31.10909","category":"162","category_name":"医院","address":"青浦区新风路167号"},{"poiid":"B2094757D06FA6F8449D","title":"朱家角草堂客栈","lon":"121.05655344","lat":"31.112618165","category":"216","category_name":"经济型连锁酒店","address":"青浦区朱家角东井街31号"},{"poiid":"B2094757D16CA5FD459B","title":"My way","lon":"121.05346854","lat":"31.107005412","category":"65","category_name":"咖啡厅","address":"青浦区古镇西湖街29-31号(近朱家角大清邮局)"},{"poiid":"B2094757D06AA4F9459A","title":"胖胖河畔小吃","lon":"121.05576","lat":"31.10933","category":"76","category_name":"上海菜","address":"青浦区朱家角北大街186弄2号(美周弄新风路)"},{"poiid":"B2094655D265A0F4439F","title":"淀湖山庄","lon":"121.06503","lat":"31.108095","category":"47","category_name":"住宅区","address":"上海市青浦区朱家角镇祥凝浜路103弄"},{"poiid":"B2094654DB64A4FC4692","title":"东方庭院","lon":"121.067893","lat":"31.11369","category":"47","category_name":"住宅区","address":"青浦区朱家角复兴路88弄"},{"poiid":"B2094757DA65A5F4489C","title":"上海新江南大酒店","lon":"121.067597866","lat":"31.110692941","category":"216","category_name":"经济型连锁酒店","address":"上海青浦区朱家角祥凝浜路16弄28号"},{"poiid":"B2094757D16EA7FC409F","title":"凹","lon":"121.0564","lat":"31.11056","category":"260","category_name":"其他","address":"青浦区西井街120号(课植园斜对面)"},{"poiid":"B2094654DA6BA0FA4793","title":"上海财苑宾馆(新溪路)","lon":"121.05779","lat":"31.10974","category":"250","category_name":"公园户外","address":"上海市青浦区朱家角镇新溪路100号"},{"poiid":"B2094654DA6BA0FD4399","title":"花中花KTV","lon":"121.06691","lat":"31.10823","category":"170","category_name":"KTV","address":""},{"poiid":"B2094757D66AA7FC479C","title":"醉红楼酒家","lon":"121.061973","lat":"31.109535","category":"76","category_name":"上海菜","address":"青浦区朱家角镇祥平公寓298号"},{"poiid":"B2094753D56AA0F44793","title":"星巴克","lon":"121.061088","lat":"31.109773","category":"500","category_name":"未知分类","address":"上海市 朱家镇新风路268弄2号"},{"poiid":"B2094757D065A2F8409B","title":"三阳小楼","lon":"121.056","lat":"31.11032","category":"76","category_name":"上海菜","address":"青浦区朱家角北大街186号(美周弄新风路)"},{"poiid":"B2094757D06AA1F5429B","title":"谭盾水乐堂","lon":"121.0567398","lat":"31.108604431","category":"162","category_name":"医院","address":"上海市青浦区朱家角古镇西井街漕港滩3号"},{"poiid":"B2094757D468AAF44692","title":"渭水园","lon":"121.05731","lat":"31.11401","category":"76","category_name":"上海菜","address":"青浦区朱家角镇北大街182号(近放生桥)"},{"poiid":"B2094757D16AA6F94099","title":"绿洲江南园","lon":"121.06059","lat":"31.116209","category":"500","category_name":"未知分类","address":"上海市青浦区朱家角镇绿洲江南园"},{"poiid":"B2094654DA6BA0FA469A","title":"上海珠溪园","lon":"121.06097","lat":"31.10942","category":"250","category_name":"公园户外","address":"青浦区朱家角镇"},{"poiid":"B2094757D16CA6FF449D","title":"漕溪人家酒楼","lon":"121.05429","lat":"31.10883","category":"76","category_name":"上海菜","address":"青浦区朱家角北大街242号"},{"poiid":"B2094757D165A2FB479B","title":"west well in 朱家角","lon":"121.059684","lat":"31.108543","category":"76","category_name":"上海菜","address":"青浦区朱家角北大街357号(近城隍庙桥)"},{"poiid":"B2094757D66BA2F4449C","title":"成玖厨坊","lon":"121.0574111","lat":"31.1079397","category":"87","category_name":"特色／地方风味餐厅","address":"青浦区祥凝浜路41号(东大门牌楼旁)"},{"poiid":"B2094654DA6BA0FA449B","title":"众利商场","lon":"121.06333","lat":"31.11874","category":"119","category_name":"商场","address":""},{"poiid":"B2094654DA6BA0FD4593","title":"玉兰面店","lon":"121.05703","lat":"31.10862","category":"68","category_name":"快餐厅","address":"青浦区新风路126号(近停车场)"},{"poiid":"B2094757D464A7F8449A","title":"老东来","lon":"121.058542054","lat":"31.108754793","category":"76","category_name":"上海菜","address":"青浦区朱家角镇北大街162号"},{"poiid":"B2094654DA6BA0F4469C","title":"八仙楼饭店","lon":"121.056727054","lat":"31.109232793","category":"76","category_name":"上海菜","address":"青浦区朱家角镇新风路170号(近美周路)"},{"poiid":"B209475CD26CA2FB4198","title":"星巴克","lon":"121.060913","lat":"31.109661","category":"500","category_name":"未知分类","address":"上海市 朱家角放生桥"},{"poiid":"B2094757D66AA7FC4293","title":"古桥餐阁","lon":"121.067326054","lat":"31.119621793","category":"67","category_name":"甜品店","address":"青浦区朱家角北大街278号(泰安桥旁)"},{"poiid":"B2094757D168A7FB429B","title":"红枫林农家菜","lon":"121.080533671","lat":"31.1268068989","category":"247","category_name":"餐饮美食","address":"上海市青浦区横江路"},{"poiid":"B2094654DA6BA0F5409E","title":"淀湖新村","lon":"121.06013","lat":"31.108725","category":"47","category_name":"住宅区","address":"淀湖新村"},{"poiid":"B2094654DA6BA0FA4593","title":"顶剪专业美发时尚沙龙","lon":"121.06101","lat":"31.10944","category":"148","category_name":"美容美发店","address":""},{"poiid":"B2094757D66BA5F9499C","title":"朱家角玉兰饭店","lon":"121.056554054","lat":"31.109652793","category":"76","category_name":"上海菜","address":"青浦区新风路195号(近肯德基)"},{"poiid":"B2094757D068AAF54992","title":"青浦影城","lon":"121.059422","lat":"31.109469","category":"178","category_name":"电影院","address":"上海青浦沪青平公路5669弄(金域广场)63栋22号2楼"},{"poiid":"B2094757D66DABF4439D","title":"弘德楼饭店","lon":"121.05921003","lat":"31.110223951","category":"247","category_name":"餐饮美食","address":"上海朱家角古镇西井街35号"},{"poiid":"B2094750D76CA3FD419E","title":"悠点CoffeeBar","lon":"121.057","lat":"31.1092","category":"269","category_name":"烧烤","address":"青浦区朱家角古镇漕河街4-6号(近大庆邮局)"},{"poiid":"B2094654DA6BA0FC4292","title":"朱家角影剧院","lon":"121.059424","lat":"31.109462","category":"178","category_name":"电影院","address":"青浦区朱家角镇祥凝浜路东侧院内(祥凝浜路新风路)"},{"poiid":"B2094757D169A5F5439B","title":"朱家角社区卫生服务中心","lon":"121.066223671","lat":"31.108543533","category":"500","category_name":"未知分类","address":"上海朱家角祥凝浜路66号"},{"poiid":"B2094757D568A7FB4092","title":"古桥餐厅","lon":"121.06141","lat":"31.107565","category":"257","category_name":"中餐厅","address":"青浦区朱家角景区内"},{"poiid":"B2094757D66BA2FB439E","title":"许永顺","lon":"121.0597","lat":"31.10854","category":"76","category_name":"上海菜","address":"青浦区朱家角东井街76号"},{"poiid":"B2094757D66BA3FA4492","title":"王琴饭店","lon":"121.059776054","lat":"31.108589793","category":"76","category_name":"上海菜","address":"青浦区朱家角沪青平公路6210号(朱家角路口)"},{"poiid":"B2094654DB64A3F44892","title":"上海朱家角古镇旅游区","lon":"121.0539","lat":"31.11422","category":"240","category_name":"国家级景点","address":"青浦朱家角翔宁浜763号"},{"poiid":"B2094757D06FA4F84892","title":"朱家角放生桥","lon":"121.056249","lat":"31.109932","category":"260","category_name":"其他","address":"青浦区朱家角镇漕港河"},{"poiid":"B2094757D06FAAF8409D","title":"酒坛子饭桶","lon":"121.05434","lat":"31.10901","category":"76","category_name":"上海菜","address":"青浦区朱家角古镇泗景园路13号-1(近放生桥北大街)"},{"poiid":"B2094757D06AABF84699","title":"这儿","lon":"121.05384035","lat":"31.1118561871","category":"249","category_name":"购物服务","address":"上海近郊青浦区朱家角镇西井街118号(课植园对面)  "},{"poiid":"B2094757D069A4FC479B","title":"景苑水庄","lon":"121.05346","lat":"31.11489","category":"217","category_name":"旅馆招待所","address":"青浦区朱家角镇西井街300号"},{"poiid":"B2094757D06AA3F9409F","title":"朱家角淀山湖","lon":"121.06027984","lat":"31.109130859","category":"500","category_name":"未知分类","address":"上海朱家角淀山湖"},{"poiid":"B2094757D068A0FA4998","title":"西井汇","lon":"121.05414","lat":"31.11441","category":"260","category_name":"其他","address":"青浦区朱家角古镇西井街56号(近课植园)"},{"poiid":"B2094654DA6BA1F5419B","title":"朱家角汽车站","lon":"121.06065","lat":"31.10881","category":"35","category_name":"长途汽车站","address":"青浦区朱家角镇祥凝路339号"},{"poiid":"B2094757D16DABF4419E","title":"珠街阁大酒店","lon":"121.0654","lat":"31.10919","category":"72","category_name":"广东菜","address":"青浦区朱家角镇祥凝浜路118号(近东大门)"},{"poiid":"B2094757D069A6FE469D","title":"朱家角课植园","lon":"121.05209","lat":"31.11428","category":"260","category_name":"其他","address":"青浦区朱家角镇西井街119号(近涌泉桥)(近涌泉桥)"},{"poiid":"B2094654DB69A5FE4899","title":"肯德基 新风路店 KFC","lon":"121.056904054","lat":"31.109279793","category":"68","category_name":"快餐厅","address":"青浦区朱家角镇新风路148号(新溪路口)"},{"poiid":"B2094752DB6DAAF9469A","title":"满记甜品","lon":"121.056607","lat":"31.11166","category":"247","category_name":"餐饮美食","address":"上海市青浦区朱家角镇新风路268弄2号1-2层103B室104室"},{"poiid":"B2094654DA6BA0F4489F","title":"青浦区朱家角人民医院","lon":"121.05648","lat":"31.10909","category":"162","category_name":"医院","address":"青浦区新风路167号"},{"poiid":"B2094757D06FA6F8449D","title":"朱家角草堂客栈","lon":"121.05655344","lat":"31.112618165","category":"216","category_name":"经济型连锁酒店","address":"青浦区朱家角东井街31号"},{"poiid":"B2094757D16CA5FD459B","title":"My way","lon":"121.05346854","lat":"31.107005412","category":"65","category_name":"咖啡厅","address":"青浦区古镇西湖街29-31号(近朱家角大清邮局)"},{"poiid":"B2094757D06AA4F9459A","title":"胖胖河畔小吃","lon":"121.05576","lat":"31.10933","category":"76","category_name":"上海菜","address":"青浦区朱家角北大街186弄2号(美周弄新风路)"},{"poiid":"B2094655D265A0F4439F","title":"淀湖山庄","lon":"121.06503","lat":"31.108095","category":"47","category_name":"住宅区","address":"上海市青浦区朱家角镇祥凝浜路103弄"},{"poiid":"B2094654DB64A4FC4692","title":"东方庭院","lon":"121.067893","lat":"31.11369","category":"47","category_name":"住宅区","address":"青浦区朱家角复兴路88弄"},{"poiid":"B2094757DA65A5F4489C","title":"上海新江南大酒店","lon":"121.067597866","lat":"31.110692941","category":"216","category_name":"经济型连锁酒店","address":"上海青浦区朱家角祥凝浜路16弄28号"},{"poiid":"B2094757D16EA7FC409F","title":"凹","lon":"121.0564","lat":"31.11056","category":"260","category_name":"其他","address":"青浦区西井街120号(课植园斜对面)"},{"poiid":"B2094654DA6BA0FA4793","title":"上海财苑宾馆(新溪路)","lon":"121.05779","lat":"31.10974","category":"250","category_name":"公园户外","address":"上海市青浦区朱家角镇新溪路100号"},{"poiid":"B2094654DA6BA0FD4399","title":"花中花KTV","lon":"121.06691","lat":"31.10823","category":"170","category_name":"KTV","address":""},{"poiid":"B2094757D66AA7FC479C","title":"醉红楼酒家","lon":"121.061973","lat":"31.109535","category":"76","category_name":"上海菜","address":"青浦区朱家角镇祥平公寓298号"},{"poiid":"B2094753D56AA0F44793","title":"星巴克","lon":"121.061088","lat":"31.109773","category":"500","category_name":"未知分类","address":"上海市 朱家镇新风路268弄2号"},{"poiid":"B2094757D065A2F8409B","title":"三阳小楼","lon":"121.056","lat":"31.11032","category":"76","category_name":"上海菜","address":"青浦区朱家角北大街186号(美周弄新风路)"},{"poiid":"B2094757D06AA1F5429B","title":"谭盾水乐堂","lon":"121.0567398","lat":"31.108604431","category":"162","category_name":"医院","address":"上海市青浦区朱家角古镇西井街漕港滩3号"},{"poiid":"B2094757D468AAF44692","title":"渭水园","lon":"121.05731","lat":"31.11401","category":"76","category_name":"上海菜","address":"青浦区朱家角镇北大街182号(近放生桥)"},{"poiid":"B2094757D16AA6F94099","title":"绿洲江南园","lon":"121.06059","lat":"31.116209","category":"500","category_name":"未知分类","address":"上海市青浦区朱家角镇绿洲江南园"},{"poiid":"B2094654DA6BA0FA469A","title":"上海珠溪园","lon":"121.06097","lat":"31.10942","category":"250","category_name":"公园户外","address":"青浦区朱家角镇"},{"poiid":"B2094757D16CA6FF449D","title":"漕溪人家酒楼","lon":"121.05429","lat":"31.10883","category":"76","category_name":"上海菜","address":"青浦区朱家角北大街242号"},{"poiid":"B2094757D165A2FB479B","title":"west well in 朱家角","lon":"121.059684","lat":"31.108543","category":"76","category_name":"上海菜","address":"青浦区朱家角北大街357号(近城隍庙桥)"},{"poiid":"B2094757D66BA2F4449C","title":"成玖厨坊","lon":"121.0574111","lat":"31.1079397","category":"87","category_name":"特色／地方风味餐厅","address":"青浦区祥凝浜路41号(东大门牌楼旁)"},{"poiid":"B2094654DA6BA0FA449B","title":"众利商场","lon":"121.06333","lat":"31.11874","category":"119","category_name":"商场","address":""},{"poiid":"B2094654DA6BA0FD4593","title":"玉兰面店","lon":"121.05703","lat":"31.10862","category":"68","category_name":"快餐厅","address":"青浦区新风路126号(近停车场)"},{"poiid":"B2094757D464A7F8449A","title":"老东来","lon":"121.058542054","lat":"31.108754793","category":"76","category_name":"上海菜","address":"青浦区朱家角镇北大街162号"},{"poiid":"B2094654DA6BA0F4469C","title":"八仙楼饭店","lon":"121.056727054","lat":"31.109232793","category":"76","category_name":"上海菜","address":"青浦区朱家角镇新风路170号(近美周路)"},{"poiid":"B209475CD26CA2FB4198","title":"星巴克","lon":"121.060913","lat":"31.109661","category":"500","category_name":"未知分类","address":"上海市 朱家角放生桥"},{"poiid":"B2094757D66AA7FC4293","title":"古桥餐阁","lon":"121.067326054","lat":"31.119621793","category":"67","category_name":"甜品店","address":"青浦区朱家角北大街278号(泰安桥旁)"},{"poiid":"B2094757D168A7FB429B","title":"红枫林农家菜","lon":"121.080533671","lat":"31.1268068989","category":"247","category_name":"餐饮美食","address":"上海市青浦区横江路"},{"poiid":"B2094654DA6BA0F5409E","title":"淀湖新村","lon":"121.06013","lat":"31.108725","category":"47","category_name":"住宅区","address":"淀湖新村"},{"poiid":"B2094654DA6BA0FA4593","title":"顶剪专业美发时尚沙龙","lon":"121.06101","lat":"31.10944","category":"148","category_name":"美容美发店","address":""},{"poiid":"B2094757D66BA5F9499C","title":"朱家角玉兰饭店","lon":"121.056554054","lat":"31.109652793","category":"76","category_name":"上海菜","address":"青浦区新风路195号(近肯德基)"},{"poiid":"B2094757D068AAF54992","title":"青浦影城","lon":"121.059422","lat":"31.109469","category":"178","category_name":"电影院","address":"上海青浦沪青平公路5669弄(金域广场)63栋22号2楼"},{"poiid":"B2094757D66DABF4439D","title":"弘德楼饭店","lon":"121.05921003","lat":"31.110223951","category":"247","category_name":"餐饮美食","address":"上海朱家角古镇西井街35号"},{"poiid":"B2094750D76CA3FD419E","title":"悠点CoffeeBar","lon":"121.057","lat":"31.1092","category":"269","category_name":"烧烤","address":"青浦区朱家角古镇漕河街4-6号(近大庆邮局)"},{"poiid":"B2094654DA6BA0FC4292","title":"朱家角影剧院","lon":"121.059424","lat":"31.109462","category":"178","category_name":"电影院","address":"青浦区朱家角镇祥凝浜路东侧院内(祥凝浜路新风路)"},{"poiid":"B2094757D169A5F5439B","title":"朱家角社区卫生服务中心","lon":"121.066223671","lat":"31.108543533","category":"500","category_name":"未知分类","address":"上海朱家角祥凝浜路66号"},{"poiid":"B2094757D568A7FB4092","title":"古桥餐厅","lon":"121.06141","lat":"31.107565","category":"257","category_name":"中餐厅","address":"青浦区朱家角景区内"},{"poiid":"B2094757D66BA2FB439E","title":"许永顺","lon":"121.0597","lat":"31.10854","category":"76","category_name":"上海菜","address":"青浦区朱家角东井街76号"},{"poiid":"B2094757D66BA3FA4492","title":"王琴饭店","lon":"121.059776054","lat":"31.108589793","category":"76","category_name":"上海菜","address":"青浦区朱家角沪青平公路6210号(朱家角路口)"},{"poiid":"B2094654DB64A3F44892","title":"上海朱家角古镇旅游区","lon":"121.0539","lat":"31.11422","category":"240","category_name":"国家级景点","address":"青浦朱家角翔宁浜763号"},{"poiid":"B2094757D06FA4F84892","title":"朱家角放生桥","lon":"121.056249","lat":"31.109932","category":"260","category_name":"其他","address":"青浦区朱家角镇漕港河"},{"poiid":"B2094757D06FAAF8409D","title":"酒坛子饭桶","lon":"121.05434","lat":"31.10901","category":"76","category_name":"上海菜","address":"青浦区朱家角古镇泗景园路13号-1(近放生桥北大街)"},{"poiid":"B2094757D06AABF84699","title":"这儿","lon":"121.05384035","lat":"31.1118561871","category":"249","category_name":"购物服务","address":"上海近郊青浦区朱家角镇西井街118号(课植园对面)  "},{"poiid":"B2094757D069A4FC479B","title":"景苑水庄","lon":"121.05346","lat":"31.11489","category":"217","category_name":"旅馆招待所","address":"青浦区朱家角镇西井街300号"},{"poiid":"B2094757D06AA3F9409F","title":"朱家角淀山湖","lon":"121.06027984","lat":"31.109130859","category":"500","category_name":"未知分类","address":"上海朱家角淀山湖"},{"poiid":"B2094757D068A0FA4998","title":"西井汇","lon":"121.05414","lat":"31.11441","category":"260","category_name":"其他","address":"青浦区朱家角古镇西井街56号(近课植园)"},{"poiid":"B2094654DA6BA1F5419B","title":"朱家角汽车站","lon":"121.06065","lat":"31.10881","category":"35","category_name":"长途汽车站","address":"青浦区朱家角镇祥凝路339号"},{"poiid":"B2094757D16DABF4419E","title":"珠街阁大酒店","lon":"121.0654","lat":"31.10919","category":"72","category_name":"广东菜","address":"青浦区朱家角镇祥凝浜路118号(近东大门)"},{"poiid":"B2094757D069A6FE469D","title":"朱家角课植园","lon":"121.05209","lat":"31.11428","category":"260","category_name":"其他","address":"青浦区朱家角镇西井街119号(近涌泉桥)(近涌泉桥)"},{"poiid":"B2094654DB69A5FE4899","title":"肯德基 新风路店 KFC","lon":"121.056904054","lat":"31.109279793","category":"68","category_name":"快餐厅","address":"青浦区朱家角镇新风路148号(新溪路口)"},{"poiid":"B2094752DB6DAAF9469A","title":"满记甜品","lon":"121.056607","lat":"31.11166","category":"247","category_name":"餐饮美食","address":"上海市青浦区朱家角镇新风路268弄2号1-2层103B室104室"},{"poiid":"B2094654DA6BA0F4489F","title":"青浦区朱家角人民医院","lon":"121.05648","lat":"31.10909","category":"162","category_name":"医院","address":"青浦区新风路167号"},{"poiid":"B2094757D06FA6F8449D","title":"朱家角草堂客栈","lon":"121.05655344","lat":"31.112618165","category":"216","category_name":"经济型连锁酒店","address":"青浦区朱家角东井街31号"},{"poiid":"B2094757D16CA5FD459B","title":"My way","lon":"121.05346854","lat":"31.107005412","category":"65","category_name":"咖啡厅","address":"青浦区古镇西湖街29-31号(近朱家角大清邮局)"},{"poiid":"B2094757D06AA4F9459A","title":"胖胖河畔小吃","lon":"121.05576","lat":"31.10933","category":"76","category_name":"上海菜","address":"青浦区朱家角北大街186弄2号(美周弄新风路)"},{"poiid":"B2094655D265A0F4439F","title":"淀湖山庄","lon":"121.06503","lat":"31.108095","category":"47","category_name":"住宅区","address":"上海市青浦区朱家角镇祥凝浜路103弄"},{"poiid":"B2094654DB64A4FC4692","title":"东方庭院","lon":"121.067893","lat":"31.11369","category":"47","category_name":"住宅区","address":"青浦区朱家角复兴路88弄"},{"poiid":"B2094757DA65A5F4489C","title":"上海新江南大酒店","lon":"121.067597866","lat":"31.110692941","category":"216","category_name":"经济型连锁酒店","address":"上海青浦区朱家角祥凝浜路16弄28号"},{"poiid":"B2094757D16EA7FC409F","title":"凹","lon":"121.0564","lat":"31.11056","category":"260","category_name":"其他","address":"青浦区西井街120号(课植园斜对面)"},{"poiid":"B2094654DA6BA0FA4793","title":"上海财苑宾馆(新溪路)","lon":"121.05779","lat":"31.10974","category":"250","category_name":"公园户外","address":"上海市青浦区朱家角镇新溪路100号"},{"poiid":"B2094654DA6BA0FD4399","title":"花中花KTV","lon":"121.06691","lat":"31.10823","category":"170","category_name":"KTV","address":""},{"poiid":"B2094757D66AA7FC479C","title":"醉红楼酒家","lon":"121.061973","lat":"31.109535","category":"76","category_name":"上海菜","address":"青浦区朱家角镇祥平公寓298号"},{"poiid":"B2094753D56AA0F44793","title":"星巴克","lon":"121.061088","lat":"31.109773","category":"500","category_name":"未知分类","address":"上海市 朱家镇新风路268弄2号"},{"poiid":"B2094757D065A2F8409B","title":"三阳小楼","lon":"121.056","lat":"31.11032","category":"76","category_name":"上海菜","address":"青浦区朱家角北大街186号(美周弄新风路)"},{"poiid":"B2094757D06AA1F5429B","title":"谭盾水乐堂","lon":"121.0567398","lat":"31.108604431","category":"162","category_name":"医院","address":"上海市青浦区朱家角古镇西井街漕港滩3号"},{"poiid":"B2094757D468AAF44692","title":"渭水园","lon":"121.05731","lat":"31.11401","category":"76","category_name":"上海菜","address":"青浦区朱家角镇北大街182号(近放生桥)"},{"poiid":"B2094757D16AA6F94099","title":"绿洲江南园","lon":"121.06059","lat":"31.116209","category":"500","category_name":"未知分类","address":"上海市青浦区朱家角镇绿洲江南园"},{"poiid":"B2094654DA6BA0FA469A","title":"上海珠溪园","lon":"121.06097","lat":"31.10942","category":"250","category_name":"公园户外","address":"青浦区朱家角镇"},{"poiid":"B2094757D16CA6FF449D","title":"漕溪人家酒楼","lon":"121.05429","lat":"31.10883","category":"76","category_name":"上海菜","address":"青浦区朱家角北大街242号"},{"poiid":"B2094757D165A2FB479B","title":"west well in 朱家角","lon":"121.059684","lat":"31.108543","category":"76","category_name":"上海菜","address":"青浦区朱家角北大街357号(近城隍庙桥)"},{"poiid":"B2094757D66BA2F4449C","title":"成玖厨坊","lon":"121.0574111","lat":"31.1079397","category":"87","category_name":"特色／地方风味餐厅","address":"青浦区祥凝浜路41号(东大门牌楼旁)"},{"poiid":"B2094654DA6BA0FA449B","title":"众利商场","lon":"121.06333","lat":"31.11874","category":"119","category_name":"商场","address":""},{"poiid":"B2094654DA6BA0FD4593","title":"玉兰面店","lon":"121.05703","lat":"31.10862","category":"68","category_name":"快餐厅","address":"青浦区新风路126号(近停车场)"},{"poiid":"B2094757D464A7F8449A","title":"老东来","lon":"121.058542054","lat":"31.108754793","category":"76","category_name":"上海菜","address":"青浦区朱家角镇北大街162号"},{"poiid":"B2094654DA6BA0F4469C","title":"八仙楼饭店","lon":"121.056727054","lat":"31.109232793","category":"76","category_name":"上海菜","address":"青浦区朱家角镇新风路170号(近美周路)"},{"poiid":"B209475CD26CA2FB4198","title":"星巴克","lon":"121.060913","lat":"31.109661","category":"500","category_name":"未知分类","address":"上海市 朱家角放生桥"},{"poiid":"B2094757D66AA7FC4293","title":"古桥餐阁","lon":"121.067326054","lat":"31.119621793","category":"67","category_name":"甜品店","address":"青浦区朱家角北大街278号(泰安桥旁)"},{"poiid":"B2094757D168A7FB429B","title":"红枫林农家菜","lon":"121.080533671","lat":"31.1268068989","category":"247","category_name":"餐饮美食","address":"上海市青浦区横江路"},{"poiid":"B2094654DA6BA0F5409E","title":"淀湖新村","lon":"121.06013","lat":"31.108725","category":"47","category_name":"住宅区","address":"淀湖新村"},{"poiid":"B2094654DA6BA0FA4593","title":"顶剪专业美发时尚沙龙","lon":"121.06101","lat":"31.10944","category":"148","category_name":"美容美发店","address":""},{"poiid":"B2094757D66BA5F9499C","title":"朱家角玉兰饭店","lon":"121.056554054","lat":"31.109652793","category":"76","category_name":"上海菜","address":"青浦区新风路195号(近肯德基)"},{"poiid":"B2094757D068AAF54992","title":"青浦影城","lon":"121.059422","lat":"31.109469","category":"178","category_name":"电影院","address":"上海青浦沪青平公路5669弄(金域广场)63栋22号2楼"},{"poiid":"B2094757D66DABF4439D","title":"弘德楼饭店","lon":"121.05921003","lat":"31.110223951","category":"247","category_name":"餐饮美食","address":"上海朱家角古镇西井街35号"},{"poiid":"B2094750D76CA3FD419E","title":"悠点CoffeeBar","lon":"121.057","lat":"31.1092","category":"269","category_name":"烧烤","address":"青浦区朱家角古镇漕河街4-6号(近大庆邮局)"},{"poiid":"B2094654DA6BA0FC4292","title":"朱家角影剧院","lon":"121.059424","lat":"31.109462","category":"178","category_name":"电影院","address":"青浦区朱家角镇祥凝浜路东侧院内(祥凝浜路新风路)"},{"poiid":"B2094757D169A5F5439B","title":"朱家角社区卫生服务中心","lon":"121.066223671","lat":"31.108543533","category":"500","category_name":"未知分类","address":"上海朱家角祥凝浜路66号"},{"poiid":"B2094757D568A7FB4092","title":"古桥餐厅","lon":"121.06141","lat":"31.107565","category":"257","category_name":"中餐厅","address":"青浦区朱家角景区内"},{"poiid":"B2094757D66BA2FB439E","title":"许永顺","lon":"121.0597","lat":"31.10854","category":"76","category_name":"上海菜","address":"青浦区朱家角东井街76号"},{"poiid":"B2094757D66BA3FA4492","title":"王琴饭店","lon":"121.059776054","lat":"31.108589793","category":"76","category_name":"上海菜","address":"青浦区朱家角沪青平公路6210号(朱家角路口)"}]