[{"poiid":"B2094655D26FAAF84693","title":"上海斯格威铂尔曼大酒店","lon":"121.47106","lat":"31.20432","category":"72","category_name":"广东菜","address":"卢湾区打浦路15号(近徐家汇路)"},{"poiid":"B2094655D26AA0FC4793","title":"星光摄影器材城鲁班路店","lon":"121.47448","lat":"31.20316","category":"126","category_name":"摄影器材店","address":"卢湾区鲁班路300号(近斜土路)"},{"poiid":"B2094654DB64A6FF429F","title":"星巴克(大同店)","lon":"121.472754","lat":"31.206316","category":"260","category_name":"其他","address":"卢湾区斜徐路593号(近鲁班路)"},{"poiid":"B2094753D76FAAFA449C","title":"上海滩国泰旗舰店","lon":"121.466011","lat":"31.216125","category":"249","category_name":"购物服务","address":"淮海中路868号"},{"poiid":"B209475CD564A7F84292","title":"上海滩新天地店","lon":"121.47463","lat":"31.22164","category":"119","category_name":"商场","address":"\"太仓路181弄新天地北里15号\r\n\""},{"poiid":"B2094654DB6AA6F8439E","title":"上海华美达和平大酒店","lon":"121.47293","lat":"31.20216","category":"214","category_name":"四星级宾馆","address":"上海市黄浦区斜土路688号(近打浦路)"},{"poiid":"B2094757D06FA7F94299","title":"翠丽汤馆","lon":"121.46813","lat":"31.20648","category":"72","category_name":"广东菜","address":"卢湾区徐家汇路618号日月光中心广场4楼F09号商铺(近瑞金二路)"},{"poiid":"B2094757D06FA5FA499B","title":"馔巴黎海鲜百汇餐厅","lon":"121.47101","lat":"31.20384","category":"268","category_name":"自助","address":"卢湾区打浦路15号斯格威铂尔曼大酒店B1楼(南塘浜路与徐家汇路之间)"},{"poiid":"B2094757D06FA6F44398","title":"大班休闲SPA(斜徐路店)","lon":"121.47339","lat":"31.20613","category":"149","category_name":"洗浴推拿场所","address":"上海卢湾区斜徐路595号(近丽园路)"},{"poiid":"B2094757D06FA6F8409D","title":"Skyway Pullman Hotel","lon":"121.471072","lat":"31.20432","category":"217","category_name":"旅馆招待所","address":"上海卢湾区打浦路15号(近徐家汇路)"},{"poiid":"B2094757D06FA3F5469F","title":"威尔士健身会所(鲁班路店)","lon":"121.47405","lat":"31.20535","category":"221","category_name":"健身中心","address":"卢湾区鲁班路166号4楼(近南溏浜路)"},{"poiid":"B2094751D16AAAF94899","title":"香港谭仔三哥餐厅（打浦路店）","lon":"121.471463","lat":"31.20537","category":"72","category_name":"广东菜","address":"卢湾区打浦路1号金玉兰广场2楼(近徐家汇路)"},{"poiid":"B2094757D06FA2FC4699","title":"大同花园","lon":"121.47351521","lat":"31.204857882","category":"47","category_name":"住宅区","address":"上海卢湾区鲁班路88弄(近丽园路)"},{"poiid":"B209475CD46CA3FD489A","title":"年代秀飯堂(日月光店)","lon":"121.472831","lat":"31.205135","category":"247","category_name":"餐饮美食","address":"上海市 徐家汇路618号日月光中心广场5F-TK02-03号铺(近泰康路)"},{"poiid":"B2094655D269ABFE459E","title":"斯格威铂尔曼大酒店华府轩","lon":"121.47116","lat":"31.20434","category":"76","category_name":"上海菜","address":"卢湾区打浦路15号斯格威铂尔曼大酒店3楼(近徐家汇路)"},{"poiid":"B2094757D06FA2F5499D","title":"世纪联华(鲁班店)","lon":"121.47412","lat":"31.20269","category":"118","category_name":"超级市场","address":"卢湾区斜土路645号(近打浦路)"},{"poiid":"B2094757D06FA4FA4493","title":"南北高架路","lon":"121.47530585","lat":"31.202839131","category":"500","category_name":"未知分类","address":"上海鲁班路斜土路"},{"poiid":"B2094757D068A2FB4492","title":"潮泰清迈泰国餐厅","lon":"121.4729","lat":"31.20606","category":"99","category_name":"泰国／越南菜品餐厅","address":"卢湾区斜徐路591号(近丽园路)"},{"poiid":"B209475DD268A6F54299","title":"南小馆（日月光店）","lon":"121.473121","lat":"31.205419","category":"247","category_name":"餐饮美食","address":"卢湾区徐家汇路618号日月光中心广场1楼TK-03号商铺"},{"poiid":"B2094654DB6AA6F8429D","title":"上海天诚大酒店","lon":"121.47126","lat":"31.20521","category":"214","category_name":"四星级宾馆","address":"卢湾区打浦路1号金玉兰广场东座(徐家汇路口)"},{"poiid":"B2094757D068A7FB409B","title":"小花牛(丽园店)","lon":"121.47199","lat":"31.20524","category":"260","category_name":"其他","address":"卢湾区丽园路1030号(近鲁班路)"},{"poiid":"B2094757D66DA5FE409B","title":"一哥火锅","lon":"121.472383738","lat":"31.2058777813","category":"247","category_name":"餐饮美食","address":"上海市卢湾区打浦路"},{"poiid":"B2094655D26AA3FF409C","title":"弘兴面馆","lon":"121.47484","lat":"31.20528","category":"68","category_name":"快餐厅","address":"卢湾区鲁班路193号丙(近丽园路)"},{"poiid":"B2094757D064ABFB4299","title":"鲁班路","lon":"121.47529273","lat":"31.204056742","category":"500","category_name":"未知分类","address":"上海上班路上，心情很不错"},{"poiid":"B2094751D26CA2FC409D","title":"台北纯K（日月光店¥","lon":"121.473396","lat":"31.205162","category":"500","category_name":"未知分类","address":"日月光"},{"poiid":"B2094757D068A5FD4792","title":"卢湾房地产交易中心","lon":"121.473618","lat":"31.205945","category":"500","category_name":"未知分类","address":"上海鲁班路158号"},{"poiid":"B2094753D76BA0F54698","title":"燕庭下午茶","lon":"121.472953","lat":"31.204437","category":"247","category_name":"餐饮美食","address":"上海市 日月光广场（徐家汇路618号）"},{"poiid":"B2094655D268A4F5469D","title":"皇府","lon":"121.472192054","lat":"31.202413793","category":"72","category_name":"广东菜","address":"卢湾区斜土路688弄华美达和平宾馆3楼(近打浦路)"},{"poiid":"B2094757D465ABFE429C","title":"至珍坊","lon":"121.47178019331","lat":"31.205626691653","category":"72","category_name":"广东菜","address":"卢湾区丽园路1017号(近鲁班路)"},{"poiid":"B2094757D06BA6FF489D","title":"叶的Diy烘焙小屋","lon":"121.473167593","lat":"31.2052290275","category":"500","category_name":"未知分类","address":"上海鲁班路168弄大同花园3号103室"},{"poiid":"B2094757D16CAAF84693","title":"米兰护肤造型中心(斜土路店)","lon":"121.47398973","lat":"31.201712692","category":"148","category_name":"美容美发店","address":"徐汇区斜土路792号(近打浦路)"},{"poiid":"B2094757D069A7F94799","title":"coco都可茶饮(打浦路店)","lon":"121.47204363","lat":"31.202857617","category":"113","category_name":"冷饮店","address":"卢湾区打浦路92-3号格林豪泰酒店(近斜土路)"},{"poiid":"B2094655D26EA4FD4193","title":"亚都汇 Zaffraan","lon":"121.46967321831","lat":"31.20532653189","category":"47","category_name":"住宅区","address":"打浦路15号斯格威铂尔曼大酒店49楼近徐家汇路"},{"poiid":"B2094751D26DAAF94598","title":"卢浦大桥","lon":"121.474182","lat":"31.204605","category":"500","category_name":"未知分类","address":null},{"poiid":"B2094757D76EA3FC439D","title":"顺丰面馆","lon":"121.47127","lat":"31.20287","category":"68","category_name":"快餐厅","address":"卢湾区南塘浜路126号(近打浦路)"},{"poiid":"B209475DD06BA4FE429E","title":"盛八日式烧肉","lon":"121.472114","lat":"31.205043","category":"247","category_name":"餐饮美食","address":"上海市 日月光"},{"poiid":"B2094654DA68A6FC4099","title":"老狼烧烤No.11","lon":"121.47476","lat":"31.2053","category":"68","category_name":"快餐厅","address":"卢湾区鲁班路193号(近丽园路)"},{"poiid":"B2094757D06FABF44599","title":"申荣华 香港茶餐厅","lon":"121.474147","lat":"31.204817","category":"72","category_name":"广东菜","address":"上海卢湾区斜徐路589号(近丽园路)"},{"poiid":"B209475DD46AA5FD469C","title":"辣尚瘾","lon":"121.473609","lat":"31.204452","category":"247","category_name":"餐饮美食","address":"上海市 卢湾区徐家汇路550号宝鼎大厦2楼"},{"poiid":"B2094757D06BA1FE429B","title":"白金翰宫","lon":"121.47128","lat":"31.2052","category":"47","category_name":"住宅区","address":"上海卢湾区打浦路1号金玉兰广场  "},{"poiid":"B2094757D06AA3F8469E","title":"鲁班游泳馆","lon":"121.47517","lat":"31.20495","category":"220","category_name":"运动场所","address":"卢湾区鲁班路183弄7号(近丽园路)"},{"poiid":"B2094757D66EA6FB429E","title":"佳佳汤包","lon":"121.475238738","lat":"31.2028957178","category":"247","category_name":"餐饮美食","address":"上海市卢湾区丽园路"},{"poiid":"B2094454D26FA7F8459B","title":"王子公主奇遇记","lon":"121.474678","lat":"31.202732","category":"248","category_name":"生活娱乐","address":"上海市 打浦桥"},{"poiid":"B209475DD369A0FE489C","title":"宋记香辣蟹","lon":"121.473175","lat":"31.205047","category":"247","category_name":"餐饮美食","address":"上海市 上海市卢湾区徐家汇路618号日月光广场4楼"},{"poiid":"B2094654DA6EA3F84799","title":"仕格维丽致大酒店","lon":"121.47115","lat":"31.20433","category":"213","category_name":"五星级宾馆","address":"打浦路15号"},{"poiid":"B2094757D064A5FD4699","title":"鲜风馆-蛙香鱼鲜 大同店","lon":"121.472563054","lat":"31.206036793","category":"71","category_name":"四川菜","address":"卢湾区斜徐路579号(近丽园路)"},{"poiid":"B2094757D16EA5FB449E","title":"卢湾区委党校","lon":"121.474845","lat":"31.205797","category":"500","category_name":"未知分类","address":"上海鲁班路181号"},{"poiid":"B2094757D665A2F44592","title":"蓝色海岸西餐厅","lon":"121.472192054","lat":"31.202413793","category":"268","category_name":"自助","address":"卢湾区斜土路688号华美达和平大酒店1楼(近鲁班路)"},{"poiid":"B2094654DA6EA3FE489C","title":"明德坊","lon":"121.47341","lat":"31.201897","category":"47","category_name":"住宅区","address":"斜土路678弄1-3"},{"poiid":"B2094757D064A7FE489F","title":"上海老年大学","lon":"121.47308","lat":"31.20323","category":"53","category_name":"成人教育","address":"卢湾区南塘浜路117号(近打浦路)"},{"poiid":"B2094655D26FAAF84693","title":"上海斯格威铂尔曼大酒店","lon":"121.47106","lat":"31.20432","category":"72","category_name":"广东菜","address":"卢湾区打浦路15号(近徐家汇路)"},{"poiid":"B2094655D26AA0FC4793","title":"星光摄影器材城鲁班路店","lon":"121.47448","lat":"31.20316","category":"126","category_name":"摄影器材店","address":"卢湾区鲁班路300号(近斜土路)"},{"poiid":"B2094654DB64A6FF429F","title":"星巴克(大同店)","lon":"121.472754","lat":"31.206316","category":"260","category_name":"其他","address":"卢湾区斜徐路593号(近鲁班路)"},{"poiid":"B2094753D76FAAFA449C","title":"上海滩国泰旗舰店","lon":"121.466011","lat":"31.216125","category":"249","category_name":"购物服务","address":"淮海中路868号"},{"poiid":"B209475CD564A7F84292","title":"上海滩新天地店","lon":"121.47463","lat":"31.22164","category":"119","category_name":"商场","address":"\"太仓路181弄新天地北里15号\r\n\""},{"poiid":"B2094654DB6AA6F8439E","title":"上海华美达和平大酒店","lon":"121.47293","lat":"31.20216","category":"214","category_name":"四星级宾馆","address":"上海市黄浦区斜土路688号(近打浦路)"},{"poiid":"B2094757D06FA7F94299","title":"翠丽汤馆","lon":"121.46813","lat":"31.20648","category":"72","category_name":"广东菜","address":"卢湾区徐家汇路618号日月光中心广场4楼F09号商铺(近瑞金二路)"},{"poiid":"B2094757D06FA5FA499B","title":"馔巴黎海鲜百汇餐厅","lon":"121.47101","lat":"31.20384","category":"268","category_name":"自助","address":"卢湾区打浦路15号斯格威铂尔曼大酒店B1楼(南塘浜路与徐家汇路之间)"},{"poiid":"B2094757D06FA6F44398","title":"大班休闲SPA(斜徐路店)","lon":"121.47339","lat":"31.20613","category":"149","category_name":"洗浴推拿场所","address":"上海卢湾区斜徐路595号(近丽园路)"},{"poiid":"B2094757D06FA6F8409D","title":"Skyway Pullman Hotel","lon":"121.471072","lat":"31.20432","category":"217","category_name":"旅馆招待所","address":"上海卢湾区打浦路15号(近徐家汇路)"},{"poiid":"B2094757D06FA3F5469F","title":"威尔士健身会所(鲁班路店)","lon":"121.47405","lat":"31.20535","category":"221","category_name":"健身中心","address":"卢湾区鲁班路166号4楼(近南溏浜路)"},{"poiid":"B2094751D16AAAF94899","title":"香港谭仔三哥餐厅（打浦路店）","lon":"121.471463","lat":"31.20537","category":"72","category_name":"广东菜","address":"卢湾区打浦路1号金玉兰广场2楼(近徐家汇路)"},{"poiid":"B2094757D06FA2FC4699","title":"大同花园","lon":"121.47351521","lat":"31.204857882","category":"47","category_name":"住宅区","address":"上海卢湾区鲁班路88弄(近丽园路)"},{"poiid":"B209475CD46CA3FD489A","title":"年代秀飯堂(日月光店)","lon":"121.472831","lat":"31.205135","category":"247","category_name":"餐饮美食","address":"上海市 徐家汇路618号日月光中心广场5F-TK02-03号铺(近泰康路)"},{"poiid":"B2094655D269ABFE459E","title":"斯格威铂尔曼大酒店华府轩","lon":"121.47116","lat":"31.20434","category":"76","category_name":"上海菜","address":"卢湾区打浦路15号斯格威铂尔曼大酒店3楼(近徐家汇路)"},{"poiid":"B2094757D06FA2F5499D","title":"世纪联华(鲁班店)","lon":"121.47412","lat":"31.20269","category":"118","category_name":"超级市场","address":"卢湾区斜土路645号(近打浦路)"},{"poiid":"B2094757D06FA4FA4493","title":"南北高架路","lon":"121.47530585","lat":"31.202839131","category":"500","category_name":"未知分类","address":"上海鲁班路斜土路"},{"poiid":"B2094757D068A2FB4492","title":"潮泰清迈泰国餐厅","lon":"121.4729","lat":"31.20606","category":"99","category_name":"泰国／越南菜品餐厅","address":"卢湾区斜徐路591号(近丽园路)"},{"poiid":"B209475DD268A6F54299","title":"南小馆（日月光店）","lon":"121.473121","lat":"31.205419","category":"247","category_name":"餐饮美食","address":"卢湾区徐家汇路618号日月光中心广场1楼TK-03号商铺"},{"poiid":"B2094654DB6AA6F8429D","title":"上海天诚大酒店","lon":"121.47126","lat":"31.20521","category":"214","category_name":"四星级宾馆","address":"卢湾区打浦路1号金玉兰广场东座(徐家汇路口)"},{"poiid":"B2094757D068A7FB409B","title":"小花牛(丽园店)","lon":"121.47199","lat":"31.20524","category":"260","category_name":"其他","address":"卢湾区丽园路1030号(近鲁班路)"},{"poiid":"B2094757D66DA5FE409B","title":"一哥火锅","lon":"121.472383738","lat":"31.2058777813","category":"247","category_name":"餐饮美食","address":"上海市卢湾区打浦路"},{"poiid":"B2094655D26AA3FF409C","title":"弘兴面馆","lon":"121.47484","lat":"31.20528","category":"68","category_name":"快餐厅","address":"卢湾区鲁班路193号丙(近丽园路)"},{"poiid":"B2094757D064ABFB4299","title":"鲁班路","lon":"121.47529273","lat":"31.204056742","category":"500","category_name":"未知分类","address":"上海上班路上，心情很不错"},{"poiid":"B2094751D26CA2FC409D","title":"台北纯K（日月光店¥","lon":"121.473396","lat":"31.205162","category":"500","category_name":"未知分类","address":"日月光"},{"poiid":"B2094757D068A5FD4792","title":"卢湾房地产交易中心","lon":"121.473618","lat":"31.205945","category":"500","category_name":"未知分类","address":"上海鲁班路158号"},{"poiid":"B2094753D76BA0F54698","title":"燕庭下午茶","lon":"121.472953","lat":"31.204437","category":"247","category_name":"餐饮美食","address":"上海市 日月光广场（徐家汇路618号）"},{"poiid":"B2094655D268A4F5469D","title":"皇府","lon":"121.472192054","lat":"31.202413793","category":"72","category_name":"广东菜","address":"卢湾区斜土路688弄华美达和平宾馆3楼(近打浦路)"},{"poiid":"B2094757D465ABFE429C","title":"至珍坊","lon":"121.47178019331","lat":"31.205626691653","category":"72","category_name":"广东菜","address":"卢湾区丽园路1017号(近鲁班路)"},{"poiid":"B2094757D06BA6FF489D","title":"叶的Diy烘焙小屋","lon":"121.473167593","lat":"31.2052290275","category":"500","category_name":"未知分类","address":"上海鲁班路168弄大同花园3号103室"},{"poiid":"B2094757D16CAAF84693","title":"米兰护肤造型中心(斜土路店)","lon":"121.47398973","lat":"31.201712692","category":"148","category_name":"美容美发店","address":"徐汇区斜土路792号(近打浦路)"},{"poiid":"B2094757D069A7F94799","title":"coco都可茶饮(打浦路店)","lon":"121.47204363","lat":"31.202857617","category":"113","category_name":"冷饮店","address":"卢湾区打浦路92-3号格林豪泰酒店(近斜土路)"},{"poiid":"B2094655D26EA4FD4193","title":"亚都汇 Zaffraan","lon":"121.46967321831","lat":"31.20532653189","category":"47","category_name":"住宅区","address":"打浦路15号斯格威铂尔曼大酒店49楼近徐家汇路"},{"poiid":"B2094751D26DAAF94598","title":"卢浦大桥","lon":"121.474182","lat":"31.204605","category":"500","category_name":"未知分类","address":null},{"poiid":"B2094757D76EA3FC439D","title":"顺丰面馆","lon":"121.47127","lat":"31.20287","category":"68","category_name":"快餐厅","address":"卢湾区南塘浜路126号(近打浦路)"},{"poiid":"B209475DD06BA4FE429E","title":"盛八日式烧肉","lon":"121.472114","lat":"31.205043","category":"247","category_name":"餐饮美食","address":"上海市 日月光"},{"poiid":"B2094654DA68A6FC4099","title":"老狼烧烤No.11","lon":"121.47476","lat":"31.2053","category":"68","category_name":"快餐厅","address":"卢湾区鲁班路193号(近丽园路)"},{"poiid":"B2094757D06FABF44599","title":"申荣华 香港茶餐厅","lon":"121.474147","lat":"31.204817","category":"72","category_name":"广东菜","address":"上海卢湾区斜徐路589号(近丽园路)"},{"poiid":"B209475DD46AA5FD469C","title":"辣尚瘾","lon":"121.473609","lat":"31.204452","category":"247","category_name":"餐饮美食","address":"上海市 卢湾区徐家汇路550号宝鼎大厦2楼"},{"poiid":"B2094757D06BA1FE429B","title":"白金翰宫","lon":"121.47128","lat":"31.2052","category":"47","category_name":"住宅区","address":"上海卢湾区打浦路1号金玉兰广场  "},{"poiid":"B2094757D06AA3F8469E","title":"鲁班游泳馆","lon":"121.47517","lat":"31.20495","category":"220","category_name":"运动场所","address":"卢湾区鲁班路183弄7号(近丽园路)"},{"poiid":"B2094757D66EA6FB429E","title":"佳佳汤包","lon":"121.475238738","lat":"31.2028957178","category":"247","category_name":"餐饮美食","address":"上海市卢湾区丽园路"},{"poiid":"B2094454D26FA7F8459B","title":"王子公主奇遇记","lon":"121.474678","lat":"31.202732","category":"248","category_name":"生活娱乐","address":"上海市 打浦桥"},{"poiid":"B209475DD369A0FE489C","title":"宋记香辣蟹","lon":"121.473175","lat":"31.205047","category":"247","category_name":"餐饮美食","address":"上海市 上海市卢湾区徐家汇路618号日月光广场4楼"},{"poiid":"B2094654DA6EA3F84799","title":"仕格维丽致大酒店","lon":"121.47115","lat":"31.20433","category":"213","category_name":"五星级宾馆","address":"打浦路15号"},{"poiid":"B2094757D064A5FD4699","title":"鲜风馆-蛙香鱼鲜 大同店","lon":"121.472563054","lat":"31.206036793","category":"71","category_name":"四川菜","address":"卢湾区斜徐路579号(近丽园路)"},{"poiid":"B2094757D16EA5FB449E","title":"卢湾区委党校","lon":"121.474845","lat":"31.205797","category":"500","category_name":"未知分类","address":"上海鲁班路181号"},{"poiid":"B2094757D665A2F44592","title":"蓝色海岸西餐厅","lon":"121.472192054","lat":"31.202413793","category":"268","category_name":"自助","address":"卢湾区斜土路688号华美达和平大酒店1楼(近鲁班路)"},{"poiid":"B2094654DA6EA3FE489C","title":"明德坊","lon":"121.47341","lat":"31.201897","category":"47","category_name":"住宅区","address":"斜土路678弄1-3"},{"poiid":"B2094757D064A7FE489F","title":"上海老年大学","lon":"121.47308","lat":"31.20323","category":"53","category_name":"成人教育","address":"卢湾区南塘浜路117号(近打浦路)"},{"poiid":"B2094655D26FAAF84693","title":"上海斯格威铂尔曼大酒店","lon":"121.47106","lat":"31.20432","category":"72","category_name":"广东菜","address":"卢湾区打浦路15号(近徐家汇路)"},{"poiid":"B2094655D26AA0FC4793","title":"星光摄影器材城鲁班路店","lon":"121.47448","lat":"31.20316","category":"126","category_name":"摄影器材店","address":"卢湾区鲁班路300号(近斜土路)"},{"poiid":"B2094654DB64A6FF429F","title":"星巴克(大同店)","lon":"121.472754","lat":"31.206316","category":"260","category_name":"其他","address":"卢湾区斜徐路593号(近鲁班路)"},{"poiid":"B2094753D76FAAFA449C","title":"上海滩国泰旗舰店","lon":"121.466011","lat":"31.216125","category":"249","category_name":"购物服务","address":"淮海中路868号"},{"poiid":"B209475CD564A7F84292","title":"上海滩新天地店","lon":"121.47463","lat":"31.22164","category":"119","category_name":"商场","address":"\"太仓路181弄新天地北里15号\r\n\""},{"poiid":"B2094654DB6AA6F8439E","title":"上海华美达和平大酒店","lon":"121.47293","lat":"31.20216","category":"214","category_name":"四星级宾馆","address":"上海市黄浦区斜土路688号(近打浦路)"},{"poiid":"B2094757D06FA7F94299","title":"翠丽汤馆","lon":"121.46813","lat":"31.20648","category":"72","category_name":"广东菜","address":"卢湾区徐家汇路618号日月光中心广场4楼F09号商铺(近瑞金二路)"},{"poiid":"B2094757D06FA5FA499B","title":"馔巴黎海鲜百汇餐厅","lon":"121.47101","lat":"31.20384","category":"268","category_name":"自助","address":"卢湾区打浦路15号斯格威铂尔曼大酒店B1楼(南塘浜路与徐家汇路之间)"},{"poiid":"B2094757D06FA6F44398","title":"大班休闲SPA(斜徐路店)","lon":"121.47339","lat":"31.20613","category":"149","category_name":"洗浴推拿场所","address":"上海卢湾区斜徐路595号(近丽园路)"},{"poiid":"B2094757D06FA6F8409D","title":"Skyway Pullman Hotel","lon":"121.471072","lat":"31.20432","category":"217","category_name":"旅馆招待所","address":"上海卢湾区打浦路15号(近徐家汇路)"},{"poiid":"B2094757D06FA3F5469F","title":"威尔士健身会所(鲁班路店)","lon":"121.47405","lat":"31.20535","category":"221","category_name":"健身中心","address":"卢湾区鲁班路166号4楼(近南溏浜路)"},{"poiid":"B2094751D16AAAF94899","title":"香港谭仔三哥餐厅（打浦路店）","lon":"121.471463","lat":"31.20537","category":"72","category_name":"广东菜","address":"卢湾区打浦路1号金玉兰广场2楼(近徐家汇路)"},{"poiid":"B2094757D06FA2FC4699","title":"大同花园","lon":"121.47351521","lat":"31.204857882","category":"47","category_name":"住宅区","address":"上海卢湾区鲁班路88弄(近丽园路)"},{"poiid":"B209475CD46CA3FD489A","title":"年代秀飯堂(日月光店)","lon":"121.472831","lat":"31.205135","category":"247","category_name":"餐饮美食","address":"上海市 徐家汇路618号日月光中心广场5F-TK02-03号铺(近泰康路)"},{"poiid":"B2094655D269ABFE459E","title":"斯格威铂尔曼大酒店华府轩","lon":"121.47116","lat":"31.20434","category":"76","category_name":"上海菜","address":"卢湾区打浦路15号斯格威铂尔曼大酒店3楼(近徐家汇路)"},{"poiid":"B2094757D06FA2F5499D","title":"世纪联华(鲁班店)","lon":"121.47412","lat":"31.20269","category":"118","category_name":"超级市场","address":"卢湾区斜土路645号(近打浦路)"},{"poiid":"B2094757D06FA4FA4493","title":"南北高架路","lon":"121.47530585","lat":"31.202839131","category":"500","category_name":"未知分类","address":"上海鲁班路斜土路"},{"poiid":"B2094757D068A2FB4492","title":"潮泰清迈泰国餐厅","lon":"121.4729","lat":"31.20606","category":"99","category_name":"泰国／越南菜品餐厅","address":"卢湾区斜徐路591号(近丽园路)"},{"poiid":"B209475DD268A6F54299","title":"南小馆（日月光店）","lon":"121.473121","lat":"31.205419","category":"247","category_name":"餐饮美食","address":"卢湾区徐家汇路618号日月光中心广场1楼TK-03号商铺"},{"poiid":"B2094654DB6AA6F8429D","title":"上海天诚大酒店","lon":"121.47126","lat":"31.20521","category":"214","category_name":"四星级宾馆","address":"卢湾区打浦路1号金玉兰广场东座(徐家汇路口)"},{"poiid":"B2094757D068A7FB409B","title":"小花牛(丽园店)","lon":"121.47199","lat":"31.20524","category":"260","category_name":"其他","address":"卢湾区丽园路1030号(近鲁班路)"},{"poiid":"B2094757D66DA5FE409B","title":"一哥火锅","lon":"121.472383738","lat":"31.2058777813","category":"247","category_name":"餐饮美食","address":"上海市卢湾区打浦路"},{"poiid":"B2094655D26AA3FF409C","title":"弘兴面馆","lon":"121.47484","lat":"31.20528","category":"68","category_name":"快餐厅","address":"卢湾区鲁班路193号丙(近丽园路)"},{"poiid":"B2094757D064ABFB4299","title":"鲁班路","lon":"121.47529273","lat":"31.204056742","category":"500","category_name":"未知分类","address":"上海上班路上，心情很不错"},{"poiid":"B2094751D26CA2FC409D","title":"台北纯K（日月光店¥","lon":"121.473396","lat":"31.205162","category":"500","category_name":"未知分类","address":"日月光"},{"poiid":"B2094757D068A5FD4792","title":"卢湾房地产交易中心","lon":"121.473618","lat":"31.205945","category":"500","category_name":"未知分类","address":"上海鲁班路158号"},{"poiid":"B2094753D76BA0F54698","title":"燕庭下午茶","lon":"121.472953","lat":"31.204437","category":"247","category_name":"餐饮美食","address":"上海市 日月光广场（徐家汇路618号）"},{"poiid":"B2094655D268A4F5469D","title":"皇府","lon":"121.472192054","lat":"31.202413793","category":"72","category_name":"广东菜","address":"卢湾区斜土路688弄华美达和平宾馆3楼(近打浦路)"},{"poiid":"B2094757D465ABFE429C","title":"至珍坊","lon":"121.47178019331","lat":"31.205626691653","category":"72","category_name":"广东菜","address":"卢湾区丽园路1017号(近鲁班路)"},{"poiid":"B2094757D06BA6FF489D","title":"叶的Diy烘焙小屋","lon":"121.473167593","lat":"31.2052290275","category":"500","category_name":"未知分类","address":"上海鲁班路168弄大同花园3号103室"},{"poiid":"B2094757D16CAAF84693","title":"米兰护肤造型中心(斜土路店)","lon":"121.47398973","lat":"31.201712692","category":"148","category_name":"美容美发店","address":"徐汇区斜土路792号(近打浦路)"},{"poiid":"B2094757D069A7F94799","title":"coco都可茶饮(打浦路店)","lon":"121.47204363","lat":"31.202857617","category":"113","category_name":"冷饮店","address":"卢湾区打浦路92-3号格林豪泰酒店(近斜土路)"},{"poiid":"B2094655D26EA4FD4193","title":"亚都汇 Zaffraan","lon":"121.46967321831","lat":"31.20532653189","category":"47","category_name":"住宅区","address":"打浦路15号斯格威铂尔曼大酒店49楼近徐家汇路"},{"poiid":"B2094751D26DAAF94598","title":"卢浦大桥","lon":"121.474182","lat":"31.204605","category":"500","category_name":"未知分类","address":null},{"poiid":"B2094757D76EA3FC439D","title":"顺丰面馆","lon":"121.47127","lat":"31.20287","category":"68","category_name":"快餐厅","address":"卢湾区南塘浜路126号(近打浦路)"},{"poiid":"B209475DD06BA4FE429E","title":"盛八日式烧肉","lon":"121.472114","lat":"31.205043","category":"247","category_name":"餐饮美食","address":"上海市 日月光"},{"poiid":"B2094654DA68A6FC4099","title":"老狼烧烤No.11","lon":"121.47476","lat":"31.2053","category":"68","category_name":"快餐厅","address":"卢湾区鲁班路193号(近丽园路)"},{"poiid":"B2094757D06FABF44599","title":"申荣华 香港茶餐厅","lon":"121.474147","lat":"31.204817","category":"72","category_name":"广东菜","address":"上海卢湾区斜徐路589号(近丽园路)"},{"poiid":"B209475DD46AA5FD469C","title":"辣尚瘾","lon":"121.473609","lat":"31.204452","category":"247","category_name":"餐饮美食","address":"上海市 卢湾区徐家汇路550号宝鼎大厦2楼"},{"poiid":"B2094757D06BA1FE429B","title":"白金翰宫","lon":"121.47128","lat":"31.2052","category":"47","category_name":"住宅区","address":"上海卢湾区打浦路1号金玉兰广场  "},{"poiid":"B2094757D06AA3F8469E","title":"鲁班游泳馆","lon":"121.47517","lat":"31.20495","category":"220","category_name":"运动场所","address":"卢湾区鲁班路183弄7号(近丽园路)"},{"poiid":"B2094757D66EA6FB429E","title":"佳佳汤包","lon":"121.475238738","lat":"31.2028957178","category":"247","category_name":"餐饮美食","address":"上海市卢湾区丽园路"},{"poiid":"B2094454D26FA7F8459B","title":"王子公主奇遇记","lon":"121.474678","lat":"31.202732","category":"248","category_name":"生活娱乐","address":"上海市 打浦桥"},{"poiid":"B209475DD369A0FE489C","title":"宋记香辣蟹","lon":"121.473175","lat":"31.205047","category":"247","category_name":"餐饮美食","address":"上海市 上海市卢湾区徐家汇路618号日月光广场4楼"},{"poiid":"B2094654DA6EA3F84799","title":"仕格维丽致大酒店","lon":"121.47115","lat":"31.20433","category":"213","category_name":"五星级宾馆","address":"打浦路15号"},{"poiid":"B2094757D064A5FD4699","title":"鲜风馆-蛙香鱼鲜 大同店","lon":"121.472563054","lat":"31.206036793","category":"71","category_name":"四川菜","address":"卢湾区斜徐路579号(近丽园路)"},{"poiid":"B2094757D16EA5FB449E","title":"卢湾区委党校","lon":"121.474845","lat":"31.205797","category":"500","category_name":"未知分类","address":"上海鲁班路181号"},{"poiid":"B2094757D665A2F44592","title":"蓝色海岸西餐厅","lon":"121.472192054","lat":"31.202413793","category":"268","category_name":"自助","address":"卢湾区斜土路688号华美达和平大酒店1楼(近鲁班路)"},{"poiid":"B2094654DA6EA3FE489C","title":"明德坊","lon":"121.47341","lat":"31.201897","category":"47","category_name":"住宅区","address":"斜土路678弄1-3"},{"poiid":"B2094757D064A7FE489F","title":"上海老年大学","lon":"121.47308","lat":"31.20323","category":"53","category_name":"成人教育","address":"卢湾区南塘浜路117号(近打浦路)"},{"poiid":"B2094655D26FAAF84693","title":"上海斯格威铂尔曼大酒店","lon":"121.47106","lat":"31.20432","category":"72","category_name":"广东菜","address":"卢湾区打浦路15号(近徐家汇路)"},{"poiid":"B2094655D26AA0FC4793","title":"星光摄影器材城鲁班路店","lon":"121.47448","lat":"31.20316","category":"126","category_name":"摄影器材店","address":"卢湾区鲁班路300号(近斜土路)"},{"poiid":"B2094654DB64A6FF429F","title":"星巴克(大同店)","lon":"121.472754","lat":"31.206316","category":"260","category_name":"其他","address":"卢湾区斜徐路593号(近鲁班路)"},{"poiid":"B2094753D76FAAFA449C","title":"上海滩国泰旗舰店","lon":"121.466011","lat":"31.216125","category":"249","category_name":"购物服务","address":"淮海中路868号"},{"poiid":"B209475CD564A7F84292","title":"上海滩新天地店","lon":"121.47463","lat":"31.22164","category":"119","category_name":"商场","address":"\"太仓路181弄新天地北里15号\r\n\""},{"poiid":"B2094654DB6AA6F8439E","title":"上海华美达和平大酒店","lon":"121.47293","lat":"31.20216","category":"214","category_name":"四星级宾馆","address":"上海市黄浦区斜土路688号(近打浦路)"},{"poiid":"B2094757D06FA7F94299","title":"翠丽汤馆","lon":"121.46813","lat":"31.20648","category":"72","category_name":"广东菜","address":"卢湾区徐家汇路618号日月光中心广场4楼F09号商铺(近瑞金二路)"},{"poiid":"B2094757D06FA5FA499B","title":"馔巴黎海鲜百汇餐厅","lon":"121.47101","lat":"31.20384","category":"268","category_name":"自助","address":"卢湾区打浦路15号斯格威铂尔曼大酒店B1楼(南塘浜路与徐家汇路之间)"},{"poiid":"B2094757D06FA6F44398","title":"大班休闲SPA(斜徐路店)","lon":"121.47339","lat":"31.20613","category":"149","category_name":"洗浴推拿场所","address":"上海卢湾区斜徐路595号(近丽园路)"},{"poiid":"B2094757D06FA6F8409D","title":"Skyway Pullman Hotel","lon":"121.471072","lat":"31.20432","category":"217","category_name":"旅馆招待所","address":"上海卢湾区打浦路15号(近徐家汇路)"},{"poiid":"B2094757D06FA3F5469F","title":"威尔士健身会所(鲁班路店)","lon":"121.47405","lat":"31.20535","category":"221","category_name":"健身中心","address":"卢湾区鲁班路166号4楼(近南溏浜路)"},{"poiid":"B2094751D16AAAF94899","title":"香港谭仔三哥餐厅（打浦路店）","lon":"121.471463","lat":"31.20537","category":"72","category_name":"广东菜","address":"卢湾区打浦路1号金玉兰广场2楼(近徐家汇路)"},{"poiid":"B2094757D06FA2FC4699","title":"大同花园","lon":"121.47351521","lat":"31.204857882","category":"47","category_name":"住宅区","address":"上海卢湾区鲁班路88弄(近丽园路)"},{"poiid":"B209475CD46CA3FD489A","title":"年代秀飯堂(日月光店)","lon":"121.472831","lat":"31.205135","category":"247","category_name":"餐饮美食","address":"上海市 徐家汇路618号日月光中心广场5F-TK02-03号铺(近泰康路)"},{"poiid":"B2094655D269ABFE459E","title":"斯格威铂尔曼大酒店华府轩","lon":"121.47116","lat":"31.20434","category":"76","category_name":"上海菜","address":"卢湾区打浦路15号斯格威铂尔曼大酒店3楼(近徐家汇路)"},{"poiid":"B2094757D06FA2F5499D","title":"世纪联华(鲁班店)","lon":"121.47412","lat":"31.20269","category":"118","category_name":"超级市场","address":"卢湾区斜土路645号(近打浦路)"},{"poiid":"B2094757D06FA4FA4493","title":"南北高架路","lon":"121.47530585","lat":"31.202839131","category":"500","category_name":"未知分类","address":"上海鲁班路斜土路"},{"poiid":"B2094757D068A2FB4492","title":"潮泰清迈泰国餐厅","lon":"121.4729","lat":"31.20606","category":"99","category_name":"泰国／越南菜品餐厅","address":"卢湾区斜徐路591号(近丽园路)"},{"poiid":"B209475DD268A6F54299","title":"南小馆（日月光店）","lon":"121.473121","lat":"31.205419","category":"247","category_name":"餐饮美食","address":"卢湾区徐家汇路618号日月光中心广场1楼TK-03号商铺"},{"poiid":"B2094654DB6AA6F8429D","title":"上海天诚大酒店","lon":"121.47126","lat":"31.20521","category":"214","category_name":"四星级宾馆","address":"卢湾区打浦路1号金玉兰广场东座(徐家汇路口)"},{"poiid":"B2094757D068A7FB409B","title":"小花牛(丽园店)","lon":"121.47199","lat":"31.20524","category":"260","category_name":"其他","address":"卢湾区丽园路1030号(近鲁班路)"},{"poiid":"B2094757D66DA5FE409B","title":"一哥火锅","lon":"121.472383738","lat":"31.2058777813","category":"247","category_name":"餐饮美食","address":"上海市卢湾区打浦路"},{"poiid":"B2094655D26AA3FF409C","title":"弘兴面馆","lon":"121.47484","lat":"31.20528","category":"68","category_name":"快餐厅","address":"卢湾区鲁班路193号丙(近丽园路)"},{"poiid":"B2094757D064ABFB4299","title":"鲁班路","lon":"121.47529273","lat":"31.204056742","category":"500","category_name":"未知分类","address":"上海上班路上，心情很不错"},{"poiid":"B2094751D26CA2FC409D","title":"台北纯K（日月光店¥","lon":"121.473396","lat":"31.205162","category":"500","category_name":"未知分类","address":"日月光"},{"poiid":"B2094757D068A5FD4792","title":"卢湾房地产交易中心","lon":"121.473618","lat":"31.205945","category":"500","category_name":"未知分类","address":"上海鲁班路158号"},{"poiid":"B2094753D76BA0F54698","title":"燕庭下午茶","lon":"121.472953","lat":"31.204437","category":"247","category_name":"餐饮美食","address":"上海市 日月光广场（徐家汇路618号）"},{"poiid":"B2094655D268A4F5469D","title":"皇府","lon":"121.472192054","lat":"31.202413793","category":"72","category_name":"广东菜","address":"卢湾区斜土路688弄华美达和平宾馆3楼(近打浦路)"},{"poiid":"B2094757D465ABFE429C","title":"至珍坊","lon":"121.47178019331","lat":"31.205626691653","category":"72","category_name":"广东菜","address":"卢湾区丽园路1017号(近鲁班路)"},{"poiid":"B2094757D06BA6FF489D","title":"叶的Diy烘焙小屋","lon":"121.473167593","lat":"31.2052290275","category":"500","category_name":"未知分类","address":"上海鲁班路168弄大同花园3号103室"},{"poiid":"B2094757D16CAAF84693","title":"米兰护肤造型中心(斜土路店)","lon":"121.47398973","lat":"31.201712692","category":"148","category_name":"美容美发店","address":"徐汇区斜土路792号(近打浦路)"},{"poiid":"B2094757D069A7F94799","title":"coco都可茶饮(打浦路店)","lon":"121.47204363","lat":"31.202857617","category":"113","category_name":"冷饮店","address":"卢湾区打浦路92-3号格林豪泰酒店(近斜土路)"},{"poiid":"B2094655D26EA4FD4193","title":"亚都汇 Zaffraan","lon":"121.46967321831","lat":"31.20532653189","category":"47","category_name":"住宅区","address":"打浦路15号斯格威铂尔曼大酒店49楼近徐家汇路"},{"poiid":"B2094751D26DAAF94598","title":"卢浦大桥","lon":"121.474182","lat":"31.204605","category":"500","category_name":"未知分类","address":null},{"poiid":"B2094757D76EA3FC439D","title":"顺丰面馆","lon":"121.47127","lat":"31.20287","category":"68","category_name":"快餐厅","address":"卢湾区南塘浜路126号(近打浦路)"},{"poiid":"B209475DD06BA4FE429E","title":"盛八日式烧肉","lon":"121.472114","lat":"31.205043","category":"247","category_name":"餐饮美食","address":"上海市 日月光"},{"poiid":"B2094654DA68A6FC4099","title":"老狼烧烤No.11","lon":"121.47476","lat":"31.2053","category":"68","category_name":"快餐厅","address":"卢湾区鲁班路193号(近丽园路)"},{"poiid":"B2094757D06FABF44599","title":"申荣华 香港茶餐厅","lon":"121.474147","lat":"31.204817","category":"72","category_name":"广东菜","address":"上海卢湾区斜徐路589号(近丽园路)"},{"poiid":"B209475DD46AA5FD469C","title":"辣尚瘾","lon":"121.473609","lat":"31.204452","category":"247","category_name":"餐饮美食","address":"上海市 卢湾区徐家汇路550号宝鼎大厦2楼"},{"poiid":"B2094757D06BA1FE429B","title":"白金翰宫","lon":"121.47128","lat":"31.2052","category":"47","category_name":"住宅区","address":"上海卢湾区打浦路1号金玉兰广场  "},{"poiid":"B2094757D06AA3F8469E","title":"鲁班游泳馆","lon":"121.47517","lat":"31.20495","category":"220","category_name":"运动场所","address":"卢湾区鲁班路183弄7号(近丽园路)"},{"poiid":"B2094757D66EA6FB429E","title":"佳佳汤包","lon":"121.475238738","lat":"31.2028957178","category":"247","category_name":"餐饮美食","address":"上海市卢湾区丽园路"},{"poiid":"B2094454D26FA7F8459B","title":"王子公主奇遇记","lon":"121.474678","lat":"31.202732","category":"248","category_name":"生活娱乐","address":"上海市 打浦桥"},{"poiid":"B209475DD369A0FE489C","title":"宋记香辣蟹","lon":"121.473175","lat":"31.205047","category":"247","category_name":"餐饮美食","address":"上海市 上海市卢湾区徐家汇路618号日月光广场4楼"},{"poiid":"B2094654DA6EA3F84799","title":"仕格维丽致大酒店","lon":"121.47115","lat":"31.20433","category":"213","category_name":"五星级宾馆","address":"打浦路15号"},{"poiid":"B2094757D064A5FD4699","title":"鲜风馆-蛙香鱼鲜 大同店","lon":"121.472563054","lat":"31.206036793","category":"71","category_name":"四川菜","address":"卢湾区斜徐路579号(近丽园路)"},{"poiid":"B2094757D16EA5FB449E","title":"卢湾区委党校","lon":"121.474845","lat":"31.205797","category":"500","category_name":"未知分类","address":"上海鲁班路181号"},{"poiid":"B2094757D665A2F44592","title":"蓝色海岸西餐厅","lon":"121.472192054","lat":"31.202413793","category":"268","category_name":"自助","address":"卢湾区斜土路688号华美达和平大酒店1楼(近鲁班路)"},{"poiid":"B2094654DA6EA3FE489C","title":"明德坊","lon":"121.47341","lat":"31.201897","category":"47","category_name":"住宅区","address":"斜土路678弄1-3"},{"poiid":"B2094757D064A7FE489F","title":"上海老年大学","lon":"121.47308","lat":"31.20323","category":"53","category_name":"成人教育","address":"卢湾区南塘浜路117号(近打浦路)"}]