[{"poiid":"B2094655D36CA0FC469F","title":"九亭地铁站","lon":"121.31937","lat":"31.13782","category":"36","category_name":"地铁站","address":"上海轨道交通 九号线 轨交九亭站 9"},{"poiid":"B2094757D06FA3FB459B","title":"奥林匹克花园","lon":"121.334701","lat":"31.152401","category":"47","category_name":"住宅区","address":"松江区九亭镇涞寅路106弄"},{"poiid":"B2094757D068A0FE4798","title":"九久青年城","lon":"121.3191452","lat":"31.137069702","category":"47","category_name":"住宅区","address":"松江区沪松公路1519号(近九新公路)"},{"poiid":"B2094757D06FA7FE479B","title":"九亭大街","lon":"121.32793","lat":"31.128087","category":"500","category_name":"未知分类","address":"上海九亭大街"},{"poiid":"B2094757D06FA6F8479B","title":"中春路地铁站","lon":"121.33836508","lat":"31.149302088","category":"36","category_name":"地铁站","address":"上海轨道交通 九号线 轨交中春路站 9"},{"poiid":"B2094757DB68A4F8479B","title":"农家菜老大 淞沪店","lon":"121.32611989975","lat":"31.142672211327","category":"87","category_name":"特色／地方风味餐厅","address":"松江区沪松公路1229号(近涞亭南路)"},{"poiid":"B2094655D36DA6FD489A","title":"九亭","lon":"121.31957","lat":"31.1377","category":"38","category_name":"公交车站","address":"上海九亭向右转1399号"},{"poiid":"B2094654DB65AAFB4192","title":"上海市九亭医院","lon":"121.31958","lat":"31.13062","category":"162","category_name":"医院","address":"松江区九新公路155号(伴亭路九新公路)"},{"poiid":"B2094757D068A2FB489A","title":"上海奥林匹克花园运动中心","lon":"121.33514404","lat":"31.145084381","category":"260","category_name":"其他","address":"上海沪淞公路"},{"poiid":"B2094757D06AA4FD4193","title":"美丽星城","lon":"121.33378356218","lat":"31.14021382595","category":"500","category_name":"未知分类","address":"上海市松江区沪亭南路188号"},{"poiid":"B2094757D068A6F8439E","title":"甜蜜蜜(贝尚湾店)","lon":"121.31741883","lat":"31.146581382","category":"72","category_name":"广东菜","address":"松江区沪亭北路408号(近涞寅路)"},{"poiid":"B2094654DA64A6FC4499","title":"嘉和阳光城","lon":"121.32285656838","lat":"31.139977282306","category":"47","category_name":"住宅区","address":"上海市松江区九亭镇九新公路58弄"},{"poiid":"B2094757D66BA5FC4598","title":"肯德基 九亭店 KFC","lon":"121.327546054","lat":"31.128605793","category":"68","category_name":"快餐厅","address":"松江区九亭镇九亭大街370号(国亭对面)"},{"poiid":"B2094757D064A6F5449B","title":"亭汇花苑","lon":"121.31575","lat":"31.13809","category":"47","category_name":"住宅区","address":"上海沪松公路1480弄"},{"poiid":"B2094757D069A6FE4199","title":"威尔士健身会所(贝尚湾店)","lon":"121.31969","lat":"31.14069","category":"221","category_name":"健身中心","address":"松江区沪亭北路350弄3号"},{"poiid":"B209475CDA69A2FC429A","title":"漫咖啡上海总部","lon":"121.334213","lat":"31.142847","category":"247","category_name":"餐饮美食","address":"上海市松江区松沪公路1177号佳预大厦1楼"},{"poiid":"B2094757D069A4FB4093","title":"新农庄(九亭店)","lon":"121.319576","lat":"31.137704","category":"76","category_name":"上海菜","address":"松江区沪亭北路308号(近贝尚湾)"},{"poiid":"B2094654DA64A7F5449B","title":"周家小区","lon":"121.33011","lat":"31.140503","category":"47","category_name":"住宅区","address":"浦汇路85弄"},{"poiid":"B2094757D16DA7FD419B","title":"象屿都城","lon":"121.338","lat":"31.1295","category":"47","category_name":"住宅区","address":"上海虬泾路851弄"},{"poiid":"B2094654DB69A6F54299","title":"上岛咖啡(奥林匹克花园店)","lon":"121.32787","lat":"31.14481","category":"65","category_name":"咖啡厅","address":"松江区九亭新城奥林匹克花园旁"},{"poiid":"B2094757D464AAFD469B","title":"普罗旺斯茶餐厅","lon":"121.316969","lat":"31.14645","category":"247","category_name":"餐饮美食","address":"九亭镇沪亭北路488号贝尚湾商业街2楼近莱寅路"},{"poiid":"B2094757D568A4FB4398","title":"雅悦海鲜坊","lon":"121.3332131","lat":"31.14219","category":"72","category_name":"广东菜","address":"松江区九亭镇涞亭南路101弄(蒲汇路涞亭南路)"},{"poiid":"B2094654DA64A7F4489E","title":"三品香","lon":"121.33066","lat":"31.13346","category":"70","category_name":"综合酒楼","address":"松江区九亭镇虬泾路102号"},{"poiid":"B2094654DA64A7F5439C","title":"绿松超市","lon":"121.32868","lat":"31.13983","category":"118","category_name":"超级市场","address":""},{"poiid":"B2094757D06BA7FC409D","title":"越由大酒店 九亭店","lon":"121.31691","lat":"31.14572","category":"76","category_name":"上海菜","address":"松江区沪亭北路348号贝尚坊商业广场(近地铁九号线九亭站)"},{"poiid":"B2094654DB64A2FE419A","title":"天宝恬苑","lon":"121.332","lat":"31.1365","category":"47","category_name":"住宅区","address":"上海市松江区九亭镇沪亭南路71弄"},{"poiid":"B209475CD368A7FA439C","title":"婷福农家乐 九亭店","lon":"121.32712","lat":"31.14338","category":"87","category_name":"特色／地方风味餐厅","address":"沪松公路1229号(近涞亭南路)"},{"poiid":"B2094654DA64A4FF409B","title":"翠亭别墅","lon":"121.32","lat":"31.1437","category":"47","category_name":"住宅区","address":"上海市九杜路55弄"},{"poiid":"B2094757D169A3F84299","title":"东风标致4S","lon":"121.32953199","lat":"31.144116222","category":"158","category_name":"汽车销售","address":"上海沪松公路1225号"},{"poiid":"B2094655D26BABF84398","title":"丽景苑","lon":"121.32253484791","lat":"31.141031835893","category":"47","category_name":"住宅区","address":"上海市松江区九亭镇九新公路28弄"},{"poiid":"B209475CD56CA1F94699","title":"maan coffee","lon":"121.329742","lat":"31.143293","category":"500","category_name":"未知分类","address":"上海市 松江区沪松公路"},{"poiid":"B2094757D16CA5FA4799","title":"奇通别克","lon":"121.32966842","lat":"31.144245141","category":"158","category_name":"汽车销售","address":"上海沪松公路1225号"},{"poiid":"B2094654DA64A7FB469B","title":"上海诗林","lon":"121.33868","lat":"31.13337","category":"47","category_name":"住宅区","address":"上海市松江区九亭镇九亭大街路181号"},{"poiid":"B2094654DA64A7F44199","title":"九亭明珠苑(九亭大街)","lon":"121.3337","lat":"31.1314","category":"47","category_name":"住宅区","address":""},{"poiid":"B2094757D16FA7F44899","title":"宝都江鲜菜馆","lon":"121.33517","lat":"31.13784","category":"76","category_name":"上海菜","address":"松江区九亭镇涞亭南路153-161号(近伴亭路)"},{"poiid":"B2094654DA64A0FC429E","title":"阿美德格电机(上海)有限公司","lon":"121.32822","lat":"31.13961","category":"263","category_name":"公司","address":""},{"poiid":"B2094654DA64A7F4479D","title":"左邻右里食坊","lon":"121.33022","lat":"31.13416","category":"76","category_name":"上海菜","address":"松江区九亭镇虬泾路74号"},{"poiid":"B2094750D46BABF84492","title":"188艺术家餐厅","lon":"121.323646","lat":"31.138816","category":"72","category_name":"广东菜","address":"松江区九亭镇蒲汇路188号中国核工业园区3号楼(近七宝商圈)"},{"poiid":"B2094654DA64A4F4409F","title":"花园商场","lon":"121.32813","lat":"31.14494","category":"119","category_name":"商场","address":"九亭镇"},{"poiid":"B2094750D16BA1FD439D","title":"七宝古镇","lon":"121.324996","lat":"31.142934","category":"500","category_name":"未知分类","address":"沪亭北路"},{"poiid":"B2094757D16DAAFF4399","title":"新上海花园洋房","lon":"121.33482283","lat":"31.136132156","category":"252","category_name":"楼宇机构","address":"新上海花园洋房(新上海里弄人家三期)位于松江涞亭南路290弄"},{"poiid":"B2094753D76AA0F44698","title":"珑泰餐厅","lon":"121.326023","lat":"31.143882","category":"99","category_name":"泰国／越南菜品餐厅","address":"上海市松江区沪松公路1399弄37号(近沪亭南路)"},{"poiid":"B209475CDA6DA2F84892","title":"Maan coffee","lon":"121.329551","lat":"31.145055","category":"500","category_name":"未知分类","address":"上海市 上海市松江区奥林匹克花园"},{"poiid":"B2094757D16DABFB479D","title":"九亭1号大酒店","lon":"121.32587333","lat":"31.145163751","category":"76","category_name":"上海菜","address":"上海沪松公路1138号"},{"poiid":"B2094654DA64A6FD4592","title":"黎安中学","lon":"121.32955","lat":"31.13642","category":"55","category_name":"中学","address":""},{"poiid":"B2094654DA64A0FC439E","title":"上海市松江区九亭镇经济开发区","lon":"121.336","lat":"31.1429","category":"45","category_name":"产业园区","address":"伴亭东路278弄"},{"poiid":"B2094654DA64A0FC439D","title":"半岛花园(涞亭南路)","lon":"121.33548","lat":"31.13747","category":"47","category_name":"住宅区","address":"涞亭南路169弄1-151号"},{"poiid":"B2094757D465A4FF489B","title":"鼎中鼎澳门豆捞 九亭店","lon":"121.327700054","lat":"31.128700793","category":"247","category_name":"餐饮美食","address":"松江区九亭大街348号(虬泾路口)"},{"poiid":"B2094750D464A6FD449A","title":"捷豹路虎捷润4S","lon":"121.328643","lat":"31.144548","category":"163","category_name":"4S店","address":"沪松公路1179号"},{"poiid":"B2094654DA64A7F54593","title":"世泽中学","lon":"121.32403","lat":"31.14059","category":"55","category_name":"中学","address":"松江区九亭镇"},{"poiid":"B2094655D36CA0FC469F","title":"九亭地铁站","lon":"121.31937","lat":"31.13782","category":"36","category_name":"地铁站","address":"上海轨道交通 九号线 轨交九亭站 9"},{"poiid":"B2094757D06FA3FB459B","title":"奥林匹克花园","lon":"121.334701","lat":"31.152401","category":"47","category_name":"住宅区","address":"松江区九亭镇涞寅路106弄"},{"poiid":"B2094757D068A0FE4798","title":"九久青年城","lon":"121.3191452","lat":"31.137069702","category":"47","category_name":"住宅区","address":"松江区沪松公路1519号(近九新公路)"},{"poiid":"B2094757D06FA7FE479B","title":"九亭大街","lon":"121.32793","lat":"31.128087","category":"500","category_name":"未知分类","address":"上海九亭大街"},{"poiid":"B2094757D06FA6F8479B","title":"中春路地铁站","lon":"121.33836508","lat":"31.149302088","category":"36","category_name":"地铁站","address":"上海轨道交通 九号线 轨交中春路站 9"},{"poiid":"B2094757DB68A4F8479B","title":"农家菜老大 淞沪店","lon":"121.32611989975","lat":"31.142672211327","category":"87","category_name":"特色／地方风味餐厅","address":"松江区沪松公路1229号(近涞亭南路)"},{"poiid":"B2094655D36DA6FD489A","title":"九亭","lon":"121.31957","lat":"31.1377","category":"38","category_name":"公交车站","address":"上海九亭向右转1399号"},{"poiid":"B2094654DB65AAFB4192","title":"上海市九亭医院","lon":"121.31958","lat":"31.13062","category":"162","category_name":"医院","address":"松江区九新公路155号(伴亭路九新公路)"},{"poiid":"B2094757D068A2FB489A","title":"上海奥林匹克花园运动中心","lon":"121.33514404","lat":"31.145084381","category":"260","category_name":"其他","address":"上海沪淞公路"},{"poiid":"B2094757D06AA4FD4193","title":"美丽星城","lon":"121.33378356218","lat":"31.14021382595","category":"500","category_name":"未知分类","address":"上海市松江区沪亭南路188号"},{"poiid":"B2094757D068A6F8439E","title":"甜蜜蜜(贝尚湾店)","lon":"121.31741883","lat":"31.146581382","category":"72","category_name":"广东菜","address":"松江区沪亭北路408号(近涞寅路)"},{"poiid":"B2094654DA64A6FC4499","title":"嘉和阳光城","lon":"121.32285656838","lat":"31.139977282306","category":"47","category_name":"住宅区","address":"上海市松江区九亭镇九新公路58弄"},{"poiid":"B2094757D66BA5FC4598","title":"肯德基 九亭店 KFC","lon":"121.327546054","lat":"31.128605793","category":"68","category_name":"快餐厅","address":"松江区九亭镇九亭大街370号(国亭对面)"},{"poiid":"B2094757D064A6F5449B","title":"亭汇花苑","lon":"121.31575","lat":"31.13809","category":"47","category_name":"住宅区","address":"上海沪松公路1480弄"},{"poiid":"B2094757D069A6FE4199","title":"威尔士健身会所(贝尚湾店)","lon":"121.31969","lat":"31.14069","category":"221","category_name":"健身中心","address":"松江区沪亭北路350弄3号"},{"poiid":"B209475CDA69A2FC429A","title":"漫咖啡上海总部","lon":"121.334213","lat":"31.142847","category":"247","category_name":"餐饮美食","address":"上海市松江区松沪公路1177号佳预大厦1楼"},{"poiid":"B2094757D069A4FB4093","title":"新农庄(九亭店)","lon":"121.319576","lat":"31.137704","category":"76","category_name":"上海菜","address":"松江区沪亭北路308号(近贝尚湾)"},{"poiid":"B2094654DA64A7F5449B","title":"周家小区","lon":"121.33011","lat":"31.140503","category":"47","category_name":"住宅区","address":"浦汇路85弄"},{"poiid":"B2094757D16DA7FD419B","title":"象屿都城","lon":"121.338","lat":"31.1295","category":"47","category_name":"住宅区","address":"上海虬泾路851弄"},{"poiid":"B2094654DB69A6F54299","title":"上岛咖啡(奥林匹克花园店)","lon":"121.32787","lat":"31.14481","category":"65","category_name":"咖啡厅","address":"松江区九亭新城奥林匹克花园旁"},{"poiid":"B2094757D464AAFD469B","title":"普罗旺斯茶餐厅","lon":"121.316969","lat":"31.14645","category":"247","category_name":"餐饮美食","address":"九亭镇沪亭北路488号贝尚湾商业街2楼近莱寅路"},{"poiid":"B2094757D568A4FB4398","title":"雅悦海鲜坊","lon":"121.3332131","lat":"31.14219","category":"72","category_name":"广东菜","address":"松江区九亭镇涞亭南路101弄(蒲汇路涞亭南路)"},{"poiid":"B2094654DA64A7F4489E","title":"三品香","lon":"121.33066","lat":"31.13346","category":"70","category_name":"综合酒楼","address":"松江区九亭镇虬泾路102号"},{"poiid":"B2094654DA64A7F5439C","title":"绿松超市","lon":"121.32868","lat":"31.13983","category":"118","category_name":"超级市场","address":""},{"poiid":"B2094757D06BA7FC409D","title":"越由大酒店 九亭店","lon":"121.31691","lat":"31.14572","category":"76","category_name":"上海菜","address":"松江区沪亭北路348号贝尚坊商业广场(近地铁九号线九亭站)"},{"poiid":"B2094654DB64A2FE419A","title":"天宝恬苑","lon":"121.332","lat":"31.1365","category":"47","category_name":"住宅区","address":"上海市松江区九亭镇沪亭南路71弄"},{"poiid":"B209475CD368A7FA439C","title":"婷福农家乐 九亭店","lon":"121.32712","lat":"31.14338","category":"87","category_name":"特色／地方风味餐厅","address":"沪松公路1229号(近涞亭南路)"},{"poiid":"B2094654DA64A4FF409B","title":"翠亭别墅","lon":"121.32","lat":"31.1437","category":"47","category_name":"住宅区","address":"上海市九杜路55弄"},{"poiid":"B2094757D169A3F84299","title":"东风标致4S","lon":"121.32953199","lat":"31.144116222","category":"158","category_name":"汽车销售","address":"上海沪松公路1225号"},{"poiid":"B2094655D26BABF84398","title":"丽景苑","lon":"121.32253484791","lat":"31.141031835893","category":"47","category_name":"住宅区","address":"上海市松江区九亭镇九新公路28弄"},{"poiid":"B209475CD56CA1F94699","title":"maan coffee","lon":"121.329742","lat":"31.143293","category":"500","category_name":"未知分类","address":"上海市 松江区沪松公路"},{"poiid":"B2094757D16CA5FA4799","title":"奇通别克","lon":"121.32966842","lat":"31.144245141","category":"158","category_name":"汽车销售","address":"上海沪松公路1225号"},{"poiid":"B2094654DA64A7FB469B","title":"上海诗林","lon":"121.33868","lat":"31.13337","category":"47","category_name":"住宅区","address":"上海市松江区九亭镇九亭大街路181号"},{"poiid":"B2094654DA64A7F44199","title":"九亭明珠苑(九亭大街)","lon":"121.3337","lat":"31.1314","category":"47","category_name":"住宅区","address":""},{"poiid":"B2094757D16FA7F44899","title":"宝都江鲜菜馆","lon":"121.33517","lat":"31.13784","category":"76","category_name":"上海菜","address":"松江区九亭镇涞亭南路153-161号(近伴亭路)"},{"poiid":"B2094654DA64A0FC429E","title":"阿美德格电机(上海)有限公司","lon":"121.32822","lat":"31.13961","category":"263","category_name":"公司","address":""},{"poiid":"B2094654DA64A7F4479D","title":"左邻右里食坊","lon":"121.33022","lat":"31.13416","category":"76","category_name":"上海菜","address":"松江区九亭镇虬泾路74号"},{"poiid":"B2094750D46BABF84492","title":"188艺术家餐厅","lon":"121.323646","lat":"31.138816","category":"72","category_name":"广东菜","address":"松江区九亭镇蒲汇路188号中国核工业园区3号楼(近七宝商圈)"},{"poiid":"B2094654DA64A4F4409F","title":"花园商场","lon":"121.32813","lat":"31.14494","category":"119","category_name":"商场","address":"九亭镇"},{"poiid":"B2094750D16BA1FD439D","title":"七宝古镇","lon":"121.324996","lat":"31.142934","category":"500","category_name":"未知分类","address":"沪亭北路"},{"poiid":"B2094757D16DAAFF4399","title":"新上海花园洋房","lon":"121.33482283","lat":"31.136132156","category":"252","category_name":"楼宇机构","address":"新上海花园洋房(新上海里弄人家三期)位于松江涞亭南路290弄"},{"poiid":"B2094753D76AA0F44698","title":"珑泰餐厅","lon":"121.326023","lat":"31.143882","category":"99","category_name":"泰国／越南菜品餐厅","address":"上海市松江区沪松公路1399弄37号(近沪亭南路)"},{"poiid":"B209475CDA6DA2F84892","title":"Maan coffee","lon":"121.329551","lat":"31.145055","category":"500","category_name":"未知分类","address":"上海市 上海市松江区奥林匹克花园"},{"poiid":"B2094757D16DABFB479D","title":"九亭1号大酒店","lon":"121.32587333","lat":"31.145163751","category":"76","category_name":"上海菜","address":"上海沪松公路1138号"},{"poiid":"B2094654DA64A6FD4592","title":"黎安中学","lon":"121.32955","lat":"31.13642","category":"55","category_name":"中学","address":""},{"poiid":"B2094654DA64A0FC439E","title":"上海市松江区九亭镇经济开发区","lon":"121.336","lat":"31.1429","category":"45","category_name":"产业园区","address":"伴亭东路278弄"},{"poiid":"B2094654DA64A0FC439D","title":"半岛花园(涞亭南路)","lon":"121.33548","lat":"31.13747","category":"47","category_name":"住宅区","address":"涞亭南路169弄1-151号"},{"poiid":"B2094757D465A4FF489B","title":"鼎中鼎澳门豆捞 九亭店","lon":"121.327700054","lat":"31.128700793","category":"247","category_name":"餐饮美食","address":"松江区九亭大街348号(虬泾路口)"},{"poiid":"B2094750D464A6FD449A","title":"捷豹路虎捷润4S","lon":"121.328643","lat":"31.144548","category":"163","category_name":"4S店","address":"沪松公路1179号"},{"poiid":"B2094654DA64A7F54593","title":"世泽中学","lon":"121.32403","lat":"31.14059","category":"55","category_name":"中学","address":"松江区九亭镇"},{"poiid":"B2094655D36CA0FC469F","title":"九亭地铁站","lon":"121.31937","lat":"31.13782","category":"36","category_name":"地铁站","address":"上海轨道交通 九号线 轨交九亭站 9"},{"poiid":"B2094757D06FA3FB459B","title":"奥林匹克花园","lon":"121.334701","lat":"31.152401","category":"47","category_name":"住宅区","address":"松江区九亭镇涞寅路106弄"},{"poiid":"B2094757D068A0FE4798","title":"九久青年城","lon":"121.3191452","lat":"31.137069702","category":"47","category_name":"住宅区","address":"松江区沪松公路1519号(近九新公路)"},{"poiid":"B2094757D06FA7FE479B","title":"九亭大街","lon":"121.32793","lat":"31.128087","category":"500","category_name":"未知分类","address":"上海九亭大街"},{"poiid":"B2094757D06FA6F8479B","title":"中春路地铁站","lon":"121.33836508","lat":"31.149302088","category":"36","category_name":"地铁站","address":"上海轨道交通 九号线 轨交中春路站 9"},{"poiid":"B2094757DB68A4F8479B","title":"农家菜老大 淞沪店","lon":"121.32611989975","lat":"31.142672211327","category":"87","category_name":"特色／地方风味餐厅","address":"松江区沪松公路1229号(近涞亭南路)"},{"poiid":"B2094655D36DA6FD489A","title":"九亭","lon":"121.31957","lat":"31.1377","category":"38","category_name":"公交车站","address":"上海九亭向右转1399号"},{"poiid":"B2094654DB65AAFB4192","title":"上海市九亭医院","lon":"121.31958","lat":"31.13062","category":"162","category_name":"医院","address":"松江区九新公路155号(伴亭路九新公路)"},{"poiid":"B2094757D068A2FB489A","title":"上海奥林匹克花园运动中心","lon":"121.33514404","lat":"31.145084381","category":"260","category_name":"其他","address":"上海沪淞公路"},{"poiid":"B2094757D06AA4FD4193","title":"美丽星城","lon":"121.33378356218","lat":"31.14021382595","category":"500","category_name":"未知分类","address":"上海市松江区沪亭南路188号"},{"poiid":"B2094757D068A6F8439E","title":"甜蜜蜜(贝尚湾店)","lon":"121.31741883","lat":"31.146581382","category":"72","category_name":"广东菜","address":"松江区沪亭北路408号(近涞寅路)"},{"poiid":"B2094654DA64A6FC4499","title":"嘉和阳光城","lon":"121.32285656838","lat":"31.139977282306","category":"47","category_name":"住宅区","address":"上海市松江区九亭镇九新公路58弄"},{"poiid":"B2094757D66BA5FC4598","title":"肯德基 九亭店 KFC","lon":"121.327546054","lat":"31.128605793","category":"68","category_name":"快餐厅","address":"松江区九亭镇九亭大街370号(国亭对面)"},{"poiid":"B2094757D064A6F5449B","title":"亭汇花苑","lon":"121.31575","lat":"31.13809","category":"47","category_name":"住宅区","address":"上海沪松公路1480弄"},{"poiid":"B2094757D069A6FE4199","title":"威尔士健身会所(贝尚湾店)","lon":"121.31969","lat":"31.14069","category":"221","category_name":"健身中心","address":"松江区沪亭北路350弄3号"},{"poiid":"B209475CDA69A2FC429A","title":"漫咖啡上海总部","lon":"121.334213","lat":"31.142847","category":"247","category_name":"餐饮美食","address":"上海市松江区松沪公路1177号佳预大厦1楼"},{"poiid":"B2094757D069A4FB4093","title":"新农庄(九亭店)","lon":"121.319576","lat":"31.137704","category":"76","category_name":"上海菜","address":"松江区沪亭北路308号(近贝尚湾)"},{"poiid":"B2094654DA64A7F5449B","title":"周家小区","lon":"121.33011","lat":"31.140503","category":"47","category_name":"住宅区","address":"浦汇路85弄"},{"poiid":"B2094757D16DA7FD419B","title":"象屿都城","lon":"121.338","lat":"31.1295","category":"47","category_name":"住宅区","address":"上海虬泾路851弄"},{"poiid":"B2094654DB69A6F54299","title":"上岛咖啡(奥林匹克花园店)","lon":"121.32787","lat":"31.14481","category":"65","category_name":"咖啡厅","address":"松江区九亭新城奥林匹克花园旁"},{"poiid":"B2094757D464AAFD469B","title":"普罗旺斯茶餐厅","lon":"121.316969","lat":"31.14645","category":"247","category_name":"餐饮美食","address":"九亭镇沪亭北路488号贝尚湾商业街2楼近莱寅路"},{"poiid":"B2094757D568A4FB4398","title":"雅悦海鲜坊","lon":"121.3332131","lat":"31.14219","category":"72","category_name":"广东菜","address":"松江区九亭镇涞亭南路101弄(蒲汇路涞亭南路)"},{"poiid":"B2094654DA64A7F4489E","title":"三品香","lon":"121.33066","lat":"31.13346","category":"70","category_name":"综合酒楼","address":"松江区九亭镇虬泾路102号"},{"poiid":"B2094654DA64A7F5439C","title":"绿松超市","lon":"121.32868","lat":"31.13983","category":"118","category_name":"超级市场","address":""},{"poiid":"B2094757D06BA7FC409D","title":"越由大酒店 九亭店","lon":"121.31691","lat":"31.14572","category":"76","category_name":"上海菜","address":"松江区沪亭北路348号贝尚坊商业广场(近地铁九号线九亭站)"},{"poiid":"B2094654DB64A2FE419A","title":"天宝恬苑","lon":"121.332","lat":"31.1365","category":"47","category_name":"住宅区","address":"上海市松江区九亭镇沪亭南路71弄"},{"poiid":"B209475CD368A7FA439C","title":"婷福农家乐 九亭店","lon":"121.32712","lat":"31.14338","category":"87","category_name":"特色／地方风味餐厅","address":"沪松公路1229号(近涞亭南路)"},{"poiid":"B2094654DA64A4FF409B","title":"翠亭别墅","lon":"121.32","lat":"31.1437","category":"47","category_name":"住宅区","address":"上海市九杜路55弄"},{"poiid":"B2094757D169A3F84299","title":"东风标致4S","lon":"121.32953199","lat":"31.144116222","category":"158","category_name":"汽车销售","address":"上海沪松公路1225号"},{"poiid":"B2094655D26BABF84398","title":"丽景苑","lon":"121.32253484791","lat":"31.141031835893","category":"47","category_name":"住宅区","address":"上海市松江区九亭镇九新公路28弄"},{"poiid":"B209475CD56CA1F94699","title":"maan coffee","lon":"121.329742","lat":"31.143293","category":"500","category_name":"未知分类","address":"上海市 松江区沪松公路"},{"poiid":"B2094757D16CA5FA4799","title":"奇通别克","lon":"121.32966842","lat":"31.144245141","category":"158","category_name":"汽车销售","address":"上海沪松公路1225号"},{"poiid":"B2094654DA64A7FB469B","title":"上海诗林","lon":"121.33868","lat":"31.13337","category":"47","category_name":"住宅区","address":"上海市松江区九亭镇九亭大街路181号"},{"poiid":"B2094654DA64A7F44199","title":"九亭明珠苑(九亭大街)","lon":"121.3337","lat":"31.1314","category":"47","category_name":"住宅区","address":""},{"poiid":"B2094757D16FA7F44899","title":"宝都江鲜菜馆","lon":"121.33517","lat":"31.13784","category":"76","category_name":"上海菜","address":"松江区九亭镇涞亭南路153-161号(近伴亭路)"},{"poiid":"B2094654DA64A0FC429E","title":"阿美德格电机(上海)有限公司","lon":"121.32822","lat":"31.13961","category":"263","category_name":"公司","address":""},{"poiid":"B2094654DA64A7F4479D","title":"左邻右里食坊","lon":"121.33022","lat":"31.13416","category":"76","category_name":"上海菜","address":"松江区九亭镇虬泾路74号"},{"poiid":"B2094750D46BABF84492","title":"188艺术家餐厅","lon":"121.323646","lat":"31.138816","category":"72","category_name":"广东菜","address":"松江区九亭镇蒲汇路188号中国核工业园区3号楼(近七宝商圈)"},{"poiid":"B2094654DA64A4F4409F","title":"花园商场","lon":"121.32813","lat":"31.14494","category":"119","category_name":"商场","address":"九亭镇"},{"poiid":"B2094750D16BA1FD439D","title":"七宝古镇","lon":"121.324996","lat":"31.142934","category":"500","category_name":"未知分类","address":"沪亭北路"},{"poiid":"B2094757D16DAAFF4399","title":"新上海花园洋房","lon":"121.33482283","lat":"31.136132156","category":"252","category_name":"楼宇机构","address":"新上海花园洋房(新上海里弄人家三期)位于松江涞亭南路290弄"},{"poiid":"B2094753D76AA0F44698","title":"珑泰餐厅","lon":"121.326023","lat":"31.143882","category":"99","category_name":"泰国／越南菜品餐厅","address":"上海市松江区沪松公路1399弄37号(近沪亭南路)"},{"poiid":"B209475CDA6DA2F84892","title":"Maan coffee","lon":"121.329551","lat":"31.145055","category":"500","category_name":"未知分类","address":"上海市 上海市松江区奥林匹克花园"},{"poiid":"B2094757D16DABFB479D","title":"九亭1号大酒店","lon":"121.32587333","lat":"31.145163751","category":"76","category_name":"上海菜","address":"上海沪松公路1138号"},{"poiid":"B2094654DA64A6FD4592","title":"黎安中学","lon":"121.32955","lat":"31.13642","category":"55","category_name":"中学","address":""},{"poiid":"B2094654DA64A0FC439E","title":"上海市松江区九亭镇经济开发区","lon":"121.336","lat":"31.1429","category":"45","category_name":"产业园区","address":"伴亭东路278弄"},{"poiid":"B2094654DA64A0FC439D","title":"半岛花园(涞亭南路)","lon":"121.33548","lat":"31.13747","category":"47","category_name":"住宅区","address":"涞亭南路169弄1-151号"},{"poiid":"B2094757D465A4FF489B","title":"鼎中鼎澳门豆捞 九亭店","lon":"121.327700054","lat":"31.128700793","category":"247","category_name":"餐饮美食","address":"松江区九亭大街348号(虬泾路口)"},{"poiid":"B2094750D464A6FD449A","title":"捷豹路虎捷润4S","lon":"121.328643","lat":"31.144548","category":"163","category_name":"4S店","address":"沪松公路1179号"},{"poiid":"B2094654DA64A7F54593","title":"世泽中学","lon":"121.32403","lat":"31.14059","category":"55","category_name":"中学","address":"松江区九亭镇"},{"poiid":"B2094655D36CA0FC469F","title":"九亭地铁站","lon":"121.31937","lat":"31.13782","category":"36","category_name":"地铁站","address":"上海轨道交通 九号线 轨交九亭站 9"},{"poiid":"B2094757D06FA3FB459B","title":"奥林匹克花园","lon":"121.334701","lat":"31.152401","category":"47","category_name":"住宅区","address":"松江区九亭镇涞寅路106弄"},{"poiid":"B2094757D068A0FE4798","title":"九久青年城","lon":"121.3191452","lat":"31.137069702","category":"47","category_name":"住宅区","address":"松江区沪松公路1519号(近九新公路)"},{"poiid":"B2094757D06FA7FE479B","title":"九亭大街","lon":"121.32793","lat":"31.128087","category":"500","category_name":"未知分类","address":"上海九亭大街"},{"poiid":"B2094757D06FA6F8479B","title":"中春路地铁站","lon":"121.33836508","lat":"31.149302088","category":"36","category_name":"地铁站","address":"上海轨道交通 九号线 轨交中春路站 9"},{"poiid":"B2094757DB68A4F8479B","title":"农家菜老大 淞沪店","lon":"121.32611989975","lat":"31.142672211327","category":"87","category_name":"特色／地方风味餐厅","address":"松江区沪松公路1229号(近涞亭南路)"},{"poiid":"B2094655D36DA6FD489A","title":"九亭","lon":"121.31957","lat":"31.1377","category":"38","category_name":"公交车站","address":"上海九亭向右转1399号"},{"poiid":"B2094654DB65AAFB4192","title":"上海市九亭医院","lon":"121.31958","lat":"31.13062","category":"162","category_name":"医院","address":"松江区九新公路155号(伴亭路九新公路)"},{"poiid":"B2094757D068A2FB489A","title":"上海奥林匹克花园运动中心","lon":"121.33514404","lat":"31.145084381","category":"260","category_name":"其他","address":"上海沪淞公路"},{"poiid":"B2094757D06AA4FD4193","title":"美丽星城","lon":"121.33378356218","lat":"31.14021382595","category":"500","category_name":"未知分类","address":"上海市松江区沪亭南路188号"},{"poiid":"B2094757D068A6F8439E","title":"甜蜜蜜(贝尚湾店)","lon":"121.31741883","lat":"31.146581382","category":"72","category_name":"广东菜","address":"松江区沪亭北路408号(近涞寅路)"},{"poiid":"B2094654DA64A6FC4499","title":"嘉和阳光城","lon":"121.32285656838","lat":"31.139977282306","category":"47","category_name":"住宅区","address":"上海市松江区九亭镇九新公路58弄"},{"poiid":"B2094757D66BA5FC4598","title":"肯德基 九亭店 KFC","lon":"121.327546054","lat":"31.128605793","category":"68","category_name":"快餐厅","address":"松江区九亭镇九亭大街370号(国亭对面)"},{"poiid":"B2094757D064A6F5449B","title":"亭汇花苑","lon":"121.31575","lat":"31.13809","category":"47","category_name":"住宅区","address":"上海沪松公路1480弄"},{"poiid":"B2094757D069A6FE4199","title":"威尔士健身会所(贝尚湾店)","lon":"121.31969","lat":"31.14069","category":"221","category_name":"健身中心","address":"松江区沪亭北路350弄3号"},{"poiid":"B209475CDA69A2FC429A","title":"漫咖啡上海总部","lon":"121.334213","lat":"31.142847","category":"247","category_name":"餐饮美食","address":"上海市松江区松沪公路1177号佳预大厦1楼"},{"poiid":"B2094757D069A4FB4093","title":"新农庄(九亭店)","lon":"121.319576","lat":"31.137704","category":"76","category_name":"上海菜","address":"松江区沪亭北路308号(近贝尚湾)"},{"poiid":"B2094654DA64A7F5449B","title":"周家小区","lon":"121.33011","lat":"31.140503","category":"47","category_name":"住宅区","address":"浦汇路85弄"},{"poiid":"B2094757D16DA7FD419B","title":"象屿都城","lon":"121.338","lat":"31.1295","category":"47","category_name":"住宅区","address":"上海虬泾路851弄"},{"poiid":"B2094654DB69A6F54299","title":"上岛咖啡(奥林匹克花园店)","lon":"121.32787","lat":"31.14481","category":"65","category_name":"咖啡厅","address":"松江区九亭新城奥林匹克花园旁"},{"poiid":"B2094757D464AAFD469B","title":"普罗旺斯茶餐厅","lon":"121.316969","lat":"31.14645","category":"247","category_name":"餐饮美食","address":"九亭镇沪亭北路488号贝尚湾商业街2楼近莱寅路"},{"poiid":"B2094757D568A4FB4398","title":"雅悦海鲜坊","lon":"121.3332131","lat":"31.14219","category":"72","category_name":"广东菜","address":"松江区九亭镇涞亭南路101弄(蒲汇路涞亭南路)"},{"poiid":"B2094654DA64A7F4489E","title":"三品香","lon":"121.33066","lat":"31.13346","category":"70","category_name":"综合酒楼","address":"松江区九亭镇虬泾路102号"},{"poiid":"B2094654DA64A7F5439C","title":"绿松超市","lon":"121.32868","lat":"31.13983","category":"118","category_name":"超级市场","address":""},{"poiid":"B2094757D06BA7FC409D","title":"越由大酒店 九亭店","lon":"121.31691","lat":"31.14572","category":"76","category_name":"上海菜","address":"松江区沪亭北路348号贝尚坊商业广场(近地铁九号线九亭站)"},{"poiid":"B2094654DB64A2FE419A","title":"天宝恬苑","lon":"121.332","lat":"31.1365","category":"47","category_name":"住宅区","address":"上海市松江区九亭镇沪亭南路71弄"},{"poiid":"B209475CD368A7FA439C","title":"婷福农家乐 九亭店","lon":"121.32712","lat":"31.14338","category":"87","category_name":"特色／地方风味餐厅","address":"沪松公路1229号(近涞亭南路)"},{"poiid":"B2094654DA64A4FF409B","title":"翠亭别墅","lon":"121.32","lat":"31.1437","category":"47","category_name":"住宅区","address":"上海市九杜路55弄"},{"poiid":"B2094757D169A3F84299","title":"东风标致4S","lon":"121.32953199","lat":"31.144116222","category":"158","category_name":"汽车销售","address":"上海沪松公路1225号"},{"poiid":"B2094655D26BABF84398","title":"丽景苑","lon":"121.32253484791","lat":"31.141031835893","category":"47","category_name":"住宅区","address":"上海市松江区九亭镇九新公路28弄"},{"poiid":"B209475CD56CA1F94699","title":"maan coffee","lon":"121.329742","lat":"31.143293","category":"500","category_name":"未知分类","address":"上海市 松江区沪松公路"},{"poiid":"B2094757D16CA5FA4799","title":"奇通别克","lon":"121.32966842","lat":"31.144245141","category":"158","category_name":"汽车销售","address":"上海沪松公路1225号"},{"poiid":"B2094654DA64A7FB469B","title":"上海诗林","lon":"121.33868","lat":"31.13337","category":"47","category_name":"住宅区","address":"上海市松江区九亭镇九亭大街路181号"},{"poiid":"B2094654DA64A7F44199","title":"九亭明珠苑(九亭大街)","lon":"121.3337","lat":"31.1314","category":"47","category_name":"住宅区","address":""},{"poiid":"B2094757D16FA7F44899","title":"宝都江鲜菜馆","lon":"121.33517","lat":"31.13784","category":"76","category_name":"上海菜","address":"松江区九亭镇涞亭南路153-161号(近伴亭路)"},{"poiid":"B2094654DA64A0FC429E","title":"阿美德格电机(上海)有限公司","lon":"121.32822","lat":"31.13961","category":"263","category_name":"公司","address":""},{"poiid":"B2094654DA64A7F4479D","title":"左邻右里食坊","lon":"121.33022","lat":"31.13416","category":"76","category_name":"上海菜","address":"松江区九亭镇虬泾路74号"},{"poiid":"B2094750D46BABF84492","title":"188艺术家餐厅","lon":"121.323646","lat":"31.138816","category":"72","category_name":"广东菜","address":"松江区九亭镇蒲汇路188号中国核工业园区3号楼(近七宝商圈)"},{"poiid":"B2094654DA64A4F4409F","title":"花园商场","lon":"121.32813","lat":"31.14494","category":"119","category_name":"商场","address":"九亭镇"},{"poiid":"B2094750D16BA1FD439D","title":"七宝古镇","lon":"121.324996","lat":"31.142934","category":"500","category_name":"未知分类","address":"沪亭北路"},{"poiid":"B2094757D16DAAFF4399","title":"新上海花园洋房","lon":"121.33482283","lat":"31.136132156","category":"252","category_name":"楼宇机构","address":"新上海花园洋房(新上海里弄人家三期)位于松江涞亭南路290弄"},{"poiid":"B2094753D76AA0F44698","title":"珑泰餐厅","lon":"121.326023","lat":"31.143882","category":"99","category_name":"泰国／越南菜品餐厅","address":"上海市松江区沪松公路1399弄37号(近沪亭南路)"},{"poiid":"B209475CDA6DA2F84892","title":"Maan coffee","lon":"121.329551","lat":"31.145055","category":"500","category_name":"未知分类","address":"上海市 上海市松江区奥林匹克花园"},{"poiid":"B2094757D16DABFB479D","title":"九亭1号大酒店","lon":"121.32587333","lat":"31.145163751","category":"76","category_name":"上海菜","address":"上海沪松公路1138号"},{"poiid":"B2094654DA64A6FD4592","title":"黎安中学","lon":"121.32955","lat":"31.13642","category":"55","category_name":"中学","address":""},{"poiid":"B2094654DA64A0FC439E","title":"上海市松江区九亭镇经济开发区","lon":"121.336","lat":"31.1429","category":"45","category_name":"产业园区","address":"伴亭东路278弄"},{"poiid":"B2094654DA64A0FC439D","title":"半岛花园(涞亭南路)","lon":"121.33548","lat":"31.13747","category":"47","category_name":"住宅区","address":"涞亭南路169弄1-151号"},{"poiid":"B2094757D465A4FF489B","title":"鼎中鼎澳门豆捞 九亭店","lon":"121.327700054","lat":"31.128700793","category":"247","category_name":"餐饮美食","address":"松江区九亭大街348号(虬泾路口)"},{"poiid":"B2094750D464A6FD449A","title":"捷豹路虎捷润4S","lon":"121.328643","lat":"31.144548","category":"163","category_name":"4S店","address":"沪松公路1179号"},{"poiid":"B2094654DA64A7F54593","title":"世泽中学","lon":"121.32403","lat":"31.14059","category":"55","category_name":"中学","address":"松江区九亭镇"}]