[{"poiid":"B2094654DA6DA4F44792","title":"复旦大学附属眼耳鼻喉科医院(汾阳路总院)","lon":"121.45335","lat":"31.20955","category":"191","category_name":"科研机构","address":"上海徐汇区汾阳路83号(太原路口)"},{"poiid":"B2094655D26EA4FD419B","title":"宝莱纳餐厅(徐汇店)","lon":"121.45233","lat":"31.20984","category":"260","category_name":"其他","address":"徐汇区汾阳路150号(近桃江路)"},{"poiid":"B2094757D06FA7FF479A","title":"仙炙轩(汾阳路店)","lon":"121.452714142","lat":"31.2095961951","category":"269","category_name":"烧烤","address":"徐汇区汾阳路150号(近桃江路)"},{"poiid":"B2094753D76FAAFA449C","title":"上海滩国泰旗舰店","lon":"121.466011","lat":"31.216125","category":"249","category_name":"购物服务","address":"淮海中路868号"},{"poiid":"B209475CD564A7F84292","title":"上海滩新天地店","lon":"121.47463","lat":"31.22164","category":"119","category_name":"商场","address":"\"太仓路181弄新天地北里15号\r\n\""},{"poiid":"B209475CD564A7F8439E","title":"上海滩中信泰富店","lon":"121.45602","lat":"31.22851","category":"119","category_name":"商场","address":"\"南京西路1168号中信泰富广场，店铺号221.\r\n\""},{"poiid":"B2094757D06EAAF9409E","title":"常熟路地铁站","lon":"121.451084","lat":"31.213396","category":"36","category_name":"地铁站","address":"上海轨道交通 一号线 七号线 轨交常熟路站 1 7"},{"poiid":"B2094757D06FA2FA4999","title":"Colabo(衡山店)","lon":"121.451678867","lat":"31.2094187393","category":"94","category_name":"西餐厅","address":"徐汇区汾阳路156号(近桃江路)"},{"poiid":"B2094757D06EAAFB4593","title":"老麦咖啡馆","lon":"121.450176054","lat":"31.209116793","category":"260","category_name":"其他","address":"徐汇区桃江路25号甲(桃江路宝庆路路口,近衡山路)"},{"poiid":"B2094654DB65A4F4489E","title":"星巴克(爱美高大厦店)","lon":"121.449713","lat":"31.212659","category":"65","category_name":"咖啡厅","address":"徐汇区淮海中路1325号爱美高大厦1楼103室(近宝庆路)"},{"poiid":"B2094757D06BA7F54593","title":"五官科医院特约耳鼻喉科门诊","lon":"121.453332","lat":"31.20965","category":"162","category_name":"医院","address":"上海徐汇区汾阳路83号3楼(太原路口)"},{"poiid":"B2094654DB69A5F9449A","title":"星巴克(汾阳路店)","lon":"121.4530533","lat":"31.2097278","category":"65","category_name":"咖啡厅","address":"徐汇区汾阳路138号1楼03单元(太原路)"},{"poiid":"B2094654DA6DABFD4292","title":"千秋膳房(宝庆路)","lon":"121.45014","lat":"31.21041","category":"91","category_name":"台湾菜","address":"徐汇区宝庆路15号(复兴中路口)"},{"poiid":"B2094757D16DA7FF479A","title":"宝莱纳","lon":"121.45173458","lat":"31.208893013","category":"249","category_name":"购物服务","address":"上海汾阳路138号"},{"poiid":"B2094757D068A1FE449D","title":"复旦大学附属眼耳鼻喉科医院(宝庆路分院)","lon":"121.450369913","lat":"31.2102095153","category":"162","category_name":"医院","address":"徐汇区宝庆路19号(近淮海中路)"},{"poiid":"B2094757D06FA2F8489B","title":"MT Club(淮海路店)","lon":"121.44947125","lat":"31.211846925","category":"260","category_name":"其他","address":"徐汇区淮海中路1329号云海大厦3楼(近常熟路)"},{"poiid":"B2094753D164A6FF459A","title":"鼎王无老养生锅","lon":"121.449942","lat":"31.20931","category":"500","category_name":"未知分类","address":"上海市 衡山路2号甲香樟花园内"},{"poiid":"B2094757D069A3F54799","title":"El Patio","lon":"121.45368458","lat":"31.210532045","category":"94","category_name":"西餐厅","address":"徐汇区汾阳路110号(近太原路)"},{"poiid":"B2094757D069A3FA429E","title":"Aura Restaurant","lon":"121.45183358","lat":"31.212174077","category":"500","category_name":"未知分类","address":"上海市 汾阳路 复兴中路"},{"poiid":"B2094757D16AA4FD409B","title":"虹桥火车站(上海西站)地铁站","lon":"121.449664786","lat":"31.2127608894","category":"36","category_name":"地铁站","address":"上海轨道交通二、十号线虹桥火车站"},{"poiid":"B2094757D064A3FA4792","title":"KOTA'S KITCHEN(永嘉路店)","lon":"121.44951","lat":"31.21128","category":"269","category_name":"烧烤","address":"徐汇区永嘉路335号(近襄阳路)"},{"poiid":"B2094757D06FA6FC439D","title":"宝莱纳贝可利面包","lon":"121.45267563","lat":"31.209468642","category":"67","category_name":"甜品店","address":"徐汇区汾阳路150号(近桃江路)"},{"poiid":"B2094654DA6DA4FB419E","title":"和平官邸","lon":"121.45141","lat":"31.20936","category":"76","category_name":"上海菜","address":"徐汇区汾阳路158号(近桃江路)"},{"poiid":"B2094750DB6DA6FE479E","title":"Maya Club","lon":"121.44942","lat":"31.21178","category":"260","category_name":"其他","address":"徐汇区淮海中路1329号云海大厦3楼(宝庆路口)"},{"poiid":"B2094757D06AA2F5409D","title":"鲜芋仙(岳阳店)","lon":"121.451889586","lat":"31.2088120122","category":"67","category_name":"甜品店","address":"徐汇区岳阳路1号(近桃江路东平路)"},{"poiid":"B2094757D06BA7F9439B","title":"Bella mia","lon":"121.450006","lat":"31.210957","category":"94","category_name":"西餐厅","address":"徐汇区宝庆路10号(复兴中路口)"},{"poiid":"B2094757D06FA4F84599","title":"上方花园","lon":"121.45129","lat":"31.212694","category":"47","category_name":"住宅区","address":"淮海中路1285弄1-77号"},{"poiid":"B2094757D16AABF9459E","title":"PAULANER","lon":"121.450187586","lat":"31.2119282731","category":"500","category_name":"未知分类","address":"上海汾阳路"},{"poiid":"B2094750D26EA7FE479D","title":"人民广场地铁站","lon":"121.452407","lat":"31.213254","category":"36","category_name":"地铁站","address":null},{"poiid":"B2094757D068A3FC4398","title":"轻科大厦","lon":"121.452919","lat":"31.209844589","category":"46","category_name":"楼宇","address":"西城区金融街A区3号地南部"},{"poiid":"B2094757D064A5F54999","title":"五官科医院宝庆分部","lon":"121.45008622","lat":"31.210351972","category":"162","category_name":"医院","address":"上海宝庆路"},{"poiid":"B2094753D464AAF8489D","title":"上海交响乐团音乐厅","lon":"121.451896","lat":"31.21169","category":"500","category_name":"未知分类","address":"复兴中路1380号"},{"poiid":"B2094757D06BAAF44598","title":"尔苑咖啡厅 Anna Maya Vegetarian Cafe","lon":"121.450652054","lat":"31.208991793","category":"89","category_name":"中式素餐馆","address":"徐汇区桃江路3号(近宝庆路)"},{"poiid":"B2094757D069A4FD4892","title":"东篱文艺沙龙","lon":"121.45067","lat":"31.2104","category":"179","category_name":"音乐厅","address":"徐汇区复兴中路1363弄1号104室(近宝庆路)"},{"poiid":"B2094757D66BABF9479C","title":"Goga","lon":"121.45167517625","lat":"31.208671976401","category":"94","category_name":"西餐厅","address":"徐汇区岳阳路1号(近东平路)"},{"poiid":"B2094654DA6DAAFB4098","title":"湾仔中国餐馆宝庆路店","lon":"121.44974","lat":"31.21117","category":"71","category_name":"四川菜","address":"徐汇区宝庆路10号(近复兴中路)"},{"poiid":"B2094757D068A4F5449C","title":"淮海路宝庆路口","lon":"121.449333191","lat":"31.2118606567","category":"260","category_name":"其他","address":"上海淮海路1329号"},{"poiid":"B2094654DA6DA4F44899","title":"上海市红十字眼耳鼻喉科医院","lon":"121.45334","lat":"31.20954","category":"162","category_name":"医院","address":"汾阳路83"},{"poiid":"B2094654DA6DAAFB429A","title":"玛雅俱乐部","lon":"121.44926763864044","lat":"31.21184508914139","category":"248","category_name":"生活娱乐","address":"淮海中路1329号云海大厦4层"},{"poiid":"B2094757D06BA2F9409C","title":"正圆烩面","lon":"121.44937258","lat":"31.211990074","category":"68","category_name":"快餐厅","address":"徐汇区乌鲁木齐中路247号(近五原路)"},{"poiid":"B2094654DA6DA4FB4199","title":"宝轻大厦","lon":"121.45123","lat":"31.20942","category":"46","category_name":"楼宇","address":"宣武区南横街东口"},{"poiid":"B209475CD16DABF84899","title":"KOTA'S KITCHEN 淮海中路店","lon":"121.44951","lat":"31.21128","category":"95","category_name":"日本料理","address":"淮海中路1333号(近宝庆路)"},{"poiid":"B2094757D069A7FC489F","title":"十号名邸","lon":"121.45163243","lat":"31.212480733","category":"47","category_name":"住宅区","address":"宝庆路10号2-4楼近复兴中路"},{"poiid":"B2094655D26AA0F94699","title":"地铁常熟路站","lon":"121.45107","lat":"31.2134","category":"36","category_name":"地铁站","address":""},{"poiid":"B2094753D569A2FC469F","title":"鼎王无老锅","lon":"121.450019","lat":"31.209609","category":"247","category_name":"餐饮美食","address":"上海市 衡山路2号甲香樟花园内(近桃江路)"},{"poiid":"B2094750DA68A5FA459B","title":"时光花园咖啡","lon":"121.45081181083674","lat":"31.21339009806651","category":"65","category_name":"咖啡厅","address":"徐汇区淮海中路1285弄上方花园51号1楼(近华亭路)"},{"poiid":"B2094655D36CA3F54098","title":"illy","lon":"121.45035","lat":"31.20926","category":"65","category_name":"咖啡厅","address":"徐汇区安福路(近武康路)"},{"poiid":"B2094757D568A6FD4899","title":"十号名邸中餐厅","lon":"121.44970595","lat":"31.21082601","category":"76","category_name":"上海菜","address":"徐汇区宝庆路10号2-4楼(复兴中路口)"},{"poiid":"B2094757D165A0FC479B","title":"庆余别墅","lon":"121.45207540812","lat":"31.210259460525","category":"47","category_name":"住宅区","address":"徐汇区衡山路58弄3号(近高安路)"},{"poiid":"B2094757D66DA4FF479F","title":"御香粥","lon":"121.450179586","lat":"31.2125590854","category":"68","category_name":"快餐厅","address":"徐汇区淮海中路1323号(近宝庆路)"},{"poiid":"B2094654DA6DA4F44792","title":"复旦大学附属眼耳鼻喉科医院(汾阳路总院)","lon":"121.45335","lat":"31.20955","category":"191","category_name":"科研机构","address":"上海徐汇区汾阳路83号(太原路口)"},{"poiid":"B2094655D26EA4FD419B","title":"宝莱纳餐厅(徐汇店)","lon":"121.45233","lat":"31.20984","category":"260","category_name":"其他","address":"徐汇区汾阳路150号(近桃江路)"},{"poiid":"B2094757D06FA7FF479A","title":"仙炙轩(汾阳路店)","lon":"121.452714142","lat":"31.2095961951","category":"269","category_name":"烧烤","address":"徐汇区汾阳路150号(近桃江路)"},{"poiid":"B2094753D76FAAFA449C","title":"上海滩国泰旗舰店","lon":"121.466011","lat":"31.216125","category":"249","category_name":"购物服务","address":"淮海中路868号"},{"poiid":"B209475CD564A7F84292","title":"上海滩新天地店","lon":"121.47463","lat":"31.22164","category":"119","category_name":"商场","address":"\"太仓路181弄新天地北里15号\r\n\""},{"poiid":"B209475CD564A7F8439E","title":"上海滩中信泰富店","lon":"121.45602","lat":"31.22851","category":"119","category_name":"商场","address":"\"南京西路1168号中信泰富广场，店铺号221.\r\n\""},{"poiid":"B2094757D06EAAF9409E","title":"常熟路地铁站","lon":"121.451084","lat":"31.213396","category":"36","category_name":"地铁站","address":"上海轨道交通 一号线 七号线 轨交常熟路站 1 7"},{"poiid":"B2094757D06FA2FA4999","title":"Colabo(衡山店)","lon":"121.451678867","lat":"31.2094187393","category":"94","category_name":"西餐厅","address":"徐汇区汾阳路156号(近桃江路)"},{"poiid":"B2094757D06EAAFB4593","title":"老麦咖啡馆","lon":"121.450176054","lat":"31.209116793","category":"260","category_name":"其他","address":"徐汇区桃江路25号甲(桃江路宝庆路路口,近衡山路)"},{"poiid":"B2094654DB65A4F4489E","title":"星巴克(爱美高大厦店)","lon":"121.449713","lat":"31.212659","category":"65","category_name":"咖啡厅","address":"徐汇区淮海中路1325号爱美高大厦1楼103室(近宝庆路)"},{"poiid":"B2094757D06BA7F54593","title":"五官科医院特约耳鼻喉科门诊","lon":"121.453332","lat":"31.20965","category":"162","category_name":"医院","address":"上海徐汇区汾阳路83号3楼(太原路口)"},{"poiid":"B2094654DB69A5F9449A","title":"星巴克(汾阳路店)","lon":"121.4530533","lat":"31.2097278","category":"65","category_name":"咖啡厅","address":"徐汇区汾阳路138号1楼03单元(太原路)"},{"poiid":"B2094654DA6DABFD4292","title":"千秋膳房(宝庆路)","lon":"121.45014","lat":"31.21041","category":"91","category_name":"台湾菜","address":"徐汇区宝庆路15号(复兴中路口)"},{"poiid":"B2094757D16DA7FF479A","title":"宝莱纳","lon":"121.45173458","lat":"31.208893013","category":"249","category_name":"购物服务","address":"上海汾阳路138号"},{"poiid":"B2094757D068A1FE449D","title":"复旦大学附属眼耳鼻喉科医院(宝庆路分院)","lon":"121.450369913","lat":"31.2102095153","category":"162","category_name":"医院","address":"徐汇区宝庆路19号(近淮海中路)"},{"poiid":"B2094757D06FA2F8489B","title":"MT Club(淮海路店)","lon":"121.44947125","lat":"31.211846925","category":"260","category_name":"其他","address":"徐汇区淮海中路1329号云海大厦3楼(近常熟路)"},{"poiid":"B2094753D164A6FF459A","title":"鼎王无老养生锅","lon":"121.449942","lat":"31.20931","category":"500","category_name":"未知分类","address":"上海市 衡山路2号甲香樟花园内"},{"poiid":"B2094757D069A3F54799","title":"El Patio","lon":"121.45368458","lat":"31.210532045","category":"94","category_name":"西餐厅","address":"徐汇区汾阳路110号(近太原路)"},{"poiid":"B2094757D069A3FA429E","title":"Aura Restaurant","lon":"121.45183358","lat":"31.212174077","category":"500","category_name":"未知分类","address":"上海市 汾阳路 复兴中路"},{"poiid":"B2094757D16AA4FD409B","title":"虹桥火车站(上海西站)地铁站","lon":"121.449664786","lat":"31.2127608894","category":"36","category_name":"地铁站","address":"上海轨道交通二、十号线虹桥火车站"},{"poiid":"B2094757D064A3FA4792","title":"KOTA'S KITCHEN(永嘉路店)","lon":"121.44951","lat":"31.21128","category":"269","category_name":"烧烤","address":"徐汇区永嘉路335号(近襄阳路)"},{"poiid":"B2094757D06FA6FC439D","title":"宝莱纳贝可利面包","lon":"121.45267563","lat":"31.209468642","category":"67","category_name":"甜品店","address":"徐汇区汾阳路150号(近桃江路)"},{"poiid":"B2094654DA6DA4FB419E","title":"和平官邸","lon":"121.45141","lat":"31.20936","category":"76","category_name":"上海菜","address":"徐汇区汾阳路158号(近桃江路)"},{"poiid":"B2094750DB6DA6FE479E","title":"Maya Club","lon":"121.44942","lat":"31.21178","category":"260","category_name":"其他","address":"徐汇区淮海中路1329号云海大厦3楼(宝庆路口)"},{"poiid":"B2094757D06AA2F5409D","title":"鲜芋仙(岳阳店)","lon":"121.451889586","lat":"31.2088120122","category":"67","category_name":"甜品店","address":"徐汇区岳阳路1号(近桃江路东平路)"},{"poiid":"B2094757D06BA7F9439B","title":"Bella mia","lon":"121.450006","lat":"31.210957","category":"94","category_name":"西餐厅","address":"徐汇区宝庆路10号(复兴中路口)"},{"poiid":"B2094757D06FA4F84599","title":"上方花园","lon":"121.45129","lat":"31.212694","category":"47","category_name":"住宅区","address":"淮海中路1285弄1-77号"},{"poiid":"B2094757D16AABF9459E","title":"PAULANER","lon":"121.450187586","lat":"31.2119282731","category":"500","category_name":"未知分类","address":"上海汾阳路"},{"poiid":"B2094750D26EA7FE479D","title":"人民广场地铁站","lon":"121.452407","lat":"31.213254","category":"36","category_name":"地铁站","address":null},{"poiid":"B2094757D068A3FC4398","title":"轻科大厦","lon":"121.452919","lat":"31.209844589","category":"46","category_name":"楼宇","address":"西城区金融街A区3号地南部"},{"poiid":"B2094757D064A5F54999","title":"五官科医院宝庆分部","lon":"121.45008622","lat":"31.210351972","category":"162","category_name":"医院","address":"上海宝庆路"},{"poiid":"B2094753D464AAF8489D","title":"上海交响乐团音乐厅","lon":"121.451896","lat":"31.21169","category":"500","category_name":"未知分类","address":"复兴中路1380号"},{"poiid":"B2094757D06BAAF44598","title":"尔苑咖啡厅 Anna Maya Vegetarian Cafe","lon":"121.450652054","lat":"31.208991793","category":"89","category_name":"中式素餐馆","address":"徐汇区桃江路3号(近宝庆路)"},{"poiid":"B2094757D069A4FD4892","title":"东篱文艺沙龙","lon":"121.45067","lat":"31.2104","category":"179","category_name":"音乐厅","address":"徐汇区复兴中路1363弄1号104室(近宝庆路)"},{"poiid":"B2094757D66BABF9479C","title":"Goga","lon":"121.45167517625","lat":"31.208671976401","category":"94","category_name":"西餐厅","address":"徐汇区岳阳路1号(近东平路)"},{"poiid":"B2094654DA6DAAFB4098","title":"湾仔中国餐馆宝庆路店","lon":"121.44974","lat":"31.21117","category":"71","category_name":"四川菜","address":"徐汇区宝庆路10号(近复兴中路)"},{"poiid":"B2094757D068A4F5449C","title":"淮海路宝庆路口","lon":"121.449333191","lat":"31.2118606567","category":"260","category_name":"其他","address":"上海淮海路1329号"},{"poiid":"B2094654DA6DA4F44899","title":"上海市红十字眼耳鼻喉科医院","lon":"121.45334","lat":"31.20954","category":"162","category_name":"医院","address":"汾阳路83"},{"poiid":"B2094654DA6DAAFB429A","title":"玛雅俱乐部","lon":"121.44926763864044","lat":"31.21184508914139","category":"248","category_name":"生活娱乐","address":"淮海中路1329号云海大厦4层"},{"poiid":"B2094757D06BA2F9409C","title":"正圆烩面","lon":"121.44937258","lat":"31.211990074","category":"68","category_name":"快餐厅","address":"徐汇区乌鲁木齐中路247号(近五原路)"},{"poiid":"B2094654DA6DA4FB4199","title":"宝轻大厦","lon":"121.45123","lat":"31.20942","category":"46","category_name":"楼宇","address":"宣武区南横街东口"},{"poiid":"B209475CD16DABF84899","title":"KOTA'S KITCHEN 淮海中路店","lon":"121.44951","lat":"31.21128","category":"95","category_name":"日本料理","address":"淮海中路1333号(近宝庆路)"},{"poiid":"B2094757D069A7FC489F","title":"十号名邸","lon":"121.45163243","lat":"31.212480733","category":"47","category_name":"住宅区","address":"宝庆路10号2-4楼近复兴中路"},{"poiid":"B2094655D26AA0F94699","title":"地铁常熟路站","lon":"121.45107","lat":"31.2134","category":"36","category_name":"地铁站","address":""},{"poiid":"B2094753D569A2FC469F","title":"鼎王无老锅","lon":"121.450019","lat":"31.209609","category":"247","category_name":"餐饮美食","address":"上海市 衡山路2号甲香樟花园内(近桃江路)"},{"poiid":"B2094750DA68A5FA459B","title":"时光花园咖啡","lon":"121.45081181083674","lat":"31.21339009806651","category":"65","category_name":"咖啡厅","address":"徐汇区淮海中路1285弄上方花园51号1楼(近华亭路)"},{"poiid":"B2094655D36CA3F54098","title":"illy","lon":"121.45035","lat":"31.20926","category":"65","category_name":"咖啡厅","address":"徐汇区安福路(近武康路)"},{"poiid":"B2094757D568A6FD4899","title":"十号名邸中餐厅","lon":"121.44970595","lat":"31.21082601","category":"76","category_name":"上海菜","address":"徐汇区宝庆路10号2-4楼(复兴中路口)"},{"poiid":"B2094757D165A0FC479B","title":"庆余别墅","lon":"121.45207540812","lat":"31.210259460525","category":"47","category_name":"住宅区","address":"徐汇区衡山路58弄3号(近高安路)"},{"poiid":"B2094757D66DA4FF479F","title":"御香粥","lon":"121.450179586","lat":"31.2125590854","category":"68","category_name":"快餐厅","address":"徐汇区淮海中路1323号(近宝庆路)"},{"poiid":"B2094654DA6DA4F44792","title":"复旦大学附属眼耳鼻喉科医院(汾阳路总院)","lon":"121.45335","lat":"31.20955","category":"191","category_name":"科研机构","address":"上海徐汇区汾阳路83号(太原路口)"},{"poiid":"B2094655D26EA4FD419B","title":"宝莱纳餐厅(徐汇店)","lon":"121.45233","lat":"31.20984","category":"260","category_name":"其他","address":"徐汇区汾阳路150号(近桃江路)"},{"poiid":"B2094757D06FA7FF479A","title":"仙炙轩(汾阳路店)","lon":"121.452714142","lat":"31.2095961951","category":"269","category_name":"烧烤","address":"徐汇区汾阳路150号(近桃江路)"},{"poiid":"B2094753D76FAAFA449C","title":"上海滩国泰旗舰店","lon":"121.466011","lat":"31.216125","category":"249","category_name":"购物服务","address":"淮海中路868号"},{"poiid":"B209475CD564A7F84292","title":"上海滩新天地店","lon":"121.47463","lat":"31.22164","category":"119","category_name":"商场","address":"\"太仓路181弄新天地北里15号\r\n\""},{"poiid":"B209475CD564A7F8439E","title":"上海滩中信泰富店","lon":"121.45602","lat":"31.22851","category":"119","category_name":"商场","address":"\"南京西路1168号中信泰富广场，店铺号221.\r\n\""},{"poiid":"B2094757D06EAAF9409E","title":"常熟路地铁站","lon":"121.451084","lat":"31.213396","category":"36","category_name":"地铁站","address":"上海轨道交通 一号线 七号线 轨交常熟路站 1 7"},{"poiid":"B2094757D06FA2FA4999","title":"Colabo(衡山店)","lon":"121.451678867","lat":"31.2094187393","category":"94","category_name":"西餐厅","address":"徐汇区汾阳路156号(近桃江路)"},{"poiid":"B2094757D06EAAFB4593","title":"老麦咖啡馆","lon":"121.450176054","lat":"31.209116793","category":"260","category_name":"其他","address":"徐汇区桃江路25号甲(桃江路宝庆路路口,近衡山路)"},{"poiid":"B2094654DB65A4F4489E","title":"星巴克(爱美高大厦店)","lon":"121.449713","lat":"31.212659","category":"65","category_name":"咖啡厅","address":"徐汇区淮海中路1325号爱美高大厦1楼103室(近宝庆路)"},{"poiid":"B2094757D06BA7F54593","title":"五官科医院特约耳鼻喉科门诊","lon":"121.453332","lat":"31.20965","category":"162","category_name":"医院","address":"上海徐汇区汾阳路83号3楼(太原路口)"},{"poiid":"B2094654DB69A5F9449A","title":"星巴克(汾阳路店)","lon":"121.4530533","lat":"31.2097278","category":"65","category_name":"咖啡厅","address":"徐汇区汾阳路138号1楼03单元(太原路)"},{"poiid":"B2094654DA6DABFD4292","title":"千秋膳房(宝庆路)","lon":"121.45014","lat":"31.21041","category":"91","category_name":"台湾菜","address":"徐汇区宝庆路15号(复兴中路口)"},{"poiid":"B2094757D16DA7FF479A","title":"宝莱纳","lon":"121.45173458","lat":"31.208893013","category":"249","category_name":"购物服务","address":"上海汾阳路138号"},{"poiid":"B2094757D068A1FE449D","title":"复旦大学附属眼耳鼻喉科医院(宝庆路分院)","lon":"121.450369913","lat":"31.2102095153","category":"162","category_name":"医院","address":"徐汇区宝庆路19号(近淮海中路)"},{"poiid":"B2094757D06FA2F8489B","title":"MT Club(淮海路店)","lon":"121.44947125","lat":"31.211846925","category":"260","category_name":"其他","address":"徐汇区淮海中路1329号云海大厦3楼(近常熟路)"},{"poiid":"B2094753D164A6FF459A","title":"鼎王无老养生锅","lon":"121.449942","lat":"31.20931","category":"500","category_name":"未知分类","address":"上海市 衡山路2号甲香樟花园内"},{"poiid":"B2094757D069A3F54799","title":"El Patio","lon":"121.45368458","lat":"31.210532045","category":"94","category_name":"西餐厅","address":"徐汇区汾阳路110号(近太原路)"},{"poiid":"B2094757D069A3FA429E","title":"Aura Restaurant","lon":"121.45183358","lat":"31.212174077","category":"500","category_name":"未知分类","address":"上海市 汾阳路 复兴中路"},{"poiid":"B2094757D16AA4FD409B","title":"虹桥火车站(上海西站)地铁站","lon":"121.449664786","lat":"31.2127608894","category":"36","category_name":"地铁站","address":"上海轨道交通二、十号线虹桥火车站"},{"poiid":"B2094757D064A3FA4792","title":"KOTA'S KITCHEN(永嘉路店)","lon":"121.44951","lat":"31.21128","category":"269","category_name":"烧烤","address":"徐汇区永嘉路335号(近襄阳路)"},{"poiid":"B2094757D06FA6FC439D","title":"宝莱纳贝可利面包","lon":"121.45267563","lat":"31.209468642","category":"67","category_name":"甜品店","address":"徐汇区汾阳路150号(近桃江路)"},{"poiid":"B2094654DA6DA4FB419E","title":"和平官邸","lon":"121.45141","lat":"31.20936","category":"76","category_name":"上海菜","address":"徐汇区汾阳路158号(近桃江路)"},{"poiid":"B2094750DB6DA6FE479E","title":"Maya Club","lon":"121.44942","lat":"31.21178","category":"260","category_name":"其他","address":"徐汇区淮海中路1329号云海大厦3楼(宝庆路口)"},{"poiid":"B2094757D06AA2F5409D","title":"鲜芋仙(岳阳店)","lon":"121.451889586","lat":"31.2088120122","category":"67","category_name":"甜品店","address":"徐汇区岳阳路1号(近桃江路东平路)"},{"poiid":"B2094757D06BA7F9439B","title":"Bella mia","lon":"121.450006","lat":"31.210957","category":"94","category_name":"西餐厅","address":"徐汇区宝庆路10号(复兴中路口)"},{"poiid":"B2094757D06FA4F84599","title":"上方花园","lon":"121.45129","lat":"31.212694","category":"47","category_name":"住宅区","address":"淮海中路1285弄1-77号"},{"poiid":"B2094757D16AABF9459E","title":"PAULANER","lon":"121.450187586","lat":"31.2119282731","category":"500","category_name":"未知分类","address":"上海汾阳路"},{"poiid":"B2094750D26EA7FE479D","title":"人民广场地铁站","lon":"121.452407","lat":"31.213254","category":"36","category_name":"地铁站","address":null},{"poiid":"B2094757D068A3FC4398","title":"轻科大厦","lon":"121.452919","lat":"31.209844589","category":"46","category_name":"楼宇","address":"西城区金融街A区3号地南部"},{"poiid":"B2094757D064A5F54999","title":"五官科医院宝庆分部","lon":"121.45008622","lat":"31.210351972","category":"162","category_name":"医院","address":"上海宝庆路"},{"poiid":"B2094753D464AAF8489D","title":"上海交响乐团音乐厅","lon":"121.451896","lat":"31.21169","category":"500","category_name":"未知分类","address":"复兴中路1380号"},{"poiid":"B2094757D06BAAF44598","title":"尔苑咖啡厅 Anna Maya Vegetarian Cafe","lon":"121.450652054","lat":"31.208991793","category":"89","category_name":"中式素餐馆","address":"徐汇区桃江路3号(近宝庆路)"},{"poiid":"B2094757D069A4FD4892","title":"东篱文艺沙龙","lon":"121.45067","lat":"31.2104","category":"179","category_name":"音乐厅","address":"徐汇区复兴中路1363弄1号104室(近宝庆路)"},{"poiid":"B2094757D66BABF9479C","title":"Goga","lon":"121.45167517625","lat":"31.208671976401","category":"94","category_name":"西餐厅","address":"徐汇区岳阳路1号(近东平路)"},{"poiid":"B2094654DA6DAAFB4098","title":"湾仔中国餐馆宝庆路店","lon":"121.44974","lat":"31.21117","category":"71","category_name":"四川菜","address":"徐汇区宝庆路10号(近复兴中路)"},{"poiid":"B2094757D068A4F5449C","title":"淮海路宝庆路口","lon":"121.449333191","lat":"31.2118606567","category":"260","category_name":"其他","address":"上海淮海路1329号"},{"poiid":"B2094654DA6DA4F44899","title":"上海市红十字眼耳鼻喉科医院","lon":"121.45334","lat":"31.20954","category":"162","category_name":"医院","address":"汾阳路83"},{"poiid":"B2094654DA6DAAFB429A","title":"玛雅俱乐部","lon":"121.44926763864044","lat":"31.21184508914139","category":"248","category_name":"生活娱乐","address":"淮海中路1329号云海大厦4层"},{"poiid":"B2094757D06BA2F9409C","title":"正圆烩面","lon":"121.44937258","lat":"31.211990074","category":"68","category_name":"快餐厅","address":"徐汇区乌鲁木齐中路247号(近五原路)"},{"poiid":"B2094654DA6DA4FB4199","title":"宝轻大厦","lon":"121.45123","lat":"31.20942","category":"46","category_name":"楼宇","address":"宣武区南横街东口"},{"poiid":"B209475CD16DABF84899","title":"KOTA'S KITCHEN 淮海中路店","lon":"121.44951","lat":"31.21128","category":"95","category_name":"日本料理","address":"淮海中路1333号(近宝庆路)"},{"poiid":"B2094757D069A7FC489F","title":"十号名邸","lon":"121.45163243","lat":"31.212480733","category":"47","category_name":"住宅区","address":"宝庆路10号2-4楼近复兴中路"},{"poiid":"B2094655D26AA0F94699","title":"地铁常熟路站","lon":"121.45107","lat":"31.2134","category":"36","category_name":"地铁站","address":""},{"poiid":"B2094753D569A2FC469F","title":"鼎王无老锅","lon":"121.450019","lat":"31.209609","category":"247","category_name":"餐饮美食","address":"上海市 衡山路2号甲香樟花园内(近桃江路)"},{"poiid":"B2094750DA68A5FA459B","title":"时光花园咖啡","lon":"121.45081181083674","lat":"31.21339009806651","category":"65","category_name":"咖啡厅","address":"徐汇区淮海中路1285弄上方花园51号1楼(近华亭路)"},{"poiid":"B2094655D36CA3F54098","title":"illy","lon":"121.45035","lat":"31.20926","category":"65","category_name":"咖啡厅","address":"徐汇区安福路(近武康路)"},{"poiid":"B2094757D568A6FD4899","title":"十号名邸中餐厅","lon":"121.44970595","lat":"31.21082601","category":"76","category_name":"上海菜","address":"徐汇区宝庆路10号2-4楼(复兴中路口)"},{"poiid":"B2094757D165A0FC479B","title":"庆余别墅","lon":"121.45207540812","lat":"31.210259460525","category":"47","category_name":"住宅区","address":"徐汇区衡山路58弄3号(近高安路)"},{"poiid":"B2094757D66DA4FF479F","title":"御香粥","lon":"121.450179586","lat":"31.2125590854","category":"68","category_name":"快餐厅","address":"徐汇区淮海中路1323号(近宝庆路)"},{"poiid":"B2094654DA6DA4F44792","title":"复旦大学附属眼耳鼻喉科医院(汾阳路总院)","lon":"121.45335","lat":"31.20955","category":"191","category_name":"科研机构","address":"上海徐汇区汾阳路83号(太原路口)"},{"poiid":"B2094655D26EA4FD419B","title":"宝莱纳餐厅(徐汇店)","lon":"121.45233","lat":"31.20984","category":"260","category_name":"其他","address":"徐汇区汾阳路150号(近桃江路)"},{"poiid":"B2094757D06FA7FF479A","title":"仙炙轩(汾阳路店)","lon":"121.452714142","lat":"31.2095961951","category":"269","category_name":"烧烤","address":"徐汇区汾阳路150号(近桃江路)"},{"poiid":"B2094753D76FAAFA449C","title":"上海滩国泰旗舰店","lon":"121.466011","lat":"31.216125","category":"249","category_name":"购物服务","address":"淮海中路868号"},{"poiid":"B209475CD564A7F84292","title":"上海滩新天地店","lon":"121.47463","lat":"31.22164","category":"119","category_name":"商场","address":"\"太仓路181弄新天地北里15号\r\n\""},{"poiid":"B209475CD564A7F8439E","title":"上海滩中信泰富店","lon":"121.45602","lat":"31.22851","category":"119","category_name":"商场","address":"\"南京西路1168号中信泰富广场，店铺号221.\r\n\""},{"poiid":"B2094757D06EAAF9409E","title":"常熟路地铁站","lon":"121.451084","lat":"31.213396","category":"36","category_name":"地铁站","address":"上海轨道交通 一号线 七号线 轨交常熟路站 1 7"},{"poiid":"B2094757D06FA2FA4999","title":"Colabo(衡山店)","lon":"121.451678867","lat":"31.2094187393","category":"94","category_name":"西餐厅","address":"徐汇区汾阳路156号(近桃江路)"},{"poiid":"B2094757D06EAAFB4593","title":"老麦咖啡馆","lon":"121.450176054","lat":"31.209116793","category":"260","category_name":"其他","address":"徐汇区桃江路25号甲(桃江路宝庆路路口,近衡山路)"},{"poiid":"B2094654DB65A4F4489E","title":"星巴克(爱美高大厦店)","lon":"121.449713","lat":"31.212659","category":"65","category_name":"咖啡厅","address":"徐汇区淮海中路1325号爱美高大厦1楼103室(近宝庆路)"},{"poiid":"B2094757D06BA7F54593","title":"五官科医院特约耳鼻喉科门诊","lon":"121.453332","lat":"31.20965","category":"162","category_name":"医院","address":"上海徐汇区汾阳路83号3楼(太原路口)"},{"poiid":"B2094654DB69A5F9449A","title":"星巴克(汾阳路店)","lon":"121.4530533","lat":"31.2097278","category":"65","category_name":"咖啡厅","address":"徐汇区汾阳路138号1楼03单元(太原路)"},{"poiid":"B2094654DA6DABFD4292","title":"千秋膳房(宝庆路)","lon":"121.45014","lat":"31.21041","category":"91","category_name":"台湾菜","address":"徐汇区宝庆路15号(复兴中路口)"},{"poiid":"B2094757D16DA7FF479A","title":"宝莱纳","lon":"121.45173458","lat":"31.208893013","category":"249","category_name":"购物服务","address":"上海汾阳路138号"},{"poiid":"B2094757D068A1FE449D","title":"复旦大学附属眼耳鼻喉科医院(宝庆路分院)","lon":"121.450369913","lat":"31.2102095153","category":"162","category_name":"医院","address":"徐汇区宝庆路19号(近淮海中路)"},{"poiid":"B2094757D06FA2F8489B","title":"MT Club(淮海路店)","lon":"121.44947125","lat":"31.211846925","category":"260","category_name":"其他","address":"徐汇区淮海中路1329号云海大厦3楼(近常熟路)"},{"poiid":"B2094753D164A6FF459A","title":"鼎王无老养生锅","lon":"121.449942","lat":"31.20931","category":"500","category_name":"未知分类","address":"上海市 衡山路2号甲香樟花园内"},{"poiid":"B2094757D069A3F54799","title":"El Patio","lon":"121.45368458","lat":"31.210532045","category":"94","category_name":"西餐厅","address":"徐汇区汾阳路110号(近太原路)"},{"poiid":"B2094757D069A3FA429E","title":"Aura Restaurant","lon":"121.45183358","lat":"31.212174077","category":"500","category_name":"未知分类","address":"上海市 汾阳路 复兴中路"},{"poiid":"B2094757D16AA4FD409B","title":"虹桥火车站(上海西站)地铁站","lon":"121.449664786","lat":"31.2127608894","category":"36","category_name":"地铁站","address":"上海轨道交通二、十号线虹桥火车站"},{"poiid":"B2094757D064A3FA4792","title":"KOTA'S KITCHEN(永嘉路店)","lon":"121.44951","lat":"31.21128","category":"269","category_name":"烧烤","address":"徐汇区永嘉路335号(近襄阳路)"},{"poiid":"B2094757D06FA6FC439D","title":"宝莱纳贝可利面包","lon":"121.45267563","lat":"31.209468642","category":"67","category_name":"甜品店","address":"徐汇区汾阳路150号(近桃江路)"},{"poiid":"B2094654DA6DA4FB419E","title":"和平官邸","lon":"121.45141","lat":"31.20936","category":"76","category_name":"上海菜","address":"徐汇区汾阳路158号(近桃江路)"},{"poiid":"B2094750DB6DA6FE479E","title":"Maya Club","lon":"121.44942","lat":"31.21178","category":"260","category_name":"其他","address":"徐汇区淮海中路1329号云海大厦3楼(宝庆路口)"},{"poiid":"B2094757D06AA2F5409D","title":"鲜芋仙(岳阳店)","lon":"121.451889586","lat":"31.2088120122","category":"67","category_name":"甜品店","address":"徐汇区岳阳路1号(近桃江路东平路)"},{"poiid":"B2094757D06BA7F9439B","title":"Bella mia","lon":"121.450006","lat":"31.210957","category":"94","category_name":"西餐厅","address":"徐汇区宝庆路10号(复兴中路口)"},{"poiid":"B2094757D06FA4F84599","title":"上方花园","lon":"121.45129","lat":"31.212694","category":"47","category_name":"住宅区","address":"淮海中路1285弄1-77号"},{"poiid":"B2094757D16AABF9459E","title":"PAULANER","lon":"121.450187586","lat":"31.2119282731","category":"500","category_name":"未知分类","address":"上海汾阳路"},{"poiid":"B2094750D26EA7FE479D","title":"人民广场地铁站","lon":"121.452407","lat":"31.213254","category":"36","category_name":"地铁站","address":null},{"poiid":"B2094757D068A3FC4398","title":"轻科大厦","lon":"121.452919","lat":"31.209844589","category":"46","category_name":"楼宇","address":"西城区金融街A区3号地南部"},{"poiid":"B2094757D064A5F54999","title":"五官科医院宝庆分部","lon":"121.45008622","lat":"31.210351972","category":"162","category_name":"医院","address":"上海宝庆路"},{"poiid":"B2094753D464AAF8489D","title":"上海交响乐团音乐厅","lon":"121.451896","lat":"31.21169","category":"500","category_name":"未知分类","address":"复兴中路1380号"},{"poiid":"B2094757D06BAAF44598","title":"尔苑咖啡厅 Anna Maya Vegetarian Cafe","lon":"121.450652054","lat":"31.208991793","category":"89","category_name":"中式素餐馆","address":"徐汇区桃江路3号(近宝庆路)"},{"poiid":"B2094757D069A4FD4892","title":"东篱文艺沙龙","lon":"121.45067","lat":"31.2104","category":"179","category_name":"音乐厅","address":"徐汇区复兴中路1363弄1号104室(近宝庆路)"},{"poiid":"B2094757D66BABF9479C","title":"Goga","lon":"121.45167517625","lat":"31.208671976401","category":"94","category_name":"西餐厅","address":"徐汇区岳阳路1号(近东平路)"},{"poiid":"B2094654DA6DAAFB4098","title":"湾仔中国餐馆宝庆路店","lon":"121.44974","lat":"31.21117","category":"71","category_name":"四川菜","address":"徐汇区宝庆路10号(近复兴中路)"},{"poiid":"B2094757D068A4F5449C","title":"淮海路宝庆路口","lon":"121.449333191","lat":"31.2118606567","category":"260","category_name":"其他","address":"上海淮海路1329号"},{"poiid":"B2094654DA6DA4F44899","title":"上海市红十字眼耳鼻喉科医院","lon":"121.45334","lat":"31.20954","category":"162","category_name":"医院","address":"汾阳路83"},{"poiid":"B2094654DA6DAAFB429A","title":"玛雅俱乐部","lon":"121.44926763864044","lat":"31.21184508914139","category":"248","category_name":"生活娱乐","address":"淮海中路1329号云海大厦4层"},{"poiid":"B2094757D06BA2F9409C","title":"正圆烩面","lon":"121.44937258","lat":"31.211990074","category":"68","category_name":"快餐厅","address":"徐汇区乌鲁木齐中路247号(近五原路)"},{"poiid":"B2094654DA6DA4FB4199","title":"宝轻大厦","lon":"121.45123","lat":"31.20942","category":"46","category_name":"楼宇","address":"宣武区南横街东口"},{"poiid":"B209475CD16DABF84899","title":"KOTA'S KITCHEN 淮海中路店","lon":"121.44951","lat":"31.21128","category":"95","category_name":"日本料理","address":"淮海中路1333号(近宝庆路)"},{"poiid":"B2094757D069A7FC489F","title":"十号名邸","lon":"121.45163243","lat":"31.212480733","category":"47","category_name":"住宅区","address":"宝庆路10号2-4楼近复兴中路"},{"poiid":"B2094655D26AA0F94699","title":"地铁常熟路站","lon":"121.45107","lat":"31.2134","category":"36","category_name":"地铁站","address":""},{"poiid":"B2094753D569A2FC469F","title":"鼎王无老锅","lon":"121.450019","lat":"31.209609","category":"247","category_name":"餐饮美食","address":"上海市 衡山路2号甲香樟花园内(近桃江路)"},{"poiid":"B2094750DA68A5FA459B","title":"时光花园咖啡","lon":"121.45081181083674","lat":"31.21339009806651","category":"65","category_name":"咖啡厅","address":"徐汇区淮海中路1285弄上方花园51号1楼(近华亭路)"},{"poiid":"B2094655D36CA3F54098","title":"illy","lon":"121.45035","lat":"31.20926","category":"65","category_name":"咖啡厅","address":"徐汇区安福路(近武康路)"},{"poiid":"B2094757D568A6FD4899","title":"十号名邸中餐厅","lon":"121.44970595","lat":"31.21082601","category":"76","category_name":"上海菜","address":"徐汇区宝庆路10号2-4楼(复兴中路口)"},{"poiid":"B2094757D165A0FC479B","title":"庆余别墅","lon":"121.45207540812","lat":"31.210259460525","category":"47","category_name":"住宅区","address":"徐汇区衡山路58弄3号(近高安路)"},{"poiid":"B2094757D66DA4FF479F","title":"御香粥","lon":"121.450179586","lat":"31.2125590854","category":"68","category_name":"快餐厅","address":"徐汇区淮海中路1323号(近宝庆路)"}]