[{"poiid":"B2094757D06EAAFD409D","title":"闵行体育公园","lon":"121.36664128","lat":"31.146892955","category":"500","category_name":"未知分类","address":"闵行区新镇路456号(近农南路)"},{"poiid":"B2094757D06EAAF5479B","title":"星巴克(漕宝店)","lon":"121.3770909","lat":"31.157744","category":"65","category_name":"咖啡厅","address":"闵行区虹莘路2988号漕宝购物中心内"},{"poiid":"B2094757D06FA1FB4299","title":"星中路地铁站","lon":"121.368422","lat":"31.158064","category":"36","category_name":"地铁站","address":"上海轨道交通 九号线 轨交星中路站 9"},{"poiid":"B2094757D068A1FF4198","title":"七宝中学","lon":"121.36772541","lat":"31.149760126","category":"55","category_name":"中学","address":"闵行区七中路1号(近农南路)"},{"poiid":"B2094757D06FA0F8409F","title":"九星建材批发市场","lon":"121.3737","lat":"31.1493","category":"249","category_name":"购物服务","address":"上海闵行区漕宝路6号桥南侧(近虹莘路)  "},{"poiid":"B2094757D465ABFA449A","title":"沪华海鲜大酒店","lon":"121.37256","lat":"31.1585","category":"76","category_name":"上海菜","address":"闵行区漕宝路1687号(近星中路)"},{"poiid":"B2094757D068A6F54893","title":"七宝中学游泳馆","lon":"121.36752","lat":"31.15183","category":"253","category_name":"校园生活","address":"上海闵行区农南路22号七宝中学内"},{"poiid":"B2094757DA65A7F84593","title":"炭","lon":"121.37090504","lat":"31.16090053999999","category":"247","category_name":"餐饮美食","address":"虹泉路1101弄7号(近虹莘路)"},{"poiid":"B2094757D06BA7FC429C","title":"S20外环线漕宝路出口","lon":"121.367194586","lat":"31.158640732","category":"500","category_name":"未知分类","address":"上海漕宝路"},{"poiid":"B2094751DA6BA1F8469D","title":"上海虹桥机场","lon":"121.367375","lat":"31.152502","category":"500","category_name":"未知分类","address":null},{"poiid":"B2094757DB68A4F54692","title":"上海歌城","lon":"121.37208861","lat":"31.15523277999998","category":"170","category_name":"KTV","address":"漕宝路"},{"poiid":"B2094757D16AA2FA419D","title":"九星宴会厅","lon":"121.36811058","lat":"31.152861919","category":"247","category_name":"餐饮美食","address":"上海市闵行区宝盛路"},{"poiid":"B2094654DA6BABF4409D","title":"茂盛城市花园","lon":"121.36122","lat":"31.15213","category":"47","category_name":"住宅区","address":"新镇路1036弄"},{"poiid":"B2094654DB69A6FE429B","title":"明强小学","lon":"121.3612","lat":"31.15171","category":"56","category_name":"小学","address":"闵行区七宝镇新镇路1050号"},{"poiid":"B2094757D068A2FD4793","title":"DQ冰雪皇后 漕宝路店 Dairy Queen","lon":"121.37609","lat":"31.15785","category":"113","category_name":"冷饮店","address":"闵行区漕宝路1574号漕宝购物中心(漕宝路虹莘路)"},{"poiid":"B2094757D06AA1F54693","title":"G2京沪高速安亭收费站","lon":"121.368501586","lat":"31.1546650543","category":"267","category_name":"收费站","address":"上海京沪高速"},{"poiid":"B2094654DA64A3FE439A","title":"小豆苗(星强街)","lon":"121.3667","lat":"31.15365","category":"117","category_name":"便民商店/便利店","address":"闵行区星强街57幢1-3号"},{"poiid":"B2094757D06FA0FB499A","title":"外环线","lon":"121.37167739","lat":"31.147986525","category":"500","category_name":"未知分类","address":"上海外环线"},{"poiid":"B2094757D069A5F54893","title":"╅蓝海の天空","lon":"121.36896994","lat":"31.152207865","category":"500","category_name":"未知分类","address":"上海╅蓝海の天空"},{"poiid":"B2094757D66CA7F54098","title":"漕宝路星强街","lon":"121.367959586","lat":"31.153058923","category":"260","category_name":"其他","address":"上海闵行区星强街"},{"poiid":"B2094757D164A6FA4898","title":"浙鲜面馆","lon":"121.377268586","lat":"31.1558939783","category":"68","category_name":"快餐厅","address":"闵行区虹莘路2930号(近东兰路)"},{"poiid":"B2094757D068ABFB479C","title":"海上新村","lon":"121.36875","lat":"31.156965","category":"47","category_name":"住宅区","address":"上海漕宝路1800弄"},{"poiid":"B2094654DA65A3F8499D","title":"阳光乾城苑","lon":"121.37106","lat":"31.15701","category":"47","category_name":"住宅区","address":"星中路1111弄"},{"poiid":"B2094654DA64A3FE469D","title":"上海市公安局闵行分局交通警察支队二中队","lon":"121.36434","lat":"31.15729","category":"248","category_name":"生活娱乐","address":""},{"poiid":"B2094654DA65A2FC4698","title":"上海展艺建筑安装工程有限公司","lon":"121.37136","lat":"31.15353","category":"123","category_name":"家具建材市场","address":"九星综合市场星北路6幢1号"},{"poiid":"B2094654DA65A2F54998","title":"上海灿新展示设备","lon":"121.37084","lat":"31.15165","category":"123","category_name":"家具建材市场","address":"九星综合市场环东钢结构房51号"},{"poiid":"B2094655D26AA0FA459A","title":"地铁星中路站","lon":"121.36841","lat":"31.15806","category":"36","category_name":"地铁站","address":""},{"poiid":"B2094757D168A5FB459F","title":"七宝中学高三17班","lon":"121.36715674","lat":"31.150019588","category":"55","category_name":"中学","address":"上海闵行区农南路22号七宝中学内"},{"poiid":"B2094750D56DA3FB489B","title":"七宝三中","lon":"121.363418","lat":"31.153989","category":"55","category_name":"中学","address":"闵行区宝南路88号(近七宝老街)"},{"poiid":"B2094654DA65A2F5499E","title":"卡迪龙五金","lon":"121.37091","lat":"31.15154","category":"123","category_name":"家具建材市场","address":"九星综合市场环东钢结构房55号"},{"poiid":"B2094654DA64A3FD4792","title":"九星不锈钢批发市场","lon":"121.36468","lat":"31.1545","category":"123","category_name":"家具建材市场","address":""},{"poiid":"B2094655D36DA0FE4699","title":"星中路","lon":"121.36743","lat":"31.15811","category":"38","category_name":"公交车站","address":""},{"poiid":"B2094757D569A2FD439B","title":"格林豪泰酒店(上海七宝店)","lon":"121.3640332","lat":"31.15404785","category":"216","category_name":"经济型连锁酒店","address":"闵行区七宝镇宝南路85号(近新镇路)"},{"poiid":"B2094757D469A5FD4793","title":"漕宝路兰州正宗牛肉拉面","lon":"121.368502","lat":"31.158047","category":"87","category_name":"特色／地方风味餐厅","address":"闵行区漕宝路1792号(近地铁星中路站)"},{"poiid":"B2094654DA6BABF4439D","title":"秀枫翠谷公寓","lon":"121.36489","lat":"31.15887","category":"47","category_name":"住宅区","address":"漕宝路1911号"},{"poiid":"B2094654DA64A3F94993","title":"三佳花苑","lon":"121.36186","lat":"31.156012","category":"47","category_name":"住宅区","address":"上海新镇路1060弄"},{"poiid":"B2094654DB69A6F84993","title":"亿豪名邸","lon":"121.365","lat":"31.1498","category":"47","category_name":"住宅区","address":"上海市闵行区七莘路2368号"},{"poiid":"B2094757D16EA2FD459B","title":"上海交通大学南19栋217室","lon":"121.371994","lat":"31.152279","category":"500","category_name":"未知分类","address":"上海闵行区东川路800号南19栋"},{"poiid":"B2094757D065A3F54092","title":"诺宝健身中心游泳馆","lon":"121.37289","lat":"31.15739","category":"220","category_name":"运动场所","address":"上海闵行区漕宝路1688号诺宝中心大酒店  "},{"poiid":"B2094750DA65A2FC4092","title":"徐家汇","lon":"121.363052","lat":"31.15085","category":"500","category_name":"未知分类","address":null},{"poiid":"B209475CD265AAF54399","title":"广东汕头来兴大排档","lon":"121.374313054","lat":"31.153905793","category":"68","category_name":"快餐厅","address":"星东路九星市场1号楼105室近星环路口"},{"poiid":"B2094654DA64A3FA4192","title":"东风公寓(三佳花苑东南)","lon":"121.36368","lat":"31.15467","category":"47","category_name":"住宅区","address":""},{"poiid":"B2094654DA64A3FE459E","title":"上海锦富有色金属材料","lon":"121.36534","lat":"31.15579","category":"123","category_name":"家具建材市场","address":"星强街15号房6号"},{"poiid":"B2094654DA6BAAFF409C","title":"闵行体育公园(农南路)","lon":"121.36664","lat":"31.14692","category":"196","category_name":"公园","address":"农南路55"},{"poiid":"B2094757D069A7F4449D","title":"中化道达尔加油站","lon":"121.362674","lat":"31.158158","category":"500","category_name":"未知分类","address":"闵行区漕宝路1997号(近星强街)"},{"poiid":"B2094654DA65A3FB439A","title":"吴江月星防水系列","lon":"121.37371","lat":"31.15317","category":"123","category_name":"家具建材市场","address":"闵行区停车场街36幢9号"},{"poiid":"B2094757D568AAFF449F","title":"上海泉福耐力板有限公司正成工业连锁","lon":"121.364768","lat":"31.154987","category":"249","category_name":"购物服务","address":"星富街13幢18-19号"},{"poiid":"B2094655D26FA3F9439B","title":"快客No.1698","lon":"121.37016","lat":"31.15791","category":"117","category_name":"便民商店/便利店","address":"漕宝路1788"},{"poiid":"B2094654DA6BABFB489D","title":"宝仪花苑","lon":"121.36406","lat":"31.149136","category":"47","category_name":"住宅区","address":"宝仪花苑位于闵行新镇路876弄"},{"poiid":"B2094757D168A0FD499E","title":"瀏島訓練基地","lon":"121.364218","lat":"31.154423","category":"500","category_name":"未知分类","address":"上海嘉定區"},{"poiid":"B2094757D06EAAFD409D","title":"闵行体育公园","lon":"121.36664128","lat":"31.146892955","category":"500","category_name":"未知分类","address":"闵行区新镇路456号(近农南路)"},{"poiid":"B2094757D06EAAF5479B","title":"星巴克(漕宝店)","lon":"121.3770909","lat":"31.157744","category":"65","category_name":"咖啡厅","address":"闵行区虹莘路2988号漕宝购物中心内"},{"poiid":"B2094757D06FA1FB4299","title":"星中路地铁站","lon":"121.368422","lat":"31.158064","category":"36","category_name":"地铁站","address":"上海轨道交通 九号线 轨交星中路站 9"},{"poiid":"B2094757D068A1FF4198","title":"七宝中学","lon":"121.36772541","lat":"31.149760126","category":"55","category_name":"中学","address":"闵行区七中路1号(近农南路)"},{"poiid":"B2094757D06FA0F8409F","title":"九星建材批发市场","lon":"121.3737","lat":"31.1493","category":"249","category_name":"购物服务","address":"上海闵行区漕宝路6号桥南侧(近虹莘路)  "},{"poiid":"B2094757D465ABFA449A","title":"沪华海鲜大酒店","lon":"121.37256","lat":"31.1585","category":"76","category_name":"上海菜","address":"闵行区漕宝路1687号(近星中路)"},{"poiid":"B2094757D068A6F54893","title":"七宝中学游泳馆","lon":"121.36752","lat":"31.15183","category":"253","category_name":"校园生活","address":"上海闵行区农南路22号七宝中学内"},{"poiid":"B2094757DA65A7F84593","title":"炭","lon":"121.37090504","lat":"31.16090053999999","category":"247","category_name":"餐饮美食","address":"虹泉路1101弄7号(近虹莘路)"},{"poiid":"B2094757D06BA7FC429C","title":"S20外环线漕宝路出口","lon":"121.367194586","lat":"31.158640732","category":"500","category_name":"未知分类","address":"上海漕宝路"},{"poiid":"B2094751DA6BA1F8469D","title":"上海虹桥机场","lon":"121.367375","lat":"31.152502","category":"500","category_name":"未知分类","address":null},{"poiid":"B2094757DB68A4F54692","title":"上海歌城","lon":"121.37208861","lat":"31.15523277999998","category":"170","category_name":"KTV","address":"漕宝路"},{"poiid":"B2094757D16AA2FA419D","title":"九星宴会厅","lon":"121.36811058","lat":"31.152861919","category":"247","category_name":"餐饮美食","address":"上海市闵行区宝盛路"},{"poiid":"B2094654DA6BABF4409D","title":"茂盛城市花园","lon":"121.36122","lat":"31.15213","category":"47","category_name":"住宅区","address":"新镇路1036弄"},{"poiid":"B2094654DB69A6FE429B","title":"明强小学","lon":"121.3612","lat":"31.15171","category":"56","category_name":"小学","address":"闵行区七宝镇新镇路1050号"},{"poiid":"B2094757D068A2FD4793","title":"DQ冰雪皇后 漕宝路店 Dairy Queen","lon":"121.37609","lat":"31.15785","category":"113","category_name":"冷饮店","address":"闵行区漕宝路1574号漕宝购物中心(漕宝路虹莘路)"},{"poiid":"B2094757D06AA1F54693","title":"G2京沪高速安亭收费站","lon":"121.368501586","lat":"31.1546650543","category":"267","category_name":"收费站","address":"上海京沪高速"},{"poiid":"B2094654DA64A3FE439A","title":"小豆苗(星强街)","lon":"121.3667","lat":"31.15365","category":"117","category_name":"便民商店/便利店","address":"闵行区星强街57幢1-3号"},{"poiid":"B2094757D06FA0FB499A","title":"外环线","lon":"121.37167739","lat":"31.147986525","category":"500","category_name":"未知分类","address":"上海外环线"},{"poiid":"B2094757D069A5F54893","title":"╅蓝海の天空","lon":"121.36896994","lat":"31.152207865","category":"500","category_name":"未知分类","address":"上海╅蓝海の天空"},{"poiid":"B2094757D66CA7F54098","title":"漕宝路星强街","lon":"121.367959586","lat":"31.153058923","category":"260","category_name":"其他","address":"上海闵行区星强街"},{"poiid":"B2094757D164A6FA4898","title":"浙鲜面馆","lon":"121.377268586","lat":"31.1558939783","category":"68","category_name":"快餐厅","address":"闵行区虹莘路2930号(近东兰路)"},{"poiid":"B2094757D068ABFB479C","title":"海上新村","lon":"121.36875","lat":"31.156965","category":"47","category_name":"住宅区","address":"上海漕宝路1800弄"},{"poiid":"B2094654DA65A3F8499D","title":"阳光乾城苑","lon":"121.37106","lat":"31.15701","category":"47","category_name":"住宅区","address":"星中路1111弄"},{"poiid":"B2094654DA64A3FE469D","title":"上海市公安局闵行分局交通警察支队二中队","lon":"121.36434","lat":"31.15729","category":"248","category_name":"生活娱乐","address":""},{"poiid":"B2094654DA65A2FC4698","title":"上海展艺建筑安装工程有限公司","lon":"121.37136","lat":"31.15353","category":"123","category_name":"家具建材市场","address":"九星综合市场星北路6幢1号"},{"poiid":"B2094654DA65A2F54998","title":"上海灿新展示设备","lon":"121.37084","lat":"31.15165","category":"123","category_name":"家具建材市场","address":"九星综合市场环东钢结构房51号"},{"poiid":"B2094655D26AA0FA459A","title":"地铁星中路站","lon":"121.36841","lat":"31.15806","category":"36","category_name":"地铁站","address":""},{"poiid":"B2094757D168A5FB459F","title":"七宝中学高三17班","lon":"121.36715674","lat":"31.150019588","category":"55","category_name":"中学","address":"上海闵行区农南路22号七宝中学内"},{"poiid":"B2094750D56DA3FB489B","title":"七宝三中","lon":"121.363418","lat":"31.153989","category":"55","category_name":"中学","address":"闵行区宝南路88号(近七宝老街)"},{"poiid":"B2094654DA65A2F5499E","title":"卡迪龙五金","lon":"121.37091","lat":"31.15154","category":"123","category_name":"家具建材市场","address":"九星综合市场环东钢结构房55号"},{"poiid":"B2094654DA64A3FD4792","title":"九星不锈钢批发市场","lon":"121.36468","lat":"31.1545","category":"123","category_name":"家具建材市场","address":""},{"poiid":"B2094655D36DA0FE4699","title":"星中路","lon":"121.36743","lat":"31.15811","category":"38","category_name":"公交车站","address":""},{"poiid":"B2094757D569A2FD439B","title":"格林豪泰酒店(上海七宝店)","lon":"121.3640332","lat":"31.15404785","category":"216","category_name":"经济型连锁酒店","address":"闵行区七宝镇宝南路85号(近新镇路)"},{"poiid":"B2094757D469A5FD4793","title":"漕宝路兰州正宗牛肉拉面","lon":"121.368502","lat":"31.158047","category":"87","category_name":"特色／地方风味餐厅","address":"闵行区漕宝路1792号(近地铁星中路站)"},{"poiid":"B2094654DA6BABF4439D","title":"秀枫翠谷公寓","lon":"121.36489","lat":"31.15887","category":"47","category_name":"住宅区","address":"漕宝路1911号"},{"poiid":"B2094654DA64A3F94993","title":"三佳花苑","lon":"121.36186","lat":"31.156012","category":"47","category_name":"住宅区","address":"上海新镇路1060弄"},{"poiid":"B2094654DB69A6F84993","title":"亿豪名邸","lon":"121.365","lat":"31.1498","category":"47","category_name":"住宅区","address":"上海市闵行区七莘路2368号"},{"poiid":"B2094757D16EA2FD459B","title":"上海交通大学南19栋217室","lon":"121.371994","lat":"31.152279","category":"500","category_name":"未知分类","address":"上海闵行区东川路800号南19栋"},{"poiid":"B2094757D065A3F54092","title":"诺宝健身中心游泳馆","lon":"121.37289","lat":"31.15739","category":"220","category_name":"运动场所","address":"上海闵行区漕宝路1688号诺宝中心大酒店  "},{"poiid":"B2094750DA65A2FC4092","title":"徐家汇","lon":"121.363052","lat":"31.15085","category":"500","category_name":"未知分类","address":null},{"poiid":"B209475CD265AAF54399","title":"广东汕头来兴大排档","lon":"121.374313054","lat":"31.153905793","category":"68","category_name":"快餐厅","address":"星东路九星市场1号楼105室近星环路口"},{"poiid":"B2094654DA64A3FA4192","title":"东风公寓(三佳花苑东南)","lon":"121.36368","lat":"31.15467","category":"47","category_name":"住宅区","address":""},{"poiid":"B2094654DA64A3FE459E","title":"上海锦富有色金属材料","lon":"121.36534","lat":"31.15579","category":"123","category_name":"家具建材市场","address":"星强街15号房6号"},{"poiid":"B2094654DA6BAAFF409C","title":"闵行体育公园(农南路)","lon":"121.36664","lat":"31.14692","category":"196","category_name":"公园","address":"农南路55"},{"poiid":"B2094757D069A7F4449D","title":"中化道达尔加油站","lon":"121.362674","lat":"31.158158","category":"500","category_name":"未知分类","address":"闵行区漕宝路1997号(近星强街)"},{"poiid":"B2094654DA65A3FB439A","title":"吴江月星防水系列","lon":"121.37371","lat":"31.15317","category":"123","category_name":"家具建材市场","address":"闵行区停车场街36幢9号"},{"poiid":"B2094757D568AAFF449F","title":"上海泉福耐力板有限公司正成工业连锁","lon":"121.364768","lat":"31.154987","category":"249","category_name":"购物服务","address":"星富街13幢18-19号"},{"poiid":"B2094655D26FA3F9439B","title":"快客No.1698","lon":"121.37016","lat":"31.15791","category":"117","category_name":"便民商店/便利店","address":"漕宝路1788"},{"poiid":"B2094654DA6BABFB489D","title":"宝仪花苑","lon":"121.36406","lat":"31.149136","category":"47","category_name":"住宅区","address":"宝仪花苑位于闵行新镇路876弄"},{"poiid":"B2094757D168A0FD499E","title":"瀏島訓練基地","lon":"121.364218","lat":"31.154423","category":"500","category_name":"未知分类","address":"上海嘉定區"},{"poiid":"B2094757D06EAAFD409D","title":"闵行体育公园","lon":"121.36664128","lat":"31.146892955","category":"500","category_name":"未知分类","address":"闵行区新镇路456号(近农南路)"},{"poiid":"B2094757D06EAAF5479B","title":"星巴克(漕宝店)","lon":"121.3770909","lat":"31.157744","category":"65","category_name":"咖啡厅","address":"闵行区虹莘路2988号漕宝购物中心内"},{"poiid":"B2094757D06FA1FB4299","title":"星中路地铁站","lon":"121.368422","lat":"31.158064","category":"36","category_name":"地铁站","address":"上海轨道交通 九号线 轨交星中路站 9"},{"poiid":"B2094757D068A1FF4198","title":"七宝中学","lon":"121.36772541","lat":"31.149760126","category":"55","category_name":"中学","address":"闵行区七中路1号(近农南路)"},{"poiid":"B2094757D06FA0F8409F","title":"九星建材批发市场","lon":"121.3737","lat":"31.1493","category":"249","category_name":"购物服务","address":"上海闵行区漕宝路6号桥南侧(近虹莘路)  "},{"poiid":"B2094757D465ABFA449A","title":"沪华海鲜大酒店","lon":"121.37256","lat":"31.1585","category":"76","category_name":"上海菜","address":"闵行区漕宝路1687号(近星中路)"},{"poiid":"B2094757D068A6F54893","title":"七宝中学游泳馆","lon":"121.36752","lat":"31.15183","category":"253","category_name":"校园生活","address":"上海闵行区农南路22号七宝中学内"},{"poiid":"B2094757DA65A7F84593","title":"炭","lon":"121.37090504","lat":"31.16090053999999","category":"247","category_name":"餐饮美食","address":"虹泉路1101弄7号(近虹莘路)"},{"poiid":"B2094757D06BA7FC429C","title":"S20外环线漕宝路出口","lon":"121.367194586","lat":"31.158640732","category":"500","category_name":"未知分类","address":"上海漕宝路"},{"poiid":"B2094751DA6BA1F8469D","title":"上海虹桥机场","lon":"121.367375","lat":"31.152502","category":"500","category_name":"未知分类","address":null},{"poiid":"B2094757DB68A4F54692","title":"上海歌城","lon":"121.37208861","lat":"31.15523277999998","category":"170","category_name":"KTV","address":"漕宝路"},{"poiid":"B2094757D16AA2FA419D","title":"九星宴会厅","lon":"121.36811058","lat":"31.152861919","category":"247","category_name":"餐饮美食","address":"上海市闵行区宝盛路"},{"poiid":"B2094654DA6BABF4409D","title":"茂盛城市花园","lon":"121.36122","lat":"31.15213","category":"47","category_name":"住宅区","address":"新镇路1036弄"},{"poiid":"B2094654DB69A6FE429B","title":"明强小学","lon":"121.3612","lat":"31.15171","category":"56","category_name":"小学","address":"闵行区七宝镇新镇路1050号"},{"poiid":"B2094757D068A2FD4793","title":"DQ冰雪皇后 漕宝路店 Dairy Queen","lon":"121.37609","lat":"31.15785","category":"113","category_name":"冷饮店","address":"闵行区漕宝路1574号漕宝购物中心(漕宝路虹莘路)"},{"poiid":"B2094757D06AA1F54693","title":"G2京沪高速安亭收费站","lon":"121.368501586","lat":"31.1546650543","category":"267","category_name":"收费站","address":"上海京沪高速"},{"poiid":"B2094654DA64A3FE439A","title":"小豆苗(星强街)","lon":"121.3667","lat":"31.15365","category":"117","category_name":"便民商店/便利店","address":"闵行区星强街57幢1-3号"},{"poiid":"B2094757D06FA0FB499A","title":"外环线","lon":"121.37167739","lat":"31.147986525","category":"500","category_name":"未知分类","address":"上海外环线"},{"poiid":"B2094757D069A5F54893","title":"╅蓝海の天空","lon":"121.36896994","lat":"31.152207865","category":"500","category_name":"未知分类","address":"上海╅蓝海の天空"},{"poiid":"B2094757D66CA7F54098","title":"漕宝路星强街","lon":"121.367959586","lat":"31.153058923","category":"260","category_name":"其他","address":"上海闵行区星强街"},{"poiid":"B2094757D164A6FA4898","title":"浙鲜面馆","lon":"121.377268586","lat":"31.1558939783","category":"68","category_name":"快餐厅","address":"闵行区虹莘路2930号(近东兰路)"},{"poiid":"B2094757D068ABFB479C","title":"海上新村","lon":"121.36875","lat":"31.156965","category":"47","category_name":"住宅区","address":"上海漕宝路1800弄"},{"poiid":"B2094654DA65A3F8499D","title":"阳光乾城苑","lon":"121.37106","lat":"31.15701","category":"47","category_name":"住宅区","address":"星中路1111弄"},{"poiid":"B2094654DA64A3FE469D","title":"上海市公安局闵行分局交通警察支队二中队","lon":"121.36434","lat":"31.15729","category":"248","category_name":"生活娱乐","address":""},{"poiid":"B2094654DA65A2FC4698","title":"上海展艺建筑安装工程有限公司","lon":"121.37136","lat":"31.15353","category":"123","category_name":"家具建材市场","address":"九星综合市场星北路6幢1号"},{"poiid":"B2094654DA65A2F54998","title":"上海灿新展示设备","lon":"121.37084","lat":"31.15165","category":"123","category_name":"家具建材市场","address":"九星综合市场环东钢结构房51号"},{"poiid":"B2094655D26AA0FA459A","title":"地铁星中路站","lon":"121.36841","lat":"31.15806","category":"36","category_name":"地铁站","address":""},{"poiid":"B2094757D168A5FB459F","title":"七宝中学高三17班","lon":"121.36715674","lat":"31.150019588","category":"55","category_name":"中学","address":"上海闵行区农南路22号七宝中学内"},{"poiid":"B2094750D56DA3FB489B","title":"七宝三中","lon":"121.363418","lat":"31.153989","category":"55","category_name":"中学","address":"闵行区宝南路88号(近七宝老街)"},{"poiid":"B2094654DA65A2F5499E","title":"卡迪龙五金","lon":"121.37091","lat":"31.15154","category":"123","category_name":"家具建材市场","address":"九星综合市场环东钢结构房55号"},{"poiid":"B2094654DA64A3FD4792","title":"九星不锈钢批发市场","lon":"121.36468","lat":"31.1545","category":"123","category_name":"家具建材市场","address":""},{"poiid":"B2094655D36DA0FE4699","title":"星中路","lon":"121.36743","lat":"31.15811","category":"38","category_name":"公交车站","address":""},{"poiid":"B2094757D569A2FD439B","title":"格林豪泰酒店(上海七宝店)","lon":"121.3640332","lat":"31.15404785","category":"216","category_name":"经济型连锁酒店","address":"闵行区七宝镇宝南路85号(近新镇路)"},{"poiid":"B2094757D469A5FD4793","title":"漕宝路兰州正宗牛肉拉面","lon":"121.368502","lat":"31.158047","category":"87","category_name":"特色／地方风味餐厅","address":"闵行区漕宝路1792号(近地铁星中路站)"},{"poiid":"B2094654DA6BABF4439D","title":"秀枫翠谷公寓","lon":"121.36489","lat":"31.15887","category":"47","category_name":"住宅区","address":"漕宝路1911号"},{"poiid":"B2094654DA64A3F94993","title":"三佳花苑","lon":"121.36186","lat":"31.156012","category":"47","category_name":"住宅区","address":"上海新镇路1060弄"},{"poiid":"B2094654DB69A6F84993","title":"亿豪名邸","lon":"121.365","lat":"31.1498","category":"47","category_name":"住宅区","address":"上海市闵行区七莘路2368号"},{"poiid":"B2094757D16EA2FD459B","title":"上海交通大学南19栋217室","lon":"121.371994","lat":"31.152279","category":"500","category_name":"未知分类","address":"上海闵行区东川路800号南19栋"},{"poiid":"B2094757D065A3F54092","title":"诺宝健身中心游泳馆","lon":"121.37289","lat":"31.15739","category":"220","category_name":"运动场所","address":"上海闵行区漕宝路1688号诺宝中心大酒店  "},{"poiid":"B2094750DA65A2FC4092","title":"徐家汇","lon":"121.363052","lat":"31.15085","category":"500","category_name":"未知分类","address":null},{"poiid":"B209475CD265AAF54399","title":"广东汕头来兴大排档","lon":"121.374313054","lat":"31.153905793","category":"68","category_name":"快餐厅","address":"星东路九星市场1号楼105室近星环路口"},{"poiid":"B2094654DA64A3FA4192","title":"东风公寓(三佳花苑东南)","lon":"121.36368","lat":"31.15467","category":"47","category_name":"住宅区","address":""},{"poiid":"B2094654DA64A3FE459E","title":"上海锦富有色金属材料","lon":"121.36534","lat":"31.15579","category":"123","category_name":"家具建材市场","address":"星强街15号房6号"},{"poiid":"B2094654DA6BAAFF409C","title":"闵行体育公园(农南路)","lon":"121.36664","lat":"31.14692","category":"196","category_name":"公园","address":"农南路55"},{"poiid":"B2094757D069A7F4449D","title":"中化道达尔加油站","lon":"121.362674","lat":"31.158158","category":"500","category_name":"未知分类","address":"闵行区漕宝路1997号(近星强街)"},{"poiid":"B2094654DA65A3FB439A","title":"吴江月星防水系列","lon":"121.37371","lat":"31.15317","category":"123","category_name":"家具建材市场","address":"闵行区停车场街36幢9号"},{"poiid":"B2094757D568AAFF449F","title":"上海泉福耐力板有限公司正成工业连锁","lon":"121.364768","lat":"31.154987","category":"249","category_name":"购物服务","address":"星富街13幢18-19号"},{"poiid":"B2094655D26FA3F9439B","title":"快客No.1698","lon":"121.37016","lat":"31.15791","category":"117","category_name":"便民商店/便利店","address":"漕宝路1788"},{"poiid":"B2094654DA6BABFB489D","title":"宝仪花苑","lon":"121.36406","lat":"31.149136","category":"47","category_name":"住宅区","address":"宝仪花苑位于闵行新镇路876弄"},{"poiid":"B2094757D168A0FD499E","title":"瀏島訓練基地","lon":"121.364218","lat":"31.154423","category":"500","category_name":"未知分类","address":"上海嘉定區"},{"poiid":"B2094757D06EAAFD409D","title":"闵行体育公园","lon":"121.36664128","lat":"31.146892955","category":"500","category_name":"未知分类","address":"闵行区新镇路456号(近农南路)"},{"poiid":"B2094757D06EAAF5479B","title":"星巴克(漕宝店)","lon":"121.3770909","lat":"31.157744","category":"65","category_name":"咖啡厅","address":"闵行区虹莘路2988号漕宝购物中心内"},{"poiid":"B2094757D06FA1FB4299","title":"星中路地铁站","lon":"121.368422","lat":"31.158064","category":"36","category_name":"地铁站","address":"上海轨道交通 九号线 轨交星中路站 9"},{"poiid":"B2094757D068A1FF4198","title":"七宝中学","lon":"121.36772541","lat":"31.149760126","category":"55","category_name":"中学","address":"闵行区七中路1号(近农南路)"},{"poiid":"B2094757D06FA0F8409F","title":"九星建材批发市场","lon":"121.3737","lat":"31.1493","category":"249","category_name":"购物服务","address":"上海闵行区漕宝路6号桥南侧(近虹莘路)  "},{"poiid":"B2094757D465ABFA449A","title":"沪华海鲜大酒店","lon":"121.37256","lat":"31.1585","category":"76","category_name":"上海菜","address":"闵行区漕宝路1687号(近星中路)"},{"poiid":"B2094757D068A6F54893","title":"七宝中学游泳馆","lon":"121.36752","lat":"31.15183","category":"253","category_name":"校园生活","address":"上海闵行区农南路22号七宝中学内"},{"poiid":"B2094757DA65A7F84593","title":"炭","lon":"121.37090504","lat":"31.16090053999999","category":"247","category_name":"餐饮美食","address":"虹泉路1101弄7号(近虹莘路)"},{"poiid":"B2094757D06BA7FC429C","title":"S20外环线漕宝路出口","lon":"121.367194586","lat":"31.158640732","category":"500","category_name":"未知分类","address":"上海漕宝路"},{"poiid":"B2094751DA6BA1F8469D","title":"上海虹桥机场","lon":"121.367375","lat":"31.152502","category":"500","category_name":"未知分类","address":null},{"poiid":"B2094757DB68A4F54692","title":"上海歌城","lon":"121.37208861","lat":"31.15523277999998","category":"170","category_name":"KTV","address":"漕宝路"},{"poiid":"B2094757D16AA2FA419D","title":"九星宴会厅","lon":"121.36811058","lat":"31.152861919","category":"247","category_name":"餐饮美食","address":"上海市闵行区宝盛路"},{"poiid":"B2094654DA6BABF4409D","title":"茂盛城市花园","lon":"121.36122","lat":"31.15213","category":"47","category_name":"住宅区","address":"新镇路1036弄"},{"poiid":"B2094654DB69A6FE429B","title":"明强小学","lon":"121.3612","lat":"31.15171","category":"56","category_name":"小学","address":"闵行区七宝镇新镇路1050号"},{"poiid":"B2094757D068A2FD4793","title":"DQ冰雪皇后 漕宝路店 Dairy Queen","lon":"121.37609","lat":"31.15785","category":"113","category_name":"冷饮店","address":"闵行区漕宝路1574号漕宝购物中心(漕宝路虹莘路)"},{"poiid":"B2094757D06AA1F54693","title":"G2京沪高速安亭收费站","lon":"121.368501586","lat":"31.1546650543","category":"267","category_name":"收费站","address":"上海京沪高速"},{"poiid":"B2094654DA64A3FE439A","title":"小豆苗(星强街)","lon":"121.3667","lat":"31.15365","category":"117","category_name":"便民商店/便利店","address":"闵行区星强街57幢1-3号"},{"poiid":"B2094757D06FA0FB499A","title":"外环线","lon":"121.37167739","lat":"31.147986525","category":"500","category_name":"未知分类","address":"上海外环线"},{"poiid":"B2094757D069A5F54893","title":"╅蓝海の天空","lon":"121.36896994","lat":"31.152207865","category":"500","category_name":"未知分类","address":"上海╅蓝海の天空"},{"poiid":"B2094757D66CA7F54098","title":"漕宝路星强街","lon":"121.367959586","lat":"31.153058923","category":"260","category_name":"其他","address":"上海闵行区星强街"},{"poiid":"B2094757D164A6FA4898","title":"浙鲜面馆","lon":"121.377268586","lat":"31.1558939783","category":"68","category_name":"快餐厅","address":"闵行区虹莘路2930号(近东兰路)"},{"poiid":"B2094757D068ABFB479C","title":"海上新村","lon":"121.36875","lat":"31.156965","category":"47","category_name":"住宅区","address":"上海漕宝路1800弄"},{"poiid":"B2094654DA65A3F8499D","title":"阳光乾城苑","lon":"121.37106","lat":"31.15701","category":"47","category_name":"住宅区","address":"星中路1111弄"},{"poiid":"B2094654DA64A3FE469D","title":"上海市公安局闵行分局交通警察支队二中队","lon":"121.36434","lat":"31.15729","category":"248","category_name":"生活娱乐","address":""},{"poiid":"B2094654DA65A2FC4698","title":"上海展艺建筑安装工程有限公司","lon":"121.37136","lat":"31.15353","category":"123","category_name":"家具建材市场","address":"九星综合市场星北路6幢1号"},{"poiid":"B2094654DA65A2F54998","title":"上海灿新展示设备","lon":"121.37084","lat":"31.15165","category":"123","category_name":"家具建材市场","address":"九星综合市场环东钢结构房51号"},{"poiid":"B2094655D26AA0FA459A","title":"地铁星中路站","lon":"121.36841","lat":"31.15806","category":"36","category_name":"地铁站","address":""},{"poiid":"B2094757D168A5FB459F","title":"七宝中学高三17班","lon":"121.36715674","lat":"31.150019588","category":"55","category_name":"中学","address":"上海闵行区农南路22号七宝中学内"},{"poiid":"B2094750D56DA3FB489B","title":"七宝三中","lon":"121.363418","lat":"31.153989","category":"55","category_name":"中学","address":"闵行区宝南路88号(近七宝老街)"},{"poiid":"B2094654DA65A2F5499E","title":"卡迪龙五金","lon":"121.37091","lat":"31.15154","category":"123","category_name":"家具建材市场","address":"九星综合市场环东钢结构房55号"},{"poiid":"B2094654DA64A3FD4792","title":"九星不锈钢批发市场","lon":"121.36468","lat":"31.1545","category":"123","category_name":"家具建材市场","address":""},{"poiid":"B2094655D36DA0FE4699","title":"星中路","lon":"121.36743","lat":"31.15811","category":"38","category_name":"公交车站","address":""},{"poiid":"B2094757D569A2FD439B","title":"格林豪泰酒店(上海七宝店)","lon":"121.3640332","lat":"31.15404785","category":"216","category_name":"经济型连锁酒店","address":"闵行区七宝镇宝南路85号(近新镇路)"},{"poiid":"B2094757D469A5FD4793","title":"漕宝路兰州正宗牛肉拉面","lon":"121.368502","lat":"31.158047","category":"87","category_name":"特色／地方风味餐厅","address":"闵行区漕宝路1792号(近地铁星中路站)"},{"poiid":"B2094654DA6BABF4439D","title":"秀枫翠谷公寓","lon":"121.36489","lat":"31.15887","category":"47","category_name":"住宅区","address":"漕宝路1911号"},{"poiid":"B2094654DA64A3F94993","title":"三佳花苑","lon":"121.36186","lat":"31.156012","category":"47","category_name":"住宅区","address":"上海新镇路1060弄"},{"poiid":"B2094654DB69A6F84993","title":"亿豪名邸","lon":"121.365","lat":"31.1498","category":"47","category_name":"住宅区","address":"上海市闵行区七莘路2368号"},{"poiid":"B2094757D16EA2FD459B","title":"上海交通大学南19栋217室","lon":"121.371994","lat":"31.152279","category":"500","category_name":"未知分类","address":"上海闵行区东川路800号南19栋"},{"poiid":"B2094757D065A3F54092","title":"诺宝健身中心游泳馆","lon":"121.37289","lat":"31.15739","category":"220","category_name":"运动场所","address":"上海闵行区漕宝路1688号诺宝中心大酒店  "},{"poiid":"B2094750DA65A2FC4092","title":"徐家汇","lon":"121.363052","lat":"31.15085","category":"500","category_name":"未知分类","address":null},{"poiid":"B209475CD265AAF54399","title":"广东汕头来兴大排档","lon":"121.374313054","lat":"31.153905793","category":"68","category_name":"快餐厅","address":"星东路九星市场1号楼105室近星环路口"},{"poiid":"B2094654DA64A3FA4192","title":"东风公寓(三佳花苑东南)","lon":"121.36368","lat":"31.15467","category":"47","category_name":"住宅区","address":""},{"poiid":"B2094654DA64A3FE459E","title":"上海锦富有色金属材料","lon":"121.36534","lat":"31.15579","category":"123","category_name":"家具建材市场","address":"星强街15号房6号"},{"poiid":"B2094654DA6BAAFF409C","title":"闵行体育公园(农南路)","lon":"121.36664","lat":"31.14692","category":"196","category_name":"公园","address":"农南路55"},{"poiid":"B2094757D069A7F4449D","title":"中化道达尔加油站","lon":"121.362674","lat":"31.158158","category":"500","category_name":"未知分类","address":"闵行区漕宝路1997号(近星强街)"},{"poiid":"B2094654DA65A3FB439A","title":"吴江月星防水系列","lon":"121.37371","lat":"31.15317","category":"123","category_name":"家具建材市场","address":"闵行区停车场街36幢9号"},{"poiid":"B2094757D568AAFF449F","title":"上海泉福耐力板有限公司正成工业连锁","lon":"121.364768","lat":"31.154987","category":"249","category_name":"购物服务","address":"星富街13幢18-19号"},{"poiid":"B2094655D26FA3F9439B","title":"快客No.1698","lon":"121.37016","lat":"31.15791","category":"117","category_name":"便民商店/便利店","address":"漕宝路1788"},{"poiid":"B2094654DA6BABFB489D","title":"宝仪花苑","lon":"121.36406","lat":"31.149136","category":"47","category_name":"住宅区","address":"宝仪花苑位于闵行新镇路876弄"},{"poiid":"B2094757D168A0FD499E","title":"瀏島訓練基地","lon":"121.364218","lat":"31.154423","category":"500","category_name":"未知分类","address":"上海嘉定區"}]