[{"poiid":"B2094654DA68A7FE4398","title":"上海交通大学医学院附属第九人民医院","lon":"121.48547","lat":"31.20242","category":"162","category_name":"医院","address":"上海市黄浦区制造局路639号"},{"poiid":"B2094757D068A3FF4999","title":"上海第九人民医院一号楼(牙科)","lon":"121.4861226","lat":"31.201654541","category":"162","category_name":"医院","address":"上海市黄浦区制造局路639号"},{"poiid":"B2094757D06EAAFB489A","title":"西藏南路地铁站","lon":"121.48955049","lat":"31.201815904","category":"36","category_name":"地铁站","address":"黄浦区西藏南路"},{"poiid":"B2094753D76FAAFA449C","title":"上海滩国泰旗舰店","lon":"121.466011","lat":"31.216125","category":"249","category_name":"购物服务","address":"淮海中路868号"},{"poiid":"B209475CD564A7F84292","title":"上海滩新天地店","lon":"121.47463","lat":"31.22164","category":"119","category_name":"商场","address":"\"太仓路181弄新天地北里15号\r\n\""},{"poiid":"B2094655D36DA1FB4193","title":"西藏南路","lon":"121.48925","lat":"31.20238","category":"38","category_name":"公交车站","address":"上海八号线西藏南路站"},{"poiid":"B2094655D36CA1FD4992","title":"第九人民医院站(制造局路瞿溪路)","lon":"121.48459","lat":"31.20415","category":"38","category_name":"公交车站","address":"制造局路瞿溪路"},{"poiid":"B2094655D268A5FB499B","title":"上海交通大学口腔医学院九院临床医学院","lon":"121.4868","lat":"31.1995","category":"52","category_name":"高等院校","address":""},{"poiid":"B2094757D068A0F84293","title":"上海交通大学医学院附属第九人民医院（总院）7号楼","lon":"121.485483","lat":"31.202928","category":"162","category_name":"医院","address":"上海黄浦区制造局路639号(近瞿溪路)"},{"poiid":"B2094654DA68A7F4499B","title":"卢湾都市花园","lon":"121.4851008675","lat":"31.200123503758","category":"47","category_name":"住宅区","address":"上海市卢湾区鲁班路509号"},{"poiid":"B2094750D56DA6FF439B","title":"x先生密室","lon":"121.486541","lat":"31.200435","category":"500","category_name":"未知分类","address":"卢湾区局门路550号八号桥三期1号楼"},{"poiid":"B2094757D569A3FF459F","title":"天水雅居(瞿溪店)","lon":"121.48796","lat":"31.20321611","category":"74","category_name":"江苏菜","address":"黄浦区瞿溪路479号(近西藏南路)"},{"poiid":"B2094654DA68A7FE429A","title":"五爱高级中学","lon":"121.48476","lat":"31.20134","category":"55","category_name":"中学","address":"卢湾区制造局路666号(近瞿溪路)"},{"poiid":"B2094757D06FABFF4399","title":"上海市第九人民医院2号楼","lon":"121.485595653","lat":"31.2028247612","category":"162","category_name":"医院","address":"上海市黄浦区制造局路639号"},{"poiid":"B2094655D269AAFA4892","title":"世和酒店","lon":"121.48844","lat":"31.20322","category":"247","category_name":"餐饮美食","address":"黄浦区西藏南路1528号(瞿溪路口)"},{"poiid":"B2094757D06AA4FE449B","title":"九院口腔颌面外科","lon":"121.485124","lat":"31.203228","category":"162","category_name":"医院","address":"上海制造局639号"},{"poiid":"B2094654DA68A7FE459B","title":"瞿四小区(瞿溪路)","lon":"121.48677","lat":"31.20107","category":"47","category_name":"住宅区","address":"中山南一路247弄1-24号"},{"poiid":"B2094655D36DA7F84792","title":"中山南一路西藏南路","lon":"121.48866","lat":"31.20129","category":"38","category_name":"公交车站","address":""},{"poiid":"B2094757D068A4FE4799","title":"蔡先生苏州汤包馆(制造局路店)","lon":"121.48496","lat":"31.20279","category":"68","category_name":"快餐厅","address":"卢湾区制造局路592号(近第九人民医院)"},{"poiid":"B2094757D069ABFB409F","title":"吴越人家面馆(制造局路店)","lon":"121.4855","lat":"31.20157","category":"68","category_name":"快餐厅","address":"卢湾区制造局路640号(近中山南一路)"},{"poiid":"B2094757D06AA4F94292","title":"coffee bean","lon":"121.48605346","lat":"31.199184417","category":"65","category_name":"咖啡厅","address":"上海8号桥三期"},{"poiid":"B2094757D06FABFD4999","title":"全家便利店(西藏南路店)","lon":"121.48975","lat":"31.20234","category":"117","category_name":"便民商店/便利店","address":"黄浦区西藏南路1521号(近中山南一路)"},{"poiid":"B2094654DA68A7F94699","title":"黄金岛大酒店","lon":"121.48628","lat":"31.19932","category":"250","category_name":"公园户外","address":"卢湾区制造局路833弄口(近市第九人民医院)"},{"poiid":"B2094757D66CA6FA4298","title":"胖子烧烤","lon":"121.48614","lat":"31.19889","category":"68","category_name":"快餐厅","address":"卢湾区制造局路833弄内(近中山南一路)"},{"poiid":"B2094654DB65A3FD469F","title":"上海第二医科大学附属第九人民医院门诊部","lon":"121.48548","lat":"31.20292","category":"162","category_name":"医院","address":"制造局路639号"},{"poiid":"B2094654DB6BABF9409E","title":"悦悦旺","lon":"121.4858","lat":"31.20039","category":"86","category_name":"火锅店","address":"卢湾区中山南一路299号](制造局路口)"},{"poiid":"B2094757D468A7FA4099","title":"九院食堂","lon":"121.485805","lat":"31.202255","category":"68","category_name":"快餐厅","address":"卢湾区制造局路639号第九人民医院(近瞿溪路)"},{"poiid":"B2094751DA6BA0FA419D","title":"世博源巴国布衣","lon":"121.486386","lat":"31.198458","category":"247","category_name":"餐饮美食","address":"世博大道1368号世博源"},{"poiid":"B2094757D069ABF5489C","title":"上海市荷花池幼儿园","lon":"121.488098145","lat":"31.2027244568","category":"500","category_name":"未知分类","address":"黄浦区瞿溪路468号(瞿溪路西藏南路)"},{"poiid":"B2094654DA68A7F8419E","title":"良友金伴便利No.196","lon":"121.4864","lat":"31.20054","category":"117","category_name":"便民商店/便利店","address":"中山南一路291"},{"poiid":"B2094757D06BA1FA4098","title":"700啤酒屋","lon":"121.48716847","lat":"31.201254408","category":"247","category_name":"餐饮美食","address":"上海汝南路"},{"poiid":"B2094654DA68A7FE4698","title":"明珠家园","lon":"121.48727","lat":"31.202999","category":"47","category_name":"住宅区","address":"上海市黄浦区瞿溪路548号"},{"poiid":"B2094757D065A1F8459A","title":"瞿四小区","lon":"121.48619173","lat":"31.200997677","category":"252","category_name":"楼宇机构","address":"上海市黄浦区制造局路瞿溪路"},{"poiid":"B2094757D068A7F94292","title":"7-ELEVEN(局门店)","lon":"121.485566","lat":"31.200914","category":"117","category_name":"便民商店/便利店","address":"卢湾区局门路525号(近瞿溪路)"},{"poiid":"B2094655D268A5FE419F","title":"瞿四小区(北门)","lon":"121.48625","lat":"31.20155","category":"47","category_name":"住宅区","address":""},{"poiid":"B2094655D268A4F84098","title":"上海交通大学口腔医学院九院临床医学院(南门)","lon":"121.48694","lat":"31.19947","category":"52","category_name":"高等院校","address":""},{"poiid":"B2094654DB6BABF9409F","title":"快客(制造局路邮政所东南)","lon":"121.48562","lat":"31.20154","category":"117","category_name":"便民商店/便利店","address":"制造局路679-681"},{"poiid":"B2094654DA68A7F84098","title":"半淞都市型工业园区","lon":"121.48732","lat":"31.20145","category":"45","category_name":"产业园区","address":""},{"poiid":"B2094750D768A0F4449E","title":"六二和牛肉面(汝南街店)","lon":"121.485","lat":"31.2028","category":"68","category_name":"快餐厅","address":"卢湾区汝南街130号(近局门路)"},{"poiid":"B2094751D26BA0FE4493","title":"麦当劳","lon":"121.483022","lat":"31.201843","category":"247","category_name":"餐饮美食","address":"瞿溪路691号"},{"poiid":"B2094654DA68A7F9469E","title":"黄金岛食府","lon":"121.4861","lat":"31.19926","category":"76","category_name":"上海菜","address":"黄浦区制造局路789号(近中山南一路口)"},{"poiid":"B2094757D069A4F54198","title":"第二医科大学第九医院整形口腔门诊","lon":"121.4854","lat":"31.20253","category":"162","category_name":"医院","address":"上海卢湾区制造局路639号(近瞿溪路)"},{"poiid":"B2094757D66DA4FB429E","title":"九院5号楼5楼","lon":"121.486545738","lat":"31.2021117011","category":"500","category_name":"未知分类","address":"上海制造局路"},{"poiid":"B2094654DA68A7FD4898","title":"东怡花苑","lon":"121.48348","lat":"31.200453","category":"47","category_name":"住宅区","address":"上海市卢湾区局门路599弄"},{"poiid":"B2094757D068A0FD4992","title":"永和大王(制造局路店)","lon":"121.48484","lat":"31.20398","category":"68","category_name":"快餐厅","address":"卢湾区制造局路516号(近西凌家宅路)"},{"poiid":"B2094753D46AA7F4439E","title":"外婆家（虹口龙之梦店）","lon":"121.487358","lat":"31.201837","category":"500","category_name":"未知分类","address":"上海市 西江湾路388号虹口凯德龙之梦购物中心B楼2楼(近虹口足球场)"},{"poiid":"B2094654DB64AAF54999","title":"上海市黄浦区科技工业大楼","lon":"121.48626","lat":"31.19946","category":"46","category_name":"楼宇","address":"制造局路787号"},{"poiid":"B2094750D76EAAFA4298","title":"映水涵","lon":"121.485","lat":"31.2028","category":"76","category_name":"上海菜","address":"卢湾区汝南街124-2号(近局门路)"},{"poiid":"B2094654DA68A7FD4599","title":"洪兴餐馆","lon":"121.485","lat":"31.20266","category":"76","category_name":"上海菜","address":"卢湾区制造局路598号(近第九人民医院)"},{"poiid":"B2094751D56EABFC499F","title":"上海交通大学附属第九人民医院","lon":"121.48516","lat":"31.20207","category":"162","category_name":"医院","address":"制造局路"},{"poiid":"B2094654DA68A7FE4398","title":"上海交通大学医学院附属第九人民医院","lon":"121.48547","lat":"31.20242","category":"162","category_name":"医院","address":"上海市黄浦区制造局路639号"},{"poiid":"B2094757D068A3FF4999","title":"上海第九人民医院一号楼(牙科)","lon":"121.4861226","lat":"31.201654541","category":"162","category_name":"医院","address":"上海市黄浦区制造局路639号"},{"poiid":"B2094757D06EAAFB489A","title":"西藏南路地铁站","lon":"121.48955049","lat":"31.201815904","category":"36","category_name":"地铁站","address":"黄浦区西藏南路"},{"poiid":"B2094753D76FAAFA449C","title":"上海滩国泰旗舰店","lon":"121.466011","lat":"31.216125","category":"249","category_name":"购物服务","address":"淮海中路868号"},{"poiid":"B209475CD564A7F84292","title":"上海滩新天地店","lon":"121.47463","lat":"31.22164","category":"119","category_name":"商场","address":"\"太仓路181弄新天地北里15号\r\n\""},{"poiid":"B2094655D36DA1FB4193","title":"西藏南路","lon":"121.48925","lat":"31.20238","category":"38","category_name":"公交车站","address":"上海八号线西藏南路站"},{"poiid":"B2094655D36CA1FD4992","title":"第九人民医院站(制造局路瞿溪路)","lon":"121.48459","lat":"31.20415","category":"38","category_name":"公交车站","address":"制造局路瞿溪路"},{"poiid":"B2094655D268A5FB499B","title":"上海交通大学口腔医学院九院临床医学院","lon":"121.4868","lat":"31.1995","category":"52","category_name":"高等院校","address":""},{"poiid":"B2094757D068A0F84293","title":"上海交通大学医学院附属第九人民医院（总院）7号楼","lon":"121.485483","lat":"31.202928","category":"162","category_name":"医院","address":"上海黄浦区制造局路639号(近瞿溪路)"},{"poiid":"B2094654DA68A7F4499B","title":"卢湾都市花园","lon":"121.4851008675","lat":"31.200123503758","category":"47","category_name":"住宅区","address":"上海市卢湾区鲁班路509号"},{"poiid":"B2094750D56DA6FF439B","title":"x先生密室","lon":"121.486541","lat":"31.200435","category":"500","category_name":"未知分类","address":"卢湾区局门路550号八号桥三期1号楼"},{"poiid":"B2094757D569A3FF459F","title":"天水雅居(瞿溪店)","lon":"121.48796","lat":"31.20321611","category":"74","category_name":"江苏菜","address":"黄浦区瞿溪路479号(近西藏南路)"},{"poiid":"B2094654DA68A7FE429A","title":"五爱高级中学","lon":"121.48476","lat":"31.20134","category":"55","category_name":"中学","address":"卢湾区制造局路666号(近瞿溪路)"},{"poiid":"B2094757D06FABFF4399","title":"上海市第九人民医院2号楼","lon":"121.485595653","lat":"31.2028247612","category":"162","category_name":"医院","address":"上海市黄浦区制造局路639号"},{"poiid":"B2094655D269AAFA4892","title":"世和酒店","lon":"121.48844","lat":"31.20322","category":"247","category_name":"餐饮美食","address":"黄浦区西藏南路1528号(瞿溪路口)"},{"poiid":"B2094757D06AA4FE449B","title":"九院口腔颌面外科","lon":"121.485124","lat":"31.203228","category":"162","category_name":"医院","address":"上海制造局639号"},{"poiid":"B2094654DA68A7FE459B","title":"瞿四小区(瞿溪路)","lon":"121.48677","lat":"31.20107","category":"47","category_name":"住宅区","address":"中山南一路247弄1-24号"},{"poiid":"B2094655D36DA7F84792","title":"中山南一路西藏南路","lon":"121.48866","lat":"31.20129","category":"38","category_name":"公交车站","address":""},{"poiid":"B2094757D068A4FE4799","title":"蔡先生苏州汤包馆(制造局路店)","lon":"121.48496","lat":"31.20279","category":"68","category_name":"快餐厅","address":"卢湾区制造局路592号(近第九人民医院)"},{"poiid":"B2094757D069ABFB409F","title":"吴越人家面馆(制造局路店)","lon":"121.4855","lat":"31.20157","category":"68","category_name":"快餐厅","address":"卢湾区制造局路640号(近中山南一路)"},{"poiid":"B2094757D06AA4F94292","title":"coffee bean","lon":"121.48605346","lat":"31.199184417","category":"65","category_name":"咖啡厅","address":"上海8号桥三期"},{"poiid":"B2094757D06FABFD4999","title":"全家便利店(西藏南路店)","lon":"121.48975","lat":"31.20234","category":"117","category_name":"便民商店/便利店","address":"黄浦区西藏南路1521号(近中山南一路)"},{"poiid":"B2094654DA68A7F94699","title":"黄金岛大酒店","lon":"121.48628","lat":"31.19932","category":"250","category_name":"公园户外","address":"卢湾区制造局路833弄口(近市第九人民医院)"},{"poiid":"B2094757D66CA6FA4298","title":"胖子烧烤","lon":"121.48614","lat":"31.19889","category":"68","category_name":"快餐厅","address":"卢湾区制造局路833弄内(近中山南一路)"},{"poiid":"B2094654DB65A3FD469F","title":"上海第二医科大学附属第九人民医院门诊部","lon":"121.48548","lat":"31.20292","category":"162","category_name":"医院","address":"制造局路639号"},{"poiid":"B2094654DB6BABF9409E","title":"悦悦旺","lon":"121.4858","lat":"31.20039","category":"86","category_name":"火锅店","address":"卢湾区中山南一路299号](制造局路口)"},{"poiid":"B2094757D468A7FA4099","title":"九院食堂","lon":"121.485805","lat":"31.202255","category":"68","category_name":"快餐厅","address":"卢湾区制造局路639号第九人民医院(近瞿溪路)"},{"poiid":"B2094751DA6BA0FA419D","title":"世博源巴国布衣","lon":"121.486386","lat":"31.198458","category":"247","category_name":"餐饮美食","address":"世博大道1368号世博源"},{"poiid":"B2094757D069ABF5489C","title":"上海市荷花池幼儿园","lon":"121.488098145","lat":"31.2027244568","category":"500","category_name":"未知分类","address":"黄浦区瞿溪路468号(瞿溪路西藏南路)"},{"poiid":"B2094654DA68A7F8419E","title":"良友金伴便利No.196","lon":"121.4864","lat":"31.20054","category":"117","category_name":"便民商店/便利店","address":"中山南一路291"},{"poiid":"B2094757D06BA1FA4098","title":"700啤酒屋","lon":"121.48716847","lat":"31.201254408","category":"247","category_name":"餐饮美食","address":"上海汝南路"},{"poiid":"B2094654DA68A7FE4698","title":"明珠家园","lon":"121.48727","lat":"31.202999","category":"47","category_name":"住宅区","address":"上海市黄浦区瞿溪路548号"},{"poiid":"B2094757D065A1F8459A","title":"瞿四小区","lon":"121.48619173","lat":"31.200997677","category":"252","category_name":"楼宇机构","address":"上海市黄浦区制造局路瞿溪路"},{"poiid":"B2094757D068A7F94292","title":"7-ELEVEN(局门店)","lon":"121.485566","lat":"31.200914","category":"117","category_name":"便民商店/便利店","address":"卢湾区局门路525号(近瞿溪路)"},{"poiid":"B2094655D268A5FE419F","title":"瞿四小区(北门)","lon":"121.48625","lat":"31.20155","category":"47","category_name":"住宅区","address":""},{"poiid":"B2094655D268A4F84098","title":"上海交通大学口腔医学院九院临床医学院(南门)","lon":"121.48694","lat":"31.19947","category":"52","category_name":"高等院校","address":""},{"poiid":"B2094654DB6BABF9409F","title":"快客(制造局路邮政所东南)","lon":"121.48562","lat":"31.20154","category":"117","category_name":"便民商店/便利店","address":"制造局路679-681"},{"poiid":"B2094654DA68A7F84098","title":"半淞都市型工业园区","lon":"121.48732","lat":"31.20145","category":"45","category_name":"产业园区","address":""},{"poiid":"B2094750D768A0F4449E","title":"六二和牛肉面(汝南街店)","lon":"121.485","lat":"31.2028","category":"68","category_name":"快餐厅","address":"卢湾区汝南街130号(近局门路)"},{"poiid":"B2094751D26BA0FE4493","title":"麦当劳","lon":"121.483022","lat":"31.201843","category":"247","category_name":"餐饮美食","address":"瞿溪路691号"},{"poiid":"B2094654DA68A7F9469E","title":"黄金岛食府","lon":"121.4861","lat":"31.19926","category":"76","category_name":"上海菜","address":"黄浦区制造局路789号(近中山南一路口)"},{"poiid":"B2094757D069A4F54198","title":"第二医科大学第九医院整形口腔门诊","lon":"121.4854","lat":"31.20253","category":"162","category_name":"医院","address":"上海卢湾区制造局路639号(近瞿溪路)"},{"poiid":"B2094757D66DA4FB429E","title":"九院5号楼5楼","lon":"121.486545738","lat":"31.2021117011","category":"500","category_name":"未知分类","address":"上海制造局路"},{"poiid":"B2094654DA68A7FD4898","title":"东怡花苑","lon":"121.48348","lat":"31.200453","category":"47","category_name":"住宅区","address":"上海市卢湾区局门路599弄"},{"poiid":"B2094757D068A0FD4992","title":"永和大王(制造局路店)","lon":"121.48484","lat":"31.20398","category":"68","category_name":"快餐厅","address":"卢湾区制造局路516号(近西凌家宅路)"},{"poiid":"B2094753D46AA7F4439E","title":"外婆家（虹口龙之梦店）","lon":"121.487358","lat":"31.201837","category":"500","category_name":"未知分类","address":"上海市 西江湾路388号虹口凯德龙之梦购物中心B楼2楼(近虹口足球场)"},{"poiid":"B2094654DB64AAF54999","title":"上海市黄浦区科技工业大楼","lon":"121.48626","lat":"31.19946","category":"46","category_name":"楼宇","address":"制造局路787号"},{"poiid":"B2094750D76EAAFA4298","title":"映水涵","lon":"121.485","lat":"31.2028","category":"76","category_name":"上海菜","address":"卢湾区汝南街124-2号(近局门路)"},{"poiid":"B2094654DA68A7FD4599","title":"洪兴餐馆","lon":"121.485","lat":"31.20266","category":"76","category_name":"上海菜","address":"卢湾区制造局路598号(近第九人民医院)"},{"poiid":"B2094751D56EABFC499F","title":"上海交通大学附属第九人民医院","lon":"121.48516","lat":"31.20207","category":"162","category_name":"医院","address":"制造局路"},{"poiid":"B2094654DA68A7FE4398","title":"上海交通大学医学院附属第九人民医院","lon":"121.48547","lat":"31.20242","category":"162","category_name":"医院","address":"上海市黄浦区制造局路639号"},{"poiid":"B2094757D068A3FF4999","title":"上海第九人民医院一号楼(牙科)","lon":"121.4861226","lat":"31.201654541","category":"162","category_name":"医院","address":"上海市黄浦区制造局路639号"},{"poiid":"B2094757D06EAAFB489A","title":"西藏南路地铁站","lon":"121.48955049","lat":"31.201815904","category":"36","category_name":"地铁站","address":"黄浦区西藏南路"},{"poiid":"B2094753D76FAAFA449C","title":"上海滩国泰旗舰店","lon":"121.466011","lat":"31.216125","category":"249","category_name":"购物服务","address":"淮海中路868号"},{"poiid":"B209475CD564A7F84292","title":"上海滩新天地店","lon":"121.47463","lat":"31.22164","category":"119","category_name":"商场","address":"\"太仓路181弄新天地北里15号\r\n\""},{"poiid":"B2094655D36DA1FB4193","title":"西藏南路","lon":"121.48925","lat":"31.20238","category":"38","category_name":"公交车站","address":"上海八号线西藏南路站"},{"poiid":"B2094655D36CA1FD4992","title":"第九人民医院站(制造局路瞿溪路)","lon":"121.48459","lat":"31.20415","category":"38","category_name":"公交车站","address":"制造局路瞿溪路"},{"poiid":"B2094655D268A5FB499B","title":"上海交通大学口腔医学院九院临床医学院","lon":"121.4868","lat":"31.1995","category":"52","category_name":"高等院校","address":""},{"poiid":"B2094757D068A0F84293","title":"上海交通大学医学院附属第九人民医院（总院）7号楼","lon":"121.485483","lat":"31.202928","category":"162","category_name":"医院","address":"上海黄浦区制造局路639号(近瞿溪路)"},{"poiid":"B2094654DA68A7F4499B","title":"卢湾都市花园","lon":"121.4851008675","lat":"31.200123503758","category":"47","category_name":"住宅区","address":"上海市卢湾区鲁班路509号"},{"poiid":"B2094750D56DA6FF439B","title":"x先生密室","lon":"121.486541","lat":"31.200435","category":"500","category_name":"未知分类","address":"卢湾区局门路550号八号桥三期1号楼"},{"poiid":"B2094757D569A3FF459F","title":"天水雅居(瞿溪店)","lon":"121.48796","lat":"31.20321611","category":"74","category_name":"江苏菜","address":"黄浦区瞿溪路479号(近西藏南路)"},{"poiid":"B2094654DA68A7FE429A","title":"五爱高级中学","lon":"121.48476","lat":"31.20134","category":"55","category_name":"中学","address":"卢湾区制造局路666号(近瞿溪路)"},{"poiid":"B2094757D06FABFF4399","title":"上海市第九人民医院2号楼","lon":"121.485595653","lat":"31.2028247612","category":"162","category_name":"医院","address":"上海市黄浦区制造局路639号"},{"poiid":"B2094655D269AAFA4892","title":"世和酒店","lon":"121.48844","lat":"31.20322","category":"247","category_name":"餐饮美食","address":"黄浦区西藏南路1528号(瞿溪路口)"},{"poiid":"B2094757D06AA4FE449B","title":"九院口腔颌面外科","lon":"121.485124","lat":"31.203228","category":"162","category_name":"医院","address":"上海制造局639号"},{"poiid":"B2094654DA68A7FE459B","title":"瞿四小区(瞿溪路)","lon":"121.48677","lat":"31.20107","category":"47","category_name":"住宅区","address":"中山南一路247弄1-24号"},{"poiid":"B2094655D36DA7F84792","title":"中山南一路西藏南路","lon":"121.48866","lat":"31.20129","category":"38","category_name":"公交车站","address":""},{"poiid":"B2094757D068A4FE4799","title":"蔡先生苏州汤包馆(制造局路店)","lon":"121.48496","lat":"31.20279","category":"68","category_name":"快餐厅","address":"卢湾区制造局路592号(近第九人民医院)"},{"poiid":"B2094757D069ABFB409F","title":"吴越人家面馆(制造局路店)","lon":"121.4855","lat":"31.20157","category":"68","category_name":"快餐厅","address":"卢湾区制造局路640号(近中山南一路)"},{"poiid":"B2094757D06AA4F94292","title":"coffee bean","lon":"121.48605346","lat":"31.199184417","category":"65","category_name":"咖啡厅","address":"上海8号桥三期"},{"poiid":"B2094757D06FABFD4999","title":"全家便利店(西藏南路店)","lon":"121.48975","lat":"31.20234","category":"117","category_name":"便民商店/便利店","address":"黄浦区西藏南路1521号(近中山南一路)"},{"poiid":"B2094654DA68A7F94699","title":"黄金岛大酒店","lon":"121.48628","lat":"31.19932","category":"250","category_name":"公园户外","address":"卢湾区制造局路833弄口(近市第九人民医院)"},{"poiid":"B2094757D66CA6FA4298","title":"胖子烧烤","lon":"121.48614","lat":"31.19889","category":"68","category_name":"快餐厅","address":"卢湾区制造局路833弄内(近中山南一路)"},{"poiid":"B2094654DB65A3FD469F","title":"上海第二医科大学附属第九人民医院门诊部","lon":"121.48548","lat":"31.20292","category":"162","category_name":"医院","address":"制造局路639号"},{"poiid":"B2094654DB6BABF9409E","title":"悦悦旺","lon":"121.4858","lat":"31.20039","category":"86","category_name":"火锅店","address":"卢湾区中山南一路299号](制造局路口)"},{"poiid":"B2094757D468A7FA4099","title":"九院食堂","lon":"121.485805","lat":"31.202255","category":"68","category_name":"快餐厅","address":"卢湾区制造局路639号第九人民医院(近瞿溪路)"},{"poiid":"B2094751DA6BA0FA419D","title":"世博源巴国布衣","lon":"121.486386","lat":"31.198458","category":"247","category_name":"餐饮美食","address":"世博大道1368号世博源"},{"poiid":"B2094757D069ABF5489C","title":"上海市荷花池幼儿园","lon":"121.488098145","lat":"31.2027244568","category":"500","category_name":"未知分类","address":"黄浦区瞿溪路468号(瞿溪路西藏南路)"},{"poiid":"B2094654DA68A7F8419E","title":"良友金伴便利No.196","lon":"121.4864","lat":"31.20054","category":"117","category_name":"便民商店/便利店","address":"中山南一路291"},{"poiid":"B2094757D06BA1FA4098","title":"700啤酒屋","lon":"121.48716847","lat":"31.201254408","category":"247","category_name":"餐饮美食","address":"上海汝南路"},{"poiid":"B2094654DA68A7FE4698","title":"明珠家园","lon":"121.48727","lat":"31.202999","category":"47","category_name":"住宅区","address":"上海市黄浦区瞿溪路548号"},{"poiid":"B2094757D065A1F8459A","title":"瞿四小区","lon":"121.48619173","lat":"31.200997677","category":"252","category_name":"楼宇机构","address":"上海市黄浦区制造局路瞿溪路"},{"poiid":"B2094757D068A7F94292","title":"7-ELEVEN(局门店)","lon":"121.485566","lat":"31.200914","category":"117","category_name":"便民商店/便利店","address":"卢湾区局门路525号(近瞿溪路)"},{"poiid":"B2094655D268A5FE419F","title":"瞿四小区(北门)","lon":"121.48625","lat":"31.20155","category":"47","category_name":"住宅区","address":""},{"poiid":"B2094655D268A4F84098","title":"上海交通大学口腔医学院九院临床医学院(南门)","lon":"121.48694","lat":"31.19947","category":"52","category_name":"高等院校","address":""},{"poiid":"B2094654DB6BABF9409F","title":"快客(制造局路邮政所东南)","lon":"121.48562","lat":"31.20154","category":"117","category_name":"便民商店/便利店","address":"制造局路679-681"},{"poiid":"B2094654DA68A7F84098","title":"半淞都市型工业园区","lon":"121.48732","lat":"31.20145","category":"45","category_name":"产业园区","address":""},{"poiid":"B2094750D768A0F4449E","title":"六二和牛肉面(汝南街店)","lon":"121.485","lat":"31.2028","category":"68","category_name":"快餐厅","address":"卢湾区汝南街130号(近局门路)"},{"poiid":"B2094751D26BA0FE4493","title":"麦当劳","lon":"121.483022","lat":"31.201843","category":"247","category_name":"餐饮美食","address":"瞿溪路691号"},{"poiid":"B2094654DA68A7F9469E","title":"黄金岛食府","lon":"121.4861","lat":"31.19926","category":"76","category_name":"上海菜","address":"黄浦区制造局路789号(近中山南一路口)"},{"poiid":"B2094757D069A4F54198","title":"第二医科大学第九医院整形口腔门诊","lon":"121.4854","lat":"31.20253","category":"162","category_name":"医院","address":"上海卢湾区制造局路639号(近瞿溪路)"},{"poiid":"B2094757D66DA4FB429E","title":"九院5号楼5楼","lon":"121.486545738","lat":"31.2021117011","category":"500","category_name":"未知分类","address":"上海制造局路"},{"poiid":"B2094654DA68A7FD4898","title":"东怡花苑","lon":"121.48348","lat":"31.200453","category":"47","category_name":"住宅区","address":"上海市卢湾区局门路599弄"},{"poiid":"B2094757D068A0FD4992","title":"永和大王(制造局路店)","lon":"121.48484","lat":"31.20398","category":"68","category_name":"快餐厅","address":"卢湾区制造局路516号(近西凌家宅路)"},{"poiid":"B2094753D46AA7F4439E","title":"外婆家（虹口龙之梦店）","lon":"121.487358","lat":"31.201837","category":"500","category_name":"未知分类","address":"上海市 西江湾路388号虹口凯德龙之梦购物中心B楼2楼(近虹口足球场)"},{"poiid":"B2094654DB64AAF54999","title":"上海市黄浦区科技工业大楼","lon":"121.48626","lat":"31.19946","category":"46","category_name":"楼宇","address":"制造局路787号"},{"poiid":"B2094750D76EAAFA4298","title":"映水涵","lon":"121.485","lat":"31.2028","category":"76","category_name":"上海菜","address":"卢湾区汝南街124-2号(近局门路)"},{"poiid":"B2094654DA68A7FD4599","title":"洪兴餐馆","lon":"121.485","lat":"31.20266","category":"76","category_name":"上海菜","address":"卢湾区制造局路598号(近第九人民医院)"},{"poiid":"B2094751D56EABFC499F","title":"上海交通大学附属第九人民医院","lon":"121.48516","lat":"31.20207","category":"162","category_name":"医院","address":"制造局路"},{"poiid":"B2094654DA68A7FE4398","title":"上海交通大学医学院附属第九人民医院","lon":"121.48547","lat":"31.20242","category":"162","category_name":"医院","address":"上海市黄浦区制造局路639号"},{"poiid":"B2094757D068A3FF4999","title":"上海第九人民医院一号楼(牙科)","lon":"121.4861226","lat":"31.201654541","category":"162","category_name":"医院","address":"上海市黄浦区制造局路639号"},{"poiid":"B2094757D06EAAFB489A","title":"西藏南路地铁站","lon":"121.48955049","lat":"31.201815904","category":"36","category_name":"地铁站","address":"黄浦区西藏南路"},{"poiid":"B2094753D76FAAFA449C","title":"上海滩国泰旗舰店","lon":"121.466011","lat":"31.216125","category":"249","category_name":"购物服务","address":"淮海中路868号"},{"poiid":"B209475CD564A7F84292","title":"上海滩新天地店","lon":"121.47463","lat":"31.22164","category":"119","category_name":"商场","address":"\"太仓路181弄新天地北里15号\r\n\""},{"poiid":"B2094655D36DA1FB4193","title":"西藏南路","lon":"121.48925","lat":"31.20238","category":"38","category_name":"公交车站","address":"上海八号线西藏南路站"},{"poiid":"B2094655D36CA1FD4992","title":"第九人民医院站(制造局路瞿溪路)","lon":"121.48459","lat":"31.20415","category":"38","category_name":"公交车站","address":"制造局路瞿溪路"},{"poiid":"B2094655D268A5FB499B","title":"上海交通大学口腔医学院九院临床医学院","lon":"121.4868","lat":"31.1995","category":"52","category_name":"高等院校","address":""},{"poiid":"B2094757D068A0F84293","title":"上海交通大学医学院附属第九人民医院（总院）7号楼","lon":"121.485483","lat":"31.202928","category":"162","category_name":"医院","address":"上海黄浦区制造局路639号(近瞿溪路)"},{"poiid":"B2094654DA68A7F4499B","title":"卢湾都市花园","lon":"121.4851008675","lat":"31.200123503758","category":"47","category_name":"住宅区","address":"上海市卢湾区鲁班路509号"},{"poiid":"B2094750D56DA6FF439B","title":"x先生密室","lon":"121.486541","lat":"31.200435","category":"500","category_name":"未知分类","address":"卢湾区局门路550号八号桥三期1号楼"},{"poiid":"B2094757D569A3FF459F","title":"天水雅居(瞿溪店)","lon":"121.48796","lat":"31.20321611","category":"74","category_name":"江苏菜","address":"黄浦区瞿溪路479号(近西藏南路)"},{"poiid":"B2094654DA68A7FE429A","title":"五爱高级中学","lon":"121.48476","lat":"31.20134","category":"55","category_name":"中学","address":"卢湾区制造局路666号(近瞿溪路)"},{"poiid":"B2094757D06FABFF4399","title":"上海市第九人民医院2号楼","lon":"121.485595653","lat":"31.2028247612","category":"162","category_name":"医院","address":"上海市黄浦区制造局路639号"},{"poiid":"B2094655D269AAFA4892","title":"世和酒店","lon":"121.48844","lat":"31.20322","category":"247","category_name":"餐饮美食","address":"黄浦区西藏南路1528号(瞿溪路口)"},{"poiid":"B2094757D06AA4FE449B","title":"九院口腔颌面外科","lon":"121.485124","lat":"31.203228","category":"162","category_name":"医院","address":"上海制造局639号"},{"poiid":"B2094654DA68A7FE459B","title":"瞿四小区(瞿溪路)","lon":"121.48677","lat":"31.20107","category":"47","category_name":"住宅区","address":"中山南一路247弄1-24号"},{"poiid":"B2094655D36DA7F84792","title":"中山南一路西藏南路","lon":"121.48866","lat":"31.20129","category":"38","category_name":"公交车站","address":""},{"poiid":"B2094757D068A4FE4799","title":"蔡先生苏州汤包馆(制造局路店)","lon":"121.48496","lat":"31.20279","category":"68","category_name":"快餐厅","address":"卢湾区制造局路592号(近第九人民医院)"},{"poiid":"B2094757D069ABFB409F","title":"吴越人家面馆(制造局路店)","lon":"121.4855","lat":"31.20157","category":"68","category_name":"快餐厅","address":"卢湾区制造局路640号(近中山南一路)"},{"poiid":"B2094757D06AA4F94292","title":"coffee bean","lon":"121.48605346","lat":"31.199184417","category":"65","category_name":"咖啡厅","address":"上海8号桥三期"},{"poiid":"B2094757D06FABFD4999","title":"全家便利店(西藏南路店)","lon":"121.48975","lat":"31.20234","category":"117","category_name":"便民商店/便利店","address":"黄浦区西藏南路1521号(近中山南一路)"},{"poiid":"B2094654DA68A7F94699","title":"黄金岛大酒店","lon":"121.48628","lat":"31.19932","category":"250","category_name":"公园户外","address":"卢湾区制造局路833弄口(近市第九人民医院)"},{"poiid":"B2094757D66CA6FA4298","title":"胖子烧烤","lon":"121.48614","lat":"31.19889","category":"68","category_name":"快餐厅","address":"卢湾区制造局路833弄内(近中山南一路)"},{"poiid":"B2094654DB65A3FD469F","title":"上海第二医科大学附属第九人民医院门诊部","lon":"121.48548","lat":"31.20292","category":"162","category_name":"医院","address":"制造局路639号"},{"poiid":"B2094654DB6BABF9409E","title":"悦悦旺","lon":"121.4858","lat":"31.20039","category":"86","category_name":"火锅店","address":"卢湾区中山南一路299号](制造局路口)"},{"poiid":"B2094757D468A7FA4099","title":"九院食堂","lon":"121.485805","lat":"31.202255","category":"68","category_name":"快餐厅","address":"卢湾区制造局路639号第九人民医院(近瞿溪路)"},{"poiid":"B2094751DA6BA0FA419D","title":"世博源巴国布衣","lon":"121.486386","lat":"31.198458","category":"247","category_name":"餐饮美食","address":"世博大道1368号世博源"},{"poiid":"B2094757D069ABF5489C","title":"上海市荷花池幼儿园","lon":"121.488098145","lat":"31.2027244568","category":"500","category_name":"未知分类","address":"黄浦区瞿溪路468号(瞿溪路西藏南路)"},{"poiid":"B2094654DA68A7F8419E","title":"良友金伴便利No.196","lon":"121.4864","lat":"31.20054","category":"117","category_name":"便民商店/便利店","address":"中山南一路291"},{"poiid":"B2094757D06BA1FA4098","title":"700啤酒屋","lon":"121.48716847","lat":"31.201254408","category":"247","category_name":"餐饮美食","address":"上海汝南路"},{"poiid":"B2094654DA68A7FE4698","title":"明珠家园","lon":"121.48727","lat":"31.202999","category":"47","category_name":"住宅区","address":"上海市黄浦区瞿溪路548号"},{"poiid":"B2094757D065A1F8459A","title":"瞿四小区","lon":"121.48619173","lat":"31.200997677","category":"252","category_name":"楼宇机构","address":"上海市黄浦区制造局路瞿溪路"},{"poiid":"B2094757D068A7F94292","title":"7-ELEVEN(局门店)","lon":"121.485566","lat":"31.200914","category":"117","category_name":"便民商店/便利店","address":"卢湾区局门路525号(近瞿溪路)"},{"poiid":"B2094655D268A5FE419F","title":"瞿四小区(北门)","lon":"121.48625","lat":"31.20155","category":"47","category_name":"住宅区","address":""},{"poiid":"B2094655D268A4F84098","title":"上海交通大学口腔医学院九院临床医学院(南门)","lon":"121.48694","lat":"31.19947","category":"52","category_name":"高等院校","address":""},{"poiid":"B2094654DB6BABF9409F","title":"快客(制造局路邮政所东南)","lon":"121.48562","lat":"31.20154","category":"117","category_name":"便民商店/便利店","address":"制造局路679-681"},{"poiid":"B2094654DA68A7F84098","title":"半淞都市型工业园区","lon":"121.48732","lat":"31.20145","category":"45","category_name":"产业园区","address":""},{"poiid":"B2094750D768A0F4449E","title":"六二和牛肉面(汝南街店)","lon":"121.485","lat":"31.2028","category":"68","category_name":"快餐厅","address":"卢湾区汝南街130号(近局门路)"},{"poiid":"B2094751D26BA0FE4493","title":"麦当劳","lon":"121.483022","lat":"31.201843","category":"247","category_name":"餐饮美食","address":"瞿溪路691号"},{"poiid":"B2094654DA68A7F9469E","title":"黄金岛食府","lon":"121.4861","lat":"31.19926","category":"76","category_name":"上海菜","address":"黄浦区制造局路789号(近中山南一路口)"},{"poiid":"B2094757D069A4F54198","title":"第二医科大学第九医院整形口腔门诊","lon":"121.4854","lat":"31.20253","category":"162","category_name":"医院","address":"上海卢湾区制造局路639号(近瞿溪路)"},{"poiid":"B2094757D66DA4FB429E","title":"九院5号楼5楼","lon":"121.486545738","lat":"31.2021117011","category":"500","category_name":"未知分类","address":"上海制造局路"},{"poiid":"B2094654DA68A7FD4898","title":"东怡花苑","lon":"121.48348","lat":"31.200453","category":"47","category_name":"住宅区","address":"上海市卢湾区局门路599弄"},{"poiid":"B2094757D068A0FD4992","title":"永和大王(制造局路店)","lon":"121.48484","lat":"31.20398","category":"68","category_name":"快餐厅","address":"卢湾区制造局路516号(近西凌家宅路)"},{"poiid":"B2094753D46AA7F4439E","title":"外婆家（虹口龙之梦店）","lon":"121.487358","lat":"31.201837","category":"500","category_name":"未知分类","address":"上海市 西江湾路388号虹口凯德龙之梦购物中心B楼2楼(近虹口足球场)"},{"poiid":"B2094654DB64AAF54999","title":"上海市黄浦区科技工业大楼","lon":"121.48626","lat":"31.19946","category":"46","category_name":"楼宇","address":"制造局路787号"},{"poiid":"B2094750D76EAAFA4298","title":"映水涵","lon":"121.485","lat":"31.2028","category":"76","category_name":"上海菜","address":"卢湾区汝南街124-2号(近局门路)"},{"poiid":"B2094654DA68A7FD4599","title":"洪兴餐馆","lon":"121.485","lat":"31.20266","category":"76","category_name":"上海菜","address":"卢湾区制造局路598号(近第九人民医院)"},{"poiid":"B2094751D56EABFC499F","title":"上海交通大学附属第九人民医院","lon":"121.48516","lat":"31.20207","category":"162","category_name":"医院","address":"制造局路"}]