[{"poiid":"B2094654D564AAFD4492","title":"新锦江大酒店","lon":"121.46285","lat":"31.22076","category":"213","category_name":"五星级宾馆","address":"卢湾区长乐路161号(近瑞金一路)"},{"poiid":"B2094655D26AAAFA449C","title":"上海歌城淮海中路店","lon":"121.46532","lat":"31.21974","category":"170","category_name":"KTV","address":"卢湾区淮海中路688号华狮购物中心内(近思南路)"},{"poiid":"B2094757D06EAAFF439D","title":"新旺茶餐厅(长乐店)","lon":"121.4619","lat":"31.22067","category":"72","category_name":"广东菜","address":"卢湾区长乐路175号(茂名南路瑞金一路间)"},{"poiid":"B2094753D76FAAFA449C","title":"上海滩国泰旗舰店","lon":"121.466011","lat":"31.216125","category":"249","category_name":"购物服务","address":"淮海中路868号"},{"poiid":"B209475CD564A7F84292","title":"上海滩新天地店","lon":"121.47463","lat":"31.22164","category":"119","category_name":"商场","address":"\"太仓路181弄新天地北里15号\r\n\""},{"poiid":"B209475CD564A7F8439E","title":"上海滩中信泰富店","lon":"121.45602","lat":"31.22851","category":"119","category_name":"商场","address":"\"南京西路1168号中信泰富广场，店铺号221.\r\n\""},{"poiid":"B2094757D06FA3F8429C","title":"淮海路","lon":"121.46398412","lat":"31.222631868","category":"260","category_name":"其他","address":"上海淮海路"},{"poiid":"B2094757D06EABF54593","title":"十面埋伏 Seafood Noodle","lon":"121.46235","lat":"31.22113","category":"75","category_name":"浙江菜","address":"卢湾区长乐路352号(近瑞金一路)"},{"poiid":"B2094757D06EAAFA459D","title":"NAPOLEON  CHOCOLATE  BAR","lon":"121.4623558","lat":"31.222834","category":"67","category_name":"甜品店","address":"卢湾区巨鹿路242-2号(近瑞金一路)"},{"poiid":"B2094757D06FA2F94693","title":"淮海中路","lon":"121.463470459","lat":"31.2209300995","category":"36","category_name":"地铁站","address":"卢湾区淮海中路"},{"poiid":"B2094655D26AA1FF429C","title":"避风塘长乐店","lon":"121.46154","lat":"31.22081","category":"66","category_name":"茶艺馆","address":"卢湾区长乐路175号(近茂名南路)"},{"poiid":"B2094750DB6DA4F8499B","title":"Nike品牌体验店","lon":"121.46498963760382","lat":"31.219067199579417","category":"119","category_name":"商场","address":"卢湾区淮海中路717号(近思南路)"},{"poiid":"B2094655D26BA3FB4792","title":"晶采轩新锦江店","lon":"121.46284","lat":"31.22075","category":"72","category_name":"广东菜","address":"卢湾区长乐路161号新锦江大酒店3楼(近瑞金一路)"},{"poiid":"B2094757D66FA1F5419A","title":"新锦江","lon":"121.463139738","lat":"31.2208961012","category":"500","category_name":"未知分类","address":"上海市卢湾区茂名南路"},{"poiid":"B2094757D06FA3FB429B","title":"长乐路","lon":"121.465668","lat":"31.221659","category":"260","category_name":"其他","address":"铁东区陕西北路38号"},{"poiid":"B2094757D068A6F8419C","title":"慧公馆(巨鹿店)","lon":"121.46450224421505","lat":"31.223237790045474","category":"72","category_name":"广东菜","address":"卢湾区巨鹿路168号(近成都南路)"},{"poiid":"B2094757D06FA0FF439B","title":"宝寿司(瑞金一路店)","lon":"121.46346173","lat":"31.219720076","category":"95","category_name":"日本料理","address":"卢湾区瑞金一路159号(近淮海中路)"},{"poiid":"B2094757D06FA0FC409C","title":"大渔铁板烧(瑞金店)","lon":"121.46412","lat":"31.22074","category":"95","category_name":"日本料理","address":"卢湾区瑞金一路139号复兴商厦2楼(近长乐路)"},{"poiid":"B2094654D564A5F8489E","title":"华狮688广场","lon":"121.46528","lat":"31.21971","category":"119","category_name":"商场","address":"卢湾区淮海中路688号华狮购物中心内(近思南路)"},{"poiid":"B2094757D06FAAF9489A","title":"向明中学","lon":"121.4638","lat":"31.22031","category":"55","category_name":"中学","address":"上海卢湾区瑞金一路151号(近长乐路)  "},{"poiid":"B2094757D06FAAFE4392","title":"万藏(长乐路店)","lon":"121.46223","lat":"31.22084","category":"95","category_name":"日本料理","address":"卢湾区长乐路344号1楼(近瑞金一路)"},{"poiid":"B2094757D068A6F4469F","title":"Jimmy's Kitchen","lon":"121.46307273","lat":"31.220327089","category":"94","category_name":"西餐厅","address":"卢湾区茂名南路59号锦北楼1楼(长乐路)"},{"poiid":"B2094750D665A3FA409B","title":"鼎中鼎澳门豆捞(淮海店)","lon":"121.465","lat":"31.2198","category":"86","category_name":"火锅店","address":"卢湾区淮海中路688号华狮购物中心B1楼(近思南路)"},{"poiid":"B2094757D165ABFF4592","title":"光明村","lon":"121.46494373","lat":"31.220659096","category":"500","category_name":"未知分类","address":"上海市卢湾区茂名南路"},{"poiid":"B2094757D068A3FE4699","title":"天天周末(巨鹿路店)","lon":"121.46443","lat":"31.22252","category":"173","category_name":"游戏厅","address":"卢湾区巨鹿路227号(近瑞金一路)"},{"poiid":"B2094654DB6BA6FC499A","title":"天手古舞 巨鹿路店 tentekomai","lon":"121.46271864293","lat":"31.222867030754","category":"95","category_name":"日本料理","address":"卢湾区巨鹿路242号(近瑞金一路)"},{"poiid":"B2094757D068A5FD4498","title":"小南国烧烤(卢湾店)","lon":"121.46287","lat":"31.22073","category":"269","category_name":"烧烤","address":"卢湾区长乐路161号新锦江大酒店3楼(近瑞金一路)"},{"poiid":"B2094655D26AA0FB4293","title":"ZARA华狮店","lon":"121.46532","lat":"31.21974","category":"247","category_name":"餐饮美食","address":"卢湾区淮海中路688号华狮购物中心1楼(近思南路)"},{"poiid":"B2094757D06EAAFC4399","title":"宝丽亚酒吧","lon":"121.46395","lat":"31.22278","category":"260","category_name":"其他","address":"卢湾区巨鹿路158号大同坊内(近成都南路)"},{"poiid":"B2094750D16BA6F8409B","title":"Salon V","lon":"121.465538","lat":"31.22171","category":"248","category_name":"生活娱乐","address":"长乐路139-26号(近瑞金一路)"},{"poiid":"B2094750D565AAFA489A","title":"江南","lon":"121.462814","lat":"31.220983","category":"260","category_name":"其他","address":"卢湾区长乐路348号(近瑞金一路)"},{"poiid":"B2094655D265AAFB459F","title":"锦江北楼","lon":"121.46145","lat":"31.22079","category":"46","category_name":"楼宇","address":"长乐路175"},{"poiid":"B2094757D06FA0F44399","title":"UR (淮海路旗舰店)","lon":"121.46521759","lat":"31.219717025","category":"141","category_name":"服装鞋帽皮具店","address":"上海卢湾区淮海中路688号华狮广场1-2F"},{"poiid":"B2094757DB6FA6FC4693","title":"EL CAMINO","lon":"121.4614093391706","lat":"31.22114830377862","category":"500","category_name":"未知分类","address":"卢湾区成都南路105号(近淮海路)"},{"poiid":"B2094757D068ABFB439A","title":"鹿港小镇家常菜","lon":"121.46185","lat":"31.22081","category":"76","category_name":"上海菜","address":"卢湾区长乐路350号(近瑞金一路)"},{"poiid":"B2094757D068A0FA419C","title":"赛美蓉(Semillon Cafe&amp;Lounge)","lon":"121.46311","lat":"31.22048","category":"247","category_name":"餐饮美食","address":"上海卢湾区长乐路161号新锦江大酒店1楼(近瑞金一路)"},{"poiid":"B2094654DB69A6F4479B","title":"吉野家  华狮广场店","lon":"121.4654","lat":"31.21974","category":"95","category_name":"日本料理","address":"卢湾区淮海中路688号华狮购物中心B1楼(近思南路)"},{"poiid":"B2094757D464A0FF4492","title":"欧风居酒屋","lon":"121.463943","lat":"31.221566","category":"95","category_name":"日本料理","address":"卢湾区长乐路336号2楼(近瑞金一路)"},{"poiid":"B2094757D06FAAFD409C","title":"红宝石(瑞金二店)","lon":"121.46374","lat":"31.21908","category":"67","category_name":"甜品店","address":"卢湾区瑞金一路128号(近淮海中路)"},{"poiid":"B2094757D464AAFB4492","title":"丰裕生煎 瑞金一路店","lon":"121.463617054","lat":"31.219189793","category":"68","category_name":"快餐厅","address":"卢湾区瑞金一路142号旁(近淮海中路)"},{"poiid":"B2094753DB68A4FE449E","title":"七克拉素食咖啡","lon":"121.462837","lat":"31.22306","category":"500","category_name":"未知分类","address":"上海市 巨鹿路242号"},{"poiid":"B2094750DA65A6F4449C","title":"上海歌城","lon":"121.46524","lat":"31.219623","category":"170","category_name":"KTV","address":"淮海路680号"},{"poiid":"B2094757D06AA2F4439E","title":"尧尧蟹王","lon":"121.463202738","lat":"31.2231531493","category":"257","category_name":"中餐厅","address":"卢湾区巨鹿路237-241号(近瑞金一路)"},{"poiid":"B2094757D66CA2F9499B","title":"龙之介炉端烧","lon":"121.46268673","lat":"31.222569136","category":"247","category_name":"餐饮美食","address":"上海市静安区巨鹿路"},{"poiid":"B2094757D069A4FC4192","title":"东方巴黎霞飞苑","lon":"121.465","lat":"31.2206","category":"47","category_name":"住宅区","address":"上海徐汇区南昌路555号"},{"poiid":"B2094751D569A0FB429F","title":"光明村大饭店","lon":"121.464417","lat":"31.223201","category":"247","category_name":"餐饮美食","address":"淮海路"},{"poiid":"B2094757D068A6FC489A","title":"名车酷精细洗车","lon":"121.463938","lat":"31.222979","category":"158","category_name":"汽车销售","address":"上海市卢湾区巨鹿路168号大同坊地下车库"},{"poiid":"B209475CDB65A0FB429F","title":"七克拉素食咖啡馆","lon":"121.463272","lat":"31.223033","category":"500","category_name":"未知分类","address":"上海市 卢湾区巨鹿路242"},{"poiid":"B2094654D564AAF94492","title":"食为先酒家","lon":"121.46269905113","lat":"31.221275015036","category":"76","category_name":"上海菜","address":"卢湾区长乐路344号(近瑞金一路)"},{"poiid":"B2094654D564A5FA499D","title":"和乐日本料理","lon":"121.46387","lat":"31.22145","category":"95","category_name":"日本料理","address":"卢湾区长乐路308号(近瑞金一路)"},{"poiid":"B2094654D564AAFD4492","title":"新锦江大酒店","lon":"121.46285","lat":"31.22076","category":"213","category_name":"五星级宾馆","address":"卢湾区长乐路161号(近瑞金一路)"},{"poiid":"B2094655D26AAAFA449C","title":"上海歌城淮海中路店","lon":"121.46532","lat":"31.21974","category":"170","category_name":"KTV","address":"卢湾区淮海中路688号华狮购物中心内(近思南路)"},{"poiid":"B2094757D06EAAFF439D","title":"新旺茶餐厅(长乐店)","lon":"121.4619","lat":"31.22067","category":"72","category_name":"广东菜","address":"卢湾区长乐路175号(茂名南路瑞金一路间)"},{"poiid":"B2094753D76FAAFA449C","title":"上海滩国泰旗舰店","lon":"121.466011","lat":"31.216125","category":"249","category_name":"购物服务","address":"淮海中路868号"},{"poiid":"B209475CD564A7F84292","title":"上海滩新天地店","lon":"121.47463","lat":"31.22164","category":"119","category_name":"商场","address":"\"太仓路181弄新天地北里15号\r\n\""},{"poiid":"B209475CD564A7F8439E","title":"上海滩中信泰富店","lon":"121.45602","lat":"31.22851","category":"119","category_name":"商场","address":"\"南京西路1168号中信泰富广场，店铺号221.\r\n\""},{"poiid":"B2094757D06FA3F8429C","title":"淮海路","lon":"121.46398412","lat":"31.222631868","category":"260","category_name":"其他","address":"上海淮海路"},{"poiid":"B2094757D06EABF54593","title":"十面埋伏 Seafood Noodle","lon":"121.46235","lat":"31.22113","category":"75","category_name":"浙江菜","address":"卢湾区长乐路352号(近瑞金一路)"},{"poiid":"B2094757D06EAAFA459D","title":"NAPOLEON  CHOCOLATE  BAR","lon":"121.4623558","lat":"31.222834","category":"67","category_name":"甜品店","address":"卢湾区巨鹿路242-2号(近瑞金一路)"},{"poiid":"B2094757D06FA2F94693","title":"淮海中路","lon":"121.463470459","lat":"31.2209300995","category":"36","category_name":"地铁站","address":"卢湾区淮海中路"},{"poiid":"B2094655D26AA1FF429C","title":"避风塘长乐店","lon":"121.46154","lat":"31.22081","category":"66","category_name":"茶艺馆","address":"卢湾区长乐路175号(近茂名南路)"},{"poiid":"B2094750DB6DA4F8499B","title":"Nike品牌体验店","lon":"121.46498963760382","lat":"31.219067199579417","category":"119","category_name":"商场","address":"卢湾区淮海中路717号(近思南路)"},{"poiid":"B2094655D26BA3FB4792","title":"晶采轩新锦江店","lon":"121.46284","lat":"31.22075","category":"72","category_name":"广东菜","address":"卢湾区长乐路161号新锦江大酒店3楼(近瑞金一路)"},{"poiid":"B2094757D66FA1F5419A","title":"新锦江","lon":"121.463139738","lat":"31.2208961012","category":"500","category_name":"未知分类","address":"上海市卢湾区茂名南路"},{"poiid":"B2094757D06FA3FB429B","title":"长乐路","lon":"121.465668","lat":"31.221659","category":"260","category_name":"其他","address":"铁东区陕西北路38号"},{"poiid":"B2094757D068A6F8419C","title":"慧公馆(巨鹿店)","lon":"121.46450224421505","lat":"31.223237790045474","category":"72","category_name":"广东菜","address":"卢湾区巨鹿路168号(近成都南路)"},{"poiid":"B2094757D06FA0FF439B","title":"宝寿司(瑞金一路店)","lon":"121.46346173","lat":"31.219720076","category":"95","category_name":"日本料理","address":"卢湾区瑞金一路159号(近淮海中路)"},{"poiid":"B2094757D06FA0FC409C","title":"大渔铁板烧(瑞金店)","lon":"121.46412","lat":"31.22074","category":"95","category_name":"日本料理","address":"卢湾区瑞金一路139号复兴商厦2楼(近长乐路)"},{"poiid":"B2094654D564A5F8489E","title":"华狮688广场","lon":"121.46528","lat":"31.21971","category":"119","category_name":"商场","address":"卢湾区淮海中路688号华狮购物中心内(近思南路)"},{"poiid":"B2094757D06FAAF9489A","title":"向明中学","lon":"121.4638","lat":"31.22031","category":"55","category_name":"中学","address":"上海卢湾区瑞金一路151号(近长乐路)  "},{"poiid":"B2094757D06FAAFE4392","title":"万藏(长乐路店)","lon":"121.46223","lat":"31.22084","category":"95","category_name":"日本料理","address":"卢湾区长乐路344号1楼(近瑞金一路)"},{"poiid":"B2094757D068A6F4469F","title":"Jimmy's Kitchen","lon":"121.46307273","lat":"31.220327089","category":"94","category_name":"西餐厅","address":"卢湾区茂名南路59号锦北楼1楼(长乐路)"},{"poiid":"B2094750D665A3FA409B","title":"鼎中鼎澳门豆捞(淮海店)","lon":"121.465","lat":"31.2198","category":"86","category_name":"火锅店","address":"卢湾区淮海中路688号华狮购物中心B1楼(近思南路)"},{"poiid":"B2094757D165ABFF4592","title":"光明村","lon":"121.46494373","lat":"31.220659096","category":"500","category_name":"未知分类","address":"上海市卢湾区茂名南路"},{"poiid":"B2094757D068A3FE4699","title":"天天周末(巨鹿路店)","lon":"121.46443","lat":"31.22252","category":"173","category_name":"游戏厅","address":"卢湾区巨鹿路227号(近瑞金一路)"},{"poiid":"B2094654DB6BA6FC499A","title":"天手古舞 巨鹿路店 tentekomai","lon":"121.46271864293","lat":"31.222867030754","category":"95","category_name":"日本料理","address":"卢湾区巨鹿路242号(近瑞金一路)"},{"poiid":"B2094757D068A5FD4498","title":"小南国烧烤(卢湾店)","lon":"121.46287","lat":"31.22073","category":"269","category_name":"烧烤","address":"卢湾区长乐路161号新锦江大酒店3楼(近瑞金一路)"},{"poiid":"B2094655D26AA0FB4293","title":"ZARA华狮店","lon":"121.46532","lat":"31.21974","category":"247","category_name":"餐饮美食","address":"卢湾区淮海中路688号华狮购物中心1楼(近思南路)"},{"poiid":"B2094757D06EAAFC4399","title":"宝丽亚酒吧","lon":"121.46395","lat":"31.22278","category":"260","category_name":"其他","address":"卢湾区巨鹿路158号大同坊内(近成都南路)"},{"poiid":"B2094750D16BA6F8409B","title":"Salon V","lon":"121.465538","lat":"31.22171","category":"248","category_name":"生活娱乐","address":"长乐路139-26号(近瑞金一路)"},{"poiid":"B2094750D565AAFA489A","title":"江南","lon":"121.462814","lat":"31.220983","category":"260","category_name":"其他","address":"卢湾区长乐路348号(近瑞金一路)"},{"poiid":"B2094655D265AAFB459F","title":"锦江北楼","lon":"121.46145","lat":"31.22079","category":"46","category_name":"楼宇","address":"长乐路175"},{"poiid":"B2094757D06FA0F44399","title":"UR (淮海路旗舰店)","lon":"121.46521759","lat":"31.219717025","category":"141","category_name":"服装鞋帽皮具店","address":"上海卢湾区淮海中路688号华狮广场1-2F"},{"poiid":"B2094757DB6FA6FC4693","title":"EL CAMINO","lon":"121.4614093391706","lat":"31.22114830377862","category":"500","category_name":"未知分类","address":"卢湾区成都南路105号(近淮海路)"},{"poiid":"B2094757D068ABFB439A","title":"鹿港小镇家常菜","lon":"121.46185","lat":"31.22081","category":"76","category_name":"上海菜","address":"卢湾区长乐路350号(近瑞金一路)"},{"poiid":"B2094757D068A0FA419C","title":"赛美蓉(Semillon Cafe&amp;Lounge)","lon":"121.46311","lat":"31.22048","category":"247","category_name":"餐饮美食","address":"上海卢湾区长乐路161号新锦江大酒店1楼(近瑞金一路)"},{"poiid":"B2094654DB69A6F4479B","title":"吉野家  华狮广场店","lon":"121.4654","lat":"31.21974","category":"95","category_name":"日本料理","address":"卢湾区淮海中路688号华狮购物中心B1楼(近思南路)"},{"poiid":"B2094757D464A0FF4492","title":"欧风居酒屋","lon":"121.463943","lat":"31.221566","category":"95","category_name":"日本料理","address":"卢湾区长乐路336号2楼(近瑞金一路)"},{"poiid":"B2094757D06FAAFD409C","title":"红宝石(瑞金二店)","lon":"121.46374","lat":"31.21908","category":"67","category_name":"甜品店","address":"卢湾区瑞金一路128号(近淮海中路)"},{"poiid":"B2094757D464AAFB4492","title":"丰裕生煎 瑞金一路店","lon":"121.463617054","lat":"31.219189793","category":"68","category_name":"快餐厅","address":"卢湾区瑞金一路142号旁(近淮海中路)"},{"poiid":"B2094753DB68A4FE449E","title":"七克拉素食咖啡","lon":"121.462837","lat":"31.22306","category":"500","category_name":"未知分类","address":"上海市 巨鹿路242号"},{"poiid":"B2094750DA65A6F4449C","title":"上海歌城","lon":"121.46524","lat":"31.219623","category":"170","category_name":"KTV","address":"淮海路680号"},{"poiid":"B2094757D06AA2F4439E","title":"尧尧蟹王","lon":"121.463202738","lat":"31.2231531493","category":"257","category_name":"中餐厅","address":"卢湾区巨鹿路237-241号(近瑞金一路)"},{"poiid":"B2094757D66CA2F9499B","title":"龙之介炉端烧","lon":"121.46268673","lat":"31.222569136","category":"247","category_name":"餐饮美食","address":"上海市静安区巨鹿路"},{"poiid":"B2094757D069A4FC4192","title":"东方巴黎霞飞苑","lon":"121.465","lat":"31.2206","category":"47","category_name":"住宅区","address":"上海徐汇区南昌路555号"},{"poiid":"B2094751D569A0FB429F","title":"光明村大饭店","lon":"121.464417","lat":"31.223201","category":"247","category_name":"餐饮美食","address":"淮海路"},{"poiid":"B2094757D068A6FC489A","title":"名车酷精细洗车","lon":"121.463938","lat":"31.222979","category":"158","category_name":"汽车销售","address":"上海市卢湾区巨鹿路168号大同坊地下车库"},{"poiid":"B209475CDB65A0FB429F","title":"七克拉素食咖啡馆","lon":"121.463272","lat":"31.223033","category":"500","category_name":"未知分类","address":"上海市 卢湾区巨鹿路242"},{"poiid":"B2094654D564AAF94492","title":"食为先酒家","lon":"121.46269905113","lat":"31.221275015036","category":"76","category_name":"上海菜","address":"卢湾区长乐路344号(近瑞金一路)"},{"poiid":"B2094654D564A5FA499D","title":"和乐日本料理","lon":"121.46387","lat":"31.22145","category":"95","category_name":"日本料理","address":"卢湾区长乐路308号(近瑞金一路)"},{"poiid":"B2094654D564AAFD4492","title":"新锦江大酒店","lon":"121.46285","lat":"31.22076","category":"213","category_name":"五星级宾馆","address":"卢湾区长乐路161号(近瑞金一路)"},{"poiid":"B2094655D26AAAFA449C","title":"上海歌城淮海中路店","lon":"121.46532","lat":"31.21974","category":"170","category_name":"KTV","address":"卢湾区淮海中路688号华狮购物中心内(近思南路)"},{"poiid":"B2094757D06EAAFF439D","title":"新旺茶餐厅(长乐店)","lon":"121.4619","lat":"31.22067","category":"72","category_name":"广东菜","address":"卢湾区长乐路175号(茂名南路瑞金一路间)"},{"poiid":"B2094753D76FAAFA449C","title":"上海滩国泰旗舰店","lon":"121.466011","lat":"31.216125","category":"249","category_name":"购物服务","address":"淮海中路868号"},{"poiid":"B209475CD564A7F84292","title":"上海滩新天地店","lon":"121.47463","lat":"31.22164","category":"119","category_name":"商场","address":"\"太仓路181弄新天地北里15号\r\n\""},{"poiid":"B209475CD564A7F8439E","title":"上海滩中信泰富店","lon":"121.45602","lat":"31.22851","category":"119","category_name":"商场","address":"\"南京西路1168号中信泰富广场，店铺号221.\r\n\""},{"poiid":"B2094757D06FA3F8429C","title":"淮海路","lon":"121.46398412","lat":"31.222631868","category":"260","category_name":"其他","address":"上海淮海路"},{"poiid":"B2094757D06EABF54593","title":"十面埋伏 Seafood Noodle","lon":"121.46235","lat":"31.22113","category":"75","category_name":"浙江菜","address":"卢湾区长乐路352号(近瑞金一路)"},{"poiid":"B2094757D06EAAFA459D","title":"NAPOLEON  CHOCOLATE  BAR","lon":"121.4623558","lat":"31.222834","category":"67","category_name":"甜品店","address":"卢湾区巨鹿路242-2号(近瑞金一路)"},{"poiid":"B2094757D06FA2F94693","title":"淮海中路","lon":"121.463470459","lat":"31.2209300995","category":"36","category_name":"地铁站","address":"卢湾区淮海中路"},{"poiid":"B2094655D26AA1FF429C","title":"避风塘长乐店","lon":"121.46154","lat":"31.22081","category":"66","category_name":"茶艺馆","address":"卢湾区长乐路175号(近茂名南路)"},{"poiid":"B2094750DB6DA4F8499B","title":"Nike品牌体验店","lon":"121.46498963760382","lat":"31.219067199579417","category":"119","category_name":"商场","address":"卢湾区淮海中路717号(近思南路)"},{"poiid":"B2094655D26BA3FB4792","title":"晶采轩新锦江店","lon":"121.46284","lat":"31.22075","category":"72","category_name":"广东菜","address":"卢湾区长乐路161号新锦江大酒店3楼(近瑞金一路)"},{"poiid":"B2094757D66FA1F5419A","title":"新锦江","lon":"121.463139738","lat":"31.2208961012","category":"500","category_name":"未知分类","address":"上海市卢湾区茂名南路"},{"poiid":"B2094757D06FA3FB429B","title":"长乐路","lon":"121.465668","lat":"31.221659","category":"260","category_name":"其他","address":"铁东区陕西北路38号"},{"poiid":"B2094757D068A6F8419C","title":"慧公馆(巨鹿店)","lon":"121.46450224421505","lat":"31.223237790045474","category":"72","category_name":"广东菜","address":"卢湾区巨鹿路168号(近成都南路)"},{"poiid":"B2094757D06FA0FF439B","title":"宝寿司(瑞金一路店)","lon":"121.46346173","lat":"31.219720076","category":"95","category_name":"日本料理","address":"卢湾区瑞金一路159号(近淮海中路)"},{"poiid":"B2094757D06FA0FC409C","title":"大渔铁板烧(瑞金店)","lon":"121.46412","lat":"31.22074","category":"95","category_name":"日本料理","address":"卢湾区瑞金一路139号复兴商厦2楼(近长乐路)"},{"poiid":"B2094654D564A5F8489E","title":"华狮688广场","lon":"121.46528","lat":"31.21971","category":"119","category_name":"商场","address":"卢湾区淮海中路688号华狮购物中心内(近思南路)"},{"poiid":"B2094757D06FAAF9489A","title":"向明中学","lon":"121.4638","lat":"31.22031","category":"55","category_name":"中学","address":"上海卢湾区瑞金一路151号(近长乐路)  "},{"poiid":"B2094757D06FAAFE4392","title":"万藏(长乐路店)","lon":"121.46223","lat":"31.22084","category":"95","category_name":"日本料理","address":"卢湾区长乐路344号1楼(近瑞金一路)"},{"poiid":"B2094757D068A6F4469F","title":"Jimmy's Kitchen","lon":"121.46307273","lat":"31.220327089","category":"94","category_name":"西餐厅","address":"卢湾区茂名南路59号锦北楼1楼(长乐路)"},{"poiid":"B2094750D665A3FA409B","title":"鼎中鼎澳门豆捞(淮海店)","lon":"121.465","lat":"31.2198","category":"86","category_name":"火锅店","address":"卢湾区淮海中路688号华狮购物中心B1楼(近思南路)"},{"poiid":"B2094757D165ABFF4592","title":"光明村","lon":"121.46494373","lat":"31.220659096","category":"500","category_name":"未知分类","address":"上海市卢湾区茂名南路"},{"poiid":"B2094757D068A3FE4699","title":"天天周末(巨鹿路店)","lon":"121.46443","lat":"31.22252","category":"173","category_name":"游戏厅","address":"卢湾区巨鹿路227号(近瑞金一路)"},{"poiid":"B2094654DB6BA6FC499A","title":"天手古舞 巨鹿路店 tentekomai","lon":"121.46271864293","lat":"31.222867030754","category":"95","category_name":"日本料理","address":"卢湾区巨鹿路242号(近瑞金一路)"},{"poiid":"B2094757D068A5FD4498","title":"小南国烧烤(卢湾店)","lon":"121.46287","lat":"31.22073","category":"269","category_name":"烧烤","address":"卢湾区长乐路161号新锦江大酒店3楼(近瑞金一路)"},{"poiid":"B2094655D26AA0FB4293","title":"ZARA华狮店","lon":"121.46532","lat":"31.21974","category":"247","category_name":"餐饮美食","address":"卢湾区淮海中路688号华狮购物中心1楼(近思南路)"},{"poiid":"B2094757D06EAAFC4399","title":"宝丽亚酒吧","lon":"121.46395","lat":"31.22278","category":"260","category_name":"其他","address":"卢湾区巨鹿路158号大同坊内(近成都南路)"},{"poiid":"B2094750D16BA6F8409B","title":"Salon V","lon":"121.465538","lat":"31.22171","category":"248","category_name":"生活娱乐","address":"长乐路139-26号(近瑞金一路)"},{"poiid":"B2094750D565AAFA489A","title":"江南","lon":"121.462814","lat":"31.220983","category":"260","category_name":"其他","address":"卢湾区长乐路348号(近瑞金一路)"},{"poiid":"B2094655D265AAFB459F","title":"锦江北楼","lon":"121.46145","lat":"31.22079","category":"46","category_name":"楼宇","address":"长乐路175"},{"poiid":"B2094757D06FA0F44399","title":"UR (淮海路旗舰店)","lon":"121.46521759","lat":"31.219717025","category":"141","category_name":"服装鞋帽皮具店","address":"上海卢湾区淮海中路688号华狮广场1-2F"},{"poiid":"B2094757DB6FA6FC4693","title":"EL CAMINO","lon":"121.4614093391706","lat":"31.22114830377862","category":"500","category_name":"未知分类","address":"卢湾区成都南路105号(近淮海路)"},{"poiid":"B2094757D068ABFB439A","title":"鹿港小镇家常菜","lon":"121.46185","lat":"31.22081","category":"76","category_name":"上海菜","address":"卢湾区长乐路350号(近瑞金一路)"},{"poiid":"B2094757D068A0FA419C","title":"赛美蓉(Semillon Cafe&amp;Lounge)","lon":"121.46311","lat":"31.22048","category":"247","category_name":"餐饮美食","address":"上海卢湾区长乐路161号新锦江大酒店1楼(近瑞金一路)"},{"poiid":"B2094654DB69A6F4479B","title":"吉野家  华狮广场店","lon":"121.4654","lat":"31.21974","category":"95","category_name":"日本料理","address":"卢湾区淮海中路688号华狮购物中心B1楼(近思南路)"},{"poiid":"B2094757D464A0FF4492","title":"欧风居酒屋","lon":"121.463943","lat":"31.221566","category":"95","category_name":"日本料理","address":"卢湾区长乐路336号2楼(近瑞金一路)"},{"poiid":"B2094757D06FAAFD409C","title":"红宝石(瑞金二店)","lon":"121.46374","lat":"31.21908","category":"67","category_name":"甜品店","address":"卢湾区瑞金一路128号(近淮海中路)"},{"poiid":"B2094757D464AAFB4492","title":"丰裕生煎 瑞金一路店","lon":"121.463617054","lat":"31.219189793","category":"68","category_name":"快餐厅","address":"卢湾区瑞金一路142号旁(近淮海中路)"},{"poiid":"B2094753DB68A4FE449E","title":"七克拉素食咖啡","lon":"121.462837","lat":"31.22306","category":"500","category_name":"未知分类","address":"上海市 巨鹿路242号"},{"poiid":"B2094750DA65A6F4449C","title":"上海歌城","lon":"121.46524","lat":"31.219623","category":"170","category_name":"KTV","address":"淮海路680号"},{"poiid":"B2094757D06AA2F4439E","title":"尧尧蟹王","lon":"121.463202738","lat":"31.2231531493","category":"257","category_name":"中餐厅","address":"卢湾区巨鹿路237-241号(近瑞金一路)"},{"poiid":"B2094757D66CA2F9499B","title":"龙之介炉端烧","lon":"121.46268673","lat":"31.222569136","category":"247","category_name":"餐饮美食","address":"上海市静安区巨鹿路"},{"poiid":"B2094757D069A4FC4192","title":"东方巴黎霞飞苑","lon":"121.465","lat":"31.2206","category":"47","category_name":"住宅区","address":"上海徐汇区南昌路555号"},{"poiid":"B2094751D569A0FB429F","title":"光明村大饭店","lon":"121.464417","lat":"31.223201","category":"247","category_name":"餐饮美食","address":"淮海路"},{"poiid":"B2094757D068A6FC489A","title":"名车酷精细洗车","lon":"121.463938","lat":"31.222979","category":"158","category_name":"汽车销售","address":"上海市卢湾区巨鹿路168号大同坊地下车库"},{"poiid":"B209475CDB65A0FB429F","title":"七克拉素食咖啡馆","lon":"121.463272","lat":"31.223033","category":"500","category_name":"未知分类","address":"上海市 卢湾区巨鹿路242"},{"poiid":"B2094654D564AAF94492","title":"食为先酒家","lon":"121.46269905113","lat":"31.221275015036","category":"76","category_name":"上海菜","address":"卢湾区长乐路344号(近瑞金一路)"},{"poiid":"B2094654D564A5FA499D","title":"和乐日本料理","lon":"121.46387","lat":"31.22145","category":"95","category_name":"日本料理","address":"卢湾区长乐路308号(近瑞金一路)"},{"poiid":"B2094654D564AAFD4492","title":"新锦江大酒店","lon":"121.46285","lat":"31.22076","category":"213","category_name":"五星级宾馆","address":"卢湾区长乐路161号(近瑞金一路)"},{"poiid":"B2094655D26AAAFA449C","title":"上海歌城淮海中路店","lon":"121.46532","lat":"31.21974","category":"170","category_name":"KTV","address":"卢湾区淮海中路688号华狮购物中心内(近思南路)"},{"poiid":"B2094757D06EAAFF439D","title":"新旺茶餐厅(长乐店)","lon":"121.4619","lat":"31.22067","category":"72","category_name":"广东菜","address":"卢湾区长乐路175号(茂名南路瑞金一路间)"},{"poiid":"B2094753D76FAAFA449C","title":"上海滩国泰旗舰店","lon":"121.466011","lat":"31.216125","category":"249","category_name":"购物服务","address":"淮海中路868号"},{"poiid":"B209475CD564A7F84292","title":"上海滩新天地店","lon":"121.47463","lat":"31.22164","category":"119","category_name":"商场","address":"\"太仓路181弄新天地北里15号\r\n\""},{"poiid":"B209475CD564A7F8439E","title":"上海滩中信泰富店","lon":"121.45602","lat":"31.22851","category":"119","category_name":"商场","address":"\"南京西路1168号中信泰富广场，店铺号221.\r\n\""},{"poiid":"B2094757D06FA3F8429C","title":"淮海路","lon":"121.46398412","lat":"31.222631868","category":"260","category_name":"其他","address":"上海淮海路"},{"poiid":"B2094757D06EABF54593","title":"十面埋伏 Seafood Noodle","lon":"121.46235","lat":"31.22113","category":"75","category_name":"浙江菜","address":"卢湾区长乐路352号(近瑞金一路)"},{"poiid":"B2094757D06EAAFA459D","title":"NAPOLEON  CHOCOLATE  BAR","lon":"121.4623558","lat":"31.222834","category":"67","category_name":"甜品店","address":"卢湾区巨鹿路242-2号(近瑞金一路)"},{"poiid":"B2094757D06FA2F94693","title":"淮海中路","lon":"121.463470459","lat":"31.2209300995","category":"36","category_name":"地铁站","address":"卢湾区淮海中路"},{"poiid":"B2094655D26AA1FF429C","title":"避风塘长乐店","lon":"121.46154","lat":"31.22081","category":"66","category_name":"茶艺馆","address":"卢湾区长乐路175号(近茂名南路)"},{"poiid":"B2094750DB6DA4F8499B","title":"Nike品牌体验店","lon":"121.46498963760382","lat":"31.219067199579417","category":"119","category_name":"商场","address":"卢湾区淮海中路717号(近思南路)"},{"poiid":"B2094655D26BA3FB4792","title":"晶采轩新锦江店","lon":"121.46284","lat":"31.22075","category":"72","category_name":"广东菜","address":"卢湾区长乐路161号新锦江大酒店3楼(近瑞金一路)"},{"poiid":"B2094757D66FA1F5419A","title":"新锦江","lon":"121.463139738","lat":"31.2208961012","category":"500","category_name":"未知分类","address":"上海市卢湾区茂名南路"},{"poiid":"B2094757D06FA3FB429B","title":"长乐路","lon":"121.465668","lat":"31.221659","category":"260","category_name":"其他","address":"铁东区陕西北路38号"},{"poiid":"B2094757D068A6F8419C","title":"慧公馆(巨鹿店)","lon":"121.46450224421505","lat":"31.223237790045474","category":"72","category_name":"广东菜","address":"卢湾区巨鹿路168号(近成都南路)"},{"poiid":"B2094757D06FA0FF439B","title":"宝寿司(瑞金一路店)","lon":"121.46346173","lat":"31.219720076","category":"95","category_name":"日本料理","address":"卢湾区瑞金一路159号(近淮海中路)"},{"poiid":"B2094757D06FA0FC409C","title":"大渔铁板烧(瑞金店)","lon":"121.46412","lat":"31.22074","category":"95","category_name":"日本料理","address":"卢湾区瑞金一路139号复兴商厦2楼(近长乐路)"},{"poiid":"B2094654D564A5F8489E","title":"华狮688广场","lon":"121.46528","lat":"31.21971","category":"119","category_name":"商场","address":"卢湾区淮海中路688号华狮购物中心内(近思南路)"},{"poiid":"B2094757D06FAAF9489A","title":"向明中学","lon":"121.4638","lat":"31.22031","category":"55","category_name":"中学","address":"上海卢湾区瑞金一路151号(近长乐路)  "},{"poiid":"B2094757D06FAAFE4392","title":"万藏(长乐路店)","lon":"121.46223","lat":"31.22084","category":"95","category_name":"日本料理","address":"卢湾区长乐路344号1楼(近瑞金一路)"},{"poiid":"B2094757D068A6F4469F","title":"Jimmy's Kitchen","lon":"121.46307273","lat":"31.220327089","category":"94","category_name":"西餐厅","address":"卢湾区茂名南路59号锦北楼1楼(长乐路)"},{"poiid":"B2094750D665A3FA409B","title":"鼎中鼎澳门豆捞(淮海店)","lon":"121.465","lat":"31.2198","category":"86","category_name":"火锅店","address":"卢湾区淮海中路688号华狮购物中心B1楼(近思南路)"},{"poiid":"B2094757D165ABFF4592","title":"光明村","lon":"121.46494373","lat":"31.220659096","category":"500","category_name":"未知分类","address":"上海市卢湾区茂名南路"},{"poiid":"B2094757D068A3FE4699","title":"天天周末(巨鹿路店)","lon":"121.46443","lat":"31.22252","category":"173","category_name":"游戏厅","address":"卢湾区巨鹿路227号(近瑞金一路)"},{"poiid":"B2094654DB6BA6FC499A","title":"天手古舞 巨鹿路店 tentekomai","lon":"121.46271864293","lat":"31.222867030754","category":"95","category_name":"日本料理","address":"卢湾区巨鹿路242号(近瑞金一路)"},{"poiid":"B2094757D068A5FD4498","title":"小南国烧烤(卢湾店)","lon":"121.46287","lat":"31.22073","category":"269","category_name":"烧烤","address":"卢湾区长乐路161号新锦江大酒店3楼(近瑞金一路)"},{"poiid":"B2094655D26AA0FB4293","title":"ZARA华狮店","lon":"121.46532","lat":"31.21974","category":"247","category_name":"餐饮美食","address":"卢湾区淮海中路688号华狮购物中心1楼(近思南路)"},{"poiid":"B2094757D06EAAFC4399","title":"宝丽亚酒吧","lon":"121.46395","lat":"31.22278","category":"260","category_name":"其他","address":"卢湾区巨鹿路158号大同坊内(近成都南路)"},{"poiid":"B2094750D16BA6F8409B","title":"Salon V","lon":"121.465538","lat":"31.22171","category":"248","category_name":"生活娱乐","address":"长乐路139-26号(近瑞金一路)"},{"poiid":"B2094750D565AAFA489A","title":"江南","lon":"121.462814","lat":"31.220983","category":"260","category_name":"其他","address":"卢湾区长乐路348号(近瑞金一路)"},{"poiid":"B2094655D265AAFB459F","title":"锦江北楼","lon":"121.46145","lat":"31.22079","category":"46","category_name":"楼宇","address":"长乐路175"},{"poiid":"B2094757D06FA0F44399","title":"UR (淮海路旗舰店)","lon":"121.46521759","lat":"31.219717025","category":"141","category_name":"服装鞋帽皮具店","address":"上海卢湾区淮海中路688号华狮广场1-2F"},{"poiid":"B2094757DB6FA6FC4693","title":"EL CAMINO","lon":"121.4614093391706","lat":"31.22114830377862","category":"500","category_name":"未知分类","address":"卢湾区成都南路105号(近淮海路)"},{"poiid":"B2094757D068ABFB439A","title":"鹿港小镇家常菜","lon":"121.46185","lat":"31.22081","category":"76","category_name":"上海菜","address":"卢湾区长乐路350号(近瑞金一路)"},{"poiid":"B2094757D068A0FA419C","title":"赛美蓉(Semillon Cafe&amp;Lounge)","lon":"121.46311","lat":"31.22048","category":"247","category_name":"餐饮美食","address":"上海卢湾区长乐路161号新锦江大酒店1楼(近瑞金一路)"},{"poiid":"B2094654DB69A6F4479B","title":"吉野家  华狮广场店","lon":"121.4654","lat":"31.21974","category":"95","category_name":"日本料理","address":"卢湾区淮海中路688号华狮购物中心B1楼(近思南路)"},{"poiid":"B2094757D464A0FF4492","title":"欧风居酒屋","lon":"121.463943","lat":"31.221566","category":"95","category_name":"日本料理","address":"卢湾区长乐路336号2楼(近瑞金一路)"},{"poiid":"B2094757D06FAAFD409C","title":"红宝石(瑞金二店)","lon":"121.46374","lat":"31.21908","category":"67","category_name":"甜品店","address":"卢湾区瑞金一路128号(近淮海中路)"},{"poiid":"B2094757D464AAFB4492","title":"丰裕生煎 瑞金一路店","lon":"121.463617054","lat":"31.219189793","category":"68","category_name":"快餐厅","address":"卢湾区瑞金一路142号旁(近淮海中路)"},{"poiid":"B2094753DB68A4FE449E","title":"七克拉素食咖啡","lon":"121.462837","lat":"31.22306","category":"500","category_name":"未知分类","address":"上海市 巨鹿路242号"},{"poiid":"B2094750DA65A6F4449C","title":"上海歌城","lon":"121.46524","lat":"31.219623","category":"170","category_name":"KTV","address":"淮海路680号"},{"poiid":"B2094757D06AA2F4439E","title":"尧尧蟹王","lon":"121.463202738","lat":"31.2231531493","category":"257","category_name":"中餐厅","address":"卢湾区巨鹿路237-241号(近瑞金一路)"},{"poiid":"B2094757D66CA2F9499B","title":"龙之介炉端烧","lon":"121.46268673","lat":"31.222569136","category":"247","category_name":"餐饮美食","address":"上海市静安区巨鹿路"},{"poiid":"B2094757D069A4FC4192","title":"东方巴黎霞飞苑","lon":"121.465","lat":"31.2206","category":"47","category_name":"住宅区","address":"上海徐汇区南昌路555号"},{"poiid":"B2094751D569A0FB429F","title":"光明村大饭店","lon":"121.464417","lat":"31.223201","category":"247","category_name":"餐饮美食","address":"淮海路"},{"poiid":"B2094757D068A6FC489A","title":"名车酷精细洗车","lon":"121.463938","lat":"31.222979","category":"158","category_name":"汽车销售","address":"上海市卢湾区巨鹿路168号大同坊地下车库"},{"poiid":"B209475CDB65A0FB429F","title":"七克拉素食咖啡馆","lon":"121.463272","lat":"31.223033","category":"500","category_name":"未知分类","address":"上海市 卢湾区巨鹿路242"},{"poiid":"B2094654D564AAF94492","title":"食为先酒家","lon":"121.46269905113","lat":"31.221275015036","category":"76","category_name":"上海菜","address":"卢湾区长乐路344号(近瑞金一路)"},{"poiid":"B2094654D564A5FA499D","title":"和乐日本料理","lon":"121.46387","lat":"31.22145","category":"95","category_name":"日本料理","address":"卢湾区长乐路308号(近瑞金一路)"},{"poiid":"B2094654D564AAFD4492","title":"新锦江大酒店","lon":"121.46285","lat":"31.22076","category":"213","category_name":"五星级宾馆","address":"卢湾区长乐路161号(近瑞金一路)"},{"poiid":"B2094655D26AAAFA449C","title":"上海歌城淮海中路店","lon":"121.46532","lat":"31.21974","category":"170","category_name":"KTV","address":"卢湾区淮海中路688号华狮购物中心内(近思南路)"},{"poiid":"B2094757D06EAAFF439D","title":"新旺茶餐厅(长乐店)","lon":"121.4619","lat":"31.22067","category":"72","category_name":"广东菜","address":"卢湾区长乐路175号(茂名南路瑞金一路间)"},{"poiid":"B2094753D76FAAFA449C","title":"上海滩国泰旗舰店","lon":"121.466011","lat":"31.216125","category":"249","category_name":"购物服务","address":"淮海中路868号"},{"poiid":"B209475CD564A7F84292","title":"上海滩新天地店","lon":"121.47463","lat":"31.22164","category":"119","category_name":"商场","address":"\"太仓路181弄新天地北里15号\r\n\""},{"poiid":"B209475CD564A7F8439E","title":"上海滩中信泰富店","lon":"121.45602","lat":"31.22851","category":"119","category_name":"商场","address":"\"南京西路1168号中信泰富广场，店铺号221.\r\n\""},{"poiid":"B2094757D06FA3F8429C","title":"淮海路","lon":"121.46398412","lat":"31.222631868","category":"260","category_name":"其他","address":"上海淮海路"},{"poiid":"B2094757D06EABF54593","title":"十面埋伏 Seafood Noodle","lon":"121.46235","lat":"31.22113","category":"75","category_name":"浙江菜","address":"卢湾区长乐路352号(近瑞金一路)"},{"poiid":"B2094757D06EAAFA459D","title":"NAPOLEON  CHOCOLATE  BAR","lon":"121.4623558","lat":"31.222834","category":"67","category_name":"甜品店","address":"卢湾区巨鹿路242-2号(近瑞金一路)"},{"poiid":"B2094757D06FA2F94693","title":"淮海中路","lon":"121.463470459","lat":"31.2209300995","category":"36","category_name":"地铁站","address":"卢湾区淮海中路"},{"poiid":"B2094655D26AA1FF429C","title":"避风塘长乐店","lon":"121.46154","lat":"31.22081","category":"66","category_name":"茶艺馆","address":"卢湾区长乐路175号(近茂名南路)"},{"poiid":"B2094750DB6DA4F8499B","title":"Nike品牌体验店","lon":"121.46498963760382","lat":"31.219067199579417","category":"119","category_name":"商场","address":"卢湾区淮海中路717号(近思南路)"},{"poiid":"B2094655D26BA3FB4792","title":"晶采轩新锦江店","lon":"121.46284","lat":"31.22075","category":"72","category_name":"广东菜","address":"卢湾区长乐路161号新锦江大酒店3楼(近瑞金一路)"},{"poiid":"B2094757D66FA1F5419A","title":"新锦江","lon":"121.463139738","lat":"31.2208961012","category":"500","category_name":"未知分类","address":"上海市卢湾区茂名南路"},{"poiid":"B2094757D06FA3FB429B","title":"长乐路","lon":"121.465668","lat":"31.221659","category":"260","category_name":"其他","address":"铁东区陕西北路38号"},{"poiid":"B2094757D068A6F8419C","title":"慧公馆(巨鹿店)","lon":"121.46450224421505","lat":"31.223237790045474","category":"72","category_name":"广东菜","address":"卢湾区巨鹿路168号(近成都南路)"},{"poiid":"B2094757D06FA0FF439B","title":"宝寿司(瑞金一路店)","lon":"121.46346173","lat":"31.219720076","category":"95","category_name":"日本料理","address":"卢湾区瑞金一路159号(近淮海中路)"},{"poiid":"B2094757D06FA0FC409C","title":"大渔铁板烧(瑞金店)","lon":"121.46412","lat":"31.22074","category":"95","category_name":"日本料理","address":"卢湾区瑞金一路139号复兴商厦2楼(近长乐路)"},{"poiid":"B2094654D564A5F8489E","title":"华狮688广场","lon":"121.46528","lat":"31.21971","category":"119","category_name":"商场","address":"卢湾区淮海中路688号华狮购物中心内(近思南路)"},{"poiid":"B2094757D06FAAF9489A","title":"向明中学","lon":"121.4638","lat":"31.22031","category":"55","category_name":"中学","address":"上海卢湾区瑞金一路151号(近长乐路)  "},{"poiid":"B2094757D06FAAFE4392","title":"万藏(长乐路店)","lon":"121.46223","lat":"31.22084","category":"95","category_name":"日本料理","address":"卢湾区长乐路344号1楼(近瑞金一路)"},{"poiid":"B2094757D068A6F4469F","title":"Jimmy's Kitchen","lon":"121.46307273","lat":"31.220327089","category":"94","category_name":"西餐厅","address":"卢湾区茂名南路59号锦北楼1楼(长乐路)"},{"poiid":"B2094750D665A3FA409B","title":"鼎中鼎澳门豆捞(淮海店)","lon":"121.465","lat":"31.2198","category":"86","category_name":"火锅店","address":"卢湾区淮海中路688号华狮购物中心B1楼(近思南路)"},{"poiid":"B2094757D165ABFF4592","title":"光明村","lon":"121.46494373","lat":"31.220659096","category":"500","category_name":"未知分类","address":"上海市卢湾区茂名南路"},{"poiid":"B2094757D068A3FE4699","title":"天天周末(巨鹿路店)","lon":"121.46443","lat":"31.22252","category":"173","category_name":"游戏厅","address":"卢湾区巨鹿路227号(近瑞金一路)"},{"poiid":"B2094654DB6BA6FC499A","title":"天手古舞 巨鹿路店 tentekomai","lon":"121.46271864293","lat":"31.222867030754","category":"95","category_name":"日本料理","address":"卢湾区巨鹿路242号(近瑞金一路)"},{"poiid":"B2094757D068A5FD4498","title":"小南国烧烤(卢湾店)","lon":"121.46287","lat":"31.22073","category":"269","category_name":"烧烤","address":"卢湾区长乐路161号新锦江大酒店3楼(近瑞金一路)"},{"poiid":"B2094655D26AA0FB4293","title":"ZARA华狮店","lon":"121.46532","lat":"31.21974","category":"247","category_name":"餐饮美食","address":"卢湾区淮海中路688号华狮购物中心1楼(近思南路)"},{"poiid":"B2094757D06EAAFC4399","title":"宝丽亚酒吧","lon":"121.46395","lat":"31.22278","category":"260","category_name":"其他","address":"卢湾区巨鹿路158号大同坊内(近成都南路)"},{"poiid":"B2094750D16BA6F8409B","title":"Salon V","lon":"121.465538","lat":"31.22171","category":"248","category_name":"生活娱乐","address":"长乐路139-26号(近瑞金一路)"},{"poiid":"B2094750D565AAFA489A","title":"江南","lon":"121.462814","lat":"31.220983","category":"260","category_name":"其他","address":"卢湾区长乐路348号(近瑞金一路)"},{"poiid":"B2094655D265AAFB459F","title":"锦江北楼","lon":"121.46145","lat":"31.22079","category":"46","category_name":"楼宇","address":"长乐路175"},{"poiid":"B2094757D06FA0F44399","title":"UR (淮海路旗舰店)","lon":"121.46521759","lat":"31.219717025","category":"141","category_name":"服装鞋帽皮具店","address":"上海卢湾区淮海中路688号华狮广场1-2F"},{"poiid":"B2094757DB6FA6FC4693","title":"EL CAMINO","lon":"121.4614093391706","lat":"31.22114830377862","category":"500","category_name":"未知分类","address":"卢湾区成都南路105号(近淮海路)"},{"poiid":"B2094757D068ABFB439A","title":"鹿港小镇家常菜","lon":"121.46185","lat":"31.22081","category":"76","category_name":"上海菜","address":"卢湾区长乐路350号(近瑞金一路)"},{"poiid":"B2094757D068A0FA419C","title":"赛美蓉(Semillon Cafe&amp;Lounge)","lon":"121.46311","lat":"31.22048","category":"247","category_name":"餐饮美食","address":"上海卢湾区长乐路161号新锦江大酒店1楼(近瑞金一路)"},{"poiid":"B2094654DB69A6F4479B","title":"吉野家  华狮广场店","lon":"121.4654","lat":"31.21974","category":"95","category_name":"日本料理","address":"卢湾区淮海中路688号华狮购物中心B1楼(近思南路)"},{"poiid":"B2094757D464A0FF4492","title":"欧风居酒屋","lon":"121.463943","lat":"31.221566","category":"95","category_name":"日本料理","address":"卢湾区长乐路336号2楼(近瑞金一路)"},{"poiid":"B2094757D06FAAFD409C","title":"红宝石(瑞金二店)","lon":"121.46374","lat":"31.21908","category":"67","category_name":"甜品店","address":"卢湾区瑞金一路128号(近淮海中路)"},{"poiid":"B2094757D464AAFB4492","title":"丰裕生煎 瑞金一路店","lon":"121.463617054","lat":"31.219189793","category":"68","category_name":"快餐厅","address":"卢湾区瑞金一路142号旁(近淮海中路)"},{"poiid":"B2094753DB68A4FE449E","title":"七克拉素食咖啡","lon":"121.462837","lat":"31.22306","category":"500","category_name":"未知分类","address":"上海市 巨鹿路242号"},{"poiid":"B2094750DA65A6F4449C","title":"上海歌城","lon":"121.46524","lat":"31.219623","category":"170","category_name":"KTV","address":"淮海路680号"},{"poiid":"B2094757D06AA2F4439E","title":"尧尧蟹王","lon":"121.463202738","lat":"31.2231531493","category":"257","category_name":"中餐厅","address":"卢湾区巨鹿路237-241号(近瑞金一路)"},{"poiid":"B2094757D66CA2F9499B","title":"龙之介炉端烧","lon":"121.46268673","lat":"31.222569136","category":"247","category_name":"餐饮美食","address":"上海市静安区巨鹿路"},{"poiid":"B2094757D069A4FC4192","title":"东方巴黎霞飞苑","lon":"121.465","lat":"31.2206","category":"47","category_name":"住宅区","address":"上海徐汇区南昌路555号"},{"poiid":"B2094751D569A0FB429F","title":"光明村大饭店","lon":"121.464417","lat":"31.223201","category":"247","category_name":"餐饮美食","address":"淮海路"},{"poiid":"B2094757D068A6FC489A","title":"名车酷精细洗车","lon":"121.463938","lat":"31.222979","category":"158","category_name":"汽车销售","address":"上海市卢湾区巨鹿路168号大同坊地下车库"},{"poiid":"B209475CDB65A0FB429F","title":"七克拉素食咖啡馆","lon":"121.463272","lat":"31.223033","category":"500","category_name":"未知分类","address":"上海市 卢湾区巨鹿路242"},{"poiid":"B2094654D564AAF94492","title":"食为先酒家","lon":"121.46269905113","lat":"31.221275015036","category":"76","category_name":"上海菜","address":"卢湾区长乐路344号(近瑞金一路)"},{"poiid":"B2094654D564A5FA499D","title":"和乐日本料理","lon":"121.46387","lat":"31.22145","category":"95","category_name":"日本料理","address":"卢湾区长乐路308号(近瑞金一路)"}]