[{"poiid":"B2094654D56FA7F44298","title":"上海市杨浦区中心医院","lon":"121.55075","lat":"31.27167","category":"162","category_name":"医院","address":"杨浦区腾越路450号(海州路腾越路)"},{"poiid":"B2094757D06FA2FC409F","title":"上海电力学院(平凉路校区)","lon":"121.5476","lat":"31.27139","category":"671","category_name":"高校中心点","address":"杨浦区平凉路2103号(近隆昌路)"},{"poiid":"B2094655D36CA1FF4698","title":"隆昌路平凉路","lon":"121.54691","lat":"31.27038","category":"38","category_name":"公交车站","address":""},{"poiid":"B2094654D56FABFC449C","title":"珠江香樟南园","lon":"121.54428","lat":"31.270346","category":"47","category_name":"住宅区","address":"平凉路1893~1915(全部单号)"},{"poiid":"B2094757D06FA5F5439C","title":"上海财经大学附属中学","lon":"121.54641","lat":"31.26655","category":"55","category_name":"中学","address":"杨浦区宁武路151号(近平凉路)"},{"poiid":"B2094654DB6BA2F84393","title":"上海市杨浦区中心医院门诊","lon":"121.54994","lat":"31.27151","category":"162","category_name":"医院","address":"腾越路450号"},{"poiid":"B2094757D06FA1FE4198","title":"上海市杨浦区公安分局","lon":"121.5467706","lat":"31.270775033","category":"260","category_name":"其他","address":"上海市杨浦区平凉路2049号"},{"poiid":"B2094757D06AA5FD459A","title":"杨浦区中心医院急诊室","lon":"121.549722203","lat":"31.2726692692","category":"902","category_name":"楼宇机构","address":null},{"poiid":"B2094757D16CA0F44193","title":"东外滩一号","lon":"121.5498301","lat":"31.271440443","category":"500","category_name":"未知分类","address":"上海市杨浦区内江路(近杨树浦路)"},{"poiid":"B2094655D36CA1FF459D","title":"隆昌路杨树浦路","lon":"121.55057","lat":"31.26848","category":"38","category_name":"公交车站","address":""},{"poiid":"B2094757D069A5F84192","title":"新亚大包 腾越路店","lon":"121.549597054","lat":"31.271465793","category":"68","category_name":"快餐厅","address":"杨浦区腾越路467号(波阳路腾越路)"},{"poiid":"B2094757D16CA1FD429A","title":"平凉路宁武路","lon":"121.544449","lat":"31.268159","category":"500","category_name":"未知分类","address":"上海平凉路宁武路路口"},{"poiid":"B2094757D06AA6F94799","title":"DQ冰雪皇后(长阳欧尚)","lon":"121.5447781","lat":"31.267579362","category":"247","category_name":"餐饮美食","address":"上海长阳路1750号"},{"poiid":"B2094757D06BA1FD469E","title":"强强熟食店","lon":"121.54965","lat":"31.26891","category":"68","category_name":"快餐厅","address":"杨浦区隆昌路164号(近海州路)"},{"poiid":"B2094757D465A0FB459D","title":"福根餐厅","lon":"121.549595054","lat":"31.269061793","category":"76","category_name":"上海菜","address":"杨浦区海州路199号(近隆昌路)"},{"poiid":"B2094757D66EA3F9499D","title":"腾越路兰州拉面","lon":"121.55096","lat":"31.27041","category":"68","category_name":"快餐厅","address":"杨浦区腾越路(近海州路)"},{"poiid":"B2094654D56FA7F44799","title":"上海市辛灵中学","lon":"121.55094","lat":"31.26942","category":"55","category_name":"中学","address":"海州路268"},{"poiid":"B2094654D56FA7F5499E","title":"隆昌路88弄小区","lon":"121.55026","lat":"31.26895","category":"47","category_name":"住宅区","address":"隆昌路88弄"},{"poiid":"B2094655D26FA7FE4898","title":"上海市辛灵中学(西门)","lon":"121.55031","lat":"31.26968","category":"678","category_name":"学校大门","address":"海州路268"},{"poiid":"B2094757D069A1FE469F","title":"鼎隆公寓","lon":"121.54582","lat":"31.267815","category":"47","category_name":"住宅区","address":"上海市杨浦区宁武路218弄"},{"poiid":"B2094757D664A3FE429B","title":"缪氏粽子专卖店","lon":"121.547054","lat":"31.270345","category":"68","category_name":"快餐厅","address":"杨浦区平凉路2058号(近隆昌路)"},{"poiid":"B2094757D164A7FB459F","title":"杨树浦路隆昌路","lon":"121.553443903","lat":"31.2691503957","category":"47","category_name":"住宅区","address":"上海杨树浦路2569弄"},{"poiid":"B2094654D56FA7F4429E","title":"波阳小吃店","lon":"121.552","lat":"31.26904","category":"68","category_name":"快餐厅","address":"杨浦区腾越路(近杨浦区中心医院)"},{"poiid":"B2094757D164A5FE4898","title":"凯茗老北京热气涮羊肉","lon":"121.548858203","lat":"31.2700644148","category":"247","category_name":"餐饮美食","address":"上海杨浦区隆昌路219号"},{"poiid":"B2094655D26CA5FB4999","title":"同华里(东门)","lon":"121.54965","lat":"31.26929","category":"47","category_name":"住宅区","address":"海州路215弄"},{"poiid":"B2094757D06AA4F84492","title":"上海电力学院(平凉路校区)图书馆","lon":"121.54767","lat":"31.27118","category":"181","category_name":"图书馆","address":"上海杨浦区平凉路2103号"},{"poiid":"B2094757D06AA6FB4692","title":"万福记苏州汤包馆","lon":"121.54639","lat":"31.26992","category":"68","category_name":"快餐厅","address":"杨浦区平凉路1970号(近隆昌路)"},{"poiid":"B2094655D26FA6FD419C","title":"隆昌路88弄小区(南门)","lon":"121.55026","lat":"31.26876","category":"47","category_name":"住宅区","address":""},{"poiid":"B2094655D26EA2FF4998","title":"同华里","lon":"121.54939","lat":"31.26948","category":"47","category_name":"住宅区","address":"海州路215弄"},{"poiid":"B2094655D26DA6F9469A","title":"博海商务楼","lon":"121.5485","lat":"31.26969","category":"46","category_name":"楼宇","address":"隆昌路208-212"},{"poiid":"B2094654D56FA6FC4099","title":"光明便利No.051","lon":"121.55087","lat":"31.26848","category":"117","category_name":"便民商店/便利店","address":""},{"poiid":"B2094655D265A3F9459A","title":"腾越路465弄小区(东北门)","lon":"121.54979","lat":"31.27114","category":"47","category_name":"住宅区","address":"腾越路465弄"},{"poiid":"B2094654D56FA4FB479B","title":"上海电力安装第一工程公司","lon":"121.54734","lat":"31.26953","category":"76","category_name":"上海菜","address":"杨浦区隆昌路235号"},{"poiid":"B2094655D265A3F4489A","title":"振声里","lon":"121.54882","lat":"31.26855","category":"47","category_name":"住宅区","address":"海州路165弄"},{"poiid":"B2094654D56FA7F5499F","title":"隆昌路88弄小区(1号门)","lon":"121.55039","lat":"31.26869","category":"47","category_name":"住宅区","address":""},{"poiid":"B2094655D26CA5F9439D","title":"大德里小区","lon":"121.55157891683","lat":"31.269477004249","category":"47","category_name":"住宅区","address":"宜山北路9弄"},{"poiid":"B2094757D16BA4F5459F","title":"隆昌路海州路燒烤路邊攤","lon":"121.5504731","lat":"31.269131395","category":"500","category_name":"未知分类","address":"上海市杨浦区隆昌路"},{"poiid":"B2094654D56FA7F5469B","title":"来香缘","lon":"121.55064","lat":"31.26826","category":"76","category_name":"上海菜","address":"杨浦区隆昌路61号(近杨浦区中心医院)"},{"poiid":"B2094757D66CA5FC439F","title":"华电酒家","lon":"121.54737","lat":"31.26987","category":"76","category_name":"上海菜","address":"杨浦区隆昌路243号(近平凉路)"},{"poiid":"B2094654D56FA6FF4893","title":"上海第十四机动车安全技术检测站","lon":"121.54814","lat":"31.26702","category":"250","category_name":"公园户外","address":"海州路18"},{"poiid":"B2094750D664A1FE4099","title":"王记老北京挂炉烤鸭(隆昌路店)","lon":"121.549","lat":"31.2694","category":"68","category_name":"快餐厅","address":"杨浦区隆昌路168号(近杭州路)"},{"poiid":"B2094654D56FA7F4429D","title":"波阳公园","lon":"121.55166","lat":"31.27222","category":"196","category_name":"公园","address":"杨浦区波阳路200号(近贵阳路)"},{"poiid":"B2094655D26BA1FC4898","title":"平凉路贵阳路","lon":"121.5497","lat":"31.27382","category":"38","category_name":"公交车站","address":""},{"poiid":"B2094750DB6DA1FC4293","title":"杨浦 奥特莱斯","lon":"121.55368","lat":"31.272339","category":"249","category_name":"购物服务","address":"杨树浦路"},{"poiid":"B2094654D56FA7F54798","title":"杨浦江浦开业园区","lon":"121.54833","lat":"31.26978","category":"45","category_name":"产业园区","address":"隆昌路210号"},{"poiid":"B2094757D164A1F5469D","title":"上海电力学院三好堂","lon":"121.546768403","lat":"31.2711401373","category":"76","category_name":"上海菜","address":"杨浦区平凉路2103号(近隆昌路)"},{"poiid":"B2094655D26BA6FD479E","title":"腾越路465弄小区","lon":"121.54955","lat":"31.27081","category":"47","category_name":"住宅区","address":"腾越路465弄"},{"poiid":"B2094655D26CA5FA4593","title":"喜士多","lon":"121.54975","lat":"31.2712","category":"117","category_name":"便民商店/便利店","address":"腾越路467-1"},{"poiid":"B2094655D26CA6FD4799","title":"光明便利No.021","lon":"121.54945","lat":"31.27139","category":"117","category_name":"便民商店/便利店","address":""},{"poiid":"B2094750D664A6FA489E","title":"凯茂老北京热气羊肉火锅","lon":"121.548","lat":"31.2694","category":"86","category_name":"火锅店","address":"杨浦区隆昌路217号(近平凉路)"},{"poiid":"B2094654D56FA7F44298","title":"上海市杨浦区中心医院","lon":"121.55075","lat":"31.27167","category":"162","category_name":"医院","address":"杨浦区腾越路450号(海州路腾越路)"},{"poiid":"B2094757D06FA2FC409F","title":"上海电力学院(平凉路校区)","lon":"121.5476","lat":"31.27139","category":"671","category_name":"高校中心点","address":"杨浦区平凉路2103号(近隆昌路)"},{"poiid":"B2094655D36CA1FF4698","title":"隆昌路平凉路","lon":"121.54691","lat":"31.27038","category":"38","category_name":"公交车站","address":""},{"poiid":"B2094654D56FABFC449C","title":"珠江香樟南园","lon":"121.54428","lat":"31.270346","category":"47","category_name":"住宅区","address":"平凉路1893~1915(全部单号)"},{"poiid":"B2094757D06FA5F5439C","title":"上海财经大学附属中学","lon":"121.54641","lat":"31.26655","category":"55","category_name":"中学","address":"杨浦区宁武路151号(近平凉路)"},{"poiid":"B2094654DB6BA2F84393","title":"上海市杨浦区中心医院门诊","lon":"121.54994","lat":"31.27151","category":"162","category_name":"医院","address":"腾越路450号"},{"poiid":"B2094757D06FA1FE4198","title":"上海市杨浦区公安分局","lon":"121.5467706","lat":"31.270775033","category":"260","category_name":"其他","address":"上海市杨浦区平凉路2049号"},{"poiid":"B2094757D06AA5FD459A","title":"杨浦区中心医院急诊室","lon":"121.549722203","lat":"31.2726692692","category":"902","category_name":"楼宇机构","address":null},{"poiid":"B2094757D16CA0F44193","title":"东外滩一号","lon":"121.5498301","lat":"31.271440443","category":"500","category_name":"未知分类","address":"上海市杨浦区内江路(近杨树浦路)"},{"poiid":"B2094655D36CA1FF459D","title":"隆昌路杨树浦路","lon":"121.55057","lat":"31.26848","category":"38","category_name":"公交车站","address":""},{"poiid":"B2094757D069A5F84192","title":"新亚大包 腾越路店","lon":"121.549597054","lat":"31.271465793","category":"68","category_name":"快餐厅","address":"杨浦区腾越路467号(波阳路腾越路)"},{"poiid":"B2094757D16CA1FD429A","title":"平凉路宁武路","lon":"121.544449","lat":"31.268159","category":"500","category_name":"未知分类","address":"上海平凉路宁武路路口"},{"poiid":"B2094757D06AA6F94799","title":"DQ冰雪皇后(长阳欧尚)","lon":"121.5447781","lat":"31.267579362","category":"247","category_name":"餐饮美食","address":"上海长阳路1750号"},{"poiid":"B2094757D06BA1FD469E","title":"强强熟食店","lon":"121.54965","lat":"31.26891","category":"68","category_name":"快餐厅","address":"杨浦区隆昌路164号(近海州路)"},{"poiid":"B2094757D465A0FB459D","title":"福根餐厅","lon":"121.549595054","lat":"31.269061793","category":"76","category_name":"上海菜","address":"杨浦区海州路199号(近隆昌路)"},{"poiid":"B2094757D66EA3F9499D","title":"腾越路兰州拉面","lon":"121.55096","lat":"31.27041","category":"68","category_name":"快餐厅","address":"杨浦区腾越路(近海州路)"},{"poiid":"B2094654D56FA7F44799","title":"上海市辛灵中学","lon":"121.55094","lat":"31.26942","category":"55","category_name":"中学","address":"海州路268"},{"poiid":"B2094654D56FA7F5499E","title":"隆昌路88弄小区","lon":"121.55026","lat":"31.26895","category":"47","category_name":"住宅区","address":"隆昌路88弄"},{"poiid":"B2094655D26FA7FE4898","title":"上海市辛灵中学(西门)","lon":"121.55031","lat":"31.26968","category":"678","category_name":"学校大门","address":"海州路268"},{"poiid":"B2094757D069A1FE469F","title":"鼎隆公寓","lon":"121.54582","lat":"31.267815","category":"47","category_name":"住宅区","address":"上海市杨浦区宁武路218弄"},{"poiid":"B2094757D664A3FE429B","title":"缪氏粽子专卖店","lon":"121.547054","lat":"31.270345","category":"68","category_name":"快餐厅","address":"杨浦区平凉路2058号(近隆昌路)"},{"poiid":"B2094757D164A7FB459F","title":"杨树浦路隆昌路","lon":"121.553443903","lat":"31.2691503957","category":"47","category_name":"住宅区","address":"上海杨树浦路2569弄"},{"poiid":"B2094654D56FA7F4429E","title":"波阳小吃店","lon":"121.552","lat":"31.26904","category":"68","category_name":"快餐厅","address":"杨浦区腾越路(近杨浦区中心医院)"},{"poiid":"B2094757D164A5FE4898","title":"凯茗老北京热气涮羊肉","lon":"121.548858203","lat":"31.2700644148","category":"247","category_name":"餐饮美食","address":"上海杨浦区隆昌路219号"},{"poiid":"B2094655D26CA5FB4999","title":"同华里(东门)","lon":"121.54965","lat":"31.26929","category":"47","category_name":"住宅区","address":"海州路215弄"},{"poiid":"B2094757D06AA4F84492","title":"上海电力学院(平凉路校区)图书馆","lon":"121.54767","lat":"31.27118","category":"181","category_name":"图书馆","address":"上海杨浦区平凉路2103号"},{"poiid":"B2094757D06AA6FB4692","title":"万福记苏州汤包馆","lon":"121.54639","lat":"31.26992","category":"68","category_name":"快餐厅","address":"杨浦区平凉路1970号(近隆昌路)"},{"poiid":"B2094655D26FA6FD419C","title":"隆昌路88弄小区(南门)","lon":"121.55026","lat":"31.26876","category":"47","category_name":"住宅区","address":""},{"poiid":"B2094655D26EA2FF4998","title":"同华里","lon":"121.54939","lat":"31.26948","category":"47","category_name":"住宅区","address":"海州路215弄"},{"poiid":"B2094655D26DA6F9469A","title":"博海商务楼","lon":"121.5485","lat":"31.26969","category":"46","category_name":"楼宇","address":"隆昌路208-212"},{"poiid":"B2094654D56FA6FC4099","title":"光明便利No.051","lon":"121.55087","lat":"31.26848","category":"117","category_name":"便民商店/便利店","address":""},{"poiid":"B2094655D265A3F9459A","title":"腾越路465弄小区(东北门)","lon":"121.54979","lat":"31.27114","category":"47","category_name":"住宅区","address":"腾越路465弄"},{"poiid":"B2094654D56FA4FB479B","title":"上海电力安装第一工程公司","lon":"121.54734","lat":"31.26953","category":"76","category_name":"上海菜","address":"杨浦区隆昌路235号"},{"poiid":"B2094655D265A3F4489A","title":"振声里","lon":"121.54882","lat":"31.26855","category":"47","category_name":"住宅区","address":"海州路165弄"},{"poiid":"B2094654D56FA7F5499F","title":"隆昌路88弄小区(1号门)","lon":"121.55039","lat":"31.26869","category":"47","category_name":"住宅区","address":""},{"poiid":"B2094655D26CA5F9439D","title":"大德里小区","lon":"121.55157891683","lat":"31.269477004249","category":"47","category_name":"住宅区","address":"宜山北路9弄"},{"poiid":"B2094757D16BA4F5459F","title":"隆昌路海州路燒烤路邊攤","lon":"121.5504731","lat":"31.269131395","category":"500","category_name":"未知分类","address":"上海市杨浦区隆昌路"},{"poiid":"B2094654D56FA7F5469B","title":"来香缘","lon":"121.55064","lat":"31.26826","category":"76","category_name":"上海菜","address":"杨浦区隆昌路61号(近杨浦区中心医院)"},{"poiid":"B2094757D66CA5FC439F","title":"华电酒家","lon":"121.54737","lat":"31.26987","category":"76","category_name":"上海菜","address":"杨浦区隆昌路243号(近平凉路)"},{"poiid":"B2094654D56FA6FF4893","title":"上海第十四机动车安全技术检测站","lon":"121.54814","lat":"31.26702","category":"250","category_name":"公园户外","address":"海州路18"},{"poiid":"B2094750D664A1FE4099","title":"王记老北京挂炉烤鸭(隆昌路店)","lon":"121.549","lat":"31.2694","category":"68","category_name":"快餐厅","address":"杨浦区隆昌路168号(近杭州路)"},{"poiid":"B2094654D56FA7F4429D","title":"波阳公园","lon":"121.55166","lat":"31.27222","category":"196","category_name":"公园","address":"杨浦区波阳路200号(近贵阳路)"},{"poiid":"B2094655D26BA1FC4898","title":"平凉路贵阳路","lon":"121.5497","lat":"31.27382","category":"38","category_name":"公交车站","address":""},{"poiid":"B2094750DB6DA1FC4293","title":"杨浦 奥特莱斯","lon":"121.55368","lat":"31.272339","category":"249","category_name":"购物服务","address":"杨树浦路"},{"poiid":"B2094654D56FA7F54798","title":"杨浦江浦开业园区","lon":"121.54833","lat":"31.26978","category":"45","category_name":"产业园区","address":"隆昌路210号"},{"poiid":"B2094757D164A1F5469D","title":"上海电力学院三好堂","lon":"121.546768403","lat":"31.2711401373","category":"76","category_name":"上海菜","address":"杨浦区平凉路2103号(近隆昌路)"},{"poiid":"B2094655D26BA6FD479E","title":"腾越路465弄小区","lon":"121.54955","lat":"31.27081","category":"47","category_name":"住宅区","address":"腾越路465弄"},{"poiid":"B2094655D26CA5FA4593","title":"喜士多","lon":"121.54975","lat":"31.2712","category":"117","category_name":"便民商店/便利店","address":"腾越路467-1"},{"poiid":"B2094655D26CA6FD4799","title":"光明便利No.021","lon":"121.54945","lat":"31.27139","category":"117","category_name":"便民商店/便利店","address":""},{"poiid":"B2094750D664A6FA489E","title":"凯茂老北京热气羊肉火锅","lon":"121.548","lat":"31.2694","category":"86","category_name":"火锅店","address":"杨浦区隆昌路217号(近平凉路)"},{"poiid":"B2094654D56FA7F44298","title":"上海市杨浦区中心医院","lon":"121.55075","lat":"31.27167","category":"162","category_name":"医院","address":"杨浦区腾越路450号(海州路腾越路)"},{"poiid":"B2094757D06FA2FC409F","title":"上海电力学院(平凉路校区)","lon":"121.5476","lat":"31.27139","category":"671","category_name":"高校中心点","address":"杨浦区平凉路2103号(近隆昌路)"},{"poiid":"B2094655D36CA1FF4698","title":"隆昌路平凉路","lon":"121.54691","lat":"31.27038","category":"38","category_name":"公交车站","address":""},{"poiid":"B2094654D56FABFC449C","title":"珠江香樟南园","lon":"121.54428","lat":"31.270346","category":"47","category_name":"住宅区","address":"平凉路1893~1915(全部单号)"},{"poiid":"B2094757D06FA5F5439C","title":"上海财经大学附属中学","lon":"121.54641","lat":"31.26655","category":"55","category_name":"中学","address":"杨浦区宁武路151号(近平凉路)"},{"poiid":"B2094654DB6BA2F84393","title":"上海市杨浦区中心医院门诊","lon":"121.54994","lat":"31.27151","category":"162","category_name":"医院","address":"腾越路450号"},{"poiid":"B2094757D06FA1FE4198","title":"上海市杨浦区公安分局","lon":"121.5467706","lat":"31.270775033","category":"260","category_name":"其他","address":"上海市杨浦区平凉路2049号"},{"poiid":"B2094757D06AA5FD459A","title":"杨浦区中心医院急诊室","lon":"121.549722203","lat":"31.2726692692","category":"902","category_name":"楼宇机构","address":null},{"poiid":"B2094757D16CA0F44193","title":"东外滩一号","lon":"121.5498301","lat":"31.271440443","category":"500","category_name":"未知分类","address":"上海市杨浦区内江路(近杨树浦路)"},{"poiid":"B2094655D36CA1FF459D","title":"隆昌路杨树浦路","lon":"121.55057","lat":"31.26848","category":"38","category_name":"公交车站","address":""},{"poiid":"B2094757D069A5F84192","title":"新亚大包 腾越路店","lon":"121.549597054","lat":"31.271465793","category":"68","category_name":"快餐厅","address":"杨浦区腾越路467号(波阳路腾越路)"},{"poiid":"B2094757D16CA1FD429A","title":"平凉路宁武路","lon":"121.544449","lat":"31.268159","category":"500","category_name":"未知分类","address":"上海平凉路宁武路路口"},{"poiid":"B2094757D06AA6F94799","title":"DQ冰雪皇后(长阳欧尚)","lon":"121.5447781","lat":"31.267579362","category":"247","category_name":"餐饮美食","address":"上海长阳路1750号"},{"poiid":"B2094757D06BA1FD469E","title":"强强熟食店","lon":"121.54965","lat":"31.26891","category":"68","category_name":"快餐厅","address":"杨浦区隆昌路164号(近海州路)"},{"poiid":"B2094757D465A0FB459D","title":"福根餐厅","lon":"121.549595054","lat":"31.269061793","category":"76","category_name":"上海菜","address":"杨浦区海州路199号(近隆昌路)"},{"poiid":"B2094757D66EA3F9499D","title":"腾越路兰州拉面","lon":"121.55096","lat":"31.27041","category":"68","category_name":"快餐厅","address":"杨浦区腾越路(近海州路)"},{"poiid":"B2094654D56FA7F44799","title":"上海市辛灵中学","lon":"121.55094","lat":"31.26942","category":"55","category_name":"中学","address":"海州路268"},{"poiid":"B2094654D56FA7F5499E","title":"隆昌路88弄小区","lon":"121.55026","lat":"31.26895","category":"47","category_name":"住宅区","address":"隆昌路88弄"},{"poiid":"B2094655D26FA7FE4898","title":"上海市辛灵中学(西门)","lon":"121.55031","lat":"31.26968","category":"678","category_name":"学校大门","address":"海州路268"},{"poiid":"B2094757D069A1FE469F","title":"鼎隆公寓","lon":"121.54582","lat":"31.267815","category":"47","category_name":"住宅区","address":"上海市杨浦区宁武路218弄"},{"poiid":"B2094757D664A3FE429B","title":"缪氏粽子专卖店","lon":"121.547054","lat":"31.270345","category":"68","category_name":"快餐厅","address":"杨浦区平凉路2058号(近隆昌路)"},{"poiid":"B2094757D164A7FB459F","title":"杨树浦路隆昌路","lon":"121.553443903","lat":"31.2691503957","category":"47","category_name":"住宅区","address":"上海杨树浦路2569弄"},{"poiid":"B2094654D56FA7F4429E","title":"波阳小吃店","lon":"121.552","lat":"31.26904","category":"68","category_name":"快餐厅","address":"杨浦区腾越路(近杨浦区中心医院)"},{"poiid":"B2094757D164A5FE4898","title":"凯茗老北京热气涮羊肉","lon":"121.548858203","lat":"31.2700644148","category":"247","category_name":"餐饮美食","address":"上海杨浦区隆昌路219号"},{"poiid":"B2094655D26CA5FB4999","title":"同华里(东门)","lon":"121.54965","lat":"31.26929","category":"47","category_name":"住宅区","address":"海州路215弄"},{"poiid":"B2094757D06AA4F84492","title":"上海电力学院(平凉路校区)图书馆","lon":"121.54767","lat":"31.27118","category":"181","category_name":"图书馆","address":"上海杨浦区平凉路2103号"},{"poiid":"B2094757D06AA6FB4692","title":"万福记苏州汤包馆","lon":"121.54639","lat":"31.26992","category":"68","category_name":"快餐厅","address":"杨浦区平凉路1970号(近隆昌路)"},{"poiid":"B2094655D26FA6FD419C","title":"隆昌路88弄小区(南门)","lon":"121.55026","lat":"31.26876","category":"47","category_name":"住宅区","address":""},{"poiid":"B2094655D26EA2FF4998","title":"同华里","lon":"121.54939","lat":"31.26948","category":"47","category_name":"住宅区","address":"海州路215弄"},{"poiid":"B2094655D26DA6F9469A","title":"博海商务楼","lon":"121.5485","lat":"31.26969","category":"46","category_name":"楼宇","address":"隆昌路208-212"},{"poiid":"B2094654D56FA6FC4099","title":"光明便利No.051","lon":"121.55087","lat":"31.26848","category":"117","category_name":"便民商店/便利店","address":""},{"poiid":"B2094655D265A3F9459A","title":"腾越路465弄小区(东北门)","lon":"121.54979","lat":"31.27114","category":"47","category_name":"住宅区","address":"腾越路465弄"},{"poiid":"B2094654D56FA4FB479B","title":"上海电力安装第一工程公司","lon":"121.54734","lat":"31.26953","category":"76","category_name":"上海菜","address":"杨浦区隆昌路235号"},{"poiid":"B2094655D265A3F4489A","title":"振声里","lon":"121.54882","lat":"31.26855","category":"47","category_name":"住宅区","address":"海州路165弄"},{"poiid":"B2094654D56FA7F5499F","title":"隆昌路88弄小区(1号门)","lon":"121.55039","lat":"31.26869","category":"47","category_name":"住宅区","address":""},{"poiid":"B2094655D26CA5F9439D","title":"大德里小区","lon":"121.55157891683","lat":"31.269477004249","category":"47","category_name":"住宅区","address":"宜山北路9弄"},{"poiid":"B2094757D16BA4F5459F","title":"隆昌路海州路燒烤路邊攤","lon":"121.5504731","lat":"31.269131395","category":"500","category_name":"未知分类","address":"上海市杨浦区隆昌路"},{"poiid":"B2094654D56FA7F5469B","title":"来香缘","lon":"121.55064","lat":"31.26826","category":"76","category_name":"上海菜","address":"杨浦区隆昌路61号(近杨浦区中心医院)"},{"poiid":"B2094757D66CA5FC439F","title":"华电酒家","lon":"121.54737","lat":"31.26987","category":"76","category_name":"上海菜","address":"杨浦区隆昌路243号(近平凉路)"},{"poiid":"B2094654D56FA6FF4893","title":"上海第十四机动车安全技术检测站","lon":"121.54814","lat":"31.26702","category":"250","category_name":"公园户外","address":"海州路18"},{"poiid":"B2094750D664A1FE4099","title":"王记老北京挂炉烤鸭(隆昌路店)","lon":"121.549","lat":"31.2694","category":"68","category_name":"快餐厅","address":"杨浦区隆昌路168号(近杭州路)"},{"poiid":"B2094654D56FA7F4429D","title":"波阳公园","lon":"121.55166","lat":"31.27222","category":"196","category_name":"公园","address":"杨浦区波阳路200号(近贵阳路)"},{"poiid":"B2094655D26BA1FC4898","title":"平凉路贵阳路","lon":"121.5497","lat":"31.27382","category":"38","category_name":"公交车站","address":""},{"poiid":"B2094750DB6DA1FC4293","title":"杨浦 奥特莱斯","lon":"121.55368","lat":"31.272339","category":"249","category_name":"购物服务","address":"杨树浦路"},{"poiid":"B2094654D56FA7F54798","title":"杨浦江浦开业园区","lon":"121.54833","lat":"31.26978","category":"45","category_name":"产业园区","address":"隆昌路210号"},{"poiid":"B2094757D164A1F5469D","title":"上海电力学院三好堂","lon":"121.546768403","lat":"31.2711401373","category":"76","category_name":"上海菜","address":"杨浦区平凉路2103号(近隆昌路)"},{"poiid":"B2094655D26BA6FD479E","title":"腾越路465弄小区","lon":"121.54955","lat":"31.27081","category":"47","category_name":"住宅区","address":"腾越路465弄"},{"poiid":"B2094655D26CA5FA4593","title":"喜士多","lon":"121.54975","lat":"31.2712","category":"117","category_name":"便民商店/便利店","address":"腾越路467-1"},{"poiid":"B2094655D26CA6FD4799","title":"光明便利No.021","lon":"121.54945","lat":"31.27139","category":"117","category_name":"便民商店/便利店","address":""},{"poiid":"B2094750D664A6FA489E","title":"凯茂老北京热气羊肉火锅","lon":"121.548","lat":"31.2694","category":"86","category_name":"火锅店","address":"杨浦区隆昌路217号(近平凉路)"},{"poiid":"B2094654D56FA7F44298","title":"上海市杨浦区中心医院","lon":"121.55075","lat":"31.27167","category":"162","category_name":"医院","address":"杨浦区腾越路450号(海州路腾越路)"},{"poiid":"B2094757D06FA2FC409F","title":"上海电力学院(平凉路校区)","lon":"121.5476","lat":"31.27139","category":"671","category_name":"高校中心点","address":"杨浦区平凉路2103号(近隆昌路)"},{"poiid":"B2094655D36CA1FF4698","title":"隆昌路平凉路","lon":"121.54691","lat":"31.27038","category":"38","category_name":"公交车站","address":""},{"poiid":"B2094654D56FABFC449C","title":"珠江香樟南园","lon":"121.54428","lat":"31.270346","category":"47","category_name":"住宅区","address":"平凉路1893~1915(全部单号)"},{"poiid":"B2094757D06FA5F5439C","title":"上海财经大学附属中学","lon":"121.54641","lat":"31.26655","category":"55","category_name":"中学","address":"杨浦区宁武路151号(近平凉路)"},{"poiid":"B2094654DB6BA2F84393","title":"上海市杨浦区中心医院门诊","lon":"121.54994","lat":"31.27151","category":"162","category_name":"医院","address":"腾越路450号"},{"poiid":"B2094757D06FA1FE4198","title":"上海市杨浦区公安分局","lon":"121.5467706","lat":"31.270775033","category":"260","category_name":"其他","address":"上海市杨浦区平凉路2049号"},{"poiid":"B2094757D06AA5FD459A","title":"杨浦区中心医院急诊室","lon":"121.549722203","lat":"31.2726692692","category":"902","category_name":"楼宇机构","address":null},{"poiid":"B2094757D16CA0F44193","title":"东外滩一号","lon":"121.5498301","lat":"31.271440443","category":"500","category_name":"未知分类","address":"上海市杨浦区内江路(近杨树浦路)"},{"poiid":"B2094655D36CA1FF459D","title":"隆昌路杨树浦路","lon":"121.55057","lat":"31.26848","category":"38","category_name":"公交车站","address":""},{"poiid":"B2094757D069A5F84192","title":"新亚大包 腾越路店","lon":"121.549597054","lat":"31.271465793","category":"68","category_name":"快餐厅","address":"杨浦区腾越路467号(波阳路腾越路)"},{"poiid":"B2094757D16CA1FD429A","title":"平凉路宁武路","lon":"121.544449","lat":"31.268159","category":"500","category_name":"未知分类","address":"上海平凉路宁武路路口"},{"poiid":"B2094757D06AA6F94799","title":"DQ冰雪皇后(长阳欧尚)","lon":"121.5447781","lat":"31.267579362","category":"247","category_name":"餐饮美食","address":"上海长阳路1750号"},{"poiid":"B2094757D06BA1FD469E","title":"强强熟食店","lon":"121.54965","lat":"31.26891","category":"68","category_name":"快餐厅","address":"杨浦区隆昌路164号(近海州路)"},{"poiid":"B2094757D465A0FB459D","title":"福根餐厅","lon":"121.549595054","lat":"31.269061793","category":"76","category_name":"上海菜","address":"杨浦区海州路199号(近隆昌路)"},{"poiid":"B2094757D66EA3F9499D","title":"腾越路兰州拉面","lon":"121.55096","lat":"31.27041","category":"68","category_name":"快餐厅","address":"杨浦区腾越路(近海州路)"},{"poiid":"B2094654D56FA7F44799","title":"上海市辛灵中学","lon":"121.55094","lat":"31.26942","category":"55","category_name":"中学","address":"海州路268"},{"poiid":"B2094654D56FA7F5499E","title":"隆昌路88弄小区","lon":"121.55026","lat":"31.26895","category":"47","category_name":"住宅区","address":"隆昌路88弄"},{"poiid":"B2094655D26FA7FE4898","title":"上海市辛灵中学(西门)","lon":"121.55031","lat":"31.26968","category":"678","category_name":"学校大门","address":"海州路268"},{"poiid":"B2094757D069A1FE469F","title":"鼎隆公寓","lon":"121.54582","lat":"31.267815","category":"47","category_name":"住宅区","address":"上海市杨浦区宁武路218弄"},{"poiid":"B2094757D664A3FE429B","title":"缪氏粽子专卖店","lon":"121.547054","lat":"31.270345","category":"68","category_name":"快餐厅","address":"杨浦区平凉路2058号(近隆昌路)"},{"poiid":"B2094757D164A7FB459F","title":"杨树浦路隆昌路","lon":"121.553443903","lat":"31.2691503957","category":"47","category_name":"住宅区","address":"上海杨树浦路2569弄"},{"poiid":"B2094654D56FA7F4429E","title":"波阳小吃店","lon":"121.552","lat":"31.26904","category":"68","category_name":"快餐厅","address":"杨浦区腾越路(近杨浦区中心医院)"},{"poiid":"B2094757D164A5FE4898","title":"凯茗老北京热气涮羊肉","lon":"121.548858203","lat":"31.2700644148","category":"247","category_name":"餐饮美食","address":"上海杨浦区隆昌路219号"},{"poiid":"B2094655D26CA5FB4999","title":"同华里(东门)","lon":"121.54965","lat":"31.26929","category":"47","category_name":"住宅区","address":"海州路215弄"},{"poiid":"B2094757D06AA4F84492","title":"上海电力学院(平凉路校区)图书馆","lon":"121.54767","lat":"31.27118","category":"181","category_name":"图书馆","address":"上海杨浦区平凉路2103号"},{"poiid":"B2094757D06AA6FB4692","title":"万福记苏州汤包馆","lon":"121.54639","lat":"31.26992","category":"68","category_name":"快餐厅","address":"杨浦区平凉路1970号(近隆昌路)"},{"poiid":"B2094655D26FA6FD419C","title":"隆昌路88弄小区(南门)","lon":"121.55026","lat":"31.26876","category":"47","category_name":"住宅区","address":""},{"poiid":"B2094655D26EA2FF4998","title":"同华里","lon":"121.54939","lat":"31.26948","category":"47","category_name":"住宅区","address":"海州路215弄"},{"poiid":"B2094655D26DA6F9469A","title":"博海商务楼","lon":"121.5485","lat":"31.26969","category":"46","category_name":"楼宇","address":"隆昌路208-212"},{"poiid":"B2094654D56FA6FC4099","title":"光明便利No.051","lon":"121.55087","lat":"31.26848","category":"117","category_name":"便民商店/便利店","address":""},{"poiid":"B2094655D265A3F9459A","title":"腾越路465弄小区(东北门)","lon":"121.54979","lat":"31.27114","category":"47","category_name":"住宅区","address":"腾越路465弄"},{"poiid":"B2094654D56FA4FB479B","title":"上海电力安装第一工程公司","lon":"121.54734","lat":"31.26953","category":"76","category_name":"上海菜","address":"杨浦区隆昌路235号"},{"poiid":"B2094655D265A3F4489A","title":"振声里","lon":"121.54882","lat":"31.26855","category":"47","category_name":"住宅区","address":"海州路165弄"},{"poiid":"B2094654D56FA7F5499F","title":"隆昌路88弄小区(1号门)","lon":"121.55039","lat":"31.26869","category":"47","category_name":"住宅区","address":""},{"poiid":"B2094655D26CA5F9439D","title":"大德里小区","lon":"121.55157891683","lat":"31.269477004249","category":"47","category_name":"住宅区","address":"宜山北路9弄"},{"poiid":"B2094757D16BA4F5459F","title":"隆昌路海州路燒烤路邊攤","lon":"121.5504731","lat":"31.269131395","category":"500","category_name":"未知分类","address":"上海市杨浦区隆昌路"},{"poiid":"B2094654D56FA7F5469B","title":"来香缘","lon":"121.55064","lat":"31.26826","category":"76","category_name":"上海菜","address":"杨浦区隆昌路61号(近杨浦区中心医院)"},{"poiid":"B2094757D66CA5FC439F","title":"华电酒家","lon":"121.54737","lat":"31.26987","category":"76","category_name":"上海菜","address":"杨浦区隆昌路243号(近平凉路)"},{"poiid":"B2094654D56FA6FF4893","title":"上海第十四机动车安全技术检测站","lon":"121.54814","lat":"31.26702","category":"250","category_name":"公园户外","address":"海州路18"},{"poiid":"B2094750D664A1FE4099","title":"王记老北京挂炉烤鸭(隆昌路店)","lon":"121.549","lat":"31.2694","category":"68","category_name":"快餐厅","address":"杨浦区隆昌路168号(近杭州路)"},{"poiid":"B2094654D56FA7F4429D","title":"波阳公园","lon":"121.55166","lat":"31.27222","category":"196","category_name":"公园","address":"杨浦区波阳路200号(近贵阳路)"},{"poiid":"B2094655D26BA1FC4898","title":"平凉路贵阳路","lon":"121.5497","lat":"31.27382","category":"38","category_name":"公交车站","address":""},{"poiid":"B2094750DB6DA1FC4293","title":"杨浦 奥特莱斯","lon":"121.55368","lat":"31.272339","category":"249","category_name":"购物服务","address":"杨树浦路"},{"poiid":"B2094654D56FA7F54798","title":"杨浦江浦开业园区","lon":"121.54833","lat":"31.26978","category":"45","category_name":"产业园区","address":"隆昌路210号"},{"poiid":"B2094757D164A1F5469D","title":"上海电力学院三好堂","lon":"121.546768403","lat":"31.2711401373","category":"76","category_name":"上海菜","address":"杨浦区平凉路2103号(近隆昌路)"},{"poiid":"B2094655D26BA6FD479E","title":"腾越路465弄小区","lon":"121.54955","lat":"31.27081","category":"47","category_name":"住宅区","address":"腾越路465弄"},{"poiid":"B2094655D26CA5FA4593","title":"喜士多","lon":"121.54975","lat":"31.2712","category":"117","category_name":"便民商店/便利店","address":"腾越路467-1"},{"poiid":"B2094655D26CA6FD4799","title":"光明便利No.021","lon":"121.54945","lat":"31.27139","category":"117","category_name":"便民商店/便利店","address":""},{"poiid":"B2094750D664A6FA489E","title":"凯茂老北京热气羊肉火锅","lon":"121.548","lat":"31.2694","category":"86","category_name":"火锅店","address":"杨浦区隆昌路217号(近平凉路)"}]