[{"poiid":"B2094750D668A7FB439D","title":"纽斯桑拿会所","lon":"121.414176","lat":"31.209903","category":"248","category_name":"生活娱乐","address":"长宁区天山路1900号(近延安西路)"},{"poiid":"B2094655D26FA5FE4299","title":"东华大学(延安西路校区)","lon":"121.41384","lat":"31.20653","category":"671","category_name":"高校中心点","address":"上海市长宁区延安西路1882号"},{"poiid":"B2094757DA6EABFB469A","title":"尚嘉中心","lon":"121.413","lat":"31.2115","category":"249","category_name":"购物服务","address":"上海市长宁区仙霞路99号"},{"poiid":"B2094750DB6BA2FA479E","title":"纽斯","lon":"121.414527","lat":"31.208843","category":"248","category_name":"生活娱乐","address":"天山路1900号"},{"poiid":"B2094655D26DA3FD459E","title":"上海国际贸易中心","lon":"121.41","lat":"31.2082","category":"46","category_name":"楼宇","address":"上海市长宁区延安西路2201号"},{"poiid":"B2094654DB65A5F84793","title":"育音堂","lon":"121.41618","lat":"31.20858","category":"248","category_name":"生活娱乐","address":"长宁区凯旋路851号(凯旋路延安西路)"},{"poiid":"B2094750DB6CA0FE449A","title":"纽斯韩式汗蒸会所","lon":"121.411201","lat":"31.20803","category":"148","category_name":"美容美发店","address":null},{"poiid":"B2094757D06FA3F94892","title":"上海市职业培训指导中心","lon":"121.41142","lat":"31.21003","category":"253","category_name":"校园生活","address":"长宁区天山路1800号(近中山西路)"},{"poiid":"B2094752D76EA4F44698","title":"本家韩国料理","lon":"121.413605","lat":"31.209045","category":"247","category_name":"餐饮美食","address":"天山路1900号(近延安西路)"},{"poiid":"B2094750D565A6FA459A","title":"New star","lon":"121.414184","lat":"31.209081","category":"248","category_name":"生活娱乐","address":"天山路延安西路"},{"poiid":"B2094655D36DA7F8489E","title":"中山西路天山路","lon":"121.41274","lat":"31.21002","category":"38","category_name":"公交车站","address":""},{"poiid":"B2094757D06FA4FD489A","title":"天山公园","lon":"121.415716881","lat":"31.2089318765","category":"196","category_name":"公园","address":"长宁区延安西路1731号(近凯旋路)"},{"poiid":"B2094757DB6FAAFA4092","title":"Petit George Cafe","lon":"121.4110325","lat":"31.2095602","category":"500","category_name":"未知分类","address":"延安西路1794号(近天山路)"},{"poiid":"B2094757D068A6F44999","title":"佳佳母婴天地中山西路分部","lon":"121.41130058","lat":"31.208866013","category":"128","category_name":"儿童用品店","address":"上海市长宁区中山西路753号"},{"poiid":"B2094751D465A2F84193","title":"同一首歌KTV俱乐部（天山路店）","lon":"121.414139","lat":"31.208694","category":"248","category_name":"生活娱乐","address":"上海市长宁区天山路1900号"},{"poiid":"B2094757D06FA5FD429A","title":"长宁区国家税务局","lon":"121.41092798","lat":"31.209929853","category":"500","category_name":"未知分类","address":"上海天山路1827号"},{"poiid":"B2094757D068A5FF409C","title":"上海内环线高架路","lon":"121.412181378","lat":"31.2059787732","category":"260","category_name":"其他","address":"上海市内环线高架路"},{"poiid":"B2094757D06FA7FB489B","title":"天山茶城","lon":"121.41228","lat":"31.2127","category":"136","category_name":"烟酒专卖店","address":"长宁区中山西路518号(玉屏南路口)"},{"poiid":"B2094750D565A6FB499D","title":"纽斯汗蒸","lon":"121.414192","lat":"31.209089","category":"249","category_name":"购物服务","address":"天山路77号"},{"poiid":"B2094757D06FAAF9439E","title":"一茶一座(中山公园店)","lon":"121.411003113","lat":"31.2094993591","category":"47","category_name":"住宅区","address":"上海长宁区中山公园龙之梦b2"},{"poiid":"B2094757D068AAFA4492","title":"上海市人力资源和社会保障局","lon":"121.411439373","lat":"31.2106589438","category":"46","category_name":"楼宇","address":"上海天山路1800号"},{"poiid":"B2094757D06FA0F9439B","title":"小城堡","lon":"121.414903","lat":"31.207477","category":"94","category_name":"西餐厅","address":"长宁区延安西路1794号(近天山路)"},{"poiid":"B2094757D06FA6F54598","title":"仲盛金融中心","lon":"121.415","lat":"31.2102","category":"500","category_name":"未知分类","address":"延安西路2067号"},{"poiid":"B2094655D26AAAF44692","title":"爆香串云南烧 天山店","lon":"121.411529","lat":"31.209659","category":"68","category_name":"快餐厅","address":"长宁区中山西路642号(近天山路)"},{"poiid":"B2094654D56BA5FA439F","title":"协泰中心","lon":"121.413","lat":"31.2105","category":"46","category_name":"楼宇","address":"上海市奉贤区环城东路455,465弄"},{"poiid":"B2094757D069A5FD429F","title":"延安路高架西行长宁虹桥区","lon":"121.41423114","lat":"31.207561972","category":"500","category_name":"未知分类","address":"上海延安路高架"},{"poiid":"B2094750DA69A3F44099","title":"纽斯spa会所","lon":"121.414466","lat":"31.209598","category":"148","category_name":"美容美发店","address":null},{"poiid":"B2094750DA6FA2F94899","title":"纽斯（天山店）","lon":"121.414314","lat":"31.209098","category":"247","category_name":"餐饮美食","address":null},{"poiid":"B2094757D06FA5F9429E","title":"中山西路立交","lon":"121.41245269","lat":"31.208242416","category":"500","category_name":"未知分类","address":"上海立交桥"},{"poiid":"B2094757D16EA4FD499F","title":"大风车私家菜馆(绿洲大厦店)","lon":"121.415989986","lat":"31.2079916961","category":"76","category_name":"上海菜","address":"上海长宁区中山西路555号绿洲大厦2楼，62861737，人均:60元"},{"poiid":"B2094750DA6AA2F9489B","title":"newstar","lon":"121.414466","lat":"31.209535","category":"248","category_name":"生活娱乐","address":"天山路1900号"},{"poiid":"B2094752D769A2FE4092","title":"本家","lon":"121.412352","lat":"31.207938","category":"247","category_name":"餐饮美食","address":"天山路1900号(近延安西路)"},{"poiid":"B2094751D56CAAF5409E","title":"其鲜生煎(玉屏南路店)","lon":"121.41221","lat":"31.20983","category":"68","category_name":"快餐厅","address":"长宁区玉屏南路(近武夷路)"},{"poiid":"B2094757D568ABF8479A","title":"Lucky Star","lon":"121.41300266","lat":"31.2102946","category":"65","category_name":"咖啡厅","address":"长宁区中山西路743号永田大厦(天山路中山西路)"},{"poiid":"B2094757D06AA7F5429D","title":"锦明大厦","lon":"121.413","lat":"31.2096","category":"252","category_name":"楼宇机构","address":"上海遵义南路8号"},{"poiid":"B2094757D465A3FC4192","title":"苏州羊肉面馆 天山店","lon":"121.411701054","lat":"31.209451793","category":"247","category_name":"餐饮美食","address":"长宁区天山路1821号(近中山西路)"},{"poiid":"B2094751D56FA5FD4798","title":"New star纽斯","lon":"121.413927","lat":"31.20865","category":"500","category_name":"未知分类","address":null},{"poiid":"B2094750DB6BABFF449A","title":"纽斯桑拿会所","lon":"121.414321","lat":"31.209598","category":"248","category_name":"生活娱乐","address":"延安西路天山路"},{"poiid":"B2094654DB6AA3FF4093","title":"上海市地方税务局长宁分局第6税务所","lon":"121.41109","lat":"31.20941","category":"250","category_name":"公园户外","address":"天山路1827号"},{"poiid":"B2094757D068ABFB469F","title":"东华大学(延安路校区)二教","lon":"121.413879","lat":"31.206532","category":"253","category_name":"校园生活","address":"上海市长宁区延安西路1882号 东华大学 第二教学楼"},{"poiid":"B2094757D16DAAF84393","title":"云南烧烤","lon":"121.41192458","lat":"31.210292041","category":"247","category_name":"餐饮美食","address":"上海市长宁区遵义路"},{"poiid":"B2094757D168A4FA4293","title":"延安西路天山路篮球场","lon":"121.41299858","lat":"31.208398004","category":"220","category_name":"运动场所","address":"上海市长宁区天山路"},{"poiid":"B2094757D468A5FC489E","title":"青叶","lon":"121.412019054","lat":"31.208448793","category":"247","category_name":"餐饮美食","address":"中山西路648号近天山路"},{"poiid":"B2094655D265A1FB4198","title":"虚实空间网络俱乐部","lon":"121.4132","lat":"31.20874","category":"176","category_name":"网吧","address":"天山路1877号"},{"poiid":"B2094654DB65A3FB4293","title":"丽港城商务楼","lon":"121.41224","lat":"31.20824","category":"46","category_name":"楼宇","address":"中山西路765"},{"poiid":"B2094655D26DA2FC4998","title":"税务大楼","lon":"121.4111","lat":"31.20942","category":"46","category_name":"楼宇","address":"天山路1827"},{"poiid":"B2094655D26DA2FD489B","title":"长连大楼(西门)","lon":"121.41198","lat":"31.20883","category":"47","category_name":"住宅区","address":"中山西路666"},{"poiid":"B2094655D26DA7FE4993","title":"皇家商务楼","lon":"121.41057","lat":"31.2095","category":"46","category_name":"楼宇","address":"天山路1825"},{"poiid":"B2094750DA6CA7FD4899","title":"纽斯","lon":"121.412734","lat":"31.208198","category":"249","category_name":"购物服务","address":null},{"poiid":"B2094654DB6BA7FC439B","title":"快客(内环高架路出口)","lon":"121.4124","lat":"31.21047","category":"117","category_name":"便民商店/便利店","address":""},{"poiid":"B2094750D668A7FB439D","title":"纽斯桑拿会所","lon":"121.414176","lat":"31.209903","category":"248","category_name":"生活娱乐","address":"长宁区天山路1900号(近延安西路)"},{"poiid":"B2094655D26FA5FE4299","title":"东华大学(延安西路校区)","lon":"121.41384","lat":"31.20653","category":"671","category_name":"高校中心点","address":"上海市长宁区延安西路1882号"},{"poiid":"B2094757DA6EABFB469A","title":"尚嘉中心","lon":"121.413","lat":"31.2115","category":"249","category_name":"购物服务","address":"上海市长宁区仙霞路99号"},{"poiid":"B2094750DB6BA2FA479E","title":"纽斯","lon":"121.414527","lat":"31.208843","category":"248","category_name":"生活娱乐","address":"天山路1900号"},{"poiid":"B2094655D26DA3FD459E","title":"上海国际贸易中心","lon":"121.41","lat":"31.2082","category":"46","category_name":"楼宇","address":"上海市长宁区延安西路2201号"},{"poiid":"B2094654DB65A5F84793","title":"育音堂","lon":"121.41618","lat":"31.20858","category":"248","category_name":"生活娱乐","address":"长宁区凯旋路851号(凯旋路延安西路)"},{"poiid":"B2094750DB6CA0FE449A","title":"纽斯韩式汗蒸会所","lon":"121.411201","lat":"31.20803","category":"148","category_name":"美容美发店","address":null},{"poiid":"B2094757D06FA3F94892","title":"上海市职业培训指导中心","lon":"121.41142","lat":"31.21003","category":"253","category_name":"校园生活","address":"长宁区天山路1800号(近中山西路)"},{"poiid":"B2094752D76EA4F44698","title":"本家韩国料理","lon":"121.413605","lat":"31.209045","category":"247","category_name":"餐饮美食","address":"天山路1900号(近延安西路)"},{"poiid":"B2094750D565A6FA459A","title":"New star","lon":"121.414184","lat":"31.209081","category":"248","category_name":"生活娱乐","address":"天山路延安西路"},{"poiid":"B2094655D36DA7F8489E","title":"中山西路天山路","lon":"121.41274","lat":"31.21002","category":"38","category_name":"公交车站","address":""},{"poiid":"B2094757D06FA4FD489A","title":"天山公园","lon":"121.415716881","lat":"31.2089318765","category":"196","category_name":"公园","address":"长宁区延安西路1731号(近凯旋路)"},{"poiid":"B2094757DB6FAAFA4092","title":"Petit George Cafe","lon":"121.4110325","lat":"31.2095602","category":"500","category_name":"未知分类","address":"延安西路1794号(近天山路)"},{"poiid":"B2094757D068A6F44999","title":"佳佳母婴天地中山西路分部","lon":"121.41130058","lat":"31.208866013","category":"128","category_name":"儿童用品店","address":"上海市长宁区中山西路753号"},{"poiid":"B2094751D465A2F84193","title":"同一首歌KTV俱乐部（天山路店）","lon":"121.414139","lat":"31.208694","category":"248","category_name":"生活娱乐","address":"上海市长宁区天山路1900号"},{"poiid":"B2094757D06FA5FD429A","title":"长宁区国家税务局","lon":"121.41092798","lat":"31.209929853","category":"500","category_name":"未知分类","address":"上海天山路1827号"},{"poiid":"B2094757D068A5FF409C","title":"上海内环线高架路","lon":"121.412181378","lat":"31.2059787732","category":"260","category_name":"其他","address":"上海市内环线高架路"},{"poiid":"B2094757D06FA7FB489B","title":"天山茶城","lon":"121.41228","lat":"31.2127","category":"136","category_name":"烟酒专卖店","address":"长宁区中山西路518号(玉屏南路口)"},{"poiid":"B2094750D565A6FB499D","title":"纽斯汗蒸","lon":"121.414192","lat":"31.209089","category":"249","category_name":"购物服务","address":"天山路77号"},{"poiid":"B2094757D06FAAF9439E","title":"一茶一座(中山公园店)","lon":"121.411003113","lat":"31.2094993591","category":"47","category_name":"住宅区","address":"上海长宁区中山公园龙之梦b2"},{"poiid":"B2094757D068AAFA4492","title":"上海市人力资源和社会保障局","lon":"121.411439373","lat":"31.2106589438","category":"46","category_name":"楼宇","address":"上海天山路1800号"},{"poiid":"B2094757D06FA0F9439B","title":"小城堡","lon":"121.414903","lat":"31.207477","category":"94","category_name":"西餐厅","address":"长宁区延安西路1794号(近天山路)"},{"poiid":"B2094757D06FA6F54598","title":"仲盛金融中心","lon":"121.415","lat":"31.2102","category":"500","category_name":"未知分类","address":"延安西路2067号"},{"poiid":"B2094655D26AAAF44692","title":"爆香串云南烧 天山店","lon":"121.411529","lat":"31.209659","category":"68","category_name":"快餐厅","address":"长宁区中山西路642号(近天山路)"},{"poiid":"B2094654D56BA5FA439F","title":"协泰中心","lon":"121.413","lat":"31.2105","category":"46","category_name":"楼宇","address":"上海市奉贤区环城东路455,465弄"},{"poiid":"B2094757D069A5FD429F","title":"延安路高架西行长宁虹桥区","lon":"121.41423114","lat":"31.207561972","category":"500","category_name":"未知分类","address":"上海延安路高架"},{"poiid":"B2094750DA69A3F44099","title":"纽斯spa会所","lon":"121.414466","lat":"31.209598","category":"148","category_name":"美容美发店","address":null},{"poiid":"B2094750DA6FA2F94899","title":"纽斯（天山店）","lon":"121.414314","lat":"31.209098","category":"247","category_name":"餐饮美食","address":null},{"poiid":"B2094757D06FA5F9429E","title":"中山西路立交","lon":"121.41245269","lat":"31.208242416","category":"500","category_name":"未知分类","address":"上海立交桥"},{"poiid":"B2094757D16EA4FD499F","title":"大风车私家菜馆(绿洲大厦店)","lon":"121.415989986","lat":"31.2079916961","category":"76","category_name":"上海菜","address":"上海长宁区中山西路555号绿洲大厦2楼，62861737，人均:60元"},{"poiid":"B2094750DA6AA2F9489B","title":"newstar","lon":"121.414466","lat":"31.209535","category":"248","category_name":"生活娱乐","address":"天山路1900号"},{"poiid":"B2094752D769A2FE4092","title":"本家","lon":"121.412352","lat":"31.207938","category":"247","category_name":"餐饮美食","address":"天山路1900号(近延安西路)"},{"poiid":"B2094751D56CAAF5409E","title":"其鲜生煎(玉屏南路店)","lon":"121.41221","lat":"31.20983","category":"68","category_name":"快餐厅","address":"长宁区玉屏南路(近武夷路)"},{"poiid":"B2094757D568ABF8479A","title":"Lucky Star","lon":"121.41300266","lat":"31.2102946","category":"65","category_name":"咖啡厅","address":"长宁区中山西路743号永田大厦(天山路中山西路)"},{"poiid":"B2094757D06AA7F5429D","title":"锦明大厦","lon":"121.413","lat":"31.2096","category":"252","category_name":"楼宇机构","address":"上海遵义南路8号"},{"poiid":"B2094757D465A3FC4192","title":"苏州羊肉面馆 天山店","lon":"121.411701054","lat":"31.209451793","category":"247","category_name":"餐饮美食","address":"长宁区天山路1821号(近中山西路)"},{"poiid":"B2094751D56FA5FD4798","title":"New star纽斯","lon":"121.413927","lat":"31.20865","category":"500","category_name":"未知分类","address":null},{"poiid":"B2094750DB6BABFF449A","title":"纽斯桑拿会所","lon":"121.414321","lat":"31.209598","category":"248","category_name":"生活娱乐","address":"延安西路天山路"},{"poiid":"B2094654DB6AA3FF4093","title":"上海市地方税务局长宁分局第6税务所","lon":"121.41109","lat":"31.20941","category":"250","category_name":"公园户外","address":"天山路1827号"},{"poiid":"B2094757D068ABFB469F","title":"东华大学(延安路校区)二教","lon":"121.413879","lat":"31.206532","category":"253","category_name":"校园生活","address":"上海市长宁区延安西路1882号 东华大学 第二教学楼"},{"poiid":"B2094757D16DAAF84393","title":"云南烧烤","lon":"121.41192458","lat":"31.210292041","category":"247","category_name":"餐饮美食","address":"上海市长宁区遵义路"},{"poiid":"B2094757D168A4FA4293","title":"延安西路天山路篮球场","lon":"121.41299858","lat":"31.208398004","category":"220","category_name":"运动场所","address":"上海市长宁区天山路"},{"poiid":"B2094757D468A5FC489E","title":"青叶","lon":"121.412019054","lat":"31.208448793","category":"247","category_name":"餐饮美食","address":"中山西路648号近天山路"},{"poiid":"B2094655D265A1FB4198","title":"虚实空间网络俱乐部","lon":"121.4132","lat":"31.20874","category":"176","category_name":"网吧","address":"天山路1877号"},{"poiid":"B2094654DB65A3FB4293","title":"丽港城商务楼","lon":"121.41224","lat":"31.20824","category":"46","category_name":"楼宇","address":"中山西路765"},{"poiid":"B2094655D26DA2FC4998","title":"税务大楼","lon":"121.4111","lat":"31.20942","category":"46","category_name":"楼宇","address":"天山路1827"},{"poiid":"B2094655D26DA2FD489B","title":"长连大楼(西门)","lon":"121.41198","lat":"31.20883","category":"47","category_name":"住宅区","address":"中山西路666"},{"poiid":"B2094655D26DA7FE4993","title":"皇家商务楼","lon":"121.41057","lat":"31.2095","category":"46","category_name":"楼宇","address":"天山路1825"},{"poiid":"B2094750DA6CA7FD4899","title":"纽斯","lon":"121.412734","lat":"31.208198","category":"249","category_name":"购物服务","address":null},{"poiid":"B2094654DB6BA7FC439B","title":"快客(内环高架路出口)","lon":"121.4124","lat":"31.21047","category":"117","category_name":"便民商店/便利店","address":""},{"poiid":"B2094750D668A7FB439D","title":"纽斯桑拿会所","lon":"121.414176","lat":"31.209903","category":"248","category_name":"生活娱乐","address":"长宁区天山路1900号(近延安西路)"},{"poiid":"B2094655D26FA5FE4299","title":"东华大学(延安西路校区)","lon":"121.41384","lat":"31.20653","category":"671","category_name":"高校中心点","address":"上海市长宁区延安西路1882号"},{"poiid":"B2094757DA6EABFB469A","title":"尚嘉中心","lon":"121.413","lat":"31.2115","category":"249","category_name":"购物服务","address":"上海市长宁区仙霞路99号"},{"poiid":"B2094750DB6BA2FA479E","title":"纽斯","lon":"121.414527","lat":"31.208843","category":"248","category_name":"生活娱乐","address":"天山路1900号"},{"poiid":"B2094655D26DA3FD459E","title":"上海国际贸易中心","lon":"121.41","lat":"31.2082","category":"46","category_name":"楼宇","address":"上海市长宁区延安西路2201号"},{"poiid":"B2094654DB65A5F84793","title":"育音堂","lon":"121.41618","lat":"31.20858","category":"248","category_name":"生活娱乐","address":"长宁区凯旋路851号(凯旋路延安西路)"},{"poiid":"B2094750DB6CA0FE449A","title":"纽斯韩式汗蒸会所","lon":"121.411201","lat":"31.20803","category":"148","category_name":"美容美发店","address":null},{"poiid":"B2094757D06FA3F94892","title":"上海市职业培训指导中心","lon":"121.41142","lat":"31.21003","category":"253","category_name":"校园生活","address":"长宁区天山路1800号(近中山西路)"},{"poiid":"B2094752D76EA4F44698","title":"本家韩国料理","lon":"121.413605","lat":"31.209045","category":"247","category_name":"餐饮美食","address":"天山路1900号(近延安西路)"},{"poiid":"B2094750D565A6FA459A","title":"New star","lon":"121.414184","lat":"31.209081","category":"248","category_name":"生活娱乐","address":"天山路延安西路"},{"poiid":"B2094655D36DA7F8489E","title":"中山西路天山路","lon":"121.41274","lat":"31.21002","category":"38","category_name":"公交车站","address":""},{"poiid":"B2094757D06FA4FD489A","title":"天山公园","lon":"121.415716881","lat":"31.2089318765","category":"196","category_name":"公园","address":"长宁区延安西路1731号(近凯旋路)"},{"poiid":"B2094757DB6FAAFA4092","title":"Petit George Cafe","lon":"121.4110325","lat":"31.2095602","category":"500","category_name":"未知分类","address":"延安西路1794号(近天山路)"},{"poiid":"B2094757D068A6F44999","title":"佳佳母婴天地中山西路分部","lon":"121.41130058","lat":"31.208866013","category":"128","category_name":"儿童用品店","address":"上海市长宁区中山西路753号"},{"poiid":"B2094751D465A2F84193","title":"同一首歌KTV俱乐部（天山路店）","lon":"121.414139","lat":"31.208694","category":"248","category_name":"生活娱乐","address":"上海市长宁区天山路1900号"},{"poiid":"B2094757D06FA5FD429A","title":"长宁区国家税务局","lon":"121.41092798","lat":"31.209929853","category":"500","category_name":"未知分类","address":"上海天山路1827号"},{"poiid":"B2094757D068A5FF409C","title":"上海内环线高架路","lon":"121.412181378","lat":"31.2059787732","category":"260","category_name":"其他","address":"上海市内环线高架路"},{"poiid":"B2094757D06FA7FB489B","title":"天山茶城","lon":"121.41228","lat":"31.2127","category":"136","category_name":"烟酒专卖店","address":"长宁区中山西路518号(玉屏南路口)"},{"poiid":"B2094750D565A6FB499D","title":"纽斯汗蒸","lon":"121.414192","lat":"31.209089","category":"249","category_name":"购物服务","address":"天山路77号"},{"poiid":"B2094757D06FAAF9439E","title":"一茶一座(中山公园店)","lon":"121.411003113","lat":"31.2094993591","category":"47","category_name":"住宅区","address":"上海长宁区中山公园龙之梦b2"},{"poiid":"B2094757D068AAFA4492","title":"上海市人力资源和社会保障局","lon":"121.411439373","lat":"31.2106589438","category":"46","category_name":"楼宇","address":"上海天山路1800号"},{"poiid":"B2094757D06FA0F9439B","title":"小城堡","lon":"121.414903","lat":"31.207477","category":"94","category_name":"西餐厅","address":"长宁区延安西路1794号(近天山路)"},{"poiid":"B2094757D06FA6F54598","title":"仲盛金融中心","lon":"121.415","lat":"31.2102","category":"500","category_name":"未知分类","address":"延安西路2067号"},{"poiid":"B2094655D26AAAF44692","title":"爆香串云南烧 天山店","lon":"121.411529","lat":"31.209659","category":"68","category_name":"快餐厅","address":"长宁区中山西路642号(近天山路)"},{"poiid":"B2094654D56BA5FA439F","title":"协泰中心","lon":"121.413","lat":"31.2105","category":"46","category_name":"楼宇","address":"上海市奉贤区环城东路455,465弄"},{"poiid":"B2094757D069A5FD429F","title":"延安路高架西行长宁虹桥区","lon":"121.41423114","lat":"31.207561972","category":"500","category_name":"未知分类","address":"上海延安路高架"},{"poiid":"B2094750DA69A3F44099","title":"纽斯spa会所","lon":"121.414466","lat":"31.209598","category":"148","category_name":"美容美发店","address":null},{"poiid":"B2094750DA6FA2F94899","title":"纽斯（天山店）","lon":"121.414314","lat":"31.209098","category":"247","category_name":"餐饮美食","address":null},{"poiid":"B2094757D06FA5F9429E","title":"中山西路立交","lon":"121.41245269","lat":"31.208242416","category":"500","category_name":"未知分类","address":"上海立交桥"},{"poiid":"B2094757D16EA4FD499F","title":"大风车私家菜馆(绿洲大厦店)","lon":"121.415989986","lat":"31.2079916961","category":"76","category_name":"上海菜","address":"上海长宁区中山西路555号绿洲大厦2楼，62861737，人均:60元"},{"poiid":"B2094750DA6AA2F9489B","title":"newstar","lon":"121.414466","lat":"31.209535","category":"248","category_name":"生活娱乐","address":"天山路1900号"},{"poiid":"B2094752D769A2FE4092","title":"本家","lon":"121.412352","lat":"31.207938","category":"247","category_name":"餐饮美食","address":"天山路1900号(近延安西路)"},{"poiid":"B2094751D56CAAF5409E","title":"其鲜生煎(玉屏南路店)","lon":"121.41221","lat":"31.20983","category":"68","category_name":"快餐厅","address":"长宁区玉屏南路(近武夷路)"},{"poiid":"B2094757D568ABF8479A","title":"Lucky Star","lon":"121.41300266","lat":"31.2102946","category":"65","category_name":"咖啡厅","address":"长宁区中山西路743号永田大厦(天山路中山西路)"},{"poiid":"B2094757D06AA7F5429D","title":"锦明大厦","lon":"121.413","lat":"31.2096","category":"252","category_name":"楼宇机构","address":"上海遵义南路8号"},{"poiid":"B2094757D465A3FC4192","title":"苏州羊肉面馆 天山店","lon":"121.411701054","lat":"31.209451793","category":"247","category_name":"餐饮美食","address":"长宁区天山路1821号(近中山西路)"},{"poiid":"B2094751D56FA5FD4798","title":"New star纽斯","lon":"121.413927","lat":"31.20865","category":"500","category_name":"未知分类","address":null},{"poiid":"B2094750DB6BABFF449A","title":"纽斯桑拿会所","lon":"121.414321","lat":"31.209598","category":"248","category_name":"生活娱乐","address":"延安西路天山路"},{"poiid":"B2094654DB6AA3FF4093","title":"上海市地方税务局长宁分局第6税务所","lon":"121.41109","lat":"31.20941","category":"250","category_name":"公园户外","address":"天山路1827号"},{"poiid":"B2094757D068ABFB469F","title":"东华大学(延安路校区)二教","lon":"121.413879","lat":"31.206532","category":"253","category_name":"校园生活","address":"上海市长宁区延安西路1882号 东华大学 第二教学楼"},{"poiid":"B2094757D16DAAF84393","title":"云南烧烤","lon":"121.41192458","lat":"31.210292041","category":"247","category_name":"餐饮美食","address":"上海市长宁区遵义路"},{"poiid":"B2094757D168A4FA4293","title":"延安西路天山路篮球场","lon":"121.41299858","lat":"31.208398004","category":"220","category_name":"运动场所","address":"上海市长宁区天山路"},{"poiid":"B2094757D468A5FC489E","title":"青叶","lon":"121.412019054","lat":"31.208448793","category":"247","category_name":"餐饮美食","address":"中山西路648号近天山路"},{"poiid":"B2094655D265A1FB4198","title":"虚实空间网络俱乐部","lon":"121.4132","lat":"31.20874","category":"176","category_name":"网吧","address":"天山路1877号"},{"poiid":"B2094654DB65A3FB4293","title":"丽港城商务楼","lon":"121.41224","lat":"31.20824","category":"46","category_name":"楼宇","address":"中山西路765"},{"poiid":"B2094655D26DA2FC4998","title":"税务大楼","lon":"121.4111","lat":"31.20942","category":"46","category_name":"楼宇","address":"天山路1827"},{"poiid":"B2094655D26DA2FD489B","title":"长连大楼(西门)","lon":"121.41198","lat":"31.20883","category":"47","category_name":"住宅区","address":"中山西路666"},{"poiid":"B2094655D26DA7FE4993","title":"皇家商务楼","lon":"121.41057","lat":"31.2095","category":"46","category_name":"楼宇","address":"天山路1825"},{"poiid":"B2094750DA6CA7FD4899","title":"纽斯","lon":"121.412734","lat":"31.208198","category":"249","category_name":"购物服务","address":null},{"poiid":"B2094654DB6BA7FC439B","title":"快客(内环高架路出口)","lon":"121.4124","lat":"31.21047","category":"117","category_name":"便民商店/便利店","address":""},{"poiid":"B2094750D668A7FB439D","title":"纽斯桑拿会所","lon":"121.414176","lat":"31.209903","category":"248","category_name":"生活娱乐","address":"长宁区天山路1900号(近延安西路)"},{"poiid":"B2094655D26FA5FE4299","title":"东华大学(延安西路校区)","lon":"121.41384","lat":"31.20653","category":"671","category_name":"高校中心点","address":"上海市长宁区延安西路1882号"},{"poiid":"B2094757DA6EABFB469A","title":"尚嘉中心","lon":"121.413","lat":"31.2115","category":"249","category_name":"购物服务","address":"上海市长宁区仙霞路99号"},{"poiid":"B2094750DB6BA2FA479E","title":"纽斯","lon":"121.414527","lat":"31.208843","category":"248","category_name":"生活娱乐","address":"天山路1900号"},{"poiid":"B2094655D26DA3FD459E","title":"上海国际贸易中心","lon":"121.41","lat":"31.2082","category":"46","category_name":"楼宇","address":"上海市长宁区延安西路2201号"},{"poiid":"B2094654DB65A5F84793","title":"育音堂","lon":"121.41618","lat":"31.20858","category":"248","category_name":"生活娱乐","address":"长宁区凯旋路851号(凯旋路延安西路)"},{"poiid":"B2094750DB6CA0FE449A","title":"纽斯韩式汗蒸会所","lon":"121.411201","lat":"31.20803","category":"148","category_name":"美容美发店","address":null},{"poiid":"B2094757D06FA3F94892","title":"上海市职业培训指导中心","lon":"121.41142","lat":"31.21003","category":"253","category_name":"校园生活","address":"长宁区天山路1800号(近中山西路)"},{"poiid":"B2094752D76EA4F44698","title":"本家韩国料理","lon":"121.413605","lat":"31.209045","category":"247","category_name":"餐饮美食","address":"天山路1900号(近延安西路)"},{"poiid":"B2094750D565A6FA459A","title":"New star","lon":"121.414184","lat":"31.209081","category":"248","category_name":"生活娱乐","address":"天山路延安西路"},{"poiid":"B2094655D36DA7F8489E","title":"中山西路天山路","lon":"121.41274","lat":"31.21002","category":"38","category_name":"公交车站","address":""},{"poiid":"B2094757D06FA4FD489A","title":"天山公园","lon":"121.415716881","lat":"31.2089318765","category":"196","category_name":"公园","address":"长宁区延安西路1731号(近凯旋路)"},{"poiid":"B2094757DB6FAAFA4092","title":"Petit George Cafe","lon":"121.4110325","lat":"31.2095602","category":"500","category_name":"未知分类","address":"延安西路1794号(近天山路)"},{"poiid":"B2094757D068A6F44999","title":"佳佳母婴天地中山西路分部","lon":"121.41130058","lat":"31.208866013","category":"128","category_name":"儿童用品店","address":"上海市长宁区中山西路753号"},{"poiid":"B2094751D465A2F84193","title":"同一首歌KTV俱乐部（天山路店）","lon":"121.414139","lat":"31.208694","category":"248","category_name":"生活娱乐","address":"上海市长宁区天山路1900号"},{"poiid":"B2094757D06FA5FD429A","title":"长宁区国家税务局","lon":"121.41092798","lat":"31.209929853","category":"500","category_name":"未知分类","address":"上海天山路1827号"},{"poiid":"B2094757D068A5FF409C","title":"上海内环线高架路","lon":"121.412181378","lat":"31.2059787732","category":"260","category_name":"其他","address":"上海市内环线高架路"},{"poiid":"B2094757D06FA7FB489B","title":"天山茶城","lon":"121.41228","lat":"31.2127","category":"136","category_name":"烟酒专卖店","address":"长宁区中山西路518号(玉屏南路口)"},{"poiid":"B2094750D565A6FB499D","title":"纽斯汗蒸","lon":"121.414192","lat":"31.209089","category":"249","category_name":"购物服务","address":"天山路77号"},{"poiid":"B2094757D06FAAF9439E","title":"一茶一座(中山公园店)","lon":"121.411003113","lat":"31.2094993591","category":"47","category_name":"住宅区","address":"上海长宁区中山公园龙之梦b2"},{"poiid":"B2094757D068AAFA4492","title":"上海市人力资源和社会保障局","lon":"121.411439373","lat":"31.2106589438","category":"46","category_name":"楼宇","address":"上海天山路1800号"},{"poiid":"B2094757D06FA0F9439B","title":"小城堡","lon":"121.414903","lat":"31.207477","category":"94","category_name":"西餐厅","address":"长宁区延安西路1794号(近天山路)"},{"poiid":"B2094757D06FA6F54598","title":"仲盛金融中心","lon":"121.415","lat":"31.2102","category":"500","category_name":"未知分类","address":"延安西路2067号"},{"poiid":"B2094655D26AAAF44692","title":"爆香串云南烧 天山店","lon":"121.411529","lat":"31.209659","category":"68","category_name":"快餐厅","address":"长宁区中山西路642号(近天山路)"},{"poiid":"B2094654D56BA5FA439F","title":"协泰中心","lon":"121.413","lat":"31.2105","category":"46","category_name":"楼宇","address":"上海市奉贤区环城东路455,465弄"},{"poiid":"B2094757D069A5FD429F","title":"延安路高架西行长宁虹桥区","lon":"121.41423114","lat":"31.207561972","category":"500","category_name":"未知分类","address":"上海延安路高架"},{"poiid":"B2094750DA69A3F44099","title":"纽斯spa会所","lon":"121.414466","lat":"31.209598","category":"148","category_name":"美容美发店","address":null},{"poiid":"B2094750DA6FA2F94899","title":"纽斯（天山店）","lon":"121.414314","lat":"31.209098","category":"247","category_name":"餐饮美食","address":null},{"poiid":"B2094757D06FA5F9429E","title":"中山西路立交","lon":"121.41245269","lat":"31.208242416","category":"500","category_name":"未知分类","address":"上海立交桥"},{"poiid":"B2094757D16EA4FD499F","title":"大风车私家菜馆(绿洲大厦店)","lon":"121.415989986","lat":"31.2079916961","category":"76","category_name":"上海菜","address":"上海长宁区中山西路555号绿洲大厦2楼，62861737，人均:60元"},{"poiid":"B2094750DA6AA2F9489B","title":"newstar","lon":"121.414466","lat":"31.209535","category":"248","category_name":"生活娱乐","address":"天山路1900号"},{"poiid":"B2094752D769A2FE4092","title":"本家","lon":"121.412352","lat":"31.207938","category":"247","category_name":"餐饮美食","address":"天山路1900号(近延安西路)"},{"poiid":"B2094751D56CAAF5409E","title":"其鲜生煎(玉屏南路店)","lon":"121.41221","lat":"31.20983","category":"68","category_name":"快餐厅","address":"长宁区玉屏南路(近武夷路)"},{"poiid":"B2094757D568ABF8479A","title":"Lucky Star","lon":"121.41300266","lat":"31.2102946","category":"65","category_name":"咖啡厅","address":"长宁区中山西路743号永田大厦(天山路中山西路)"},{"poiid":"B2094757D06AA7F5429D","title":"锦明大厦","lon":"121.413","lat":"31.2096","category":"252","category_name":"楼宇机构","address":"上海遵义南路8号"},{"poiid":"B2094757D465A3FC4192","title":"苏州羊肉面馆 天山店","lon":"121.411701054","lat":"31.209451793","category":"247","category_name":"餐饮美食","address":"长宁区天山路1821号(近中山西路)"},{"poiid":"B2094751D56FA5FD4798","title":"New star纽斯","lon":"121.413927","lat":"31.20865","category":"500","category_name":"未知分类","address":null},{"poiid":"B2094750DB6BABFF449A","title":"纽斯桑拿会所","lon":"121.414321","lat":"31.209598","category":"248","category_name":"生活娱乐","address":"延安西路天山路"},{"poiid":"B2094654DB6AA3FF4093","title":"上海市地方税务局长宁分局第6税务所","lon":"121.41109","lat":"31.20941","category":"250","category_name":"公园户外","address":"天山路1827号"},{"poiid":"B2094757D068ABFB469F","title":"东华大学(延安路校区)二教","lon":"121.413879","lat":"31.206532","category":"253","category_name":"校园生活","address":"上海市长宁区延安西路1882号 东华大学 第二教学楼"},{"poiid":"B2094757D16DAAF84393","title":"云南烧烤","lon":"121.41192458","lat":"31.210292041","category":"247","category_name":"餐饮美食","address":"上海市长宁区遵义路"},{"poiid":"B2094757D168A4FA4293","title":"延安西路天山路篮球场","lon":"121.41299858","lat":"31.208398004","category":"220","category_name":"运动场所","address":"上海市长宁区天山路"},{"poiid":"B2094757D468A5FC489E","title":"青叶","lon":"121.412019054","lat":"31.208448793","category":"247","category_name":"餐饮美食","address":"中山西路648号近天山路"},{"poiid":"B2094655D265A1FB4198","title":"虚实空间网络俱乐部","lon":"121.4132","lat":"31.20874","category":"176","category_name":"网吧","address":"天山路1877号"},{"poiid":"B2094654DB65A3FB4293","title":"丽港城商务楼","lon":"121.41224","lat":"31.20824","category":"46","category_name":"楼宇","address":"中山西路765"},{"poiid":"B2094655D26DA2FC4998","title":"税务大楼","lon":"121.4111","lat":"31.20942","category":"46","category_name":"楼宇","address":"天山路1827"},{"poiid":"B2094655D26DA2FD489B","title":"长连大楼(西门)","lon":"121.41198","lat":"31.20883","category":"47","category_name":"住宅区","address":"中山西路666"},{"poiid":"B2094655D26DA7FE4993","title":"皇家商务楼","lon":"121.41057","lat":"31.2095","category":"46","category_name":"楼宇","address":"天山路1825"},{"poiid":"B2094750DA6CA7FD4899","title":"纽斯","lon":"121.412734","lat":"31.208198","category":"249","category_name":"购物服务","address":null},{"poiid":"B2094654DB6BA7FC439B","title":"快客(内环高架路出口)","lon":"121.4124","lat":"31.21047","category":"117","category_name":"便民商店/便利店","address":""}]