[{"poiid":"B2094654DB65A4FE4692","title":"上海新国际博览中心","lon":"121.56658","lat":"31.20897","category":"183","category_name":"展览馆","address":"浦东新区龙阳路2345号(近芳甸路)"},{"poiid":"B2094757D068A4F54298","title":"上海新国际展览中心","lon":"121.56696397","lat":"31.207406526","category":"183","category_name":"展览馆","address":"上海金桥路"},{"poiid":"B2094757D069A2F84298","title":"上海轨道交通龙阳路基地","lon":"121.56873208","lat":"31.2043952824","category":"260","category_name":"其他","address":"上海市浦东新区龙阳路2520号"},{"poiid":"B2094654DA6AA6FC4093","title":"中国美术学院上海设计学院","lon":"121.58013","lat":"31.20628","category":"671","category_name":"高校中心点","address":"张江高科园区"},{"poiid":"B2094757D06FA5FE439C","title":"永达国际大厦","lon":"121.57","lat":"31.2114","category":"46","category_name":"楼宇","address":"上海市浦东新区龙阳路2277号"},{"poiid":"B2094757D068A2FD499F","title":"汤臣高尔夫别墅","lon":"121.583691175","lat":"31.2121601084","category":"47","category_name":"住宅区","address":"上海市浦东新区龙东大道1号"},{"poiid":"B2094757D06FA7FD4999","title":"交行卡中心","lon":"121.58052","lat":"31.20865","category":"68","category_name":"快餐厅","address":"浦东新区松涛路80号(近张江地铁站)"},{"poiid":"B2094757D06FA5F9439D","title":"张江大厦","lon":"121.58323621","lat":"31.205565996","category":"46","category_name":"楼宇","address":"上海松涛路560号"},{"poiid":"B2094757D06FA4F4459D","title":"汤臣高尔夫球场","lon":"121.58303475","lat":"31.211591496","category":"260","category_name":"其他","address":"中国上海浦东新区龙东大道1号"},{"poiid":"B2094654DA6AA0FD4492","title":"上海电影艺术学院北校区","lon":"121.57931","lat":"31.20878","category":"52","category_name":"高等院校","address":"浦东新区松涛路11临"},{"poiid":"B2094655D268ABF94193","title":"张江立交桥","lon":"121.57411","lat":"31.20889","category":"250","category_name":"公园户外","address":""},{"poiid":"B2094757D16EA4F94299","title":"汤臣高尔夫别墅大会所餐厅","lon":"121.57764","lat":"31.20953","category":"95","category_name":"日本料理","address":"上海浦东新区龙东大道1号汤臣高尔夫球场2楼  "},{"poiid":"B2094757D069AAF4459B","title":"喜月小厨","lon":"121.581248567","lat":"31.2063803798","category":"76","category_name":"上海菜","address":"浦东新区碧波路635号圆环传奇美食广场内(近张江地铁站)"},{"poiid":"B2094654DA6AA1F9429A","title":"汤臣高尔夫公寓汤臣豪园","lon":"121.57637","lat":"31.21114","category":"47","category_name":"住宅区","address":"龙东大道1号"},{"poiid":"B2094655D26BA4F4429D","title":"小湘亭","lon":"121.57847","lat":"31.20968","category":"77","category_name":"湖南菜","address":"浦东新区景明路潘桥7号"},{"poiid":"B2094757D06AA4F84699","title":"高科中路罗山路","lon":"121.577929817","lat":"31.2063349018","category":"500","category_name":"未知分类","address":"上海高科路罗山路"},{"poiid":"B2094751D565ABFC4698","title":"妈妈糖3.0","lon":"121.582783","lat":"31.202203","category":"500","category_name":"未知分类","address":"浦东新区碧波路573弄2号(近祖冲之路)"},{"poiid":"B2094757D06AA4FA439B","title":"美再晨运动会馆(松涛路店)","lon":"121.58418","lat":"31.21005","category":"148","category_name":"美容美发店","address":"浦东新区松涛路251号(近碧波路)"},{"poiid":"B2094655D26BA3F4449A","title":"汤臣集团健身中心","lon":"121.57638","lat":"31.21114","category":"221","category_name":"健身中心","address":"浦东新区龙东大道1号"},{"poiid":"B2094751D569A1FF409F","title":"龍美术馆","lon":"121.573639","lat":"31.215622","category":"248","category_name":"生活娱乐","address":"罗山路2255号"},{"poiid":"B2094757D068ABFA4598","title":"张江体育休闲中心","lon":"121.57973","lat":"31.20426","category":"76","category_name":"上海菜","address":"浦东新区张江高科技园区春晓路81号(近景明路)"},{"poiid":"B2094757D568A0FB439A","title":"汤臣湖庭花园","lon":"121.574922","lat":"31.215573","category":"47","category_name":"住宅区","address":"浦东新区罗山路2255弄(花木路口)"},{"poiid":"B2094654DA6AA6FC419E","title":"上海市张江高科技园区(碧波路)","lon":"121.58106","lat":"31.20162","category":"45","category_name":"产业园区","address":"碧波路572弄115号-24幢"},{"poiid":"B2094654DA6AA1F5489C","title":"汤臣豪园","lon":"121.58493","lat":"31.21121","category":"47","category_name":"住宅区","address":"上海市浦东新区张家浜路37号"},{"poiid":"B2094757D66CA5FB429E","title":"中兴通讯食堂(一期)","lon":"121.57814197","lat":"31.207016517","category":"500","category_name":"未知分类","address":"上海市浦东新区碧波路889号"},{"poiid":"B2094654DA6AA7F54999","title":"品粤阁","lon":"121.58396","lat":"31.21021","category":"72","category_name":"广东菜","address":"上海张江高科技园区松涛路251号(汤臣豪园会所)"},{"poiid":"B2094757D064A3FB4792","title":"华虹科技园","lon":"121.584495544","lat":"31.2073020935","category":"46","category_name":"楼宇","address":"上海浦东碧波路177号"},{"poiid":"B2094751D56EA5FF439F","title":"上海股权托管交易中心","lon":"121.580563","lat":"31.207782","category":"500","category_name":"未知分类","address":null},{"poiid":"B2094654DA6AA0FD4499","title":"浦东火炬创业园","lon":"121.58089","lat":"31.20664","category":"45","category_name":"产业园区","address":"碧波路"},{"poiid":"B2094757D069A0FD439E","title":"交通银行(张江支行)","lon":"121.58363","lat":"31.20911","category":"46","category_name":"楼宇","address":"浦东新区松涛路560号张江大厦裙房底楼"},{"poiid":"B209475CD468A2F44792","title":"糖纸","lon":"121.568077","lat":"31.209997","category":"500","category_name":"未知分类","address":"上海市 浦东嘉里城"},{"poiid":"B2094654DA6AA5FB4198","title":"高尔夫练习场","lon":"121.57933","lat":"31.21336","category":"206","category_name":"高尔夫相关","address":""},{"poiid":"B2094654DA6AA0FD4498","title":"罗森(碧波路)","lon":"121.58188","lat":"31.20693","category":"117","category_name":"便民商店/便利店","address":"碧波路328"},{"poiid":"B2094655D36CA7FD4499","title":"花木路","lon":"121.57282","lat":"31.217","category":"38","category_name":"公交车站","address":""},{"poiid":"B2094654DB69A7FE479D","title":"陆家嘴世纪酒店","lon":"121.56978","lat":"31.20714","category":"215","category_name":"三星级宾馆","address":"浦东新区龙阳路2551号"},{"poiid":"B2094757D069ABF8459A","title":"华虹科技园食堂","lon":"121.58476","lat":"31.20703","category":"68","category_name":"快餐厅","address":"浦东新区碧波路177号(碧波路松涛路)"},{"poiid":"B2094757D06BA7FB4993","title":"上海新国际博览中心W1展馆","lon":"121.569630975","lat":"31.2042854539","category":"500","category_name":"未知分类","address":"上海市浦东新区龙阳路2345号"},{"poiid":"B2094757D069A5F44393","title":"交通银行太平洋信用卡中心","lon":"121.577638325","lat":"31.1993366082","category":"500","category_name":"未知分类","address":"上海市浦东新区松涛路80号"},{"poiid":"B2094751D264A7F94799","title":"妈妈糖3.0（张江地铁站）","lon":"121.582475","lat":"31.205543","category":"247","category_name":"餐饮美食","address":"碧波路573弄2号"},{"poiid":"B2094654DA6AA0FA4999","title":"汤臣高尔夫别墅海顿园区","lon":"121.57684","lat":"31.21737","category":"47","category_name":"住宅区","address":""},{"poiid":"B2094655D26BA5F8409E","title":"长沙米粉湘菜馆","lon":"121.57915","lat":"31.20258","category":"77","category_name":"湖南菜","address":"浦东新区张江高科技园区景明路(近春晓路)"},{"poiid":"B209475CD26DA5FB419F","title":"澈思叔叔烘焙工房","lon":"121.567863","lat":"31.210296","category":"247","category_name":"餐饮美食","address":"上海市 浦东嘉里城B1层"},{"poiid":"B2094757D164AAFD469A","title":"上海处男集散中心","lon":"121.57037727","lat":"31.200664069","category":"500","category_name":"未知分类","address":"上海lallaa"},{"poiid":"B2094757D164A0F54499","title":"兄弟饭庄","lon":"121.57953","lat":"31.20375","category":"247","category_name":"餐饮美食","address":"上海浦东新区春晓路(景明路口)  "},{"poiid":"B2094757D569A2FB449F","title":"中科大研发中心大楼","lon":"121.582125","lat":"31.20420908","category":"46","category_name":"楼宇","address":"碧波路456号"},{"poiid":"B2094757D16AA5FA449B","title":"春晓路","lon":"121.580336975","lat":"31.2044724583","category":"500","category_name":"未知分类","address":"上海市春晓路"},{"poiid":"B2094757D06AA7F5429E","title":"东软集团(上海)有限公司","lon":"121.58241","lat":"31.207736","category":"263","category_name":"公司","address":"上海市浦东新区张江碧波路250号3号楼"},{"poiid":"B2094654DA6AA0FD429A","title":"张江大厦(春晓路)","lon":"121.58369","lat":"31.20551","category":"46","category_name":"楼宇","address":"春晓路289"},{"poiid":"B2094654DA6AA0FD4293","title":"上海高校科技产业园","lon":"121.58201","lat":"31.20491","category":"45","category_name":"产业园区","address":"春晓路149"},{"poiid":"B2094654DA6AA6FC4193","title":"上海网达信息技术有限公司","lon":"121.58203","lat":"31.20787","category":"263","category_name":"公司","address":""},{"poiid":"B2094654DB65A4FE4692","title":"上海新国际博览中心","lon":"121.56658","lat":"31.20897","category":"183","category_name":"展览馆","address":"浦东新区龙阳路2345号(近芳甸路)"},{"poiid":"B2094757D068A4F54298","title":"上海新国际展览中心","lon":"121.56696397","lat":"31.207406526","category":"183","category_name":"展览馆","address":"上海金桥路"},{"poiid":"B2094757D069A2F84298","title":"上海轨道交通龙阳路基地","lon":"121.56873208","lat":"31.2043952824","category":"260","category_name":"其他","address":"上海市浦东新区龙阳路2520号"},{"poiid":"B2094654DA6AA6FC4093","title":"中国美术学院上海设计学院","lon":"121.58013","lat":"31.20628","category":"671","category_name":"高校中心点","address":"张江高科园区"},{"poiid":"B2094757D06FA5FE439C","title":"永达国际大厦","lon":"121.57","lat":"31.2114","category":"46","category_name":"楼宇","address":"上海市浦东新区龙阳路2277号"},{"poiid":"B2094757D068A2FD499F","title":"汤臣高尔夫别墅","lon":"121.583691175","lat":"31.2121601084","category":"47","category_name":"住宅区","address":"上海市浦东新区龙东大道1号"},{"poiid":"B2094757D06FA7FD4999","title":"交行卡中心","lon":"121.58052","lat":"31.20865","category":"68","category_name":"快餐厅","address":"浦东新区松涛路80号(近张江地铁站)"},{"poiid":"B2094757D06FA5F9439D","title":"张江大厦","lon":"121.58323621","lat":"31.205565996","category":"46","category_name":"楼宇","address":"上海松涛路560号"},{"poiid":"B2094757D06FA4F4459D","title":"汤臣高尔夫球场","lon":"121.58303475","lat":"31.211591496","category":"260","category_name":"其他","address":"中国上海浦东新区龙东大道1号"},{"poiid":"B2094654DA6AA0FD4492","title":"上海电影艺术学院北校区","lon":"121.57931","lat":"31.20878","category":"52","category_name":"高等院校","address":"浦东新区松涛路11临"},{"poiid":"B2094655D268ABF94193","title":"张江立交桥","lon":"121.57411","lat":"31.20889","category":"250","category_name":"公园户外","address":""},{"poiid":"B2094757D16EA4F94299","title":"汤臣高尔夫别墅大会所餐厅","lon":"121.57764","lat":"31.20953","category":"95","category_name":"日本料理","address":"上海浦东新区龙东大道1号汤臣高尔夫球场2楼  "},{"poiid":"B2094757D069AAF4459B","title":"喜月小厨","lon":"121.581248567","lat":"31.2063803798","category":"76","category_name":"上海菜","address":"浦东新区碧波路635号圆环传奇美食广场内(近张江地铁站)"},{"poiid":"B2094654DA6AA1F9429A","title":"汤臣高尔夫公寓汤臣豪园","lon":"121.57637","lat":"31.21114","category":"47","category_name":"住宅区","address":"龙东大道1号"},{"poiid":"B2094655D26BA4F4429D","title":"小湘亭","lon":"121.57847","lat":"31.20968","category":"77","category_name":"湖南菜","address":"浦东新区景明路潘桥7号"},{"poiid":"B2094757D06AA4F84699","title":"高科中路罗山路","lon":"121.577929817","lat":"31.2063349018","category":"500","category_name":"未知分类","address":"上海高科路罗山路"},{"poiid":"B2094751D565ABFC4698","title":"妈妈糖3.0","lon":"121.582783","lat":"31.202203","category":"500","category_name":"未知分类","address":"浦东新区碧波路573弄2号(近祖冲之路)"},{"poiid":"B2094757D06AA4FA439B","title":"美再晨运动会馆(松涛路店)","lon":"121.58418","lat":"31.21005","category":"148","category_name":"美容美发店","address":"浦东新区松涛路251号(近碧波路)"},{"poiid":"B2094655D26BA3F4449A","title":"汤臣集团健身中心","lon":"121.57638","lat":"31.21114","category":"221","category_name":"健身中心","address":"浦东新区龙东大道1号"},{"poiid":"B2094751D569A1FF409F","title":"龍美术馆","lon":"121.573639","lat":"31.215622","category":"248","category_name":"生活娱乐","address":"罗山路2255号"},{"poiid":"B2094757D068ABFA4598","title":"张江体育休闲中心","lon":"121.57973","lat":"31.20426","category":"76","category_name":"上海菜","address":"浦东新区张江高科技园区春晓路81号(近景明路)"},{"poiid":"B2094757D568A0FB439A","title":"汤臣湖庭花园","lon":"121.574922","lat":"31.215573","category":"47","category_name":"住宅区","address":"浦东新区罗山路2255弄(花木路口)"},{"poiid":"B2094654DA6AA6FC419E","title":"上海市张江高科技园区(碧波路)","lon":"121.58106","lat":"31.20162","category":"45","category_name":"产业园区","address":"碧波路572弄115号-24幢"},{"poiid":"B2094654DA6AA1F5489C","title":"汤臣豪园","lon":"121.58493","lat":"31.21121","category":"47","category_name":"住宅区","address":"上海市浦东新区张家浜路37号"},{"poiid":"B2094757D66CA5FB429E","title":"中兴通讯食堂(一期)","lon":"121.57814197","lat":"31.207016517","category":"500","category_name":"未知分类","address":"上海市浦东新区碧波路889号"},{"poiid":"B2094654DA6AA7F54999","title":"品粤阁","lon":"121.58396","lat":"31.21021","category":"72","category_name":"广东菜","address":"上海张江高科技园区松涛路251号(汤臣豪园会所)"},{"poiid":"B2094757D064A3FB4792","title":"华虹科技园","lon":"121.584495544","lat":"31.2073020935","category":"46","category_name":"楼宇","address":"上海浦东碧波路177号"},{"poiid":"B2094751D56EA5FF439F","title":"上海股权托管交易中心","lon":"121.580563","lat":"31.207782","category":"500","category_name":"未知分类","address":null},{"poiid":"B2094654DA6AA0FD4499","title":"浦东火炬创业园","lon":"121.58089","lat":"31.20664","category":"45","category_name":"产业园区","address":"碧波路"},{"poiid":"B2094757D069A0FD439E","title":"交通银行(张江支行)","lon":"121.58363","lat":"31.20911","category":"46","category_name":"楼宇","address":"浦东新区松涛路560号张江大厦裙房底楼"},{"poiid":"B209475CD468A2F44792","title":"糖纸","lon":"121.568077","lat":"31.209997","category":"500","category_name":"未知分类","address":"上海市 浦东嘉里城"},{"poiid":"B2094654DA6AA5FB4198","title":"高尔夫练习场","lon":"121.57933","lat":"31.21336","category":"206","category_name":"高尔夫相关","address":""},{"poiid":"B2094654DA6AA0FD4498","title":"罗森(碧波路)","lon":"121.58188","lat":"31.20693","category":"117","category_name":"便民商店/便利店","address":"碧波路328"},{"poiid":"B2094655D36CA7FD4499","title":"花木路","lon":"121.57282","lat":"31.217","category":"38","category_name":"公交车站","address":""},{"poiid":"B2094654DB69A7FE479D","title":"陆家嘴世纪酒店","lon":"121.56978","lat":"31.20714","category":"215","category_name":"三星级宾馆","address":"浦东新区龙阳路2551号"},{"poiid":"B2094757D069ABF8459A","title":"华虹科技园食堂","lon":"121.58476","lat":"31.20703","category":"68","category_name":"快餐厅","address":"浦东新区碧波路177号(碧波路松涛路)"},{"poiid":"B2094757D06BA7FB4993","title":"上海新国际博览中心W1展馆","lon":"121.569630975","lat":"31.2042854539","category":"500","category_name":"未知分类","address":"上海市浦东新区龙阳路2345号"},{"poiid":"B2094757D069A5F44393","title":"交通银行太平洋信用卡中心","lon":"121.577638325","lat":"31.1993366082","category":"500","category_name":"未知分类","address":"上海市浦东新区松涛路80号"},{"poiid":"B2094751D264A7F94799","title":"妈妈糖3.0（张江地铁站）","lon":"121.582475","lat":"31.205543","category":"247","category_name":"餐饮美食","address":"碧波路573弄2号"},{"poiid":"B2094654DA6AA0FA4999","title":"汤臣高尔夫别墅海顿园区","lon":"121.57684","lat":"31.21737","category":"47","category_name":"住宅区","address":""},{"poiid":"B2094655D26BA5F8409E","title":"长沙米粉湘菜馆","lon":"121.57915","lat":"31.20258","category":"77","category_name":"湖南菜","address":"浦东新区张江高科技园区景明路(近春晓路)"},{"poiid":"B209475CD26DA5FB419F","title":"澈思叔叔烘焙工房","lon":"121.567863","lat":"31.210296","category":"247","category_name":"餐饮美食","address":"上海市 浦东嘉里城B1层"},{"poiid":"B2094757D164AAFD469A","title":"上海处男集散中心","lon":"121.57037727","lat":"31.200664069","category":"500","category_name":"未知分类","address":"上海lallaa"},{"poiid":"B2094757D164A0F54499","title":"兄弟饭庄","lon":"121.57953","lat":"31.20375","category":"247","category_name":"餐饮美食","address":"上海浦东新区春晓路(景明路口)  "},{"poiid":"B2094757D569A2FB449F","title":"中科大研发中心大楼","lon":"121.582125","lat":"31.20420908","category":"46","category_name":"楼宇","address":"碧波路456号"},{"poiid":"B2094757D16AA5FA449B","title":"春晓路","lon":"121.580336975","lat":"31.2044724583","category":"500","category_name":"未知分类","address":"上海市春晓路"},{"poiid":"B2094757D06AA7F5429E","title":"东软集团(上海)有限公司","lon":"121.58241","lat":"31.207736","category":"263","category_name":"公司","address":"上海市浦东新区张江碧波路250号3号楼"},{"poiid":"B2094654DA6AA0FD429A","title":"张江大厦(春晓路)","lon":"121.58369","lat":"31.20551","category":"46","category_name":"楼宇","address":"春晓路289"},{"poiid":"B2094654DA6AA0FD4293","title":"上海高校科技产业园","lon":"121.58201","lat":"31.20491","category":"45","category_name":"产业园区","address":"春晓路149"},{"poiid":"B2094654DA6AA6FC4193","title":"上海网达信息技术有限公司","lon":"121.58203","lat":"31.20787","category":"263","category_name":"公司","address":""},{"poiid":"B2094654DB65A4FE4692","title":"上海新国际博览中心","lon":"121.56658","lat":"31.20897","category":"183","category_name":"展览馆","address":"浦东新区龙阳路2345号(近芳甸路)"},{"poiid":"B2094757D068A4F54298","title":"上海新国际展览中心","lon":"121.56696397","lat":"31.207406526","category":"183","category_name":"展览馆","address":"上海金桥路"},{"poiid":"B2094757D069A2F84298","title":"上海轨道交通龙阳路基地","lon":"121.56873208","lat":"31.2043952824","category":"260","category_name":"其他","address":"上海市浦东新区龙阳路2520号"},{"poiid":"B2094654DA6AA6FC4093","title":"中国美术学院上海设计学院","lon":"121.58013","lat":"31.20628","category":"671","category_name":"高校中心点","address":"张江高科园区"},{"poiid":"B2094757D06FA5FE439C","title":"永达国际大厦","lon":"121.57","lat":"31.2114","category":"46","category_name":"楼宇","address":"上海市浦东新区龙阳路2277号"},{"poiid":"B2094757D068A2FD499F","title":"汤臣高尔夫别墅","lon":"121.583691175","lat":"31.2121601084","category":"47","category_name":"住宅区","address":"上海市浦东新区龙东大道1号"},{"poiid":"B2094757D06FA7FD4999","title":"交行卡中心","lon":"121.58052","lat":"31.20865","category":"68","category_name":"快餐厅","address":"浦东新区松涛路80号(近张江地铁站)"},{"poiid":"B2094757D06FA5F9439D","title":"张江大厦","lon":"121.58323621","lat":"31.205565996","category":"46","category_name":"楼宇","address":"上海松涛路560号"},{"poiid":"B2094757D06FA4F4459D","title":"汤臣高尔夫球场","lon":"121.58303475","lat":"31.211591496","category":"260","category_name":"其他","address":"中国上海浦东新区龙东大道1号"},{"poiid":"B2094654DA6AA0FD4492","title":"上海电影艺术学院北校区","lon":"121.57931","lat":"31.20878","category":"52","category_name":"高等院校","address":"浦东新区松涛路11临"},{"poiid":"B2094655D268ABF94193","title":"张江立交桥","lon":"121.57411","lat":"31.20889","category":"250","category_name":"公园户外","address":""},{"poiid":"B2094757D16EA4F94299","title":"汤臣高尔夫别墅大会所餐厅","lon":"121.57764","lat":"31.20953","category":"95","category_name":"日本料理","address":"上海浦东新区龙东大道1号汤臣高尔夫球场2楼  "},{"poiid":"B2094757D069AAF4459B","title":"喜月小厨","lon":"121.581248567","lat":"31.2063803798","category":"76","category_name":"上海菜","address":"浦东新区碧波路635号圆环传奇美食广场内(近张江地铁站)"},{"poiid":"B2094654DA6AA1F9429A","title":"汤臣高尔夫公寓汤臣豪园","lon":"121.57637","lat":"31.21114","category":"47","category_name":"住宅区","address":"龙东大道1号"},{"poiid":"B2094655D26BA4F4429D","title":"小湘亭","lon":"121.57847","lat":"31.20968","category":"77","category_name":"湖南菜","address":"浦东新区景明路潘桥7号"},{"poiid":"B2094757D06AA4F84699","title":"高科中路罗山路","lon":"121.577929817","lat":"31.2063349018","category":"500","category_name":"未知分类","address":"上海高科路罗山路"},{"poiid":"B2094751D565ABFC4698","title":"妈妈糖3.0","lon":"121.582783","lat":"31.202203","category":"500","category_name":"未知分类","address":"浦东新区碧波路573弄2号(近祖冲之路)"},{"poiid":"B2094757D06AA4FA439B","title":"美再晨运动会馆(松涛路店)","lon":"121.58418","lat":"31.21005","category":"148","category_name":"美容美发店","address":"浦东新区松涛路251号(近碧波路)"},{"poiid":"B2094655D26BA3F4449A","title":"汤臣集团健身中心","lon":"121.57638","lat":"31.21114","category":"221","category_name":"健身中心","address":"浦东新区龙东大道1号"},{"poiid":"B2094751D569A1FF409F","title":"龍美术馆","lon":"121.573639","lat":"31.215622","category":"248","category_name":"生活娱乐","address":"罗山路2255号"},{"poiid":"B2094757D068ABFA4598","title":"张江体育休闲中心","lon":"121.57973","lat":"31.20426","category":"76","category_name":"上海菜","address":"浦东新区张江高科技园区春晓路81号(近景明路)"},{"poiid":"B2094757D568A0FB439A","title":"汤臣湖庭花园","lon":"121.574922","lat":"31.215573","category":"47","category_name":"住宅区","address":"浦东新区罗山路2255弄(花木路口)"},{"poiid":"B2094654DA6AA6FC419E","title":"上海市张江高科技园区(碧波路)","lon":"121.58106","lat":"31.20162","category":"45","category_name":"产业园区","address":"碧波路572弄115号-24幢"},{"poiid":"B2094654DA6AA1F5489C","title":"汤臣豪园","lon":"121.58493","lat":"31.21121","category":"47","category_name":"住宅区","address":"上海市浦东新区张家浜路37号"},{"poiid":"B2094757D66CA5FB429E","title":"中兴通讯食堂(一期)","lon":"121.57814197","lat":"31.207016517","category":"500","category_name":"未知分类","address":"上海市浦东新区碧波路889号"},{"poiid":"B2094654DA6AA7F54999","title":"品粤阁","lon":"121.58396","lat":"31.21021","category":"72","category_name":"广东菜","address":"上海张江高科技园区松涛路251号(汤臣豪园会所)"},{"poiid":"B2094757D064A3FB4792","title":"华虹科技园","lon":"121.584495544","lat":"31.2073020935","category":"46","category_name":"楼宇","address":"上海浦东碧波路177号"},{"poiid":"B2094751D56EA5FF439F","title":"上海股权托管交易中心","lon":"121.580563","lat":"31.207782","category":"500","category_name":"未知分类","address":null},{"poiid":"B2094654DA6AA0FD4499","title":"浦东火炬创业园","lon":"121.58089","lat":"31.20664","category":"45","category_name":"产业园区","address":"碧波路"},{"poiid":"B2094757D069A0FD439E","title":"交通银行(张江支行)","lon":"121.58363","lat":"31.20911","category":"46","category_name":"楼宇","address":"浦东新区松涛路560号张江大厦裙房底楼"},{"poiid":"B209475CD468A2F44792","title":"糖纸","lon":"121.568077","lat":"31.209997","category":"500","category_name":"未知分类","address":"上海市 浦东嘉里城"},{"poiid":"B2094654DA6AA5FB4198","title":"高尔夫练习场","lon":"121.57933","lat":"31.21336","category":"206","category_name":"高尔夫相关","address":""},{"poiid":"B2094654DA6AA0FD4498","title":"罗森(碧波路)","lon":"121.58188","lat":"31.20693","category":"117","category_name":"便民商店/便利店","address":"碧波路328"},{"poiid":"B2094655D36CA7FD4499","title":"花木路","lon":"121.57282","lat":"31.217","category":"38","category_name":"公交车站","address":""},{"poiid":"B2094654DB69A7FE479D","title":"陆家嘴世纪酒店","lon":"121.56978","lat":"31.20714","category":"215","category_name":"三星级宾馆","address":"浦东新区龙阳路2551号"},{"poiid":"B2094757D069ABF8459A","title":"华虹科技园食堂","lon":"121.58476","lat":"31.20703","category":"68","category_name":"快餐厅","address":"浦东新区碧波路177号(碧波路松涛路)"},{"poiid":"B2094757D06BA7FB4993","title":"上海新国际博览中心W1展馆","lon":"121.569630975","lat":"31.2042854539","category":"500","category_name":"未知分类","address":"上海市浦东新区龙阳路2345号"},{"poiid":"B2094757D069A5F44393","title":"交通银行太平洋信用卡中心","lon":"121.577638325","lat":"31.1993366082","category":"500","category_name":"未知分类","address":"上海市浦东新区松涛路80号"},{"poiid":"B2094751D264A7F94799","title":"妈妈糖3.0（张江地铁站）","lon":"121.582475","lat":"31.205543","category":"247","category_name":"餐饮美食","address":"碧波路573弄2号"},{"poiid":"B2094654DA6AA0FA4999","title":"汤臣高尔夫别墅海顿园区","lon":"121.57684","lat":"31.21737","category":"47","category_name":"住宅区","address":""},{"poiid":"B2094655D26BA5F8409E","title":"长沙米粉湘菜馆","lon":"121.57915","lat":"31.20258","category":"77","category_name":"湖南菜","address":"浦东新区张江高科技园区景明路(近春晓路)"},{"poiid":"B209475CD26DA5FB419F","title":"澈思叔叔烘焙工房","lon":"121.567863","lat":"31.210296","category":"247","category_name":"餐饮美食","address":"上海市 浦东嘉里城B1层"},{"poiid":"B2094757D164AAFD469A","title":"上海处男集散中心","lon":"121.57037727","lat":"31.200664069","category":"500","category_name":"未知分类","address":"上海lallaa"},{"poiid":"B2094757D164A0F54499","title":"兄弟饭庄","lon":"121.57953","lat":"31.20375","category":"247","category_name":"餐饮美食","address":"上海浦东新区春晓路(景明路口)  "},{"poiid":"B2094757D569A2FB449F","title":"中科大研发中心大楼","lon":"121.582125","lat":"31.20420908","category":"46","category_name":"楼宇","address":"碧波路456号"},{"poiid":"B2094757D16AA5FA449B","title":"春晓路","lon":"121.580336975","lat":"31.2044724583","category":"500","category_name":"未知分类","address":"上海市春晓路"},{"poiid":"B2094757D06AA7F5429E","title":"东软集团(上海)有限公司","lon":"121.58241","lat":"31.207736","category":"263","category_name":"公司","address":"上海市浦东新区张江碧波路250号3号楼"},{"poiid":"B2094654DA6AA0FD429A","title":"张江大厦(春晓路)","lon":"121.58369","lat":"31.20551","category":"46","category_name":"楼宇","address":"春晓路289"},{"poiid":"B2094654DA6AA0FD4293","title":"上海高校科技产业园","lon":"121.58201","lat":"31.20491","category":"45","category_name":"产业园区","address":"春晓路149"},{"poiid":"B2094654DA6AA6FC4193","title":"上海网达信息技术有限公司","lon":"121.58203","lat":"31.20787","category":"263","category_name":"公司","address":""}]