[{"poiid":"B2094757D66FA6FA459E","title":"城隍庙豫园老街","lon":"121.487217235","lat":"31.2276862092","category":"260","category_name":"其他","address":"上海市黄浦区福佑路"},{"poiid":"B2094654DB6AA6FF4699","title":"上海豫园万丽酒店","lon":"121.48799","lat":"31.22754","category":"213","category_name":"五星级宾馆","address":"上海黄浦区河南南路159号(近福佑路)"},{"poiid":"B2094757D66FA6FA4898","title":"豫园地铁站","lon":"121.48740085","lat":"31.22813753","category":"36","category_name":"地铁站","address":"上海轨道交通 十号线 轨交豫园站 10"},{"poiid":"B2094753D76FAAFA449C","title":"上海滩国泰旗舰店","lon":"121.466011","lat":"31.216125","category":"249","category_name":"购物服务","address":"淮海中路868号"},{"poiid":"B209475CD564A7F84292","title":"上海滩新天地店","lon":"121.47463","lat":"31.22164","category":"119","category_name":"商场","address":"\"太仓路181弄新天地北里15号\r\n\""},{"poiid":"B209475CD564A7F8439E","title":"上海滩中信泰富店","lon":"121.45602","lat":"31.22851","category":"119","category_name":"商场","address":"\"南京西路1168号中信泰富广场，店铺号221.\r\n\""},{"poiid":"B209475CD564A7F84392","title":"上海滩浦东香格里拉店","lon":"121.50058","lat":"31.23634","category":"119","category_name":"商场","address":"浦东富成路33号香格里拉酒店内大堂层"},{"poiid":"B2094757D16EA1FC489E","title":"淮海东路","lon":"121.48358873","lat":"31.227366239","category":"500","category_name":"未知分类","address":"上海淮海东路"},{"poiid":"B2094750DA6FA1FC469C","title":"上海虹桥火车站","lon":"121.486068","lat":"31.225217","category":"500","category_name":"未知分类","address":null},{"poiid":"B2094757D069A0F84693","title":"豫园站","lon":"121.48705573","lat":"31.228868271","category":"500","category_name":"未知分类","address":"上海地铁十号线"},{"poiid":"B2094757D16CA0FC4398","title":"海上旧梦西餐厅","lon":"121.486337638","lat":"31.2285204637","category":"94","category_name":"西餐厅","address":"黄浦区金陵东路229号新上海城市广场2楼(河南南路口)"},{"poiid":"B2094757D164A0FB4199","title":"南外滩","lon":"121.487013338","lat":"31.2261241126","category":"500","category_name":"未知分类","address":"上海中山东路"},{"poiid":"B2094654DA6EA6FA409B","title":"金陵东路营业厅","lon":"121.48404","lat":"31.2287","category":"151","category_name":"电讯营业厅","address":"黄浦区金陵东路391号"},{"poiid":"B2094655D26AA4FA479B","title":"万丽轩豫园万丽店","lon":"121.48799","lat":"31.22753","category":"72","category_name":"广东菜","address":"黄浦区河南南路159号豫园万丽大酒店4楼(河南南路吴家弄)"},{"poiid":"B2094757D068A3FE489A","title":"东淮海公寓","lon":"121.48508","lat":"31.227438","category":"47","category_name":"住宅区","address":"上海市黄浦区人民路777弄"},{"poiid":"B2094654DA6EA5F54992","title":"福佑门小商品市场","lon":"121.48796","lat":"31.22811","category":"120","category_name":"小商品市场","address":"黄浦区福佑路427号(近河南南路)"},{"poiid":"B2094654DB6AA6FF479D","title":"上海中星大酒店","lon":"121.48469","lat":"31.22758","category":"214","category_name":"四星级宾馆","address":"人民路839号"},{"poiid":"B2094757D06FAAF9439A","title":"GUCCI(时代广场店)","lon":"121.484517","lat":"31.225729","category":"141","category_name":"服装鞋帽皮具店","address":"卢湾区淮海中路99号大上海时代广场大上海时代广场"},{"poiid":"B2094757DB6EA7FA439F","title":"上海中星君亭酒店（原上海中星大酒店）","lon":"121.4833999","lat":"31.22669372","category":"75","category_name":"浙江菜","address":"黄浦区人民路839号(近浙江南路)"},{"poiid":"B2094757D169A5FF489C","title":"重庆小天鹅火锅","lon":"121.48479673","lat":"31.22649922","category":"500","category_name":"未知分类","address":"上海市黄浦区云南南路"},{"poiid":"B2094655D26AA0FC439B","title":"天意婚礼购物广场","lon":"121.48555","lat":"31.22773","category":"247","category_name":"餐饮美食","address":"上海黄浦区人民路757号(近福建南路)  "},{"poiid":"B2094757D068A2FD4192","title":"荣腾渔乡 金陵店","lon":"121.48633527655","lat":"31.229725756023","category":"71","category_name":"四川菜","address":"黄浦区金陵东路275号(近河南南路)"},{"poiid":"B2094750DA6DA7F4489D","title":"寿宁路23号长寿面馆","lon":"121.483512","lat":"31.227197","category":"247","category_name":"餐饮美食","address":null},{"poiid":"B2094752D16FA4FB4698","title":"上海浦东机场","lon":"121.486963","lat":"31.227528","category":"627","category_name":"一般地点标志","address":null},{"poiid":"B2094655D26BAAFD479E","title":"济南路8号","lon":"121.485","lat":"31.2277","category":"47","category_name":"住宅区","address":"上海市卢湾区济南路8号"},{"poiid":"B2094751DB65ABFC409F","title":"海上第一茶楼","lon":"121.48662","lat":"31.22766","category":"247","category_name":"餐饮美食","address":"黄浦区城隍庙湖心亭(近城隍庙九曲桥)"},{"poiid":"B2094753DB6CA5F9489B","title":"稻香","lon":"121.484268","lat":"31.227146","category":"247","category_name":"餐饮美食","address":"上海市 环贸广场iapm3楼301"},{"poiid":"B2094750D16AA2FC439E","title":"轨道交通10号线豫园路站","lon":"121.4874028969","lat":"31.228092111481","category":"36","category_name":"地铁站","address":"轨道交通10号线豫园路站"},{"poiid":"B2094654DB64A4FA4592","title":"薇琪婚纱礼服精品屋","lon":"121.48569","lat":"31.22787","category":"141","category_name":"服装鞋帽皮具店","address":"人民路757号天意婚庆广场1层"},{"poiid":"B209475DD665A4FB4999","title":"K11 购物艺术中心","lon":"121.484909","lat":"31.227991","category":"249","category_name":"购物服务","address":"上海市 上海"},{"poiid":"B2094757D66EA2F44492","title":"10号线","lon":"121.487296738","lat":"31.2293972823","category":"500","category_name":"未知分类","address":"上海车上"},{"poiid":"B2094757DB6FA0F84298","title":"曼哈顿(金陵)商务酒店","lon":"121.48712844971692","lat":"31.227845662219366","category":"215","category_name":"三星级宾馆","address":"黄浦区河南南路58号"},{"poiid":"B2094757D464AAF5479B","title":"吴越人家 豫园店","lon":"121.49135","lat":"31.22776","category":"68","category_name":"快餐厅","address":"黄浦区福佑路234号豫园2楼(近KFC)"},{"poiid":"B2094757DB68A1F94798","title":"星巴克","lon":"121.4852086151499","lat":"31.22648474454025","category":"500","category_name":"未知分类","address":"江苏路"},{"poiid":"B2094752D46DA7FA449C","title":"酒吞","lon":"121.48416","lat":"31.227901","category":"247","category_name":"餐饮美食","address":"虹井路280弄"},{"poiid":"B2094750D76FAAFF4198","title":"豫园万丽咖啡厅","lon":"121.488","lat":"31.2276","category":"268","category_name":"自助","address":"黄浦区河南南路159号豫园万丽大酒店4楼(近福佑路)"},{"poiid":"B2094757D16FA3FA4693","title":"旺比面馆","lon":"121.48369723","lat":"31.227581243","category":"68","category_name":"快餐厅","address":"黄浦区浙江南路(金陵东路口)"},{"poiid":"B2094655D36CA1F44499","title":"老北门(人民路河南南路)","lon":"121.48654","lat":"31.22862","category":"38","category_name":"公交车站","address":""},{"poiid":"B2094654DA6EA5FE459D","title":"海达婚庆礼仪(人民路)","lon":"121.48555","lat":"31.22772","category":"248","category_name":"生活娱乐","address":"人民路757号天意婚庆广场3层"},{"poiid":"B2094655D36CA6FF479A","title":"福建路金陵东路","lon":"121.48475","lat":"31.22866","category":"38","category_name":"公交车站","address":""},{"poiid":"B2094753D76CA3FB4393","title":"新天地","lon":"121.486091","lat":"31.229488","category":"500","category_name":"未知分类","address":"上海市 上海"},{"poiid":"B2094655D36CA0FF4098","title":"金陵东路福建南路","lon":"121.48475","lat":"31.22921","category":"38","category_name":"公交车站","address":""},{"poiid":"B2094655D268A1FD4098","title":"新康里(盛泽路)","lon":"121.48522","lat":"31.22853","category":"47","category_name":"住宅区","address":"盛泽路130弄"},{"poiid":"B2094757D169AAF9429E","title":"中国联通九江路营业厅","lon":"121.485340671","lat":"31.2270024913","category":"500","category_name":"未知分类","address":"上海四川中路324号"},{"poiid":"B2094454D169A1F94998","title":"美咖专业沙龙","lon":"121.485781","lat":"31.228211","category":"248","category_name":"生活娱乐","address":"上海市 上海黄浦区人民路757号"},{"poiid":"B2094757D66DAAF84998","title":"上海世贸汽车路虎展厅","lon":"121.486993738","lat":"31.2275672433","category":"500","category_name":"未知分类","address":"上海人民路600号"},{"poiid":"B2094655D268A1FD409B","title":"人民路746弄和平里(南门)","lon":"121.48456","lat":"31.22788","category":"47","category_name":"住宅区","address":""},{"poiid":"B2094654DA6EA5FE479E","title":"东淮海公寓(东门)","lon":"121.48602","lat":"31.22724","category":"656","category_name":"大门","address":"豫园"},{"poiid":"B2094757D069A4FB499A","title":"知音琴行(金陵东路店)","lon":"121.484688023","lat":"31.229039867","category":"260","category_name":"其他","address":"黄浦区金陵东路363号2楼(金陵东路永寿路)"},{"poiid":"B2094757D069A1FB479C","title":"三运物流(上海)有限公司","lon":"121.485391738","lat":"31.2283329263","category":"500","category_name":"未知分类","address":"上海市延安东路618号10F"},{"poiid":"B2094757D66FA6FA459E","title":"城隍庙豫园老街","lon":"121.487217235","lat":"31.2276862092","category":"260","category_name":"其他","address":"上海市黄浦区福佑路"},{"poiid":"B2094654DB6AA6FF4699","title":"上海豫园万丽酒店","lon":"121.48799","lat":"31.22754","category":"213","category_name":"五星级宾馆","address":"上海黄浦区河南南路159号(近福佑路)"},{"poiid":"B2094757D66FA6FA4898","title":"豫园地铁站","lon":"121.48740085","lat":"31.22813753","category":"36","category_name":"地铁站","address":"上海轨道交通 十号线 轨交豫园站 10"},{"poiid":"B2094753D76FAAFA449C","title":"上海滩国泰旗舰店","lon":"121.466011","lat":"31.216125","category":"249","category_name":"购物服务","address":"淮海中路868号"},{"poiid":"B209475CD564A7F84292","title":"上海滩新天地店","lon":"121.47463","lat":"31.22164","category":"119","category_name":"商场","address":"\"太仓路181弄新天地北里15号\r\n\""},{"poiid":"B209475CD564A7F8439E","title":"上海滩中信泰富店","lon":"121.45602","lat":"31.22851","category":"119","category_name":"商场","address":"\"南京西路1168号中信泰富广场，店铺号221.\r\n\""},{"poiid":"B209475CD564A7F84392","title":"上海滩浦东香格里拉店","lon":"121.50058","lat":"31.23634","category":"119","category_name":"商场","address":"浦东富成路33号香格里拉酒店内大堂层"},{"poiid":"B2094757D16EA1FC489E","title":"淮海东路","lon":"121.48358873","lat":"31.227366239","category":"500","category_name":"未知分类","address":"上海淮海东路"},{"poiid":"B2094750DA6FA1FC469C","title":"上海虹桥火车站","lon":"121.486068","lat":"31.225217","category":"500","category_name":"未知分类","address":null},{"poiid":"B2094757D069A0F84693","title":"豫园站","lon":"121.48705573","lat":"31.228868271","category":"500","category_name":"未知分类","address":"上海地铁十号线"},{"poiid":"B2094757D16CA0FC4398","title":"海上旧梦西餐厅","lon":"121.486337638","lat":"31.2285204637","category":"94","category_name":"西餐厅","address":"黄浦区金陵东路229号新上海城市广场2楼(河南南路口)"},{"poiid":"B2094757D164A0FB4199","title":"南外滩","lon":"121.487013338","lat":"31.2261241126","category":"500","category_name":"未知分类","address":"上海中山东路"},{"poiid":"B2094654DA6EA6FA409B","title":"金陵东路营业厅","lon":"121.48404","lat":"31.2287","category":"151","category_name":"电讯营业厅","address":"黄浦区金陵东路391号"},{"poiid":"B2094655D26AA4FA479B","title":"万丽轩豫园万丽店","lon":"121.48799","lat":"31.22753","category":"72","category_name":"广东菜","address":"黄浦区河南南路159号豫园万丽大酒店4楼(河南南路吴家弄)"},{"poiid":"B2094757D068A3FE489A","title":"东淮海公寓","lon":"121.48508","lat":"31.227438","category":"47","category_name":"住宅区","address":"上海市黄浦区人民路777弄"},{"poiid":"B2094654DA6EA5F54992","title":"福佑门小商品市场","lon":"121.48796","lat":"31.22811","category":"120","category_name":"小商品市场","address":"黄浦区福佑路427号(近河南南路)"},{"poiid":"B2094654DB6AA6FF479D","title":"上海中星大酒店","lon":"121.48469","lat":"31.22758","category":"214","category_name":"四星级宾馆","address":"人民路839号"},{"poiid":"B2094757D06FAAF9439A","title":"GUCCI(时代广场店)","lon":"121.484517","lat":"31.225729","category":"141","category_name":"服装鞋帽皮具店","address":"卢湾区淮海中路99号大上海时代广场大上海时代广场"},{"poiid":"B2094757DB6EA7FA439F","title":"上海中星君亭酒店（原上海中星大酒店）","lon":"121.4833999","lat":"31.22669372","category":"75","category_name":"浙江菜","address":"黄浦区人民路839号(近浙江南路)"},{"poiid":"B2094757D169A5FF489C","title":"重庆小天鹅火锅","lon":"121.48479673","lat":"31.22649922","category":"500","category_name":"未知分类","address":"上海市黄浦区云南南路"},{"poiid":"B2094655D26AA0FC439B","title":"天意婚礼购物广场","lon":"121.48555","lat":"31.22773","category":"247","category_name":"餐饮美食","address":"上海黄浦区人民路757号(近福建南路)  "},{"poiid":"B2094757D068A2FD4192","title":"荣腾渔乡 金陵店","lon":"121.48633527655","lat":"31.229725756023","category":"71","category_name":"四川菜","address":"黄浦区金陵东路275号(近河南南路)"},{"poiid":"B2094750DA6DA7F4489D","title":"寿宁路23号长寿面馆","lon":"121.483512","lat":"31.227197","category":"247","category_name":"餐饮美食","address":null},{"poiid":"B2094752D16FA4FB4698","title":"上海浦东机场","lon":"121.486963","lat":"31.227528","category":"627","category_name":"一般地点标志","address":null},{"poiid":"B2094655D26BAAFD479E","title":"济南路8号","lon":"121.485","lat":"31.2277","category":"47","category_name":"住宅区","address":"上海市卢湾区济南路8号"},{"poiid":"B2094751DB65ABFC409F","title":"海上第一茶楼","lon":"121.48662","lat":"31.22766","category":"247","category_name":"餐饮美食","address":"黄浦区城隍庙湖心亭(近城隍庙九曲桥)"},{"poiid":"B2094753DB6CA5F9489B","title":"稻香","lon":"121.484268","lat":"31.227146","category":"247","category_name":"餐饮美食","address":"上海市 环贸广场iapm3楼301"},{"poiid":"B2094750D16AA2FC439E","title":"轨道交通10号线豫园路站","lon":"121.4874028969","lat":"31.228092111481","category":"36","category_name":"地铁站","address":"轨道交通10号线豫园路站"},{"poiid":"B2094654DB64A4FA4592","title":"薇琪婚纱礼服精品屋","lon":"121.48569","lat":"31.22787","category":"141","category_name":"服装鞋帽皮具店","address":"人民路757号天意婚庆广场1层"},{"poiid":"B209475DD665A4FB4999","title":"K11 购物艺术中心","lon":"121.484909","lat":"31.227991","category":"249","category_name":"购物服务","address":"上海市 上海"},{"poiid":"B2094757D66EA2F44492","title":"10号线","lon":"121.487296738","lat":"31.2293972823","category":"500","category_name":"未知分类","address":"上海车上"},{"poiid":"B2094757DB6FA0F84298","title":"曼哈顿(金陵)商务酒店","lon":"121.48712844971692","lat":"31.227845662219366","category":"215","category_name":"三星级宾馆","address":"黄浦区河南南路58号"},{"poiid":"B2094757D464AAF5479B","title":"吴越人家 豫园店","lon":"121.49135","lat":"31.22776","category":"68","category_name":"快餐厅","address":"黄浦区福佑路234号豫园2楼(近KFC)"},{"poiid":"B2094757DB68A1F94798","title":"星巴克","lon":"121.4852086151499","lat":"31.22648474454025","category":"500","category_name":"未知分类","address":"江苏路"},{"poiid":"B2094752D46DA7FA449C","title":"酒吞","lon":"121.48416","lat":"31.227901","category":"247","category_name":"餐饮美食","address":"虹井路280弄"},{"poiid":"B2094750D76FAAFF4198","title":"豫园万丽咖啡厅","lon":"121.488","lat":"31.2276","category":"268","category_name":"自助","address":"黄浦区河南南路159号豫园万丽大酒店4楼(近福佑路)"},{"poiid":"B2094757D16FA3FA4693","title":"旺比面馆","lon":"121.48369723","lat":"31.227581243","category":"68","category_name":"快餐厅","address":"黄浦区浙江南路(金陵东路口)"},{"poiid":"B2094655D36CA1F44499","title":"老北门(人民路河南南路)","lon":"121.48654","lat":"31.22862","category":"38","category_name":"公交车站","address":""},{"poiid":"B2094654DA6EA5FE459D","title":"海达婚庆礼仪(人民路)","lon":"121.48555","lat":"31.22772","category":"248","category_name":"生活娱乐","address":"人民路757号天意婚庆广场3层"},{"poiid":"B2094655D36CA6FF479A","title":"福建路金陵东路","lon":"121.48475","lat":"31.22866","category":"38","category_name":"公交车站","address":""},{"poiid":"B2094753D76CA3FB4393","title":"新天地","lon":"121.486091","lat":"31.229488","category":"500","category_name":"未知分类","address":"上海市 上海"},{"poiid":"B2094655D36CA0FF4098","title":"金陵东路福建南路","lon":"121.48475","lat":"31.22921","category":"38","category_name":"公交车站","address":""},{"poiid":"B2094655D268A1FD4098","title":"新康里(盛泽路)","lon":"121.48522","lat":"31.22853","category":"47","category_name":"住宅区","address":"盛泽路130弄"},{"poiid":"B2094757D169AAF9429E","title":"中国联通九江路营业厅","lon":"121.485340671","lat":"31.2270024913","category":"500","category_name":"未知分类","address":"上海四川中路324号"},{"poiid":"B2094454D169A1F94998","title":"美咖专业沙龙","lon":"121.485781","lat":"31.228211","category":"248","category_name":"生活娱乐","address":"上海市 上海黄浦区人民路757号"},{"poiid":"B2094757D66DAAF84998","title":"上海世贸汽车路虎展厅","lon":"121.486993738","lat":"31.2275672433","category":"500","category_name":"未知分类","address":"上海人民路600号"},{"poiid":"B2094655D268A1FD409B","title":"人民路746弄和平里(南门)","lon":"121.48456","lat":"31.22788","category":"47","category_name":"住宅区","address":""},{"poiid":"B2094654DA6EA5FE479E","title":"东淮海公寓(东门)","lon":"121.48602","lat":"31.22724","category":"656","category_name":"大门","address":"豫园"},{"poiid":"B2094757D069A4FB499A","title":"知音琴行(金陵东路店)","lon":"121.484688023","lat":"31.229039867","category":"260","category_name":"其他","address":"黄浦区金陵东路363号2楼(金陵东路永寿路)"},{"poiid":"B2094757D069A1FB479C","title":"三运物流(上海)有限公司","lon":"121.485391738","lat":"31.2283329263","category":"500","category_name":"未知分类","address":"上海市延安东路618号10F"},{"poiid":"B2094757D66FA6FA459E","title":"城隍庙豫园老街","lon":"121.487217235","lat":"31.2276862092","category":"260","category_name":"其他","address":"上海市黄浦区福佑路"},{"poiid":"B2094654DB6AA6FF4699","title":"上海豫园万丽酒店","lon":"121.48799","lat":"31.22754","category":"213","category_name":"五星级宾馆","address":"上海黄浦区河南南路159号(近福佑路)"},{"poiid":"B2094757D66FA6FA4898","title":"豫园地铁站","lon":"121.48740085","lat":"31.22813753","category":"36","category_name":"地铁站","address":"上海轨道交通 十号线 轨交豫园站 10"},{"poiid":"B2094753D76FAAFA449C","title":"上海滩国泰旗舰店","lon":"121.466011","lat":"31.216125","category":"249","category_name":"购物服务","address":"淮海中路868号"},{"poiid":"B209475CD564A7F84292","title":"上海滩新天地店","lon":"121.47463","lat":"31.22164","category":"119","category_name":"商场","address":"\"太仓路181弄新天地北里15号\r\n\""},{"poiid":"B209475CD564A7F8439E","title":"上海滩中信泰富店","lon":"121.45602","lat":"31.22851","category":"119","category_name":"商场","address":"\"南京西路1168号中信泰富广场，店铺号221.\r\n\""},{"poiid":"B209475CD564A7F84392","title":"上海滩浦东香格里拉店","lon":"121.50058","lat":"31.23634","category":"119","category_name":"商场","address":"浦东富成路33号香格里拉酒店内大堂层"},{"poiid":"B2094757D16EA1FC489E","title":"淮海东路","lon":"121.48358873","lat":"31.227366239","category":"500","category_name":"未知分类","address":"上海淮海东路"},{"poiid":"B2094750DA6FA1FC469C","title":"上海虹桥火车站","lon":"121.486068","lat":"31.225217","category":"500","category_name":"未知分类","address":null},{"poiid":"B2094757D069A0F84693","title":"豫园站","lon":"121.48705573","lat":"31.228868271","category":"500","category_name":"未知分类","address":"上海地铁十号线"},{"poiid":"B2094757D16CA0FC4398","title":"海上旧梦西餐厅","lon":"121.486337638","lat":"31.2285204637","category":"94","category_name":"西餐厅","address":"黄浦区金陵东路229号新上海城市广场2楼(河南南路口)"},{"poiid":"B2094757D164A0FB4199","title":"南外滩","lon":"121.487013338","lat":"31.2261241126","category":"500","category_name":"未知分类","address":"上海中山东路"},{"poiid":"B2094654DA6EA6FA409B","title":"金陵东路营业厅","lon":"121.48404","lat":"31.2287","category":"151","category_name":"电讯营业厅","address":"黄浦区金陵东路391号"},{"poiid":"B2094655D26AA4FA479B","title":"万丽轩豫园万丽店","lon":"121.48799","lat":"31.22753","category":"72","category_name":"广东菜","address":"黄浦区河南南路159号豫园万丽大酒店4楼(河南南路吴家弄)"},{"poiid":"B2094757D068A3FE489A","title":"东淮海公寓","lon":"121.48508","lat":"31.227438","category":"47","category_name":"住宅区","address":"上海市黄浦区人民路777弄"},{"poiid":"B2094654DA6EA5F54992","title":"福佑门小商品市场","lon":"121.48796","lat":"31.22811","category":"120","category_name":"小商品市场","address":"黄浦区福佑路427号(近河南南路)"},{"poiid":"B2094654DB6AA6FF479D","title":"上海中星大酒店","lon":"121.48469","lat":"31.22758","category":"214","category_name":"四星级宾馆","address":"人民路839号"},{"poiid":"B2094757D06FAAF9439A","title":"GUCCI(时代广场店)","lon":"121.484517","lat":"31.225729","category":"141","category_name":"服装鞋帽皮具店","address":"卢湾区淮海中路99号大上海时代广场大上海时代广场"},{"poiid":"B2094757DB6EA7FA439F","title":"上海中星君亭酒店（原上海中星大酒店）","lon":"121.4833999","lat":"31.22669372","category":"75","category_name":"浙江菜","address":"黄浦区人民路839号(近浙江南路)"},{"poiid":"B2094757D169A5FF489C","title":"重庆小天鹅火锅","lon":"121.48479673","lat":"31.22649922","category":"500","category_name":"未知分类","address":"上海市黄浦区云南南路"},{"poiid":"B2094655D26AA0FC439B","title":"天意婚礼购物广场","lon":"121.48555","lat":"31.22773","category":"247","category_name":"餐饮美食","address":"上海黄浦区人民路757号(近福建南路)  "},{"poiid":"B2094757D068A2FD4192","title":"荣腾渔乡 金陵店","lon":"121.48633527655","lat":"31.229725756023","category":"71","category_name":"四川菜","address":"黄浦区金陵东路275号(近河南南路)"},{"poiid":"B2094750DA6DA7F4489D","title":"寿宁路23号长寿面馆","lon":"121.483512","lat":"31.227197","category":"247","category_name":"餐饮美食","address":null},{"poiid":"B2094752D16FA4FB4698","title":"上海浦东机场","lon":"121.486963","lat":"31.227528","category":"627","category_name":"一般地点标志","address":null},{"poiid":"B2094655D26BAAFD479E","title":"济南路8号","lon":"121.485","lat":"31.2277","category":"47","category_name":"住宅区","address":"上海市卢湾区济南路8号"},{"poiid":"B2094751DB65ABFC409F","title":"海上第一茶楼","lon":"121.48662","lat":"31.22766","category":"247","category_name":"餐饮美食","address":"黄浦区城隍庙湖心亭(近城隍庙九曲桥)"},{"poiid":"B2094753DB6CA5F9489B","title":"稻香","lon":"121.484268","lat":"31.227146","category":"247","category_name":"餐饮美食","address":"上海市 环贸广场iapm3楼301"},{"poiid":"B2094750D16AA2FC439E","title":"轨道交通10号线豫园路站","lon":"121.4874028969","lat":"31.228092111481","category":"36","category_name":"地铁站","address":"轨道交通10号线豫园路站"},{"poiid":"B2094654DB64A4FA4592","title":"薇琪婚纱礼服精品屋","lon":"121.48569","lat":"31.22787","category":"141","category_name":"服装鞋帽皮具店","address":"人民路757号天意婚庆广场1层"},{"poiid":"B209475DD665A4FB4999","title":"K11 购物艺术中心","lon":"121.484909","lat":"31.227991","category":"249","category_name":"购物服务","address":"上海市 上海"},{"poiid":"B2094757D66EA2F44492","title":"10号线","lon":"121.487296738","lat":"31.2293972823","category":"500","category_name":"未知分类","address":"上海车上"},{"poiid":"B2094757DB6FA0F84298","title":"曼哈顿(金陵)商务酒店","lon":"121.48712844971692","lat":"31.227845662219366","category":"215","category_name":"三星级宾馆","address":"黄浦区河南南路58号"},{"poiid":"B2094757D464AAF5479B","title":"吴越人家 豫园店","lon":"121.49135","lat":"31.22776","category":"68","category_name":"快餐厅","address":"黄浦区福佑路234号豫园2楼(近KFC)"},{"poiid":"B2094757DB68A1F94798","title":"星巴克","lon":"121.4852086151499","lat":"31.22648474454025","category":"500","category_name":"未知分类","address":"江苏路"},{"poiid":"B2094752D46DA7FA449C","title":"酒吞","lon":"121.48416","lat":"31.227901","category":"247","category_name":"餐饮美食","address":"虹井路280弄"},{"poiid":"B2094750D76FAAFF4198","title":"豫园万丽咖啡厅","lon":"121.488","lat":"31.2276","category":"268","category_name":"自助","address":"黄浦区河南南路159号豫园万丽大酒店4楼(近福佑路)"},{"poiid":"B2094757D16FA3FA4693","title":"旺比面馆","lon":"121.48369723","lat":"31.227581243","category":"68","category_name":"快餐厅","address":"黄浦区浙江南路(金陵东路口)"},{"poiid":"B2094655D36CA1F44499","title":"老北门(人民路河南南路)","lon":"121.48654","lat":"31.22862","category":"38","category_name":"公交车站","address":""},{"poiid":"B2094654DA6EA5FE459D","title":"海达婚庆礼仪(人民路)","lon":"121.48555","lat":"31.22772","category":"248","category_name":"生活娱乐","address":"人民路757号天意婚庆广场3层"},{"poiid":"B2094655D36CA6FF479A","title":"福建路金陵东路","lon":"121.48475","lat":"31.22866","category":"38","category_name":"公交车站","address":""},{"poiid":"B2094753D76CA3FB4393","title":"新天地","lon":"121.486091","lat":"31.229488","category":"500","category_name":"未知分类","address":"上海市 上海"},{"poiid":"B2094655D36CA0FF4098","title":"金陵东路福建南路","lon":"121.48475","lat":"31.22921","category":"38","category_name":"公交车站","address":""},{"poiid":"B2094655D268A1FD4098","title":"新康里(盛泽路)","lon":"121.48522","lat":"31.22853","category":"47","category_name":"住宅区","address":"盛泽路130弄"},{"poiid":"B2094757D169AAF9429E","title":"中国联通九江路营业厅","lon":"121.485340671","lat":"31.2270024913","category":"500","category_name":"未知分类","address":"上海四川中路324号"},{"poiid":"B2094454D169A1F94998","title":"美咖专业沙龙","lon":"121.485781","lat":"31.228211","category":"248","category_name":"生活娱乐","address":"上海市 上海黄浦区人民路757号"},{"poiid":"B2094757D66DAAF84998","title":"上海世贸汽车路虎展厅","lon":"121.486993738","lat":"31.2275672433","category":"500","category_name":"未知分类","address":"上海人民路600号"},{"poiid":"B2094655D268A1FD409B","title":"人民路746弄和平里(南门)","lon":"121.48456","lat":"31.22788","category":"47","category_name":"住宅区","address":""},{"poiid":"B2094654DA6EA5FE479E","title":"东淮海公寓(东门)","lon":"121.48602","lat":"31.22724","category":"656","category_name":"大门","address":"豫园"},{"poiid":"B2094757D069A4FB499A","title":"知音琴行(金陵东路店)","lon":"121.484688023","lat":"31.229039867","category":"260","category_name":"其他","address":"黄浦区金陵东路363号2楼(金陵东路永寿路)"},{"poiid":"B2094757D069A1FB479C","title":"三运物流(上海)有限公司","lon":"121.485391738","lat":"31.2283329263","category":"500","category_name":"未知分类","address":"上海市延安东路618号10F"},{"poiid":"B2094757D66FA6FA459E","title":"城隍庙豫园老街","lon":"121.487217235","lat":"31.2276862092","category":"260","category_name":"其他","address":"上海市黄浦区福佑路"},{"poiid":"B2094654DB6AA6FF4699","title":"上海豫园万丽酒店","lon":"121.48799","lat":"31.22754","category":"213","category_name":"五星级宾馆","address":"上海黄浦区河南南路159号(近福佑路)"},{"poiid":"B2094757D66FA6FA4898","title":"豫园地铁站","lon":"121.48740085","lat":"31.22813753","category":"36","category_name":"地铁站","address":"上海轨道交通 十号线 轨交豫园站 10"},{"poiid":"B2094753D76FAAFA449C","title":"上海滩国泰旗舰店","lon":"121.466011","lat":"31.216125","category":"249","category_name":"购物服务","address":"淮海中路868号"},{"poiid":"B209475CD564A7F84292","title":"上海滩新天地店","lon":"121.47463","lat":"31.22164","category":"119","category_name":"商场","address":"\"太仓路181弄新天地北里15号\r\n\""},{"poiid":"B209475CD564A7F8439E","title":"上海滩中信泰富店","lon":"121.45602","lat":"31.22851","category":"119","category_name":"商场","address":"\"南京西路1168号中信泰富广场，店铺号221.\r\n\""},{"poiid":"B209475CD564A7F84392","title":"上海滩浦东香格里拉店","lon":"121.50058","lat":"31.23634","category":"119","category_name":"商场","address":"浦东富成路33号香格里拉酒店内大堂层"},{"poiid":"B2094757D16EA1FC489E","title":"淮海东路","lon":"121.48358873","lat":"31.227366239","category":"500","category_name":"未知分类","address":"上海淮海东路"},{"poiid":"B2094750DA6FA1FC469C","title":"上海虹桥火车站","lon":"121.486068","lat":"31.225217","category":"500","category_name":"未知分类","address":null},{"poiid":"B2094757D069A0F84693","title":"豫园站","lon":"121.48705573","lat":"31.228868271","category":"500","category_name":"未知分类","address":"上海地铁十号线"},{"poiid":"B2094757D16CA0FC4398","title":"海上旧梦西餐厅","lon":"121.486337638","lat":"31.2285204637","category":"94","category_name":"西餐厅","address":"黄浦区金陵东路229号新上海城市广场2楼(河南南路口)"},{"poiid":"B2094757D164A0FB4199","title":"南外滩","lon":"121.487013338","lat":"31.2261241126","category":"500","category_name":"未知分类","address":"上海中山东路"},{"poiid":"B2094654DA6EA6FA409B","title":"金陵东路营业厅","lon":"121.48404","lat":"31.2287","category":"151","category_name":"电讯营业厅","address":"黄浦区金陵东路391号"},{"poiid":"B2094655D26AA4FA479B","title":"万丽轩豫园万丽店","lon":"121.48799","lat":"31.22753","category":"72","category_name":"广东菜","address":"黄浦区河南南路159号豫园万丽大酒店4楼(河南南路吴家弄)"},{"poiid":"B2094757D068A3FE489A","title":"东淮海公寓","lon":"121.48508","lat":"31.227438","category":"47","category_name":"住宅区","address":"上海市黄浦区人民路777弄"},{"poiid":"B2094654DA6EA5F54992","title":"福佑门小商品市场","lon":"121.48796","lat":"31.22811","category":"120","category_name":"小商品市场","address":"黄浦区福佑路427号(近河南南路)"},{"poiid":"B2094654DB6AA6FF479D","title":"上海中星大酒店","lon":"121.48469","lat":"31.22758","category":"214","category_name":"四星级宾馆","address":"人民路839号"},{"poiid":"B2094757D06FAAF9439A","title":"GUCCI(时代广场店)","lon":"121.484517","lat":"31.225729","category":"141","category_name":"服装鞋帽皮具店","address":"卢湾区淮海中路99号大上海时代广场大上海时代广场"},{"poiid":"B2094757DB6EA7FA439F","title":"上海中星君亭酒店（原上海中星大酒店）","lon":"121.4833999","lat":"31.22669372","category":"75","category_name":"浙江菜","address":"黄浦区人民路839号(近浙江南路)"},{"poiid":"B2094757D169A5FF489C","title":"重庆小天鹅火锅","lon":"121.48479673","lat":"31.22649922","category":"500","category_name":"未知分类","address":"上海市黄浦区云南南路"},{"poiid":"B2094655D26AA0FC439B","title":"天意婚礼购物广场","lon":"121.48555","lat":"31.22773","category":"247","category_name":"餐饮美食","address":"上海黄浦区人民路757号(近福建南路)  "},{"poiid":"B2094757D068A2FD4192","title":"荣腾渔乡 金陵店","lon":"121.48633527655","lat":"31.229725756023","category":"71","category_name":"四川菜","address":"黄浦区金陵东路275号(近河南南路)"},{"poiid":"B2094750DA6DA7F4489D","title":"寿宁路23号长寿面馆","lon":"121.483512","lat":"31.227197","category":"247","category_name":"餐饮美食","address":null},{"poiid":"B2094752D16FA4FB4698","title":"上海浦东机场","lon":"121.486963","lat":"31.227528","category":"627","category_name":"一般地点标志","address":null},{"poiid":"B2094655D26BAAFD479E","title":"济南路8号","lon":"121.485","lat":"31.2277","category":"47","category_name":"住宅区","address":"上海市卢湾区济南路8号"},{"poiid":"B2094751DB65ABFC409F","title":"海上第一茶楼","lon":"121.48662","lat":"31.22766","category":"247","category_name":"餐饮美食","address":"黄浦区城隍庙湖心亭(近城隍庙九曲桥)"},{"poiid":"B2094753DB6CA5F9489B","title":"稻香","lon":"121.484268","lat":"31.227146","category":"247","category_name":"餐饮美食","address":"上海市 环贸广场iapm3楼301"},{"poiid":"B2094750D16AA2FC439E","title":"轨道交通10号线豫园路站","lon":"121.4874028969","lat":"31.228092111481","category":"36","category_name":"地铁站","address":"轨道交通10号线豫园路站"},{"poiid":"B2094654DB64A4FA4592","title":"薇琪婚纱礼服精品屋","lon":"121.48569","lat":"31.22787","category":"141","category_name":"服装鞋帽皮具店","address":"人民路757号天意婚庆广场1层"},{"poiid":"B209475DD665A4FB4999","title":"K11 购物艺术中心","lon":"121.484909","lat":"31.227991","category":"249","category_name":"购物服务","address":"上海市 上海"},{"poiid":"B2094757D66EA2F44492","title":"10号线","lon":"121.487296738","lat":"31.2293972823","category":"500","category_name":"未知分类","address":"上海车上"},{"poiid":"B2094757DB6FA0F84298","title":"曼哈顿(金陵)商务酒店","lon":"121.48712844971692","lat":"31.227845662219366","category":"215","category_name":"三星级宾馆","address":"黄浦区河南南路58号"},{"poiid":"B2094757D464AAF5479B","title":"吴越人家 豫园店","lon":"121.49135","lat":"31.22776","category":"68","category_name":"快餐厅","address":"黄浦区福佑路234号豫园2楼(近KFC)"},{"poiid":"B2094757DB68A1F94798","title":"星巴克","lon":"121.4852086151499","lat":"31.22648474454025","category":"500","category_name":"未知分类","address":"江苏路"},{"poiid":"B2094752D46DA7FA449C","title":"酒吞","lon":"121.48416","lat":"31.227901","category":"247","category_name":"餐饮美食","address":"虹井路280弄"},{"poiid":"B2094750D76FAAFF4198","title":"豫园万丽咖啡厅","lon":"121.488","lat":"31.2276","category":"268","category_name":"自助","address":"黄浦区河南南路159号豫园万丽大酒店4楼(近福佑路)"},{"poiid":"B2094757D16FA3FA4693","title":"旺比面馆","lon":"121.48369723","lat":"31.227581243","category":"68","category_name":"快餐厅","address":"黄浦区浙江南路(金陵东路口)"},{"poiid":"B2094655D36CA1F44499","title":"老北门(人民路河南南路)","lon":"121.48654","lat":"31.22862","category":"38","category_name":"公交车站","address":""},{"poiid":"B2094654DA6EA5FE459D","title":"海达婚庆礼仪(人民路)","lon":"121.48555","lat":"31.22772","category":"248","category_name":"生活娱乐","address":"人民路757号天意婚庆广场3层"},{"poiid":"B2094655D36CA6FF479A","title":"福建路金陵东路","lon":"121.48475","lat":"31.22866","category":"38","category_name":"公交车站","address":""},{"poiid":"B2094753D76CA3FB4393","title":"新天地","lon":"121.486091","lat":"31.229488","category":"500","category_name":"未知分类","address":"上海市 上海"},{"poiid":"B2094655D36CA0FF4098","title":"金陵东路福建南路","lon":"121.48475","lat":"31.22921","category":"38","category_name":"公交车站","address":""},{"poiid":"B2094655D268A1FD4098","title":"新康里(盛泽路)","lon":"121.48522","lat":"31.22853","category":"47","category_name":"住宅区","address":"盛泽路130弄"},{"poiid":"B2094757D169AAF9429E","title":"中国联通九江路营业厅","lon":"121.485340671","lat":"31.2270024913","category":"500","category_name":"未知分类","address":"上海四川中路324号"},{"poiid":"B2094454D169A1F94998","title":"美咖专业沙龙","lon":"121.485781","lat":"31.228211","category":"248","category_name":"生活娱乐","address":"上海市 上海黄浦区人民路757号"},{"poiid":"B2094757D66DAAF84998","title":"上海世贸汽车路虎展厅","lon":"121.486993738","lat":"31.2275672433","category":"500","category_name":"未知分类","address":"上海人民路600号"},{"poiid":"B2094655D268A1FD409B","title":"人民路746弄和平里(南门)","lon":"121.48456","lat":"31.22788","category":"47","category_name":"住宅区","address":""},{"poiid":"B2094654DA6EA5FE479E","title":"东淮海公寓(东门)","lon":"121.48602","lat":"31.22724","category":"656","category_name":"大门","address":"豫园"},{"poiid":"B2094757D069A4FB499A","title":"知音琴行(金陵东路店)","lon":"121.484688023","lat":"31.229039867","category":"260","category_name":"其他","address":"黄浦区金陵东路363号2楼(金陵东路永寿路)"},{"poiid":"B2094757D069A1FB479C","title":"三运物流(上海)有限公司","lon":"121.485391738","lat":"31.2283329263","category":"500","category_name":"未知分类","address":"上海市延安东路618号10F"}]