[{"poiid":"B2094655D36DA6FE449F","title":"上海图书馆","lon":"121.44394","lat":"31.20779","category":"181","category_name":"图书馆","address":"徐汇区淮海中路1555号(近高安路)"},{"poiid":"B2094757D068AAFE489F","title":"复兴西路","lon":"121.443012","lat":"31.208405","category":"46","category_name":"楼宇","address":"上海永福路"},{"poiid":"B2094757D06FA3FD4598","title":"衡山路","lon":"121.44432","lat":"31.20163","category":"260","category_name":"其他","address":"徐汇区衡山路(衡山路吴兴路)"},{"poiid":"B2094753D76FAAFA449C","title":"上海滩国泰旗舰店","lon":"121.466011","lat":"31.216125","category":"249","category_name":"购物服务","address":"淮海中路868号"},{"poiid":"B209475CD564A7F8439E","title":"上海滩中信泰富店","lon":"121.45602","lat":"31.22851","category":"119","category_name":"商场","address":"\"南京西路1168号中信泰富广场，店铺号221.\r\n\""},{"poiid":"B2094757D06FA3FA429E","title":"御香海(淮海店)","lon":"121.4406","lat":"31.20531","category":"95","category_name":"日本料理","address":"徐汇区淮海中路1720号(近吴兴路)"},{"poiid":"B2094757DB6FA2FB499A","title":"衡山路十二号豪华精选酒店","lon":"121.44645321431","lat":"31.20471978314","category":"215","category_name":"三星级宾馆","address":"徐汇区衡山路12号"},{"poiid":"B2094757D06EAAFC4292","title":"菲比","lon":"121.44647479","lat":"31.204945495","category":"172","category_name":"酒吧","address":"徐汇区衡山路10号欧登大厦1楼(近乌鲁木齐南路)"},{"poiid":"B2094757D06EAAFB429A","title":"1984bookstore","lon":"121.442412","lat":"31.208109","category":"260","category_name":"其他","address":"徐汇区湖南路11号(永福路口)"},{"poiid":"B2094757D06FA0FB4898","title":"汇银广场","lon":"121.443","lat":"31.2041","category":"46","category_name":"楼宇","address":"铁西卫工南街8―5号"},{"poiid":"B2094654DA6DA7FA409A","title":"贝尼酒吧","lon":"121.44584","lat":"31.20336","category":"260","category_name":"其他","address":"徐汇区永嘉路705号(衡山路口)"},{"poiid":"B2094757DA69A3FB4199","title":"上海交响乐团","lon":"121.44194","lat":"31.2083","category":"646","category_name":"文化体育类公司","address":"徐汇区湖南路105号(近武康路)"},{"poiid":"B2094757D06FA6F8429A","title":"浩然高科技大厦","lon":"121.441","lat":"31.2038","category":"46","category_name":"楼宇","address":"上海市徐汇区广元西路55号"},{"poiid":"B2094757DA6AA6FB449C","title":"上海歌城","lon":"121.445144","lat":"31.203566","category":"170","category_name":"KTV","address":"长宁区淮海西路"},{"poiid":"B2094654DB65A1FF439C","title":"Boonna Cafe(淮海中路店)","lon":"121.44225","lat":"31.20713","category":"260","category_name":"其他","address":"徐汇区淮海中路1690号(近吴兴路)"},{"poiid":"B2094757D068A1F94798","title":"图安蟹味馆","lon":"121.445137232","lat":"31.2068752777","category":"257","category_name":"中餐厅","address":"徐汇区高安路1号上海图书馆后花园(近淮海中路)"},{"poiid":"B2094654DA6DA3FF4293","title":"申通信息广场","lon":"121.441","lat":"31.2077","category":"46","category_name":"楼宇","address":"格林SOHO位于和平十三纬路云集街10号甲(东北炊具城西侧)"},{"poiid":"B2094757D06FA3FF449D","title":"上海图书馆地铁站","lon":"121.44394","lat":"31.207792","category":"36","category_name":"地铁站","address":"上海轨道交通 十号线 轨交上海图书馆站 10"},{"poiid":"B2094757D068A1FF419E","title":"汇银大厦","lon":"121.443831","lat":"31.203133","category":"46","category_name":"楼宇","address":"上海市徐汇区华山路2088号"},{"poiid":"B2094757D068A0FD4293","title":"高安三号咖啡馆","lon":"121.443715373","lat":"31.206431725","category":"65","category_name":"咖啡厅","address":"徐汇区高安路3号(淮海中路康平路间)"},{"poiid":"B2094757D66BA3F54993","title":"花园里","lon":"121.441024","lat":"31.203503","category":"260","category_name":"其他","address":"徐汇区宛平路42号(近上海图书馆)"},{"poiid":"B2094757D06FA6F44792","title":"哥莉酒吧","lon":"121.445563","lat":"31.203115","category":"260","category_name":"其他","address":"徐汇区衡山路(高安路口)"},{"poiid":"B2094757D06BA3F94999","title":"衡山路高安路","lon":"121.44600788","lat":"31.203830914","category":"500","category_name":"未知分类","address":"上海徐汇区"},{"poiid":"B2094757D068A2F54493","title":"博爱医院","lon":"121.44417408","lat":"31.208371816","category":"162","category_name":"医院","address":"卢湾区淮海中路1590号(近高安路)"},{"poiid":"B2094654DB69A7FE4699","title":"南鹰饭店","lon":"121.44057","lat":"31.2059","category":"215","category_name":"三星级宾馆","address":"徐汇区淮海中路1728号(近宛平路)"},{"poiid":"B2094757D468AAFD4099","title":"鲁马滋 Rumors Coffee","lon":"121.442311","lat":"31.208188","category":"65","category_name":"咖啡厅","address":"徐汇区湖南路9号甲(近上海图书馆)"},{"poiid":"B2094654DA6DA7F94992","title":"88酒吧","lon":"121.44596","lat":"31.20336","category":"172","category_name":"酒吧","address":"上海静安区富民路291号悟锦大厦2楼(近长乐路),,,88号酒吧"},{"poiid":"B2094757D664A2F8439A","title":"割烹雄","lon":"121.442321","lat":"31.205273","category":"95","category_name":"日本料理","address":"徐汇区吴兴路33号(近淮海中路)"},{"poiid":"B2094757DB69ABF8469C","title":"宜家家居IKEA","lon":"121.4408459263085","lat":"31.20728964266857","category":"249","category_name":"购物服务","address":"漕溪路126号"},{"poiid":"B2094757D06AA2FC449F","title":"欣欣小厨房","lon":"121.43948550916","lat":"31.205087700504","category":"91","category_name":"台湾菜","address":"徐汇区淮海中路1783号(淮海中路宛平路)"},{"poiid":"B2094757D064A2F8459E","title":"康平路","lon":"121.443515","lat":"31.203933","category":"260","category_name":"其他","address":"上海康平路宛平路口"},{"poiid":"B2094654DA6DA6FC4899","title":"上海图书馆(南门)","lon":"121.44396","lat":"31.20664","category":"181","category_name":"图书馆","address":"高安路"},{"poiid":"B2094757D068A7FB4892","title":"东北四季饺子王(徐汇店)","lon":"121.439977085","lat":"31.2051445931","category":"82","category_name":"东北菜","address":"徐汇区淮海中路1791号(近宛平路)"},{"poiid":"B2094757D06AA4FD449F","title":"第五十四中学","lon":"121.4437","lat":"31.20429","category":"55","category_name":"中学","address":"徐汇区康平路34号(近高安路)"},{"poiid":"B2094752D564AAFF4399","title":"季风书店（图书馆）","lon":"121.444154","lat":"31.207542","category":"248","category_name":"生活娱乐","address":"十号线图书馆站"},{"poiid":"B2094757D068A6F8409B","title":"瑜伽空间(Yoga Space)","lon":"121.44525","lat":"31.20361","category":"148","category_name":"美容美发店","address":"上海徐汇区高安路35号3楼(近衡山路)"},{"poiid":"B2094654DB6AA7FB4498","title":"市图书馆","lon":"121.44555","lat":"31.2068","category":"181","category_name":"图书馆","address":"徐汇区淮海中路1555号"},{"poiid":"B2094757D06AA3FA489C","title":"绿丰花园(吴兴路店)","lon":"121.44456","lat":"31.20241","category":"47","category_name":"住宅区","address":"徐汇区吴兴路87号(近衡山路)"},{"poiid":"B2094654DA6DA6FC489D","title":"华康大楼","lon":"121.4432","lat":"31.20425","category":"46","category_name":"楼宇","address":"静安区西康路946号"},{"poiid":"B2094655D26BA2FC499F","title":"吴兴路淮海中路","lon":"121.44199","lat":"31.2056","category":"38","category_name":"公交车站","address":""},{"poiid":"B2094757D069A6FD4793","title":"SEME","lon":"121.44180662","lat":"31.206163674","category":"94","category_name":"西餐厅","address":"徐汇区吴兴路5号(近淮海中路)"},{"poiid":"B2094654DB6BA5FA489B","title":"希腊餐厅","lon":"121.44237","lat":"31.20519","category":"256","category_name":"外国餐厅","address":"吴兴路33号近上海图书馆近淮海中路"},{"poiid":"B2094654DA6DA6FD409B","title":"中汇花园","lon":"121.44305","lat":"31.20554","category":"47","category_name":"住宅区","address":"吴兴路25弄1-9号"},{"poiid":"B2094654DA6DABF8439E","title":"亿方砂锅粥淮海店","lon":"121.43995","lat":"31.20506","category":"257","category_name":"中餐厅","address":"徐汇区淮海中路1793号(宛平路口)"},{"poiid":"B2094757D069A6FF409B","title":"湖南路","lon":"121.44189453","lat":"31.206729888","category":"500","category_name":"未知分类","address":"上海湖南路287号(近武康路)"},{"poiid":"B2094655D264A7FA4598","title":"致真会馆","lon":"121.44039","lat":"31.2065","category":"208","category_name":"休闲场所","address":"淮海中路1726临"},{"poiid":"B2094654DA6DA6FD409A","title":"煨面馆","lon":"121.44254","lat":"31.20458","category":"257","category_name":"中餐厅","address":"吴兴路86"},{"poiid":"B2094757D068A5F4429B","title":"LOLO LOVE VINTAGE","lon":"121.44256477","lat":"31.206229472","category":"141","category_name":"服装鞋帽皮具店","address":"上海五原路87弄1号"},{"poiid":"B2094757D164A4FC499F","title":"PHEBE","lon":"121.441867586","lat":"31.2061099593","category":"500","category_name":"未知分类","address":"上海衡山路"},{"poiid":"B2094655D268A1FA409A","title":"家好月圆餐厅","lon":"121.44245","lat":"31.20708","category":"76","category_name":"上海菜","address":"徐汇区淮海中路1680号(近高安路)"},{"poiid":"B2094655D36DA6FE449F","title":"上海图书馆","lon":"121.44394","lat":"31.20779","category":"181","category_name":"图书馆","address":"徐汇区淮海中路1555号(近高安路)"},{"poiid":"B2094757D068AAFE489F","title":"复兴西路","lon":"121.443012","lat":"31.208405","category":"46","category_name":"楼宇","address":"上海永福路"},{"poiid":"B2094757D06FA3FD4598","title":"衡山路","lon":"121.44432","lat":"31.20163","category":"260","category_name":"其他","address":"徐汇区衡山路(衡山路吴兴路)"},{"poiid":"B2094753D76FAAFA449C","title":"上海滩国泰旗舰店","lon":"121.466011","lat":"31.216125","category":"249","category_name":"购物服务","address":"淮海中路868号"},{"poiid":"B209475CD564A7F8439E","title":"上海滩中信泰富店","lon":"121.45602","lat":"31.22851","category":"119","category_name":"商场","address":"\"南京西路1168号中信泰富广场，店铺号221.\r\n\""},{"poiid":"B2094757D06FA3FA429E","title":"御香海(淮海店)","lon":"121.4406","lat":"31.20531","category":"95","category_name":"日本料理","address":"徐汇区淮海中路1720号(近吴兴路)"},{"poiid":"B2094757DB6FA2FB499A","title":"衡山路十二号豪华精选酒店","lon":"121.44645321431","lat":"31.20471978314","category":"215","category_name":"三星级宾馆","address":"徐汇区衡山路12号"},{"poiid":"B2094757D06EAAFC4292","title":"菲比","lon":"121.44647479","lat":"31.204945495","category":"172","category_name":"酒吧","address":"徐汇区衡山路10号欧登大厦1楼(近乌鲁木齐南路)"},{"poiid":"B2094757D06EAAFB429A","title":"1984bookstore","lon":"121.442412","lat":"31.208109","category":"260","category_name":"其他","address":"徐汇区湖南路11号(永福路口)"},{"poiid":"B2094757D06FA0FB4898","title":"汇银广场","lon":"121.443","lat":"31.2041","category":"46","category_name":"楼宇","address":"铁西卫工南街8―5号"},{"poiid":"B2094654DA6DA7FA409A","title":"贝尼酒吧","lon":"121.44584","lat":"31.20336","category":"260","category_name":"其他","address":"徐汇区永嘉路705号(衡山路口)"},{"poiid":"B2094757DA69A3FB4199","title":"上海交响乐团","lon":"121.44194","lat":"31.2083","category":"646","category_name":"文化体育类公司","address":"徐汇区湖南路105号(近武康路)"},{"poiid":"B2094757D06FA6F8429A","title":"浩然高科技大厦","lon":"121.441","lat":"31.2038","category":"46","category_name":"楼宇","address":"上海市徐汇区广元西路55号"},{"poiid":"B2094757DA6AA6FB449C","title":"上海歌城","lon":"121.445144","lat":"31.203566","category":"170","category_name":"KTV","address":"长宁区淮海西路"},{"poiid":"B2094654DB65A1FF439C","title":"Boonna Cafe(淮海中路店)","lon":"121.44225","lat":"31.20713","category":"260","category_name":"其他","address":"徐汇区淮海中路1690号(近吴兴路)"},{"poiid":"B2094757D068A1F94798","title":"图安蟹味馆","lon":"121.445137232","lat":"31.2068752777","category":"257","category_name":"中餐厅","address":"徐汇区高安路1号上海图书馆后花园(近淮海中路)"},{"poiid":"B2094654DA6DA3FF4293","title":"申通信息广场","lon":"121.441","lat":"31.2077","category":"46","category_name":"楼宇","address":"格林SOHO位于和平十三纬路云集街10号甲(东北炊具城西侧)"},{"poiid":"B2094757D06FA3FF449D","title":"上海图书馆地铁站","lon":"121.44394","lat":"31.207792","category":"36","category_name":"地铁站","address":"上海轨道交通 十号线 轨交上海图书馆站 10"},{"poiid":"B2094757D068A1FF419E","title":"汇银大厦","lon":"121.443831","lat":"31.203133","category":"46","category_name":"楼宇","address":"上海市徐汇区华山路2088号"},{"poiid":"B2094757D068A0FD4293","title":"高安三号咖啡馆","lon":"121.443715373","lat":"31.206431725","category":"65","category_name":"咖啡厅","address":"徐汇区高安路3号(淮海中路康平路间)"},{"poiid":"B2094757D66BA3F54993","title":"花园里","lon":"121.441024","lat":"31.203503","category":"260","category_name":"其他","address":"徐汇区宛平路42号(近上海图书馆)"},{"poiid":"B2094757D06FA6F44792","title":"哥莉酒吧","lon":"121.445563","lat":"31.203115","category":"260","category_name":"其他","address":"徐汇区衡山路(高安路口)"},{"poiid":"B2094757D06BA3F94999","title":"衡山路高安路","lon":"121.44600788","lat":"31.203830914","category":"500","category_name":"未知分类","address":"上海徐汇区"},{"poiid":"B2094757D068A2F54493","title":"博爱医院","lon":"121.44417408","lat":"31.208371816","category":"162","category_name":"医院","address":"卢湾区淮海中路1590号(近高安路)"},{"poiid":"B2094654DB69A7FE4699","title":"南鹰饭店","lon":"121.44057","lat":"31.2059","category":"215","category_name":"三星级宾馆","address":"徐汇区淮海中路1728号(近宛平路)"},{"poiid":"B2094757D468AAFD4099","title":"鲁马滋 Rumors Coffee","lon":"121.442311","lat":"31.208188","category":"65","category_name":"咖啡厅","address":"徐汇区湖南路9号甲(近上海图书馆)"},{"poiid":"B2094654DA6DA7F94992","title":"88酒吧","lon":"121.44596","lat":"31.20336","category":"172","category_name":"酒吧","address":"上海静安区富民路291号悟锦大厦2楼(近长乐路),,,88号酒吧"},{"poiid":"B2094757D664A2F8439A","title":"割烹雄","lon":"121.442321","lat":"31.205273","category":"95","category_name":"日本料理","address":"徐汇区吴兴路33号(近淮海中路)"},{"poiid":"B2094757DB69ABF8469C","title":"宜家家居IKEA","lon":"121.4408459263085","lat":"31.20728964266857","category":"249","category_name":"购物服务","address":"漕溪路126号"},{"poiid":"B2094757D06AA2FC449F","title":"欣欣小厨房","lon":"121.43948550916","lat":"31.205087700504","category":"91","category_name":"台湾菜","address":"徐汇区淮海中路1783号(淮海中路宛平路)"},{"poiid":"B2094757D064A2F8459E","title":"康平路","lon":"121.443515","lat":"31.203933","category":"260","category_name":"其他","address":"上海康平路宛平路口"},{"poiid":"B2094654DA6DA6FC4899","title":"上海图书馆(南门)","lon":"121.44396","lat":"31.20664","category":"181","category_name":"图书馆","address":"高安路"},{"poiid":"B2094757D068A7FB4892","title":"东北四季饺子王(徐汇店)","lon":"121.439977085","lat":"31.2051445931","category":"82","category_name":"东北菜","address":"徐汇区淮海中路1791号(近宛平路)"},{"poiid":"B2094757D06AA4FD449F","title":"第五十四中学","lon":"121.4437","lat":"31.20429","category":"55","category_name":"中学","address":"徐汇区康平路34号(近高安路)"},{"poiid":"B2094752D564AAFF4399","title":"季风书店（图书馆）","lon":"121.444154","lat":"31.207542","category":"248","category_name":"生活娱乐","address":"十号线图书馆站"},{"poiid":"B2094757D068A6F8409B","title":"瑜伽空间(Yoga Space)","lon":"121.44525","lat":"31.20361","category":"148","category_name":"美容美发店","address":"上海徐汇区高安路35号3楼(近衡山路)"},{"poiid":"B2094654DB6AA7FB4498","title":"市图书馆","lon":"121.44555","lat":"31.2068","category":"181","category_name":"图书馆","address":"徐汇区淮海中路1555号"},{"poiid":"B2094757D06AA3FA489C","title":"绿丰花园(吴兴路店)","lon":"121.44456","lat":"31.20241","category":"47","category_name":"住宅区","address":"徐汇区吴兴路87号(近衡山路)"},{"poiid":"B2094654DA6DA6FC489D","title":"华康大楼","lon":"121.4432","lat":"31.20425","category":"46","category_name":"楼宇","address":"静安区西康路946号"},{"poiid":"B2094655D26BA2FC499F","title":"吴兴路淮海中路","lon":"121.44199","lat":"31.2056","category":"38","category_name":"公交车站","address":""},{"poiid":"B2094757D069A6FD4793","title":"SEME","lon":"121.44180662","lat":"31.206163674","category":"94","category_name":"西餐厅","address":"徐汇区吴兴路5号(近淮海中路)"},{"poiid":"B2094654DB6BA5FA489B","title":"希腊餐厅","lon":"121.44237","lat":"31.20519","category":"256","category_name":"外国餐厅","address":"吴兴路33号近上海图书馆近淮海中路"},{"poiid":"B2094654DA6DA6FD409B","title":"中汇花园","lon":"121.44305","lat":"31.20554","category":"47","category_name":"住宅区","address":"吴兴路25弄1-9号"},{"poiid":"B2094654DA6DABF8439E","title":"亿方砂锅粥淮海店","lon":"121.43995","lat":"31.20506","category":"257","category_name":"中餐厅","address":"徐汇区淮海中路1793号(宛平路口)"},{"poiid":"B2094757D069A6FF409B","title":"湖南路","lon":"121.44189453","lat":"31.206729888","category":"500","category_name":"未知分类","address":"上海湖南路287号(近武康路)"},{"poiid":"B2094655D264A7FA4598","title":"致真会馆","lon":"121.44039","lat":"31.2065","category":"208","category_name":"休闲场所","address":"淮海中路1726临"},{"poiid":"B2094654DA6DA6FD409A","title":"煨面馆","lon":"121.44254","lat":"31.20458","category":"257","category_name":"中餐厅","address":"吴兴路86"},{"poiid":"B2094757D068A5F4429B","title":"LOLO LOVE VINTAGE","lon":"121.44256477","lat":"31.206229472","category":"141","category_name":"服装鞋帽皮具店","address":"上海五原路87弄1号"},{"poiid":"B2094757D164A4FC499F","title":"PHEBE","lon":"121.441867586","lat":"31.2061099593","category":"500","category_name":"未知分类","address":"上海衡山路"},{"poiid":"B2094655D268A1FA409A","title":"家好月圆餐厅","lon":"121.44245","lat":"31.20708","category":"76","category_name":"上海菜","address":"徐汇区淮海中路1680号(近高安路)"},{"poiid":"B2094655D36DA6FE449F","title":"上海图书馆","lon":"121.44394","lat":"31.20779","category":"181","category_name":"图书馆","address":"徐汇区淮海中路1555号(近高安路)"},{"poiid":"B2094757D068AAFE489F","title":"复兴西路","lon":"121.443012","lat":"31.208405","category":"46","category_name":"楼宇","address":"上海永福路"},{"poiid":"B2094757D06FA3FD4598","title":"衡山路","lon":"121.44432","lat":"31.20163","category":"260","category_name":"其他","address":"徐汇区衡山路(衡山路吴兴路)"},{"poiid":"B2094753D76FAAFA449C","title":"上海滩国泰旗舰店","lon":"121.466011","lat":"31.216125","category":"249","category_name":"购物服务","address":"淮海中路868号"},{"poiid":"B209475CD564A7F8439E","title":"上海滩中信泰富店","lon":"121.45602","lat":"31.22851","category":"119","category_name":"商场","address":"\"南京西路1168号中信泰富广场，店铺号221.\r\n\""},{"poiid":"B2094757D06FA3FA429E","title":"御香海(淮海店)","lon":"121.4406","lat":"31.20531","category":"95","category_name":"日本料理","address":"徐汇区淮海中路1720号(近吴兴路)"},{"poiid":"B2094757DB6FA2FB499A","title":"衡山路十二号豪华精选酒店","lon":"121.44645321431","lat":"31.20471978314","category":"215","category_name":"三星级宾馆","address":"徐汇区衡山路12号"},{"poiid":"B2094757D06EAAFC4292","title":"菲比","lon":"121.44647479","lat":"31.204945495","category":"172","category_name":"酒吧","address":"徐汇区衡山路10号欧登大厦1楼(近乌鲁木齐南路)"},{"poiid":"B2094757D06EAAFB429A","title":"1984bookstore","lon":"121.442412","lat":"31.208109","category":"260","category_name":"其他","address":"徐汇区湖南路11号(永福路口)"},{"poiid":"B2094757D06FA0FB4898","title":"汇银广场","lon":"121.443","lat":"31.2041","category":"46","category_name":"楼宇","address":"铁西卫工南街8―5号"},{"poiid":"B2094654DA6DA7FA409A","title":"贝尼酒吧","lon":"121.44584","lat":"31.20336","category":"260","category_name":"其他","address":"徐汇区永嘉路705号(衡山路口)"},{"poiid":"B2094757DA69A3FB4199","title":"上海交响乐团","lon":"121.44194","lat":"31.2083","category":"646","category_name":"文化体育类公司","address":"徐汇区湖南路105号(近武康路)"},{"poiid":"B2094757D06FA6F8429A","title":"浩然高科技大厦","lon":"121.441","lat":"31.2038","category":"46","category_name":"楼宇","address":"上海市徐汇区广元西路55号"},{"poiid":"B2094757DA6AA6FB449C","title":"上海歌城","lon":"121.445144","lat":"31.203566","category":"170","category_name":"KTV","address":"长宁区淮海西路"},{"poiid":"B2094654DB65A1FF439C","title":"Boonna Cafe(淮海中路店)","lon":"121.44225","lat":"31.20713","category":"260","category_name":"其他","address":"徐汇区淮海中路1690号(近吴兴路)"},{"poiid":"B2094757D068A1F94798","title":"图安蟹味馆","lon":"121.445137232","lat":"31.2068752777","category":"257","category_name":"中餐厅","address":"徐汇区高安路1号上海图书馆后花园(近淮海中路)"},{"poiid":"B2094654DA6DA3FF4293","title":"申通信息广场","lon":"121.441","lat":"31.2077","category":"46","category_name":"楼宇","address":"格林SOHO位于和平十三纬路云集街10号甲(东北炊具城西侧)"},{"poiid":"B2094757D06FA3FF449D","title":"上海图书馆地铁站","lon":"121.44394","lat":"31.207792","category":"36","category_name":"地铁站","address":"上海轨道交通 十号线 轨交上海图书馆站 10"},{"poiid":"B2094757D068A1FF419E","title":"汇银大厦","lon":"121.443831","lat":"31.203133","category":"46","category_name":"楼宇","address":"上海市徐汇区华山路2088号"},{"poiid":"B2094757D068A0FD4293","title":"高安三号咖啡馆","lon":"121.443715373","lat":"31.206431725","category":"65","category_name":"咖啡厅","address":"徐汇区高安路3号(淮海中路康平路间)"},{"poiid":"B2094757D66BA3F54993","title":"花园里","lon":"121.441024","lat":"31.203503","category":"260","category_name":"其他","address":"徐汇区宛平路42号(近上海图书馆)"},{"poiid":"B2094757D06FA6F44792","title":"哥莉酒吧","lon":"121.445563","lat":"31.203115","category":"260","category_name":"其他","address":"徐汇区衡山路(高安路口)"},{"poiid":"B2094757D06BA3F94999","title":"衡山路高安路","lon":"121.44600788","lat":"31.203830914","category":"500","category_name":"未知分类","address":"上海徐汇区"},{"poiid":"B2094757D068A2F54493","title":"博爱医院","lon":"121.44417408","lat":"31.208371816","category":"162","category_name":"医院","address":"卢湾区淮海中路1590号(近高安路)"},{"poiid":"B2094654DB69A7FE4699","title":"南鹰饭店","lon":"121.44057","lat":"31.2059","category":"215","category_name":"三星级宾馆","address":"徐汇区淮海中路1728号(近宛平路)"},{"poiid":"B2094757D468AAFD4099","title":"鲁马滋 Rumors Coffee","lon":"121.442311","lat":"31.208188","category":"65","category_name":"咖啡厅","address":"徐汇区湖南路9号甲(近上海图书馆)"},{"poiid":"B2094654DA6DA7F94992","title":"88酒吧","lon":"121.44596","lat":"31.20336","category":"172","category_name":"酒吧","address":"上海静安区富民路291号悟锦大厦2楼(近长乐路),,,88号酒吧"},{"poiid":"B2094757D664A2F8439A","title":"割烹雄","lon":"121.442321","lat":"31.205273","category":"95","category_name":"日本料理","address":"徐汇区吴兴路33号(近淮海中路)"},{"poiid":"B2094757DB69ABF8469C","title":"宜家家居IKEA","lon":"121.4408459263085","lat":"31.20728964266857","category":"249","category_name":"购物服务","address":"漕溪路126号"},{"poiid":"B2094757D06AA2FC449F","title":"欣欣小厨房","lon":"121.43948550916","lat":"31.205087700504","category":"91","category_name":"台湾菜","address":"徐汇区淮海中路1783号(淮海中路宛平路)"},{"poiid":"B2094757D064A2F8459E","title":"康平路","lon":"121.443515","lat":"31.203933","category":"260","category_name":"其他","address":"上海康平路宛平路口"},{"poiid":"B2094654DA6DA6FC4899","title":"上海图书馆(南门)","lon":"121.44396","lat":"31.20664","category":"181","category_name":"图书馆","address":"高安路"},{"poiid":"B2094757D068A7FB4892","title":"东北四季饺子王(徐汇店)","lon":"121.439977085","lat":"31.2051445931","category":"82","category_name":"东北菜","address":"徐汇区淮海中路1791号(近宛平路)"},{"poiid":"B2094757D06AA4FD449F","title":"第五十四中学","lon":"121.4437","lat":"31.20429","category":"55","category_name":"中学","address":"徐汇区康平路34号(近高安路)"},{"poiid":"B2094752D564AAFF4399","title":"季风书店（图书馆）","lon":"121.444154","lat":"31.207542","category":"248","category_name":"生活娱乐","address":"十号线图书馆站"},{"poiid":"B2094757D068A6F8409B","title":"瑜伽空间(Yoga Space)","lon":"121.44525","lat":"31.20361","category":"148","category_name":"美容美发店","address":"上海徐汇区高安路35号3楼(近衡山路)"},{"poiid":"B2094654DB6AA7FB4498","title":"市图书馆","lon":"121.44555","lat":"31.2068","category":"181","category_name":"图书馆","address":"徐汇区淮海中路1555号"},{"poiid":"B2094757D06AA3FA489C","title":"绿丰花园(吴兴路店)","lon":"121.44456","lat":"31.20241","category":"47","category_name":"住宅区","address":"徐汇区吴兴路87号(近衡山路)"},{"poiid":"B2094654DA6DA6FC489D","title":"华康大楼","lon":"121.4432","lat":"31.20425","category":"46","category_name":"楼宇","address":"静安区西康路946号"},{"poiid":"B2094655D26BA2FC499F","title":"吴兴路淮海中路","lon":"121.44199","lat":"31.2056","category":"38","category_name":"公交车站","address":""},{"poiid":"B2094757D069A6FD4793","title":"SEME","lon":"121.44180662","lat":"31.206163674","category":"94","category_name":"西餐厅","address":"徐汇区吴兴路5号(近淮海中路)"},{"poiid":"B2094654DB6BA5FA489B","title":"希腊餐厅","lon":"121.44237","lat":"31.20519","category":"256","category_name":"外国餐厅","address":"吴兴路33号近上海图书馆近淮海中路"},{"poiid":"B2094654DA6DA6FD409B","title":"中汇花园","lon":"121.44305","lat":"31.20554","category":"47","category_name":"住宅区","address":"吴兴路25弄1-9号"},{"poiid":"B2094654DA6DABF8439E","title":"亿方砂锅粥淮海店","lon":"121.43995","lat":"31.20506","category":"257","category_name":"中餐厅","address":"徐汇区淮海中路1793号(宛平路口)"},{"poiid":"B2094757D069A6FF409B","title":"湖南路","lon":"121.44189453","lat":"31.206729888","category":"500","category_name":"未知分类","address":"上海湖南路287号(近武康路)"},{"poiid":"B2094655D264A7FA4598","title":"致真会馆","lon":"121.44039","lat":"31.2065","category":"208","category_name":"休闲场所","address":"淮海中路1726临"},{"poiid":"B2094654DA6DA6FD409A","title":"煨面馆","lon":"121.44254","lat":"31.20458","category":"257","category_name":"中餐厅","address":"吴兴路86"},{"poiid":"B2094757D068A5F4429B","title":"LOLO LOVE VINTAGE","lon":"121.44256477","lat":"31.206229472","category":"141","category_name":"服装鞋帽皮具店","address":"上海五原路87弄1号"},{"poiid":"B2094757D164A4FC499F","title":"PHEBE","lon":"121.441867586","lat":"31.2061099593","category":"500","category_name":"未知分类","address":"上海衡山路"},{"poiid":"B2094655D268A1FA409A","title":"家好月圆餐厅","lon":"121.44245","lat":"31.20708","category":"76","category_name":"上海菜","address":"徐汇区淮海中路1680号(近高安路)"},{"poiid":"B2094655D36DA6FE449F","title":"上海图书馆","lon":"121.44394","lat":"31.20779","category":"181","category_name":"图书馆","address":"徐汇区淮海中路1555号(近高安路)"},{"poiid":"B2094757D068AAFE489F","title":"复兴西路","lon":"121.443012","lat":"31.208405","category":"46","category_name":"楼宇","address":"上海永福路"},{"poiid":"B2094757D06FA3FD4598","title":"衡山路","lon":"121.44432","lat":"31.20163","category":"260","category_name":"其他","address":"徐汇区衡山路(衡山路吴兴路)"},{"poiid":"B2094753D76FAAFA449C","title":"上海滩国泰旗舰店","lon":"121.466011","lat":"31.216125","category":"249","category_name":"购物服务","address":"淮海中路868号"},{"poiid":"B209475CD564A7F8439E","title":"上海滩中信泰富店","lon":"121.45602","lat":"31.22851","category":"119","category_name":"商场","address":"\"南京西路1168号中信泰富广场，店铺号221.\r\n\""},{"poiid":"B2094757D06FA3FA429E","title":"御香海(淮海店)","lon":"121.4406","lat":"31.20531","category":"95","category_name":"日本料理","address":"徐汇区淮海中路1720号(近吴兴路)"},{"poiid":"B2094757DB6FA2FB499A","title":"衡山路十二号豪华精选酒店","lon":"121.44645321431","lat":"31.20471978314","category":"215","category_name":"三星级宾馆","address":"徐汇区衡山路12号"},{"poiid":"B2094757D06EAAFC4292","title":"菲比","lon":"121.44647479","lat":"31.204945495","category":"172","category_name":"酒吧","address":"徐汇区衡山路10号欧登大厦1楼(近乌鲁木齐南路)"},{"poiid":"B2094757D06EAAFB429A","title":"1984bookstore","lon":"121.442412","lat":"31.208109","category":"260","category_name":"其他","address":"徐汇区湖南路11号(永福路口)"},{"poiid":"B2094757D06FA0FB4898","title":"汇银广场","lon":"121.443","lat":"31.2041","category":"46","category_name":"楼宇","address":"铁西卫工南街8―5号"},{"poiid":"B2094654DA6DA7FA409A","title":"贝尼酒吧","lon":"121.44584","lat":"31.20336","category":"260","category_name":"其他","address":"徐汇区永嘉路705号(衡山路口)"},{"poiid":"B2094757DA69A3FB4199","title":"上海交响乐团","lon":"121.44194","lat":"31.2083","category":"646","category_name":"文化体育类公司","address":"徐汇区湖南路105号(近武康路)"},{"poiid":"B2094757D06FA6F8429A","title":"浩然高科技大厦","lon":"121.441","lat":"31.2038","category":"46","category_name":"楼宇","address":"上海市徐汇区广元西路55号"},{"poiid":"B2094757DA6AA6FB449C","title":"上海歌城","lon":"121.445144","lat":"31.203566","category":"170","category_name":"KTV","address":"长宁区淮海西路"},{"poiid":"B2094654DB65A1FF439C","title":"Boonna Cafe(淮海中路店)","lon":"121.44225","lat":"31.20713","category":"260","category_name":"其他","address":"徐汇区淮海中路1690号(近吴兴路)"},{"poiid":"B2094757D068A1F94798","title":"图安蟹味馆","lon":"121.445137232","lat":"31.2068752777","category":"257","category_name":"中餐厅","address":"徐汇区高安路1号上海图书馆后花园(近淮海中路)"},{"poiid":"B2094654DA6DA3FF4293","title":"申通信息广场","lon":"121.441","lat":"31.2077","category":"46","category_name":"楼宇","address":"格林SOHO位于和平十三纬路云集街10号甲(东北炊具城西侧)"},{"poiid":"B2094757D06FA3FF449D","title":"上海图书馆地铁站","lon":"121.44394","lat":"31.207792","category":"36","category_name":"地铁站","address":"上海轨道交通 十号线 轨交上海图书馆站 10"},{"poiid":"B2094757D068A1FF419E","title":"汇银大厦","lon":"121.443831","lat":"31.203133","category":"46","category_name":"楼宇","address":"上海市徐汇区华山路2088号"},{"poiid":"B2094757D068A0FD4293","title":"高安三号咖啡馆","lon":"121.443715373","lat":"31.206431725","category":"65","category_name":"咖啡厅","address":"徐汇区高安路3号(淮海中路康平路间)"},{"poiid":"B2094757D66BA3F54993","title":"花园里","lon":"121.441024","lat":"31.203503","category":"260","category_name":"其他","address":"徐汇区宛平路42号(近上海图书馆)"},{"poiid":"B2094757D06FA6F44792","title":"哥莉酒吧","lon":"121.445563","lat":"31.203115","category":"260","category_name":"其他","address":"徐汇区衡山路(高安路口)"},{"poiid":"B2094757D06BA3F94999","title":"衡山路高安路","lon":"121.44600788","lat":"31.203830914","category":"500","category_name":"未知分类","address":"上海徐汇区"},{"poiid":"B2094757D068A2F54493","title":"博爱医院","lon":"121.44417408","lat":"31.208371816","category":"162","category_name":"医院","address":"卢湾区淮海中路1590号(近高安路)"},{"poiid":"B2094654DB69A7FE4699","title":"南鹰饭店","lon":"121.44057","lat":"31.2059","category":"215","category_name":"三星级宾馆","address":"徐汇区淮海中路1728号(近宛平路)"},{"poiid":"B2094757D468AAFD4099","title":"鲁马滋 Rumors Coffee","lon":"121.442311","lat":"31.208188","category":"65","category_name":"咖啡厅","address":"徐汇区湖南路9号甲(近上海图书馆)"},{"poiid":"B2094654DA6DA7F94992","title":"88酒吧","lon":"121.44596","lat":"31.20336","category":"172","category_name":"酒吧","address":"上海静安区富民路291号悟锦大厦2楼(近长乐路),,,88号酒吧"},{"poiid":"B2094757D664A2F8439A","title":"割烹雄","lon":"121.442321","lat":"31.205273","category":"95","category_name":"日本料理","address":"徐汇区吴兴路33号(近淮海中路)"},{"poiid":"B2094757DB69ABF8469C","title":"宜家家居IKEA","lon":"121.4408459263085","lat":"31.20728964266857","category":"249","category_name":"购物服务","address":"漕溪路126号"},{"poiid":"B2094757D06AA2FC449F","title":"欣欣小厨房","lon":"121.43948550916","lat":"31.205087700504","category":"91","category_name":"台湾菜","address":"徐汇区淮海中路1783号(淮海中路宛平路)"},{"poiid":"B2094757D064A2F8459E","title":"康平路","lon":"121.443515","lat":"31.203933","category":"260","category_name":"其他","address":"上海康平路宛平路口"},{"poiid":"B2094654DA6DA6FC4899","title":"上海图书馆(南门)","lon":"121.44396","lat":"31.20664","category":"181","category_name":"图书馆","address":"高安路"},{"poiid":"B2094757D068A7FB4892","title":"东北四季饺子王(徐汇店)","lon":"121.439977085","lat":"31.2051445931","category":"82","category_name":"东北菜","address":"徐汇区淮海中路1791号(近宛平路)"},{"poiid":"B2094757D06AA4FD449F","title":"第五十四中学","lon":"121.4437","lat":"31.20429","category":"55","category_name":"中学","address":"徐汇区康平路34号(近高安路)"},{"poiid":"B2094752D564AAFF4399","title":"季风书店（图书馆）","lon":"121.444154","lat":"31.207542","category":"248","category_name":"生活娱乐","address":"十号线图书馆站"},{"poiid":"B2094757D068A6F8409B","title":"瑜伽空间(Yoga Space)","lon":"121.44525","lat":"31.20361","category":"148","category_name":"美容美发店","address":"上海徐汇区高安路35号3楼(近衡山路)"},{"poiid":"B2094654DB6AA7FB4498","title":"市图书馆","lon":"121.44555","lat":"31.2068","category":"181","category_name":"图书馆","address":"徐汇区淮海中路1555号"},{"poiid":"B2094757D06AA3FA489C","title":"绿丰花园(吴兴路店)","lon":"121.44456","lat":"31.20241","category":"47","category_name":"住宅区","address":"徐汇区吴兴路87号(近衡山路)"},{"poiid":"B2094654DA6DA6FC489D","title":"华康大楼","lon":"121.4432","lat":"31.20425","category":"46","category_name":"楼宇","address":"静安区西康路946号"},{"poiid":"B2094655D26BA2FC499F","title":"吴兴路淮海中路","lon":"121.44199","lat":"31.2056","category":"38","category_name":"公交车站","address":""},{"poiid":"B2094757D069A6FD4793","title":"SEME","lon":"121.44180662","lat":"31.206163674","category":"94","category_name":"西餐厅","address":"徐汇区吴兴路5号(近淮海中路)"},{"poiid":"B2094654DB6BA5FA489B","title":"希腊餐厅","lon":"121.44237","lat":"31.20519","category":"256","category_name":"外国餐厅","address":"吴兴路33号近上海图书馆近淮海中路"},{"poiid":"B2094654DA6DA6FD409B","title":"中汇花园","lon":"121.44305","lat":"31.20554","category":"47","category_name":"住宅区","address":"吴兴路25弄1-9号"},{"poiid":"B2094654DA6DABF8439E","title":"亿方砂锅粥淮海店","lon":"121.43995","lat":"31.20506","category":"257","category_name":"中餐厅","address":"徐汇区淮海中路1793号(宛平路口)"},{"poiid":"B2094757D069A6FF409B","title":"湖南路","lon":"121.44189453","lat":"31.206729888","category":"500","category_name":"未知分类","address":"上海湖南路287号(近武康路)"},{"poiid":"B2094655D264A7FA4598","title":"致真会馆","lon":"121.44039","lat":"31.2065","category":"208","category_name":"休闲场所","address":"淮海中路1726临"},{"poiid":"B2094654DA6DA6FD409A","title":"煨面馆","lon":"121.44254","lat":"31.20458","category":"257","category_name":"中餐厅","address":"吴兴路86"},{"poiid":"B2094757D068A5F4429B","title":"LOLO LOVE VINTAGE","lon":"121.44256477","lat":"31.206229472","category":"141","category_name":"服装鞋帽皮具店","address":"上海五原路87弄1号"},{"poiid":"B2094757D164A4FC499F","title":"PHEBE","lon":"121.441867586","lat":"31.2061099593","category":"500","category_name":"未知分类","address":"上海衡山路"},{"poiid":"B2094655D268A1FA409A","title":"家好月圆餐厅","lon":"121.44245","lat":"31.20708","category":"76","category_name":"上海菜","address":"徐汇区淮海中路1680号(近高安路)"}]