[{"poiid":"B2094654DA6FA7FD4993","title":"上海国际会议中心(Shanghai International Conference Center)","lon":"121.49694","lat":"31.23946","category":"185","category_name":"会展中心","address":"浦东新区滨江大道2727号(近丰和路)"},{"poiid":"B2094654DA6FA7FC449A","title":"东方明珠广播电视塔","lon":"121.49967","lat":"31.23988","category":"240","category_name":"国家级景点","address":"浦东浦东新区世纪大道1号"},{"poiid":"B2094654DB64A5FE4098","title":"上海东方明珠塔","lon":"121.49958","lat":"31.23952","category":"247","category_name":"餐饮美食","address":"浦东新区浦东世纪大道1号(近二号线陆家嘴站)"},{"poiid":"B209475CD564A7F84292","title":"上海滩新天地店","lon":"121.47463","lat":"31.22164","category":"119","category_name":"商场","address":"\"太仓路181弄新天地北里15号\r\n\""},{"poiid":"B209475CD564A7F84392","title":"上海滩浦东香格里拉店","lon":"121.50058","lat":"31.23634","category":"119","category_name":"商场","address":"浦东富成路33号香格里拉酒店内大堂层"},{"poiid":"B2094757D06EAAFD419F","title":"板长寿司(国金店)","lon":"121.498484","lat":"31.238301","category":"95","category_name":"日本料理","address":"上海浦东新区国际金融中心(LG1-18)"},{"poiid":"B2094654DA6FA7FE4098","title":"滨江大道","lon":"121.49565","lat":"31.2374","category":"116","category_name":"特色商业街","address":"陆家嘴路1号"},{"poiid":"B2094757D06FA2FF4893","title":"海鸥舫","lon":"121.49586","lat":"31.23816","category":"76","category_name":"上海菜","address":"浦东新区滨江大道2852号(滨江花园内)"},{"poiid":"B2094757D06FA3F8449F","title":"鼎泰丰(正大广场店)","lon":"121.498763442","lat":"31.23695353","category":"68","category_name":"快餐厅","address":"浦东新区陆家嘴西路168号正大广场3楼24号铺(近东方明珠)"},{"poiid":"B2094757D06FA4FA429D","title":"小南国(国际会议中心店)","lon":"121.496985714","lat":"31.2393948139","category":"76","category_name":"上海菜","address":"浦东新区滨江大道2727号国际会议中心7楼(近东方明珠电视塔)"},{"poiid":"B2094655D26FA6FF4498","title":"必胜客(正大店)","lon":"121.4989726","lat":"31.2371425","category":"94","category_name":"西餐厅","address":"浦东新区陆家嘴西路168号正大广场5楼26号铺(近东方明珠)"},{"poiid":"B2094757DA6EA6FE479E","title":"合点寿司","lon":"121.499369144441","lat":"31.2378664776674","category":"95","category_name":"日本料理","address":"浦东新区陆家嘴西路168号正大广场8楼(近东方明珠)"},{"poiid":"B2094655D26DAAF8459A","title":"The Kitchen Salvatore Cuomo","lon":"121.49733","lat":"31.24084","category":"94","category_name":"西餐厅","address":"浦东新区陆家嘴西路2967号D座(近丰和路滨江大道海鸥舫)"},{"poiid":"B2094750D26FA3FE4698","title":"上海大自然野生昆虫馆","lon":"121.497772","lat":"31.240335","category":"627","category_name":"一般地点标志","address":"上海市浦东新区丰和路1号"},{"poiid":"B2094655D26DA3FF489B","title":"外滩12号大楼","lon":"121.497","lat":"31.2418","category":"46","category_name":"楼宇","address":"黄浦区中山东一路12号"},{"poiid":"B2094757D169ABFF409D","title":"枫雅日本料理","lon":"121.495364738","lat":"31.2381594691","category":"95","category_name":"日本料理","address":"浦东新区陆家嘴西路2967号北滨江B座(近滨江大道)"},{"poiid":"B2094757D06FA0FF479B","title":"新素代(正大店)","lon":"121.498653","lat":"31.236908","category":"89","category_name":"中式素餐馆","address":"浦东新区陆家嘴西路168号正大广场5楼西区20号铺(近东方明珠)"},{"poiid":"B2094655D26FA2FA409C","title":"工商联大厦","lon":"121.496","lat":"31.2374","category":"46","category_name":"楼宇","address":"上海市黄浦区延安东路45号"},{"poiid":"B2094757D06FABF4469B","title":"天水恋 Café &amp; bar","lon":"121.49577331","lat":"31.237451553","category":"65","category_name":"咖啡厅","address":"上海外滩滨江大道"},{"poiid":"B2094654DB69A5FF409F","title":"麦当劳(正大广场店)","lon":"121.49852","lat":"31.2374","category":"68","category_name":"快餐厅","address":"浦东新区陆家嘴西路168号正大广场5楼35-36号铺(近东方明珠)"},{"poiid":"B2094654DA6FA7FD499F","title":"东方明珠游船码头","lon":"121.49693","lat":"31.24078","category":"34","category_name":"港口码头","address":"滨江大道2852号"},{"poiid":"B2094757D06BA7FA4398","title":"海鸥坊","lon":"121.498747738","lat":"31.2394844973","category":"500","category_name":"未知分类","address":"上海市浦东新区滨江大道"},{"poiid":"B2094757D068A5FD4798","title":"SCENA","lon":"121.49932544","lat":"31.238503496","category":"94","category_name":"西餐厅","address":"浦东新区世纪大道8号上海国金中心52楼丽思卡尔顿酒店(东泰路世纪大道)"},{"poiid":"B2094654DA6FABFE459E","title":"高登金融大厦","lon":"121.497","lat":"31.2388","category":"46","category_name":"楼宇","address":"上海市黄浦区延安东路58号"},{"poiid":"B2094655D26EAAF4479C","title":"仙踪林(滨江店)","lon":"121.4957","lat":"31.23923","category":"247","category_name":"餐饮美食","address":"浦东新区陆家嘴西路2967号北滨江大道A座(丰和路陆家嘴西路)"},{"poiid":"B2094750D669A6F44498","title":"麝香猫咖啡","lon":"121.498847","lat":"31.237678","category":"260","category_name":"其他","address":"浦东新区陆家嘴西路168号正大广场1楼西区GF30号(近东方明珠)"},{"poiid":"B2094654DA6FA7FE409A","title":"外滩观光隧道","lon":"121.49726","lat":"31.23839","category":"250","category_name":"公园户外","address":"滨江大道2789"},{"poiid":"B2094752D66FA2F4479A","title":"蒗葶泰式酒吧餐厅","lon":"121.498146","lat":"31.241444","category":"256","category_name":"外国餐厅","address":"上海市 滨江大道2600号"},{"poiid":"B2094757D068A7F44998","title":"枫雅铁板烧","lon":"121.49576","lat":"31.2374","category":"269","category_name":"烧烤","address":"浦东新区陆家嘴西路2967号北滨江C座(近滨江大道)"},{"poiid":"B2094757D068ABFA419D","title":"光明大厦","lon":"121.499","lat":"31.2376","category":"46","category_name":"楼宇","address":"上海市长宁区遵义南路88号"},{"poiid":"B2094654DB64AAFD439A","title":"上海城市历史发展陈列馆","lon":"121.49958","lat":"31.23951","category":"182","category_name":"博物馆","address":"浦东新区浦东世纪大道1号东方明珠零米大厅内(丰和路明珠塔路)"},{"poiid":"B2094654DB69A6F94298","title":"陆家嘴金融贸易区","lon":"121.49691","lat":"31.23827","category":"45","category_name":"产业园区","address":"浦西外滩对面"},{"poiid":"B2094655D26EA4FA479C","title":"东方滨江大酒店-滨江厅","lon":"121.49693","lat":"31.23945","category":"268","category_name":"自助","address":"浦东新区滨江大道2727号东方滨江大酒店1楼(近国际会议中心)"},{"poiid":"B2094654DA6EA5F8419A","title":"外滩金延大楼","lon":"121.49846","lat":"31.238399","category":"46","category_name":"楼宇","address":"沈河北站路与北京街的交汇处"},{"poiid":"B2094655D26DA5FE4898","title":"滨江大道(三号门)","lon":"121.49707","lat":"31.24047","category":"116","category_name":"特色商业街","address":""},{"poiid":"B2094757D065ABF4499A","title":"东方明珠观光走廊","lon":"121.4993702","lat":"31.239805224","category":"500","category_name":"未知分类","address":"上海陆家嘴"},{"poiid":"B2094750DA6EA1FF4793","title":"金茂九重天酒吧","lon":"121.498138","lat":"31.240051","category":"248","category_name":"生活娱乐","address":"浦东新区世纪大道88号"},{"poiid":"B2094655D26FAAF8489F","title":"万向大厦","lon":"121.49777","lat":"31.23761","category":"46","category_name":"楼宇","address":"浦东区陆家嘴西路99号"},{"poiid":"B2094751D565A2FD449F","title":"国金中心","lon":"121.497239","lat":"31.238739","category":"247","category_name":"餐饮美食","address":"世纪大道8号"},{"poiid":"B2094757DB69A6F84493","title":"hoF bar&brasserie","lon":"121.497146","lat":"31.241518","category":"247","category_name":"餐饮美食","address":"陆家嘴环路1318号"},{"poiid":"B2094757DA68A2F84098","title":"莫顿牛排","lon":"121.49699519953022","lat":"31.23909712592591","category":"247","category_name":"餐饮美食","address":"滨江大道"},{"poiid":"B2094752D66BA7FF4193","title":"kathleen\\'s waitan","lon":"121.497209","lat":"31.239785","category":"247","category_name":"餐饮美食","address":"黄埔路200号4楼"},{"poiid":"B2094757D16AA6FC4093","title":"东方滨江大酒店华夏厅","lon":"121.497315","lat":"31.240235","category":"268","category_name":"自助","address":"浦东新区滨江大道2727号东方滨江大酒店1楼(近国际会议中心)"},{"poiid":"B2094655D26AABFC459F","title":"国际会议中心VIP包房","lon":"121.49693","lat":"31.23945","category":"247","category_name":"餐饮美食","address":"滨江大道2727号东方滨江大酒店7楼"},{"poiid":"B209475CD169A5F84998","title":"Café Lugo","lon":"121.498863","lat":"31.237592","category":"500","category_name":"未知分类","address":"上海市 上海市浦东新区陆家嘴西路168号正大广场1楼"},{"poiid":"B2094655D26DA2F8449B","title":"滨江休闲街(正大广场西)","lon":"121.49803","lat":"31.2367","category":"116","category_name":"特色商业街","address":""},{"poiid":"B2094752DA69AAFD449E","title":"国金百丽宫电影院","lon":"121.497422","lat":"31.236594","category":"500","category_name":"未知分类","address":"上海市 浦东陆家嘴"},{"poiid":"B2094753D769AAFC4299","title":"上海小南国(国会店)","lon":"121.49696","lat":"31.23925","category":"76","category_name":"上海菜","address":"上海市浦东新区滨江大道2727号东方滨江大酒店7楼(近东方明珠电视塔)"},{"poiid":"B209475CD265A4FF4393","title":"东方滨江大酒店宴会厅","lon":"121.496771054","lat":"31.239294793","category":"72","category_name":"广东菜","address":"滨江大道2727号上海国际会议中心东方滨江大酒店7楼近丰和路"},{"poiid":"B2094654DB6BA4F54899","title":"东方明珠演艺剧场","lon":"121.49967","lat":"31.23988","category":"180","category_name":"剧场","address":"浦东新区浦东世纪大道1号东方明珠塔8号门(近二号线陆家嘴站)"},{"poiid":"B2094654DA6FA7FD4993","title":"上海国际会议中心(Shanghai International Conference Center)","lon":"121.49694","lat":"31.23946","category":"185","category_name":"会展中心","address":"浦东新区滨江大道2727号(近丰和路)"},{"poiid":"B2094654DA6FA7FC449A","title":"东方明珠广播电视塔","lon":"121.49967","lat":"31.23988","category":"240","category_name":"国家级景点","address":"浦东浦东新区世纪大道1号"},{"poiid":"B2094654DB64A5FE4098","title":"上海东方明珠塔","lon":"121.49958","lat":"31.23952","category":"247","category_name":"餐饮美食","address":"浦东新区浦东世纪大道1号(近二号线陆家嘴站)"},{"poiid":"B209475CD564A7F84292","title":"上海滩新天地店","lon":"121.47463","lat":"31.22164","category":"119","category_name":"商场","address":"\"太仓路181弄新天地北里15号\r\n\""},{"poiid":"B209475CD564A7F84392","title":"上海滩浦东香格里拉店","lon":"121.50058","lat":"31.23634","category":"119","category_name":"商场","address":"浦东富成路33号香格里拉酒店内大堂层"},{"poiid":"B2094757D06EAAFD419F","title":"板长寿司(国金店)","lon":"121.498484","lat":"31.238301","category":"95","category_name":"日本料理","address":"上海浦东新区国际金融中心(LG1-18)"},{"poiid":"B2094654DA6FA7FE4098","title":"滨江大道","lon":"121.49565","lat":"31.2374","category":"116","category_name":"特色商业街","address":"陆家嘴路1号"},{"poiid":"B2094757D06FA2FF4893","title":"海鸥舫","lon":"121.49586","lat":"31.23816","category":"76","category_name":"上海菜","address":"浦东新区滨江大道2852号(滨江花园内)"},{"poiid":"B2094757D06FA3F8449F","title":"鼎泰丰(正大广场店)","lon":"121.498763442","lat":"31.23695353","category":"68","category_name":"快餐厅","address":"浦东新区陆家嘴西路168号正大广场3楼24号铺(近东方明珠)"},{"poiid":"B2094757D06FA4FA429D","title":"小南国(国际会议中心店)","lon":"121.496985714","lat":"31.2393948139","category":"76","category_name":"上海菜","address":"浦东新区滨江大道2727号国际会议中心7楼(近东方明珠电视塔)"},{"poiid":"B2094655D26FA6FF4498","title":"必胜客(正大店)","lon":"121.4989726","lat":"31.2371425","category":"94","category_name":"西餐厅","address":"浦东新区陆家嘴西路168号正大广场5楼26号铺(近东方明珠)"},{"poiid":"B2094757DA6EA6FE479E","title":"合点寿司","lon":"121.499369144441","lat":"31.2378664776674","category":"95","category_name":"日本料理","address":"浦东新区陆家嘴西路168号正大广场8楼(近东方明珠)"},{"poiid":"B2094655D26DAAF8459A","title":"The Kitchen Salvatore Cuomo","lon":"121.49733","lat":"31.24084","category":"94","category_name":"西餐厅","address":"浦东新区陆家嘴西路2967号D座(近丰和路滨江大道海鸥舫)"},{"poiid":"B2094750D26FA3FE4698","title":"上海大自然野生昆虫馆","lon":"121.497772","lat":"31.240335","category":"627","category_name":"一般地点标志","address":"上海市浦东新区丰和路1号"},{"poiid":"B2094655D26DA3FF489B","title":"外滩12号大楼","lon":"121.497","lat":"31.2418","category":"46","category_name":"楼宇","address":"黄浦区中山东一路12号"},{"poiid":"B2094757D169ABFF409D","title":"枫雅日本料理","lon":"121.495364738","lat":"31.2381594691","category":"95","category_name":"日本料理","address":"浦东新区陆家嘴西路2967号北滨江B座(近滨江大道)"},{"poiid":"B2094757D06FA0FF479B","title":"新素代(正大店)","lon":"121.498653","lat":"31.236908","category":"89","category_name":"中式素餐馆","address":"浦东新区陆家嘴西路168号正大广场5楼西区20号铺(近东方明珠)"},{"poiid":"B2094655D26FA2FA409C","title":"工商联大厦","lon":"121.496","lat":"31.2374","category":"46","category_name":"楼宇","address":"上海市黄浦区延安东路45号"},{"poiid":"B2094757D06FABF4469B","title":"天水恋 Café &amp; bar","lon":"121.49577331","lat":"31.237451553","category":"65","category_name":"咖啡厅","address":"上海外滩滨江大道"},{"poiid":"B2094654DB69A5FF409F","title":"麦当劳(正大广场店)","lon":"121.49852","lat":"31.2374","category":"68","category_name":"快餐厅","address":"浦东新区陆家嘴西路168号正大广场5楼35-36号铺(近东方明珠)"},{"poiid":"B2094654DA6FA7FD499F","title":"东方明珠游船码头","lon":"121.49693","lat":"31.24078","category":"34","category_name":"港口码头","address":"滨江大道2852号"},{"poiid":"B2094757D06BA7FA4398","title":"海鸥坊","lon":"121.498747738","lat":"31.2394844973","category":"500","category_name":"未知分类","address":"上海市浦东新区滨江大道"},{"poiid":"B2094757D068A5FD4798","title":"SCENA","lon":"121.49932544","lat":"31.238503496","category":"94","category_name":"西餐厅","address":"浦东新区世纪大道8号上海国金中心52楼丽思卡尔顿酒店(东泰路世纪大道)"},{"poiid":"B2094654DA6FABFE459E","title":"高登金融大厦","lon":"121.497","lat":"31.2388","category":"46","category_name":"楼宇","address":"上海市黄浦区延安东路58号"},{"poiid":"B2094655D26EAAF4479C","title":"仙踪林(滨江店)","lon":"121.4957","lat":"31.23923","category":"247","category_name":"餐饮美食","address":"浦东新区陆家嘴西路2967号北滨江大道A座(丰和路陆家嘴西路)"},{"poiid":"B2094750D669A6F44498","title":"麝香猫咖啡","lon":"121.498847","lat":"31.237678","category":"260","category_name":"其他","address":"浦东新区陆家嘴西路168号正大广场1楼西区GF30号(近东方明珠)"},{"poiid":"B2094654DA6FA7FE409A","title":"外滩观光隧道","lon":"121.49726","lat":"31.23839","category":"250","category_name":"公园户外","address":"滨江大道2789"},{"poiid":"B2094752D66FA2F4479A","title":"蒗葶泰式酒吧餐厅","lon":"121.498146","lat":"31.241444","category":"256","category_name":"外国餐厅","address":"上海市 滨江大道2600号"},{"poiid":"B2094757D068A7F44998","title":"枫雅铁板烧","lon":"121.49576","lat":"31.2374","category":"269","category_name":"烧烤","address":"浦东新区陆家嘴西路2967号北滨江C座(近滨江大道)"},{"poiid":"B2094757D068ABFA419D","title":"光明大厦","lon":"121.499","lat":"31.2376","category":"46","category_name":"楼宇","address":"上海市长宁区遵义南路88号"},{"poiid":"B2094654DB64AAFD439A","title":"上海城市历史发展陈列馆","lon":"121.49958","lat":"31.23951","category":"182","category_name":"博物馆","address":"浦东新区浦东世纪大道1号东方明珠零米大厅内(丰和路明珠塔路)"},{"poiid":"B2094654DB69A6F94298","title":"陆家嘴金融贸易区","lon":"121.49691","lat":"31.23827","category":"45","category_name":"产业园区","address":"浦西外滩对面"},{"poiid":"B2094655D26EA4FA479C","title":"东方滨江大酒店-滨江厅","lon":"121.49693","lat":"31.23945","category":"268","category_name":"自助","address":"浦东新区滨江大道2727号东方滨江大酒店1楼(近国际会议中心)"},{"poiid":"B2094654DA6EA5F8419A","title":"外滩金延大楼","lon":"121.49846","lat":"31.238399","category":"46","category_name":"楼宇","address":"沈河北站路与北京街的交汇处"},{"poiid":"B2094655D26DA5FE4898","title":"滨江大道(三号门)","lon":"121.49707","lat":"31.24047","category":"116","category_name":"特色商业街","address":""},{"poiid":"B2094757D065ABF4499A","title":"东方明珠观光走廊","lon":"121.4993702","lat":"31.239805224","category":"500","category_name":"未知分类","address":"上海陆家嘴"},{"poiid":"B2094750DA6EA1FF4793","title":"金茂九重天酒吧","lon":"121.498138","lat":"31.240051","category":"248","category_name":"生活娱乐","address":"浦东新区世纪大道88号"},{"poiid":"B2094655D26FAAF8489F","title":"万向大厦","lon":"121.49777","lat":"31.23761","category":"46","category_name":"楼宇","address":"浦东区陆家嘴西路99号"},{"poiid":"B2094751D565A2FD449F","title":"国金中心","lon":"121.497239","lat":"31.238739","category":"247","category_name":"餐饮美食","address":"世纪大道8号"},{"poiid":"B2094757DB69A6F84493","title":"hoF bar&brasserie","lon":"121.497146","lat":"31.241518","category":"247","category_name":"餐饮美食","address":"陆家嘴环路1318号"},{"poiid":"B2094757DA68A2F84098","title":"莫顿牛排","lon":"121.49699519953022","lat":"31.23909712592591","category":"247","category_name":"餐饮美食","address":"滨江大道"},{"poiid":"B2094752D66BA7FF4193","title":"kathleen\\'s waitan","lon":"121.497209","lat":"31.239785","category":"247","category_name":"餐饮美食","address":"黄埔路200号4楼"},{"poiid":"B2094757D16AA6FC4093","title":"东方滨江大酒店华夏厅","lon":"121.497315","lat":"31.240235","category":"268","category_name":"自助","address":"浦东新区滨江大道2727号东方滨江大酒店1楼(近国际会议中心)"},{"poiid":"B2094655D26AABFC459F","title":"国际会议中心VIP包房","lon":"121.49693","lat":"31.23945","category":"247","category_name":"餐饮美食","address":"滨江大道2727号东方滨江大酒店7楼"},{"poiid":"B209475CD169A5F84998","title":"Café Lugo","lon":"121.498863","lat":"31.237592","category":"500","category_name":"未知分类","address":"上海市 上海市浦东新区陆家嘴西路168号正大广场1楼"},{"poiid":"B2094655D26DA2F8449B","title":"滨江休闲街(正大广场西)","lon":"121.49803","lat":"31.2367","category":"116","category_name":"特色商业街","address":""},{"poiid":"B2094752DA69AAFD449E","title":"国金百丽宫电影院","lon":"121.497422","lat":"31.236594","category":"500","category_name":"未知分类","address":"上海市 浦东陆家嘴"},{"poiid":"B2094753D769AAFC4299","title":"上海小南国(国会店)","lon":"121.49696","lat":"31.23925","category":"76","category_name":"上海菜","address":"上海市浦东新区滨江大道2727号东方滨江大酒店7楼(近东方明珠电视塔)"},{"poiid":"B209475CD265A4FF4393","title":"东方滨江大酒店宴会厅","lon":"121.496771054","lat":"31.239294793","category":"72","category_name":"广东菜","address":"滨江大道2727号上海国际会议中心东方滨江大酒店7楼近丰和路"},{"poiid":"B2094654DB6BA4F54899","title":"东方明珠演艺剧场","lon":"121.49967","lat":"31.23988","category":"180","category_name":"剧场","address":"浦东新区浦东世纪大道1号东方明珠塔8号门(近二号线陆家嘴站)"},{"poiid":"B2094654DA6FA7FD4993","title":"上海国际会议中心(Shanghai International Conference Center)","lon":"121.49694","lat":"31.23946","category":"185","category_name":"会展中心","address":"浦东新区滨江大道2727号(近丰和路)"},{"poiid":"B2094654DA6FA7FC449A","title":"东方明珠广播电视塔","lon":"121.49967","lat":"31.23988","category":"240","category_name":"国家级景点","address":"浦东浦东新区世纪大道1号"},{"poiid":"B2094654DB64A5FE4098","title":"上海东方明珠塔","lon":"121.49958","lat":"31.23952","category":"247","category_name":"餐饮美食","address":"浦东新区浦东世纪大道1号(近二号线陆家嘴站)"},{"poiid":"B209475CD564A7F84292","title":"上海滩新天地店","lon":"121.47463","lat":"31.22164","category":"119","category_name":"商场","address":"\"太仓路181弄新天地北里15号\r\n\""},{"poiid":"B209475CD564A7F84392","title":"上海滩浦东香格里拉店","lon":"121.50058","lat":"31.23634","category":"119","category_name":"商场","address":"浦东富成路33号香格里拉酒店内大堂层"},{"poiid":"B2094757D06EAAFD419F","title":"板长寿司(国金店)","lon":"121.498484","lat":"31.238301","category":"95","category_name":"日本料理","address":"上海浦东新区国际金融中心(LG1-18)"},{"poiid":"B2094654DA6FA7FE4098","title":"滨江大道","lon":"121.49565","lat":"31.2374","category":"116","category_name":"特色商业街","address":"陆家嘴路1号"},{"poiid":"B2094757D06FA2FF4893","title":"海鸥舫","lon":"121.49586","lat":"31.23816","category":"76","category_name":"上海菜","address":"浦东新区滨江大道2852号(滨江花园内)"},{"poiid":"B2094757D06FA3F8449F","title":"鼎泰丰(正大广场店)","lon":"121.498763442","lat":"31.23695353","category":"68","category_name":"快餐厅","address":"浦东新区陆家嘴西路168号正大广场3楼24号铺(近东方明珠)"},{"poiid":"B2094757D06FA4FA429D","title":"小南国(国际会议中心店)","lon":"121.496985714","lat":"31.2393948139","category":"76","category_name":"上海菜","address":"浦东新区滨江大道2727号国际会议中心7楼(近东方明珠电视塔)"},{"poiid":"B2094655D26FA6FF4498","title":"必胜客(正大店)","lon":"121.4989726","lat":"31.2371425","category":"94","category_name":"西餐厅","address":"浦东新区陆家嘴西路168号正大广场5楼26号铺(近东方明珠)"},{"poiid":"B2094757DA6EA6FE479E","title":"合点寿司","lon":"121.499369144441","lat":"31.2378664776674","category":"95","category_name":"日本料理","address":"浦东新区陆家嘴西路168号正大广场8楼(近东方明珠)"},{"poiid":"B2094655D26DAAF8459A","title":"The Kitchen Salvatore Cuomo","lon":"121.49733","lat":"31.24084","category":"94","category_name":"西餐厅","address":"浦东新区陆家嘴西路2967号D座(近丰和路滨江大道海鸥舫)"},{"poiid":"B2094750D26FA3FE4698","title":"上海大自然野生昆虫馆","lon":"121.497772","lat":"31.240335","category":"627","category_name":"一般地点标志","address":"上海市浦东新区丰和路1号"},{"poiid":"B2094655D26DA3FF489B","title":"外滩12号大楼","lon":"121.497","lat":"31.2418","category":"46","category_name":"楼宇","address":"黄浦区中山东一路12号"},{"poiid":"B2094757D169ABFF409D","title":"枫雅日本料理","lon":"121.495364738","lat":"31.2381594691","category":"95","category_name":"日本料理","address":"浦东新区陆家嘴西路2967号北滨江B座(近滨江大道)"},{"poiid":"B2094757D06FA0FF479B","title":"新素代(正大店)","lon":"121.498653","lat":"31.236908","category":"89","category_name":"中式素餐馆","address":"浦东新区陆家嘴西路168号正大广场5楼西区20号铺(近东方明珠)"},{"poiid":"B2094655D26FA2FA409C","title":"工商联大厦","lon":"121.496","lat":"31.2374","category":"46","category_name":"楼宇","address":"上海市黄浦区延安东路45号"},{"poiid":"B2094757D06FABF4469B","title":"天水恋 Café &amp; bar","lon":"121.49577331","lat":"31.237451553","category":"65","category_name":"咖啡厅","address":"上海外滩滨江大道"},{"poiid":"B2094654DB69A5FF409F","title":"麦当劳(正大广场店)","lon":"121.49852","lat":"31.2374","category":"68","category_name":"快餐厅","address":"浦东新区陆家嘴西路168号正大广场5楼35-36号铺(近东方明珠)"},{"poiid":"B2094654DA6FA7FD499F","title":"东方明珠游船码头","lon":"121.49693","lat":"31.24078","category":"34","category_name":"港口码头","address":"滨江大道2852号"},{"poiid":"B2094757D06BA7FA4398","title":"海鸥坊","lon":"121.498747738","lat":"31.2394844973","category":"500","category_name":"未知分类","address":"上海市浦东新区滨江大道"},{"poiid":"B2094757D068A5FD4798","title":"SCENA","lon":"121.49932544","lat":"31.238503496","category":"94","category_name":"西餐厅","address":"浦东新区世纪大道8号上海国金中心52楼丽思卡尔顿酒店(东泰路世纪大道)"},{"poiid":"B2094654DA6FABFE459E","title":"高登金融大厦","lon":"121.497","lat":"31.2388","category":"46","category_name":"楼宇","address":"上海市黄浦区延安东路58号"},{"poiid":"B2094655D26EAAF4479C","title":"仙踪林(滨江店)","lon":"121.4957","lat":"31.23923","category":"247","category_name":"餐饮美食","address":"浦东新区陆家嘴西路2967号北滨江大道A座(丰和路陆家嘴西路)"},{"poiid":"B2094750D669A6F44498","title":"麝香猫咖啡","lon":"121.498847","lat":"31.237678","category":"260","category_name":"其他","address":"浦东新区陆家嘴西路168号正大广场1楼西区GF30号(近东方明珠)"},{"poiid":"B2094654DA6FA7FE409A","title":"外滩观光隧道","lon":"121.49726","lat":"31.23839","category":"250","category_name":"公园户外","address":"滨江大道2789"},{"poiid":"B2094752D66FA2F4479A","title":"蒗葶泰式酒吧餐厅","lon":"121.498146","lat":"31.241444","category":"256","category_name":"外国餐厅","address":"上海市 滨江大道2600号"},{"poiid":"B2094757D068A7F44998","title":"枫雅铁板烧","lon":"121.49576","lat":"31.2374","category":"269","category_name":"烧烤","address":"浦东新区陆家嘴西路2967号北滨江C座(近滨江大道)"},{"poiid":"B2094757D068ABFA419D","title":"光明大厦","lon":"121.499","lat":"31.2376","category":"46","category_name":"楼宇","address":"上海市长宁区遵义南路88号"},{"poiid":"B2094654DB64AAFD439A","title":"上海城市历史发展陈列馆","lon":"121.49958","lat":"31.23951","category":"182","category_name":"博物馆","address":"浦东新区浦东世纪大道1号东方明珠零米大厅内(丰和路明珠塔路)"},{"poiid":"B2094654DB69A6F94298","title":"陆家嘴金融贸易区","lon":"121.49691","lat":"31.23827","category":"45","category_name":"产业园区","address":"浦西外滩对面"},{"poiid":"B2094655D26EA4FA479C","title":"东方滨江大酒店-滨江厅","lon":"121.49693","lat":"31.23945","category":"268","category_name":"自助","address":"浦东新区滨江大道2727号东方滨江大酒店1楼(近国际会议中心)"},{"poiid":"B2094654DA6EA5F8419A","title":"外滩金延大楼","lon":"121.49846","lat":"31.238399","category":"46","category_name":"楼宇","address":"沈河北站路与北京街的交汇处"},{"poiid":"B2094655D26DA5FE4898","title":"滨江大道(三号门)","lon":"121.49707","lat":"31.24047","category":"116","category_name":"特色商业街","address":""},{"poiid":"B2094757D065ABF4499A","title":"东方明珠观光走廊","lon":"121.4993702","lat":"31.239805224","category":"500","category_name":"未知分类","address":"上海陆家嘴"},{"poiid":"B2094750DA6EA1FF4793","title":"金茂九重天酒吧","lon":"121.498138","lat":"31.240051","category":"248","category_name":"生活娱乐","address":"浦东新区世纪大道88号"},{"poiid":"B2094655D26FAAF8489F","title":"万向大厦","lon":"121.49777","lat":"31.23761","category":"46","category_name":"楼宇","address":"浦东区陆家嘴西路99号"},{"poiid":"B2094751D565A2FD449F","title":"国金中心","lon":"121.497239","lat":"31.238739","category":"247","category_name":"餐饮美食","address":"世纪大道8号"},{"poiid":"B2094757DB69A6F84493","title":"hoF bar&brasserie","lon":"121.497146","lat":"31.241518","category":"247","category_name":"餐饮美食","address":"陆家嘴环路1318号"},{"poiid":"B2094757DA68A2F84098","title":"莫顿牛排","lon":"121.49699519953022","lat":"31.23909712592591","category":"247","category_name":"餐饮美食","address":"滨江大道"},{"poiid":"B2094752D66BA7FF4193","title":"kathleen\\'s waitan","lon":"121.497209","lat":"31.239785","category":"247","category_name":"餐饮美食","address":"黄埔路200号4楼"},{"poiid":"B2094757D16AA6FC4093","title":"东方滨江大酒店华夏厅","lon":"121.497315","lat":"31.240235","category":"268","category_name":"自助","address":"浦东新区滨江大道2727号东方滨江大酒店1楼(近国际会议中心)"},{"poiid":"B2094655D26AABFC459F","title":"国际会议中心VIP包房","lon":"121.49693","lat":"31.23945","category":"247","category_name":"餐饮美食","address":"滨江大道2727号东方滨江大酒店7楼"},{"poiid":"B209475CD169A5F84998","title":"Café Lugo","lon":"121.498863","lat":"31.237592","category":"500","category_name":"未知分类","address":"上海市 上海市浦东新区陆家嘴西路168号正大广场1楼"},{"poiid":"B2094655D26DA2F8449B","title":"滨江休闲街(正大广场西)","lon":"121.49803","lat":"31.2367","category":"116","category_name":"特色商业街","address":""},{"poiid":"B2094752DA69AAFD449E","title":"国金百丽宫电影院","lon":"121.497422","lat":"31.236594","category":"500","category_name":"未知分类","address":"上海市 浦东陆家嘴"},{"poiid":"B2094753D769AAFC4299","title":"上海小南国(国会店)","lon":"121.49696","lat":"31.23925","category":"76","category_name":"上海菜","address":"上海市浦东新区滨江大道2727号东方滨江大酒店7楼(近东方明珠电视塔)"},{"poiid":"B209475CD265A4FF4393","title":"东方滨江大酒店宴会厅","lon":"121.496771054","lat":"31.239294793","category":"72","category_name":"广东菜","address":"滨江大道2727号上海国际会议中心东方滨江大酒店7楼近丰和路"},{"poiid":"B2094654DB6BA4F54899","title":"东方明珠演艺剧场","lon":"121.49967","lat":"31.23988","category":"180","category_name":"剧场","address":"浦东新区浦东世纪大道1号东方明珠塔8号门(近二号线陆家嘴站)"}]