[{"poiid":"B2094757D065A6FE479C","title":"长风景畔广场","lon":"121.394962586","lat":"31.2244993189","category":"500","category_name":"未知分类","address":"普陀区大渡河路178号(近云岭东路)"},{"poiid":"B2094757D06FA2F8479F","title":"国丰酒店","lon":"121.39482","lat":"31.22337","category":"213","category_name":"五星级宾馆","address":"上海普陀区云岭东路78号3号座(大渡河路口)"},{"poiid":"B2094757D469A0FF419D","title":"俏江南 长风景畔店","lon":"121.39551401138","lat":"31.223022770312","category":"71","category_name":"四川菜","address":"普陀区大渡河路168弄56号长风景畔广场3楼15-17室(近长风公园4号门)"},{"poiid":"B2094757DA6AA5FE449C","title":"斗牛士","lon":"121.3905061562251","lat":"31.22449035448877","category":"247","category_name":"餐饮美食","address":"普陀区大渡河路178号长风景畔广场4楼25-26室(近长风公园4号门)"},{"poiid":"B2094757D06FA0FF469B","title":"旭辉世纪广场","lon":"121.3822","lat":"31.22545","category":"119","category_name":"商场","address":"普陀区丹巴路28号"},{"poiid":"B2094750D26FA2FF4992","title":"满记甜品","lon":"121.385932","lat":"31.216424","category":"67","category_name":"甜品店","address":"长宁区天山路341号缤谷文化休闲广场1楼(近威宁路)"},{"poiid":"B2094655D26BA6FB439F","title":"天山怡景苑","lon":"121.38357","lat":"31.218071","category":"47","category_name":"住宅区","address":"上海市长宁区威宁路511弄"},{"poiid":"B2094654D569A4FA499F","title":"天山大厦","lon":"121.385","lat":"31.2218","category":"46","category_name":"楼宇","address":"珠江新城华穗路与华利路交汇处"},{"poiid":"B2094757D06FABF44293","title":"天山中学","lon":"121.39039","lat":"31.21693","category":"55","category_name":"中学","address":"长宁区天中路155号(近天山西路)"},{"poiid":"B2094751D568ABF44399","title":"禅边","lon":"121.394104","lat":"31.225416","category":"247","category_name":"餐饮美食","address":"普陀区云岭东路88号成龙电影艺术馆2号楼(近中江路)"},{"poiid":"B2094750D565A5FB439D","title":"海老","lon":"121.395545","lat":"31.222381","category":"247","category_name":"餐饮美食","address":"普陀区大渡河路196号长风公园景畔广场4楼38号铺(近云岭东路)"},{"poiid":"B2094655D26FA1FE439F","title":"汇银铭尊","lon":"121.39","lat":"31.2267","category":"46","category_name":"楼宇","address":"云岭东路599弄18号"},{"poiid":"B2094655D26BA1F4469A","title":"华东师范大学学生公寓","lon":"121.39163","lat":"31.22971","category":"47","category_name":"住宅区","address":"中江路629"},{"poiid":"B2094757D06AA0FD429A","title":"二号线中山公园站","lon":"121.389455986","lat":"31.2304233348","category":"36","category_name":"地铁站","address":"上海中山公园站"},{"poiid":"B2094757D164A4F4439F","title":"阿拉丁麻辣烫","lon":"121.394442586","lat":"31.2254923384","category":"68","category_name":"快餐厅","address":"普陀区大渡河路178号长风景畔广场B1楼1铺(近长风公园)"},{"poiid":"B2094757D66DA3FB489C","title":"Citaly","lon":"121.386756186","lat":"31.2176076841","category":"500","category_name":"未知分类","address":"长宁区天山路341号缤谷文化休闲广场201号(近威宁路)"},{"poiid":"B2094757D569A0FC489A","title":"汇银金融商务中心","lon":"121.3877506","lat":"31.22428889","category":"46","category_name":"楼宇","address":"云岭东路599弄"},{"poiid":"B2094753D26DA7F9469F","title":"3D奇幻印象馆","lon":"121.39337537817","lat":"31.225413167114","category":"183","category_name":"展览馆","address":"普陀区大渡河路452号国盛时尚中心2楼（长风海洋世界对面）"},{"poiid":"B2094757D06FA4FD4892","title":"天山华庭","lon":"121.38657","lat":"31.216274","category":"47","category_name":"住宅区","address":"上海市长宁区威宁路458弄"},{"poiid":"B2094655D36DA7FC4598","title":"云岭东路泸定路","lon":"121.38733","lat":"31.22291","category":"38","category_name":"公交车站","address":""},{"poiid":"B2094757D065A3F9489E","title":"上海赢华国际广场","lon":"121.385167586","lat":"31.2210462514","category":"252","category_name":"楼宇机构","address":"重庆市渝中区解放碑步行街民族路188号(女人广场旁)"},{"poiid":"B2094654D56BABFD4593","title":"晟星都市工业园区","lon":"121.38792","lat":"31.22334","category":"45","category_name":"产业园区","address":"云岭东路434"},{"poiid":"B2094655D265AAF84299","title":"长风国际大厦","lon":"121.39325","lat":"31.22319","category":"46","category_name":"楼宇","address":"云岭东路88号-1"},{"poiid":"B2094751D469AAFF4793","title":"上海跨国采购会展中心","lon":"121.389328","lat":"31.22277","category":"627","category_name":"一般地点标志","address":"普陀区中江路35号"},{"poiid":"B2094752D76DA5FA419F","title":"龙庭会所","lon":"121.386397","lat":"31.226794","category":"247","category_name":"餐饮美食","address":"云岭东路88号"},{"poiid":"B2094752D76CA4F8489E","title":"海亮大厦","lon":"121.386355","lat":"31.224745","category":"252","category_name":"楼宇机构","address":"上海市普陀区大渡河路"},{"poiid":"B2094757D16BABF5479F","title":"国丰酒店锦丰咖啡厅","lon":"121.394137586","lat":"31.2243041151","category":"268","category_name":"自助","address":"普陀区大渡河路388号国盛中心1号座1楼(近云岭东路)"},{"poiid":"B2094753D064ABFD429A","title":"上海市儿童医院","lon":"121.38798","lat":"31.22758","category":"162","category_name":"医院","address":"普陀区同普路(近泸定路尚在筹建)"},{"poiid":"B2094757D16BA6F5459B","title":"龙之梦 KFC","lon":"121.387229886","lat":"31.2249260273","category":"249","category_name":"购物服务","address":"上海长宁路1018号B1"},{"poiid":"B2094757D164A7F9419B","title":"上海化工研究院","lon":"121.38908158","lat":"31.221111252","category":"253","category_name":"校园生活","address":"上海市普陀区云岭东路345号"},{"poiid":"B2094757D46CA7FA4798","title":"肯德基 云岭东路店 KFC","lon":"121.3946944","lat":"31.2236697","category":"68","category_name":"快餐厅","address":"普陀区大渡河路588号国盛时尚购物中心1楼"},{"poiid":"B2094750D665A4F84498","title":"太平洋咖啡(长风景畔广场店)","lon":"121.395","lat":"31.223","category":"260","category_name":"其他","address":"普陀区大渡河路178号长风景畔广场1楼108室(近长风公园4号门)"},{"poiid":"B209475DD664A5FC499D","title":"上海市儿童医院普陀新院","lon":"121.389511","lat":"31.2257","category":"252","category_name":"楼宇机构","address":"上海市 同普路517号"},{"poiid":"B2094757D16CA7FC489E","title":"珍缘味港式茶餐厅","lon":"121.39503778","lat":"31.224848925","category":"72","category_name":"广东菜","address":"普陀区大渡河路452号国盛中心3楼(长风公园4号门对面)"},{"poiid":"B2094654D569A4FB429D","title":"哈密小区","lon":"121.38367937419","lat":"31.2238962111","category":"47","category_name":"住宅区","address":"哈密路11弄"},{"poiid":"B2094757D16EAAFE4892","title":"东渡国际大厦","lon":"121.381794586","lat":"31.2222152743","category":"252","category_name":"楼宇机构","address":"上海云岭东路651弄"},{"poiid":"B2094757D068A7F84493","title":"觉味川菜","lon":"121.385935403","lat":"31.2181800932","category":"71","category_name":"四川菜","address":"长宁区天山路341号缤谷文化休闲广场C310号商铺(近威宁路)"},{"poiid":"B2094750D26EA4FD439A","title":"中海紫御豪庭","lon":"121.38219299612","lat":"31.228013246839","category":"47","category_name":"住宅区","address":"同普路688号(近丹巴路)"},{"poiid":"B2094757D06BA5F94599","title":"荷风轩","lon":"121.38569478","lat":"31.215802882","category":"247","category_name":"餐饮美食","address":"上海长宁区天山路341号缤谷文化休闲广场4楼"},{"poiid":"B2094757D164A4FA4793","title":"爱乐游国盛中心店","lon":"121.38910918","lat":"31.223681302","category":"500","category_name":"未知分类","address":"上海大渡河路588号2楼"},{"poiid":"B2094454D368A6F5439D","title":"上海市儿童医院普陀分院","lon":"121.386947","lat":"31.226688","category":"627","category_name":"一般地点标志","address":"上海市 泸定路355号"},{"poiid":"B2094757D065A1FC479D","title":"中国网络游戏服务网5173.com","lon":"121.382666406","lat":"31.2209064987","category":"46","category_name":"楼宇","address":"上海云岭东路599弄汇银铭尊20号"},{"poiid":"B2094757D46EA4F54499","title":"I.Z.K.Y.居酒屋","lon":"121.39466","lat":"31.22366","category":"95","category_name":"日本料理","address":"普陀区大渡河路388号国盛中心1号座1楼(近云岭东路)"},{"poiid":"B2094751D26BA3FC499E","title":"长风景畔乐乐派","lon":"121.3905534","lat":"31.2242907","category":"248","category_name":"生活娱乐","address":"大渡河路196号"},{"poiid":"B2094757D168A7F5459A","title":"one club","lon":"121.389333586","lat":"31.224811425","category":"500","category_name":"未知分类","address":"上海柳林路"},{"poiid":"B2094655D36CA6F54699","title":"丹巴路云岭东路","lon":"121.38169","lat":"31.2252","category":"38","category_name":"公交车站","address":""},{"poiid":"B2094757D069A1FF4698","title":"咕喱咕啦","lon":"121.38178358","lat":"31.222224274","category":"94","category_name":"西餐厅","address":"普陀区丹巴路28弄36号104室(近旭辉广场36号的全家便利)"},{"poiid":"B2094757D66FA7F44692","title":"斯皮尔博格","lon":"121.384181686","lat":"31.224450118","category":"500","category_name":"未知分类","address":"上海云岭东路"},{"poiid":"B2094752D36DA5F9469D","title":"上海17.5影城北虹店","lon":"121.38349","lat":"31.22049","category":"178","category_name":"电影院","address":"上海市长宁区北虹路1068号第四层B区"},{"poiid":"B2094654D56BA6FC459B","title":"光华大厦","lon":"121.39","lat":"31.2166","category":"46","category_name":"楼宇","address":"沈河北站路与北京街的交汇处"},{"poiid":"B2094757D065A6FE479C","title":"长风景畔广场","lon":"121.394962586","lat":"31.2244993189","category":"500","category_name":"未知分类","address":"普陀区大渡河路178号(近云岭东路)"},{"poiid":"B2094757D06FA2F8479F","title":"国丰酒店","lon":"121.39482","lat":"31.22337","category":"213","category_name":"五星级宾馆","address":"上海普陀区云岭东路78号3号座(大渡河路口)"},{"poiid":"B2094757D469A0FF419D","title":"俏江南 长风景畔店","lon":"121.39551401138","lat":"31.223022770312","category":"71","category_name":"四川菜","address":"普陀区大渡河路168弄56号长风景畔广场3楼15-17室(近长风公园4号门)"},{"poiid":"B2094757DA6AA5FE449C","title":"斗牛士","lon":"121.3905061562251","lat":"31.22449035448877","category":"247","category_name":"餐饮美食","address":"普陀区大渡河路178号长风景畔广场4楼25-26室(近长风公园4号门)"},{"poiid":"B2094757D06FA0FF469B","title":"旭辉世纪广场","lon":"121.3822","lat":"31.22545","category":"119","category_name":"商场","address":"普陀区丹巴路28号"},{"poiid":"B2094750D26FA2FF4992","title":"满记甜品","lon":"121.385932","lat":"31.216424","category":"67","category_name":"甜品店","address":"长宁区天山路341号缤谷文化休闲广场1楼(近威宁路)"},{"poiid":"B2094655D26BA6FB439F","title":"天山怡景苑","lon":"121.38357","lat":"31.218071","category":"47","category_name":"住宅区","address":"上海市长宁区威宁路511弄"},{"poiid":"B2094654D569A4FA499F","title":"天山大厦","lon":"121.385","lat":"31.2218","category":"46","category_name":"楼宇","address":"珠江新城华穗路与华利路交汇处"},{"poiid":"B2094757D06FABF44293","title":"天山中学","lon":"121.39039","lat":"31.21693","category":"55","category_name":"中学","address":"长宁区天中路155号(近天山西路)"},{"poiid":"B2094751D568ABF44399","title":"禅边","lon":"121.394104","lat":"31.225416","category":"247","category_name":"餐饮美食","address":"普陀区云岭东路88号成龙电影艺术馆2号楼(近中江路)"},{"poiid":"B2094750D565A5FB439D","title":"海老","lon":"121.395545","lat":"31.222381","category":"247","category_name":"餐饮美食","address":"普陀区大渡河路196号长风公园景畔广场4楼38号铺(近云岭东路)"},{"poiid":"B2094655D26FA1FE439F","title":"汇银铭尊","lon":"121.39","lat":"31.2267","category":"46","category_name":"楼宇","address":"云岭东路599弄18号"},{"poiid":"B2094655D26BA1F4469A","title":"华东师范大学学生公寓","lon":"121.39163","lat":"31.22971","category":"47","category_name":"住宅区","address":"中江路629"},{"poiid":"B2094757D06AA0FD429A","title":"二号线中山公园站","lon":"121.389455986","lat":"31.2304233348","category":"36","category_name":"地铁站","address":"上海中山公园站"},{"poiid":"B2094757D164A4F4439F","title":"阿拉丁麻辣烫","lon":"121.394442586","lat":"31.2254923384","category":"68","category_name":"快餐厅","address":"普陀区大渡河路178号长风景畔广场B1楼1铺(近长风公园)"},{"poiid":"B2094757D66DA3FB489C","title":"Citaly","lon":"121.386756186","lat":"31.2176076841","category":"500","category_name":"未知分类","address":"长宁区天山路341号缤谷文化休闲广场201号(近威宁路)"},{"poiid":"B2094757D569A0FC489A","title":"汇银金融商务中心","lon":"121.3877506","lat":"31.22428889","category":"46","category_name":"楼宇","address":"云岭东路599弄"},{"poiid":"B2094753D26DA7F9469F","title":"3D奇幻印象馆","lon":"121.39337537817","lat":"31.225413167114","category":"183","category_name":"展览馆","address":"普陀区大渡河路452号国盛时尚中心2楼（长风海洋世界对面）"},{"poiid":"B2094757D06FA4FD4892","title":"天山华庭","lon":"121.38657","lat":"31.216274","category":"47","category_name":"住宅区","address":"上海市长宁区威宁路458弄"},{"poiid":"B2094655D36DA7FC4598","title":"云岭东路泸定路","lon":"121.38733","lat":"31.22291","category":"38","category_name":"公交车站","address":""},{"poiid":"B2094757D065A3F9489E","title":"上海赢华国际广场","lon":"121.385167586","lat":"31.2210462514","category":"252","category_name":"楼宇机构","address":"重庆市渝中区解放碑步行街民族路188号(女人广场旁)"},{"poiid":"B2094654D56BABFD4593","title":"晟星都市工业园区","lon":"121.38792","lat":"31.22334","category":"45","category_name":"产业园区","address":"云岭东路434"},{"poiid":"B2094655D265AAF84299","title":"长风国际大厦","lon":"121.39325","lat":"31.22319","category":"46","category_name":"楼宇","address":"云岭东路88号-1"},{"poiid":"B2094751D469AAFF4793","title":"上海跨国采购会展中心","lon":"121.389328","lat":"31.22277","category":"627","category_name":"一般地点标志","address":"普陀区中江路35号"},{"poiid":"B2094752D76DA5FA419F","title":"龙庭会所","lon":"121.386397","lat":"31.226794","category":"247","category_name":"餐饮美食","address":"云岭东路88号"},{"poiid":"B2094752D76CA4F8489E","title":"海亮大厦","lon":"121.386355","lat":"31.224745","category":"252","category_name":"楼宇机构","address":"上海市普陀区大渡河路"},{"poiid":"B2094757D16BABF5479F","title":"国丰酒店锦丰咖啡厅","lon":"121.394137586","lat":"31.2243041151","category":"268","category_name":"自助","address":"普陀区大渡河路388号国盛中心1号座1楼(近云岭东路)"},{"poiid":"B2094753D064ABFD429A","title":"上海市儿童医院","lon":"121.38798","lat":"31.22758","category":"162","category_name":"医院","address":"普陀区同普路(近泸定路尚在筹建)"},{"poiid":"B2094757D16BA6F5459B","title":"龙之梦 KFC","lon":"121.387229886","lat":"31.2249260273","category":"249","category_name":"购物服务","address":"上海长宁路1018号B1"},{"poiid":"B2094757D164A7F9419B","title":"上海化工研究院","lon":"121.38908158","lat":"31.221111252","category":"253","category_name":"校园生活","address":"上海市普陀区云岭东路345号"},{"poiid":"B2094757D46CA7FA4798","title":"肯德基 云岭东路店 KFC","lon":"121.3946944","lat":"31.2236697","category":"68","category_name":"快餐厅","address":"普陀区大渡河路588号国盛时尚购物中心1楼"},{"poiid":"B2094750D665A4F84498","title":"太平洋咖啡(长风景畔广场店)","lon":"121.395","lat":"31.223","category":"260","category_name":"其他","address":"普陀区大渡河路178号长风景畔广场1楼108室(近长风公园4号门)"},{"poiid":"B209475DD664A5FC499D","title":"上海市儿童医院普陀新院","lon":"121.389511","lat":"31.2257","category":"252","category_name":"楼宇机构","address":"上海市 同普路517号"},{"poiid":"B2094757D16CA7FC489E","title":"珍缘味港式茶餐厅","lon":"121.39503778","lat":"31.224848925","category":"72","category_name":"广东菜","address":"普陀区大渡河路452号国盛中心3楼(长风公园4号门对面)"},{"poiid":"B2094654D569A4FB429D","title":"哈密小区","lon":"121.38367937419","lat":"31.2238962111","category":"47","category_name":"住宅区","address":"哈密路11弄"},{"poiid":"B2094757D16EAAFE4892","title":"东渡国际大厦","lon":"121.381794586","lat":"31.2222152743","category":"252","category_name":"楼宇机构","address":"上海云岭东路651弄"},{"poiid":"B2094757D068A7F84493","title":"觉味川菜","lon":"121.385935403","lat":"31.2181800932","category":"71","category_name":"四川菜","address":"长宁区天山路341号缤谷文化休闲广场C310号商铺(近威宁路)"},{"poiid":"B2094750D26EA4FD439A","title":"中海紫御豪庭","lon":"121.38219299612","lat":"31.228013246839","category":"47","category_name":"住宅区","address":"同普路688号(近丹巴路)"},{"poiid":"B2094757D06BA5F94599","title":"荷风轩","lon":"121.38569478","lat":"31.215802882","category":"247","category_name":"餐饮美食","address":"上海长宁区天山路341号缤谷文化休闲广场4楼"},{"poiid":"B2094757D164A4FA4793","title":"爱乐游国盛中心店","lon":"121.38910918","lat":"31.223681302","category":"500","category_name":"未知分类","address":"上海大渡河路588号2楼"},{"poiid":"B2094454D368A6F5439D","title":"上海市儿童医院普陀分院","lon":"121.386947","lat":"31.226688","category":"627","category_name":"一般地点标志","address":"上海市 泸定路355号"},{"poiid":"B2094757D065A1FC479D","title":"中国网络游戏服务网5173.com","lon":"121.382666406","lat":"31.2209064987","category":"46","category_name":"楼宇","address":"上海云岭东路599弄汇银铭尊20号"},{"poiid":"B2094757D46EA4F54499","title":"I.Z.K.Y.居酒屋","lon":"121.39466","lat":"31.22366","category":"95","category_name":"日本料理","address":"普陀区大渡河路388号国盛中心1号座1楼(近云岭东路)"},{"poiid":"B2094751D26BA3FC499E","title":"长风景畔乐乐派","lon":"121.3905534","lat":"31.2242907","category":"248","category_name":"生活娱乐","address":"大渡河路196号"},{"poiid":"B2094757D168A7F5459A","title":"one club","lon":"121.389333586","lat":"31.224811425","category":"500","category_name":"未知分类","address":"上海柳林路"},{"poiid":"B2094655D36CA6F54699","title":"丹巴路云岭东路","lon":"121.38169","lat":"31.2252","category":"38","category_name":"公交车站","address":""},{"poiid":"B2094757D069A1FF4698","title":"咕喱咕啦","lon":"121.38178358","lat":"31.222224274","category":"94","category_name":"西餐厅","address":"普陀区丹巴路28弄36号104室(近旭辉广场36号的全家便利)"},{"poiid":"B2094757D66FA7F44692","title":"斯皮尔博格","lon":"121.384181686","lat":"31.224450118","category":"500","category_name":"未知分类","address":"上海云岭东路"},{"poiid":"B2094752D36DA5F9469D","title":"上海17.5影城北虹店","lon":"121.38349","lat":"31.22049","category":"178","category_name":"电影院","address":"上海市长宁区北虹路1068号第四层B区"},{"poiid":"B2094654D56BA6FC459B","title":"光华大厦","lon":"121.39","lat":"31.2166","category":"46","category_name":"楼宇","address":"沈河北站路与北京街的交汇处"},{"poiid":"B2094757D065A6FE479C","title":"长风景畔广场","lon":"121.394962586","lat":"31.2244993189","category":"500","category_name":"未知分类","address":"普陀区大渡河路178号(近云岭东路)"},{"poiid":"B2094757D06FA2F8479F","title":"国丰酒店","lon":"121.39482","lat":"31.22337","category":"213","category_name":"五星级宾馆","address":"上海普陀区云岭东路78号3号座(大渡河路口)"},{"poiid":"B2094757D469A0FF419D","title":"俏江南 长风景畔店","lon":"121.39551401138","lat":"31.223022770312","category":"71","category_name":"四川菜","address":"普陀区大渡河路168弄56号长风景畔广场3楼15-17室(近长风公园4号门)"},{"poiid":"B2094757DA6AA5FE449C","title":"斗牛士","lon":"121.3905061562251","lat":"31.22449035448877","category":"247","category_name":"餐饮美食","address":"普陀区大渡河路178号长风景畔广场4楼25-26室(近长风公园4号门)"},{"poiid":"B2094757D06FA0FF469B","title":"旭辉世纪广场","lon":"121.3822","lat":"31.22545","category":"119","category_name":"商场","address":"普陀区丹巴路28号"},{"poiid":"B2094750D26FA2FF4992","title":"满记甜品","lon":"121.385932","lat":"31.216424","category":"67","category_name":"甜品店","address":"长宁区天山路341号缤谷文化休闲广场1楼(近威宁路)"},{"poiid":"B2094655D26BA6FB439F","title":"天山怡景苑","lon":"121.38357","lat":"31.218071","category":"47","category_name":"住宅区","address":"上海市长宁区威宁路511弄"},{"poiid":"B2094654D569A4FA499F","title":"天山大厦","lon":"121.385","lat":"31.2218","category":"46","category_name":"楼宇","address":"珠江新城华穗路与华利路交汇处"},{"poiid":"B2094757D06FABF44293","title":"天山中学","lon":"121.39039","lat":"31.21693","category":"55","category_name":"中学","address":"长宁区天中路155号(近天山西路)"},{"poiid":"B2094751D568ABF44399","title":"禅边","lon":"121.394104","lat":"31.225416","category":"247","category_name":"餐饮美食","address":"普陀区云岭东路88号成龙电影艺术馆2号楼(近中江路)"},{"poiid":"B2094750D565A5FB439D","title":"海老","lon":"121.395545","lat":"31.222381","category":"247","category_name":"餐饮美食","address":"普陀区大渡河路196号长风公园景畔广场4楼38号铺(近云岭东路)"},{"poiid":"B2094655D26FA1FE439F","title":"汇银铭尊","lon":"121.39","lat":"31.2267","category":"46","category_name":"楼宇","address":"云岭东路599弄18号"},{"poiid":"B2094655D26BA1F4469A","title":"华东师范大学学生公寓","lon":"121.39163","lat":"31.22971","category":"47","category_name":"住宅区","address":"中江路629"},{"poiid":"B2094757D06AA0FD429A","title":"二号线中山公园站","lon":"121.389455986","lat":"31.2304233348","category":"36","category_name":"地铁站","address":"上海中山公园站"},{"poiid":"B2094757D164A4F4439F","title":"阿拉丁麻辣烫","lon":"121.394442586","lat":"31.2254923384","category":"68","category_name":"快餐厅","address":"普陀区大渡河路178号长风景畔广场B1楼1铺(近长风公园)"},{"poiid":"B2094757D66DA3FB489C","title":"Citaly","lon":"121.386756186","lat":"31.2176076841","category":"500","category_name":"未知分类","address":"长宁区天山路341号缤谷文化休闲广场201号(近威宁路)"},{"poiid":"B2094757D569A0FC489A","title":"汇银金融商务中心","lon":"121.3877506","lat":"31.22428889","category":"46","category_name":"楼宇","address":"云岭东路599弄"},{"poiid":"B2094753D26DA7F9469F","title":"3D奇幻印象馆","lon":"121.39337537817","lat":"31.225413167114","category":"183","category_name":"展览馆","address":"普陀区大渡河路452号国盛时尚中心2楼（长风海洋世界对面）"},{"poiid":"B2094757D06FA4FD4892","title":"天山华庭","lon":"121.38657","lat":"31.216274","category":"47","category_name":"住宅区","address":"上海市长宁区威宁路458弄"},{"poiid":"B2094655D36DA7FC4598","title":"云岭东路泸定路","lon":"121.38733","lat":"31.22291","category":"38","category_name":"公交车站","address":""},{"poiid":"B2094757D065A3F9489E","title":"上海赢华国际广场","lon":"121.385167586","lat":"31.2210462514","category":"252","category_name":"楼宇机构","address":"重庆市渝中区解放碑步行街民族路188号(女人广场旁)"},{"poiid":"B2094654D56BABFD4593","title":"晟星都市工业园区","lon":"121.38792","lat":"31.22334","category":"45","category_name":"产业园区","address":"云岭东路434"},{"poiid":"B2094655D265AAF84299","title":"长风国际大厦","lon":"121.39325","lat":"31.22319","category":"46","category_name":"楼宇","address":"云岭东路88号-1"},{"poiid":"B2094751D469AAFF4793","title":"上海跨国采购会展中心","lon":"121.389328","lat":"31.22277","category":"627","category_name":"一般地点标志","address":"普陀区中江路35号"},{"poiid":"B2094752D76DA5FA419F","title":"龙庭会所","lon":"121.386397","lat":"31.226794","category":"247","category_name":"餐饮美食","address":"云岭东路88号"},{"poiid":"B2094752D76CA4F8489E","title":"海亮大厦","lon":"121.386355","lat":"31.224745","category":"252","category_name":"楼宇机构","address":"上海市普陀区大渡河路"},{"poiid":"B2094757D16BABF5479F","title":"国丰酒店锦丰咖啡厅","lon":"121.394137586","lat":"31.2243041151","category":"268","category_name":"自助","address":"普陀区大渡河路388号国盛中心1号座1楼(近云岭东路)"},{"poiid":"B2094753D064ABFD429A","title":"上海市儿童医院","lon":"121.38798","lat":"31.22758","category":"162","category_name":"医院","address":"普陀区同普路(近泸定路尚在筹建)"},{"poiid":"B2094757D16BA6F5459B","title":"龙之梦 KFC","lon":"121.387229886","lat":"31.2249260273","category":"249","category_name":"购物服务","address":"上海长宁路1018号B1"},{"poiid":"B2094757D164A7F9419B","title":"上海化工研究院","lon":"121.38908158","lat":"31.221111252","category":"253","category_name":"校园生活","address":"上海市普陀区云岭东路345号"},{"poiid":"B2094757D46CA7FA4798","title":"肯德基 云岭东路店 KFC","lon":"121.3946944","lat":"31.2236697","category":"68","category_name":"快餐厅","address":"普陀区大渡河路588号国盛时尚购物中心1楼"},{"poiid":"B2094750D665A4F84498","title":"太平洋咖啡(长风景畔广场店)","lon":"121.395","lat":"31.223","category":"260","category_name":"其他","address":"普陀区大渡河路178号长风景畔广场1楼108室(近长风公园4号门)"},{"poiid":"B209475DD664A5FC499D","title":"上海市儿童医院普陀新院","lon":"121.389511","lat":"31.2257","category":"252","category_name":"楼宇机构","address":"上海市 同普路517号"},{"poiid":"B2094757D16CA7FC489E","title":"珍缘味港式茶餐厅","lon":"121.39503778","lat":"31.224848925","category":"72","category_name":"广东菜","address":"普陀区大渡河路452号国盛中心3楼(长风公园4号门对面)"},{"poiid":"B2094654D569A4FB429D","title":"哈密小区","lon":"121.38367937419","lat":"31.2238962111","category":"47","category_name":"住宅区","address":"哈密路11弄"},{"poiid":"B2094757D16EAAFE4892","title":"东渡国际大厦","lon":"121.381794586","lat":"31.2222152743","category":"252","category_name":"楼宇机构","address":"上海云岭东路651弄"},{"poiid":"B2094757D068A7F84493","title":"觉味川菜","lon":"121.385935403","lat":"31.2181800932","category":"71","category_name":"四川菜","address":"长宁区天山路341号缤谷文化休闲广场C310号商铺(近威宁路)"},{"poiid":"B2094750D26EA4FD439A","title":"中海紫御豪庭","lon":"121.38219299612","lat":"31.228013246839","category":"47","category_name":"住宅区","address":"同普路688号(近丹巴路)"},{"poiid":"B2094757D06BA5F94599","title":"荷风轩","lon":"121.38569478","lat":"31.215802882","category":"247","category_name":"餐饮美食","address":"上海长宁区天山路341号缤谷文化休闲广场4楼"},{"poiid":"B2094757D164A4FA4793","title":"爱乐游国盛中心店","lon":"121.38910918","lat":"31.223681302","category":"500","category_name":"未知分类","address":"上海大渡河路588号2楼"},{"poiid":"B2094454D368A6F5439D","title":"上海市儿童医院普陀分院","lon":"121.386947","lat":"31.226688","category":"627","category_name":"一般地点标志","address":"上海市 泸定路355号"},{"poiid":"B2094757D065A1FC479D","title":"中国网络游戏服务网5173.com","lon":"121.382666406","lat":"31.2209064987","category":"46","category_name":"楼宇","address":"上海云岭东路599弄汇银铭尊20号"},{"poiid":"B2094757D46EA4F54499","title":"I.Z.K.Y.居酒屋","lon":"121.39466","lat":"31.22366","category":"95","category_name":"日本料理","address":"普陀区大渡河路388号国盛中心1号座1楼(近云岭东路)"},{"poiid":"B2094751D26BA3FC499E","title":"长风景畔乐乐派","lon":"121.3905534","lat":"31.2242907","category":"248","category_name":"生活娱乐","address":"大渡河路196号"},{"poiid":"B2094757D168A7F5459A","title":"one club","lon":"121.389333586","lat":"31.224811425","category":"500","category_name":"未知分类","address":"上海柳林路"},{"poiid":"B2094655D36CA6F54699","title":"丹巴路云岭东路","lon":"121.38169","lat":"31.2252","category":"38","category_name":"公交车站","address":""},{"poiid":"B2094757D069A1FF4698","title":"咕喱咕啦","lon":"121.38178358","lat":"31.222224274","category":"94","category_name":"西餐厅","address":"普陀区丹巴路28弄36号104室(近旭辉广场36号的全家便利)"},{"poiid":"B2094757D66FA7F44692","title":"斯皮尔博格","lon":"121.384181686","lat":"31.224450118","category":"500","category_name":"未知分类","address":"上海云岭东路"},{"poiid":"B2094752D36DA5F9469D","title":"上海17.5影城北虹店","lon":"121.38349","lat":"31.22049","category":"178","category_name":"电影院","address":"上海市长宁区北虹路1068号第四层B区"},{"poiid":"B2094654D56BA6FC459B","title":"光华大厦","lon":"121.39","lat":"31.2166","category":"46","category_name":"楼宇","address":"沈河北站路与北京街的交汇处"},{"poiid":"B2094757D065A6FE479C","title":"长风景畔广场","lon":"121.394962586","lat":"31.2244993189","category":"500","category_name":"未知分类","address":"普陀区大渡河路178号(近云岭东路)"},{"poiid":"B2094757D06FA2F8479F","title":"国丰酒店","lon":"121.39482","lat":"31.22337","category":"213","category_name":"五星级宾馆","address":"上海普陀区云岭东路78号3号座(大渡河路口)"},{"poiid":"B2094757D469A0FF419D","title":"俏江南 长风景畔店","lon":"121.39551401138","lat":"31.223022770312","category":"71","category_name":"四川菜","address":"普陀区大渡河路168弄56号长风景畔广场3楼15-17室(近长风公园4号门)"},{"poiid":"B2094757DA6AA5FE449C","title":"斗牛士","lon":"121.3905061562251","lat":"31.22449035448877","category":"247","category_name":"餐饮美食","address":"普陀区大渡河路178号长风景畔广场4楼25-26室(近长风公园4号门)"},{"poiid":"B2094757D06FA0FF469B","title":"旭辉世纪广场","lon":"121.3822","lat":"31.22545","category":"119","category_name":"商场","address":"普陀区丹巴路28号"},{"poiid":"B2094750D26FA2FF4992","title":"满记甜品","lon":"121.385932","lat":"31.216424","category":"67","category_name":"甜品店","address":"长宁区天山路341号缤谷文化休闲广场1楼(近威宁路)"},{"poiid":"B2094655D26BA6FB439F","title":"天山怡景苑","lon":"121.38357","lat":"31.218071","category":"47","category_name":"住宅区","address":"上海市长宁区威宁路511弄"},{"poiid":"B2094654D569A4FA499F","title":"天山大厦","lon":"121.385","lat":"31.2218","category":"46","category_name":"楼宇","address":"珠江新城华穗路与华利路交汇处"},{"poiid":"B2094757D06FABF44293","title":"天山中学","lon":"121.39039","lat":"31.21693","category":"55","category_name":"中学","address":"长宁区天中路155号(近天山西路)"},{"poiid":"B2094751D568ABF44399","title":"禅边","lon":"121.394104","lat":"31.225416","category":"247","category_name":"餐饮美食","address":"普陀区云岭东路88号成龙电影艺术馆2号楼(近中江路)"},{"poiid":"B2094750D565A5FB439D","title":"海老","lon":"121.395545","lat":"31.222381","category":"247","category_name":"餐饮美食","address":"普陀区大渡河路196号长风公园景畔广场4楼38号铺(近云岭东路)"},{"poiid":"B2094655D26FA1FE439F","title":"汇银铭尊","lon":"121.39","lat":"31.2267","category":"46","category_name":"楼宇","address":"云岭东路599弄18号"},{"poiid":"B2094655D26BA1F4469A","title":"华东师范大学学生公寓","lon":"121.39163","lat":"31.22971","category":"47","category_name":"住宅区","address":"中江路629"},{"poiid":"B2094757D06AA0FD429A","title":"二号线中山公园站","lon":"121.389455986","lat":"31.2304233348","category":"36","category_name":"地铁站","address":"上海中山公园站"},{"poiid":"B2094757D164A4F4439F","title":"阿拉丁麻辣烫","lon":"121.394442586","lat":"31.2254923384","category":"68","category_name":"快餐厅","address":"普陀区大渡河路178号长风景畔广场B1楼1铺(近长风公园)"},{"poiid":"B2094757D66DA3FB489C","title":"Citaly","lon":"121.386756186","lat":"31.2176076841","category":"500","category_name":"未知分类","address":"长宁区天山路341号缤谷文化休闲广场201号(近威宁路)"},{"poiid":"B2094757D569A0FC489A","title":"汇银金融商务中心","lon":"121.3877506","lat":"31.22428889","category":"46","category_name":"楼宇","address":"云岭东路599弄"},{"poiid":"B2094753D26DA7F9469F","title":"3D奇幻印象馆","lon":"121.39337537817","lat":"31.225413167114","category":"183","category_name":"展览馆","address":"普陀区大渡河路452号国盛时尚中心2楼（长风海洋世界对面）"},{"poiid":"B2094757D06FA4FD4892","title":"天山华庭","lon":"121.38657","lat":"31.216274","category":"47","category_name":"住宅区","address":"上海市长宁区威宁路458弄"},{"poiid":"B2094655D36DA7FC4598","title":"云岭东路泸定路","lon":"121.38733","lat":"31.22291","category":"38","category_name":"公交车站","address":""},{"poiid":"B2094757D065A3F9489E","title":"上海赢华国际广场","lon":"121.385167586","lat":"31.2210462514","category":"252","category_name":"楼宇机构","address":"重庆市渝中区解放碑步行街民族路188号(女人广场旁)"},{"poiid":"B2094654D56BABFD4593","title":"晟星都市工业园区","lon":"121.38792","lat":"31.22334","category":"45","category_name":"产业园区","address":"云岭东路434"},{"poiid":"B2094655D265AAF84299","title":"长风国际大厦","lon":"121.39325","lat":"31.22319","category":"46","category_name":"楼宇","address":"云岭东路88号-1"},{"poiid":"B2094751D469AAFF4793","title":"上海跨国采购会展中心","lon":"121.389328","lat":"31.22277","category":"627","category_name":"一般地点标志","address":"普陀区中江路35号"},{"poiid":"B2094752D76DA5FA419F","title":"龙庭会所","lon":"121.386397","lat":"31.226794","category":"247","category_name":"餐饮美食","address":"云岭东路88号"},{"poiid":"B2094752D76CA4F8489E","title":"海亮大厦","lon":"121.386355","lat":"31.224745","category":"252","category_name":"楼宇机构","address":"上海市普陀区大渡河路"},{"poiid":"B2094757D16BABF5479F","title":"国丰酒店锦丰咖啡厅","lon":"121.394137586","lat":"31.2243041151","category":"268","category_name":"自助","address":"普陀区大渡河路388号国盛中心1号座1楼(近云岭东路)"},{"poiid":"B2094753D064ABFD429A","title":"上海市儿童医院","lon":"121.38798","lat":"31.22758","category":"162","category_name":"医院","address":"普陀区同普路(近泸定路尚在筹建)"},{"poiid":"B2094757D16BA6F5459B","title":"龙之梦 KFC","lon":"121.387229886","lat":"31.2249260273","category":"249","category_name":"购物服务","address":"上海长宁路1018号B1"},{"poiid":"B2094757D164A7F9419B","title":"上海化工研究院","lon":"121.38908158","lat":"31.221111252","category":"253","category_name":"校园生活","address":"上海市普陀区云岭东路345号"},{"poiid":"B2094757D46CA7FA4798","title":"肯德基 云岭东路店 KFC","lon":"121.3946944","lat":"31.2236697","category":"68","category_name":"快餐厅","address":"普陀区大渡河路588号国盛时尚购物中心1楼"},{"poiid":"B2094750D665A4F84498","title":"太平洋咖啡(长风景畔广场店)","lon":"121.395","lat":"31.223","category":"260","category_name":"其他","address":"普陀区大渡河路178号长风景畔广场1楼108室(近长风公园4号门)"},{"poiid":"B209475DD664A5FC499D","title":"上海市儿童医院普陀新院","lon":"121.389511","lat":"31.2257","category":"252","category_name":"楼宇机构","address":"上海市 同普路517号"},{"poiid":"B2094757D16CA7FC489E","title":"珍缘味港式茶餐厅","lon":"121.39503778","lat":"31.224848925","category":"72","category_name":"广东菜","address":"普陀区大渡河路452号国盛中心3楼(长风公园4号门对面)"},{"poiid":"B2094654D569A4FB429D","title":"哈密小区","lon":"121.38367937419","lat":"31.2238962111","category":"47","category_name":"住宅区","address":"哈密路11弄"},{"poiid":"B2094757D16EAAFE4892","title":"东渡国际大厦","lon":"121.381794586","lat":"31.2222152743","category":"252","category_name":"楼宇机构","address":"上海云岭东路651弄"},{"poiid":"B2094757D068A7F84493","title":"觉味川菜","lon":"121.385935403","lat":"31.2181800932","category":"71","category_name":"四川菜","address":"长宁区天山路341号缤谷文化休闲广场C310号商铺(近威宁路)"},{"poiid":"B2094750D26EA4FD439A","title":"中海紫御豪庭","lon":"121.38219299612","lat":"31.228013246839","category":"47","category_name":"住宅区","address":"同普路688号(近丹巴路)"},{"poiid":"B2094757D06BA5F94599","title":"荷风轩","lon":"121.38569478","lat":"31.215802882","category":"247","category_name":"餐饮美食","address":"上海长宁区天山路341号缤谷文化休闲广场4楼"},{"poiid":"B2094757D164A4FA4793","title":"爱乐游国盛中心店","lon":"121.38910918","lat":"31.223681302","category":"500","category_name":"未知分类","address":"上海大渡河路588号2楼"},{"poiid":"B2094454D368A6F5439D","title":"上海市儿童医院普陀分院","lon":"121.386947","lat":"31.226688","category":"627","category_name":"一般地点标志","address":"上海市 泸定路355号"},{"poiid":"B2094757D065A1FC479D","title":"中国网络游戏服务网5173.com","lon":"121.382666406","lat":"31.2209064987","category":"46","category_name":"楼宇","address":"上海云岭东路599弄汇银铭尊20号"},{"poiid":"B2094757D46EA4F54499","title":"I.Z.K.Y.居酒屋","lon":"121.39466","lat":"31.22366","category":"95","category_name":"日本料理","address":"普陀区大渡河路388号国盛中心1号座1楼(近云岭东路)"},{"poiid":"B2094751D26BA3FC499E","title":"长风景畔乐乐派","lon":"121.3905534","lat":"31.2242907","category":"248","category_name":"生活娱乐","address":"大渡河路196号"},{"poiid":"B2094757D168A7F5459A","title":"one club","lon":"121.389333586","lat":"31.224811425","category":"500","category_name":"未知分类","address":"上海柳林路"},{"poiid":"B2094655D36CA6F54699","title":"丹巴路云岭东路","lon":"121.38169","lat":"31.2252","category":"38","category_name":"公交车站","address":""},{"poiid":"B2094757D069A1FF4698","title":"咕喱咕啦","lon":"121.38178358","lat":"31.222224274","category":"94","category_name":"西餐厅","address":"普陀区丹巴路28弄36号104室(近旭辉广场36号的全家便利)"},{"poiid":"B2094757D66FA7F44692","title":"斯皮尔博格","lon":"121.384181686","lat":"31.224450118","category":"500","category_name":"未知分类","address":"上海云岭东路"},{"poiid":"B2094752D36DA5F9469D","title":"上海17.5影城北虹店","lon":"121.38349","lat":"31.22049","category":"178","category_name":"电影院","address":"上海市长宁区北虹路1068号第四层B区"},{"poiid":"B2094654D56BA6FC459B","title":"光华大厦","lon":"121.39","lat":"31.2166","category":"46","category_name":"楼宇","address":"沈河北站路与北京街的交汇处"}]