[{"poiid":"B2094757D66DA7F5419B","title":"G60沪昆高速","lon":"121.311625231","lat":"31.0696337223","category":"500","category_name":"未知分类","address":"上海松江"},{"poiid":"B2094757D569A1F8419C","title":"G60沪昆高速新桥主线收费站","lon":"121.314974","lat":"31.074554","category":"267","category_name":"收费站","address":"中国上海市松江区A8"},{"poiid":"B2094655D36DA0FD449C","title":"新桥镇","lon":"121.30777","lat":"31.05905","category":"38","category_name":"公交车站","address":""},{"poiid":"B2094757D069AAF4419F","title":"肯德基 KFC (新桥店)","lon":"121.314638","lat":"31.062193","category":"68","category_name":"快餐厅","address":"松江区新桥镇新南街377号(近新桥中心路)"},{"poiid":"B2094757D069AAFC4799","title":"沿海丽水馨庭","lon":"121.32959812","lat":"31.076780696","category":"500","category_name":"未知分类","address":"上海明中路1588弄"},{"poiid":"B2094757D16CA5FF439E","title":"海派青城ihouse","lon":"121.314688131","lat":"31.0659735435","category":"47","category_name":"住宅区","address":"上海松江新桥镇新镇街1058弄（中心路近新北街）"},{"poiid":"B2094757D065A0FA4498","title":"上海阿婆私房菜（新南店）","lon":"121.31680297","lat":"31.061552047","category":"76","category_name":"上海菜","address":"松江区新桥镇新南街277号"},{"poiid":"B2094655D36DA1F5489D","title":"新北街","lon":"121.3201","lat":"31.06315","category":"38","category_name":"公交车站","address":""},{"poiid":"B2094757D66DABF8499C","title":"新弘国际城","lon":"121.324191831","lat":"31.0737888119","category":"47","category_name":"住宅区","address":"上海市松江区明中路1777弄"},{"poiid":"B2094655D36DA0FD449E","title":"新桥火车站","lon":"121.31971","lat":"31.05823","category":"38","category_name":"公交车站","address":""},{"poiid":"B2094757D069A1F94192","title":"达安圣芭芭花园","lon":"121.33511","lat":"31.075876","category":"47","category_name":"住宅区","address":"上海市松江明中路1177弄"},{"poiid":"B2094757D66AA5FB4792","title":"川流不息 新桥店","lon":"121.32084296584","lat":"31.063404730362","category":"71","category_name":"四川菜","address":"松江区松江新桥镇新南街408号(新南街新镇街)"},{"poiid":"B2094655D26BA4F5429B","title":"荣盛阳光苑","lon":"121.32212","lat":"31.067584","category":"47","category_name":"住宅区","address":"上海市松江区新南街301弄"},{"poiid":"B2094654DB6EA0FA429F","title":"星鸿娱乐KTV","lon":"121.32221","lat":"31.06401","category":"170","category_name":"KTV","address":"松江区松江新桥镇新育路新菜场三区(近新北街)"},{"poiid":"B2094654DB6AA1FA469F","title":"明月清泉别墅","lon":"121.31160469386577","lat":"31.05867861632243","category":"47","category_name":"住宅区","address":"明月清泉别墅位于松江新桥镇新站路518弄A4公路旁"},{"poiid":"B2094654DB6EA7FB4598","title":"新桥酒店","lon":"121.31957","lat":"31.06104","category":"76","category_name":"上海菜","address":"松江区新桥镇新南街(近好又多超市)"},{"poiid":"B2094654DB6EA0FA459B","title":"农家乐饭店","lon":"121.32109","lat":"31.06342","category":"257","category_name":"中餐厅","address":""},{"poiid":"B2094654DB6EA0FA4699","title":"奶子河阿六羊肉面馆","lon":"121.32163","lat":"31.06425","category":"257","category_name":"中餐厅","address":""},{"poiid":"B2094654DB6EA0FB439C","title":"景贤酒家","lon":"121.32508","lat":"31.0621","category":"257","category_name":"中餐厅","address":""},{"poiid":"B2094654DB6EA0FA469F","title":"新育东区","lon":"121.32131","lat":"31.06572","category":"47","category_name":"住宅区","address":"新桥镇"},{"poiid":"B2094654DB6EA0FA4293","title":"明珠酒店","lon":"121.3213","lat":"31.06312","category":"257","category_name":"中餐厅","address":""},{"poiid":"B2094654DB6EA0FB4993","title":"新东苑北区","lon":"121.33068","lat":"31.070248","category":"47","category_name":"住宅区","address":"陈春公路911号"},{"poiid":"B2094757D66DA4FB409E","title":"雅鹿新苑二期","lon":"121.319609431","lat":"31.0665960235","category":"47","category_name":"住宅区","address":"上海松江区新育路750弄"},{"poiid":"B2094654DB6EA6FC439F","title":"新育小区","lon":"121.3196","lat":"31.067305","category":"47","category_name":"住宅区","address":"新育路509弄1-155号"},{"poiid":"B2094654DB6EA0F94992","title":"上海市新桥职校","lon":"121.32089","lat":"31.06127","category":"54","category_name":"职业技术学校","address":""},{"poiid":"B2094654DB6EA0F94993","title":"上海新天地中学","lon":"121.32089","lat":"31.06128","category":"55","category_name":"中学","address":""},{"poiid":"B2094757D665A3FC489E","title":"四海游龙 新南街店","lon":"121.31652","lat":"31.0618","category":"68","category_name":"快餐厅","address":"松江区新桥镇新南街289号(浦发银行对面)"},{"poiid":"B2094654DB6EA7FB459A","title":"新桥中学","lon":"121.31886","lat":"31.06118","category":"55","category_name":"中学","address":"松江区新桥镇新南街39号"},{"poiid":"B2094654DB6EA0F9499D","title":"桥头风味小吃","lon":"121.32068","lat":"31.06082","category":"68","category_name":"快餐厅","address":"新桥新育路158号"},{"poiid":"B2094654DB6EA7FA4899","title":"良友便利(新北街)","lon":"121.31856","lat":"31.06329","category":"117","category_name":"便民商店/便利店","address":"新桥镇"},{"poiid":"B2094654DB6EA0FA469D","title":"新桥蔬菜交易市场","lon":"121.32133","lat":"31.06733","category":"117","category_name":"便民商店/便利店","address":""},{"poiid":"B2094757D569A7F9479F","title":"鸿锋茶楼","lon":"121.316849","lat":"31.062516","category":"66","category_name":"茶艺馆","address":"松江区松江新桥恒宣路18号"},{"poiid":"B2094654DB6EA7FB429A","title":"新南门诊部","lon":"121.31936","lat":"31.06152","category":"162","category_name":"医院","address":"新南街166"},{"poiid":"B2094654DB6EA7FA489A","title":"兰州正宗牛肉拉面(新北街)","lon":"121.31852","lat":"31.0633","category":"90","category_name":"清真餐馆","address":""},{"poiid":"B2094654DB6EA0F84893","title":"新桥卫生院","lon":"121.31684","lat":"31.06365","category":"162","category_name":"医院","address":"松江区新桥镇新中街"},{"poiid":"B2094654DB6EA0FB4393","title":"新桥敬老院","lon":"121.32468","lat":"31.06228","category":"615","category_name":"敬老院","address":""},{"poiid":"B2094655D264A4FA499B","title":"收费站","lon":"121.31497","lat":"31.07455","category":"267","category_name":"收费站","address":""},{"poiid":"B2094654DB6EA7FA4799","title":"松江区新桥震新中学","lon":"121.31797","lat":"31.06306","category":"55","category_name":"中学","address":"新北街299弄1号"},{"poiid":"B2094654DB6EA7FB459B","title":"龙山宾馆","lon":"121.31958","lat":"31.06113","category":"250","category_name":"公园户外","address":"新桥镇新南街147号"},{"poiid":"B2094757D16BA7F4469B","title":"上海凯虹电子有限公司","lon":"121.323215444","lat":"31.0673372228","category":"263","category_name":"公司","address":"上海松江区陈春公路999号"},{"poiid":"B2094654DB6EA0FB4298","title":"福建沙县营养小吃(上海凯虹电子有限公司东)","lon":"121.32489","lat":"31.06955","category":"68","category_name":"快餐厅","address":""},{"poiid":"B2094654DB6EA0F9479B","title":"白洋小区","lon":"121.31771","lat":"31.057339","category":"47","category_name":"住宅区","address":"荣乐中路800弄"},{"poiid":"B2094654DB6EA7FB4898","title":"吃客传说新桥店","lon":"121.31152","lat":"31.06196","category":"257","category_name":"中餐厅","address":"松江区新桥镇新南街507号"},{"poiid":"B2094654DB6EA0FB419C","title":"兰州正宗牛肉拉面(松江区新桥镇新东苑居民委员会西北)","lon":"121.32628","lat":"31.06971","category":"90","category_name":"清真餐馆","address":""},{"poiid":"B2094654DB6EA0F94798","title":"新桥汽车站","lon":"121.31966","lat":"31.05796","category":"35","category_name":"长途汽车站","address":"新桥镇"},{"poiid":"B2094757D66DA1F8409F","title":"上海法官培训基地","lon":"121.342467131","lat":"31.0656326361","category":"253","category_name":"校园生活","address":"上海市光华路2888号"},{"poiid":"B2094654DB6EA4F5409C","title":"新中街步行街","lon":"121.31291","lat":"31.06276","category":"116","category_name":"特色商业街","address":""},{"poiid":"B2094654DB6EA0F8499A","title":"松江区新桥小学","lon":"121.31731","lat":"31.05881","category":"56","category_name":"小学","address":"松江区新站路288号(新站路新镇街)"},{"poiid":"B2094654DB6EA0F94799","title":"松江区新桥镇第一民工子弟学校","lon":"121.31998","lat":"31.05787","category":"55","category_name":"中学","address":""},{"poiid":"B2094654DB6EA7F4419B","title":"欣德苑","lon":"121.31319","lat":"31.061964","category":"47","category_name":"住宅区","address":"新南街439弄"},{"poiid":"B2094757D66DA7F5419B","title":"G60沪昆高速","lon":"121.311625231","lat":"31.0696337223","category":"500","category_name":"未知分类","address":"上海松江"},{"poiid":"B2094757D569A1F8419C","title":"G60沪昆高速新桥主线收费站","lon":"121.314974","lat":"31.074554","category":"267","category_name":"收费站","address":"中国上海市松江区A8"},{"poiid":"B2094655D36DA0FD449C","title":"新桥镇","lon":"121.30777","lat":"31.05905","category":"38","category_name":"公交车站","address":""},{"poiid":"B2094757D069AAF4419F","title":"肯德基 KFC (新桥店)","lon":"121.314638","lat":"31.062193","category":"68","category_name":"快餐厅","address":"松江区新桥镇新南街377号(近新桥中心路)"},{"poiid":"B2094757D069AAFC4799","title":"沿海丽水馨庭","lon":"121.32959812","lat":"31.076780696","category":"500","category_name":"未知分类","address":"上海明中路1588弄"},{"poiid":"B2094757D16CA5FF439E","title":"海派青城ihouse","lon":"121.314688131","lat":"31.0659735435","category":"47","category_name":"住宅区","address":"上海松江新桥镇新镇街1058弄（中心路近新北街）"},{"poiid":"B2094757D065A0FA4498","title":"上海阿婆私房菜（新南店）","lon":"121.31680297","lat":"31.061552047","category":"76","category_name":"上海菜","address":"松江区新桥镇新南街277号"},{"poiid":"B2094655D36DA1F5489D","title":"新北街","lon":"121.3201","lat":"31.06315","category":"38","category_name":"公交车站","address":""},{"poiid":"B2094757D66DABF8499C","title":"新弘国际城","lon":"121.324191831","lat":"31.0737888119","category":"47","category_name":"住宅区","address":"上海市松江区明中路1777弄"},{"poiid":"B2094655D36DA0FD449E","title":"新桥火车站","lon":"121.31971","lat":"31.05823","category":"38","category_name":"公交车站","address":""},{"poiid":"B2094757D069A1F94192","title":"达安圣芭芭花园","lon":"121.33511","lat":"31.075876","category":"47","category_name":"住宅区","address":"上海市松江明中路1177弄"},{"poiid":"B2094757D66AA5FB4792","title":"川流不息 新桥店","lon":"121.32084296584","lat":"31.063404730362","category":"71","category_name":"四川菜","address":"松江区松江新桥镇新南街408号(新南街新镇街)"},{"poiid":"B2094655D26BA4F5429B","title":"荣盛阳光苑","lon":"121.32212","lat":"31.067584","category":"47","category_name":"住宅区","address":"上海市松江区新南街301弄"},{"poiid":"B2094654DB6EA0FA429F","title":"星鸿娱乐KTV","lon":"121.32221","lat":"31.06401","category":"170","category_name":"KTV","address":"松江区松江新桥镇新育路新菜场三区(近新北街)"},{"poiid":"B2094654DB6AA1FA469F","title":"明月清泉别墅","lon":"121.31160469386577","lat":"31.05867861632243","category":"47","category_name":"住宅区","address":"明月清泉别墅位于松江新桥镇新站路518弄A4公路旁"},{"poiid":"B2094654DB6EA7FB4598","title":"新桥酒店","lon":"121.31957","lat":"31.06104","category":"76","category_name":"上海菜","address":"松江区新桥镇新南街(近好又多超市)"},{"poiid":"B2094654DB6EA0FA459B","title":"农家乐饭店","lon":"121.32109","lat":"31.06342","category":"257","category_name":"中餐厅","address":""},{"poiid":"B2094654DB6EA0FA4699","title":"奶子河阿六羊肉面馆","lon":"121.32163","lat":"31.06425","category":"257","category_name":"中餐厅","address":""},{"poiid":"B2094654DB6EA0FB439C","title":"景贤酒家","lon":"121.32508","lat":"31.0621","category":"257","category_name":"中餐厅","address":""},{"poiid":"B2094654DB6EA0FA469F","title":"新育东区","lon":"121.32131","lat":"31.06572","category":"47","category_name":"住宅区","address":"新桥镇"},{"poiid":"B2094654DB6EA0FA4293","title":"明珠酒店","lon":"121.3213","lat":"31.06312","category":"257","category_name":"中餐厅","address":""},{"poiid":"B2094654DB6EA0FB4993","title":"新东苑北区","lon":"121.33068","lat":"31.070248","category":"47","category_name":"住宅区","address":"陈春公路911号"},{"poiid":"B2094757D66DA4FB409E","title":"雅鹿新苑二期","lon":"121.319609431","lat":"31.0665960235","category":"47","category_name":"住宅区","address":"上海松江区新育路750弄"},{"poiid":"B2094654DB6EA6FC439F","title":"新育小区","lon":"121.3196","lat":"31.067305","category":"47","category_name":"住宅区","address":"新育路509弄1-155号"},{"poiid":"B2094654DB6EA0F94992","title":"上海市新桥职校","lon":"121.32089","lat":"31.06127","category":"54","category_name":"职业技术学校","address":""},{"poiid":"B2094654DB6EA0F94993","title":"上海新天地中学","lon":"121.32089","lat":"31.06128","category":"55","category_name":"中学","address":""},{"poiid":"B2094757D665A3FC489E","title":"四海游龙 新南街店","lon":"121.31652","lat":"31.0618","category":"68","category_name":"快餐厅","address":"松江区新桥镇新南街289号(浦发银行对面)"},{"poiid":"B2094654DB6EA7FB459A","title":"新桥中学","lon":"121.31886","lat":"31.06118","category":"55","category_name":"中学","address":"松江区新桥镇新南街39号"},{"poiid":"B2094654DB6EA0F9499D","title":"桥头风味小吃","lon":"121.32068","lat":"31.06082","category":"68","category_name":"快餐厅","address":"新桥新育路158号"},{"poiid":"B2094654DB6EA7FA4899","title":"良友便利(新北街)","lon":"121.31856","lat":"31.06329","category":"117","category_name":"便民商店/便利店","address":"新桥镇"},{"poiid":"B2094654DB6EA0FA469D","title":"新桥蔬菜交易市场","lon":"121.32133","lat":"31.06733","category":"117","category_name":"便民商店/便利店","address":""},{"poiid":"B2094757D569A7F9479F","title":"鸿锋茶楼","lon":"121.316849","lat":"31.062516","category":"66","category_name":"茶艺馆","address":"松江区松江新桥恒宣路18号"},{"poiid":"B2094654DB6EA7FB429A","title":"新南门诊部","lon":"121.31936","lat":"31.06152","category":"162","category_name":"医院","address":"新南街166"},{"poiid":"B2094654DB6EA7FA489A","title":"兰州正宗牛肉拉面(新北街)","lon":"121.31852","lat":"31.0633","category":"90","category_name":"清真餐馆","address":""},{"poiid":"B2094654DB6EA0F84893","title":"新桥卫生院","lon":"121.31684","lat":"31.06365","category":"162","category_name":"医院","address":"松江区新桥镇新中街"},{"poiid":"B2094654DB6EA0FB4393","title":"新桥敬老院","lon":"121.32468","lat":"31.06228","category":"615","category_name":"敬老院","address":""},{"poiid":"B2094655D264A4FA499B","title":"收费站","lon":"121.31497","lat":"31.07455","category":"267","category_name":"收费站","address":""},{"poiid":"B2094654DB6EA7FA4799","title":"松江区新桥震新中学","lon":"121.31797","lat":"31.06306","category":"55","category_name":"中学","address":"新北街299弄1号"},{"poiid":"B2094654DB6EA7FB459B","title":"龙山宾馆","lon":"121.31958","lat":"31.06113","category":"250","category_name":"公园户外","address":"新桥镇新南街147号"},{"poiid":"B2094757D16BA7F4469B","title":"上海凯虹电子有限公司","lon":"121.323215444","lat":"31.0673372228","category":"263","category_name":"公司","address":"上海松江区陈春公路999号"},{"poiid":"B2094654DB6EA0FB4298","title":"福建沙县营养小吃(上海凯虹电子有限公司东)","lon":"121.32489","lat":"31.06955","category":"68","category_name":"快餐厅","address":""},{"poiid":"B2094654DB6EA0F9479B","title":"白洋小区","lon":"121.31771","lat":"31.057339","category":"47","category_name":"住宅区","address":"荣乐中路800弄"},{"poiid":"B2094654DB6EA7FB4898","title":"吃客传说新桥店","lon":"121.31152","lat":"31.06196","category":"257","category_name":"中餐厅","address":"松江区新桥镇新南街507号"},{"poiid":"B2094654DB6EA0FB419C","title":"兰州正宗牛肉拉面(松江区新桥镇新东苑居民委员会西北)","lon":"121.32628","lat":"31.06971","category":"90","category_name":"清真餐馆","address":""},{"poiid":"B2094654DB6EA0F94798","title":"新桥汽车站","lon":"121.31966","lat":"31.05796","category":"35","category_name":"长途汽车站","address":"新桥镇"},{"poiid":"B2094757D66DA1F8409F","title":"上海法官培训基地","lon":"121.342467131","lat":"31.0656326361","category":"253","category_name":"校园生活","address":"上海市光华路2888号"},{"poiid":"B2094654DB6EA4F5409C","title":"新中街步行街","lon":"121.31291","lat":"31.06276","category":"116","category_name":"特色商业街","address":""},{"poiid":"B2094654DB6EA0F8499A","title":"松江区新桥小学","lon":"121.31731","lat":"31.05881","category":"56","category_name":"小学","address":"松江区新站路288号(新站路新镇街)"},{"poiid":"B2094654DB6EA0F94799","title":"松江区新桥镇第一民工子弟学校","lon":"121.31998","lat":"31.05787","category":"55","category_name":"中学","address":""},{"poiid":"B2094654DB6EA7F4419B","title":"欣德苑","lon":"121.31319","lat":"31.061964","category":"47","category_name":"住宅区","address":"新南街439弄"},{"poiid":"B2094757D66DA7F5419B","title":"G60沪昆高速","lon":"121.311625231","lat":"31.0696337223","category":"500","category_name":"未知分类","address":"上海松江"},{"poiid":"B2094757D569A1F8419C","title":"G60沪昆高速新桥主线收费站","lon":"121.314974","lat":"31.074554","category":"267","category_name":"收费站","address":"中国上海市松江区A8"},{"poiid":"B2094655D36DA0FD449C","title":"新桥镇","lon":"121.30777","lat":"31.05905","category":"38","category_name":"公交车站","address":""},{"poiid":"B2094757D069AAF4419F","title":"肯德基 KFC (新桥店)","lon":"121.314638","lat":"31.062193","category":"68","category_name":"快餐厅","address":"松江区新桥镇新南街377号(近新桥中心路)"},{"poiid":"B2094757D069AAFC4799","title":"沿海丽水馨庭","lon":"121.32959812","lat":"31.076780696","category":"500","category_name":"未知分类","address":"上海明中路1588弄"},{"poiid":"B2094757D16CA5FF439E","title":"海派青城ihouse","lon":"121.314688131","lat":"31.0659735435","category":"47","category_name":"住宅区","address":"上海松江新桥镇新镇街1058弄（中心路近新北街）"},{"poiid":"B2094757D065A0FA4498","title":"上海阿婆私房菜（新南店）","lon":"121.31680297","lat":"31.061552047","category":"76","category_name":"上海菜","address":"松江区新桥镇新南街277号"},{"poiid":"B2094655D36DA1F5489D","title":"新北街","lon":"121.3201","lat":"31.06315","category":"38","category_name":"公交车站","address":""},{"poiid":"B2094757D66DABF8499C","title":"新弘国际城","lon":"121.324191831","lat":"31.0737888119","category":"47","category_name":"住宅区","address":"上海市松江区明中路1777弄"},{"poiid":"B2094655D36DA0FD449E","title":"新桥火车站","lon":"121.31971","lat":"31.05823","category":"38","category_name":"公交车站","address":""},{"poiid":"B2094757D069A1F94192","title":"达安圣芭芭花园","lon":"121.33511","lat":"31.075876","category":"47","category_name":"住宅区","address":"上海市松江明中路1177弄"},{"poiid":"B2094757D66AA5FB4792","title":"川流不息 新桥店","lon":"121.32084296584","lat":"31.063404730362","category":"71","category_name":"四川菜","address":"松江区松江新桥镇新南街408号(新南街新镇街)"},{"poiid":"B2094655D26BA4F5429B","title":"荣盛阳光苑","lon":"121.32212","lat":"31.067584","category":"47","category_name":"住宅区","address":"上海市松江区新南街301弄"},{"poiid":"B2094654DB6EA0FA429F","title":"星鸿娱乐KTV","lon":"121.32221","lat":"31.06401","category":"170","category_name":"KTV","address":"松江区松江新桥镇新育路新菜场三区(近新北街)"},{"poiid":"B2094654DB6AA1FA469F","title":"明月清泉别墅","lon":"121.31160469386577","lat":"31.05867861632243","category":"47","category_name":"住宅区","address":"明月清泉别墅位于松江新桥镇新站路518弄A4公路旁"},{"poiid":"B2094654DB6EA7FB4598","title":"新桥酒店","lon":"121.31957","lat":"31.06104","category":"76","category_name":"上海菜","address":"松江区新桥镇新南街(近好又多超市)"},{"poiid":"B2094654DB6EA0FA459B","title":"农家乐饭店","lon":"121.32109","lat":"31.06342","category":"257","category_name":"中餐厅","address":""},{"poiid":"B2094654DB6EA0FA4699","title":"奶子河阿六羊肉面馆","lon":"121.32163","lat":"31.06425","category":"257","category_name":"中餐厅","address":""},{"poiid":"B2094654DB6EA0FB439C","title":"景贤酒家","lon":"121.32508","lat":"31.0621","category":"257","category_name":"中餐厅","address":""},{"poiid":"B2094654DB6EA0FA469F","title":"新育东区","lon":"121.32131","lat":"31.06572","category":"47","category_name":"住宅区","address":"新桥镇"},{"poiid":"B2094654DB6EA0FA4293","title":"明珠酒店","lon":"121.3213","lat":"31.06312","category":"257","category_name":"中餐厅","address":""},{"poiid":"B2094654DB6EA0FB4993","title":"新东苑北区","lon":"121.33068","lat":"31.070248","category":"47","category_name":"住宅区","address":"陈春公路911号"},{"poiid":"B2094757D66DA4FB409E","title":"雅鹿新苑二期","lon":"121.319609431","lat":"31.0665960235","category":"47","category_name":"住宅区","address":"上海松江区新育路750弄"},{"poiid":"B2094654DB6EA6FC439F","title":"新育小区","lon":"121.3196","lat":"31.067305","category":"47","category_name":"住宅区","address":"新育路509弄1-155号"},{"poiid":"B2094654DB6EA0F94992","title":"上海市新桥职校","lon":"121.32089","lat":"31.06127","category":"54","category_name":"职业技术学校","address":""},{"poiid":"B2094654DB6EA0F94993","title":"上海新天地中学","lon":"121.32089","lat":"31.06128","category":"55","category_name":"中学","address":""},{"poiid":"B2094757D665A3FC489E","title":"四海游龙 新南街店","lon":"121.31652","lat":"31.0618","category":"68","category_name":"快餐厅","address":"松江区新桥镇新南街289号(浦发银行对面)"},{"poiid":"B2094654DB6EA7FB459A","title":"新桥中学","lon":"121.31886","lat":"31.06118","category":"55","category_name":"中学","address":"松江区新桥镇新南街39号"},{"poiid":"B2094654DB6EA0F9499D","title":"桥头风味小吃","lon":"121.32068","lat":"31.06082","category":"68","category_name":"快餐厅","address":"新桥新育路158号"},{"poiid":"B2094654DB6EA7FA4899","title":"良友便利(新北街)","lon":"121.31856","lat":"31.06329","category":"117","category_name":"便民商店/便利店","address":"新桥镇"},{"poiid":"B2094654DB6EA0FA469D","title":"新桥蔬菜交易市场","lon":"121.32133","lat":"31.06733","category":"117","category_name":"便民商店/便利店","address":""},{"poiid":"B2094757D569A7F9479F","title":"鸿锋茶楼","lon":"121.316849","lat":"31.062516","category":"66","category_name":"茶艺馆","address":"松江区松江新桥恒宣路18号"},{"poiid":"B2094654DB6EA7FB429A","title":"新南门诊部","lon":"121.31936","lat":"31.06152","category":"162","category_name":"医院","address":"新南街166"},{"poiid":"B2094654DB6EA7FA489A","title":"兰州正宗牛肉拉面(新北街)","lon":"121.31852","lat":"31.0633","category":"90","category_name":"清真餐馆","address":""},{"poiid":"B2094654DB6EA0F84893","title":"新桥卫生院","lon":"121.31684","lat":"31.06365","category":"162","category_name":"医院","address":"松江区新桥镇新中街"},{"poiid":"B2094654DB6EA0FB4393","title":"新桥敬老院","lon":"121.32468","lat":"31.06228","category":"615","category_name":"敬老院","address":""},{"poiid":"B2094655D264A4FA499B","title":"收费站","lon":"121.31497","lat":"31.07455","category":"267","category_name":"收费站","address":""},{"poiid":"B2094654DB6EA7FA4799","title":"松江区新桥震新中学","lon":"121.31797","lat":"31.06306","category":"55","category_name":"中学","address":"新北街299弄1号"},{"poiid":"B2094654DB6EA7FB459B","title":"龙山宾馆","lon":"121.31958","lat":"31.06113","category":"250","category_name":"公园户外","address":"新桥镇新南街147号"},{"poiid":"B2094757D16BA7F4469B","title":"上海凯虹电子有限公司","lon":"121.323215444","lat":"31.0673372228","category":"263","category_name":"公司","address":"上海松江区陈春公路999号"},{"poiid":"B2094654DB6EA0FB4298","title":"福建沙县营养小吃(上海凯虹电子有限公司东)","lon":"121.32489","lat":"31.06955","category":"68","category_name":"快餐厅","address":""},{"poiid":"B2094654DB6EA0F9479B","title":"白洋小区","lon":"121.31771","lat":"31.057339","category":"47","category_name":"住宅区","address":"荣乐中路800弄"},{"poiid":"B2094654DB6EA7FB4898","title":"吃客传说新桥店","lon":"121.31152","lat":"31.06196","category":"257","category_name":"中餐厅","address":"松江区新桥镇新南街507号"},{"poiid":"B2094654DB6EA0FB419C","title":"兰州正宗牛肉拉面(松江区新桥镇新东苑居民委员会西北)","lon":"121.32628","lat":"31.06971","category":"90","category_name":"清真餐馆","address":""},{"poiid":"B2094654DB6EA0F94798","title":"新桥汽车站","lon":"121.31966","lat":"31.05796","category":"35","category_name":"长途汽车站","address":"新桥镇"},{"poiid":"B2094757D66DA1F8409F","title":"上海法官培训基地","lon":"121.342467131","lat":"31.0656326361","category":"253","category_name":"校园生活","address":"上海市光华路2888号"},{"poiid":"B2094654DB6EA4F5409C","title":"新中街步行街","lon":"121.31291","lat":"31.06276","category":"116","category_name":"特色商业街","address":""},{"poiid":"B2094654DB6EA0F8499A","title":"松江区新桥小学","lon":"121.31731","lat":"31.05881","category":"56","category_name":"小学","address":"松江区新站路288号(新站路新镇街)"},{"poiid":"B2094654DB6EA0F94799","title":"松江区新桥镇第一民工子弟学校","lon":"121.31998","lat":"31.05787","category":"55","category_name":"中学","address":""},{"poiid":"B2094654DB6EA7F4419B","title":"欣德苑","lon":"121.31319","lat":"31.061964","category":"47","category_name":"住宅区","address":"新南街439弄"}]