[{"poiid":"B2094750D464A7FA489F","title":"怡口韩国年糕火锅店","lon":"121.37249","lat":"31.217362","category":"96","category_name":"韩国料理","address":"长宁区北渔路65号(近天山西路)"},{"poiid":"B2094757D06EAAFF459B","title":"北新泾地铁站","lon":"121.37366132","lat":"31.216525192","category":"36","category_name":"地铁站","address":"上海轨道交通 二号线 轨交北新泾站 2"},{"poiid":"B2094757D068A3FE429E","title":"北新泾","lon":"121.373580575","lat":"31.2168425031","category":"260","category_name":"其他","address":"上海长宁区"},{"poiid":"B2094655D26CA4FD459C","title":"馥邦中环广场","lon":"121.373","lat":"31.21719","category":"46","category_name":"楼宇","address":"天山西路138"},{"poiid":"B2094757D06FA1FA4199","title":"富春小笼(天山店)","lon":"121.37409","lat":"31.21617","category":"68","category_name":"快餐厅","address":"长宁区天山西路157号(近北渔路)"},{"poiid":"B2094757D068A2F54393","title":"长宁民俗文化中心","lon":"121.37251","lat":"31.21654","category":"179","category_name":"音乐厅","address":"长宁区天山西路201号-205号(近北渔路)"},{"poiid":"B2094757D06FA4FA469E","title":"音乐之声大酒店(北渔路店)","lon":"121.37313","lat":"31.21685","category":"76","category_name":"上海菜","address":"长宁区天山西路138号3楼(近北渔路)"},{"poiid":"B2094757D06FA4F8479D","title":"疯狂烤翅(北新泾店)","lon":"121.37351","lat":"31.21632","category":"68","category_name":"快餐厅","address":"长宁区北渔路76号B106室(近天山西路)"},{"poiid":"B2094751D368A6FF4592","title":"韩味坊","lon":"121.3719","lat":"31.21695","category":"96","category_name":"韩国料理","address":"长宁区地铁2号线北新泾站5号口附近"},{"poiid":"B2094757D06FA1FA409B","title":"瑞冬小区","lon":"121.366889","lat":"31.214673","category":"47","category_name":"住宅区","address":"上海平塘路408弄 泉口路180弄 剑河路409弄 平塘路424弄"},{"poiid":"B2094750D66FA6F5429C","title":"虹桥火车站","lon":"121.370544","lat":"31.223768","category":"500","category_name":"未知分类","address":null},{"poiid":"B2094750D565A4F84098","title":"炫音KTV上海馥邦店","lon":"121.373382","lat":"31.216997","category":"500","category_name":"未知分类","address":"长宁区天山西路138号馥邦购物中心2楼"},{"poiid":"B2094654D569ABFC4593","title":"华德饭店 天山店","lon":"121.37201919429","lat":"31.217236437849","category":"76","category_name":"上海菜","address":"长宁区天山西路245号(近北渔路)"},{"poiid":"B2094757D06FA7FA409C","title":"芋贵人甜品店(馥邦广场店)","lon":"121.37495258","lat":"31.217467181","category":"67","category_name":"甜品店","address":"长宁区天山西路138号馥邦购物中心B1楼"},{"poiid":"B2094757D06FA6FD4792","title":"肯德基 KFC (新北新泾店)","lon":"121.372803","lat":"31.216662","category":"68","category_name":"快餐厅","address":"长宁区天山西路201号(近北渔路)"},{"poiid":"B2094757D06FA3FE4792","title":"85度C(北新泾店)","lon":"121.37316","lat":"31.21638","category":"112","category_name":"糕饼店","address":"长宁区天山西路179号(近北渔路)"},{"poiid":"B2094757D068A2FE4792","title":"宜嘉坊","lon":"121.37343","lat":"31.216141","category":"119","category_name":"商场","address":"上海市闵行区都市路2099弄"},{"poiid":"B2094654D569ABFC499A","title":"京世造型(北渔路)","lon":"121.3728","lat":"31.21661","category":"148","category_name":"美容美发店","address":""},{"poiid":"B2094757D06AAAF5489B","title":"呷哺呷哺","lon":"121.373178586","lat":"31.217241177","category":"247","category_name":"餐饮美食","address":"上海市长宁区天山西路138号B1"},{"poiid":"B2094757D069A0F9489E","title":"复茂小龙虾 天山西路店 FOMO","lon":"121.373028054","lat":"31.217099793","category":"68","category_name":"快餐厅","address":"长宁区天山西路177号2楼(近北渔路)"},{"poiid":"B2094654D569A4FA4798","title":"新泾一村","lon":"121.37034","lat":"31.218302","category":"47","category_name":"住宅区","address":"上海市长宁区天山西路北新泾"},{"poiid":"B2094757D168A5F4439E","title":"上海蓝山国际青年旅舍虹桥店","lon":"121.377748","lat":"31.218365","category":"500","category_name":"未知分类","address":"上海市长宁区哈密路108号(近长宁路)"},{"poiid":"B2094757D16FA3F8439B","title":"天山路哈密路","lon":"121.375707586","lat":"31.2166701658","category":"500","category_name":"未知分类","address":"上海市长宁区天山西路"},{"poiid":"B2094757D66DA1F44199","title":"中环","lon":"121.375623336","lat":"31.2167473873","category":"500","category_name":"未知分类","address":"上海中环北虹路"},{"poiid":"B2094654D569ABF8459F","title":"红梅小区长宁","lon":"121.37039688827","lat":"31.221023492376","category":"47","category_name":"住宅区","address":"平塘路415弄2-123号"},{"poiid":"B2094757D069A4F5439E","title":"包旺锅贴","lon":"121.37256641","lat":"31.216485397","category":"68","category_name":"快餐厅","address":"长宁区北渔路82-84号(近天山西路)"},{"poiid":"B2094654D569A4F9419D","title":"长宁馥邦苑","lon":"121.37403","lat":"31.21796","category":"47","category_name":"住宅区","address":"上海市长宁区北渔路28弄"},{"poiid":"B2094757D06BA7FE4199","title":"聚羊阁","lon":"121.372919086","lat":"31.2172511772","category":"86","category_name":"火锅店","address":"长宁区北渔路56号(近天山西路)"},{"poiid":"B2094757D069A2F4459B","title":"上海馥邦购物中心","lon":"121.3732","lat":"31.217116","category":"119","category_name":"商场","address":"长宁区天山西路138号(近北渔路)"},{"poiid":"B2094752D36DA2FA489A","title":"17.5电影院","lon":"121.370743","lat":"31.220258","category":"178","category_name":"电影院","address":"上海市长宁区北虹路1068号4楼"},{"poiid":"B2094757D164ABFA479B","title":"北翟路淞虹路","lon":"121.368508586","lat":"31.2227512847","category":"500","category_name":"未知分类","address":"上海市长宁区北翟路"},{"poiid":"B2094757D069A0F9439E","title":"551路","lon":"121.373","lat":"31.2196","category":"38","category_name":"公交车站","address":"上海阳曲路一二八纪念路—北新泾"},{"poiid":"B2094757DA6FA3FE4498","title":"味千拉面(天山西路二店)","lon":"121.373245999998","lat":"31.2166049999997","category":"247","category_name":"餐饮美食","address":null},{"poiid":"B2094655D26EA3FF4493","title":"上海时尚园No.1","lon":"121.36991","lat":"31.21935","category":"46","category_name":"楼宇","address":""},{"poiid":"B2094654DB6BA0FC429D","title":"北新泾美食街","lon":"121.37254","lat":"31.21924","category":"116","category_name":"特色商业街","address":""},{"poiid":"B2094654D569A4F94993","title":"鑫趣商务服务区","lon":"121.37275","lat":"31.21929","category":"46","category_name":"楼宇","address":"北翟路163弄1号"},{"poiid":"B2094757D468ABFB4898","title":"雅日式烤肉自助餐","lon":"121.373982","lat":"31.216416","category":"269","category_name":"烧烤","address":"长宁区天山西路155号2楼"},{"poiid":"B2094750D26DA4FF419B","title":"萨莉亚 北渔路店 Saizeriya","lon":"121.372589","lat":"31.217135","category":"94","category_name":"西餐厅","address":"长宁区天山西路138号馥邦购物中心B1楼(近北渔路)"},{"poiid":"B2094757D66AABFC429F","title":"小山城麻辣香锅 天山西路店","lon":"121.3726733","lat":"31.2170699","category":"71","category_name":"四川菜","address":"长宁区天山西路138号馥邦购物中心B1楼(近2号线北新泾站)"},{"poiid":"B2094757D068A3FD499A","title":"新泾六村","lon":"121.373","lat":"31.2258","category":"252","category_name":"楼宇机构","address":"上海金钟路340弄"},{"poiid":"B2094757D064ABFE459A","title":"中环路北翟路上下匝道","lon":"121.374446863","lat":"31.2195082218","category":"260","category_name":"其他","address":"上海中环路北翟路上下匝道"},{"poiid":"B2094757D66EA1FE4492","title":"静安面包房 天山店 JING AN BAKERY","lon":"121.371618054","lat":"31.217040793","category":"112","category_name":"糕饼店","address":"长宁区天山西路250号(近北渔路)"},{"poiid":"B2094750D76DA2F5479A","title":"文竹寿司","lon":"121.373","lat":"31.2173","category":"95","category_name":"日本料理","address":"长宁区天山西路138号馥邦购物中心B1美食广场内(近地铁2号线北新泾5号出口)"},{"poiid":"B2094757D16EA7F9449E","title":"新泾堂","lon":"121.37610626","lat":"31.219961166","category":"245","category_name":"教堂","address":"闵行区北翟路74号(北翟路绥宁路)"},{"poiid":"B2094655D26AA0F5469F","title":"晶鑫桌球","lon":"121.37398","lat":"31.21641","category":"247","category_name":"餐饮美食","address":"长宁区天山西路169号宜嘉坊3楼302室(近北渔路)"},{"poiid":"B2094655D26FA5FF4592","title":"必胜客 北新泾店 Pizza Hut","lon":"121.37270361358","lat":"31.216976182041","category":"68","category_name":"快餐厅","address":"天山西路179号近北渔路"},{"poiid":"B2094757D66CABF44592","title":"上海时尚园","lon":"121.37039558","lat":"31.219381218","category":"500","category_name":"未知分类","address":"上海北翟路163弄30号"},{"poiid":"B2094750D76DA0FC479A","title":"COCO壱番屋(天山西路店)","lon":"121.373","lat":"31.2173","category":"95","category_name":"日本料理","address":"长宁区天山西路138号馥邦购物中心B1楼(近北渔路)"},{"poiid":"B2094757DA65A5FA469F","title":"上海宜嘉酒店","lon":"121.373473","lat":"31.217087","category":"216","category_name":"经济型连锁酒店","address":"上海市长宁区天山西路173号(近北渔路)"},{"poiid":"B2094655D26CA4FE439E","title":"上海时尚园No.2","lon":"121.37013","lat":"31.21936","category":"46","category_name":"楼宇","address":""},{"poiid":"B2094750D464A7FA489F","title":"怡口韩国年糕火锅店","lon":"121.37249","lat":"31.217362","category":"96","category_name":"韩国料理","address":"长宁区北渔路65号(近天山西路)"},{"poiid":"B2094757D06EAAFF459B","title":"北新泾地铁站","lon":"121.37366132","lat":"31.216525192","category":"36","category_name":"地铁站","address":"上海轨道交通 二号线 轨交北新泾站 2"},{"poiid":"B2094757D068A3FE429E","title":"北新泾","lon":"121.373580575","lat":"31.2168425031","category":"260","category_name":"其他","address":"上海长宁区"},{"poiid":"B2094655D26CA4FD459C","title":"馥邦中环广场","lon":"121.373","lat":"31.21719","category":"46","category_name":"楼宇","address":"天山西路138"},{"poiid":"B2094757D06FA1FA4199","title":"富春小笼(天山店)","lon":"121.37409","lat":"31.21617","category":"68","category_name":"快餐厅","address":"长宁区天山西路157号(近北渔路)"},{"poiid":"B2094757D068A2F54393","title":"长宁民俗文化中心","lon":"121.37251","lat":"31.21654","category":"179","category_name":"音乐厅","address":"长宁区天山西路201号-205号(近北渔路)"},{"poiid":"B2094757D06FA4FA469E","title":"音乐之声大酒店(北渔路店)","lon":"121.37313","lat":"31.21685","category":"76","category_name":"上海菜","address":"长宁区天山西路138号3楼(近北渔路)"},{"poiid":"B2094757D06FA4F8479D","title":"疯狂烤翅(北新泾店)","lon":"121.37351","lat":"31.21632","category":"68","category_name":"快餐厅","address":"长宁区北渔路76号B106室(近天山西路)"},{"poiid":"B2094751D368A6FF4592","title":"韩味坊","lon":"121.3719","lat":"31.21695","category":"96","category_name":"韩国料理","address":"长宁区地铁2号线北新泾站5号口附近"},{"poiid":"B2094757D06FA1FA409B","title":"瑞冬小区","lon":"121.366889","lat":"31.214673","category":"47","category_name":"住宅区","address":"上海平塘路408弄 泉口路180弄 剑河路409弄 平塘路424弄"},{"poiid":"B2094750D66FA6F5429C","title":"虹桥火车站","lon":"121.370544","lat":"31.223768","category":"500","category_name":"未知分类","address":null},{"poiid":"B2094750D565A4F84098","title":"炫音KTV上海馥邦店","lon":"121.373382","lat":"31.216997","category":"500","category_name":"未知分类","address":"长宁区天山西路138号馥邦购物中心2楼"},{"poiid":"B2094654D569ABFC4593","title":"华德饭店 天山店","lon":"121.37201919429","lat":"31.217236437849","category":"76","category_name":"上海菜","address":"长宁区天山西路245号(近北渔路)"},{"poiid":"B2094757D06FA7FA409C","title":"芋贵人甜品店(馥邦广场店)","lon":"121.37495258","lat":"31.217467181","category":"67","category_name":"甜品店","address":"长宁区天山西路138号馥邦购物中心B1楼"},{"poiid":"B2094757D06FA6FD4792","title":"肯德基 KFC (新北新泾店)","lon":"121.372803","lat":"31.216662","category":"68","category_name":"快餐厅","address":"长宁区天山西路201号(近北渔路)"},{"poiid":"B2094757D06FA3FE4792","title":"85度C(北新泾店)","lon":"121.37316","lat":"31.21638","category":"112","category_name":"糕饼店","address":"长宁区天山西路179号(近北渔路)"},{"poiid":"B2094757D068A2FE4792","title":"宜嘉坊","lon":"121.37343","lat":"31.216141","category":"119","category_name":"商场","address":"上海市闵行区都市路2099弄"},{"poiid":"B2094654D569ABFC499A","title":"京世造型(北渔路)","lon":"121.3728","lat":"31.21661","category":"148","category_name":"美容美发店","address":""},{"poiid":"B2094757D06AAAF5489B","title":"呷哺呷哺","lon":"121.373178586","lat":"31.217241177","category":"247","category_name":"餐饮美食","address":"上海市长宁区天山西路138号B1"},{"poiid":"B2094757D069A0F9489E","title":"复茂小龙虾 天山西路店 FOMO","lon":"121.373028054","lat":"31.217099793","category":"68","category_name":"快餐厅","address":"长宁区天山西路177号2楼(近北渔路)"},{"poiid":"B2094654D569A4FA4798","title":"新泾一村","lon":"121.37034","lat":"31.218302","category":"47","category_name":"住宅区","address":"上海市长宁区天山西路北新泾"},{"poiid":"B2094757D168A5F4439E","title":"上海蓝山国际青年旅舍虹桥店","lon":"121.377748","lat":"31.218365","category":"500","category_name":"未知分类","address":"上海市长宁区哈密路108号(近长宁路)"},{"poiid":"B2094757D16FA3F8439B","title":"天山路哈密路","lon":"121.375707586","lat":"31.2166701658","category":"500","category_name":"未知分类","address":"上海市长宁区天山西路"},{"poiid":"B2094757D66DA1F44199","title":"中环","lon":"121.375623336","lat":"31.2167473873","category":"500","category_name":"未知分类","address":"上海中环北虹路"},{"poiid":"B2094654D569ABF8459F","title":"红梅小区长宁","lon":"121.37039688827","lat":"31.221023492376","category":"47","category_name":"住宅区","address":"平塘路415弄2-123号"},{"poiid":"B2094757D069A4F5439E","title":"包旺锅贴","lon":"121.37256641","lat":"31.216485397","category":"68","category_name":"快餐厅","address":"长宁区北渔路82-84号(近天山西路)"},{"poiid":"B2094654D569A4F9419D","title":"长宁馥邦苑","lon":"121.37403","lat":"31.21796","category":"47","category_name":"住宅区","address":"上海市长宁区北渔路28弄"},{"poiid":"B2094757D06BA7FE4199","title":"聚羊阁","lon":"121.372919086","lat":"31.2172511772","category":"86","category_name":"火锅店","address":"长宁区北渔路56号(近天山西路)"},{"poiid":"B2094757D069A2F4459B","title":"上海馥邦购物中心","lon":"121.3732","lat":"31.217116","category":"119","category_name":"商场","address":"长宁区天山西路138号(近北渔路)"},{"poiid":"B2094752D36DA2FA489A","title":"17.5电影院","lon":"121.370743","lat":"31.220258","category":"178","category_name":"电影院","address":"上海市长宁区北虹路1068号4楼"},{"poiid":"B2094757D164ABFA479B","title":"北翟路淞虹路","lon":"121.368508586","lat":"31.2227512847","category":"500","category_name":"未知分类","address":"上海市长宁区北翟路"},{"poiid":"B2094757D069A0F9439E","title":"551路","lon":"121.373","lat":"31.2196","category":"38","category_name":"公交车站","address":"上海阳曲路一二八纪念路—北新泾"},{"poiid":"B2094757DA6FA3FE4498","title":"味千拉面(天山西路二店)","lon":"121.373245999998","lat":"31.2166049999997","category":"247","category_name":"餐饮美食","address":null},{"poiid":"B2094655D26EA3FF4493","title":"上海时尚园No.1","lon":"121.36991","lat":"31.21935","category":"46","category_name":"楼宇","address":""},{"poiid":"B2094654DB6BA0FC429D","title":"北新泾美食街","lon":"121.37254","lat":"31.21924","category":"116","category_name":"特色商业街","address":""},{"poiid":"B2094654D569A4F94993","title":"鑫趣商务服务区","lon":"121.37275","lat":"31.21929","category":"46","category_name":"楼宇","address":"北翟路163弄1号"},{"poiid":"B2094757D468ABFB4898","title":"雅日式烤肉自助餐","lon":"121.373982","lat":"31.216416","category":"269","category_name":"烧烤","address":"长宁区天山西路155号2楼"},{"poiid":"B2094750D26DA4FF419B","title":"萨莉亚 北渔路店 Saizeriya","lon":"121.372589","lat":"31.217135","category":"94","category_name":"西餐厅","address":"长宁区天山西路138号馥邦购物中心B1楼(近北渔路)"},{"poiid":"B2094757D66AABFC429F","title":"小山城麻辣香锅 天山西路店","lon":"121.3726733","lat":"31.2170699","category":"71","category_name":"四川菜","address":"长宁区天山西路138号馥邦购物中心B1楼(近2号线北新泾站)"},{"poiid":"B2094757D068A3FD499A","title":"新泾六村","lon":"121.373","lat":"31.2258","category":"252","category_name":"楼宇机构","address":"上海金钟路340弄"},{"poiid":"B2094757D064ABFE459A","title":"中环路北翟路上下匝道","lon":"121.374446863","lat":"31.2195082218","category":"260","category_name":"其他","address":"上海中环路北翟路上下匝道"},{"poiid":"B2094757D66EA1FE4492","title":"静安面包房 天山店 JING AN BAKERY","lon":"121.371618054","lat":"31.217040793","category":"112","category_name":"糕饼店","address":"长宁区天山西路250号(近北渔路)"},{"poiid":"B2094750D76DA2F5479A","title":"文竹寿司","lon":"121.373","lat":"31.2173","category":"95","category_name":"日本料理","address":"长宁区天山西路138号馥邦购物中心B1美食广场内(近地铁2号线北新泾5号出口)"},{"poiid":"B2094757D16EA7F9449E","title":"新泾堂","lon":"121.37610626","lat":"31.219961166","category":"245","category_name":"教堂","address":"闵行区北翟路74号(北翟路绥宁路)"},{"poiid":"B2094655D26AA0F5469F","title":"晶鑫桌球","lon":"121.37398","lat":"31.21641","category":"247","category_name":"餐饮美食","address":"长宁区天山西路169号宜嘉坊3楼302室(近北渔路)"},{"poiid":"B2094655D26FA5FF4592","title":"必胜客 北新泾店 Pizza Hut","lon":"121.37270361358","lat":"31.216976182041","category":"68","category_name":"快餐厅","address":"天山西路179号近北渔路"},{"poiid":"B2094757D66CABF44592","title":"上海时尚园","lon":"121.37039558","lat":"31.219381218","category":"500","category_name":"未知分类","address":"上海北翟路163弄30号"},{"poiid":"B2094750D76DA0FC479A","title":"COCO壱番屋(天山西路店)","lon":"121.373","lat":"31.2173","category":"95","category_name":"日本料理","address":"长宁区天山西路138号馥邦购物中心B1楼(近北渔路)"},{"poiid":"B2094757DA65A5FA469F","title":"上海宜嘉酒店","lon":"121.373473","lat":"31.217087","category":"216","category_name":"经济型连锁酒店","address":"上海市长宁区天山西路173号(近北渔路)"},{"poiid":"B2094655D26CA4FE439E","title":"上海时尚园No.2","lon":"121.37013","lat":"31.21936","category":"46","category_name":"楼宇","address":""},{"poiid":"B2094750D464A7FA489F","title":"怡口韩国年糕火锅店","lon":"121.37249","lat":"31.217362","category":"96","category_name":"韩国料理","address":"长宁区北渔路65号(近天山西路)"},{"poiid":"B2094757D06EAAFF459B","title":"北新泾地铁站","lon":"121.37366132","lat":"31.216525192","category":"36","category_name":"地铁站","address":"上海轨道交通 二号线 轨交北新泾站 2"},{"poiid":"B2094757D068A3FE429E","title":"北新泾","lon":"121.373580575","lat":"31.2168425031","category":"260","category_name":"其他","address":"上海长宁区"},{"poiid":"B2094655D26CA4FD459C","title":"馥邦中环广场","lon":"121.373","lat":"31.21719","category":"46","category_name":"楼宇","address":"天山西路138"},{"poiid":"B2094757D06FA1FA4199","title":"富春小笼(天山店)","lon":"121.37409","lat":"31.21617","category":"68","category_name":"快餐厅","address":"长宁区天山西路157号(近北渔路)"},{"poiid":"B2094757D068A2F54393","title":"长宁民俗文化中心","lon":"121.37251","lat":"31.21654","category":"179","category_name":"音乐厅","address":"长宁区天山西路201号-205号(近北渔路)"},{"poiid":"B2094757D06FA4FA469E","title":"音乐之声大酒店(北渔路店)","lon":"121.37313","lat":"31.21685","category":"76","category_name":"上海菜","address":"长宁区天山西路138号3楼(近北渔路)"},{"poiid":"B2094757D06FA4F8479D","title":"疯狂烤翅(北新泾店)","lon":"121.37351","lat":"31.21632","category":"68","category_name":"快餐厅","address":"长宁区北渔路76号B106室(近天山西路)"},{"poiid":"B2094751D368A6FF4592","title":"韩味坊","lon":"121.3719","lat":"31.21695","category":"96","category_name":"韩国料理","address":"长宁区地铁2号线北新泾站5号口附近"},{"poiid":"B2094757D06FA1FA409B","title":"瑞冬小区","lon":"121.366889","lat":"31.214673","category":"47","category_name":"住宅区","address":"上海平塘路408弄 泉口路180弄 剑河路409弄 平塘路424弄"},{"poiid":"B2094750D66FA6F5429C","title":"虹桥火车站","lon":"121.370544","lat":"31.223768","category":"500","category_name":"未知分类","address":null},{"poiid":"B2094750D565A4F84098","title":"炫音KTV上海馥邦店","lon":"121.373382","lat":"31.216997","category":"500","category_name":"未知分类","address":"长宁区天山西路138号馥邦购物中心2楼"},{"poiid":"B2094654D569ABFC4593","title":"华德饭店 天山店","lon":"121.37201919429","lat":"31.217236437849","category":"76","category_name":"上海菜","address":"长宁区天山西路245号(近北渔路)"},{"poiid":"B2094757D06FA7FA409C","title":"芋贵人甜品店(馥邦广场店)","lon":"121.37495258","lat":"31.217467181","category":"67","category_name":"甜品店","address":"长宁区天山西路138号馥邦购物中心B1楼"},{"poiid":"B2094757D06FA6FD4792","title":"肯德基 KFC (新北新泾店)","lon":"121.372803","lat":"31.216662","category":"68","category_name":"快餐厅","address":"长宁区天山西路201号(近北渔路)"},{"poiid":"B2094757D06FA3FE4792","title":"85度C(北新泾店)","lon":"121.37316","lat":"31.21638","category":"112","category_name":"糕饼店","address":"长宁区天山西路179号(近北渔路)"},{"poiid":"B2094757D068A2FE4792","title":"宜嘉坊","lon":"121.37343","lat":"31.216141","category":"119","category_name":"商场","address":"上海市闵行区都市路2099弄"},{"poiid":"B2094654D569ABFC499A","title":"京世造型(北渔路)","lon":"121.3728","lat":"31.21661","category":"148","category_name":"美容美发店","address":""},{"poiid":"B2094757D06AAAF5489B","title":"呷哺呷哺","lon":"121.373178586","lat":"31.217241177","category":"247","category_name":"餐饮美食","address":"上海市长宁区天山西路138号B1"},{"poiid":"B2094757D069A0F9489E","title":"复茂小龙虾 天山西路店 FOMO","lon":"121.373028054","lat":"31.217099793","category":"68","category_name":"快餐厅","address":"长宁区天山西路177号2楼(近北渔路)"},{"poiid":"B2094654D569A4FA4798","title":"新泾一村","lon":"121.37034","lat":"31.218302","category":"47","category_name":"住宅区","address":"上海市长宁区天山西路北新泾"},{"poiid":"B2094757D168A5F4439E","title":"上海蓝山国际青年旅舍虹桥店","lon":"121.377748","lat":"31.218365","category":"500","category_name":"未知分类","address":"上海市长宁区哈密路108号(近长宁路)"},{"poiid":"B2094757D16FA3F8439B","title":"天山路哈密路","lon":"121.375707586","lat":"31.2166701658","category":"500","category_name":"未知分类","address":"上海市长宁区天山西路"},{"poiid":"B2094757D66DA1F44199","title":"中环","lon":"121.375623336","lat":"31.2167473873","category":"500","category_name":"未知分类","address":"上海中环北虹路"},{"poiid":"B2094654D569ABF8459F","title":"红梅小区长宁","lon":"121.37039688827","lat":"31.221023492376","category":"47","category_name":"住宅区","address":"平塘路415弄2-123号"},{"poiid":"B2094757D069A4F5439E","title":"包旺锅贴","lon":"121.37256641","lat":"31.216485397","category":"68","category_name":"快餐厅","address":"长宁区北渔路82-84号(近天山西路)"},{"poiid":"B2094654D569A4F9419D","title":"长宁馥邦苑","lon":"121.37403","lat":"31.21796","category":"47","category_name":"住宅区","address":"上海市长宁区北渔路28弄"},{"poiid":"B2094757D06BA7FE4199","title":"聚羊阁","lon":"121.372919086","lat":"31.2172511772","category":"86","category_name":"火锅店","address":"长宁区北渔路56号(近天山西路)"},{"poiid":"B2094757D069A2F4459B","title":"上海馥邦购物中心","lon":"121.3732","lat":"31.217116","category":"119","category_name":"商场","address":"长宁区天山西路138号(近北渔路)"},{"poiid":"B2094752D36DA2FA489A","title":"17.5电影院","lon":"121.370743","lat":"31.220258","category":"178","category_name":"电影院","address":"上海市长宁区北虹路1068号4楼"},{"poiid":"B2094757D164ABFA479B","title":"北翟路淞虹路","lon":"121.368508586","lat":"31.2227512847","category":"500","category_name":"未知分类","address":"上海市长宁区北翟路"},{"poiid":"B2094757D069A0F9439E","title":"551路","lon":"121.373","lat":"31.2196","category":"38","category_name":"公交车站","address":"上海阳曲路一二八纪念路—北新泾"},{"poiid":"B2094757DA6FA3FE4498","title":"味千拉面(天山西路二店)","lon":"121.373245999998","lat":"31.2166049999997","category":"247","category_name":"餐饮美食","address":null},{"poiid":"B2094655D26EA3FF4493","title":"上海时尚园No.1","lon":"121.36991","lat":"31.21935","category":"46","category_name":"楼宇","address":""},{"poiid":"B2094654DB6BA0FC429D","title":"北新泾美食街","lon":"121.37254","lat":"31.21924","category":"116","category_name":"特色商业街","address":""},{"poiid":"B2094654D569A4F94993","title":"鑫趣商务服务区","lon":"121.37275","lat":"31.21929","category":"46","category_name":"楼宇","address":"北翟路163弄1号"},{"poiid":"B2094757D468ABFB4898","title":"雅日式烤肉自助餐","lon":"121.373982","lat":"31.216416","category":"269","category_name":"烧烤","address":"长宁区天山西路155号2楼"},{"poiid":"B2094750D26DA4FF419B","title":"萨莉亚 北渔路店 Saizeriya","lon":"121.372589","lat":"31.217135","category":"94","category_name":"西餐厅","address":"长宁区天山西路138号馥邦购物中心B1楼(近北渔路)"},{"poiid":"B2094757D66AABFC429F","title":"小山城麻辣香锅 天山西路店","lon":"121.3726733","lat":"31.2170699","category":"71","category_name":"四川菜","address":"长宁区天山西路138号馥邦购物中心B1楼(近2号线北新泾站)"},{"poiid":"B2094757D068A3FD499A","title":"新泾六村","lon":"121.373","lat":"31.2258","category":"252","category_name":"楼宇机构","address":"上海金钟路340弄"},{"poiid":"B2094757D064ABFE459A","title":"中环路北翟路上下匝道","lon":"121.374446863","lat":"31.2195082218","category":"260","category_name":"其他","address":"上海中环路北翟路上下匝道"},{"poiid":"B2094757D66EA1FE4492","title":"静安面包房 天山店 JING AN BAKERY","lon":"121.371618054","lat":"31.217040793","category":"112","category_name":"糕饼店","address":"长宁区天山西路250号(近北渔路)"},{"poiid":"B2094750D76DA2F5479A","title":"文竹寿司","lon":"121.373","lat":"31.2173","category":"95","category_name":"日本料理","address":"长宁区天山西路138号馥邦购物中心B1美食广场内(近地铁2号线北新泾5号出口)"},{"poiid":"B2094757D16EA7F9449E","title":"新泾堂","lon":"121.37610626","lat":"31.219961166","category":"245","category_name":"教堂","address":"闵行区北翟路74号(北翟路绥宁路)"},{"poiid":"B2094655D26AA0F5469F","title":"晶鑫桌球","lon":"121.37398","lat":"31.21641","category":"247","category_name":"餐饮美食","address":"长宁区天山西路169号宜嘉坊3楼302室(近北渔路)"},{"poiid":"B2094655D26FA5FF4592","title":"必胜客 北新泾店 Pizza Hut","lon":"121.37270361358","lat":"31.216976182041","category":"68","category_name":"快餐厅","address":"天山西路179号近北渔路"},{"poiid":"B2094757D66CABF44592","title":"上海时尚园","lon":"121.37039558","lat":"31.219381218","category":"500","category_name":"未知分类","address":"上海北翟路163弄30号"},{"poiid":"B2094750D76DA0FC479A","title":"COCO壱番屋(天山西路店)","lon":"121.373","lat":"31.2173","category":"95","category_name":"日本料理","address":"长宁区天山西路138号馥邦购物中心B1楼(近北渔路)"},{"poiid":"B2094757DA65A5FA469F","title":"上海宜嘉酒店","lon":"121.373473","lat":"31.217087","category":"216","category_name":"经济型连锁酒店","address":"上海市长宁区天山西路173号(近北渔路)"},{"poiid":"B2094655D26CA4FE439E","title":"上海时尚园No.2","lon":"121.37013","lat":"31.21936","category":"46","category_name":"楼宇","address":""},{"poiid":"B2094750D464A7FA489F","title":"怡口韩国年糕火锅店","lon":"121.37249","lat":"31.217362","category":"96","category_name":"韩国料理","address":"长宁区北渔路65号(近天山西路)"},{"poiid":"B2094757D06EAAFF459B","title":"北新泾地铁站","lon":"121.37366132","lat":"31.216525192","category":"36","category_name":"地铁站","address":"上海轨道交通 二号线 轨交北新泾站 2"},{"poiid":"B2094757D068A3FE429E","title":"北新泾","lon":"121.373580575","lat":"31.2168425031","category":"260","category_name":"其他","address":"上海长宁区"},{"poiid":"B2094655D26CA4FD459C","title":"馥邦中环广场","lon":"121.373","lat":"31.21719","category":"46","category_name":"楼宇","address":"天山西路138"},{"poiid":"B2094757D06FA1FA4199","title":"富春小笼(天山店)","lon":"121.37409","lat":"31.21617","category":"68","category_name":"快餐厅","address":"长宁区天山西路157号(近北渔路)"},{"poiid":"B2094757D068A2F54393","title":"长宁民俗文化中心","lon":"121.37251","lat":"31.21654","category":"179","category_name":"音乐厅","address":"长宁区天山西路201号-205号(近北渔路)"},{"poiid":"B2094757D06FA4FA469E","title":"音乐之声大酒店(北渔路店)","lon":"121.37313","lat":"31.21685","category":"76","category_name":"上海菜","address":"长宁区天山西路138号3楼(近北渔路)"},{"poiid":"B2094757D06FA4F8479D","title":"疯狂烤翅(北新泾店)","lon":"121.37351","lat":"31.21632","category":"68","category_name":"快餐厅","address":"长宁区北渔路76号B106室(近天山西路)"},{"poiid":"B2094751D368A6FF4592","title":"韩味坊","lon":"121.3719","lat":"31.21695","category":"96","category_name":"韩国料理","address":"长宁区地铁2号线北新泾站5号口附近"},{"poiid":"B2094757D06FA1FA409B","title":"瑞冬小区","lon":"121.366889","lat":"31.214673","category":"47","category_name":"住宅区","address":"上海平塘路408弄 泉口路180弄 剑河路409弄 平塘路424弄"},{"poiid":"B2094750D66FA6F5429C","title":"虹桥火车站","lon":"121.370544","lat":"31.223768","category":"500","category_name":"未知分类","address":null},{"poiid":"B2094750D565A4F84098","title":"炫音KTV上海馥邦店","lon":"121.373382","lat":"31.216997","category":"500","category_name":"未知分类","address":"长宁区天山西路138号馥邦购物中心2楼"},{"poiid":"B2094654D569ABFC4593","title":"华德饭店 天山店","lon":"121.37201919429","lat":"31.217236437849","category":"76","category_name":"上海菜","address":"长宁区天山西路245号(近北渔路)"},{"poiid":"B2094757D06FA7FA409C","title":"芋贵人甜品店(馥邦广场店)","lon":"121.37495258","lat":"31.217467181","category":"67","category_name":"甜品店","address":"长宁区天山西路138号馥邦购物中心B1楼"},{"poiid":"B2094757D06FA6FD4792","title":"肯德基 KFC (新北新泾店)","lon":"121.372803","lat":"31.216662","category":"68","category_name":"快餐厅","address":"长宁区天山西路201号(近北渔路)"},{"poiid":"B2094757D06FA3FE4792","title":"85度C(北新泾店)","lon":"121.37316","lat":"31.21638","category":"112","category_name":"糕饼店","address":"长宁区天山西路179号(近北渔路)"},{"poiid":"B2094757D068A2FE4792","title":"宜嘉坊","lon":"121.37343","lat":"31.216141","category":"119","category_name":"商场","address":"上海市闵行区都市路2099弄"},{"poiid":"B2094654D569ABFC499A","title":"京世造型(北渔路)","lon":"121.3728","lat":"31.21661","category":"148","category_name":"美容美发店","address":""},{"poiid":"B2094757D06AAAF5489B","title":"呷哺呷哺","lon":"121.373178586","lat":"31.217241177","category":"247","category_name":"餐饮美食","address":"上海市长宁区天山西路138号B1"},{"poiid":"B2094757D069A0F9489E","title":"复茂小龙虾 天山西路店 FOMO","lon":"121.373028054","lat":"31.217099793","category":"68","category_name":"快餐厅","address":"长宁区天山西路177号2楼(近北渔路)"},{"poiid":"B2094654D569A4FA4798","title":"新泾一村","lon":"121.37034","lat":"31.218302","category":"47","category_name":"住宅区","address":"上海市长宁区天山西路北新泾"},{"poiid":"B2094757D168A5F4439E","title":"上海蓝山国际青年旅舍虹桥店","lon":"121.377748","lat":"31.218365","category":"500","category_name":"未知分类","address":"上海市长宁区哈密路108号(近长宁路)"},{"poiid":"B2094757D16FA3F8439B","title":"天山路哈密路","lon":"121.375707586","lat":"31.2166701658","category":"500","category_name":"未知分类","address":"上海市长宁区天山西路"},{"poiid":"B2094757D66DA1F44199","title":"中环","lon":"121.375623336","lat":"31.2167473873","category":"500","category_name":"未知分类","address":"上海中环北虹路"},{"poiid":"B2094654D569ABF8459F","title":"红梅小区长宁","lon":"121.37039688827","lat":"31.221023492376","category":"47","category_name":"住宅区","address":"平塘路415弄2-123号"},{"poiid":"B2094757D069A4F5439E","title":"包旺锅贴","lon":"121.37256641","lat":"31.216485397","category":"68","category_name":"快餐厅","address":"长宁区北渔路82-84号(近天山西路)"},{"poiid":"B2094654D569A4F9419D","title":"长宁馥邦苑","lon":"121.37403","lat":"31.21796","category":"47","category_name":"住宅区","address":"上海市长宁区北渔路28弄"},{"poiid":"B2094757D06BA7FE4199","title":"聚羊阁","lon":"121.372919086","lat":"31.2172511772","category":"86","category_name":"火锅店","address":"长宁区北渔路56号(近天山西路)"},{"poiid":"B2094757D069A2F4459B","title":"上海馥邦购物中心","lon":"121.3732","lat":"31.217116","category":"119","category_name":"商场","address":"长宁区天山西路138号(近北渔路)"},{"poiid":"B2094752D36DA2FA489A","title":"17.5电影院","lon":"121.370743","lat":"31.220258","category":"178","category_name":"电影院","address":"上海市长宁区北虹路1068号4楼"},{"poiid":"B2094757D164ABFA479B","title":"北翟路淞虹路","lon":"121.368508586","lat":"31.2227512847","category":"500","category_name":"未知分类","address":"上海市长宁区北翟路"},{"poiid":"B2094757D069A0F9439E","title":"551路","lon":"121.373","lat":"31.2196","category":"38","category_name":"公交车站","address":"上海阳曲路一二八纪念路—北新泾"},{"poiid":"B2094757DA6FA3FE4498","title":"味千拉面(天山西路二店)","lon":"121.373245999998","lat":"31.2166049999997","category":"247","category_name":"餐饮美食","address":null},{"poiid":"B2094655D26EA3FF4493","title":"上海时尚园No.1","lon":"121.36991","lat":"31.21935","category":"46","category_name":"楼宇","address":""},{"poiid":"B2094654DB6BA0FC429D","title":"北新泾美食街","lon":"121.37254","lat":"31.21924","category":"116","category_name":"特色商业街","address":""},{"poiid":"B2094654D569A4F94993","title":"鑫趣商务服务区","lon":"121.37275","lat":"31.21929","category":"46","category_name":"楼宇","address":"北翟路163弄1号"},{"poiid":"B2094757D468ABFB4898","title":"雅日式烤肉自助餐","lon":"121.373982","lat":"31.216416","category":"269","category_name":"烧烤","address":"长宁区天山西路155号2楼"},{"poiid":"B2094750D26DA4FF419B","title":"萨莉亚 北渔路店 Saizeriya","lon":"121.372589","lat":"31.217135","category":"94","category_name":"西餐厅","address":"长宁区天山西路138号馥邦购物中心B1楼(近北渔路)"},{"poiid":"B2094757D66AABFC429F","title":"小山城麻辣香锅 天山西路店","lon":"121.3726733","lat":"31.2170699","category":"71","category_name":"四川菜","address":"长宁区天山西路138号馥邦购物中心B1楼(近2号线北新泾站)"},{"poiid":"B2094757D068A3FD499A","title":"新泾六村","lon":"121.373","lat":"31.2258","category":"252","category_name":"楼宇机构","address":"上海金钟路340弄"},{"poiid":"B2094757D064ABFE459A","title":"中环路北翟路上下匝道","lon":"121.374446863","lat":"31.2195082218","category":"260","category_name":"其他","address":"上海中环路北翟路上下匝道"},{"poiid":"B2094757D66EA1FE4492","title":"静安面包房 天山店 JING AN BAKERY","lon":"121.371618054","lat":"31.217040793","category":"112","category_name":"糕饼店","address":"长宁区天山西路250号(近北渔路)"},{"poiid":"B2094750D76DA2F5479A","title":"文竹寿司","lon":"121.373","lat":"31.2173","category":"95","category_name":"日本料理","address":"长宁区天山西路138号馥邦购物中心B1美食广场内(近地铁2号线北新泾5号出口)"},{"poiid":"B2094757D16EA7F9449E","title":"新泾堂","lon":"121.37610626","lat":"31.219961166","category":"245","category_name":"教堂","address":"闵行区北翟路74号(北翟路绥宁路)"},{"poiid":"B2094655D26AA0F5469F","title":"晶鑫桌球","lon":"121.37398","lat":"31.21641","category":"247","category_name":"餐饮美食","address":"长宁区天山西路169号宜嘉坊3楼302室(近北渔路)"},{"poiid":"B2094655D26FA5FF4592","title":"必胜客 北新泾店 Pizza Hut","lon":"121.37270361358","lat":"31.216976182041","category":"68","category_name":"快餐厅","address":"天山西路179号近北渔路"},{"poiid":"B2094757D66CABF44592","title":"上海时尚园","lon":"121.37039558","lat":"31.219381218","category":"500","category_name":"未知分类","address":"上海北翟路163弄30号"},{"poiid":"B2094750D76DA0FC479A","title":"COCO壱番屋(天山西路店)","lon":"121.373","lat":"31.2173","category":"95","category_name":"日本料理","address":"长宁区天山西路138号馥邦购物中心B1楼(近北渔路)"},{"poiid":"B2094757DA65A5FA469F","title":"上海宜嘉酒店","lon":"121.373473","lat":"31.217087","category":"216","category_name":"经济型连锁酒店","address":"上海市长宁区天山西路173号(近北渔路)"},{"poiid":"B2094655D26CA4FE439E","title":"上海时尚园No.2","lon":"121.37013","lat":"31.21936","category":"46","category_name":"楼宇","address":""}]