[{"poiid":"B2094654D56FA6F5489D","title":"黄兴公园","lon":"121.5297","lat":"31.29323","category":"196","category_name":"公园","address":"杨浦区国顺东路369号(近双阳北路)"},{"poiid":"B2094750D36BA6F4479C","title":"上海小南国花园酒店","lon":"121.53347820226","lat":"31.292932530138","category":"217","category_name":"旅馆招待所","address":"杨浦区佳木斯路777号小南国花园酒店5楼(近营口路)"},{"poiid":"B2094757D068A0F54192","title":"上理工医疗器械专科学校","lon":"121.53425","lat":"31.28904","category":"52","category_name":"高等院校","address":"杨浦区营口路101号(近靖宇东路)"},{"poiid":"B2094757D06EAAFD439B","title":"延吉中路地铁站","lon":"121.5349625","lat":"31.288235197","category":"36","category_name":"地铁站","address":"上海轨道交通 八号线 轨交延吉中路站 8"},{"poiid":"B2094757D06FA7FE4793","title":"薇拉宫邸私人婚礼会所(杨浦店)","lon":"121.53268","lat":"31.29639","category":"500","category_name":"未知分类","address":"杨浦区营口路699号(近双阳北路)查看地图"},{"poiid":"B2094757D06FA0FD459C","title":"控江四村","lon":"121.53195452053","lat":"31.290594187772","category":"47","category_name":"住宅区","address":"上海黄兴路松花江路"},{"poiid":"B2094757D06FA1F9409E","title":"肯德基(靖宇东路店)","lon":"121.535454","lat":"31.2887","category":"68","category_name":"快餐厅","address":"杨浦区靖宇东路280号(近营口路)"},{"poiid":"B2094757DA64AAF54799","title":"五角场","lon":"121.531717","lat":"31.296098","category":"500","category_name":"未知分类","address":"万达广场"},{"poiid":"B2094757D068A7F8429F","title":"天空音乐城","lon":"121.529710745","lat":"31.2878488008","category":"170","category_name":"KTV","address":"杨浦区永吉路9号翰昌天地4楼(近松花江路)"},{"poiid":"B2094655D26CA6F94193","title":"延吉五·六村小区","lon":"121.53672","lat":"31.29096","category":"47","category_name":"住宅区","address":""},{"poiid":"B2094757D468A5F5499E","title":"85度C 靖宇店","lon":"121.535503054","lat":"31.288951793","category":"112","category_name":"糕饼店","address":"杨浦区靖宇东路266-270号(近营口路)"},{"poiid":"B2094751D56BA4FE4399","title":"江南公社","lon":"121.530746","lat":"31.291198","category":"247","category_name":"餐饮美食","address":"杨浦区靖宇中路280号"},{"poiid":"B2094757D068A0F5469B","title":"延春公园","lon":"121.535907724","lat":"31.2882930105","category":"196","category_name":"公园","address":"杨浦区营口路20号(近靖宇东路)"},{"poiid":"B2094757D068A3FA489F","title":"控江五村","lon":"121.536","lat":"31.2946","category":"252","category_name":"楼宇机构","address":"上海双阳路靖宇中路口"},{"poiid":"B2094654D56FA5FE409D","title":"控江东三村小区","lon":"121.53398","lat":"31.28639","category":"47","category_name":"住宅区","address":"控江三村1-87号"},{"poiid":"B2094757D068AAFE4993","title":"靖宇夜市","lon":"121.53543","lat":"31.2881","category":"68","category_name":"快餐厅","address":"杨浦区地铁八号线延吉中路站4号口(近营口路)"},{"poiid":"B2094654D56FA5FC429C","title":"黄兴公园(东门)","lon":"121.53286","lat":"31.29486","category":"656","category_name":"大门","address":""},{"poiid":"B2094655D26DA5FE4492","title":"新纪元国际广场","lon":"121.527","lat":"31.2925","category":"46","category_name":"楼宇","address":"上海市杨浦区黄兴路1599号"},{"poiid":"B2094757D064A7FF409B","title":"left rock左摇地下音乐基地","lon":"121.5349096","lat":"31.288112992","category":"500","category_name":"未知分类","address":"上海营口路靖宇东路"},{"poiid":"B2094655D36DA6FE4999","title":"延吉中路","lon":"121.53494","lat":"31.28829","category":"38","category_name":"公交车站","address":""},{"poiid":"B2094654DB65A2FF459D","title":"上海理工大学营口校区","lon":"121.53398","lat":"31.28931","category":"52","category_name":"高等院校","address":"杨浦区营口路101"},{"poiid":"B2094757D069A6F8429A","title":"控江初级中学","lon":"121.53279","lat":"31.28614","category":"55","category_name":"中学","address":"上海杨浦区永吉路118号  "},{"poiid":"B2094757D068A3FC469F","title":"意膳舫","lon":"121.53456","lat":"31.29369","category":"75","category_name":"浙江菜","address":"杨浦区营口路578号海尚杰作内(近佳木斯路)"},{"poiid":"B2094654D56FA6F54892","title":"黄兴公园(西门)","lon":"121.52723","lat":"31.29103","category":"656","category_name":"大门","address":"双阳北路59"},{"poiid":"B2094654DB65A2F84499","title":"上海医疗器械高等专科学校","lon":"121.53363","lat":"31.28903","category":"671","category_name":"高校中心点","address":"营口路101"},{"poiid":"B2094655D26AA0FA4193","title":"地铁延吉中路站","lon":"121.53494","lat":"31.28829","category":"36","category_name":"地铁站","address":""},{"poiid":"B2094757D06BA1FE429A","title":"小世界烧烤","lon":"121.53307","lat":"31.28866","category":"68","category_name":"快餐厅","address":"杨浦区靖宇东路银河证券门口(营口路口)"},{"poiid":"B2094757D069A7F84992","title":"台益公寓","lon":"121.53049","lat":"31.289953","category":"47","category_name":"住宅区","address":"上海市杨浦区松花江路333~337号"},{"poiid":"B2094655D265AAF9409D","title":"西北郎烧烤靖宇中路店","lon":"121.53397","lat":"31.28812","category":"68","category_name":"快餐厅","address":"上海杨浦区靖宇中路3号(近营口路)  "},{"poiid":"B2094757D068A0F9479E","title":"新昌润 长阳店","lon":"121.5345714682","lat":"31.292694241399","category":"247","category_name":"餐饮美食","address":"杨浦区长阳路2467号(近隆昌路)"},{"poiid":"B2094655D265A6FC4799","title":"环球大楼","lon":"121.53155","lat":"31.28842","category":"46","category_name":"楼宇","address":""},{"poiid":"B2094655D26DA5FA4099","title":"上海理工大学营口校区(东门)","lon":"121.53475","lat":"31.28921","category":"52","category_name":"高等院校","address":"营口路101"},{"poiid":"B2094655D265A4F9409B","title":"友凯音乐唱吧","lon":"121.53329","lat":"31.29128","category":"170","category_name":"KTV","address":""},{"poiid":"B2094757DA69A2FC439B","title":"厨趣diy烘培工作室","lon":"121.53398","lat":"31.28931","category":"95","category_name":"日本料理","address":"上海市杨浦区营口路578号海尚杰座1号楼7k座"},{"poiid":"B2094654D56FA6F4469E","title":"伊格尔公寓","lon":"121.53401","lat":"31.291674","category":"47","category_name":"住宅区","address":"松花江路287-291号"},{"poiid":"B2094757D16BA7FD469E","title":"汉轩韩式自助烧烤(永吉路)","lon":"121.5339748","lat":"31.291059253","category":"247","category_name":"餐饮美食","address":"上海杨浦区永吉路9号"},{"poiid":"B2094654D56FA6F4479C","title":"快客No.6434","lon":"121.53358","lat":"31.2914","category":"117","category_name":"便民商店/便利店","address":"松花江路313-2"},{"poiid":"B2094654D56FA6F4479A","title":"松益公寓","lon":"121.53374","lat":"31.291563","category":"47","category_name":"住宅区","address":"松花江路311,319"},{"poiid":"B2094757D66CA6FF409B","title":"永吉广场","lon":"121.531857103","lat":"31.2896928251","category":"500","category_name":"未知分类","address":"上海杨浦永吉路9号"},{"poiid":"B2094655D36DA0FB4592","title":"营口路靖宇东路","lon":"121.53486","lat":"31.2902","category":"38","category_name":"公交车站","address":""},{"poiid":"B2094753D765A0FD429F","title":"黄兴公园","lon":"121.531349","lat":"31.289804","category":"196","category_name":"公园","address":"上海市 杨浦区"},{"poiid":"B2094655D26FA0F5419A","title":"松益公寓(南门)","lon":"121.53378","lat":"31.29141","category":"47","category_name":"住宅区","address":"松花江路311、319"},{"poiid":"B2094757D06BA6FE439B","title":"控江二村小学(本部)","lon":"121.52853","lat":"31.2874","category":"56","category_name":"小学","address":"杨浦区双阳路650号(双阳路松花江路)"},{"poiid":"B2094757D06FA4F54293","title":"凤城四村","lon":"121.528","lat":"31.2891","category":"252","category_name":"楼宇机构","address":"上海黄兴路抚顺路"},{"poiid":"B2094757D16AA4FB419E","title":"福阳大厦","lon":"121.529","lat":"31.292","category":"252","category_name":"楼宇机构","address":"上海市杨浦区松花江路1250号"},{"poiid":"B2094654D56FA5FF479A","title":"沧州路180弄小区","lon":"121.5335872107","lat":"31.29233980415","category":"47","category_name":"住宅区","address":"沧州路180弄1-32号"},{"poiid":"B2094655D26FA0FF449C","title":"沧州路160弄小区","lon":"121.53418555699","lat":"31.291122239872","category":"47","category_name":"住宅区","address":"沧州路160弄1-4号"},{"poiid":"B2094655D264A2F8439C","title":"环球乐佳福农贸市场小吃街","lon":"121.53111","lat":"31.28826","category":"68","category_name":"快餐厅","address":"永吉路9号"},{"poiid":"B2094655D26DABF44393","title":"双阳路604弄","lon":"121.535","lat":"31.2929","category":"47","category_name":"住宅区","address":"双阳路604弄"},{"poiid":"B2094654D56FA5FC459D","title":"沙县小吃 松花江路店","lon":"121.5345987","lat":"31.2915958","category":"68","category_name":"快餐厅","address":"虹口区松花江路1100号(近黄兴路)"},{"poiid":"B2094654D56FA6F5489D","title":"黄兴公园","lon":"121.5297","lat":"31.29323","category":"196","category_name":"公园","address":"杨浦区国顺东路369号(近双阳北路)"},{"poiid":"B2094750D36BA6F4479C","title":"上海小南国花园酒店","lon":"121.53347820226","lat":"31.292932530138","category":"217","category_name":"旅馆招待所","address":"杨浦区佳木斯路777号小南国花园酒店5楼(近营口路)"},{"poiid":"B2094757D068A0F54192","title":"上理工医疗器械专科学校","lon":"121.53425","lat":"31.28904","category":"52","category_name":"高等院校","address":"杨浦区营口路101号(近靖宇东路)"},{"poiid":"B2094757D06EAAFD439B","title":"延吉中路地铁站","lon":"121.5349625","lat":"31.288235197","category":"36","category_name":"地铁站","address":"上海轨道交通 八号线 轨交延吉中路站 8"},{"poiid":"B2094757D06FA7FE4793","title":"薇拉宫邸私人婚礼会所(杨浦店)","lon":"121.53268","lat":"31.29639","category":"500","category_name":"未知分类","address":"杨浦区营口路699号(近双阳北路)查看地图"},{"poiid":"B2094757D06FA0FD459C","title":"控江四村","lon":"121.53195452053","lat":"31.290594187772","category":"47","category_name":"住宅区","address":"上海黄兴路松花江路"},{"poiid":"B2094757D06FA1F9409E","title":"肯德基(靖宇东路店)","lon":"121.535454","lat":"31.2887","category":"68","category_name":"快餐厅","address":"杨浦区靖宇东路280号(近营口路)"},{"poiid":"B2094757DA64AAF54799","title":"五角场","lon":"121.531717","lat":"31.296098","category":"500","category_name":"未知分类","address":"万达广场"},{"poiid":"B2094757D068A7F8429F","title":"天空音乐城","lon":"121.529710745","lat":"31.2878488008","category":"170","category_name":"KTV","address":"杨浦区永吉路9号翰昌天地4楼(近松花江路)"},{"poiid":"B2094655D26CA6F94193","title":"延吉五·六村小区","lon":"121.53672","lat":"31.29096","category":"47","category_name":"住宅区","address":""},{"poiid":"B2094757D468A5F5499E","title":"85度C 靖宇店","lon":"121.535503054","lat":"31.288951793","category":"112","category_name":"糕饼店","address":"杨浦区靖宇东路266-270号(近营口路)"},{"poiid":"B2094751D56BA4FE4399","title":"江南公社","lon":"121.530746","lat":"31.291198","category":"247","category_name":"餐饮美食","address":"杨浦区靖宇中路280号"},{"poiid":"B2094757D068A0F5469B","title":"延春公园","lon":"121.535907724","lat":"31.2882930105","category":"196","category_name":"公园","address":"杨浦区营口路20号(近靖宇东路)"},{"poiid":"B2094757D068A3FA489F","title":"控江五村","lon":"121.536","lat":"31.2946","category":"252","category_name":"楼宇机构","address":"上海双阳路靖宇中路口"},{"poiid":"B2094654D56FA5FE409D","title":"控江东三村小区","lon":"121.53398","lat":"31.28639","category":"47","category_name":"住宅区","address":"控江三村1-87号"},{"poiid":"B2094757D068AAFE4993","title":"靖宇夜市","lon":"121.53543","lat":"31.2881","category":"68","category_name":"快餐厅","address":"杨浦区地铁八号线延吉中路站4号口(近营口路)"},{"poiid":"B2094654D56FA5FC429C","title":"黄兴公园(东门)","lon":"121.53286","lat":"31.29486","category":"656","category_name":"大门","address":""},{"poiid":"B2094655D26DA5FE4492","title":"新纪元国际广场","lon":"121.527","lat":"31.2925","category":"46","category_name":"楼宇","address":"上海市杨浦区黄兴路1599号"},{"poiid":"B2094757D064A7FF409B","title":"left rock左摇地下音乐基地","lon":"121.5349096","lat":"31.288112992","category":"500","category_name":"未知分类","address":"上海营口路靖宇东路"},{"poiid":"B2094655D36DA6FE4999","title":"延吉中路","lon":"121.53494","lat":"31.28829","category":"38","category_name":"公交车站","address":""},{"poiid":"B2094654DB65A2FF459D","title":"上海理工大学营口校区","lon":"121.53398","lat":"31.28931","category":"52","category_name":"高等院校","address":"杨浦区营口路101"},{"poiid":"B2094757D069A6F8429A","title":"控江初级中学","lon":"121.53279","lat":"31.28614","category":"55","category_name":"中学","address":"上海杨浦区永吉路118号  "},{"poiid":"B2094757D068A3FC469F","title":"意膳舫","lon":"121.53456","lat":"31.29369","category":"75","category_name":"浙江菜","address":"杨浦区营口路578号海尚杰作内(近佳木斯路)"},{"poiid":"B2094654D56FA6F54892","title":"黄兴公园(西门)","lon":"121.52723","lat":"31.29103","category":"656","category_name":"大门","address":"双阳北路59"},{"poiid":"B2094654DB65A2F84499","title":"上海医疗器械高等专科学校","lon":"121.53363","lat":"31.28903","category":"671","category_name":"高校中心点","address":"营口路101"},{"poiid":"B2094655D26AA0FA4193","title":"地铁延吉中路站","lon":"121.53494","lat":"31.28829","category":"36","category_name":"地铁站","address":""},{"poiid":"B2094757D06BA1FE429A","title":"小世界烧烤","lon":"121.53307","lat":"31.28866","category":"68","category_name":"快餐厅","address":"杨浦区靖宇东路银河证券门口(营口路口)"},{"poiid":"B2094757D069A7F84992","title":"台益公寓","lon":"121.53049","lat":"31.289953","category":"47","category_name":"住宅区","address":"上海市杨浦区松花江路333~337号"},{"poiid":"B2094655D265AAF9409D","title":"西北郎烧烤靖宇中路店","lon":"121.53397","lat":"31.28812","category":"68","category_name":"快餐厅","address":"上海杨浦区靖宇中路3号(近营口路)  "},{"poiid":"B2094757D068A0F9479E","title":"新昌润 长阳店","lon":"121.5345714682","lat":"31.292694241399","category":"247","category_name":"餐饮美食","address":"杨浦区长阳路2467号(近隆昌路)"},{"poiid":"B2094655D265A6FC4799","title":"环球大楼","lon":"121.53155","lat":"31.28842","category":"46","category_name":"楼宇","address":""},{"poiid":"B2094655D26DA5FA4099","title":"上海理工大学营口校区(东门)","lon":"121.53475","lat":"31.28921","category":"52","category_name":"高等院校","address":"营口路101"},{"poiid":"B2094655D265A4F9409B","title":"友凯音乐唱吧","lon":"121.53329","lat":"31.29128","category":"170","category_name":"KTV","address":""},{"poiid":"B2094757DA69A2FC439B","title":"厨趣diy烘培工作室","lon":"121.53398","lat":"31.28931","category":"95","category_name":"日本料理","address":"上海市杨浦区营口路578号海尚杰座1号楼7k座"},{"poiid":"B2094654D56FA6F4469E","title":"伊格尔公寓","lon":"121.53401","lat":"31.291674","category":"47","category_name":"住宅区","address":"松花江路287-291号"},{"poiid":"B2094757D16BA7FD469E","title":"汉轩韩式自助烧烤(永吉路)","lon":"121.5339748","lat":"31.291059253","category":"247","category_name":"餐饮美食","address":"上海杨浦区永吉路9号"},{"poiid":"B2094654D56FA6F4479C","title":"快客No.6434","lon":"121.53358","lat":"31.2914","category":"117","category_name":"便民商店/便利店","address":"松花江路313-2"},{"poiid":"B2094654D56FA6F4479A","title":"松益公寓","lon":"121.53374","lat":"31.291563","category":"47","category_name":"住宅区","address":"松花江路311,319"},{"poiid":"B2094757D66CA6FF409B","title":"永吉广场","lon":"121.531857103","lat":"31.2896928251","category":"500","category_name":"未知分类","address":"上海杨浦永吉路9号"},{"poiid":"B2094655D36DA0FB4592","title":"营口路靖宇东路","lon":"121.53486","lat":"31.2902","category":"38","category_name":"公交车站","address":""},{"poiid":"B2094753D765A0FD429F","title":"黄兴公园","lon":"121.531349","lat":"31.289804","category":"196","category_name":"公园","address":"上海市 杨浦区"},{"poiid":"B2094655D26FA0F5419A","title":"松益公寓(南门)","lon":"121.53378","lat":"31.29141","category":"47","category_name":"住宅区","address":"松花江路311、319"},{"poiid":"B2094757D06BA6FE439B","title":"控江二村小学(本部)","lon":"121.52853","lat":"31.2874","category":"56","category_name":"小学","address":"杨浦区双阳路650号(双阳路松花江路)"},{"poiid":"B2094757D06FA4F54293","title":"凤城四村","lon":"121.528","lat":"31.2891","category":"252","category_name":"楼宇机构","address":"上海黄兴路抚顺路"},{"poiid":"B2094757D16AA4FB419E","title":"福阳大厦","lon":"121.529","lat":"31.292","category":"252","category_name":"楼宇机构","address":"上海市杨浦区松花江路1250号"},{"poiid":"B2094654D56FA5FF479A","title":"沧州路180弄小区","lon":"121.5335872107","lat":"31.29233980415","category":"47","category_name":"住宅区","address":"沧州路180弄1-32号"},{"poiid":"B2094655D26FA0FF449C","title":"沧州路160弄小区","lon":"121.53418555699","lat":"31.291122239872","category":"47","category_name":"住宅区","address":"沧州路160弄1-4号"},{"poiid":"B2094655D264A2F8439C","title":"环球乐佳福农贸市场小吃街","lon":"121.53111","lat":"31.28826","category":"68","category_name":"快餐厅","address":"永吉路9号"},{"poiid":"B2094655D26DABF44393","title":"双阳路604弄","lon":"121.535","lat":"31.2929","category":"47","category_name":"住宅区","address":"双阳路604弄"},{"poiid":"B2094654D56FA5FC459D","title":"沙县小吃 松花江路店","lon":"121.5345987","lat":"31.2915958","category":"68","category_name":"快餐厅","address":"虹口区松花江路1100号(近黄兴路)"},{"poiid":"B2094654D56FA6F5489D","title":"黄兴公园","lon":"121.5297","lat":"31.29323","category":"196","category_name":"公园","address":"杨浦区国顺东路369号(近双阳北路)"},{"poiid":"B2094750D36BA6F4479C","title":"上海小南国花园酒店","lon":"121.53347820226","lat":"31.292932530138","category":"217","category_name":"旅馆招待所","address":"杨浦区佳木斯路777号小南国花园酒店5楼(近营口路)"},{"poiid":"B2094757D068A0F54192","title":"上理工医疗器械专科学校","lon":"121.53425","lat":"31.28904","category":"52","category_name":"高等院校","address":"杨浦区营口路101号(近靖宇东路)"},{"poiid":"B2094757D06EAAFD439B","title":"延吉中路地铁站","lon":"121.5349625","lat":"31.288235197","category":"36","category_name":"地铁站","address":"上海轨道交通 八号线 轨交延吉中路站 8"},{"poiid":"B2094757D06FA7FE4793","title":"薇拉宫邸私人婚礼会所(杨浦店)","lon":"121.53268","lat":"31.29639","category":"500","category_name":"未知分类","address":"杨浦区营口路699号(近双阳北路)查看地图"},{"poiid":"B2094757D06FA0FD459C","title":"控江四村","lon":"121.53195452053","lat":"31.290594187772","category":"47","category_name":"住宅区","address":"上海黄兴路松花江路"},{"poiid":"B2094757D06FA1F9409E","title":"肯德基(靖宇东路店)","lon":"121.535454","lat":"31.2887","category":"68","category_name":"快餐厅","address":"杨浦区靖宇东路280号(近营口路)"},{"poiid":"B2094757DA64AAF54799","title":"五角场","lon":"121.531717","lat":"31.296098","category":"500","category_name":"未知分类","address":"万达广场"},{"poiid":"B2094757D068A7F8429F","title":"天空音乐城","lon":"121.529710745","lat":"31.2878488008","category":"170","category_name":"KTV","address":"杨浦区永吉路9号翰昌天地4楼(近松花江路)"},{"poiid":"B2094655D26CA6F94193","title":"延吉五·六村小区","lon":"121.53672","lat":"31.29096","category":"47","category_name":"住宅区","address":""},{"poiid":"B2094757D468A5F5499E","title":"85度C 靖宇店","lon":"121.535503054","lat":"31.288951793","category":"112","category_name":"糕饼店","address":"杨浦区靖宇东路266-270号(近营口路)"},{"poiid":"B2094751D56BA4FE4399","title":"江南公社","lon":"121.530746","lat":"31.291198","category":"247","category_name":"餐饮美食","address":"杨浦区靖宇中路280号"},{"poiid":"B2094757D068A0F5469B","title":"延春公园","lon":"121.535907724","lat":"31.2882930105","category":"196","category_name":"公园","address":"杨浦区营口路20号(近靖宇东路)"},{"poiid":"B2094757D068A3FA489F","title":"控江五村","lon":"121.536","lat":"31.2946","category":"252","category_name":"楼宇机构","address":"上海双阳路靖宇中路口"},{"poiid":"B2094654D56FA5FE409D","title":"控江东三村小区","lon":"121.53398","lat":"31.28639","category":"47","category_name":"住宅区","address":"控江三村1-87号"},{"poiid":"B2094757D068AAFE4993","title":"靖宇夜市","lon":"121.53543","lat":"31.2881","category":"68","category_name":"快餐厅","address":"杨浦区地铁八号线延吉中路站4号口(近营口路)"},{"poiid":"B2094654D56FA5FC429C","title":"黄兴公园(东门)","lon":"121.53286","lat":"31.29486","category":"656","category_name":"大门","address":""},{"poiid":"B2094655D26DA5FE4492","title":"新纪元国际广场","lon":"121.527","lat":"31.2925","category":"46","category_name":"楼宇","address":"上海市杨浦区黄兴路1599号"},{"poiid":"B2094757D064A7FF409B","title":"left rock左摇地下音乐基地","lon":"121.5349096","lat":"31.288112992","category":"500","category_name":"未知分类","address":"上海营口路靖宇东路"},{"poiid":"B2094655D36DA6FE4999","title":"延吉中路","lon":"121.53494","lat":"31.28829","category":"38","category_name":"公交车站","address":""},{"poiid":"B2094654DB65A2FF459D","title":"上海理工大学营口校区","lon":"121.53398","lat":"31.28931","category":"52","category_name":"高等院校","address":"杨浦区营口路101"},{"poiid":"B2094757D069A6F8429A","title":"控江初级中学","lon":"121.53279","lat":"31.28614","category":"55","category_name":"中学","address":"上海杨浦区永吉路118号  "},{"poiid":"B2094757D068A3FC469F","title":"意膳舫","lon":"121.53456","lat":"31.29369","category":"75","category_name":"浙江菜","address":"杨浦区营口路578号海尚杰作内(近佳木斯路)"},{"poiid":"B2094654D56FA6F54892","title":"黄兴公园(西门)","lon":"121.52723","lat":"31.29103","category":"656","category_name":"大门","address":"双阳北路59"},{"poiid":"B2094654DB65A2F84499","title":"上海医疗器械高等专科学校","lon":"121.53363","lat":"31.28903","category":"671","category_name":"高校中心点","address":"营口路101"},{"poiid":"B2094655D26AA0FA4193","title":"地铁延吉中路站","lon":"121.53494","lat":"31.28829","category":"36","category_name":"地铁站","address":""},{"poiid":"B2094757D06BA1FE429A","title":"小世界烧烤","lon":"121.53307","lat":"31.28866","category":"68","category_name":"快餐厅","address":"杨浦区靖宇东路银河证券门口(营口路口)"},{"poiid":"B2094757D069A7F84992","title":"台益公寓","lon":"121.53049","lat":"31.289953","category":"47","category_name":"住宅区","address":"上海市杨浦区松花江路333~337号"},{"poiid":"B2094655D265AAF9409D","title":"西北郎烧烤靖宇中路店","lon":"121.53397","lat":"31.28812","category":"68","category_name":"快餐厅","address":"上海杨浦区靖宇中路3号(近营口路)  "},{"poiid":"B2094757D068A0F9479E","title":"新昌润 长阳店","lon":"121.5345714682","lat":"31.292694241399","category":"247","category_name":"餐饮美食","address":"杨浦区长阳路2467号(近隆昌路)"},{"poiid":"B2094655D265A6FC4799","title":"环球大楼","lon":"121.53155","lat":"31.28842","category":"46","category_name":"楼宇","address":""},{"poiid":"B2094655D26DA5FA4099","title":"上海理工大学营口校区(东门)","lon":"121.53475","lat":"31.28921","category":"52","category_name":"高等院校","address":"营口路101"},{"poiid":"B2094655D265A4F9409B","title":"友凯音乐唱吧","lon":"121.53329","lat":"31.29128","category":"170","category_name":"KTV","address":""},{"poiid":"B2094757DA69A2FC439B","title":"厨趣diy烘培工作室","lon":"121.53398","lat":"31.28931","category":"95","category_name":"日本料理","address":"上海市杨浦区营口路578号海尚杰座1号楼7k座"},{"poiid":"B2094654D56FA6F4469E","title":"伊格尔公寓","lon":"121.53401","lat":"31.291674","category":"47","category_name":"住宅区","address":"松花江路287-291号"},{"poiid":"B2094757D16BA7FD469E","title":"汉轩韩式自助烧烤(永吉路)","lon":"121.5339748","lat":"31.291059253","category":"247","category_name":"餐饮美食","address":"上海杨浦区永吉路9号"},{"poiid":"B2094654D56FA6F4479C","title":"快客No.6434","lon":"121.53358","lat":"31.2914","category":"117","category_name":"便民商店/便利店","address":"松花江路313-2"},{"poiid":"B2094654D56FA6F4479A","title":"松益公寓","lon":"121.53374","lat":"31.291563","category":"47","category_name":"住宅区","address":"松花江路311,319"},{"poiid":"B2094757D66CA6FF409B","title":"永吉广场","lon":"121.531857103","lat":"31.2896928251","category":"500","category_name":"未知分类","address":"上海杨浦永吉路9号"},{"poiid":"B2094655D36DA0FB4592","title":"营口路靖宇东路","lon":"121.53486","lat":"31.2902","category":"38","category_name":"公交车站","address":""},{"poiid":"B2094753D765A0FD429F","title":"黄兴公园","lon":"121.531349","lat":"31.289804","category":"196","category_name":"公园","address":"上海市 杨浦区"},{"poiid":"B2094655D26FA0F5419A","title":"松益公寓(南门)","lon":"121.53378","lat":"31.29141","category":"47","category_name":"住宅区","address":"松花江路311、319"},{"poiid":"B2094757D06BA6FE439B","title":"控江二村小学(本部)","lon":"121.52853","lat":"31.2874","category":"56","category_name":"小学","address":"杨浦区双阳路650号(双阳路松花江路)"},{"poiid":"B2094757D06FA4F54293","title":"凤城四村","lon":"121.528","lat":"31.2891","category":"252","category_name":"楼宇机构","address":"上海黄兴路抚顺路"},{"poiid":"B2094757D16AA4FB419E","title":"福阳大厦","lon":"121.529","lat":"31.292","category":"252","category_name":"楼宇机构","address":"上海市杨浦区松花江路1250号"},{"poiid":"B2094654D56FA5FF479A","title":"沧州路180弄小区","lon":"121.5335872107","lat":"31.29233980415","category":"47","category_name":"住宅区","address":"沧州路180弄1-32号"},{"poiid":"B2094655D26FA0FF449C","title":"沧州路160弄小区","lon":"121.53418555699","lat":"31.291122239872","category":"47","category_name":"住宅区","address":"沧州路160弄1-4号"},{"poiid":"B2094655D264A2F8439C","title":"环球乐佳福农贸市场小吃街","lon":"121.53111","lat":"31.28826","category":"68","category_name":"快餐厅","address":"永吉路9号"},{"poiid":"B2094655D26DABF44393","title":"双阳路604弄","lon":"121.535","lat":"31.2929","category":"47","category_name":"住宅区","address":"双阳路604弄"},{"poiid":"B2094654D56FA5FC459D","title":"沙县小吃 松花江路店","lon":"121.5345987","lat":"31.2915958","category":"68","category_name":"快餐厅","address":"虹口区松花江路1100号(近黄兴路)"},{"poiid":"B2094654D56FA6F5489D","title":"黄兴公园","lon":"121.5297","lat":"31.29323","category":"196","category_name":"公园","address":"杨浦区国顺东路369号(近双阳北路)"},{"poiid":"B2094750D36BA6F4479C","title":"上海小南国花园酒店","lon":"121.53347820226","lat":"31.292932530138","category":"217","category_name":"旅馆招待所","address":"杨浦区佳木斯路777号小南国花园酒店5楼(近营口路)"},{"poiid":"B2094757D068A0F54192","title":"上理工医疗器械专科学校","lon":"121.53425","lat":"31.28904","category":"52","category_name":"高等院校","address":"杨浦区营口路101号(近靖宇东路)"},{"poiid":"B2094757D06EAAFD439B","title":"延吉中路地铁站","lon":"121.5349625","lat":"31.288235197","category":"36","category_name":"地铁站","address":"上海轨道交通 八号线 轨交延吉中路站 8"},{"poiid":"B2094757D06FA7FE4793","title":"薇拉宫邸私人婚礼会所(杨浦店)","lon":"121.53268","lat":"31.29639","category":"500","category_name":"未知分类","address":"杨浦区营口路699号(近双阳北路)查看地图"},{"poiid":"B2094757D06FA0FD459C","title":"控江四村","lon":"121.53195452053","lat":"31.290594187772","category":"47","category_name":"住宅区","address":"上海黄兴路松花江路"},{"poiid":"B2094757D06FA1F9409E","title":"肯德基(靖宇东路店)","lon":"121.535454","lat":"31.2887","category":"68","category_name":"快餐厅","address":"杨浦区靖宇东路280号(近营口路)"},{"poiid":"B2094757DA64AAF54799","title":"五角场","lon":"121.531717","lat":"31.296098","category":"500","category_name":"未知分类","address":"万达广场"},{"poiid":"B2094757D068A7F8429F","title":"天空音乐城","lon":"121.529710745","lat":"31.2878488008","category":"170","category_name":"KTV","address":"杨浦区永吉路9号翰昌天地4楼(近松花江路)"},{"poiid":"B2094655D26CA6F94193","title":"延吉五·六村小区","lon":"121.53672","lat":"31.29096","category":"47","category_name":"住宅区","address":""},{"poiid":"B2094757D468A5F5499E","title":"85度C 靖宇店","lon":"121.535503054","lat":"31.288951793","category":"112","category_name":"糕饼店","address":"杨浦区靖宇东路266-270号(近营口路)"},{"poiid":"B2094751D56BA4FE4399","title":"江南公社","lon":"121.530746","lat":"31.291198","category":"247","category_name":"餐饮美食","address":"杨浦区靖宇中路280号"},{"poiid":"B2094757D068A0F5469B","title":"延春公园","lon":"121.535907724","lat":"31.2882930105","category":"196","category_name":"公园","address":"杨浦区营口路20号(近靖宇东路)"},{"poiid":"B2094757D068A3FA489F","title":"控江五村","lon":"121.536","lat":"31.2946","category":"252","category_name":"楼宇机构","address":"上海双阳路靖宇中路口"},{"poiid":"B2094654D56FA5FE409D","title":"控江东三村小区","lon":"121.53398","lat":"31.28639","category":"47","category_name":"住宅区","address":"控江三村1-87号"},{"poiid":"B2094757D068AAFE4993","title":"靖宇夜市","lon":"121.53543","lat":"31.2881","category":"68","category_name":"快餐厅","address":"杨浦区地铁八号线延吉中路站4号口(近营口路)"},{"poiid":"B2094654D56FA5FC429C","title":"黄兴公园(东门)","lon":"121.53286","lat":"31.29486","category":"656","category_name":"大门","address":""},{"poiid":"B2094655D26DA5FE4492","title":"新纪元国际广场","lon":"121.527","lat":"31.2925","category":"46","category_name":"楼宇","address":"上海市杨浦区黄兴路1599号"},{"poiid":"B2094757D064A7FF409B","title":"left rock左摇地下音乐基地","lon":"121.5349096","lat":"31.288112992","category":"500","category_name":"未知分类","address":"上海营口路靖宇东路"},{"poiid":"B2094655D36DA6FE4999","title":"延吉中路","lon":"121.53494","lat":"31.28829","category":"38","category_name":"公交车站","address":""},{"poiid":"B2094654DB65A2FF459D","title":"上海理工大学营口校区","lon":"121.53398","lat":"31.28931","category":"52","category_name":"高等院校","address":"杨浦区营口路101"},{"poiid":"B2094757D069A6F8429A","title":"控江初级中学","lon":"121.53279","lat":"31.28614","category":"55","category_name":"中学","address":"上海杨浦区永吉路118号  "},{"poiid":"B2094757D068A3FC469F","title":"意膳舫","lon":"121.53456","lat":"31.29369","category":"75","category_name":"浙江菜","address":"杨浦区营口路578号海尚杰作内(近佳木斯路)"},{"poiid":"B2094654D56FA6F54892","title":"黄兴公园(西门)","lon":"121.52723","lat":"31.29103","category":"656","category_name":"大门","address":"双阳北路59"},{"poiid":"B2094654DB65A2F84499","title":"上海医疗器械高等专科学校","lon":"121.53363","lat":"31.28903","category":"671","category_name":"高校中心点","address":"营口路101"},{"poiid":"B2094655D26AA0FA4193","title":"地铁延吉中路站","lon":"121.53494","lat":"31.28829","category":"36","category_name":"地铁站","address":""},{"poiid":"B2094757D06BA1FE429A","title":"小世界烧烤","lon":"121.53307","lat":"31.28866","category":"68","category_name":"快餐厅","address":"杨浦区靖宇东路银河证券门口(营口路口)"},{"poiid":"B2094757D069A7F84992","title":"台益公寓","lon":"121.53049","lat":"31.289953","category":"47","category_name":"住宅区","address":"上海市杨浦区松花江路333~337号"},{"poiid":"B2094655D265AAF9409D","title":"西北郎烧烤靖宇中路店","lon":"121.53397","lat":"31.28812","category":"68","category_name":"快餐厅","address":"上海杨浦区靖宇中路3号(近营口路)  "},{"poiid":"B2094757D068A0F9479E","title":"新昌润 长阳店","lon":"121.5345714682","lat":"31.292694241399","category":"247","category_name":"餐饮美食","address":"杨浦区长阳路2467号(近隆昌路)"},{"poiid":"B2094655D265A6FC4799","title":"环球大楼","lon":"121.53155","lat":"31.28842","category":"46","category_name":"楼宇","address":""},{"poiid":"B2094655D26DA5FA4099","title":"上海理工大学营口校区(东门)","lon":"121.53475","lat":"31.28921","category":"52","category_name":"高等院校","address":"营口路101"},{"poiid":"B2094655D265A4F9409B","title":"友凯音乐唱吧","lon":"121.53329","lat":"31.29128","category":"170","category_name":"KTV","address":""},{"poiid":"B2094757DA69A2FC439B","title":"厨趣diy烘培工作室","lon":"121.53398","lat":"31.28931","category":"95","category_name":"日本料理","address":"上海市杨浦区营口路578号海尚杰座1号楼7k座"},{"poiid":"B2094654D56FA6F4469E","title":"伊格尔公寓","lon":"121.53401","lat":"31.291674","category":"47","category_name":"住宅区","address":"松花江路287-291号"},{"poiid":"B2094757D16BA7FD469E","title":"汉轩韩式自助烧烤(永吉路)","lon":"121.5339748","lat":"31.291059253","category":"247","category_name":"餐饮美食","address":"上海杨浦区永吉路9号"},{"poiid":"B2094654D56FA6F4479C","title":"快客No.6434","lon":"121.53358","lat":"31.2914","category":"117","category_name":"便民商店/便利店","address":"松花江路313-2"},{"poiid":"B2094654D56FA6F4479A","title":"松益公寓","lon":"121.53374","lat":"31.291563","category":"47","category_name":"住宅区","address":"松花江路311,319"},{"poiid":"B2094757D66CA6FF409B","title":"永吉广场","lon":"121.531857103","lat":"31.2896928251","category":"500","category_name":"未知分类","address":"上海杨浦永吉路9号"},{"poiid":"B2094655D36DA0FB4592","title":"营口路靖宇东路","lon":"121.53486","lat":"31.2902","category":"38","category_name":"公交车站","address":""},{"poiid":"B2094753D765A0FD429F","title":"黄兴公园","lon":"121.531349","lat":"31.289804","category":"196","category_name":"公园","address":"上海市 杨浦区"},{"poiid":"B2094655D26FA0F5419A","title":"松益公寓(南门)","lon":"121.53378","lat":"31.29141","category":"47","category_name":"住宅区","address":"松花江路311、319"},{"poiid":"B2094757D06BA6FE439B","title":"控江二村小学(本部)","lon":"121.52853","lat":"31.2874","category":"56","category_name":"小学","address":"杨浦区双阳路650号(双阳路松花江路)"},{"poiid":"B2094757D06FA4F54293","title":"凤城四村","lon":"121.528","lat":"31.2891","category":"252","category_name":"楼宇机构","address":"上海黄兴路抚顺路"},{"poiid":"B2094757D16AA4FB419E","title":"福阳大厦","lon":"121.529","lat":"31.292","category":"252","category_name":"楼宇机构","address":"上海市杨浦区松花江路1250号"},{"poiid":"B2094654D56FA5FF479A","title":"沧州路180弄小区","lon":"121.5335872107","lat":"31.29233980415","category":"47","category_name":"住宅区","address":"沧州路180弄1-32号"},{"poiid":"B2094655D26FA0FF449C","title":"沧州路160弄小区","lon":"121.53418555699","lat":"31.291122239872","category":"47","category_name":"住宅区","address":"沧州路160弄1-4号"},{"poiid":"B2094655D264A2F8439C","title":"环球乐佳福农贸市场小吃街","lon":"121.53111","lat":"31.28826","category":"68","category_name":"快餐厅","address":"永吉路9号"},{"poiid":"B2094655D26DABF44393","title":"双阳路604弄","lon":"121.535","lat":"31.2929","category":"47","category_name":"住宅区","address":"双阳路604弄"},{"poiid":"B2094654D56FA5FC459D","title":"沙县小吃 松花江路店","lon":"121.5345987","lat":"31.2915958","category":"68","category_name":"快餐厅","address":"虹口区松花江路1100号(近黄兴路)"}]