[{"poiid":"B2094757D568AAF5429F","title":"清水","lon":"121.40934543","lat":"31.19722304","category":"95","category_name":"日本料理","address":"长宁区虹桥路1153号1楼(近姚虹路)"},{"poiid":"B2094654D56BABFE449D","title":"广播大厦","lon":"121.40747","lat":"31.19681","category":"46","category_name":"楼宇","address":"虹桥路1376"},{"poiid":"B2094654D564A3FD469D","title":"上海市血液中心","lon":"121.40718","lat":"31.19831","category":"162","category_name":"医院","address":"长宁区虹桥路1191号(近伊犁路)"},{"poiid":"B2094757D66FA6FA469D","title":"宋园路地铁站","lon":"121.41167972","lat":"31.196567583","category":"36","category_name":"地铁站","address":"上海轨道交通 十号线 轨交宋园路站 10"},{"poiid":"B2094752D26DA0FD479E","title":"天辣绿色时尚餐厅(高岛屋店)","lon":"121.40826","lat":"31.19804","category":"71","category_name":"四川菜","address":"长宁区虹桥路1438号古北国际财富中心2期裙房高岛屋7楼707室"},{"poiid":"B2094757D068A0FE449B","title":"番茄主义餐厅","lon":"121.41300602","lat":"31.196586013","category":"94","category_name":"西餐厅","address":"长宁区虹桥路1286号(近宋园路)"},{"poiid":"B2094757D068A5FD489D","title":"上海市长宁区人民法院","lon":"121.40994993","lat":"31.197566526","category":"608","category_name":"法院","address":"上海长宁区虹桥路1133号"},{"poiid":"B2094757D065AAF44698","title":"中山廣場","lon":"121.413092586","lat":"31.1982898065","category":"500","category_name":"未知分类","address":"上海中山西路1065號"},{"poiid":"B2094757DB69A1FB419A","title":"凛家日本料理","lon":"121.4088584445181","lat":"31.19565778184372","category":"247","category_name":"餐饮美食","address":"长宁区宋园路36号(近虹桥路)"},{"poiid":"B2094757D168A3FB4399","title":"虹桥路宋园路","lon":"121.412981586","lat":"31.1980308014","category":"500","category_name":"未知分类","address":"上海市长宁区虹桥路"},{"poiid":"B2094757D16DA5F54592","title":"虹桥绿地","lon":"121.40673876","lat":"31.199999487","category":"196","category_name":"公园","address":"上海延安西路"},{"poiid":"B2094654D564A1FA4792","title":"钱江商务广场","lon":"121.41","lat":"31.1969","category":"46","category_name":"楼宇","address":"上海市闵行区莲花南路1500弄"},{"poiid":"B2094757D06AABFE499C","title":"三泰养生铁板烧","lon":"121.40899658","lat":"31.20170021","category":"94","category_name":"西餐厅","address":"长宁区伊犁路135号(近安顺路)"},{"poiid":"B2094654D56BABFF499F","title":"上海爱尔眼科医院","lon":"121.41295","lat":"31.1962","category":"162","category_name":"医院","address":"长宁区虹桥路1286号(近宋园路)"},{"poiid":"B2094757D06EAAFA4798","title":"爱心献血点(上海市血液中心)","lon":"121.406994","lat":"31.198091","category":"162","category_name":"医院","address":"上海长宁区虹桥路1191号(近伊犁路)"},{"poiid":"B2094757D065A7FD479E","title":"青叶家日本料理","lon":"121.408083086","lat":"31.2018559762","category":"500","category_name":"未知分类","address":"上海延安西路2077号金桥大厦一楼"},{"poiid":"B2094655D269A4FA429C","title":"前川","lon":"121.409420054","lat":"31.196986793","category":"95","category_name":"日本料理","address":"长宁区虹桥路1157号4楼(近广播大厦)"},{"poiid":"B2094757D068AAFB4499","title":"地顺铁板烧(虹桥路店)","lon":"121.4125","lat":"31.19595","category":"95","category_name":"日本料理","address":"长宁区虹桥路1288号(近宋园路)"},{"poiid":"B2094757D06FAAF9419D","title":"虹桥小区","lon":"121.41066","lat":"31.197884","category":"47","category_name":"住宅区","address":"上海虹桥路1115弄"},{"poiid":"B2094654DB64A7FA4893","title":"炼瓦家","lon":"121.4097","lat":"31.19725","category":"269","category_name":"烧烤","address":"长宁区虹桥路1157号(近伊犁南路)"},{"poiid":"B2094757D16AAAF9489B","title":"白公馆","lon":"121.40624258","lat":"31.198760815","category":"74","category_name":"江苏菜","address":"徐汇区汾阳路150号(桃江路岳阳路)"},{"poiid":"B2094654D564A3FD4693","title":"上海艺星门诊部","lon":"121.40803","lat":"31.19779","category":"162","category_name":"医院","address":"虹桥路1165"},{"poiid":"B2094750D76DA2FC489C","title":"秋之港日本料理","lon":"121.40653","lat":"31.19791","category":"95","category_name":"日本料理","address":"徐汇区虹桥路1386号文广大厦1楼"},{"poiid":"B209475CD76BA5FD439E","title":"Hello Kitty Today","lon":"121.407722","lat":"31.196411","category":"500","category_name":"未知分类","address":"上海市 高岛屋"},{"poiid":"B2094757D164A3FA469A","title":"上海长宁国际学校","lon":"121.4095632","lat":"31.198180739","category":"500","category_name":"未知分类","address":"上海虹桥路1161号"},{"poiid":"B2094757D06AA7F94098","title":"申汇轩(伊犁路店)","lon":"121.40793","lat":"31.20067","category":"76","category_name":"上海菜","address":"长宁区伊犁路111号(安顺路口)"},{"poiid":"B2094757D068ABFC4092","title":"虹储小区","lon":"121.41197","lat":"31.199516","category":"47","category_name":"住宅区","address":"上海长宁区虹桥路1041弄(安顺路283弄后门)"},{"poiid":"B2094655D26AABF8499C","title":"上海福泰国际商务酒店","lon":"121.41205","lat":"31.19874","category":"94","category_name":"西餐厅","address":"长宁区伊犁路88号(靠近虹桥路)地铁10号线伊犁路站下"},{"poiid":"B2094751DA68AAFF4098","title":"萬藏","lon":"121.4091147827538","lat":"31.19893288851361","category":"247","category_name":"餐饮美食","address":"古羊路541号"},{"poiid":"B2094751D36AA4F8429C","title":"Mario Deli(恒隆港汇店)","lon":"121.41069","lat":"31.19775","category":"94","category_name":"西餐厅","address":"徐汇区虹桥路1号恒隆港汇广场B1楼Ole超市内"},{"poiid":"B2094655D26FA6FB409A","title":"汉庭快捷(伊犁路店)","lon":"121.40904","lat":"31.20235","category":"216","category_name":"经济型连锁酒店","address":"上海市长宁区伊犁路158号(近安顺路)"},{"poiid":"B2094655D265A7FF449A","title":"虹桥市民演艺厅","lon":"121.41067","lat":"31.19812","category":"180","category_name":"剧场","address":"虹桥路1115弄2-89号"},{"poiid":"B2094757D064A5F5419D","title":"虹桥路派出所","lon":"121.41010284","lat":"31.197177887","category":"609","category_name":"警察局","address":"上海虹桥路1151号"},{"poiid":"B2094655D264A7F94798","title":"中华别墅","lon":"121.40812","lat":"31.198715","category":"47","category_name":"住宅区","address":"虹桥路1167弄1-20号"},{"poiid":"B2094654DB65A3FD4093","title":"长发虹桥公寓","lon":"121.40874","lat":"31.198086","category":"47","category_name":"住宅区","address":"上海市长宁区虹桥路1165弄"},{"poiid":"B2094757D16CA6F8419D","title":"皇家花园","lon":"121.40791","lat":"31.199532","category":"47","category_name":"住宅区","address":"上海安顺路 伊犁路"},{"poiid":"B2094655D36CA7F8449E","title":"虹桥路伊犁路","lon":"121.40788","lat":"31.19749","category":"38","category_name":"公交车站","address":"上海虹桥路姚虹西路口"},{"poiid":"B2094655D269A4FB4992","title":"摺痵女仆咖啡店","lon":"121.40966","lat":"31.19726","category":"247","category_name":"餐饮美食","address":"长宁区虹桥路1153号2楼(近中山西路)"},{"poiid":"B2094654D56BABFE4499","title":"上海东方广播电台","lon":"121.40747","lat":"31.1968","category":"60","category_name":"电台","address":"虹桥路1376号广播大厦"},{"poiid":"B2094655D36DA6FE4593","title":"宋园路","lon":"121.41165","lat":"31.1966","category":"38","category_name":"公交车站","address":""},{"poiid":"B2094654DB6BA7F84892","title":"川页瘦身(虹桥路)","lon":"121.40969","lat":"31.19725","category":"148","category_name":"美容美发店","address":"长宁区虹桥路1157号5-6楼(近上海广播大厦)"},{"poiid":"B2094655D26BA4F84692","title":"中华别墅(东门)","lon":"121.40848","lat":"31.19859","category":"47","category_name":"住宅区","address":"虹桥路1167弄1-20号"},{"poiid":"B2094654D564A3FD479D","title":"邮航小区","lon":"121.41167","lat":"31.19771","category":"47","category_name":"住宅区","address":"虹桥路1041弄2-76号"},{"poiid":"B2094757D568A6F84092","title":"虹桥街道社区文化活动中心","lon":"121.410682","lat":"31.198133","category":"248","category_name":"生活娱乐","address":"虹桥路1115弄2-89号"},{"poiid":"B2094655D26EABF94598","title":"欧薇花园餐厅","lon":"121.40727","lat":"31.19993","category":"268","category_name":"自助","address":"长宁区伊犁路88号福泰国际商务酒店1楼(近安顺路)"},{"poiid":"B2094654D564A3FE419C","title":"爱建小区","lon":"121.41031","lat":"31.199436","category":"47","category_name":"住宅区","address":"安顺路351弄2-40号"},{"poiid":"B2094757D168A1FF499B","title":"地铁海伦路站","lon":"121.409481586","lat":"31.1960857634","category":"36","category_name":"地铁站","address":"上海海伦路"},{"poiid":"B2094757D66CA3F4449D","title":"虹桥路1115号","lon":"121.410671","lat":"31.198127","category":"500","category_name":"未知分类","address":"上海虹桥小区"},{"poiid":"B2094655D265A6F5449B","title":"海洋公寓(东门)","lon":"121.40887","lat":"31.19925","category":"47","category_name":"住宅区","address":"安顺路361弄18"},{"poiid":"B2094655D36DA0F9489E","title":"姚虹路虹桥路","lon":"121.40986","lat":"31.19653","category":"38","category_name":"公交车站","address":""},{"poiid":"B2094757D568AAF5429F","title":"清水","lon":"121.40934543","lat":"31.19722304","category":"95","category_name":"日本料理","address":"长宁区虹桥路1153号1楼(近姚虹路)"},{"poiid":"B2094654D56BABFE449D","title":"广播大厦","lon":"121.40747","lat":"31.19681","category":"46","category_name":"楼宇","address":"虹桥路1376"},{"poiid":"B2094654D564A3FD469D","title":"上海市血液中心","lon":"121.40718","lat":"31.19831","category":"162","category_name":"医院","address":"长宁区虹桥路1191号(近伊犁路)"},{"poiid":"B2094757D66FA6FA469D","title":"宋园路地铁站","lon":"121.41167972","lat":"31.196567583","category":"36","category_name":"地铁站","address":"上海轨道交通 十号线 轨交宋园路站 10"},{"poiid":"B2094752D26DA0FD479E","title":"天辣绿色时尚餐厅(高岛屋店)","lon":"121.40826","lat":"31.19804","category":"71","category_name":"四川菜","address":"长宁区虹桥路1438号古北国际财富中心2期裙房高岛屋7楼707室"},{"poiid":"B2094757D068A0FE449B","title":"番茄主义餐厅","lon":"121.41300602","lat":"31.196586013","category":"94","category_name":"西餐厅","address":"长宁区虹桥路1286号(近宋园路)"},{"poiid":"B2094757D068A5FD489D","title":"上海市长宁区人民法院","lon":"121.40994993","lat":"31.197566526","category":"608","category_name":"法院","address":"上海长宁区虹桥路1133号"},{"poiid":"B2094757D065AAF44698","title":"中山廣場","lon":"121.413092586","lat":"31.1982898065","category":"500","category_name":"未知分类","address":"上海中山西路1065號"},{"poiid":"B2094757DB69A1FB419A","title":"凛家日本料理","lon":"121.4088584445181","lat":"31.19565778184372","category":"247","category_name":"餐饮美食","address":"长宁区宋园路36号(近虹桥路)"},{"poiid":"B2094757D168A3FB4399","title":"虹桥路宋园路","lon":"121.412981586","lat":"31.1980308014","category":"500","category_name":"未知分类","address":"上海市长宁区虹桥路"},{"poiid":"B2094757D16DA5F54592","title":"虹桥绿地","lon":"121.40673876","lat":"31.199999487","category":"196","category_name":"公园","address":"上海延安西路"},{"poiid":"B2094654D564A1FA4792","title":"钱江商务广场","lon":"121.41","lat":"31.1969","category":"46","category_name":"楼宇","address":"上海市闵行区莲花南路1500弄"},{"poiid":"B2094757D06AABFE499C","title":"三泰养生铁板烧","lon":"121.40899658","lat":"31.20170021","category":"94","category_name":"西餐厅","address":"长宁区伊犁路135号(近安顺路)"},{"poiid":"B2094654D56BABFF499F","title":"上海爱尔眼科医院","lon":"121.41295","lat":"31.1962","category":"162","category_name":"医院","address":"长宁区虹桥路1286号(近宋园路)"},{"poiid":"B2094757D06EAAFA4798","title":"爱心献血点(上海市血液中心)","lon":"121.406994","lat":"31.198091","category":"162","category_name":"医院","address":"上海长宁区虹桥路1191号(近伊犁路)"},{"poiid":"B2094757D065A7FD479E","title":"青叶家日本料理","lon":"121.408083086","lat":"31.2018559762","category":"500","category_name":"未知分类","address":"上海延安西路2077号金桥大厦一楼"},{"poiid":"B2094655D269A4FA429C","title":"前川","lon":"121.409420054","lat":"31.196986793","category":"95","category_name":"日本料理","address":"长宁区虹桥路1157号4楼(近广播大厦)"},{"poiid":"B2094757D068AAFB4499","title":"地顺铁板烧(虹桥路店)","lon":"121.4125","lat":"31.19595","category":"95","category_name":"日本料理","address":"长宁区虹桥路1288号(近宋园路)"},{"poiid":"B2094757D06FAAF9419D","title":"虹桥小区","lon":"121.41066","lat":"31.197884","category":"47","category_name":"住宅区","address":"上海虹桥路1115弄"},{"poiid":"B2094654DB64A7FA4893","title":"炼瓦家","lon":"121.4097","lat":"31.19725","category":"269","category_name":"烧烤","address":"长宁区虹桥路1157号(近伊犁南路)"},{"poiid":"B2094757D16AAAF9489B","title":"白公馆","lon":"121.40624258","lat":"31.198760815","category":"74","category_name":"江苏菜","address":"徐汇区汾阳路150号(桃江路岳阳路)"},{"poiid":"B2094654D564A3FD4693","title":"上海艺星门诊部","lon":"121.40803","lat":"31.19779","category":"162","category_name":"医院","address":"虹桥路1165"},{"poiid":"B2094750D76DA2FC489C","title":"秋之港日本料理","lon":"121.40653","lat":"31.19791","category":"95","category_name":"日本料理","address":"徐汇区虹桥路1386号文广大厦1楼"},{"poiid":"B209475CD76BA5FD439E","title":"Hello Kitty Today","lon":"121.407722","lat":"31.196411","category":"500","category_name":"未知分类","address":"上海市 高岛屋"},{"poiid":"B2094757D164A3FA469A","title":"上海长宁国际学校","lon":"121.4095632","lat":"31.198180739","category":"500","category_name":"未知分类","address":"上海虹桥路1161号"},{"poiid":"B2094757D06AA7F94098","title":"申汇轩(伊犁路店)","lon":"121.40793","lat":"31.20067","category":"76","category_name":"上海菜","address":"长宁区伊犁路111号(安顺路口)"},{"poiid":"B2094757D068ABFC4092","title":"虹储小区","lon":"121.41197","lat":"31.199516","category":"47","category_name":"住宅区","address":"上海长宁区虹桥路1041弄(安顺路283弄后门)"},{"poiid":"B2094655D26AABF8499C","title":"上海福泰国际商务酒店","lon":"121.41205","lat":"31.19874","category":"94","category_name":"西餐厅","address":"长宁区伊犁路88号(靠近虹桥路)地铁10号线伊犁路站下"},{"poiid":"B2094751DA68AAFF4098","title":"萬藏","lon":"121.4091147827538","lat":"31.19893288851361","category":"247","category_name":"餐饮美食","address":"古羊路541号"},{"poiid":"B2094751D36AA4F8429C","title":"Mario Deli(恒隆港汇店)","lon":"121.41069","lat":"31.19775","category":"94","category_name":"西餐厅","address":"徐汇区虹桥路1号恒隆港汇广场B1楼Ole超市内"},{"poiid":"B2094655D26FA6FB409A","title":"汉庭快捷(伊犁路店)","lon":"121.40904","lat":"31.20235","category":"216","category_name":"经济型连锁酒店","address":"上海市长宁区伊犁路158号(近安顺路)"},{"poiid":"B2094655D265A7FF449A","title":"虹桥市民演艺厅","lon":"121.41067","lat":"31.19812","category":"180","category_name":"剧场","address":"虹桥路1115弄2-89号"},{"poiid":"B2094757D064A5F5419D","title":"虹桥路派出所","lon":"121.41010284","lat":"31.197177887","category":"609","category_name":"警察局","address":"上海虹桥路1151号"},{"poiid":"B2094655D264A7F94798","title":"中华别墅","lon":"121.40812","lat":"31.198715","category":"47","category_name":"住宅区","address":"虹桥路1167弄1-20号"},{"poiid":"B2094654DB65A3FD4093","title":"长发虹桥公寓","lon":"121.40874","lat":"31.198086","category":"47","category_name":"住宅区","address":"上海市长宁区虹桥路1165弄"},{"poiid":"B2094757D16CA6F8419D","title":"皇家花园","lon":"121.40791","lat":"31.199532","category":"47","category_name":"住宅区","address":"上海安顺路 伊犁路"},{"poiid":"B2094655D36CA7F8449E","title":"虹桥路伊犁路","lon":"121.40788","lat":"31.19749","category":"38","category_name":"公交车站","address":"上海虹桥路姚虹西路口"},{"poiid":"B2094655D269A4FB4992","title":"摺痵女仆咖啡店","lon":"121.40966","lat":"31.19726","category":"247","category_name":"餐饮美食","address":"长宁区虹桥路1153号2楼(近中山西路)"},{"poiid":"B2094654D56BABFE4499","title":"上海东方广播电台","lon":"121.40747","lat":"31.1968","category":"60","category_name":"电台","address":"虹桥路1376号广播大厦"},{"poiid":"B2094655D36DA6FE4593","title":"宋园路","lon":"121.41165","lat":"31.1966","category":"38","category_name":"公交车站","address":""},{"poiid":"B2094654DB6BA7F84892","title":"川页瘦身(虹桥路)","lon":"121.40969","lat":"31.19725","category":"148","category_name":"美容美发店","address":"长宁区虹桥路1157号5-6楼(近上海广播大厦)"},{"poiid":"B2094655D26BA4F84692","title":"中华别墅(东门)","lon":"121.40848","lat":"31.19859","category":"47","category_name":"住宅区","address":"虹桥路1167弄1-20号"},{"poiid":"B2094654D564A3FD479D","title":"邮航小区","lon":"121.41167","lat":"31.19771","category":"47","category_name":"住宅区","address":"虹桥路1041弄2-76号"},{"poiid":"B2094757D568A6F84092","title":"虹桥街道社区文化活动中心","lon":"121.410682","lat":"31.198133","category":"248","category_name":"生活娱乐","address":"虹桥路1115弄2-89号"},{"poiid":"B2094655D26EABF94598","title":"欧薇花园餐厅","lon":"121.40727","lat":"31.19993","category":"268","category_name":"自助","address":"长宁区伊犁路88号福泰国际商务酒店1楼(近安顺路)"},{"poiid":"B2094654D564A3FE419C","title":"爱建小区","lon":"121.41031","lat":"31.199436","category":"47","category_name":"住宅区","address":"安顺路351弄2-40号"},{"poiid":"B2094757D168A1FF499B","title":"地铁海伦路站","lon":"121.409481586","lat":"31.1960857634","category":"36","category_name":"地铁站","address":"上海海伦路"},{"poiid":"B2094757D66CA3F4449D","title":"虹桥路1115号","lon":"121.410671","lat":"31.198127","category":"500","category_name":"未知分类","address":"上海虹桥小区"},{"poiid":"B2094655D265A6F5449B","title":"海洋公寓(东门)","lon":"121.40887","lat":"31.19925","category":"47","category_name":"住宅区","address":"安顺路361弄18"},{"poiid":"B2094655D36DA0F9489E","title":"姚虹路虹桥路","lon":"121.40986","lat":"31.19653","category":"38","category_name":"公交车站","address":""},{"poiid":"B2094757D568AAF5429F","title":"清水","lon":"121.40934543","lat":"31.19722304","category":"95","category_name":"日本料理","address":"长宁区虹桥路1153号1楼(近姚虹路)"},{"poiid":"B2094654D56BABFE449D","title":"广播大厦","lon":"121.40747","lat":"31.19681","category":"46","category_name":"楼宇","address":"虹桥路1376"},{"poiid":"B2094654D564A3FD469D","title":"上海市血液中心","lon":"121.40718","lat":"31.19831","category":"162","category_name":"医院","address":"长宁区虹桥路1191号(近伊犁路)"},{"poiid":"B2094757D66FA6FA469D","title":"宋园路地铁站","lon":"121.41167972","lat":"31.196567583","category":"36","category_name":"地铁站","address":"上海轨道交通 十号线 轨交宋园路站 10"},{"poiid":"B2094752D26DA0FD479E","title":"天辣绿色时尚餐厅(高岛屋店)","lon":"121.40826","lat":"31.19804","category":"71","category_name":"四川菜","address":"长宁区虹桥路1438号古北国际财富中心2期裙房高岛屋7楼707室"},{"poiid":"B2094757D068A0FE449B","title":"番茄主义餐厅","lon":"121.41300602","lat":"31.196586013","category":"94","category_name":"西餐厅","address":"长宁区虹桥路1286号(近宋园路)"},{"poiid":"B2094757D068A5FD489D","title":"上海市长宁区人民法院","lon":"121.40994993","lat":"31.197566526","category":"608","category_name":"法院","address":"上海长宁区虹桥路1133号"},{"poiid":"B2094757D065AAF44698","title":"中山廣場","lon":"121.413092586","lat":"31.1982898065","category":"500","category_name":"未知分类","address":"上海中山西路1065號"},{"poiid":"B2094757DB69A1FB419A","title":"凛家日本料理","lon":"121.4088584445181","lat":"31.19565778184372","category":"247","category_name":"餐饮美食","address":"长宁区宋园路36号(近虹桥路)"},{"poiid":"B2094757D168A3FB4399","title":"虹桥路宋园路","lon":"121.412981586","lat":"31.1980308014","category":"500","category_name":"未知分类","address":"上海市长宁区虹桥路"},{"poiid":"B2094757D16DA5F54592","title":"虹桥绿地","lon":"121.40673876","lat":"31.199999487","category":"196","category_name":"公园","address":"上海延安西路"},{"poiid":"B2094654D564A1FA4792","title":"钱江商务广场","lon":"121.41","lat":"31.1969","category":"46","category_name":"楼宇","address":"上海市闵行区莲花南路1500弄"},{"poiid":"B2094757D06AABFE499C","title":"三泰养生铁板烧","lon":"121.40899658","lat":"31.20170021","category":"94","category_name":"西餐厅","address":"长宁区伊犁路135号(近安顺路)"},{"poiid":"B2094654D56BABFF499F","title":"上海爱尔眼科医院","lon":"121.41295","lat":"31.1962","category":"162","category_name":"医院","address":"长宁区虹桥路1286号(近宋园路)"},{"poiid":"B2094757D06EAAFA4798","title":"爱心献血点(上海市血液中心)","lon":"121.406994","lat":"31.198091","category":"162","category_name":"医院","address":"上海长宁区虹桥路1191号(近伊犁路)"},{"poiid":"B2094757D065A7FD479E","title":"青叶家日本料理","lon":"121.408083086","lat":"31.2018559762","category":"500","category_name":"未知分类","address":"上海延安西路2077号金桥大厦一楼"},{"poiid":"B2094655D269A4FA429C","title":"前川","lon":"121.409420054","lat":"31.196986793","category":"95","category_name":"日本料理","address":"长宁区虹桥路1157号4楼(近广播大厦)"},{"poiid":"B2094757D068AAFB4499","title":"地顺铁板烧(虹桥路店)","lon":"121.4125","lat":"31.19595","category":"95","category_name":"日本料理","address":"长宁区虹桥路1288号(近宋园路)"},{"poiid":"B2094757D06FAAF9419D","title":"虹桥小区","lon":"121.41066","lat":"31.197884","category":"47","category_name":"住宅区","address":"上海虹桥路1115弄"},{"poiid":"B2094654DB64A7FA4893","title":"炼瓦家","lon":"121.4097","lat":"31.19725","category":"269","category_name":"烧烤","address":"长宁区虹桥路1157号(近伊犁南路)"},{"poiid":"B2094757D16AAAF9489B","title":"白公馆","lon":"121.40624258","lat":"31.198760815","category":"74","category_name":"江苏菜","address":"徐汇区汾阳路150号(桃江路岳阳路)"},{"poiid":"B2094654D564A3FD4693","title":"上海艺星门诊部","lon":"121.40803","lat":"31.19779","category":"162","category_name":"医院","address":"虹桥路1165"},{"poiid":"B2094750D76DA2FC489C","title":"秋之港日本料理","lon":"121.40653","lat":"31.19791","category":"95","category_name":"日本料理","address":"徐汇区虹桥路1386号文广大厦1楼"},{"poiid":"B209475CD76BA5FD439E","title":"Hello Kitty Today","lon":"121.407722","lat":"31.196411","category":"500","category_name":"未知分类","address":"上海市 高岛屋"},{"poiid":"B2094757D164A3FA469A","title":"上海长宁国际学校","lon":"121.4095632","lat":"31.198180739","category":"500","category_name":"未知分类","address":"上海虹桥路1161号"},{"poiid":"B2094757D06AA7F94098","title":"申汇轩(伊犁路店)","lon":"121.40793","lat":"31.20067","category":"76","category_name":"上海菜","address":"长宁区伊犁路111号(安顺路口)"},{"poiid":"B2094757D068ABFC4092","title":"虹储小区","lon":"121.41197","lat":"31.199516","category":"47","category_name":"住宅区","address":"上海长宁区虹桥路1041弄(安顺路283弄后门)"},{"poiid":"B2094655D26AABF8499C","title":"上海福泰国际商务酒店","lon":"121.41205","lat":"31.19874","category":"94","category_name":"西餐厅","address":"长宁区伊犁路88号(靠近虹桥路)地铁10号线伊犁路站下"},{"poiid":"B2094751DA68AAFF4098","title":"萬藏","lon":"121.4091147827538","lat":"31.19893288851361","category":"247","category_name":"餐饮美食","address":"古羊路541号"},{"poiid":"B2094751D36AA4F8429C","title":"Mario Deli(恒隆港汇店)","lon":"121.41069","lat":"31.19775","category":"94","category_name":"西餐厅","address":"徐汇区虹桥路1号恒隆港汇广场B1楼Ole超市内"},{"poiid":"B2094655D26FA6FB409A","title":"汉庭快捷(伊犁路店)","lon":"121.40904","lat":"31.20235","category":"216","category_name":"经济型连锁酒店","address":"上海市长宁区伊犁路158号(近安顺路)"},{"poiid":"B2094655D265A7FF449A","title":"虹桥市民演艺厅","lon":"121.41067","lat":"31.19812","category":"180","category_name":"剧场","address":"虹桥路1115弄2-89号"},{"poiid":"B2094757D064A5F5419D","title":"虹桥路派出所","lon":"121.41010284","lat":"31.197177887","category":"609","category_name":"警察局","address":"上海虹桥路1151号"},{"poiid":"B2094655D264A7F94798","title":"中华别墅","lon":"121.40812","lat":"31.198715","category":"47","category_name":"住宅区","address":"虹桥路1167弄1-20号"},{"poiid":"B2094654DB65A3FD4093","title":"长发虹桥公寓","lon":"121.40874","lat":"31.198086","category":"47","category_name":"住宅区","address":"上海市长宁区虹桥路1165弄"},{"poiid":"B2094757D16CA6F8419D","title":"皇家花园","lon":"121.40791","lat":"31.199532","category":"47","category_name":"住宅区","address":"上海安顺路 伊犁路"},{"poiid":"B2094655D36CA7F8449E","title":"虹桥路伊犁路","lon":"121.40788","lat":"31.19749","category":"38","category_name":"公交车站","address":"上海虹桥路姚虹西路口"},{"poiid":"B2094655D269A4FB4992","title":"摺痵女仆咖啡店","lon":"121.40966","lat":"31.19726","category":"247","category_name":"餐饮美食","address":"长宁区虹桥路1153号2楼(近中山西路)"},{"poiid":"B2094654D56BABFE4499","title":"上海东方广播电台","lon":"121.40747","lat":"31.1968","category":"60","category_name":"电台","address":"虹桥路1376号广播大厦"},{"poiid":"B2094655D36DA6FE4593","title":"宋园路","lon":"121.41165","lat":"31.1966","category":"38","category_name":"公交车站","address":""},{"poiid":"B2094654DB6BA7F84892","title":"川页瘦身(虹桥路)","lon":"121.40969","lat":"31.19725","category":"148","category_name":"美容美发店","address":"长宁区虹桥路1157号5-6楼(近上海广播大厦)"},{"poiid":"B2094655D26BA4F84692","title":"中华别墅(东门)","lon":"121.40848","lat":"31.19859","category":"47","category_name":"住宅区","address":"虹桥路1167弄1-20号"},{"poiid":"B2094654D564A3FD479D","title":"邮航小区","lon":"121.41167","lat":"31.19771","category":"47","category_name":"住宅区","address":"虹桥路1041弄2-76号"},{"poiid":"B2094757D568A6F84092","title":"虹桥街道社区文化活动中心","lon":"121.410682","lat":"31.198133","category":"248","category_name":"生活娱乐","address":"虹桥路1115弄2-89号"},{"poiid":"B2094655D26EABF94598","title":"欧薇花园餐厅","lon":"121.40727","lat":"31.19993","category":"268","category_name":"自助","address":"长宁区伊犁路88号福泰国际商务酒店1楼(近安顺路)"},{"poiid":"B2094654D564A3FE419C","title":"爱建小区","lon":"121.41031","lat":"31.199436","category":"47","category_name":"住宅区","address":"安顺路351弄2-40号"},{"poiid":"B2094757D168A1FF499B","title":"地铁海伦路站","lon":"121.409481586","lat":"31.1960857634","category":"36","category_name":"地铁站","address":"上海海伦路"},{"poiid":"B2094757D66CA3F4449D","title":"虹桥路1115号","lon":"121.410671","lat":"31.198127","category":"500","category_name":"未知分类","address":"上海虹桥小区"},{"poiid":"B2094655D265A6F5449B","title":"海洋公寓(东门)","lon":"121.40887","lat":"31.19925","category":"47","category_name":"住宅区","address":"安顺路361弄18"},{"poiid":"B2094655D36DA0F9489E","title":"姚虹路虹桥路","lon":"121.40986","lat":"31.19653","category":"38","category_name":"公交车站","address":""},{"poiid":"B2094757D568AAF5429F","title":"清水","lon":"121.40934543","lat":"31.19722304","category":"95","category_name":"日本料理","address":"长宁区虹桥路1153号1楼(近姚虹路)"},{"poiid":"B2094654D56BABFE449D","title":"广播大厦","lon":"121.40747","lat":"31.19681","category":"46","category_name":"楼宇","address":"虹桥路1376"},{"poiid":"B2094654D564A3FD469D","title":"上海市血液中心","lon":"121.40718","lat":"31.19831","category":"162","category_name":"医院","address":"长宁区虹桥路1191号(近伊犁路)"},{"poiid":"B2094757D66FA6FA469D","title":"宋园路地铁站","lon":"121.41167972","lat":"31.196567583","category":"36","category_name":"地铁站","address":"上海轨道交通 十号线 轨交宋园路站 10"},{"poiid":"B2094752D26DA0FD479E","title":"天辣绿色时尚餐厅(高岛屋店)","lon":"121.40826","lat":"31.19804","category":"71","category_name":"四川菜","address":"长宁区虹桥路1438号古北国际财富中心2期裙房高岛屋7楼707室"},{"poiid":"B2094757D068A0FE449B","title":"番茄主义餐厅","lon":"121.41300602","lat":"31.196586013","category":"94","category_name":"西餐厅","address":"长宁区虹桥路1286号(近宋园路)"},{"poiid":"B2094757D068A5FD489D","title":"上海市长宁区人民法院","lon":"121.40994993","lat":"31.197566526","category":"608","category_name":"法院","address":"上海长宁区虹桥路1133号"},{"poiid":"B2094757D065AAF44698","title":"中山廣場","lon":"121.413092586","lat":"31.1982898065","category":"500","category_name":"未知分类","address":"上海中山西路1065號"},{"poiid":"B2094757DB69A1FB419A","title":"凛家日本料理","lon":"121.4088584445181","lat":"31.19565778184372","category":"247","category_name":"餐饮美食","address":"长宁区宋园路36号(近虹桥路)"},{"poiid":"B2094757D168A3FB4399","title":"虹桥路宋园路","lon":"121.412981586","lat":"31.1980308014","category":"500","category_name":"未知分类","address":"上海市长宁区虹桥路"},{"poiid":"B2094757D16DA5F54592","title":"虹桥绿地","lon":"121.40673876","lat":"31.199999487","category":"196","category_name":"公园","address":"上海延安西路"},{"poiid":"B2094654D564A1FA4792","title":"钱江商务广场","lon":"121.41","lat":"31.1969","category":"46","category_name":"楼宇","address":"上海市闵行区莲花南路1500弄"},{"poiid":"B2094757D06AABFE499C","title":"三泰养生铁板烧","lon":"121.40899658","lat":"31.20170021","category":"94","category_name":"西餐厅","address":"长宁区伊犁路135号(近安顺路)"},{"poiid":"B2094654D56BABFF499F","title":"上海爱尔眼科医院","lon":"121.41295","lat":"31.1962","category":"162","category_name":"医院","address":"长宁区虹桥路1286号(近宋园路)"},{"poiid":"B2094757D06EAAFA4798","title":"爱心献血点(上海市血液中心)","lon":"121.406994","lat":"31.198091","category":"162","category_name":"医院","address":"上海长宁区虹桥路1191号(近伊犁路)"},{"poiid":"B2094757D065A7FD479E","title":"青叶家日本料理","lon":"121.408083086","lat":"31.2018559762","category":"500","category_name":"未知分类","address":"上海延安西路2077号金桥大厦一楼"},{"poiid":"B2094655D269A4FA429C","title":"前川","lon":"121.409420054","lat":"31.196986793","category":"95","category_name":"日本料理","address":"长宁区虹桥路1157号4楼(近广播大厦)"},{"poiid":"B2094757D068AAFB4499","title":"地顺铁板烧(虹桥路店)","lon":"121.4125","lat":"31.19595","category":"95","category_name":"日本料理","address":"长宁区虹桥路1288号(近宋园路)"},{"poiid":"B2094757D06FAAF9419D","title":"虹桥小区","lon":"121.41066","lat":"31.197884","category":"47","category_name":"住宅区","address":"上海虹桥路1115弄"},{"poiid":"B2094654DB64A7FA4893","title":"炼瓦家","lon":"121.4097","lat":"31.19725","category":"269","category_name":"烧烤","address":"长宁区虹桥路1157号(近伊犁南路)"},{"poiid":"B2094757D16AAAF9489B","title":"白公馆","lon":"121.40624258","lat":"31.198760815","category":"74","category_name":"江苏菜","address":"徐汇区汾阳路150号(桃江路岳阳路)"},{"poiid":"B2094654D564A3FD4693","title":"上海艺星门诊部","lon":"121.40803","lat":"31.19779","category":"162","category_name":"医院","address":"虹桥路1165"},{"poiid":"B2094750D76DA2FC489C","title":"秋之港日本料理","lon":"121.40653","lat":"31.19791","category":"95","category_name":"日本料理","address":"徐汇区虹桥路1386号文广大厦1楼"},{"poiid":"B209475CD76BA5FD439E","title":"Hello Kitty Today","lon":"121.407722","lat":"31.196411","category":"500","category_name":"未知分类","address":"上海市 高岛屋"},{"poiid":"B2094757D164A3FA469A","title":"上海长宁国际学校","lon":"121.4095632","lat":"31.198180739","category":"500","category_name":"未知分类","address":"上海虹桥路1161号"},{"poiid":"B2094757D06AA7F94098","title":"申汇轩(伊犁路店)","lon":"121.40793","lat":"31.20067","category":"76","category_name":"上海菜","address":"长宁区伊犁路111号(安顺路口)"},{"poiid":"B2094757D068ABFC4092","title":"虹储小区","lon":"121.41197","lat":"31.199516","category":"47","category_name":"住宅区","address":"上海长宁区虹桥路1041弄(安顺路283弄后门)"},{"poiid":"B2094655D26AABF8499C","title":"上海福泰国际商务酒店","lon":"121.41205","lat":"31.19874","category":"94","category_name":"西餐厅","address":"长宁区伊犁路88号(靠近虹桥路)地铁10号线伊犁路站下"},{"poiid":"B2094751DA68AAFF4098","title":"萬藏","lon":"121.4091147827538","lat":"31.19893288851361","category":"247","category_name":"餐饮美食","address":"古羊路541号"},{"poiid":"B2094751D36AA4F8429C","title":"Mario Deli(恒隆港汇店)","lon":"121.41069","lat":"31.19775","category":"94","category_name":"西餐厅","address":"徐汇区虹桥路1号恒隆港汇广场B1楼Ole超市内"},{"poiid":"B2094655D26FA6FB409A","title":"汉庭快捷(伊犁路店)","lon":"121.40904","lat":"31.20235","category":"216","category_name":"经济型连锁酒店","address":"上海市长宁区伊犁路158号(近安顺路)"},{"poiid":"B2094655D265A7FF449A","title":"虹桥市民演艺厅","lon":"121.41067","lat":"31.19812","category":"180","category_name":"剧场","address":"虹桥路1115弄2-89号"},{"poiid":"B2094757D064A5F5419D","title":"虹桥路派出所","lon":"121.41010284","lat":"31.197177887","category":"609","category_name":"警察局","address":"上海虹桥路1151号"},{"poiid":"B2094655D264A7F94798","title":"中华别墅","lon":"121.40812","lat":"31.198715","category":"47","category_name":"住宅区","address":"虹桥路1167弄1-20号"},{"poiid":"B2094654DB65A3FD4093","title":"长发虹桥公寓","lon":"121.40874","lat":"31.198086","category":"47","category_name":"住宅区","address":"上海市长宁区虹桥路1165弄"},{"poiid":"B2094757D16CA6F8419D","title":"皇家花园","lon":"121.40791","lat":"31.199532","category":"47","category_name":"住宅区","address":"上海安顺路 伊犁路"},{"poiid":"B2094655D36CA7F8449E","title":"虹桥路伊犁路","lon":"121.40788","lat":"31.19749","category":"38","category_name":"公交车站","address":"上海虹桥路姚虹西路口"},{"poiid":"B2094655D269A4FB4992","title":"摺痵女仆咖啡店","lon":"121.40966","lat":"31.19726","category":"247","category_name":"餐饮美食","address":"长宁区虹桥路1153号2楼(近中山西路)"},{"poiid":"B2094654D56BABFE4499","title":"上海东方广播电台","lon":"121.40747","lat":"31.1968","category":"60","category_name":"电台","address":"虹桥路1376号广播大厦"},{"poiid":"B2094655D36DA6FE4593","title":"宋园路","lon":"121.41165","lat":"31.1966","category":"38","category_name":"公交车站","address":""},{"poiid":"B2094654DB6BA7F84892","title":"川页瘦身(虹桥路)","lon":"121.40969","lat":"31.19725","category":"148","category_name":"美容美发店","address":"长宁区虹桥路1157号5-6楼(近上海广播大厦)"},{"poiid":"B2094655D26BA4F84692","title":"中华别墅(东门)","lon":"121.40848","lat":"31.19859","category":"47","category_name":"住宅区","address":"虹桥路1167弄1-20号"},{"poiid":"B2094654D564A3FD479D","title":"邮航小区","lon":"121.41167","lat":"31.19771","category":"47","category_name":"住宅区","address":"虹桥路1041弄2-76号"},{"poiid":"B2094757D568A6F84092","title":"虹桥街道社区文化活动中心","lon":"121.410682","lat":"31.198133","category":"248","category_name":"生活娱乐","address":"虹桥路1115弄2-89号"},{"poiid":"B2094655D26EABF94598","title":"欧薇花园餐厅","lon":"121.40727","lat":"31.19993","category":"268","category_name":"自助","address":"长宁区伊犁路88号福泰国际商务酒店1楼(近安顺路)"},{"poiid":"B2094654D564A3FE419C","title":"爱建小区","lon":"121.41031","lat":"31.199436","category":"47","category_name":"住宅区","address":"安顺路351弄2-40号"},{"poiid":"B2094757D168A1FF499B","title":"地铁海伦路站","lon":"121.409481586","lat":"31.1960857634","category":"36","category_name":"地铁站","address":"上海海伦路"},{"poiid":"B2094757D66CA3F4449D","title":"虹桥路1115号","lon":"121.410671","lat":"31.198127","category":"500","category_name":"未知分类","address":"上海虹桥小区"},{"poiid":"B2094655D265A6F5449B","title":"海洋公寓(东门)","lon":"121.40887","lat":"31.19925","category":"47","category_name":"住宅区","address":"安顺路361弄18"},{"poiid":"B2094655D36DA0F9489E","title":"姚虹路虹桥路","lon":"121.40986","lat":"31.19653","category":"38","category_name":"公交车站","address":""}]