[{"poiid":"B2094654DB6EA7FC429E","title":"旗忠森林体育城网球中心","lon":"121.35946","lat":"31.03844","category":"226","category_name":"网球场","address":"闵行区马桥镇元江路5500号(近昆阳北路)"},{"poiid":"B2094757D065ABF44498","title":"ATP1000上海大师赛","lon":"121.36211572","lat":"31.032221347","category":"500","category_name":"未知分类","address":"上海闵行区元江路旗忠森林网球中心"},{"poiid":"B2094655D26FA3F4479C","title":"上海·绿城玫瑰园","lon":"121.34968","lat":"31.04066","category":"47","category_name":"住宅区","address":"朝阳区东四环慈云寺桥东北角，向东400米路南"},{"poiid":"B2094757D068ABF44799","title":"闵行马桥镇","lon":"121.36865997","lat":"31.03045845","category":"260","category_name":"其他","address":"上海闵行 马桥镇"},{"poiid":"B2094655D36DA0F5469F","title":"裕丰小区","lon":"121.36393","lat":"31.03373","category":"47","category_name":"住宅区","address":""},{"poiid":"B2094750DB6FA4F94793","title":"旗忠网球中心","lon":"121.3647","lat":"31.038082","category":"500","category_name":"未知分类","address":null},{"poiid":"B2094757D16FA4FA459C","title":"巴黎-夏尔·戴高乐机场T3航站楼","lon":"121.35897512","lat":"31.04012401","category":"21","category_name":"飞机场","address":"Paris-Charles de Gaulle Airport"},{"poiid":"B2094757D168A0FF409D","title":"上海市检察官培训中心","lon":"121.361431324","lat":"31.0568952328","category":"500","category_name":"未知分类","address":"上海闵行区昆阳路光华路"},{"poiid":"B2094757D16DA7FE429A","title":"旭初酒楼","lon":"121.365805578","lat":"31.0262551249","category":"247","category_name":"餐饮美食","address":"上海近郊松江区北松公路(昆阳北路口)  "},{"poiid":"B2094757D065AAFC479B","title":"旗忠网球中心3号球场","lon":"121.359468","lat":"31.038435","category":"500","category_name":"未知分类","address":"上海旗忠网球中心"},{"poiid":"B2094655D36DA0F5489A","title":"元江路华宁路","lon":"121.37719","lat":"31.04255","category":"38","category_name":"公交车站","address":""},{"poiid":"B2094757D06BA5F54292","title":"旗忠森林网球中心2号球场","lon":"121.353477","lat":"31.037939","category":"500","category_name":"未知分类","address":"上海旗忠森林网球中心"},{"poiid":"B2094654DB6EA7FC489C","title":"小沪人家 马桥店","lon":"121.370681054","lat":"31.030586793","category":"76","category_name":"上海菜","address":"闵行区富岩路309号(马桥镇菜场对面)"},{"poiid":"B2094654DB6EA7FC499A","title":"上海联盟综合商场","lon":"121.36644","lat":"31.03378","category":"119","category_name":"商场","address":""},{"poiid":"B2094655D36CA1FB4398","title":"联青路元松路","lon":"121.37434","lat":"31.03849","category":"38","category_name":"公交车站","address":""},{"poiid":"B2094757D66FA6FE459F","title":"屯门时代广场","lon":"121.35891912","lat":"31.039972006","category":"500","category_name":"未知分类","address":"香港屯门屯合街1-2号  "},{"poiid":"B2094655D26FA3F44792","title":"长岛别墅(东门)","lon":"121.35848","lat":"31.0506","category":"47","category_name":"住宅区","address":"昆阳路3558弄"},{"poiid":"B2094655D26BABFE4799","title":"上海人济酒店","lon":"121.36378","lat":"31.04834","category":"214","category_name":"四星级宾馆","address":"闵行区昆阳路3558弄(近旗忠高尔夫球场)"},{"poiid":"B2094654DB6EA7FC499C","title":"马桥镇卫生院","lon":"121.3676","lat":"31.03099","category":"162","category_name":"医院","address":"马桥镇"},{"poiid":"B2094654DB6EA7FC4893","title":"闵行区马桥镇社区学校裕丰小区分校","lon":"121.36623","lat":"31.03338","category":"253","category_name":"校园生活","address":""},{"poiid":"B2094757D76DA0F4449B","title":"旭初酒家","lon":"121.36246845031","lat":"31.027613843562","category":"76","category_name":"上海菜","address":"闵行区北松公路2455号(昆阳北路口)"},{"poiid":"B2094654DB6EA7FC4992","title":"上海马桥强恕学校","lon":"121.36643","lat":"31.0296","category":"55","category_name":"中学","address":"北松路2258"},{"poiid":"B2094655D26EA5F84592","title":"上海·绿城玫瑰园(东门)","lon":"121.35241","lat":"31.03962","category":"48","category_name":"楼宇大门","address":"中青路1555弄"},{"poiid":"B2094757D065A7FD4398","title":"中星红庐别墅区","lon":"121.36200112","lat":"31.045167113","category":"252","category_name":"楼宇机构","address":"上海市闵行区昆阳路"},{"poiid":"B2094654DB6EA7FD409B","title":"闵行区马桥镇青年联谊图书馆","lon":"121.36437","lat":"31.03104","category":"181","category_name":"图书馆","address":"闵行区青年路168号(敬南路马桥青年路)"},{"poiid":"B2094655D26AA6F4479D","title":"星阳酒家","lon":"121.362009054","lat":"31.027554793","category":"76","category_name":"上海菜","address":"闵行区昆阳路2069号(北松路口)"},{"poiid":"B2094654DB6EA0F94198","title":"马桥镇社区卫生服务中心","lon":"121.36761","lat":"31.031","category":"162","category_name":"医院","address":""},{"poiid":"B2094655D26EAAFA479F","title":"中国移动马桥营业厅","lon":"121.37001","lat":"31.03229","category":"151","category_name":"电讯营业厅","address":"闵行区马桥镇富岩路321-323号"},{"poiid":"B2094654DB6EA7FD4098","title":"马桥西街小区","lon":"121.36829","lat":"31.028149","category":"47","category_name":"住宅区","address":"新西路58弄"},{"poiid":"B2094757D66FA3FD459A","title":"福伊特驱动技术有限公司","lon":"121.370234628","lat":"31.0378265628","category":"263","category_name":"公司","address":"上海市莘庄华锦路265号"},{"poiid":"B2094655D36DA0F5489E","title":"元松路北松路","lon":"121.37261","lat":"31.03402","category":"38","category_name":"公交车站","address":""},{"poiid":"B2094654DB69A7F84793","title":"马桥电影院","lon":"121.36816","lat":"31.03005","category":"178","category_name":"电影院","address":"闵行区马桥镇北松路口(北松公路西新路)"},{"poiid":"B2094655D26BA1FA479F","title":"马桥镇","lon":"121.37001","lat":"31.03009","category":"38","category_name":"公交车站","address":""},{"poiid":"B2094654DB6EA7FD429E","title":"好又多马桥店","lon":"121.36882","lat":"31.02943","category":"118","category_name":"超级市场","address":"北松公路2241"},{"poiid":"B2094757D164A6FA499C","title":"森林溪谷","lon":"121.36144485","lat":"31.049821358","category":"47","category_name":"住宅区","address":"闵行区昆阳路3388弄105号"},{"poiid":"B2094757D164A6F84092","title":"中星红庐会所","lon":"121.361775128","lat":"31.0449041084","category":"500","category_name":"未知分类","address":"上海昆阳路3299号"},{"poiid":"B2094757D16AA6FB4299","title":"马桥镇体育活动中心","lon":"121.36657912","lat":"31.027696754","category":"500","category_name":"未知分类","address":"上海市闵行区昆阳路"},{"poiid":"B2094654DB6EA0F9409B","title":"闵马菜市场","lon":"121.37083","lat":"31.03186","category":"117","category_name":"便民商店/便利店","address":"富岩路298弄"},{"poiid":"B2094654DB6EA7FE4592","title":"沙港河大酒店","lon":"121.37313","lat":"31.03062","category":"76","category_name":"上海菜","address":"闵行区马桥镇北松公路1875号西面一幢(北松公路元松路)"},{"poiid":"B2094654DB6EA7FC429C","title":"裕隆花园","lon":"121.37847","lat":"31.03173","category":"47","category_name":"住宅区","address":"上海北松公路1600号"},{"poiid":"B2094654DB6EA7FC4292","title":"闵行区马桥镇星星中心卫生室","lon":"121.37547","lat":"31.03684","category":"162","category_name":"医院","address":""},{"poiid":"B2094757D16DA5FE409D","title":"马桥社区卫生服务中心","lon":"121.366089328","lat":"31.0288041773","category":"500","category_name":"未知分类","address":"上海北松公路"},{"poiid":"B2094654DB6EA7FE419F","title":"闵行明星综合商场","lon":"121.36981","lat":"31.02861","category":"119","category_name":"商场","address":""},{"poiid":"B2094654DB6EA7FE4099","title":"新街百货","lon":"121.37048","lat":"31.02878","category":"119","category_name":"商场","address":""},{"poiid":"B2094654DB6EA7FE409D","title":"伟丽百货","lon":"121.37039","lat":"31.02876","category":"119","category_name":"商场","address":""},{"poiid":"B2094655D36DA1FA439E","title":"马桥镇70号地块","lon":"121.3714","lat":"31.0294","category":"47","category_name":"住宅区","address":"马桥镇富岩路230弄"},{"poiid":"B2094655D26FA3FB4798","title":"马桥西街小区(东门)","lon":"121.36872","lat":"31.02828","category":"47","category_name":"住宅区","address":"西新路58弄"},{"poiid":"B2094654DB6EA7FD459B","title":"清真兰州拉面(中街)","lon":"121.37059","lat":"31.02841","category":"90","category_name":"清真餐馆","address":""},{"poiid":"B2094757D16DA7FE469D","title":"西街小区","lon":"121.36636507","lat":"31.025885867","category":"47","category_name":"住宅区","address":"上海西街小区"},{"poiid":"B2094654DB6EA0F94098","title":"联华超市(富岩路)","lon":"121.37175","lat":"31.02908","category":"118","category_name":"超级市场","address":""},{"poiid":"B2094654DB6EA7FC429E","title":"旗忠森林体育城网球中心","lon":"121.35946","lat":"31.03844","category":"226","category_name":"网球场","address":"闵行区马桥镇元江路5500号(近昆阳北路)"},{"poiid":"B2094757D065ABF44498","title":"ATP1000上海大师赛","lon":"121.36211572","lat":"31.032221347","category":"500","category_name":"未知分类","address":"上海闵行区元江路旗忠森林网球中心"},{"poiid":"B2094655D26FA3F4479C","title":"上海·绿城玫瑰园","lon":"121.34968","lat":"31.04066","category":"47","category_name":"住宅区","address":"朝阳区东四环慈云寺桥东北角，向东400米路南"},{"poiid":"B2094757D068ABF44799","title":"闵行马桥镇","lon":"121.36865997","lat":"31.03045845","category":"260","category_name":"其他","address":"上海闵行 马桥镇"},{"poiid":"B2094655D36DA0F5469F","title":"裕丰小区","lon":"121.36393","lat":"31.03373","category":"47","category_name":"住宅区","address":""},{"poiid":"B2094750DB6FA4F94793","title":"旗忠网球中心","lon":"121.3647","lat":"31.038082","category":"500","category_name":"未知分类","address":null},{"poiid":"B2094757D16FA4FA459C","title":"巴黎-夏尔·戴高乐机场T3航站楼","lon":"121.35897512","lat":"31.04012401","category":"21","category_name":"飞机场","address":"Paris-Charles de Gaulle Airport"},{"poiid":"B2094757D168A0FF409D","title":"上海市检察官培训中心","lon":"121.361431324","lat":"31.0568952328","category":"500","category_name":"未知分类","address":"上海闵行区昆阳路光华路"},{"poiid":"B2094757D16DA7FE429A","title":"旭初酒楼","lon":"121.365805578","lat":"31.0262551249","category":"247","category_name":"餐饮美食","address":"上海近郊松江区北松公路(昆阳北路口)  "},{"poiid":"B2094757D065AAFC479B","title":"旗忠网球中心3号球场","lon":"121.359468","lat":"31.038435","category":"500","category_name":"未知分类","address":"上海旗忠网球中心"},{"poiid":"B2094655D36DA0F5489A","title":"元江路华宁路","lon":"121.37719","lat":"31.04255","category":"38","category_name":"公交车站","address":""},{"poiid":"B2094757D06BA5F54292","title":"旗忠森林网球中心2号球场","lon":"121.353477","lat":"31.037939","category":"500","category_name":"未知分类","address":"上海旗忠森林网球中心"},{"poiid":"B2094654DB6EA7FC489C","title":"小沪人家 马桥店","lon":"121.370681054","lat":"31.030586793","category":"76","category_name":"上海菜","address":"闵行区富岩路309号(马桥镇菜场对面)"},{"poiid":"B2094654DB6EA7FC499A","title":"上海联盟综合商场","lon":"121.36644","lat":"31.03378","category":"119","category_name":"商场","address":""},{"poiid":"B2094655D36CA1FB4398","title":"联青路元松路","lon":"121.37434","lat":"31.03849","category":"38","category_name":"公交车站","address":""},{"poiid":"B2094757D66FA6FE459F","title":"屯门时代广场","lon":"121.35891912","lat":"31.039972006","category":"500","category_name":"未知分类","address":"香港屯门屯合街1-2号  "},{"poiid":"B2094655D26FA3F44792","title":"长岛别墅(东门)","lon":"121.35848","lat":"31.0506","category":"47","category_name":"住宅区","address":"昆阳路3558弄"},{"poiid":"B2094655D26BABFE4799","title":"上海人济酒店","lon":"121.36378","lat":"31.04834","category":"214","category_name":"四星级宾馆","address":"闵行区昆阳路3558弄(近旗忠高尔夫球场)"},{"poiid":"B2094654DB6EA7FC499C","title":"马桥镇卫生院","lon":"121.3676","lat":"31.03099","category":"162","category_name":"医院","address":"马桥镇"},{"poiid":"B2094654DB6EA7FC4893","title":"闵行区马桥镇社区学校裕丰小区分校","lon":"121.36623","lat":"31.03338","category":"253","category_name":"校园生活","address":""},{"poiid":"B2094757D76DA0F4449B","title":"旭初酒家","lon":"121.36246845031","lat":"31.027613843562","category":"76","category_name":"上海菜","address":"闵行区北松公路2455号(昆阳北路口)"},{"poiid":"B2094654DB6EA7FC4992","title":"上海马桥强恕学校","lon":"121.36643","lat":"31.0296","category":"55","category_name":"中学","address":"北松路2258"},{"poiid":"B2094655D26EA5F84592","title":"上海·绿城玫瑰园(东门)","lon":"121.35241","lat":"31.03962","category":"48","category_name":"楼宇大门","address":"中青路1555弄"},{"poiid":"B2094757D065A7FD4398","title":"中星红庐别墅区","lon":"121.36200112","lat":"31.045167113","category":"252","category_name":"楼宇机构","address":"上海市闵行区昆阳路"},{"poiid":"B2094654DB6EA7FD409B","title":"闵行区马桥镇青年联谊图书馆","lon":"121.36437","lat":"31.03104","category":"181","category_name":"图书馆","address":"闵行区青年路168号(敬南路马桥青年路)"},{"poiid":"B2094655D26AA6F4479D","title":"星阳酒家","lon":"121.362009054","lat":"31.027554793","category":"76","category_name":"上海菜","address":"闵行区昆阳路2069号(北松路口)"},{"poiid":"B2094654DB6EA0F94198","title":"马桥镇社区卫生服务中心","lon":"121.36761","lat":"31.031","category":"162","category_name":"医院","address":""},{"poiid":"B2094655D26EAAFA479F","title":"中国移动马桥营业厅","lon":"121.37001","lat":"31.03229","category":"151","category_name":"电讯营业厅","address":"闵行区马桥镇富岩路321-323号"},{"poiid":"B2094654DB6EA7FD4098","title":"马桥西街小区","lon":"121.36829","lat":"31.028149","category":"47","category_name":"住宅区","address":"新西路58弄"},{"poiid":"B2094757D66FA3FD459A","title":"福伊特驱动技术有限公司","lon":"121.370234628","lat":"31.0378265628","category":"263","category_name":"公司","address":"上海市莘庄华锦路265号"},{"poiid":"B2094655D36DA0F5489E","title":"元松路北松路","lon":"121.37261","lat":"31.03402","category":"38","category_name":"公交车站","address":""},{"poiid":"B2094654DB69A7F84793","title":"马桥电影院","lon":"121.36816","lat":"31.03005","category":"178","category_name":"电影院","address":"闵行区马桥镇北松路口(北松公路西新路)"},{"poiid":"B2094655D26BA1FA479F","title":"马桥镇","lon":"121.37001","lat":"31.03009","category":"38","category_name":"公交车站","address":""},{"poiid":"B2094654DB6EA7FD429E","title":"好又多马桥店","lon":"121.36882","lat":"31.02943","category":"118","category_name":"超级市场","address":"北松公路2241"},{"poiid":"B2094757D164A6FA499C","title":"森林溪谷","lon":"121.36144485","lat":"31.049821358","category":"47","category_name":"住宅区","address":"闵行区昆阳路3388弄105号"},{"poiid":"B2094757D164A6F84092","title":"中星红庐会所","lon":"121.361775128","lat":"31.0449041084","category":"500","category_name":"未知分类","address":"上海昆阳路3299号"},{"poiid":"B2094757D16AA6FB4299","title":"马桥镇体育活动中心","lon":"121.36657912","lat":"31.027696754","category":"500","category_name":"未知分类","address":"上海市闵行区昆阳路"},{"poiid":"B2094654DB6EA0F9409B","title":"闵马菜市场","lon":"121.37083","lat":"31.03186","category":"117","category_name":"便民商店/便利店","address":"富岩路298弄"},{"poiid":"B2094654DB6EA7FE4592","title":"沙港河大酒店","lon":"121.37313","lat":"31.03062","category":"76","category_name":"上海菜","address":"闵行区马桥镇北松公路1875号西面一幢(北松公路元松路)"},{"poiid":"B2094654DB6EA7FC429C","title":"裕隆花园","lon":"121.37847","lat":"31.03173","category":"47","category_name":"住宅区","address":"上海北松公路1600号"},{"poiid":"B2094654DB6EA7FC4292","title":"闵行区马桥镇星星中心卫生室","lon":"121.37547","lat":"31.03684","category":"162","category_name":"医院","address":""},{"poiid":"B2094757D16DA5FE409D","title":"马桥社区卫生服务中心","lon":"121.366089328","lat":"31.0288041773","category":"500","category_name":"未知分类","address":"上海北松公路"},{"poiid":"B2094654DB6EA7FE419F","title":"闵行明星综合商场","lon":"121.36981","lat":"31.02861","category":"119","category_name":"商场","address":""},{"poiid":"B2094654DB6EA7FE4099","title":"新街百货","lon":"121.37048","lat":"31.02878","category":"119","category_name":"商场","address":""},{"poiid":"B2094654DB6EA7FE409D","title":"伟丽百货","lon":"121.37039","lat":"31.02876","category":"119","category_name":"商场","address":""},{"poiid":"B2094655D36DA1FA439E","title":"马桥镇70号地块","lon":"121.3714","lat":"31.0294","category":"47","category_name":"住宅区","address":"马桥镇富岩路230弄"},{"poiid":"B2094655D26FA3FB4798","title":"马桥西街小区(东门)","lon":"121.36872","lat":"31.02828","category":"47","category_name":"住宅区","address":"西新路58弄"},{"poiid":"B2094654DB6EA7FD459B","title":"清真兰州拉面(中街)","lon":"121.37059","lat":"31.02841","category":"90","category_name":"清真餐馆","address":""},{"poiid":"B2094757D16DA7FE469D","title":"西街小区","lon":"121.36636507","lat":"31.025885867","category":"47","category_name":"住宅区","address":"上海西街小区"},{"poiid":"B2094654DB6EA0F94098","title":"联华超市(富岩路)","lon":"121.37175","lat":"31.02908","category":"118","category_name":"超级市场","address":""}]