[{"poiid":"B2094654DB6AA6FF4699","title":"上海豫园万丽酒店","lon":"121.48799","lat":"31.22754","category":"213","category_name":"五星级宾馆","address":"上海黄浦区河南南路159号(近福佑路)"},{"poiid":"B2094757D065AAF84892","title":"上海老飯店","lon":"121.490577698","lat":"31.2276554108","category":"75","category_name":"浙江菜","address":"黄浦区福佑路242号"},{"poiid":"B2094757D165A6FD409E","title":"外滩二十二号","lon":"121.48842638473934","lat":"31.239447501314032","category":"627","category_name":"一般地点标志","address":"上海市黄埔区中山东一路"},{"poiid":"B2094753D76FAAFA449C","title":"上海滩国泰旗舰店","lon":"121.466011","lat":"31.216125","category":"249","category_name":"购物服务","address":"淮海中路868号"},{"poiid":"B209475CD564A7F84292","title":"上海滩新天地店","lon":"121.47463","lat":"31.22164","category":"119","category_name":"商场","address":"\"太仓路181弄新天地北里15号\r\n\""},{"poiid":"B209475CD564A7F84392","title":"上海滩浦东香格里拉店","lon":"121.50058","lat":"31.23634","category":"119","category_name":"商场","address":"浦东富成路33号香格里拉酒店内大堂层"},{"poiid":"B2094757D06FA6F4449A","title":"城隍庙第一购物中心","lon":"121.490396152","lat":"31.229039814","category":"119","category_name":"商场","address":"黄浦区丽水路88号城隍珠宝内(近城隍庙)"},{"poiid":"B2094757D66FA6FA4898","title":"豫园地铁站","lon":"121.48740085","lat":"31.22813753","category":"36","category_name":"地铁站","address":"上海轨道交通 十号线 轨交豫园站 10"},{"poiid":"B2094757D069A2F44693","title":"黄浦江畔","lon":"121.490871","lat":"31.230903","category":"260","category_name":"其他","address":"上海黄浦江畔"},{"poiid":"B2094757D06FA6FE4298","title":"海上阿叔(黄浦店)","lon":"121.48804","lat":"31.23132","category":"76","category_name":"上海菜","address":"黄浦区延安东路222号外滩中心B1楼(近江西中路)"},{"poiid":"B2094757D06FA1FA409D","title":"淮海中华大厦","lon":"121.49016706473","lat":"31.231560906818","category":"46","category_name":"楼宇","address":"朝阳华威桥东北角"},{"poiid":"B2094654DB65AAF4439B","title":"麦当劳(豫园店)","lon":"121.49037","lat":"31.22825","category":"68","category_name":"快餐厅","address":"黄浦区丽水路88号城隍珠宝内(近城隍庙)"},{"poiid":"B2094750D364A7F44998","title":"上海南京路步行街","lon":"121.488845","lat":"31.22718","category":"249","category_name":"购物服务","address":"黄浦区步行街"},{"poiid":"B2094757D06FA4FE499B","title":"亚一金店(城隍庙店)","lon":"121.49034347","lat":"31.2277079844","category":"131","category_name":"珠宝首饰工艺品","address":"黄浦区福佑路288号(福佑路旧校场路)查看地图"},{"poiid":"B2094654DA6EA5F54699","title":"豫园商城","lon":"121.49107","lat":"31.22773","category":"119","category_name":"商场","address":"黄浦区方浜中路269号(近城隍庙豫龙坊)"},{"poiid":"B2094757D164AAF8419B","title":"南翔饅頭店-長兴樓","lon":"121.49004573","lat":"31.22789725","category":"500","category_name":"未知分类","address":"上海城隍廟"},{"poiid":"B2094757D068A3FD459D","title":"永银大厦","lon":"121.487","lat":"31.2303","category":"46","category_name":"楼宇","address":"卫清西路139_149号等"},{"poiid":"B2094757D069A0F84693","title":"豫园站","lon":"121.48705573","lat":"31.228868271","category":"500","category_name":"未知分类","address":"上海地铁十号线"},{"poiid":"B2094757D06FABFA469E","title":"中汇大厦","lon":"121.48686831","lat":"31.230220304","category":"46","category_name":"楼宇","address":"丰台学城海鹰路1号,3号"},{"poiid":"B2094655D26AA4FA479B","title":"万丽轩豫园万丽店","lon":"121.48799","lat":"31.22753","category":"72","category_name":"广东菜","address":"黄浦区河南南路159号豫园万丽大酒店4楼(河南南路吴家弄)"},{"poiid":"B2094654DA6EA5F54992","title":"福佑门小商品市场","lon":"121.48796","lat":"31.22811","category":"120","category_name":"小商品市场","address":"黄浦区福佑路427号(近河南南路)"},{"poiid":"B2094757D06FA4FB4493","title":"黄浦区业余大学","lon":"121.4913","lat":"31.22992","category":"52","category_name":"高等院校","address":"黄浦区四川南路37号(近金陵东路)"},{"poiid":"B2094654DB6BA4F9439A","title":"星腾大厦","lon":"121.48728","lat":"31.23068","category":"46","category_name":"楼宇","address":"长宁路1158号贝多芬广场618室"},{"poiid":"B2094757D069A7FF4599","title":"安藤家","lon":"121.48767843","lat":"31.230165898","category":"95","category_name":"日本料理","address":"金陵东路229号范仕达生活广场2楼(近河南南路)"},{"poiid":"B2094654DA6EA4FC4399","title":"沈香阁","lon":"121.48999","lat":"31.22723","category":"244","category_name":"寺庙道观","address":"上海黄浦区沉香阁路29号(近福佑路)"},{"poiid":"B2094753D76AAAF9429C","title":"鹿港小镇（宏伊店）","lon":"121.489372","lat":"31.231023","category":"500","category_name":"未知分类","address":"上海市 山东路"},{"poiid":"B2094757D66EA2F44492","title":"10号线","lon":"121.487296738","lat":"31.2293972823","category":"500","category_name":"未知分类","address":"上海车上"},{"poiid":"B2094757D06BA4FC479A","title":"仙芋奇圆","lon":"121.488421738","lat":"31.2310923185","category":"67","category_name":"甜品店","address":"黄浦区金陵东路68号工商联大厦裙楼1楼B-2铺(近江西南路)"},{"poiid":"B2094750D76FAAFF4198","title":"豫园万丽咖啡厅","lon":"121.488","lat":"31.2276","category":"268","category_name":"自助","address":"黄浦区河南南路159号豫园万丽大酒店4楼(近福佑路)"},{"poiid":"B2094655D26EA1FA4293","title":"避风塘福水缘茶楼","lon":"121.48905","lat":"31.22852","category":"66","category_name":"茶艺馆","address":"福佑路333号2层"},{"poiid":"B2094654DA6EA5FB4298","title":"天主堂(四川南路)","lon":"121.49021","lat":"31.23067","category":"245","category_name":"教堂","address":"四川南路36"},{"poiid":"B2094757D465A5FF4793","title":"小绍兴 丽水路店","lon":"121.490792054","lat":"31.229288793","category":"68","category_name":"快餐厅","address":"黄浦区丽水路1号悦园商厦6楼六纯香美食港内(丽水路四川南路)"},{"poiid":"B2094757D16CA5F84192","title":"福都商厦","lon":"121.49040773","lat":"31.229416282","category":"119","category_name":"商场","address":"黄浦区丽水路(近福佑路)"},{"poiid":"B2094757D464AAF5479B","title":"吴越人家 豫园店","lon":"121.49135","lat":"31.22776","category":"68","category_name":"快餐厅","address":"黄浦区福佑路234号豫园2楼(近KFC)"},{"poiid":"B2094751DA6CA0FC469C","title":"东京食尚","lon":"121.488815","lat":"31.227142","category":"247","category_name":"餐饮美食","address":"香港广场B1"},{"poiid":"B2094757D069A7FF4398","title":"城隍珠宝(福佑路店)","lon":"121.49038","lat":"31.22773","category":"131","category_name":"珠宝首饰工艺品","address":"黄浦区丽水路88号城隍珠宝内(近城隍庙)查看地图"},{"poiid":"B2094750D16AA2FC439E","title":"轨道交通10号线豫园路站","lon":"121.4874028969","lat":"31.228092111481","category":"36","category_name":"地铁站","address":"轨道交通10号线豫园路站"},{"poiid":"B2094757D069A3F4479F","title":"阿四妈","lon":"121.48989107489","lat":"31.23097215007","category":"257","category_name":"中餐厅","address":"黄浦区金陵东路79号(近四川南路)"},{"poiid":"B2094757D069A4FD4292","title":"紫锦城珠宝交易中心","lon":"121.490552","lat":"31.228394","category":"131","category_name":"珠宝首饰工艺品","address":"黄浦区丽水路81号2-6楼(上海老饭店对面)"},{"poiid":"B2094757D568A0F5489D","title":"城隍庙香酥鸡摊","lon":"121.4906767","lat":"31.22967639","category":"68","category_name":"快餐厅","address":"黄浦区四川南路80弄(近人民路)"},{"poiid":"B2094757D168ABFE449A","title":"统统湘味 河南南路店","lon":"121.487209","lat":"31.22902","category":"77","category_name":"湖南菜","address":"黄浦区河南南路33号2楼"},{"poiid":"B2094757D165A5F94899","title":"满园春","lon":"121.49069033","lat":"31.227389439","category":"76","category_name":"上海菜","address":"黄浦区文昌路10号城隍庙内(近旧校场路)"},{"poiid":"B2094654DA6EA5FB429D","title":"来来永和豆浆(四川南路)","lon":"121.4906","lat":"31.23112","category":"68","category_name":"快餐厅","address":"黄浦区四川南路30号(近金陵东路)"},{"poiid":"B2094757D16BAAFF439B","title":"超好吃豆腐花","lon":"121.489257738","lat":"31.2314763266","category":"247","category_name":"餐饮美食","address":"上海霍山路临潼路"},{"poiid":"B2094757D568A4FC459D","title":"豫园鄂尔多斯广场","lon":"121.48942546","lat":"31.22837212","category":"119","category_name":"商场","address":"福佑路333"},{"poiid":"B2094757D66DA5FB499E","title":"江氏兄弟桥香园过桥米线","lon":"121.490438738","lat":"31.2277732477","category":"247","category_name":"餐饮美食","address":"上海市方浜中路235号"},{"poiid":"B2094753DB68A3F9469D","title":"上海一九叁三（老场坊）BOBO","lon":"121.48954","lat":"31.227466","category":"247","category_name":"餐饮美食","address":"上海市 上海虹口区溧阳路611号1933老场坊1-305室"},{"poiid":"B2094757D168A6F5489C","title":"真德桂林米粉","lon":"121.48936973","lat":"31.22743324","category":"247","category_name":"餐饮美食","address":"黄浦区汉口路345号(山东中路和山西南路间)"},{"poiid":"B2094654DB65A7FE4498","title":"巴比馒头 新永安路店 Babi Food","lon":"121.491625054","lat":"31.230168793","category":"68","category_name":"快餐厅","address":"黄浦区新永安路62号(近四川南路)"},{"poiid":"B2094757D069A0FC499C","title":"东华美钻(丽水路店)","lon":"121.49108","lat":"31.22793","category":"131","category_name":"珠宝首饰工艺品","address":"黄浦区丽水路81号1楼(近福佑路)查看地图"},{"poiid":"B2094654DB6AA6FF4699","title":"上海豫园万丽酒店","lon":"121.48799","lat":"31.22754","category":"213","category_name":"五星级宾馆","address":"上海黄浦区河南南路159号(近福佑路)"},{"poiid":"B2094757D065AAF84892","title":"上海老飯店","lon":"121.490577698","lat":"31.2276554108","category":"75","category_name":"浙江菜","address":"黄浦区福佑路242号"},{"poiid":"B2094757D165A6FD409E","title":"外滩二十二号","lon":"121.48842638473934","lat":"31.239447501314032","category":"627","category_name":"一般地点标志","address":"上海市黄埔区中山东一路"},{"poiid":"B2094753D76FAAFA449C","title":"上海滩国泰旗舰店","lon":"121.466011","lat":"31.216125","category":"249","category_name":"购物服务","address":"淮海中路868号"},{"poiid":"B209475CD564A7F84292","title":"上海滩新天地店","lon":"121.47463","lat":"31.22164","category":"119","category_name":"商场","address":"\"太仓路181弄新天地北里15号\r\n\""},{"poiid":"B209475CD564A7F84392","title":"上海滩浦东香格里拉店","lon":"121.50058","lat":"31.23634","category":"119","category_name":"商场","address":"浦东富成路33号香格里拉酒店内大堂层"},{"poiid":"B2094757D06FA6F4449A","title":"城隍庙第一购物中心","lon":"121.490396152","lat":"31.229039814","category":"119","category_name":"商场","address":"黄浦区丽水路88号城隍珠宝内(近城隍庙)"},{"poiid":"B2094757D66FA6FA4898","title":"豫园地铁站","lon":"121.48740085","lat":"31.22813753","category":"36","category_name":"地铁站","address":"上海轨道交通 十号线 轨交豫园站 10"},{"poiid":"B2094757D069A2F44693","title":"黄浦江畔","lon":"121.490871","lat":"31.230903","category":"260","category_name":"其他","address":"上海黄浦江畔"},{"poiid":"B2094757D06FA6FE4298","title":"海上阿叔(黄浦店)","lon":"121.48804","lat":"31.23132","category":"76","category_name":"上海菜","address":"黄浦区延安东路222号外滩中心B1楼(近江西中路)"},{"poiid":"B2094757D06FA1FA409D","title":"淮海中华大厦","lon":"121.49016706473","lat":"31.231560906818","category":"46","category_name":"楼宇","address":"朝阳华威桥东北角"},{"poiid":"B2094654DB65AAF4439B","title":"麦当劳(豫园店)","lon":"121.49037","lat":"31.22825","category":"68","category_name":"快餐厅","address":"黄浦区丽水路88号城隍珠宝内(近城隍庙)"},{"poiid":"B2094750D364A7F44998","title":"上海南京路步行街","lon":"121.488845","lat":"31.22718","category":"249","category_name":"购物服务","address":"黄浦区步行街"},{"poiid":"B2094757D06FA4FE499B","title":"亚一金店(城隍庙店)","lon":"121.49034347","lat":"31.2277079844","category":"131","category_name":"珠宝首饰工艺品","address":"黄浦区福佑路288号(福佑路旧校场路)查看地图"},{"poiid":"B2094654DA6EA5F54699","title":"豫园商城","lon":"121.49107","lat":"31.22773","category":"119","category_name":"商场","address":"黄浦区方浜中路269号(近城隍庙豫龙坊)"},{"poiid":"B2094757D164AAF8419B","title":"南翔饅頭店-長兴樓","lon":"121.49004573","lat":"31.22789725","category":"500","category_name":"未知分类","address":"上海城隍廟"},{"poiid":"B2094757D068A3FD459D","title":"永银大厦","lon":"121.487","lat":"31.2303","category":"46","category_name":"楼宇","address":"卫清西路139_149号等"},{"poiid":"B2094757D069A0F84693","title":"豫园站","lon":"121.48705573","lat":"31.228868271","category":"500","category_name":"未知分类","address":"上海地铁十号线"},{"poiid":"B2094757D06FABFA469E","title":"中汇大厦","lon":"121.48686831","lat":"31.230220304","category":"46","category_name":"楼宇","address":"丰台学城海鹰路1号,3号"},{"poiid":"B2094655D26AA4FA479B","title":"万丽轩豫园万丽店","lon":"121.48799","lat":"31.22753","category":"72","category_name":"广东菜","address":"黄浦区河南南路159号豫园万丽大酒店4楼(河南南路吴家弄)"},{"poiid":"B2094654DA6EA5F54992","title":"福佑门小商品市场","lon":"121.48796","lat":"31.22811","category":"120","category_name":"小商品市场","address":"黄浦区福佑路427号(近河南南路)"},{"poiid":"B2094757D06FA4FB4493","title":"黄浦区业余大学","lon":"121.4913","lat":"31.22992","category":"52","category_name":"高等院校","address":"黄浦区四川南路37号(近金陵东路)"},{"poiid":"B2094654DB6BA4F9439A","title":"星腾大厦","lon":"121.48728","lat":"31.23068","category":"46","category_name":"楼宇","address":"长宁路1158号贝多芬广场618室"},{"poiid":"B2094757D069A7FF4599","title":"安藤家","lon":"121.48767843","lat":"31.230165898","category":"95","category_name":"日本料理","address":"金陵东路229号范仕达生活广场2楼(近河南南路)"},{"poiid":"B2094654DA6EA4FC4399","title":"沈香阁","lon":"121.48999","lat":"31.22723","category":"244","category_name":"寺庙道观","address":"上海黄浦区沉香阁路29号(近福佑路)"},{"poiid":"B2094753D76AAAF9429C","title":"鹿港小镇（宏伊店）","lon":"121.489372","lat":"31.231023","category":"500","category_name":"未知分类","address":"上海市 山东路"},{"poiid":"B2094757D66EA2F44492","title":"10号线","lon":"121.487296738","lat":"31.2293972823","category":"500","category_name":"未知分类","address":"上海车上"},{"poiid":"B2094757D06BA4FC479A","title":"仙芋奇圆","lon":"121.488421738","lat":"31.2310923185","category":"67","category_name":"甜品店","address":"黄浦区金陵东路68号工商联大厦裙楼1楼B-2铺(近江西南路)"},{"poiid":"B2094750D76FAAFF4198","title":"豫园万丽咖啡厅","lon":"121.488","lat":"31.2276","category":"268","category_name":"自助","address":"黄浦区河南南路159号豫园万丽大酒店4楼(近福佑路)"},{"poiid":"B2094655D26EA1FA4293","title":"避风塘福水缘茶楼","lon":"121.48905","lat":"31.22852","category":"66","category_name":"茶艺馆","address":"福佑路333号2层"},{"poiid":"B2094654DA6EA5FB4298","title":"天主堂(四川南路)","lon":"121.49021","lat":"31.23067","category":"245","category_name":"教堂","address":"四川南路36"},{"poiid":"B2094757D465A5FF4793","title":"小绍兴 丽水路店","lon":"121.490792054","lat":"31.229288793","category":"68","category_name":"快餐厅","address":"黄浦区丽水路1号悦园商厦6楼六纯香美食港内(丽水路四川南路)"},{"poiid":"B2094757D16CA5F84192","title":"福都商厦","lon":"121.49040773","lat":"31.229416282","category":"119","category_name":"商场","address":"黄浦区丽水路(近福佑路)"},{"poiid":"B2094757D464AAF5479B","title":"吴越人家 豫园店","lon":"121.49135","lat":"31.22776","category":"68","category_name":"快餐厅","address":"黄浦区福佑路234号豫园2楼(近KFC)"},{"poiid":"B2094751DA6CA0FC469C","title":"东京食尚","lon":"121.488815","lat":"31.227142","category":"247","category_name":"餐饮美食","address":"香港广场B1"},{"poiid":"B2094757D069A7FF4398","title":"城隍珠宝(福佑路店)","lon":"121.49038","lat":"31.22773","category":"131","category_name":"珠宝首饰工艺品","address":"黄浦区丽水路88号城隍珠宝内(近城隍庙)查看地图"},{"poiid":"B2094750D16AA2FC439E","title":"轨道交通10号线豫园路站","lon":"121.4874028969","lat":"31.228092111481","category":"36","category_name":"地铁站","address":"轨道交通10号线豫园路站"},{"poiid":"B2094757D069A3F4479F","title":"阿四妈","lon":"121.48989107489","lat":"31.23097215007","category":"257","category_name":"中餐厅","address":"黄浦区金陵东路79号(近四川南路)"},{"poiid":"B2094757D069A4FD4292","title":"紫锦城珠宝交易中心","lon":"121.490552","lat":"31.228394","category":"131","category_name":"珠宝首饰工艺品","address":"黄浦区丽水路81号2-6楼(上海老饭店对面)"},{"poiid":"B2094757D568A0F5489D","title":"城隍庙香酥鸡摊","lon":"121.4906767","lat":"31.22967639","category":"68","category_name":"快餐厅","address":"黄浦区四川南路80弄(近人民路)"},{"poiid":"B2094757D168ABFE449A","title":"统统湘味 河南南路店","lon":"121.487209","lat":"31.22902","category":"77","category_name":"湖南菜","address":"黄浦区河南南路33号2楼"},{"poiid":"B2094757D165A5F94899","title":"满园春","lon":"121.49069033","lat":"31.227389439","category":"76","category_name":"上海菜","address":"黄浦区文昌路10号城隍庙内(近旧校场路)"},{"poiid":"B2094654DA6EA5FB429D","title":"来来永和豆浆(四川南路)","lon":"121.4906","lat":"31.23112","category":"68","category_name":"快餐厅","address":"黄浦区四川南路30号(近金陵东路)"},{"poiid":"B2094757D16BAAFF439B","title":"超好吃豆腐花","lon":"121.489257738","lat":"31.2314763266","category":"247","category_name":"餐饮美食","address":"上海霍山路临潼路"},{"poiid":"B2094757D568A4FC459D","title":"豫园鄂尔多斯广场","lon":"121.48942546","lat":"31.22837212","category":"119","category_name":"商场","address":"福佑路333"},{"poiid":"B2094757D66DA5FB499E","title":"江氏兄弟桥香园过桥米线","lon":"121.490438738","lat":"31.2277732477","category":"247","category_name":"餐饮美食","address":"上海市方浜中路235号"},{"poiid":"B2094753DB68A3F9469D","title":"上海一九叁三（老场坊）BOBO","lon":"121.48954","lat":"31.227466","category":"247","category_name":"餐饮美食","address":"上海市 上海虹口区溧阳路611号1933老场坊1-305室"},{"poiid":"B2094757D168A6F5489C","title":"真德桂林米粉","lon":"121.48936973","lat":"31.22743324","category":"247","category_name":"餐饮美食","address":"黄浦区汉口路345号(山东中路和山西南路间)"},{"poiid":"B2094654DB65A7FE4498","title":"巴比馒头 新永安路店 Babi Food","lon":"121.491625054","lat":"31.230168793","category":"68","category_name":"快餐厅","address":"黄浦区新永安路62号(近四川南路)"},{"poiid":"B2094757D069A0FC499C","title":"东华美钻(丽水路店)","lon":"121.49108","lat":"31.22793","category":"131","category_name":"珠宝首饰工艺品","address":"黄浦区丽水路81号1楼(近福佑路)查看地图"},{"poiid":"B2094654DB6AA6FF4699","title":"上海豫园万丽酒店","lon":"121.48799","lat":"31.22754","category":"213","category_name":"五星级宾馆","address":"上海黄浦区河南南路159号(近福佑路)"},{"poiid":"B2094757D065AAF84892","title":"上海老飯店","lon":"121.490577698","lat":"31.2276554108","category":"75","category_name":"浙江菜","address":"黄浦区福佑路242号"},{"poiid":"B2094757D165A6FD409E","title":"外滩二十二号","lon":"121.48842638473934","lat":"31.239447501314032","category":"627","category_name":"一般地点标志","address":"上海市黄埔区中山东一路"},{"poiid":"B2094753D76FAAFA449C","title":"上海滩国泰旗舰店","lon":"121.466011","lat":"31.216125","category":"249","category_name":"购物服务","address":"淮海中路868号"},{"poiid":"B209475CD564A7F84292","title":"上海滩新天地店","lon":"121.47463","lat":"31.22164","category":"119","category_name":"商场","address":"\"太仓路181弄新天地北里15号\r\n\""},{"poiid":"B209475CD564A7F84392","title":"上海滩浦东香格里拉店","lon":"121.50058","lat":"31.23634","category":"119","category_name":"商场","address":"浦东富成路33号香格里拉酒店内大堂层"},{"poiid":"B2094757D06FA6F4449A","title":"城隍庙第一购物中心","lon":"121.490396152","lat":"31.229039814","category":"119","category_name":"商场","address":"黄浦区丽水路88号城隍珠宝内(近城隍庙)"},{"poiid":"B2094757D66FA6FA4898","title":"豫园地铁站","lon":"121.48740085","lat":"31.22813753","category":"36","category_name":"地铁站","address":"上海轨道交通 十号线 轨交豫园站 10"},{"poiid":"B2094757D069A2F44693","title":"黄浦江畔","lon":"121.490871","lat":"31.230903","category":"260","category_name":"其他","address":"上海黄浦江畔"},{"poiid":"B2094757D06FA6FE4298","title":"海上阿叔(黄浦店)","lon":"121.48804","lat":"31.23132","category":"76","category_name":"上海菜","address":"黄浦区延安东路222号外滩中心B1楼(近江西中路)"},{"poiid":"B2094757D06FA1FA409D","title":"淮海中华大厦","lon":"121.49016706473","lat":"31.231560906818","category":"46","category_name":"楼宇","address":"朝阳华威桥东北角"},{"poiid":"B2094654DB65AAF4439B","title":"麦当劳(豫园店)","lon":"121.49037","lat":"31.22825","category":"68","category_name":"快餐厅","address":"黄浦区丽水路88号城隍珠宝内(近城隍庙)"},{"poiid":"B2094750D364A7F44998","title":"上海南京路步行街","lon":"121.488845","lat":"31.22718","category":"249","category_name":"购物服务","address":"黄浦区步行街"},{"poiid":"B2094757D06FA4FE499B","title":"亚一金店(城隍庙店)","lon":"121.49034347","lat":"31.2277079844","category":"131","category_name":"珠宝首饰工艺品","address":"黄浦区福佑路288号(福佑路旧校场路)查看地图"},{"poiid":"B2094654DA6EA5F54699","title":"豫园商城","lon":"121.49107","lat":"31.22773","category":"119","category_name":"商场","address":"黄浦区方浜中路269号(近城隍庙豫龙坊)"},{"poiid":"B2094757D164AAF8419B","title":"南翔饅頭店-長兴樓","lon":"121.49004573","lat":"31.22789725","category":"500","category_name":"未知分类","address":"上海城隍廟"},{"poiid":"B2094757D068A3FD459D","title":"永银大厦","lon":"121.487","lat":"31.2303","category":"46","category_name":"楼宇","address":"卫清西路139_149号等"},{"poiid":"B2094757D069A0F84693","title":"豫园站","lon":"121.48705573","lat":"31.228868271","category":"500","category_name":"未知分类","address":"上海地铁十号线"},{"poiid":"B2094757D06FABFA469E","title":"中汇大厦","lon":"121.48686831","lat":"31.230220304","category":"46","category_name":"楼宇","address":"丰台学城海鹰路1号,3号"},{"poiid":"B2094655D26AA4FA479B","title":"万丽轩豫园万丽店","lon":"121.48799","lat":"31.22753","category":"72","category_name":"广东菜","address":"黄浦区河南南路159号豫园万丽大酒店4楼(河南南路吴家弄)"},{"poiid":"B2094654DA6EA5F54992","title":"福佑门小商品市场","lon":"121.48796","lat":"31.22811","category":"120","category_name":"小商品市场","address":"黄浦区福佑路427号(近河南南路)"},{"poiid":"B2094757D06FA4FB4493","title":"黄浦区业余大学","lon":"121.4913","lat":"31.22992","category":"52","category_name":"高等院校","address":"黄浦区四川南路37号(近金陵东路)"},{"poiid":"B2094654DB6BA4F9439A","title":"星腾大厦","lon":"121.48728","lat":"31.23068","category":"46","category_name":"楼宇","address":"长宁路1158号贝多芬广场618室"},{"poiid":"B2094757D069A7FF4599","title":"安藤家","lon":"121.48767843","lat":"31.230165898","category":"95","category_name":"日本料理","address":"金陵东路229号范仕达生活广场2楼(近河南南路)"},{"poiid":"B2094654DA6EA4FC4399","title":"沈香阁","lon":"121.48999","lat":"31.22723","category":"244","category_name":"寺庙道观","address":"上海黄浦区沉香阁路29号(近福佑路)"},{"poiid":"B2094753D76AAAF9429C","title":"鹿港小镇（宏伊店）","lon":"121.489372","lat":"31.231023","category":"500","category_name":"未知分类","address":"上海市 山东路"},{"poiid":"B2094757D66EA2F44492","title":"10号线","lon":"121.487296738","lat":"31.2293972823","category":"500","category_name":"未知分类","address":"上海车上"},{"poiid":"B2094757D06BA4FC479A","title":"仙芋奇圆","lon":"121.488421738","lat":"31.2310923185","category":"67","category_name":"甜品店","address":"黄浦区金陵东路68号工商联大厦裙楼1楼B-2铺(近江西南路)"},{"poiid":"B2094750D76FAAFF4198","title":"豫园万丽咖啡厅","lon":"121.488","lat":"31.2276","category":"268","category_name":"自助","address":"黄浦区河南南路159号豫园万丽大酒店4楼(近福佑路)"},{"poiid":"B2094655D26EA1FA4293","title":"避风塘福水缘茶楼","lon":"121.48905","lat":"31.22852","category":"66","category_name":"茶艺馆","address":"福佑路333号2层"},{"poiid":"B2094654DA6EA5FB4298","title":"天主堂(四川南路)","lon":"121.49021","lat":"31.23067","category":"245","category_name":"教堂","address":"四川南路36"},{"poiid":"B2094757D465A5FF4793","title":"小绍兴 丽水路店","lon":"121.490792054","lat":"31.229288793","category":"68","category_name":"快餐厅","address":"黄浦区丽水路1号悦园商厦6楼六纯香美食港内(丽水路四川南路)"},{"poiid":"B2094757D16CA5F84192","title":"福都商厦","lon":"121.49040773","lat":"31.229416282","category":"119","category_name":"商场","address":"黄浦区丽水路(近福佑路)"},{"poiid":"B2094757D464AAF5479B","title":"吴越人家 豫园店","lon":"121.49135","lat":"31.22776","category":"68","category_name":"快餐厅","address":"黄浦区福佑路234号豫园2楼(近KFC)"},{"poiid":"B2094751DA6CA0FC469C","title":"东京食尚","lon":"121.488815","lat":"31.227142","category":"247","category_name":"餐饮美食","address":"香港广场B1"},{"poiid":"B2094757D069A7FF4398","title":"城隍珠宝(福佑路店)","lon":"121.49038","lat":"31.22773","category":"131","category_name":"珠宝首饰工艺品","address":"黄浦区丽水路88号城隍珠宝内(近城隍庙)查看地图"},{"poiid":"B2094750D16AA2FC439E","title":"轨道交通10号线豫园路站","lon":"121.4874028969","lat":"31.228092111481","category":"36","category_name":"地铁站","address":"轨道交通10号线豫园路站"},{"poiid":"B2094757D069A3F4479F","title":"阿四妈","lon":"121.48989107489","lat":"31.23097215007","category":"257","category_name":"中餐厅","address":"黄浦区金陵东路79号(近四川南路)"},{"poiid":"B2094757D069A4FD4292","title":"紫锦城珠宝交易中心","lon":"121.490552","lat":"31.228394","category":"131","category_name":"珠宝首饰工艺品","address":"黄浦区丽水路81号2-6楼(上海老饭店对面)"},{"poiid":"B2094757D568A0F5489D","title":"城隍庙香酥鸡摊","lon":"121.4906767","lat":"31.22967639","category":"68","category_name":"快餐厅","address":"黄浦区四川南路80弄(近人民路)"},{"poiid":"B2094757D168ABFE449A","title":"统统湘味 河南南路店","lon":"121.487209","lat":"31.22902","category":"77","category_name":"湖南菜","address":"黄浦区河南南路33号2楼"},{"poiid":"B2094757D165A5F94899","title":"满园春","lon":"121.49069033","lat":"31.227389439","category":"76","category_name":"上海菜","address":"黄浦区文昌路10号城隍庙内(近旧校场路)"},{"poiid":"B2094654DA6EA5FB429D","title":"来来永和豆浆(四川南路)","lon":"121.4906","lat":"31.23112","category":"68","category_name":"快餐厅","address":"黄浦区四川南路30号(近金陵东路)"},{"poiid":"B2094757D16BAAFF439B","title":"超好吃豆腐花","lon":"121.489257738","lat":"31.2314763266","category":"247","category_name":"餐饮美食","address":"上海霍山路临潼路"},{"poiid":"B2094757D568A4FC459D","title":"豫园鄂尔多斯广场","lon":"121.48942546","lat":"31.22837212","category":"119","category_name":"商场","address":"福佑路333"},{"poiid":"B2094757D66DA5FB499E","title":"江氏兄弟桥香园过桥米线","lon":"121.490438738","lat":"31.2277732477","category":"247","category_name":"餐饮美食","address":"上海市方浜中路235号"},{"poiid":"B2094753DB68A3F9469D","title":"上海一九叁三（老场坊）BOBO","lon":"121.48954","lat":"31.227466","category":"247","category_name":"餐饮美食","address":"上海市 上海虹口区溧阳路611号1933老场坊1-305室"},{"poiid":"B2094757D168A6F5489C","title":"真德桂林米粉","lon":"121.48936973","lat":"31.22743324","category":"247","category_name":"餐饮美食","address":"黄浦区汉口路345号(山东中路和山西南路间)"},{"poiid":"B2094654DB65A7FE4498","title":"巴比馒头 新永安路店 Babi Food","lon":"121.491625054","lat":"31.230168793","category":"68","category_name":"快餐厅","address":"黄浦区新永安路62号(近四川南路)"},{"poiid":"B2094757D069A0FC499C","title":"东华美钻(丽水路店)","lon":"121.49108","lat":"31.22793","category":"131","category_name":"珠宝首饰工艺品","address":"黄浦区丽水路81号1楼(近福佑路)查看地图"},{"poiid":"B2094654DB6AA6FF4699","title":"上海豫园万丽酒店","lon":"121.48799","lat":"31.22754","category":"213","category_name":"五星级宾馆","address":"上海黄浦区河南南路159号(近福佑路)"},{"poiid":"B2094757D065AAF84892","title":"上海老飯店","lon":"121.490577698","lat":"31.2276554108","category":"75","category_name":"浙江菜","address":"黄浦区福佑路242号"},{"poiid":"B2094757D165A6FD409E","title":"外滩二十二号","lon":"121.48842638473934","lat":"31.239447501314032","category":"627","category_name":"一般地点标志","address":"上海市黄埔区中山东一路"},{"poiid":"B2094753D76FAAFA449C","title":"上海滩国泰旗舰店","lon":"121.466011","lat":"31.216125","category":"249","category_name":"购物服务","address":"淮海中路868号"},{"poiid":"B209475CD564A7F84292","title":"上海滩新天地店","lon":"121.47463","lat":"31.22164","category":"119","category_name":"商场","address":"\"太仓路181弄新天地北里15号\r\n\""},{"poiid":"B209475CD564A7F84392","title":"上海滩浦东香格里拉店","lon":"121.50058","lat":"31.23634","category":"119","category_name":"商场","address":"浦东富成路33号香格里拉酒店内大堂层"},{"poiid":"B2094757D06FA6F4449A","title":"城隍庙第一购物中心","lon":"121.490396152","lat":"31.229039814","category":"119","category_name":"商场","address":"黄浦区丽水路88号城隍珠宝内(近城隍庙)"},{"poiid":"B2094757D66FA6FA4898","title":"豫园地铁站","lon":"121.48740085","lat":"31.22813753","category":"36","category_name":"地铁站","address":"上海轨道交通 十号线 轨交豫园站 10"},{"poiid":"B2094757D069A2F44693","title":"黄浦江畔","lon":"121.490871","lat":"31.230903","category":"260","category_name":"其他","address":"上海黄浦江畔"},{"poiid":"B2094757D06FA6FE4298","title":"海上阿叔(黄浦店)","lon":"121.48804","lat":"31.23132","category":"76","category_name":"上海菜","address":"黄浦区延安东路222号外滩中心B1楼(近江西中路)"},{"poiid":"B2094757D06FA1FA409D","title":"淮海中华大厦","lon":"121.49016706473","lat":"31.231560906818","category":"46","category_name":"楼宇","address":"朝阳华威桥东北角"},{"poiid":"B2094654DB65AAF4439B","title":"麦当劳(豫园店)","lon":"121.49037","lat":"31.22825","category":"68","category_name":"快餐厅","address":"黄浦区丽水路88号城隍珠宝内(近城隍庙)"},{"poiid":"B2094750D364A7F44998","title":"上海南京路步行街","lon":"121.488845","lat":"31.22718","category":"249","category_name":"购物服务","address":"黄浦区步行街"},{"poiid":"B2094757D06FA4FE499B","title":"亚一金店(城隍庙店)","lon":"121.49034347","lat":"31.2277079844","category":"131","category_name":"珠宝首饰工艺品","address":"黄浦区福佑路288号(福佑路旧校场路)查看地图"},{"poiid":"B2094654DA6EA5F54699","title":"豫园商城","lon":"121.49107","lat":"31.22773","category":"119","category_name":"商场","address":"黄浦区方浜中路269号(近城隍庙豫龙坊)"},{"poiid":"B2094757D164AAF8419B","title":"南翔饅頭店-長兴樓","lon":"121.49004573","lat":"31.22789725","category":"500","category_name":"未知分类","address":"上海城隍廟"},{"poiid":"B2094757D068A3FD459D","title":"永银大厦","lon":"121.487","lat":"31.2303","category":"46","category_name":"楼宇","address":"卫清西路139_149号等"},{"poiid":"B2094757D069A0F84693","title":"豫园站","lon":"121.48705573","lat":"31.228868271","category":"500","category_name":"未知分类","address":"上海地铁十号线"},{"poiid":"B2094757D06FABFA469E","title":"中汇大厦","lon":"121.48686831","lat":"31.230220304","category":"46","category_name":"楼宇","address":"丰台学城海鹰路1号,3号"},{"poiid":"B2094655D26AA4FA479B","title":"万丽轩豫园万丽店","lon":"121.48799","lat":"31.22753","category":"72","category_name":"广东菜","address":"黄浦区河南南路159号豫园万丽大酒店4楼(河南南路吴家弄)"},{"poiid":"B2094654DA6EA5F54992","title":"福佑门小商品市场","lon":"121.48796","lat":"31.22811","category":"120","category_name":"小商品市场","address":"黄浦区福佑路427号(近河南南路)"},{"poiid":"B2094757D06FA4FB4493","title":"黄浦区业余大学","lon":"121.4913","lat":"31.22992","category":"52","category_name":"高等院校","address":"黄浦区四川南路37号(近金陵东路)"},{"poiid":"B2094654DB6BA4F9439A","title":"星腾大厦","lon":"121.48728","lat":"31.23068","category":"46","category_name":"楼宇","address":"长宁路1158号贝多芬广场618室"},{"poiid":"B2094757D069A7FF4599","title":"安藤家","lon":"121.48767843","lat":"31.230165898","category":"95","category_name":"日本料理","address":"金陵东路229号范仕达生活广场2楼(近河南南路)"},{"poiid":"B2094654DA6EA4FC4399","title":"沈香阁","lon":"121.48999","lat":"31.22723","category":"244","category_name":"寺庙道观","address":"上海黄浦区沉香阁路29号(近福佑路)"},{"poiid":"B2094753D76AAAF9429C","title":"鹿港小镇（宏伊店）","lon":"121.489372","lat":"31.231023","category":"500","category_name":"未知分类","address":"上海市 山东路"},{"poiid":"B2094757D66EA2F44492","title":"10号线","lon":"121.487296738","lat":"31.2293972823","category":"500","category_name":"未知分类","address":"上海车上"},{"poiid":"B2094757D06BA4FC479A","title":"仙芋奇圆","lon":"121.488421738","lat":"31.2310923185","category":"67","category_name":"甜品店","address":"黄浦区金陵东路68号工商联大厦裙楼1楼B-2铺(近江西南路)"},{"poiid":"B2094750D76FAAFF4198","title":"豫园万丽咖啡厅","lon":"121.488","lat":"31.2276","category":"268","category_name":"自助","address":"黄浦区河南南路159号豫园万丽大酒店4楼(近福佑路)"},{"poiid":"B2094655D26EA1FA4293","title":"避风塘福水缘茶楼","lon":"121.48905","lat":"31.22852","category":"66","category_name":"茶艺馆","address":"福佑路333号2层"},{"poiid":"B2094654DA6EA5FB4298","title":"天主堂(四川南路)","lon":"121.49021","lat":"31.23067","category":"245","category_name":"教堂","address":"四川南路36"},{"poiid":"B2094757D465A5FF4793","title":"小绍兴 丽水路店","lon":"121.490792054","lat":"31.229288793","category":"68","category_name":"快餐厅","address":"黄浦区丽水路1号悦园商厦6楼六纯香美食港内(丽水路四川南路)"},{"poiid":"B2094757D16CA5F84192","title":"福都商厦","lon":"121.49040773","lat":"31.229416282","category":"119","category_name":"商场","address":"黄浦区丽水路(近福佑路)"},{"poiid":"B2094757D464AAF5479B","title":"吴越人家 豫园店","lon":"121.49135","lat":"31.22776","category":"68","category_name":"快餐厅","address":"黄浦区福佑路234号豫园2楼(近KFC)"},{"poiid":"B2094751DA6CA0FC469C","title":"东京食尚","lon":"121.488815","lat":"31.227142","category":"247","category_name":"餐饮美食","address":"香港广场B1"},{"poiid":"B2094757D069A7FF4398","title":"城隍珠宝(福佑路店)","lon":"121.49038","lat":"31.22773","category":"131","category_name":"珠宝首饰工艺品","address":"黄浦区丽水路88号城隍珠宝内(近城隍庙)查看地图"},{"poiid":"B2094750D16AA2FC439E","title":"轨道交通10号线豫园路站","lon":"121.4874028969","lat":"31.228092111481","category":"36","category_name":"地铁站","address":"轨道交通10号线豫园路站"},{"poiid":"B2094757D069A3F4479F","title":"阿四妈","lon":"121.48989107489","lat":"31.23097215007","category":"257","category_name":"中餐厅","address":"黄浦区金陵东路79号(近四川南路)"},{"poiid":"B2094757D069A4FD4292","title":"紫锦城珠宝交易中心","lon":"121.490552","lat":"31.228394","category":"131","category_name":"珠宝首饰工艺品","address":"黄浦区丽水路81号2-6楼(上海老饭店对面)"},{"poiid":"B2094757D568A0F5489D","title":"城隍庙香酥鸡摊","lon":"121.4906767","lat":"31.22967639","category":"68","category_name":"快餐厅","address":"黄浦区四川南路80弄(近人民路)"},{"poiid":"B2094757D168ABFE449A","title":"统统湘味 河南南路店","lon":"121.487209","lat":"31.22902","category":"77","category_name":"湖南菜","address":"黄浦区河南南路33号2楼"},{"poiid":"B2094757D165A5F94899","title":"满园春","lon":"121.49069033","lat":"31.227389439","category":"76","category_name":"上海菜","address":"黄浦区文昌路10号城隍庙内(近旧校场路)"},{"poiid":"B2094654DA6EA5FB429D","title":"来来永和豆浆(四川南路)","lon":"121.4906","lat":"31.23112","category":"68","category_name":"快餐厅","address":"黄浦区四川南路30号(近金陵东路)"},{"poiid":"B2094757D16BAAFF439B","title":"超好吃豆腐花","lon":"121.489257738","lat":"31.2314763266","category":"247","category_name":"餐饮美食","address":"上海霍山路临潼路"},{"poiid":"B2094757D568A4FC459D","title":"豫园鄂尔多斯广场","lon":"121.48942546","lat":"31.22837212","category":"119","category_name":"商场","address":"福佑路333"},{"poiid":"B2094757D66DA5FB499E","title":"江氏兄弟桥香园过桥米线","lon":"121.490438738","lat":"31.2277732477","category":"247","category_name":"餐饮美食","address":"上海市方浜中路235号"},{"poiid":"B2094753DB68A3F9469D","title":"上海一九叁三（老场坊）BOBO","lon":"121.48954","lat":"31.227466","category":"247","category_name":"餐饮美食","address":"上海市 上海虹口区溧阳路611号1933老场坊1-305室"},{"poiid":"B2094757D168A6F5489C","title":"真德桂林米粉","lon":"121.48936973","lat":"31.22743324","category":"247","category_name":"餐饮美食","address":"黄浦区汉口路345号(山东中路和山西南路间)"},{"poiid":"B2094654DB65A7FE4498","title":"巴比馒头 新永安路店 Babi Food","lon":"121.491625054","lat":"31.230168793","category":"68","category_name":"快餐厅","address":"黄浦区新永安路62号(近四川南路)"},{"poiid":"B2094757D069A0FC499C","title":"东华美钻(丽水路店)","lon":"121.49108","lat":"31.22793","category":"131","category_name":"珠宝首饰工艺品","address":"黄浦区丽水路81号1楼(近福佑路)查看地图"}]