[{"poiid":"B2094654DB6EA2F9469D","title":"地中海影城","lon":"121.218317","lat":"31.038502","category":"178","category_name":"电影院","address":"新松江路887弄1号乐购超市4层"},{"poiid":"B2094654DB64A6FB4798","title":"上海松江开元名都大酒店","lon":"121.22106","lat":"31.03723","category":"250","category_name":"公园户外","address":"松江区人民北路1799号(近新松江路)"},{"poiid":"B2094654DB64A0FC4993","title":"上海市第一人民医院（南部分院）","lon":"121.22572","lat":"31.04036","category":"162","category_name":"医院","address":"近郊新松江路650号(近人民北路)"},{"poiid":"B2094655D268A0FA499E","title":"STARBUCKS COFFEE(新松江路)","lon":"121.21849","lat":"31.03849","category":"65","category_name":"咖啡厅","address":""},{"poiid":"B2094655D268A5F9479C","title":"维也纳国际酒店松江店","lon":"121.22116","lat":"31.03391","category":"214","category_name":"四星级宾馆","address":"上海市松江区人民北路1515号"},{"poiid":"B2094757D069A2FA429B","title":"中央公园","lon":"121.227502823","lat":"31.0360280584","category":"196","category_name":"公园","address":"上海松江新城翠湖路"},{"poiid":"B2094750DA6EA6FB439F","title":"避风塘","lon":"121.219055","lat":"31.03812","category":"72","category_name":"广东菜","address":"松江区新松江路925号开元地中海商业广场3楼"},{"poiid":"B2094654DB69A5F9449E","title":"星巴克 新松江路店 Starbucks Cafe","lon":"121.21842096507567","lat":"31.03861656336127","category":"65","category_name":"咖啡厅","address":"松江区新松江路925号开元地中海商业广场内(人民北路口)"},{"poiid":"B2094757D06FABFC4098","title":"唯一娱乐","lon":"121.21827656","lat":"31.038441164","category":"170","category_name":"KTV","address":"上海近郊松江区新松江路926号开元地中海广场4楼(人民北路口)"},{"poiid":"B2094757D16EAAF9449E","title":"上海市交通大学附属第一人民医院南院9B","lon":"121.222828767","lat":"31.0419531613","category":"162","category_name":"医院","address":"上海市新松江路650号"},{"poiid":"B2094757D068AAFD4593","title":"村夫烤鱼(新松江路店)","lon":"121.21981","lat":"31.04027","category":"68","category_name":"快餐厅","address":"上海近郊松江区新松江路926弄开元地中海商业广场2楼(人民北路口)  "},{"poiid":"B2094757D06FA4F54993","title":"一茶一坐(地中海店)","lon":"121.21829627","lat":"31.037725048","category":"260","category_name":"其他","address":"上海松江开元地中海二楼"},{"poiid":"B2094757D068ABFC4493","title":"卜蜂莲花(松江文诚路店)","lon":"121.21972536","lat":"31.032609641","category":"118","category_name":"超级市场","address":"松江区文诚路258号(近人民北路)"},{"poiid":"B2094757DB68A4FF4992","title":"世贸时尚欢乐影城","lon":"121.214987","lat":"31.034961","category":"500","category_name":"未知分类","address":"上海市松江新城文诚路238弄1号2楼"},{"poiid":"B2094757D06FA6FD4099","title":"乐购(松江店)","lon":"121.21839","lat":"31.03792","category":"118","category_name":"超级市场","address":"松江区新松江路935号(人民北路口)"},{"poiid":"B2094757D064A5F44092","title":"香涌海鲜大酒楼(松江店)","lon":"121.221393742","lat":"31.0327239336","category":"76","category_name":"上海菜","address":"松江区人民北路1508号(北翠路人民北路)"},{"poiid":"B2094757D66FA0F8419E","title":"橄榄庄园","lon":"121.22013","lat":"31.038982","category":"94","category_name":"西餐厅","address":"松江区新松江路925号开元地中海商业广场3楼068-069号(人民北路口)"},{"poiid":"B2094757D069A0FF4993","title":"松江区政府行政一中心","lon":"121.227747","lat":"31.032243","category":"500","category_name":"未知分类","address":"上海松江区园中路1号"},{"poiid":"B2094757D068A6FE4799","title":"思贤公园","lon":"121.22401","lat":"31.02957","category":"196","category_name":"公园","address":"松江区思贤路北侧(近人民北路)"},{"poiid":"B2094654DB65A5F9439B","title":"伊万里川","lon":"121.22112","lat":"31.03737","category":"95","category_name":"日本料理","address":"松江区人民北路1799号开元大酒店3楼(北翠路人民北路)"},{"poiid":"B2094655D268A1FE439C","title":"上海市第一人民医院(南部)急诊部","lon":"121.22573","lat":"31.04159","category":"162","category_name":"医院","address":"文翔路1485"},{"poiid":"B2094757D069AAFF4998","title":"贵族世家牛排(松江店)","lon":"121.22088","lat":"31.03857","category":"94","category_name":"西餐厅","address":"松江区新松江路926弄开元地中海商业广场2楼(人民北路口)"},{"poiid":"B2094757D069A6FF4692","title":"松江区图书馆","lon":"121.22335","lat":"31.03541","category":"181","category_name":"图书馆","address":"松江区龙兴路888号"},{"poiid":"B2094757D06AA0FF4399","title":"拿渡麻辣香锅","lon":"121.21849646","lat":"31.038361682","category":"247","category_name":"餐饮美食","address":"上海市松江区地中海商城3层3055"},{"poiid":"B2094757D068AAFB4392","title":"嘟捞咪坊","lon":"121.218297","lat":"31.038476017","category":"86","category_name":"火锅店","address":"松江区新松江路925号开元地中海商业广场2楼(人民北路口)"},{"poiid":"B2094757D06FA4F9489F","title":"DQ冰雪皇后(开元地中海店)","lon":"121.21822","lat":"31.0381","category":"113","category_name":"冷饮店","address":"松江区新松江路887号开元地中海2楼(西林北路新松江路)"},{"poiid":"B2094757D069A2FC419C","title":"吞云小莳(松江开元店)","lon":"121.220371478","lat":"31.0378103953","category":"91","category_name":"台湾菜","address":"松江区新松江路927弄开元地中海2118室(近西林北路)"},{"poiid":"B2094654DB6EA2F8469A","title":"嘉和休闲广场","lon":"121.22469730537","lat":"31.038981603495","category":"201","category_name":"城市广场","address":"崇文区前门大街东打磨厂"},{"poiid":"B2094750D56CABFC409A","title":"麦当劳(开元地中海)","lon":"121.216506","lat":"31.035909","category":"247","category_name":"餐饮美食","address":"松江区新松江路925号开元地中海商业广场2楼(近星巴克)"},{"poiid":"B2094750D76EA1F5449C","title":"糖小囡的甜品屋","lon":"121.22","lat":"31.0377","category":"67","category_name":"甜品店","address":"松江区新松江路925号开元地中海商业广场3楼305号铺"},{"poiid":"B2094654DB6EA2FA409E","title":"避风港时尚餐厅","lon":"121.21555","lat":"31.03854","category":"257","category_name":"中餐厅","address":""},{"poiid":"B2094757D464ABF9409C","title":"味千拉面 松江二店","lon":"121.21901","lat":"31.03874","category":"95","category_name":"日本料理","address":"松江区新松江路925弄1002单元"},{"poiid":"B2094751D26BA4FD469F","title":"网鱼网咖地中海店","lon":"121.220245","lat":"31.037781","category":"248","category_name":"生活娱乐","address":"松江区新松江路927弄开元地中海商业广场3楼(近开元地中海)"},{"poiid":"B2094757D064ABFF4693","title":"幸乐日本料理(松江店)","lon":"121.220936267","lat":"31.0371392556","category":"95","category_name":"日本料理","address":"松江区新松江路925号开元地中海商业广场3楼(人民北路口)"},{"poiid":"B2094757D16EAAFC4698","title":"上海市松江区人民法院","lon":"121.224146467","lat":"31.0333175716","category":"608","category_name":"法院","address":"上海市松江区南青路701号"},{"poiid":"B2094751DA6BABFB429D","title":"釜山料理开元地中海","lon":"121.219278","lat":"31.037877","category":"247","category_name":"餐饮美食","address":null},{"poiid":"B2094655D26EAAFD499A","title":"地中海咖啡厅","lon":"121.22028","lat":"31.03732","category":"268","category_name":"自助","address":"松江区人民北路1799号开元名都大酒店1楼(北翠路人民北路)"},{"poiid":"B2094757D06BA7FA4899","title":"大娘水饺（文诚路店）","lon":"121.220167034","lat":"31.0327016581","category":"68","category_name":"快餐厅","address":"松江区文诚路258号(近人民北路)"},{"poiid":"B2094654DB6EA2FB4598","title":"上海市松江区国家税务局","lon":"121.22527","lat":"31.0311","category":"250","category_name":"公园户外","address":"松江新城区园中路2号"},{"poiid":"B2094752D264ABFC479F","title":"胡椒厨房","lon":"121.219005","lat":"31.038003","category":"247","category_name":"餐饮美食","address":"松江区地中海三楼"},{"poiid":"B2094757D06AA1FA4498","title":"上海市工商行政管理局松江分局","lon":"121.22510781","lat":"31.031424079","category":"197","category_name":"动物园","address":"上海松江区方松街道文诚路69号"},{"poiid":"B2094655D268A0FA4892","title":"巴比隆烤肉 新松江路店","lon":"121.21947","lat":"31.03835","category":"68","category_name":"快餐厅","address":"松江区新松江路925号开元地中海商业广场3楼(人民北路口)"},{"poiid":"B2094757D069A1F9469B","title":"傣妹(地中海店)","lon":"121.22081224","lat":"31.038426045","category":"86","category_name":"火锅店","address":"松江区新松江路925号开元地中海商业广场2楼(人民北路口)"},{"poiid":"B2094757D069A5FF4593","title":"蜀娱","lon":"121.22079","lat":"31.03817","category":"71","category_name":"四川菜","address":"松江区新松江路925号开元地中海商业广场1楼096A号(人民北路口)"},{"poiid":"B2094757D16AAAFB4598","title":"禾苑·摸错门","lon":"121.220306967","lat":"31.037068254","category":"86","category_name":"火锅店","address":"上海松江区地中海开元广场"},{"poiid":"B2094654DB6EA2FB4492","title":"上海市中心图书馆松江分馆","lon":"121.22332","lat":"31.03565","category":"181","category_name":"图书馆","address":"松江区人民北路1626号"},{"poiid":"B2094757D06BA7F9449D","title":"小资汇","lon":"121.22109","lat":"31.03818","category":"76","category_name":"上海菜","address":"松江区新松江路925号开元地中海商业广场3楼(人民北路口)"},{"poiid":"B2094757D06BA5F9419B","title":"集集小镇(松江新城店)","lon":"121.21895","lat":"31.03799","category":"68","category_name":"快餐厅","address":"松江区新松江路935号乐购超市1楼(人民北路口)"},{"poiid":"B2094757D56DA0F84599","title":"新松江路营业厅","lon":"121.217039","lat":"31.039183","category":"151","category_name":"电讯营业厅","address":"松江区新松江路925弄1021"},{"poiid":"B2094757D16BA3FD4498","title":"新天地海陆鲜阁","lon":"121.22344","lat":"31.03232","category":"72","category_name":"广东菜","address":"松江区文诚路378弄嘉和休闲广场402号铺(西林路口)"},{"poiid":"B2094654DB6EA2F9469D","title":"地中海影城","lon":"121.218317","lat":"31.038502","category":"178","category_name":"电影院","address":"新松江路887弄1号乐购超市4层"},{"poiid":"B2094654DB64A6FB4798","title":"上海松江开元名都大酒店","lon":"121.22106","lat":"31.03723","category":"250","category_name":"公园户外","address":"松江区人民北路1799号(近新松江路)"},{"poiid":"B2094654DB64A0FC4993","title":"上海市第一人民医院（南部分院）","lon":"121.22572","lat":"31.04036","category":"162","category_name":"医院","address":"近郊新松江路650号(近人民北路)"},{"poiid":"B2094655D268A0FA499E","title":"STARBUCKS COFFEE(新松江路)","lon":"121.21849","lat":"31.03849","category":"65","category_name":"咖啡厅","address":""},{"poiid":"B2094655D268A5F9479C","title":"维也纳国际酒店松江店","lon":"121.22116","lat":"31.03391","category":"214","category_name":"四星级宾馆","address":"上海市松江区人民北路1515号"},{"poiid":"B2094757D069A2FA429B","title":"中央公园","lon":"121.227502823","lat":"31.0360280584","category":"196","category_name":"公园","address":"上海松江新城翠湖路"},{"poiid":"B2094750DA6EA6FB439F","title":"避风塘","lon":"121.219055","lat":"31.03812","category":"72","category_name":"广东菜","address":"松江区新松江路925号开元地中海商业广场3楼"},{"poiid":"B2094654DB69A5F9449E","title":"星巴克 新松江路店 Starbucks Cafe","lon":"121.21842096507567","lat":"31.03861656336127","category":"65","category_name":"咖啡厅","address":"松江区新松江路925号开元地中海商业广场内(人民北路口)"},{"poiid":"B2094757D06FABFC4098","title":"唯一娱乐","lon":"121.21827656","lat":"31.038441164","category":"170","category_name":"KTV","address":"上海近郊松江区新松江路926号开元地中海广场4楼(人民北路口)"},{"poiid":"B2094757D16EAAF9449E","title":"上海市交通大学附属第一人民医院南院9B","lon":"121.222828767","lat":"31.0419531613","category":"162","category_name":"医院","address":"上海市新松江路650号"},{"poiid":"B2094757D068AAFD4593","title":"村夫烤鱼(新松江路店)","lon":"121.21981","lat":"31.04027","category":"68","category_name":"快餐厅","address":"上海近郊松江区新松江路926弄开元地中海商业广场2楼(人民北路口)  "},{"poiid":"B2094757D06FA4F54993","title":"一茶一坐(地中海店)","lon":"121.21829627","lat":"31.037725048","category":"260","category_name":"其他","address":"上海松江开元地中海二楼"},{"poiid":"B2094757D068ABFC4493","title":"卜蜂莲花(松江文诚路店)","lon":"121.21972536","lat":"31.032609641","category":"118","category_name":"超级市场","address":"松江区文诚路258号(近人民北路)"},{"poiid":"B2094757DB68A4FF4992","title":"世贸时尚欢乐影城","lon":"121.214987","lat":"31.034961","category":"500","category_name":"未知分类","address":"上海市松江新城文诚路238弄1号2楼"},{"poiid":"B2094757D06FA6FD4099","title":"乐购(松江店)","lon":"121.21839","lat":"31.03792","category":"118","category_name":"超级市场","address":"松江区新松江路935号(人民北路口)"},{"poiid":"B2094757D064A5F44092","title":"香涌海鲜大酒楼(松江店)","lon":"121.221393742","lat":"31.0327239336","category":"76","category_name":"上海菜","address":"松江区人民北路1508号(北翠路人民北路)"},{"poiid":"B2094757D66FA0F8419E","title":"橄榄庄园","lon":"121.22013","lat":"31.038982","category":"94","category_name":"西餐厅","address":"松江区新松江路925号开元地中海商业广场3楼068-069号(人民北路口)"},{"poiid":"B2094757D069A0FF4993","title":"松江区政府行政一中心","lon":"121.227747","lat":"31.032243","category":"500","category_name":"未知分类","address":"上海松江区园中路1号"},{"poiid":"B2094757D068A6FE4799","title":"思贤公园","lon":"121.22401","lat":"31.02957","category":"196","category_name":"公园","address":"松江区思贤路北侧(近人民北路)"},{"poiid":"B2094654DB65A5F9439B","title":"伊万里川","lon":"121.22112","lat":"31.03737","category":"95","category_name":"日本料理","address":"松江区人民北路1799号开元大酒店3楼(北翠路人民北路)"},{"poiid":"B2094655D268A1FE439C","title":"上海市第一人民医院(南部)急诊部","lon":"121.22573","lat":"31.04159","category":"162","category_name":"医院","address":"文翔路1485"},{"poiid":"B2094757D069AAFF4998","title":"贵族世家牛排(松江店)","lon":"121.22088","lat":"31.03857","category":"94","category_name":"西餐厅","address":"松江区新松江路926弄开元地中海商业广场2楼(人民北路口)"},{"poiid":"B2094757D069A6FF4692","title":"松江区图书馆","lon":"121.22335","lat":"31.03541","category":"181","category_name":"图书馆","address":"松江区龙兴路888号"},{"poiid":"B2094757D06AA0FF4399","title":"拿渡麻辣香锅","lon":"121.21849646","lat":"31.038361682","category":"247","category_name":"餐饮美食","address":"上海市松江区地中海商城3层3055"},{"poiid":"B2094757D068AAFB4392","title":"嘟捞咪坊","lon":"121.218297","lat":"31.038476017","category":"86","category_name":"火锅店","address":"松江区新松江路925号开元地中海商业广场2楼(人民北路口)"},{"poiid":"B2094757D06FA4F9489F","title":"DQ冰雪皇后(开元地中海店)","lon":"121.21822","lat":"31.0381","category":"113","category_name":"冷饮店","address":"松江区新松江路887号开元地中海2楼(西林北路新松江路)"},{"poiid":"B2094757D069A2FC419C","title":"吞云小莳(松江开元店)","lon":"121.220371478","lat":"31.0378103953","category":"91","category_name":"台湾菜","address":"松江区新松江路927弄开元地中海2118室(近西林北路)"},{"poiid":"B2094654DB6EA2F8469A","title":"嘉和休闲广场","lon":"121.22469730537","lat":"31.038981603495","category":"201","category_name":"城市广场","address":"崇文区前门大街东打磨厂"},{"poiid":"B2094750D56CABFC409A","title":"麦当劳(开元地中海)","lon":"121.216506","lat":"31.035909","category":"247","category_name":"餐饮美食","address":"松江区新松江路925号开元地中海商业广场2楼(近星巴克)"},{"poiid":"B2094750D76EA1F5449C","title":"糖小囡的甜品屋","lon":"121.22","lat":"31.0377","category":"67","category_name":"甜品店","address":"松江区新松江路925号开元地中海商业广场3楼305号铺"},{"poiid":"B2094654DB6EA2FA409E","title":"避风港时尚餐厅","lon":"121.21555","lat":"31.03854","category":"257","category_name":"中餐厅","address":""},{"poiid":"B2094757D464ABF9409C","title":"味千拉面 松江二店","lon":"121.21901","lat":"31.03874","category":"95","category_name":"日本料理","address":"松江区新松江路925弄1002单元"},{"poiid":"B2094751D26BA4FD469F","title":"网鱼网咖地中海店","lon":"121.220245","lat":"31.037781","category":"248","category_name":"生活娱乐","address":"松江区新松江路927弄开元地中海商业广场3楼(近开元地中海)"},{"poiid":"B2094757D064ABFF4693","title":"幸乐日本料理(松江店)","lon":"121.220936267","lat":"31.0371392556","category":"95","category_name":"日本料理","address":"松江区新松江路925号开元地中海商业广场3楼(人民北路口)"},{"poiid":"B2094757D16EAAFC4698","title":"上海市松江区人民法院","lon":"121.224146467","lat":"31.0333175716","category":"608","category_name":"法院","address":"上海市松江区南青路701号"},{"poiid":"B2094751DA6BABFB429D","title":"釜山料理开元地中海","lon":"121.219278","lat":"31.037877","category":"247","category_name":"餐饮美食","address":null},{"poiid":"B2094655D26EAAFD499A","title":"地中海咖啡厅","lon":"121.22028","lat":"31.03732","category":"268","category_name":"自助","address":"松江区人民北路1799号开元名都大酒店1楼(北翠路人民北路)"},{"poiid":"B2094757D06BA7FA4899","title":"大娘水饺（文诚路店）","lon":"121.220167034","lat":"31.0327016581","category":"68","category_name":"快餐厅","address":"松江区文诚路258号(近人民北路)"},{"poiid":"B2094654DB6EA2FB4598","title":"上海市松江区国家税务局","lon":"121.22527","lat":"31.0311","category":"250","category_name":"公园户外","address":"松江新城区园中路2号"},{"poiid":"B2094752D264ABFC479F","title":"胡椒厨房","lon":"121.219005","lat":"31.038003","category":"247","category_name":"餐饮美食","address":"松江区地中海三楼"},{"poiid":"B2094757D06AA1FA4498","title":"上海市工商行政管理局松江分局","lon":"121.22510781","lat":"31.031424079","category":"197","category_name":"动物园","address":"上海松江区方松街道文诚路69号"},{"poiid":"B2094655D268A0FA4892","title":"巴比隆烤肉 新松江路店","lon":"121.21947","lat":"31.03835","category":"68","category_name":"快餐厅","address":"松江区新松江路925号开元地中海商业广场3楼(人民北路口)"},{"poiid":"B2094757D069A1F9469B","title":"傣妹(地中海店)","lon":"121.22081224","lat":"31.038426045","category":"86","category_name":"火锅店","address":"松江区新松江路925号开元地中海商业广场2楼(人民北路口)"},{"poiid":"B2094757D069A5FF4593","title":"蜀娱","lon":"121.22079","lat":"31.03817","category":"71","category_name":"四川菜","address":"松江区新松江路925号开元地中海商业广场1楼096A号(人民北路口)"},{"poiid":"B2094757D16AAAFB4598","title":"禾苑·摸错门","lon":"121.220306967","lat":"31.037068254","category":"86","category_name":"火锅店","address":"上海松江区地中海开元广场"},{"poiid":"B2094654DB6EA2FB4492","title":"上海市中心图书馆松江分馆","lon":"121.22332","lat":"31.03565","category":"181","category_name":"图书馆","address":"松江区人民北路1626号"},{"poiid":"B2094757D06BA7F9449D","title":"小资汇","lon":"121.22109","lat":"31.03818","category":"76","category_name":"上海菜","address":"松江区新松江路925号开元地中海商业广场3楼(人民北路口)"},{"poiid":"B2094757D06BA5F9419B","title":"集集小镇(松江新城店)","lon":"121.21895","lat":"31.03799","category":"68","category_name":"快餐厅","address":"松江区新松江路935号乐购超市1楼(人民北路口)"},{"poiid":"B2094757D56DA0F84599","title":"新松江路营业厅","lon":"121.217039","lat":"31.039183","category":"151","category_name":"电讯营业厅","address":"松江区新松江路925弄1021"},{"poiid":"B2094757D16BA3FD4498","title":"新天地海陆鲜阁","lon":"121.22344","lat":"31.03232","category":"72","category_name":"广东菜","address":"松江区文诚路378弄嘉和休闲广场402号铺(西林路口)"},{"poiid":"B2094654DB6EA2F9469D","title":"地中海影城","lon":"121.218317","lat":"31.038502","category":"178","category_name":"电影院","address":"新松江路887弄1号乐购超市4层"},{"poiid":"B2094654DB64A6FB4798","title":"上海松江开元名都大酒店","lon":"121.22106","lat":"31.03723","category":"250","category_name":"公园户外","address":"松江区人民北路1799号(近新松江路)"},{"poiid":"B2094654DB64A0FC4993","title":"上海市第一人民医院（南部分院）","lon":"121.22572","lat":"31.04036","category":"162","category_name":"医院","address":"近郊新松江路650号(近人民北路)"},{"poiid":"B2094655D268A0FA499E","title":"STARBUCKS COFFEE(新松江路)","lon":"121.21849","lat":"31.03849","category":"65","category_name":"咖啡厅","address":""},{"poiid":"B2094655D268A5F9479C","title":"维也纳国际酒店松江店","lon":"121.22116","lat":"31.03391","category":"214","category_name":"四星级宾馆","address":"上海市松江区人民北路1515号"},{"poiid":"B2094757D069A2FA429B","title":"中央公园","lon":"121.227502823","lat":"31.0360280584","category":"196","category_name":"公园","address":"上海松江新城翠湖路"},{"poiid":"B2094750DA6EA6FB439F","title":"避风塘","lon":"121.219055","lat":"31.03812","category":"72","category_name":"广东菜","address":"松江区新松江路925号开元地中海商业广场3楼"},{"poiid":"B2094654DB69A5F9449E","title":"星巴克 新松江路店 Starbucks Cafe","lon":"121.21842096507567","lat":"31.03861656336127","category":"65","category_name":"咖啡厅","address":"松江区新松江路925号开元地中海商业广场内(人民北路口)"},{"poiid":"B2094757D06FABFC4098","title":"唯一娱乐","lon":"121.21827656","lat":"31.038441164","category":"170","category_name":"KTV","address":"上海近郊松江区新松江路926号开元地中海广场4楼(人民北路口)"},{"poiid":"B2094757D16EAAF9449E","title":"上海市交通大学附属第一人民医院南院9B","lon":"121.222828767","lat":"31.0419531613","category":"162","category_name":"医院","address":"上海市新松江路650号"},{"poiid":"B2094757D068AAFD4593","title":"村夫烤鱼(新松江路店)","lon":"121.21981","lat":"31.04027","category":"68","category_name":"快餐厅","address":"上海近郊松江区新松江路926弄开元地中海商业广场2楼(人民北路口)  "},{"poiid":"B2094757D06FA4F54993","title":"一茶一坐(地中海店)","lon":"121.21829627","lat":"31.037725048","category":"260","category_name":"其他","address":"上海松江开元地中海二楼"},{"poiid":"B2094757D068ABFC4493","title":"卜蜂莲花(松江文诚路店)","lon":"121.21972536","lat":"31.032609641","category":"118","category_name":"超级市场","address":"松江区文诚路258号(近人民北路)"},{"poiid":"B2094757DB68A4FF4992","title":"世贸时尚欢乐影城","lon":"121.214987","lat":"31.034961","category":"500","category_name":"未知分类","address":"上海市松江新城文诚路238弄1号2楼"},{"poiid":"B2094757D06FA6FD4099","title":"乐购(松江店)","lon":"121.21839","lat":"31.03792","category":"118","category_name":"超级市场","address":"松江区新松江路935号(人民北路口)"},{"poiid":"B2094757D064A5F44092","title":"香涌海鲜大酒楼(松江店)","lon":"121.221393742","lat":"31.0327239336","category":"76","category_name":"上海菜","address":"松江区人民北路1508号(北翠路人民北路)"},{"poiid":"B2094757D66FA0F8419E","title":"橄榄庄园","lon":"121.22013","lat":"31.038982","category":"94","category_name":"西餐厅","address":"松江区新松江路925号开元地中海商业广场3楼068-069号(人民北路口)"},{"poiid":"B2094757D069A0FF4993","title":"松江区政府行政一中心","lon":"121.227747","lat":"31.032243","category":"500","category_name":"未知分类","address":"上海松江区园中路1号"},{"poiid":"B2094757D068A6FE4799","title":"思贤公园","lon":"121.22401","lat":"31.02957","category":"196","category_name":"公园","address":"松江区思贤路北侧(近人民北路)"},{"poiid":"B2094654DB65A5F9439B","title":"伊万里川","lon":"121.22112","lat":"31.03737","category":"95","category_name":"日本料理","address":"松江区人民北路1799号开元大酒店3楼(北翠路人民北路)"},{"poiid":"B2094655D268A1FE439C","title":"上海市第一人民医院(南部)急诊部","lon":"121.22573","lat":"31.04159","category":"162","category_name":"医院","address":"文翔路1485"},{"poiid":"B2094757D069AAFF4998","title":"贵族世家牛排(松江店)","lon":"121.22088","lat":"31.03857","category":"94","category_name":"西餐厅","address":"松江区新松江路926弄开元地中海商业广场2楼(人民北路口)"},{"poiid":"B2094757D069A6FF4692","title":"松江区图书馆","lon":"121.22335","lat":"31.03541","category":"181","category_name":"图书馆","address":"松江区龙兴路888号"},{"poiid":"B2094757D06AA0FF4399","title":"拿渡麻辣香锅","lon":"121.21849646","lat":"31.038361682","category":"247","category_name":"餐饮美食","address":"上海市松江区地中海商城3层3055"},{"poiid":"B2094757D068AAFB4392","title":"嘟捞咪坊","lon":"121.218297","lat":"31.038476017","category":"86","category_name":"火锅店","address":"松江区新松江路925号开元地中海商业广场2楼(人民北路口)"},{"poiid":"B2094757D06FA4F9489F","title":"DQ冰雪皇后(开元地中海店)","lon":"121.21822","lat":"31.0381","category":"113","category_name":"冷饮店","address":"松江区新松江路887号开元地中海2楼(西林北路新松江路)"},{"poiid":"B2094757D069A2FC419C","title":"吞云小莳(松江开元店)","lon":"121.220371478","lat":"31.0378103953","category":"91","category_name":"台湾菜","address":"松江区新松江路927弄开元地中海2118室(近西林北路)"},{"poiid":"B2094654DB6EA2F8469A","title":"嘉和休闲广场","lon":"121.22469730537","lat":"31.038981603495","category":"201","category_name":"城市广场","address":"崇文区前门大街东打磨厂"},{"poiid":"B2094750D56CABFC409A","title":"麦当劳(开元地中海)","lon":"121.216506","lat":"31.035909","category":"247","category_name":"餐饮美食","address":"松江区新松江路925号开元地中海商业广场2楼(近星巴克)"},{"poiid":"B2094750D76EA1F5449C","title":"糖小囡的甜品屋","lon":"121.22","lat":"31.0377","category":"67","category_name":"甜品店","address":"松江区新松江路925号开元地中海商业广场3楼305号铺"},{"poiid":"B2094654DB6EA2FA409E","title":"避风港时尚餐厅","lon":"121.21555","lat":"31.03854","category":"257","category_name":"中餐厅","address":""},{"poiid":"B2094757D464ABF9409C","title":"味千拉面 松江二店","lon":"121.21901","lat":"31.03874","category":"95","category_name":"日本料理","address":"松江区新松江路925弄1002单元"},{"poiid":"B2094751D26BA4FD469F","title":"网鱼网咖地中海店","lon":"121.220245","lat":"31.037781","category":"248","category_name":"生活娱乐","address":"松江区新松江路927弄开元地中海商业广场3楼(近开元地中海)"},{"poiid":"B2094757D064ABFF4693","title":"幸乐日本料理(松江店)","lon":"121.220936267","lat":"31.0371392556","category":"95","category_name":"日本料理","address":"松江区新松江路925号开元地中海商业广场3楼(人民北路口)"},{"poiid":"B2094757D16EAAFC4698","title":"上海市松江区人民法院","lon":"121.224146467","lat":"31.0333175716","category":"608","category_name":"法院","address":"上海市松江区南青路701号"},{"poiid":"B2094751DA6BABFB429D","title":"釜山料理开元地中海","lon":"121.219278","lat":"31.037877","category":"247","category_name":"餐饮美食","address":null},{"poiid":"B2094655D26EAAFD499A","title":"地中海咖啡厅","lon":"121.22028","lat":"31.03732","category":"268","category_name":"自助","address":"松江区人民北路1799号开元名都大酒店1楼(北翠路人民北路)"},{"poiid":"B2094757D06BA7FA4899","title":"大娘水饺（文诚路店）","lon":"121.220167034","lat":"31.0327016581","category":"68","category_name":"快餐厅","address":"松江区文诚路258号(近人民北路)"},{"poiid":"B2094654DB6EA2FB4598","title":"上海市松江区国家税务局","lon":"121.22527","lat":"31.0311","category":"250","category_name":"公园户外","address":"松江新城区园中路2号"},{"poiid":"B2094752D264ABFC479F","title":"胡椒厨房","lon":"121.219005","lat":"31.038003","category":"247","category_name":"餐饮美食","address":"松江区地中海三楼"},{"poiid":"B2094757D06AA1FA4498","title":"上海市工商行政管理局松江分局","lon":"121.22510781","lat":"31.031424079","category":"197","category_name":"动物园","address":"上海松江区方松街道文诚路69号"},{"poiid":"B2094655D268A0FA4892","title":"巴比隆烤肉 新松江路店","lon":"121.21947","lat":"31.03835","category":"68","category_name":"快餐厅","address":"松江区新松江路925号开元地中海商业广场3楼(人民北路口)"},{"poiid":"B2094757D069A1F9469B","title":"傣妹(地中海店)","lon":"121.22081224","lat":"31.038426045","category":"86","category_name":"火锅店","address":"松江区新松江路925号开元地中海商业广场2楼(人民北路口)"},{"poiid":"B2094757D069A5FF4593","title":"蜀娱","lon":"121.22079","lat":"31.03817","category":"71","category_name":"四川菜","address":"松江区新松江路925号开元地中海商业广场1楼096A号(人民北路口)"},{"poiid":"B2094757D16AAAFB4598","title":"禾苑·摸错门","lon":"121.220306967","lat":"31.037068254","category":"86","category_name":"火锅店","address":"上海松江区地中海开元广场"},{"poiid":"B2094654DB6EA2FB4492","title":"上海市中心图书馆松江分馆","lon":"121.22332","lat":"31.03565","category":"181","category_name":"图书馆","address":"松江区人民北路1626号"},{"poiid":"B2094757D06BA7F9449D","title":"小资汇","lon":"121.22109","lat":"31.03818","category":"76","category_name":"上海菜","address":"松江区新松江路925号开元地中海商业广场3楼(人民北路口)"},{"poiid":"B2094757D06BA5F9419B","title":"集集小镇(松江新城店)","lon":"121.21895","lat":"31.03799","category":"68","category_name":"快餐厅","address":"松江区新松江路935号乐购超市1楼(人民北路口)"},{"poiid":"B2094757D56DA0F84599","title":"新松江路营业厅","lon":"121.217039","lat":"31.039183","category":"151","category_name":"电讯营业厅","address":"松江区新松江路925弄1021"},{"poiid":"B2094757D16BA3FD4498","title":"新天地海陆鲜阁","lon":"121.22344","lat":"31.03232","category":"72","category_name":"广东菜","address":"松江区文诚路378弄嘉和休闲广场402号铺(西林路口)"},{"poiid":"B2094654DB6EA2F9469D","title":"地中海影城","lon":"121.218317","lat":"31.038502","category":"178","category_name":"电影院","address":"新松江路887弄1号乐购超市4层"},{"poiid":"B2094654DB64A6FB4798","title":"上海松江开元名都大酒店","lon":"121.22106","lat":"31.03723","category":"250","category_name":"公园户外","address":"松江区人民北路1799号(近新松江路)"},{"poiid":"B2094654DB64A0FC4993","title":"上海市第一人民医院（南部分院）","lon":"121.22572","lat":"31.04036","category":"162","category_name":"医院","address":"近郊新松江路650号(近人民北路)"},{"poiid":"B2094655D268A0FA499E","title":"STARBUCKS COFFEE(新松江路)","lon":"121.21849","lat":"31.03849","category":"65","category_name":"咖啡厅","address":""},{"poiid":"B2094655D268A5F9479C","title":"维也纳国际酒店松江店","lon":"121.22116","lat":"31.03391","category":"214","category_name":"四星级宾馆","address":"上海市松江区人民北路1515号"},{"poiid":"B2094757D069A2FA429B","title":"中央公园","lon":"121.227502823","lat":"31.0360280584","category":"196","category_name":"公园","address":"上海松江新城翠湖路"},{"poiid":"B2094750DA6EA6FB439F","title":"避风塘","lon":"121.219055","lat":"31.03812","category":"72","category_name":"广东菜","address":"松江区新松江路925号开元地中海商业广场3楼"},{"poiid":"B2094654DB69A5F9449E","title":"星巴克 新松江路店 Starbucks Cafe","lon":"121.21842096507567","lat":"31.03861656336127","category":"65","category_name":"咖啡厅","address":"松江区新松江路925号开元地中海商业广场内(人民北路口)"},{"poiid":"B2094757D06FABFC4098","title":"唯一娱乐","lon":"121.21827656","lat":"31.038441164","category":"170","category_name":"KTV","address":"上海近郊松江区新松江路926号开元地中海广场4楼(人民北路口)"},{"poiid":"B2094757D16EAAF9449E","title":"上海市交通大学附属第一人民医院南院9B","lon":"121.222828767","lat":"31.0419531613","category":"162","category_name":"医院","address":"上海市新松江路650号"},{"poiid":"B2094757D068AAFD4593","title":"村夫烤鱼(新松江路店)","lon":"121.21981","lat":"31.04027","category":"68","category_name":"快餐厅","address":"上海近郊松江区新松江路926弄开元地中海商业广场2楼(人民北路口)  "},{"poiid":"B2094757D06FA4F54993","title":"一茶一坐(地中海店)","lon":"121.21829627","lat":"31.037725048","category":"260","category_name":"其他","address":"上海松江开元地中海二楼"},{"poiid":"B2094757D068ABFC4493","title":"卜蜂莲花(松江文诚路店)","lon":"121.21972536","lat":"31.032609641","category":"118","category_name":"超级市场","address":"松江区文诚路258号(近人民北路)"},{"poiid":"B2094757DB68A4FF4992","title":"世贸时尚欢乐影城","lon":"121.214987","lat":"31.034961","category":"500","category_name":"未知分类","address":"上海市松江新城文诚路238弄1号2楼"},{"poiid":"B2094757D06FA6FD4099","title":"乐购(松江店)","lon":"121.21839","lat":"31.03792","category":"118","category_name":"超级市场","address":"松江区新松江路935号(人民北路口)"},{"poiid":"B2094757D064A5F44092","title":"香涌海鲜大酒楼(松江店)","lon":"121.221393742","lat":"31.0327239336","category":"76","category_name":"上海菜","address":"松江区人民北路1508号(北翠路人民北路)"},{"poiid":"B2094757D66FA0F8419E","title":"橄榄庄园","lon":"121.22013","lat":"31.038982","category":"94","category_name":"西餐厅","address":"松江区新松江路925号开元地中海商业广场3楼068-069号(人民北路口)"},{"poiid":"B2094757D069A0FF4993","title":"松江区政府行政一中心","lon":"121.227747","lat":"31.032243","category":"500","category_name":"未知分类","address":"上海松江区园中路1号"},{"poiid":"B2094757D068A6FE4799","title":"思贤公园","lon":"121.22401","lat":"31.02957","category":"196","category_name":"公园","address":"松江区思贤路北侧(近人民北路)"},{"poiid":"B2094654DB65A5F9439B","title":"伊万里川","lon":"121.22112","lat":"31.03737","category":"95","category_name":"日本料理","address":"松江区人民北路1799号开元大酒店3楼(北翠路人民北路)"},{"poiid":"B2094655D268A1FE439C","title":"上海市第一人民医院(南部)急诊部","lon":"121.22573","lat":"31.04159","category":"162","category_name":"医院","address":"文翔路1485"},{"poiid":"B2094757D069AAFF4998","title":"贵族世家牛排(松江店)","lon":"121.22088","lat":"31.03857","category":"94","category_name":"西餐厅","address":"松江区新松江路926弄开元地中海商业广场2楼(人民北路口)"},{"poiid":"B2094757D069A6FF4692","title":"松江区图书馆","lon":"121.22335","lat":"31.03541","category":"181","category_name":"图书馆","address":"松江区龙兴路888号"},{"poiid":"B2094757D06AA0FF4399","title":"拿渡麻辣香锅","lon":"121.21849646","lat":"31.038361682","category":"247","category_name":"餐饮美食","address":"上海市松江区地中海商城3层3055"},{"poiid":"B2094757D068AAFB4392","title":"嘟捞咪坊","lon":"121.218297","lat":"31.038476017","category":"86","category_name":"火锅店","address":"松江区新松江路925号开元地中海商业广场2楼(人民北路口)"},{"poiid":"B2094757D06FA4F9489F","title":"DQ冰雪皇后(开元地中海店)","lon":"121.21822","lat":"31.0381","category":"113","category_name":"冷饮店","address":"松江区新松江路887号开元地中海2楼(西林北路新松江路)"},{"poiid":"B2094757D069A2FC419C","title":"吞云小莳(松江开元店)","lon":"121.220371478","lat":"31.0378103953","category":"91","category_name":"台湾菜","address":"松江区新松江路927弄开元地中海2118室(近西林北路)"},{"poiid":"B2094654DB6EA2F8469A","title":"嘉和休闲广场","lon":"121.22469730537","lat":"31.038981603495","category":"201","category_name":"城市广场","address":"崇文区前门大街东打磨厂"},{"poiid":"B2094750D56CABFC409A","title":"麦当劳(开元地中海)","lon":"121.216506","lat":"31.035909","category":"247","category_name":"餐饮美食","address":"松江区新松江路925号开元地中海商业广场2楼(近星巴克)"},{"poiid":"B2094750D76EA1F5449C","title":"糖小囡的甜品屋","lon":"121.22","lat":"31.0377","category":"67","category_name":"甜品店","address":"松江区新松江路925号开元地中海商业广场3楼305号铺"},{"poiid":"B2094654DB6EA2FA409E","title":"避风港时尚餐厅","lon":"121.21555","lat":"31.03854","category":"257","category_name":"中餐厅","address":""},{"poiid":"B2094757D464ABF9409C","title":"味千拉面 松江二店","lon":"121.21901","lat":"31.03874","category":"95","category_name":"日本料理","address":"松江区新松江路925弄1002单元"},{"poiid":"B2094751D26BA4FD469F","title":"网鱼网咖地中海店","lon":"121.220245","lat":"31.037781","category":"248","category_name":"生活娱乐","address":"松江区新松江路927弄开元地中海商业广场3楼(近开元地中海)"},{"poiid":"B2094757D064ABFF4693","title":"幸乐日本料理(松江店)","lon":"121.220936267","lat":"31.0371392556","category":"95","category_name":"日本料理","address":"松江区新松江路925号开元地中海商业广场3楼(人民北路口)"},{"poiid":"B2094757D16EAAFC4698","title":"上海市松江区人民法院","lon":"121.224146467","lat":"31.0333175716","category":"608","category_name":"法院","address":"上海市松江区南青路701号"},{"poiid":"B2094751DA6BABFB429D","title":"釜山料理开元地中海","lon":"121.219278","lat":"31.037877","category":"247","category_name":"餐饮美食","address":null},{"poiid":"B2094655D26EAAFD499A","title":"地中海咖啡厅","lon":"121.22028","lat":"31.03732","category":"268","category_name":"自助","address":"松江区人民北路1799号开元名都大酒店1楼(北翠路人民北路)"},{"poiid":"B2094757D06BA7FA4899","title":"大娘水饺（文诚路店）","lon":"121.220167034","lat":"31.0327016581","category":"68","category_name":"快餐厅","address":"松江区文诚路258号(近人民北路)"},{"poiid":"B2094654DB6EA2FB4598","title":"上海市松江区国家税务局","lon":"121.22527","lat":"31.0311","category":"250","category_name":"公园户外","address":"松江新城区园中路2号"},{"poiid":"B2094752D264ABFC479F","title":"胡椒厨房","lon":"121.219005","lat":"31.038003","category":"247","category_name":"餐饮美食","address":"松江区地中海三楼"},{"poiid":"B2094757D06AA1FA4498","title":"上海市工商行政管理局松江分局","lon":"121.22510781","lat":"31.031424079","category":"197","category_name":"动物园","address":"上海松江区方松街道文诚路69号"},{"poiid":"B2094655D268A0FA4892","title":"巴比隆烤肉 新松江路店","lon":"121.21947","lat":"31.03835","category":"68","category_name":"快餐厅","address":"松江区新松江路925号开元地中海商业广场3楼(人民北路口)"},{"poiid":"B2094757D069A1F9469B","title":"傣妹(地中海店)","lon":"121.22081224","lat":"31.038426045","category":"86","category_name":"火锅店","address":"松江区新松江路925号开元地中海商业广场2楼(人民北路口)"},{"poiid":"B2094757D069A5FF4593","title":"蜀娱","lon":"121.22079","lat":"31.03817","category":"71","category_name":"四川菜","address":"松江区新松江路925号开元地中海商业广场1楼096A号(人民北路口)"},{"poiid":"B2094757D16AAAFB4598","title":"禾苑·摸错门","lon":"121.220306967","lat":"31.037068254","category":"86","category_name":"火锅店","address":"上海松江区地中海开元广场"},{"poiid":"B2094654DB6EA2FB4492","title":"上海市中心图书馆松江分馆","lon":"121.22332","lat":"31.03565","category":"181","category_name":"图书馆","address":"松江区人民北路1626号"},{"poiid":"B2094757D06BA7F9449D","title":"小资汇","lon":"121.22109","lat":"31.03818","category":"76","category_name":"上海菜","address":"松江区新松江路925号开元地中海商业广场3楼(人民北路口)"},{"poiid":"B2094757D06BA5F9419B","title":"集集小镇(松江新城店)","lon":"121.21895","lat":"31.03799","category":"68","category_name":"快餐厅","address":"松江区新松江路935号乐购超市1楼(人民北路口)"},{"poiid":"B2094757D56DA0F84599","title":"新松江路营业厅","lon":"121.217039","lat":"31.039183","category":"151","category_name":"电讯营业厅","address":"松江区新松江路925弄1021"},{"poiid":"B2094757D16BA3FD4498","title":"新天地海陆鲜阁","lon":"121.22344","lat":"31.03232","category":"72","category_name":"广东菜","address":"松江区文诚路378弄嘉和休闲广场402号铺(西林路口)"}]