[{"poiid":"B2094757D06EAAFC449A","title":"玲珑小镇","lon":"121.47061852","lat":"31.203782139","category":"91","category_name":"台湾菜","address":"卢湾区打浦路78号(近徐家汇路)"},{"poiid":"B2094757D06FA5F5449B","title":"中亨汇大酒店","lon":"121.46755","lat":"31.20075","category":"72","category_name":"广东菜","address":"卢湾区瑞金南路428号(近斜土路)"},{"poiid":"B2094654DB6BA4FC4899","title":"一哥肥牛火锅海鲜酒家(打浦路店)","lon":"121.4704","lat":"31.20316","category":"86","category_name":"火锅店","address":"上海卢湾区打浦路86号海丽花园(近斜土路)"},{"poiid":"B2094753D76FAAFA449C","title":"上海滩国泰旗舰店","lon":"121.466011","lat":"31.216125","category":"249","category_name":"购物服务","address":"淮海中路868号"},{"poiid":"B209475CD564A7F84292","title":"上海滩新天地店","lon":"121.47463","lat":"31.22164","category":"119","category_name":"商场","address":"\"太仓路181弄新天地北里15号\r\n\""},{"poiid":"B2094757D06FA7F84899","title":"卢湾高级中学","lon":"121.46922","lat":"31.2016","category":"55","category_name":"中学","address":"上海卢湾区斜土路885号(近瑞金南路)"},{"poiid":"B2094654DB6AA6F8439E","title":"上海华美达和平大酒店","lon":"121.47293","lat":"31.20216","category":"214","category_name":"四星级宾馆","address":"上海市黄浦区斜土路688号(近打浦路)"},{"poiid":"B2094757D06FA0FD4599","title":"玛格萝妮比萨屋(卢湾店)","lon":"121.47116","lat":"31.20111","category":"94","category_name":"西餐厅","address":"卢湾区打浦路200弄1号(近斜土路)"},{"poiid":"B2094757D069A7F84498","title":"铭圣养生素餐厅","lon":"121.47142","lat":"31.20176","category":"89","category_name":"中式素餐馆","address":"卢湾区斜土路768号(打浦路口)"},{"poiid":"B2094655D36CA5FD4098","title":"打浦路斜土路","lon":"121.47119","lat":"31.20111","category":"38","category_name":"公交车站","address":"打浦路"},{"poiid":"B2094757D168A1FB4099","title":"四号线鲁班路地铁站","lon":"121.469253338","lat":"31.1998083521","category":"36","category_name":"地铁站","address":"上海瞿溪路1110号"},{"poiid":"B2094751D568A5FA499A","title":"东方医院","lon":"121.471038","lat":"31.201765","category":"162","category_name":"医院","address":"浦东大道即墨路150号"},{"poiid":"B2094757D76BABF5439D","title":"大眼面馆 斜土路店","lon":"121.47062","lat":"31.20185","category":"68","category_name":"快餐厅","address":"卢湾区斜土路780号(近打浦路)"},{"poiid":"B2094757D069A7F84098","title":"玲瓏小鎮","lon":"121.47081936","lat":"31.20350292","category":"500","category_name":"未知分类","address":"上海打浦路78号"},{"poiid":"B2094757D068A5F84993","title":"翠蜓轩中国餐厅(打浦路店)","lon":"121.47046","lat":"31.20318","category":"76","category_name":"上海菜","address":"卢湾区打浦路88号海丽大厦2楼(斜土路口)"},{"poiid":"B2094654DA6EA3FA4693","title":"海丽大厦","lon":"121.47023","lat":"31.20312","category":"46","category_name":"楼宇","address":"宣武区南横街东口"},{"poiid":"B2094757D069AAFC4992","title":"佬湘楼","lon":"121.47239","lat":"31.20172","category":"77","category_name":"湖南菜","address":"卢湾区斜土路730号(打浦路口)"},{"poiid":"B2094757D06AA6F94192","title":"心琪粥店","lon":"121.47074271","lat":"31.20112913","category":"68","category_name":"快餐厅","address":"卢湾区斜土路782号(近打浦路)"},{"poiid":"B2094757D164A7FB4893","title":"丰收日宁波海鲜大酒店","lon":"121.470785738","lat":"31.2027947156","category":"75","category_name":"浙江菜","address":"上海市卢湾区肇嘉浜路"},{"poiid":"B2094757D66BA6F94793","title":"海派小菜","lon":"121.47098685578","lat":"31.201215719846","category":"76","category_name":"上海菜","address":"卢湾区打浦路216号(近徐家汇路)"},{"poiid":"B2094757D169A6FD4998","title":"五芳面馆","lon":"121.47124265","lat":"31.201167886","category":"68","category_name":"快餐厅","address":"卢湾区打浦路318号(近瞿溪路)"},{"poiid":"B2094757D06FA6FF4793","title":"红宝石(打浦路店)","lon":"121.4723","lat":"31.19916","category":"67","category_name":"甜品店","address":"卢湾区打浦路333号(近瞿溪路)"},{"poiid":"B2094654DA6EA3FD499D","title":"上海美粤华大酒店","lon":"121.47074","lat":"31.20169","category":"250","category_name":"公园户外","address":"斜土路780号经宇商务楼南楼3号门3层"},{"poiid":"B2094654DA6EA3FD4898","title":"上海卢湾牙防所","lon":"121.47074","lat":"31.2017","category":"162","category_name":"医院","address":"斜土路780号经宇商务楼北楼北2层"},{"poiid":"B2094757D06AA0F5499C","title":"瑞南新苑","lon":"121.46907456","lat":"31.200111521","category":"500","category_name":"未知分类","address":"上海市卢湾区瑞金南路185弄"},{"poiid":"B2094757D469A4FA4793","title":"豪大大台湾大鸡排 斜土路店","lon":"121.4751","lat":"31.20276","category":"68","category_name":"快餐厅","address":"卢湾区斜土路782号(近打浦路3月19号开业)"},{"poiid":"B2094757D56CABFA449B","title":"金盘子新朝菜","lon":"121.4712633","lat":"31.2020223","category":"87","category_name":"特色／地方风味餐厅","address":"上海卢湾区斜土路768号致远大厦2楼(近打浦路)  "},{"poiid":"B2094654DB65A1F94493","title":"打浦路210弄1-8号小区","lon":"121.47076","lat":"31.20109","category":"47","category_name":"住宅区","address":"打浦路210弄1-8号"},{"poiid":"B2094752DA69ABF9429F","title":"撤思叔叔烘培工房","lon":"121.469386","lat":"31.201141","category":"247","category_name":"餐饮美食","address":"上海市 上海打浦桥日月光B2"},{"poiid":"B2094757D069AAFC4598","title":"东泰花苑","lon":"121.47208","lat":"31.200804","category":"47","category_name":"住宅区","address":"上海市卢湾区打浦路299弄"},{"poiid":"B2094654DA6EA3F8489F","title":"郁金香花苑","lon":"121.46989","lat":"31.200642","category":"47","category_name":"住宅区","address":"郁金香花苑位于卢湾斜土路810号"},{"poiid":"B2094654DA6EA3FD479E","title":"飞纶商务中心","lon":"121.47048","lat":"31.20142","category":"46","category_name":"楼宇","address":"上海斜土路788号"},{"poiid":"B2094654DA6EA3FF4999","title":"扬子江家园","lon":"121.47077","lat":"31.200121","category":"47","category_name":"住宅区","address":"上海市卢湾区打浦路252号"},{"poiid":"B2094757D16FA6FA499F","title":"柏森养生馆","lon":"121.47137133","lat":"31.200446765","category":"148","category_name":"美容美发店","address":"上海打浦路299弄东泰花苑9号楼二楼"},{"poiid":"B2094654DA6EA3F8479E","title":"吉祥馄饨斜浦店","lon":"121.47079","lat":"31.20176","category":"68","category_name":"快餐厅","address":"卢湾区斜土路778号(近打浦路)"},{"poiid":"B2094655D26AA6FB4293","title":"重庆奔吃麻辣烫斜土路店","lon":"121.47142","lat":"31.20176","category":"68","category_name":"快餐厅","address":"卢湾区斜土路768-4号致远大厦1楼(打浦路口)"},{"poiid":"B2094655D264A7F4499D","title":"米兰护肤造型中心（打浦路店）","lon":"121.47021","lat":"31.20375","category":"148","category_name":"美容美发店","address":"上海卢湾区打浦路78号（近斜土路）"},{"poiid":"B2094757D468A6FF449F","title":"三国烤鱼","lon":"121.46854","lat":"31.20093","category":"71","category_name":"四川菜","address":"卢湾区打浦路318号(近瞿溪路)"},{"poiid":"B2094654DA6EA3FD4792","title":"经宇商务楼","lon":"121.47073","lat":"31.2017","category":"46","category_name":"楼宇","address":"斜土路780"},{"poiid":"B2094655D26CA4FA479A","title":"全家(上海市卢湾中学南)","lon":"121.46984","lat":"31.20146","category":"117","category_name":"便民商店/便利店","address":"斜土路798"},{"poiid":"B2094654DA6EA3F84693","title":"同兴半盆菜酒家","lon":"121.47145","lat":"31.19963","category":"76","category_name":"上海菜","address":"卢湾区打浦路316弄35号(近瞿溪路)"},{"poiid":"B2094654DA6EA3F84898","title":"永琪美容美发斜土店","lon":"121.46977","lat":"31.20144","category":"148","category_name":"美容美发店","address":"斜土路800"},{"poiid":"B2094757D068AAFF469D","title":"7-ELEVEN(致远大厦店)","lon":"121.471310239","lat":"31.2013822114","category":"117","category_name":"便民商店/便利店","address":"卢湾区斜土路768号(近致远大厦)"},{"poiid":"B2094654DA6EA3FF469D","title":"中国银行上海市打浦路支行","lon":"121.47129","lat":"31.2017","category":"150","category_name":"银行","address":"斜土路768-3"},{"poiid":"B2094654DA6EA3FD4799","title":"卢湾教育文体中心","lon":"121.46962","lat":"31.20208","category":"252","category_name":"楼宇机构","address":"斜土路855"},{"poiid":"B2094654DB65A1F9449C","title":"打浦路252弄2-44号小区","lon":"121.47099","lat":"31.20062","category":"47","category_name":"住宅区","address":"打浦路252弄2-44号"},{"poiid":"B2094757D069A4FF429A","title":"泰和足道(斜土路店)","lon":"121.46906","lat":"31.20089","category":"149","category_name":"洗浴推拿场所","address":"卢湾区斜土路828号(近瑞金南路)"},{"poiid":"B2094654DA6EA3FD479C","title":"上海市沪光进修学院","lon":"121.47048","lat":"31.20142","category":"53","category_name":"成人教育","address":"斜土路788号飞纶商务中心"},{"poiid":"B2094757D16EAAFB4999","title":"上岛咖啡(打浦路店)","lon":"121.47079433","lat":"31.201742193","category":"260","category_name":"其他","address":"卢湾区打浦路269号2楼(近斜土路)"},{"poiid":"B2094757D76EA3FC439D","title":"顺丰面馆","lon":"121.47127","lat":"31.20287","category":"68","category_name":"快餐厅","address":"卢湾区南塘浜路126号(近打浦路)"},{"poiid":"B2094757D06EAAFC449A","title":"玲珑小镇","lon":"121.47061852","lat":"31.203782139","category":"91","category_name":"台湾菜","address":"卢湾区打浦路78号(近徐家汇路)"},{"poiid":"B2094757D06FA5F5449B","title":"中亨汇大酒店","lon":"121.46755","lat":"31.20075","category":"72","category_name":"广东菜","address":"卢湾区瑞金南路428号(近斜土路)"},{"poiid":"B2094654DB6BA4FC4899","title":"一哥肥牛火锅海鲜酒家(打浦路店)","lon":"121.4704","lat":"31.20316","category":"86","category_name":"火锅店","address":"上海卢湾区打浦路86号海丽花园(近斜土路)"},{"poiid":"B2094753D76FAAFA449C","title":"上海滩国泰旗舰店","lon":"121.466011","lat":"31.216125","category":"249","category_name":"购物服务","address":"淮海中路868号"},{"poiid":"B209475CD564A7F84292","title":"上海滩新天地店","lon":"121.47463","lat":"31.22164","category":"119","category_name":"商场","address":"\"太仓路181弄新天地北里15号\r\n\""},{"poiid":"B2094757D06FA7F84899","title":"卢湾高级中学","lon":"121.46922","lat":"31.2016","category":"55","category_name":"中学","address":"上海卢湾区斜土路885号(近瑞金南路)"},{"poiid":"B2094654DB6AA6F8439E","title":"上海华美达和平大酒店","lon":"121.47293","lat":"31.20216","category":"214","category_name":"四星级宾馆","address":"上海市黄浦区斜土路688号(近打浦路)"},{"poiid":"B2094757D06FA0FD4599","title":"玛格萝妮比萨屋(卢湾店)","lon":"121.47116","lat":"31.20111","category":"94","category_name":"西餐厅","address":"卢湾区打浦路200弄1号(近斜土路)"},{"poiid":"B2094757D069A7F84498","title":"铭圣养生素餐厅","lon":"121.47142","lat":"31.20176","category":"89","category_name":"中式素餐馆","address":"卢湾区斜土路768号(打浦路口)"},{"poiid":"B2094655D36CA5FD4098","title":"打浦路斜土路","lon":"121.47119","lat":"31.20111","category":"38","category_name":"公交车站","address":"打浦路"},{"poiid":"B2094757D168A1FB4099","title":"四号线鲁班路地铁站","lon":"121.469253338","lat":"31.1998083521","category":"36","category_name":"地铁站","address":"上海瞿溪路1110号"},{"poiid":"B2094751D568A5FA499A","title":"东方医院","lon":"121.471038","lat":"31.201765","category":"162","category_name":"医院","address":"浦东大道即墨路150号"},{"poiid":"B2094757D76BABF5439D","title":"大眼面馆 斜土路店","lon":"121.47062","lat":"31.20185","category":"68","category_name":"快餐厅","address":"卢湾区斜土路780号(近打浦路)"},{"poiid":"B2094757D069A7F84098","title":"玲瓏小鎮","lon":"121.47081936","lat":"31.20350292","category":"500","category_name":"未知分类","address":"上海打浦路78号"},{"poiid":"B2094757D068A5F84993","title":"翠蜓轩中国餐厅(打浦路店)","lon":"121.47046","lat":"31.20318","category":"76","category_name":"上海菜","address":"卢湾区打浦路88号海丽大厦2楼(斜土路口)"},{"poiid":"B2094654DA6EA3FA4693","title":"海丽大厦","lon":"121.47023","lat":"31.20312","category":"46","category_name":"楼宇","address":"宣武区南横街东口"},{"poiid":"B2094757D069AAFC4992","title":"佬湘楼","lon":"121.47239","lat":"31.20172","category":"77","category_name":"湖南菜","address":"卢湾区斜土路730号(打浦路口)"},{"poiid":"B2094757D06AA6F94192","title":"心琪粥店","lon":"121.47074271","lat":"31.20112913","category":"68","category_name":"快餐厅","address":"卢湾区斜土路782号(近打浦路)"},{"poiid":"B2094757D164A7FB4893","title":"丰收日宁波海鲜大酒店","lon":"121.470785738","lat":"31.2027947156","category":"75","category_name":"浙江菜","address":"上海市卢湾区肇嘉浜路"},{"poiid":"B2094757D66BA6F94793","title":"海派小菜","lon":"121.47098685578","lat":"31.201215719846","category":"76","category_name":"上海菜","address":"卢湾区打浦路216号(近徐家汇路)"},{"poiid":"B2094757D169A6FD4998","title":"五芳面馆","lon":"121.47124265","lat":"31.201167886","category":"68","category_name":"快餐厅","address":"卢湾区打浦路318号(近瞿溪路)"},{"poiid":"B2094757D06FA6FF4793","title":"红宝石(打浦路店)","lon":"121.4723","lat":"31.19916","category":"67","category_name":"甜品店","address":"卢湾区打浦路333号(近瞿溪路)"},{"poiid":"B2094654DA6EA3FD499D","title":"上海美粤华大酒店","lon":"121.47074","lat":"31.20169","category":"250","category_name":"公园户外","address":"斜土路780号经宇商务楼南楼3号门3层"},{"poiid":"B2094654DA6EA3FD4898","title":"上海卢湾牙防所","lon":"121.47074","lat":"31.2017","category":"162","category_name":"医院","address":"斜土路780号经宇商务楼北楼北2层"},{"poiid":"B2094757D06AA0F5499C","title":"瑞南新苑","lon":"121.46907456","lat":"31.200111521","category":"500","category_name":"未知分类","address":"上海市卢湾区瑞金南路185弄"},{"poiid":"B2094757D469A4FA4793","title":"豪大大台湾大鸡排 斜土路店","lon":"121.4751","lat":"31.20276","category":"68","category_name":"快餐厅","address":"卢湾区斜土路782号(近打浦路3月19号开业)"},{"poiid":"B2094757D56CABFA449B","title":"金盘子新朝菜","lon":"121.4712633","lat":"31.2020223","category":"87","category_name":"特色／地方风味餐厅","address":"上海卢湾区斜土路768号致远大厦2楼(近打浦路)  "},{"poiid":"B2094654DB65A1F94493","title":"打浦路210弄1-8号小区","lon":"121.47076","lat":"31.20109","category":"47","category_name":"住宅区","address":"打浦路210弄1-8号"},{"poiid":"B2094752DA69ABF9429F","title":"撤思叔叔烘培工房","lon":"121.469386","lat":"31.201141","category":"247","category_name":"餐饮美食","address":"上海市 上海打浦桥日月光B2"},{"poiid":"B2094757D069AAFC4598","title":"东泰花苑","lon":"121.47208","lat":"31.200804","category":"47","category_name":"住宅区","address":"上海市卢湾区打浦路299弄"},{"poiid":"B2094654DA6EA3F8489F","title":"郁金香花苑","lon":"121.46989","lat":"31.200642","category":"47","category_name":"住宅区","address":"郁金香花苑位于卢湾斜土路810号"},{"poiid":"B2094654DA6EA3FD479E","title":"飞纶商务中心","lon":"121.47048","lat":"31.20142","category":"46","category_name":"楼宇","address":"上海斜土路788号"},{"poiid":"B2094654DA6EA3FF4999","title":"扬子江家园","lon":"121.47077","lat":"31.200121","category":"47","category_name":"住宅区","address":"上海市卢湾区打浦路252号"},{"poiid":"B2094757D16FA6FA499F","title":"柏森养生馆","lon":"121.47137133","lat":"31.200446765","category":"148","category_name":"美容美发店","address":"上海打浦路299弄东泰花苑9号楼二楼"},{"poiid":"B2094654DA6EA3F8479E","title":"吉祥馄饨斜浦店","lon":"121.47079","lat":"31.20176","category":"68","category_name":"快餐厅","address":"卢湾区斜土路778号(近打浦路)"},{"poiid":"B2094655D26AA6FB4293","title":"重庆奔吃麻辣烫斜土路店","lon":"121.47142","lat":"31.20176","category":"68","category_name":"快餐厅","address":"卢湾区斜土路768-4号致远大厦1楼(打浦路口)"},{"poiid":"B2094655D264A7F4499D","title":"米兰护肤造型中心（打浦路店）","lon":"121.47021","lat":"31.20375","category":"148","category_name":"美容美发店","address":"上海卢湾区打浦路78号（近斜土路）"},{"poiid":"B2094757D468A6FF449F","title":"三国烤鱼","lon":"121.46854","lat":"31.20093","category":"71","category_name":"四川菜","address":"卢湾区打浦路318号(近瞿溪路)"},{"poiid":"B2094654DA6EA3FD4792","title":"经宇商务楼","lon":"121.47073","lat":"31.2017","category":"46","category_name":"楼宇","address":"斜土路780"},{"poiid":"B2094655D26CA4FA479A","title":"全家(上海市卢湾中学南)","lon":"121.46984","lat":"31.20146","category":"117","category_name":"便民商店/便利店","address":"斜土路798"},{"poiid":"B2094654DA6EA3F84693","title":"同兴半盆菜酒家","lon":"121.47145","lat":"31.19963","category":"76","category_name":"上海菜","address":"卢湾区打浦路316弄35号(近瞿溪路)"},{"poiid":"B2094654DA6EA3F84898","title":"永琪美容美发斜土店","lon":"121.46977","lat":"31.20144","category":"148","category_name":"美容美发店","address":"斜土路800"},{"poiid":"B2094757D068AAFF469D","title":"7-ELEVEN(致远大厦店)","lon":"121.471310239","lat":"31.2013822114","category":"117","category_name":"便民商店/便利店","address":"卢湾区斜土路768号(近致远大厦)"},{"poiid":"B2094654DA6EA3FF469D","title":"中国银行上海市打浦路支行","lon":"121.47129","lat":"31.2017","category":"150","category_name":"银行","address":"斜土路768-3"},{"poiid":"B2094654DA6EA3FD4799","title":"卢湾教育文体中心","lon":"121.46962","lat":"31.20208","category":"252","category_name":"楼宇机构","address":"斜土路855"},{"poiid":"B2094654DB65A1F9449C","title":"打浦路252弄2-44号小区","lon":"121.47099","lat":"31.20062","category":"47","category_name":"住宅区","address":"打浦路252弄2-44号"},{"poiid":"B2094757D069A4FF429A","title":"泰和足道(斜土路店)","lon":"121.46906","lat":"31.20089","category":"149","category_name":"洗浴推拿场所","address":"卢湾区斜土路828号(近瑞金南路)"},{"poiid":"B2094654DA6EA3FD479C","title":"上海市沪光进修学院","lon":"121.47048","lat":"31.20142","category":"53","category_name":"成人教育","address":"斜土路788号飞纶商务中心"},{"poiid":"B2094757D16EAAFB4999","title":"上岛咖啡(打浦路店)","lon":"121.47079433","lat":"31.201742193","category":"260","category_name":"其他","address":"卢湾区打浦路269号2楼(近斜土路)"},{"poiid":"B2094757D76EA3FC439D","title":"顺丰面馆","lon":"121.47127","lat":"31.20287","category":"68","category_name":"快餐厅","address":"卢湾区南塘浜路126号(近打浦路)"},{"poiid":"B2094757D06EAAFC449A","title":"玲珑小镇","lon":"121.47061852","lat":"31.203782139","category":"91","category_name":"台湾菜","address":"卢湾区打浦路78号(近徐家汇路)"},{"poiid":"B2094757D06FA5F5449B","title":"中亨汇大酒店","lon":"121.46755","lat":"31.20075","category":"72","category_name":"广东菜","address":"卢湾区瑞金南路428号(近斜土路)"},{"poiid":"B2094654DB6BA4FC4899","title":"一哥肥牛火锅海鲜酒家(打浦路店)","lon":"121.4704","lat":"31.20316","category":"86","category_name":"火锅店","address":"上海卢湾区打浦路86号海丽花园(近斜土路)"},{"poiid":"B2094753D76FAAFA449C","title":"上海滩国泰旗舰店","lon":"121.466011","lat":"31.216125","category":"249","category_name":"购物服务","address":"淮海中路868号"},{"poiid":"B209475CD564A7F84292","title":"上海滩新天地店","lon":"121.47463","lat":"31.22164","category":"119","category_name":"商场","address":"\"太仓路181弄新天地北里15号\r\n\""},{"poiid":"B2094757D06FA7F84899","title":"卢湾高级中学","lon":"121.46922","lat":"31.2016","category":"55","category_name":"中学","address":"上海卢湾区斜土路885号(近瑞金南路)"},{"poiid":"B2094654DB6AA6F8439E","title":"上海华美达和平大酒店","lon":"121.47293","lat":"31.20216","category":"214","category_name":"四星级宾馆","address":"上海市黄浦区斜土路688号(近打浦路)"},{"poiid":"B2094757D06FA0FD4599","title":"玛格萝妮比萨屋(卢湾店)","lon":"121.47116","lat":"31.20111","category":"94","category_name":"西餐厅","address":"卢湾区打浦路200弄1号(近斜土路)"},{"poiid":"B2094757D069A7F84498","title":"铭圣养生素餐厅","lon":"121.47142","lat":"31.20176","category":"89","category_name":"中式素餐馆","address":"卢湾区斜土路768号(打浦路口)"},{"poiid":"B2094655D36CA5FD4098","title":"打浦路斜土路","lon":"121.47119","lat":"31.20111","category":"38","category_name":"公交车站","address":"打浦路"},{"poiid":"B2094757D168A1FB4099","title":"四号线鲁班路地铁站","lon":"121.469253338","lat":"31.1998083521","category":"36","category_name":"地铁站","address":"上海瞿溪路1110号"},{"poiid":"B2094751D568A5FA499A","title":"东方医院","lon":"121.471038","lat":"31.201765","category":"162","category_name":"医院","address":"浦东大道即墨路150号"},{"poiid":"B2094757D76BABF5439D","title":"大眼面馆 斜土路店","lon":"121.47062","lat":"31.20185","category":"68","category_name":"快餐厅","address":"卢湾区斜土路780号(近打浦路)"},{"poiid":"B2094757D069A7F84098","title":"玲瓏小鎮","lon":"121.47081936","lat":"31.20350292","category":"500","category_name":"未知分类","address":"上海打浦路78号"},{"poiid":"B2094757D068A5F84993","title":"翠蜓轩中国餐厅(打浦路店)","lon":"121.47046","lat":"31.20318","category":"76","category_name":"上海菜","address":"卢湾区打浦路88号海丽大厦2楼(斜土路口)"},{"poiid":"B2094654DA6EA3FA4693","title":"海丽大厦","lon":"121.47023","lat":"31.20312","category":"46","category_name":"楼宇","address":"宣武区南横街东口"},{"poiid":"B2094757D069AAFC4992","title":"佬湘楼","lon":"121.47239","lat":"31.20172","category":"77","category_name":"湖南菜","address":"卢湾区斜土路730号(打浦路口)"},{"poiid":"B2094757D06AA6F94192","title":"心琪粥店","lon":"121.47074271","lat":"31.20112913","category":"68","category_name":"快餐厅","address":"卢湾区斜土路782号(近打浦路)"},{"poiid":"B2094757D164A7FB4893","title":"丰收日宁波海鲜大酒店","lon":"121.470785738","lat":"31.2027947156","category":"75","category_name":"浙江菜","address":"上海市卢湾区肇嘉浜路"},{"poiid":"B2094757D66BA6F94793","title":"海派小菜","lon":"121.47098685578","lat":"31.201215719846","category":"76","category_name":"上海菜","address":"卢湾区打浦路216号(近徐家汇路)"},{"poiid":"B2094757D169A6FD4998","title":"五芳面馆","lon":"121.47124265","lat":"31.201167886","category":"68","category_name":"快餐厅","address":"卢湾区打浦路318号(近瞿溪路)"},{"poiid":"B2094757D06FA6FF4793","title":"红宝石(打浦路店)","lon":"121.4723","lat":"31.19916","category":"67","category_name":"甜品店","address":"卢湾区打浦路333号(近瞿溪路)"},{"poiid":"B2094654DA6EA3FD499D","title":"上海美粤华大酒店","lon":"121.47074","lat":"31.20169","category":"250","category_name":"公园户外","address":"斜土路780号经宇商务楼南楼3号门3层"},{"poiid":"B2094654DA6EA3FD4898","title":"上海卢湾牙防所","lon":"121.47074","lat":"31.2017","category":"162","category_name":"医院","address":"斜土路780号经宇商务楼北楼北2层"},{"poiid":"B2094757D06AA0F5499C","title":"瑞南新苑","lon":"121.46907456","lat":"31.200111521","category":"500","category_name":"未知分类","address":"上海市卢湾区瑞金南路185弄"},{"poiid":"B2094757D469A4FA4793","title":"豪大大台湾大鸡排 斜土路店","lon":"121.4751","lat":"31.20276","category":"68","category_name":"快餐厅","address":"卢湾区斜土路782号(近打浦路3月19号开业)"},{"poiid":"B2094757D56CABFA449B","title":"金盘子新朝菜","lon":"121.4712633","lat":"31.2020223","category":"87","category_name":"特色／地方风味餐厅","address":"上海卢湾区斜土路768号致远大厦2楼(近打浦路)  "},{"poiid":"B2094654DB65A1F94493","title":"打浦路210弄1-8号小区","lon":"121.47076","lat":"31.20109","category":"47","category_name":"住宅区","address":"打浦路210弄1-8号"},{"poiid":"B2094752DA69ABF9429F","title":"撤思叔叔烘培工房","lon":"121.469386","lat":"31.201141","category":"247","category_name":"餐饮美食","address":"上海市 上海打浦桥日月光B2"},{"poiid":"B2094757D069AAFC4598","title":"东泰花苑","lon":"121.47208","lat":"31.200804","category":"47","category_name":"住宅区","address":"上海市卢湾区打浦路299弄"},{"poiid":"B2094654DA6EA3F8489F","title":"郁金香花苑","lon":"121.46989","lat":"31.200642","category":"47","category_name":"住宅区","address":"郁金香花苑位于卢湾斜土路810号"},{"poiid":"B2094654DA6EA3FD479E","title":"飞纶商务中心","lon":"121.47048","lat":"31.20142","category":"46","category_name":"楼宇","address":"上海斜土路788号"},{"poiid":"B2094654DA6EA3FF4999","title":"扬子江家园","lon":"121.47077","lat":"31.200121","category":"47","category_name":"住宅区","address":"上海市卢湾区打浦路252号"},{"poiid":"B2094757D16FA6FA499F","title":"柏森养生馆","lon":"121.47137133","lat":"31.200446765","category":"148","category_name":"美容美发店","address":"上海打浦路299弄东泰花苑9号楼二楼"},{"poiid":"B2094654DA6EA3F8479E","title":"吉祥馄饨斜浦店","lon":"121.47079","lat":"31.20176","category":"68","category_name":"快餐厅","address":"卢湾区斜土路778号(近打浦路)"},{"poiid":"B2094655D26AA6FB4293","title":"重庆奔吃麻辣烫斜土路店","lon":"121.47142","lat":"31.20176","category":"68","category_name":"快餐厅","address":"卢湾区斜土路768-4号致远大厦1楼(打浦路口)"},{"poiid":"B2094655D264A7F4499D","title":"米兰护肤造型中心（打浦路店）","lon":"121.47021","lat":"31.20375","category":"148","category_name":"美容美发店","address":"上海卢湾区打浦路78号（近斜土路）"},{"poiid":"B2094757D468A6FF449F","title":"三国烤鱼","lon":"121.46854","lat":"31.20093","category":"71","category_name":"四川菜","address":"卢湾区打浦路318号(近瞿溪路)"},{"poiid":"B2094654DA6EA3FD4792","title":"经宇商务楼","lon":"121.47073","lat":"31.2017","category":"46","category_name":"楼宇","address":"斜土路780"},{"poiid":"B2094655D26CA4FA479A","title":"全家(上海市卢湾中学南)","lon":"121.46984","lat":"31.20146","category":"117","category_name":"便民商店/便利店","address":"斜土路798"},{"poiid":"B2094654DA6EA3F84693","title":"同兴半盆菜酒家","lon":"121.47145","lat":"31.19963","category":"76","category_name":"上海菜","address":"卢湾区打浦路316弄35号(近瞿溪路)"},{"poiid":"B2094654DA6EA3F84898","title":"永琪美容美发斜土店","lon":"121.46977","lat":"31.20144","category":"148","category_name":"美容美发店","address":"斜土路800"},{"poiid":"B2094757D068AAFF469D","title":"7-ELEVEN(致远大厦店)","lon":"121.471310239","lat":"31.2013822114","category":"117","category_name":"便民商店/便利店","address":"卢湾区斜土路768号(近致远大厦)"},{"poiid":"B2094654DA6EA3FF469D","title":"中国银行上海市打浦路支行","lon":"121.47129","lat":"31.2017","category":"150","category_name":"银行","address":"斜土路768-3"},{"poiid":"B2094654DA6EA3FD4799","title":"卢湾教育文体中心","lon":"121.46962","lat":"31.20208","category":"252","category_name":"楼宇机构","address":"斜土路855"},{"poiid":"B2094654DB65A1F9449C","title":"打浦路252弄2-44号小区","lon":"121.47099","lat":"31.20062","category":"47","category_name":"住宅区","address":"打浦路252弄2-44号"},{"poiid":"B2094757D069A4FF429A","title":"泰和足道(斜土路店)","lon":"121.46906","lat":"31.20089","category":"149","category_name":"洗浴推拿场所","address":"卢湾区斜土路828号(近瑞金南路)"},{"poiid":"B2094654DA6EA3FD479C","title":"上海市沪光进修学院","lon":"121.47048","lat":"31.20142","category":"53","category_name":"成人教育","address":"斜土路788号飞纶商务中心"},{"poiid":"B2094757D16EAAFB4999","title":"上岛咖啡(打浦路店)","lon":"121.47079433","lat":"31.201742193","category":"260","category_name":"其他","address":"卢湾区打浦路269号2楼(近斜土路)"},{"poiid":"B2094757D76EA3FC439D","title":"顺丰面馆","lon":"121.47127","lat":"31.20287","category":"68","category_name":"快餐厅","address":"卢湾区南塘浜路126号(近打浦路)"},{"poiid":"B2094757D06EAAFC449A","title":"玲珑小镇","lon":"121.47061852","lat":"31.203782139","category":"91","category_name":"台湾菜","address":"卢湾区打浦路78号(近徐家汇路)"},{"poiid":"B2094757D06FA5F5449B","title":"中亨汇大酒店","lon":"121.46755","lat":"31.20075","category":"72","category_name":"广东菜","address":"卢湾区瑞金南路428号(近斜土路)"},{"poiid":"B2094654DB6BA4FC4899","title":"一哥肥牛火锅海鲜酒家(打浦路店)","lon":"121.4704","lat":"31.20316","category":"86","category_name":"火锅店","address":"上海卢湾区打浦路86号海丽花园(近斜土路)"},{"poiid":"B2094753D76FAAFA449C","title":"上海滩国泰旗舰店","lon":"121.466011","lat":"31.216125","category":"249","category_name":"购物服务","address":"淮海中路868号"},{"poiid":"B209475CD564A7F84292","title":"上海滩新天地店","lon":"121.47463","lat":"31.22164","category":"119","category_name":"商场","address":"\"太仓路181弄新天地北里15号\r\n\""},{"poiid":"B2094757D06FA7F84899","title":"卢湾高级中学","lon":"121.46922","lat":"31.2016","category":"55","category_name":"中学","address":"上海卢湾区斜土路885号(近瑞金南路)"},{"poiid":"B2094654DB6AA6F8439E","title":"上海华美达和平大酒店","lon":"121.47293","lat":"31.20216","category":"214","category_name":"四星级宾馆","address":"上海市黄浦区斜土路688号(近打浦路)"},{"poiid":"B2094757D06FA0FD4599","title":"玛格萝妮比萨屋(卢湾店)","lon":"121.47116","lat":"31.20111","category":"94","category_name":"西餐厅","address":"卢湾区打浦路200弄1号(近斜土路)"},{"poiid":"B2094757D069A7F84498","title":"铭圣养生素餐厅","lon":"121.47142","lat":"31.20176","category":"89","category_name":"中式素餐馆","address":"卢湾区斜土路768号(打浦路口)"},{"poiid":"B2094655D36CA5FD4098","title":"打浦路斜土路","lon":"121.47119","lat":"31.20111","category":"38","category_name":"公交车站","address":"打浦路"},{"poiid":"B2094757D168A1FB4099","title":"四号线鲁班路地铁站","lon":"121.469253338","lat":"31.1998083521","category":"36","category_name":"地铁站","address":"上海瞿溪路1110号"},{"poiid":"B2094751D568A5FA499A","title":"东方医院","lon":"121.471038","lat":"31.201765","category":"162","category_name":"医院","address":"浦东大道即墨路150号"},{"poiid":"B2094757D76BABF5439D","title":"大眼面馆 斜土路店","lon":"121.47062","lat":"31.20185","category":"68","category_name":"快餐厅","address":"卢湾区斜土路780号(近打浦路)"},{"poiid":"B2094757D069A7F84098","title":"玲瓏小鎮","lon":"121.47081936","lat":"31.20350292","category":"500","category_name":"未知分类","address":"上海打浦路78号"},{"poiid":"B2094757D068A5F84993","title":"翠蜓轩中国餐厅(打浦路店)","lon":"121.47046","lat":"31.20318","category":"76","category_name":"上海菜","address":"卢湾区打浦路88号海丽大厦2楼(斜土路口)"},{"poiid":"B2094654DA6EA3FA4693","title":"海丽大厦","lon":"121.47023","lat":"31.20312","category":"46","category_name":"楼宇","address":"宣武区南横街东口"},{"poiid":"B2094757D069AAFC4992","title":"佬湘楼","lon":"121.47239","lat":"31.20172","category":"77","category_name":"湖南菜","address":"卢湾区斜土路730号(打浦路口)"},{"poiid":"B2094757D06AA6F94192","title":"心琪粥店","lon":"121.47074271","lat":"31.20112913","category":"68","category_name":"快餐厅","address":"卢湾区斜土路782号(近打浦路)"},{"poiid":"B2094757D164A7FB4893","title":"丰收日宁波海鲜大酒店","lon":"121.470785738","lat":"31.2027947156","category":"75","category_name":"浙江菜","address":"上海市卢湾区肇嘉浜路"},{"poiid":"B2094757D66BA6F94793","title":"海派小菜","lon":"121.47098685578","lat":"31.201215719846","category":"76","category_name":"上海菜","address":"卢湾区打浦路216号(近徐家汇路)"},{"poiid":"B2094757D169A6FD4998","title":"五芳面馆","lon":"121.47124265","lat":"31.201167886","category":"68","category_name":"快餐厅","address":"卢湾区打浦路318号(近瞿溪路)"},{"poiid":"B2094757D06FA6FF4793","title":"红宝石(打浦路店)","lon":"121.4723","lat":"31.19916","category":"67","category_name":"甜品店","address":"卢湾区打浦路333号(近瞿溪路)"},{"poiid":"B2094654DA6EA3FD499D","title":"上海美粤华大酒店","lon":"121.47074","lat":"31.20169","category":"250","category_name":"公园户外","address":"斜土路780号经宇商务楼南楼3号门3层"},{"poiid":"B2094654DA6EA3FD4898","title":"上海卢湾牙防所","lon":"121.47074","lat":"31.2017","category":"162","category_name":"医院","address":"斜土路780号经宇商务楼北楼北2层"},{"poiid":"B2094757D06AA0F5499C","title":"瑞南新苑","lon":"121.46907456","lat":"31.200111521","category":"500","category_name":"未知分类","address":"上海市卢湾区瑞金南路185弄"},{"poiid":"B2094757D469A4FA4793","title":"豪大大台湾大鸡排 斜土路店","lon":"121.4751","lat":"31.20276","category":"68","category_name":"快餐厅","address":"卢湾区斜土路782号(近打浦路3月19号开业)"},{"poiid":"B2094757D56CABFA449B","title":"金盘子新朝菜","lon":"121.4712633","lat":"31.2020223","category":"87","category_name":"特色／地方风味餐厅","address":"上海卢湾区斜土路768号致远大厦2楼(近打浦路)  "},{"poiid":"B2094654DB65A1F94493","title":"打浦路210弄1-8号小区","lon":"121.47076","lat":"31.20109","category":"47","category_name":"住宅区","address":"打浦路210弄1-8号"},{"poiid":"B2094752DA69ABF9429F","title":"撤思叔叔烘培工房","lon":"121.469386","lat":"31.201141","category":"247","category_name":"餐饮美食","address":"上海市 上海打浦桥日月光B2"},{"poiid":"B2094757D069AAFC4598","title":"东泰花苑","lon":"121.47208","lat":"31.200804","category":"47","category_name":"住宅区","address":"上海市卢湾区打浦路299弄"},{"poiid":"B2094654DA6EA3F8489F","title":"郁金香花苑","lon":"121.46989","lat":"31.200642","category":"47","category_name":"住宅区","address":"郁金香花苑位于卢湾斜土路810号"},{"poiid":"B2094654DA6EA3FD479E","title":"飞纶商务中心","lon":"121.47048","lat":"31.20142","category":"46","category_name":"楼宇","address":"上海斜土路788号"},{"poiid":"B2094654DA6EA3FF4999","title":"扬子江家园","lon":"121.47077","lat":"31.200121","category":"47","category_name":"住宅区","address":"上海市卢湾区打浦路252号"},{"poiid":"B2094757D16FA6FA499F","title":"柏森养生馆","lon":"121.47137133","lat":"31.200446765","category":"148","category_name":"美容美发店","address":"上海打浦路299弄东泰花苑9号楼二楼"},{"poiid":"B2094654DA6EA3F8479E","title":"吉祥馄饨斜浦店","lon":"121.47079","lat":"31.20176","category":"68","category_name":"快餐厅","address":"卢湾区斜土路778号(近打浦路)"},{"poiid":"B2094655D26AA6FB4293","title":"重庆奔吃麻辣烫斜土路店","lon":"121.47142","lat":"31.20176","category":"68","category_name":"快餐厅","address":"卢湾区斜土路768-4号致远大厦1楼(打浦路口)"},{"poiid":"B2094655D264A7F4499D","title":"米兰护肤造型中心（打浦路店）","lon":"121.47021","lat":"31.20375","category":"148","category_name":"美容美发店","address":"上海卢湾区打浦路78号（近斜土路）"},{"poiid":"B2094757D468A6FF449F","title":"三国烤鱼","lon":"121.46854","lat":"31.20093","category":"71","category_name":"四川菜","address":"卢湾区打浦路318号(近瞿溪路)"},{"poiid":"B2094654DA6EA3FD4792","title":"经宇商务楼","lon":"121.47073","lat":"31.2017","category":"46","category_name":"楼宇","address":"斜土路780"},{"poiid":"B2094655D26CA4FA479A","title":"全家(上海市卢湾中学南)","lon":"121.46984","lat":"31.20146","category":"117","category_name":"便民商店/便利店","address":"斜土路798"},{"poiid":"B2094654DA6EA3F84693","title":"同兴半盆菜酒家","lon":"121.47145","lat":"31.19963","category":"76","category_name":"上海菜","address":"卢湾区打浦路316弄35号(近瞿溪路)"},{"poiid":"B2094654DA6EA3F84898","title":"永琪美容美发斜土店","lon":"121.46977","lat":"31.20144","category":"148","category_name":"美容美发店","address":"斜土路800"},{"poiid":"B2094757D068AAFF469D","title":"7-ELEVEN(致远大厦店)","lon":"121.471310239","lat":"31.2013822114","category":"117","category_name":"便民商店/便利店","address":"卢湾区斜土路768号(近致远大厦)"},{"poiid":"B2094654DA6EA3FF469D","title":"中国银行上海市打浦路支行","lon":"121.47129","lat":"31.2017","category":"150","category_name":"银行","address":"斜土路768-3"},{"poiid":"B2094654DA6EA3FD4799","title":"卢湾教育文体中心","lon":"121.46962","lat":"31.20208","category":"252","category_name":"楼宇机构","address":"斜土路855"},{"poiid":"B2094654DB65A1F9449C","title":"打浦路252弄2-44号小区","lon":"121.47099","lat":"31.20062","category":"47","category_name":"住宅区","address":"打浦路252弄2-44号"},{"poiid":"B2094757D069A4FF429A","title":"泰和足道(斜土路店)","lon":"121.46906","lat":"31.20089","category":"149","category_name":"洗浴推拿场所","address":"卢湾区斜土路828号(近瑞金南路)"},{"poiid":"B2094654DA6EA3FD479C","title":"上海市沪光进修学院","lon":"121.47048","lat":"31.20142","category":"53","category_name":"成人教育","address":"斜土路788号飞纶商务中心"},{"poiid":"B2094757D16EAAFB4999","title":"上岛咖啡(打浦路店)","lon":"121.47079433","lat":"31.201742193","category":"260","category_name":"其他","address":"卢湾区打浦路269号2楼(近斜土路)"},{"poiid":"B2094757D76EA3FC439D","title":"顺丰面馆","lon":"121.47127","lat":"31.20287","category":"68","category_name":"快餐厅","address":"卢湾区南塘浜路126号(近打浦路)"}]