[{"poiid":"B2094757D069ABF9499D","title":"小肥羊(陆家浜店)","lon":"121.48257546","lat":"31.211537301","category":"86","category_name":"火锅店","address":"黄浦区陆家浜路1390号(近制造局路)"},{"poiid":"B2094757D06AA4FD439B","title":"COSTA COFFEE(徐家汇路店)","lon":"121.477546","lat":"31.209448","category":"65","category_name":"咖啡厅","address":"卢湾区徐家汇路203号(近马当路地铁3号出口)"},{"poiid":"B2094757D164A4FD439B","title":"田字坊＇太","lon":"121.48034273","lat":"31.208230831","category":"500","category_name":"未知分类","address":"上海市卢湾区马当路"},{"poiid":"B2094753D76FAAFA449C","title":"上海滩国泰旗舰店","lon":"121.466011","lat":"31.216125","category":"249","category_name":"购物服务","address":"淮海中路868号"},{"poiid":"B209475CD564A7F84292","title":"上海滩新天地店","lon":"121.47463","lat":"31.22164","category":"119","category_name":"商场","address":"\"太仓路181弄新天地北里15号\r\n\""},{"poiid":"B2094654DB6BABF8489A","title":"黄家传菜","lon":"121.4826","lat":"31.20941","category":"76","category_name":"上海菜","address":"卢湾区制造局路130号仰光大酒店内(丽园路口)"},{"poiid":"B2094757DB6AA3FE499F","title":"台北纯k party 日月光店","lon":"121.4770580388095","lat":"31.20919920601938","category":"248","category_name":"生活娱乐","address":"打浦桥"},{"poiid":"B2094757D16CABFB409C","title":"红房子医院","lon":"121.482140338","lat":"31.2112135949","category":"162","category_name":"医院","address":"上海大林路358号"},{"poiid":"B2094757D16EA1FE4698","title":"马当路","lon":"121.47786373","lat":"31.209810865","category":"500","category_name":"未知分类","address":"上海市卢湾区"},{"poiid":"B2094654DA6EAAF54793","title":"上海社会科学院研究生部","lon":"121.47963","lat":"31.21081","category":"52","category_name":"高等院校","address":"顺昌路622"},{"poiid":"B2094654DA6DA5FC459A","title":"宝鼎大厦","lon":"121.477","lat":"31.212","category":"46","category_name":"楼宇","address":"闸北区共和新路3703,3737号"},{"poiid":"B2094757D068A1FD409A","title":"盛兴点心店","lon":"121.479443054","lat":"31.212018793","category":"87","category_name":"特色／地方风味餐厅","address":"卢湾区顺昌路528号(近永年路)"},{"poiid":"B2094655D26EA5F4429B","title":"夜上海(新天地店)","lon":"121.47749","lat":"31.21282","category":"248","category_name":"生活娱乐","address":"卢湾区黄陂南路338号"},{"poiid":"B2094654DA6EA3FE4099","title":"致远大厦","lon":"121.478","lat":"31.2078","category":"46","category_name":"楼宇","address":"上海斜土路768号"},{"poiid":"B2094757D069A7FC409A","title":"一品居热气羊肉馆(顺昌店)","lon":"121.47938","lat":"31.21213","category":"86","category_name":"火锅店","address":"卢湾区顺昌路512号(近永年路)"},{"poiid":"B2094655D26FA3FF4399","title":"莫泰168连锁旅店(徐家汇路店)","lon":"121.48146","lat":"31.21081","category":"216","category_name":"经济型连锁酒店","address":"上海市黄浦区徐家汇路3-7号（近制造局路）"},{"poiid":"B2094757D06AA6FE479B","title":"黄陂南路徐家汇路","lon":"121.47800445","lat":"31.210878372","category":"500","category_name":"未知分类","address":"上海黄陂南路徐家汇路"},{"poiid":"B2094654DA68A7FA489B","title":"永业公寓","lon":"121.47814","lat":"31.208323","category":"47","category_name":"住宅区","address":"卢湾区徐家汇路135号"},{"poiid":"B2094757D66DA2F94899","title":"交大医学院","lon":"121.480342618","lat":"31.2082307214","category":"253","category_name":"校园生活","address":"上海重庆南路227号"},{"poiid":"B2094757D16AA4FD489E","title":"上海社科院","lon":"121.479635","lat":"31.210817","category":"500","category_name":"未知分类","address":"卢湾区顺昌路622号"},{"poiid":"B2094757D165A5F94192","title":"瑞金医院口腔科","lon":"121.47926573","lat":"31.209942867","category":"162","category_name":"医院","address":"上海市建国东路"},{"poiid":"B2094757D16DA1FB469C","title":"顺昌路永年路","lon":"121.479267338","lat":"31.2105510808","category":"500","category_name":"未知分类","address":"上海顺昌路永年路"},{"poiid":"B2094757D064A6F9489F","title":"卢浦大桥(徐家汇路口)","lon":"121.480679","lat":"31.210989","category":"500","category_name":"未知分类","address":"上海徐家汇路重庆南路"},{"poiid":"B2094655D36DA0FF419D","title":"徐家汇路黄陂南路","lon":"121.47971","lat":"31.21013","category":"38","category_name":"公交车站","address":""},{"poiid":"B2094654DB69A5F4409A","title":"重庆鸡公煲 顺昌路店","lon":"121.479501054","lat":"31.212284793","category":"71","category_name":"四川菜","address":"卢湾区顺昌路530号(近永年路)"},{"poiid":"B2094654DA6EAAF5489B","title":"华联超市No.1025","lon":"121.47965","lat":"31.21051","category":"118","category_name":"超级市场","address":"徐家汇路126"},{"poiid":"B2094757D068ABFB419A","title":"泰煌鸡 黄陂南路店","lon":"121.477455054","lat":"31.213034793","category":"72","category_name":"广东菜","address":"卢湾区黄陂南路807号(近永年路)"},{"poiid":"B2094750DB68AAF44492","title":"思南公馆慧公馆","lon":"121.479362","lat":"31.210035","category":"247","category_name":"餐饮美食","address":null},{"poiid":"B2094757D56EA2FE429A","title":"健康煮时尚迷你锅","lon":"121.479714","lat":"31.210135","category":"86","category_name":"火锅店","address":"上海日月光中心B2"},{"poiid":"B2094655D36CA1FF4198","title":"顺昌路徐家汇路","lon":"121.47971","lat":"31.21123","category":"38","category_name":"公交车站","address":""},{"poiid":"B2094654DA6EA7FB439D","title":"上海市李惠利中学","lon":"121.48121","lat":"31.21181","category":"55","category_name":"中学","address":"卢湾区肇周路420号(陆家浜路徐家汇路)"},{"poiid":"B2094654DB6BA4FF489D","title":"上海市基督教惠中堂(肇周路)","lon":"121.48094","lat":"31.21129","category":"245","category_name":"教堂","address":"卢湾区徐家汇路40-2号(肇周路口)"},{"poiid":"B2094655D265A7FF4499","title":"梦奇屋","lon":"121.47967","lat":"31.21183","category":"68","category_name":"快餐厅","address":"卢湾区顺昌路563号(近徐家汇路)"},{"poiid":"B2094757D66CA4FE439A","title":"避风堂","lon":"121.480282738","lat":"31.2082988329","category":"500","category_name":"未知分类","address":"上海市卢湾区"},{"poiid":"B2094757D464ABF54098","title":"巴弟鸡排 顺昌路店","lon":"121.479773054","lat":"31.211614793","category":"68","category_name":"快餐厅","address":"卢湾区顺昌路563号(近徐家汇路)"},{"poiid":"B2094655D36DA7F94599","title":"重庆南路","lon":"121.48058","lat":"31.21079","category":"38","category_name":"公交车站","address":""},{"poiid":"B2094753D36CA2FE4298","title":"香港龙凤楼","lon":"121.478298","lat":"31.208093","category":"71","category_name":"四川菜","address":"蒙自东路75号"},{"poiid":"B2094654DB69A5F9489A","title":"真锅咖啡(局门店)","lon":"121.47973","lat":"31.20984","category":"65","category_name":"咖啡厅","address":"卢湾区徐家汇路105号"},{"poiid":"B2094753D56EA7FF429C","title":"日月光广场","lon":"121.480453","lat":"31.207979","category":"500","category_name":"未知分类","address":"上海市 徐家汇路"},{"poiid":"B2094757D065A4F4499D","title":"局门路徐家汇路口","lon":"121.480478","lat":"31.209931","category":"500","category_name":"未知分类","address":"上海局门路徐家汇路口"},{"poiid":"B2094757D06AA2F84493","title":"上海市社会创新孵化园","lon":"121.48119151","lat":"31.207874929","category":"46","category_name":"楼宇","address":"上海丽园路501号"},{"poiid":"B2094654DA68A0F4489B","title":"文峰美发美容徐家汇路店","lon":"121.47956","lat":"31.20979","category":"148","category_name":"美容美发店","address":"徐家汇路115"},{"poiid":"B2094654DB6BA4FF489C","title":"杰杰宠物","lon":"121.48011","lat":"31.21095","category":"129","category_name":"宠物用品店","address":"卢湾区徐家汇路90号(近顺昌路)"},{"poiid":"B2094752D66FAAFC4993","title":"必胜客","lon":"121.479057","lat":"31.211943","category":"500","category_name":"未知分类","address":"徐家汇路618号日月光中心广场B2楼(近瑞金二路)"},{"poiid":"B2094655D36DA0FF4193","title":"徐家汇路重庆南路","lon":"121.48067","lat":"31.21098","category":"38","category_name":"公交车站","address":""},{"poiid":"B2094654DB6BA4FF4898","title":"老北京涮锅(顺昌路)","lon":"121.47952","lat":"31.2125","category":"86","category_name":"火锅店","address":"卢湾区顺昌路531号(近永年路)"},{"poiid":"B2094750DB69A7FE419D","title":"9号线_马当路","lon":"121.478485","lat":"31.211101","category":"500","category_name":"未知分类","address":null},{"poiid":"B2094757D069A1F8479C","title":"斜桥游泳馆","lon":"121.48246373","lat":"31.211333897","category":"220","category_name":"运动场所","address":"黄浦区大吉路218号(近西藏南路)"},{"poiid":"B2094757D06BA4FD489D","title":"肇周路冷馄饨","lon":"121.479276738","lat":"31.2099688684","category":"500","category_name":"未知分类","address":"上海肇周路213号"},{"poiid":"B2094757D46AA1FD489E","title":"咖世家咖啡 蒙自路店 COSTA COFFEE","lon":"121.476903","lat":"31.209101","category":"67","category_name":"甜品店","address":"卢湾区蒙自路(近徐家汇路)"},{"poiid":"B2094757D069ABF9499D","title":"小肥羊(陆家浜店)","lon":"121.48257546","lat":"31.211537301","category":"86","category_name":"火锅店","address":"黄浦区陆家浜路1390号(近制造局路)"},{"poiid":"B2094757D06AA4FD439B","title":"COSTA COFFEE(徐家汇路店)","lon":"121.477546","lat":"31.209448","category":"65","category_name":"咖啡厅","address":"卢湾区徐家汇路203号(近马当路地铁3号出口)"},{"poiid":"B2094757D164A4FD439B","title":"田字坊＇太","lon":"121.48034273","lat":"31.208230831","category":"500","category_name":"未知分类","address":"上海市卢湾区马当路"},{"poiid":"B2094753D76FAAFA449C","title":"上海滩国泰旗舰店","lon":"121.466011","lat":"31.216125","category":"249","category_name":"购物服务","address":"淮海中路868号"},{"poiid":"B209475CD564A7F84292","title":"上海滩新天地店","lon":"121.47463","lat":"31.22164","category":"119","category_name":"商场","address":"\"太仓路181弄新天地北里15号\r\n\""},{"poiid":"B2094654DB6BABF8489A","title":"黄家传菜","lon":"121.4826","lat":"31.20941","category":"76","category_name":"上海菜","address":"卢湾区制造局路130号仰光大酒店内(丽园路口)"},{"poiid":"B2094757DB6AA3FE499F","title":"台北纯k party 日月光店","lon":"121.4770580388095","lat":"31.20919920601938","category":"248","category_name":"生活娱乐","address":"打浦桥"},{"poiid":"B2094757D16CABFB409C","title":"红房子医院","lon":"121.482140338","lat":"31.2112135949","category":"162","category_name":"医院","address":"上海大林路358号"},{"poiid":"B2094757D16EA1FE4698","title":"马当路","lon":"121.47786373","lat":"31.209810865","category":"500","category_name":"未知分类","address":"上海市卢湾区"},{"poiid":"B2094654DA6EAAF54793","title":"上海社会科学院研究生部","lon":"121.47963","lat":"31.21081","category":"52","category_name":"高等院校","address":"顺昌路622"},{"poiid":"B2094654DA6DA5FC459A","title":"宝鼎大厦","lon":"121.477","lat":"31.212","category":"46","category_name":"楼宇","address":"闸北区共和新路3703,3737号"},{"poiid":"B2094757D068A1FD409A","title":"盛兴点心店","lon":"121.479443054","lat":"31.212018793","category":"87","category_name":"特色／地方风味餐厅","address":"卢湾区顺昌路528号(近永年路)"},{"poiid":"B2094655D26EA5F4429B","title":"夜上海(新天地店)","lon":"121.47749","lat":"31.21282","category":"248","category_name":"生活娱乐","address":"卢湾区黄陂南路338号"},{"poiid":"B2094654DA6EA3FE4099","title":"致远大厦","lon":"121.478","lat":"31.2078","category":"46","category_name":"楼宇","address":"上海斜土路768号"},{"poiid":"B2094757D069A7FC409A","title":"一品居热气羊肉馆(顺昌店)","lon":"121.47938","lat":"31.21213","category":"86","category_name":"火锅店","address":"卢湾区顺昌路512号(近永年路)"},{"poiid":"B2094655D26FA3FF4399","title":"莫泰168连锁旅店(徐家汇路店)","lon":"121.48146","lat":"31.21081","category":"216","category_name":"经济型连锁酒店","address":"上海市黄浦区徐家汇路3-7号（近制造局路）"},{"poiid":"B2094757D06AA6FE479B","title":"黄陂南路徐家汇路","lon":"121.47800445","lat":"31.210878372","category":"500","category_name":"未知分类","address":"上海黄陂南路徐家汇路"},{"poiid":"B2094654DA68A7FA489B","title":"永业公寓","lon":"121.47814","lat":"31.208323","category":"47","category_name":"住宅区","address":"卢湾区徐家汇路135号"},{"poiid":"B2094757D66DA2F94899","title":"交大医学院","lon":"121.480342618","lat":"31.2082307214","category":"253","category_name":"校园生活","address":"上海重庆南路227号"},{"poiid":"B2094757D16AA4FD489E","title":"上海社科院","lon":"121.479635","lat":"31.210817","category":"500","category_name":"未知分类","address":"卢湾区顺昌路622号"},{"poiid":"B2094757D165A5F94192","title":"瑞金医院口腔科","lon":"121.47926573","lat":"31.209942867","category":"162","category_name":"医院","address":"上海市建国东路"},{"poiid":"B2094757D16DA1FB469C","title":"顺昌路永年路","lon":"121.479267338","lat":"31.2105510808","category":"500","category_name":"未知分类","address":"上海顺昌路永年路"},{"poiid":"B2094757D064A6F9489F","title":"卢浦大桥(徐家汇路口)","lon":"121.480679","lat":"31.210989","category":"500","category_name":"未知分类","address":"上海徐家汇路重庆南路"},{"poiid":"B2094655D36DA0FF419D","title":"徐家汇路黄陂南路","lon":"121.47971","lat":"31.21013","category":"38","category_name":"公交车站","address":""},{"poiid":"B2094654DB69A5F4409A","title":"重庆鸡公煲 顺昌路店","lon":"121.479501054","lat":"31.212284793","category":"71","category_name":"四川菜","address":"卢湾区顺昌路530号(近永年路)"},{"poiid":"B2094654DA6EAAF5489B","title":"华联超市No.1025","lon":"121.47965","lat":"31.21051","category":"118","category_name":"超级市场","address":"徐家汇路126"},{"poiid":"B2094757D068ABFB419A","title":"泰煌鸡 黄陂南路店","lon":"121.477455054","lat":"31.213034793","category":"72","category_name":"广东菜","address":"卢湾区黄陂南路807号(近永年路)"},{"poiid":"B2094750DB68AAF44492","title":"思南公馆慧公馆","lon":"121.479362","lat":"31.210035","category":"247","category_name":"餐饮美食","address":null},{"poiid":"B2094757D56EA2FE429A","title":"健康煮时尚迷你锅","lon":"121.479714","lat":"31.210135","category":"86","category_name":"火锅店","address":"上海日月光中心B2"},{"poiid":"B2094655D36CA1FF4198","title":"顺昌路徐家汇路","lon":"121.47971","lat":"31.21123","category":"38","category_name":"公交车站","address":""},{"poiid":"B2094654DA6EA7FB439D","title":"上海市李惠利中学","lon":"121.48121","lat":"31.21181","category":"55","category_name":"中学","address":"卢湾区肇周路420号(陆家浜路徐家汇路)"},{"poiid":"B2094654DB6BA4FF489D","title":"上海市基督教惠中堂(肇周路)","lon":"121.48094","lat":"31.21129","category":"245","category_name":"教堂","address":"卢湾区徐家汇路40-2号(肇周路口)"},{"poiid":"B2094655D265A7FF4499","title":"梦奇屋","lon":"121.47967","lat":"31.21183","category":"68","category_name":"快餐厅","address":"卢湾区顺昌路563号(近徐家汇路)"},{"poiid":"B2094757D66CA4FE439A","title":"避风堂","lon":"121.480282738","lat":"31.2082988329","category":"500","category_name":"未知分类","address":"上海市卢湾区"},{"poiid":"B2094757D464ABF54098","title":"巴弟鸡排 顺昌路店","lon":"121.479773054","lat":"31.211614793","category":"68","category_name":"快餐厅","address":"卢湾区顺昌路563号(近徐家汇路)"},{"poiid":"B2094655D36DA7F94599","title":"重庆南路","lon":"121.48058","lat":"31.21079","category":"38","category_name":"公交车站","address":""},{"poiid":"B2094753D36CA2FE4298","title":"香港龙凤楼","lon":"121.478298","lat":"31.208093","category":"71","category_name":"四川菜","address":"蒙自东路75号"},{"poiid":"B2094654DB69A5F9489A","title":"真锅咖啡(局门店)","lon":"121.47973","lat":"31.20984","category":"65","category_name":"咖啡厅","address":"卢湾区徐家汇路105号"},{"poiid":"B2094753D56EA7FF429C","title":"日月光广场","lon":"121.480453","lat":"31.207979","category":"500","category_name":"未知分类","address":"上海市 徐家汇路"},{"poiid":"B2094757D065A4F4499D","title":"局门路徐家汇路口","lon":"121.480478","lat":"31.209931","category":"500","category_name":"未知分类","address":"上海局门路徐家汇路口"},{"poiid":"B2094757D06AA2F84493","title":"上海市社会创新孵化园","lon":"121.48119151","lat":"31.207874929","category":"46","category_name":"楼宇","address":"上海丽园路501号"},{"poiid":"B2094654DA68A0F4489B","title":"文峰美发美容徐家汇路店","lon":"121.47956","lat":"31.20979","category":"148","category_name":"美容美发店","address":"徐家汇路115"},{"poiid":"B2094654DB6BA4FF489C","title":"杰杰宠物","lon":"121.48011","lat":"31.21095","category":"129","category_name":"宠物用品店","address":"卢湾区徐家汇路90号(近顺昌路)"},{"poiid":"B2094752D66FAAFC4993","title":"必胜客","lon":"121.479057","lat":"31.211943","category":"500","category_name":"未知分类","address":"徐家汇路618号日月光中心广场B2楼(近瑞金二路)"},{"poiid":"B2094655D36DA0FF4193","title":"徐家汇路重庆南路","lon":"121.48067","lat":"31.21098","category":"38","category_name":"公交车站","address":""},{"poiid":"B2094654DB6BA4FF4898","title":"老北京涮锅(顺昌路)","lon":"121.47952","lat":"31.2125","category":"86","category_name":"火锅店","address":"卢湾区顺昌路531号(近永年路)"},{"poiid":"B2094750DB69A7FE419D","title":"9号线_马当路","lon":"121.478485","lat":"31.211101","category":"500","category_name":"未知分类","address":null},{"poiid":"B2094757D069A1F8479C","title":"斜桥游泳馆","lon":"121.48246373","lat":"31.211333897","category":"220","category_name":"运动场所","address":"黄浦区大吉路218号(近西藏南路)"},{"poiid":"B2094757D06BA4FD489D","title":"肇周路冷馄饨","lon":"121.479276738","lat":"31.2099688684","category":"500","category_name":"未知分类","address":"上海肇周路213号"},{"poiid":"B2094757D46AA1FD489E","title":"咖世家咖啡 蒙自路店 COSTA COFFEE","lon":"121.476903","lat":"31.209101","category":"67","category_name":"甜品店","address":"卢湾区蒙自路(近徐家汇路)"},{"poiid":"B2094757D069ABF9499D","title":"小肥羊(陆家浜店)","lon":"121.48257546","lat":"31.211537301","category":"86","category_name":"火锅店","address":"黄浦区陆家浜路1390号(近制造局路)"},{"poiid":"B2094757D06AA4FD439B","title":"COSTA COFFEE(徐家汇路店)","lon":"121.477546","lat":"31.209448","category":"65","category_name":"咖啡厅","address":"卢湾区徐家汇路203号(近马当路地铁3号出口)"},{"poiid":"B2094757D164A4FD439B","title":"田字坊＇太","lon":"121.48034273","lat":"31.208230831","category":"500","category_name":"未知分类","address":"上海市卢湾区马当路"},{"poiid":"B2094753D76FAAFA449C","title":"上海滩国泰旗舰店","lon":"121.466011","lat":"31.216125","category":"249","category_name":"购物服务","address":"淮海中路868号"},{"poiid":"B209475CD564A7F84292","title":"上海滩新天地店","lon":"121.47463","lat":"31.22164","category":"119","category_name":"商场","address":"\"太仓路181弄新天地北里15号\r\n\""},{"poiid":"B2094654DB6BABF8489A","title":"黄家传菜","lon":"121.4826","lat":"31.20941","category":"76","category_name":"上海菜","address":"卢湾区制造局路130号仰光大酒店内(丽园路口)"},{"poiid":"B2094757DB6AA3FE499F","title":"台北纯k party 日月光店","lon":"121.4770580388095","lat":"31.20919920601938","category":"248","category_name":"生活娱乐","address":"打浦桥"},{"poiid":"B2094757D16CABFB409C","title":"红房子医院","lon":"121.482140338","lat":"31.2112135949","category":"162","category_name":"医院","address":"上海大林路358号"},{"poiid":"B2094757D16EA1FE4698","title":"马当路","lon":"121.47786373","lat":"31.209810865","category":"500","category_name":"未知分类","address":"上海市卢湾区"},{"poiid":"B2094654DA6EAAF54793","title":"上海社会科学院研究生部","lon":"121.47963","lat":"31.21081","category":"52","category_name":"高等院校","address":"顺昌路622"},{"poiid":"B2094654DA6DA5FC459A","title":"宝鼎大厦","lon":"121.477","lat":"31.212","category":"46","category_name":"楼宇","address":"闸北区共和新路3703,3737号"},{"poiid":"B2094757D068A1FD409A","title":"盛兴点心店","lon":"121.479443054","lat":"31.212018793","category":"87","category_name":"特色／地方风味餐厅","address":"卢湾区顺昌路528号(近永年路)"},{"poiid":"B2094655D26EA5F4429B","title":"夜上海(新天地店)","lon":"121.47749","lat":"31.21282","category":"248","category_name":"生活娱乐","address":"卢湾区黄陂南路338号"},{"poiid":"B2094654DA6EA3FE4099","title":"致远大厦","lon":"121.478","lat":"31.2078","category":"46","category_name":"楼宇","address":"上海斜土路768号"},{"poiid":"B2094757D069A7FC409A","title":"一品居热气羊肉馆(顺昌店)","lon":"121.47938","lat":"31.21213","category":"86","category_name":"火锅店","address":"卢湾区顺昌路512号(近永年路)"},{"poiid":"B2094655D26FA3FF4399","title":"莫泰168连锁旅店(徐家汇路店)","lon":"121.48146","lat":"31.21081","category":"216","category_name":"经济型连锁酒店","address":"上海市黄浦区徐家汇路3-7号（近制造局路）"},{"poiid":"B2094757D06AA6FE479B","title":"黄陂南路徐家汇路","lon":"121.47800445","lat":"31.210878372","category":"500","category_name":"未知分类","address":"上海黄陂南路徐家汇路"},{"poiid":"B2094654DA68A7FA489B","title":"永业公寓","lon":"121.47814","lat":"31.208323","category":"47","category_name":"住宅区","address":"卢湾区徐家汇路135号"},{"poiid":"B2094757D66DA2F94899","title":"交大医学院","lon":"121.480342618","lat":"31.2082307214","category":"253","category_name":"校园生活","address":"上海重庆南路227号"},{"poiid":"B2094757D16AA4FD489E","title":"上海社科院","lon":"121.479635","lat":"31.210817","category":"500","category_name":"未知分类","address":"卢湾区顺昌路622号"},{"poiid":"B2094757D165A5F94192","title":"瑞金医院口腔科","lon":"121.47926573","lat":"31.209942867","category":"162","category_name":"医院","address":"上海市建国东路"},{"poiid":"B2094757D16DA1FB469C","title":"顺昌路永年路","lon":"121.479267338","lat":"31.2105510808","category":"500","category_name":"未知分类","address":"上海顺昌路永年路"},{"poiid":"B2094757D064A6F9489F","title":"卢浦大桥(徐家汇路口)","lon":"121.480679","lat":"31.210989","category":"500","category_name":"未知分类","address":"上海徐家汇路重庆南路"},{"poiid":"B2094655D36DA0FF419D","title":"徐家汇路黄陂南路","lon":"121.47971","lat":"31.21013","category":"38","category_name":"公交车站","address":""},{"poiid":"B2094654DB69A5F4409A","title":"重庆鸡公煲 顺昌路店","lon":"121.479501054","lat":"31.212284793","category":"71","category_name":"四川菜","address":"卢湾区顺昌路530号(近永年路)"},{"poiid":"B2094654DA6EAAF5489B","title":"华联超市No.1025","lon":"121.47965","lat":"31.21051","category":"118","category_name":"超级市场","address":"徐家汇路126"},{"poiid":"B2094757D068ABFB419A","title":"泰煌鸡 黄陂南路店","lon":"121.477455054","lat":"31.213034793","category":"72","category_name":"广东菜","address":"卢湾区黄陂南路807号(近永年路)"},{"poiid":"B2094750DB68AAF44492","title":"思南公馆慧公馆","lon":"121.479362","lat":"31.210035","category":"247","category_name":"餐饮美食","address":null},{"poiid":"B2094757D56EA2FE429A","title":"健康煮时尚迷你锅","lon":"121.479714","lat":"31.210135","category":"86","category_name":"火锅店","address":"上海日月光中心B2"},{"poiid":"B2094655D36CA1FF4198","title":"顺昌路徐家汇路","lon":"121.47971","lat":"31.21123","category":"38","category_name":"公交车站","address":""},{"poiid":"B2094654DA6EA7FB439D","title":"上海市李惠利中学","lon":"121.48121","lat":"31.21181","category":"55","category_name":"中学","address":"卢湾区肇周路420号(陆家浜路徐家汇路)"},{"poiid":"B2094654DB6BA4FF489D","title":"上海市基督教惠中堂(肇周路)","lon":"121.48094","lat":"31.21129","category":"245","category_name":"教堂","address":"卢湾区徐家汇路40-2号(肇周路口)"},{"poiid":"B2094655D265A7FF4499","title":"梦奇屋","lon":"121.47967","lat":"31.21183","category":"68","category_name":"快餐厅","address":"卢湾区顺昌路563号(近徐家汇路)"},{"poiid":"B2094757D66CA4FE439A","title":"避风堂","lon":"121.480282738","lat":"31.2082988329","category":"500","category_name":"未知分类","address":"上海市卢湾区"},{"poiid":"B2094757D464ABF54098","title":"巴弟鸡排 顺昌路店","lon":"121.479773054","lat":"31.211614793","category":"68","category_name":"快餐厅","address":"卢湾区顺昌路563号(近徐家汇路)"},{"poiid":"B2094655D36DA7F94599","title":"重庆南路","lon":"121.48058","lat":"31.21079","category":"38","category_name":"公交车站","address":""},{"poiid":"B2094753D36CA2FE4298","title":"香港龙凤楼","lon":"121.478298","lat":"31.208093","category":"71","category_name":"四川菜","address":"蒙自东路75号"},{"poiid":"B2094654DB69A5F9489A","title":"真锅咖啡(局门店)","lon":"121.47973","lat":"31.20984","category":"65","category_name":"咖啡厅","address":"卢湾区徐家汇路105号"},{"poiid":"B2094753D56EA7FF429C","title":"日月光广场","lon":"121.480453","lat":"31.207979","category":"500","category_name":"未知分类","address":"上海市 徐家汇路"},{"poiid":"B2094757D065A4F4499D","title":"局门路徐家汇路口","lon":"121.480478","lat":"31.209931","category":"500","category_name":"未知分类","address":"上海局门路徐家汇路口"},{"poiid":"B2094757D06AA2F84493","title":"上海市社会创新孵化园","lon":"121.48119151","lat":"31.207874929","category":"46","category_name":"楼宇","address":"上海丽园路501号"},{"poiid":"B2094654DA68A0F4489B","title":"文峰美发美容徐家汇路店","lon":"121.47956","lat":"31.20979","category":"148","category_name":"美容美发店","address":"徐家汇路115"},{"poiid":"B2094654DB6BA4FF489C","title":"杰杰宠物","lon":"121.48011","lat":"31.21095","category":"129","category_name":"宠物用品店","address":"卢湾区徐家汇路90号(近顺昌路)"},{"poiid":"B2094752D66FAAFC4993","title":"必胜客","lon":"121.479057","lat":"31.211943","category":"500","category_name":"未知分类","address":"徐家汇路618号日月光中心广场B2楼(近瑞金二路)"},{"poiid":"B2094655D36DA0FF4193","title":"徐家汇路重庆南路","lon":"121.48067","lat":"31.21098","category":"38","category_name":"公交车站","address":""},{"poiid":"B2094654DB6BA4FF4898","title":"老北京涮锅(顺昌路)","lon":"121.47952","lat":"31.2125","category":"86","category_name":"火锅店","address":"卢湾区顺昌路531号(近永年路)"},{"poiid":"B2094750DB69A7FE419D","title":"9号线_马当路","lon":"121.478485","lat":"31.211101","category":"500","category_name":"未知分类","address":null},{"poiid":"B2094757D069A1F8479C","title":"斜桥游泳馆","lon":"121.48246373","lat":"31.211333897","category":"220","category_name":"运动场所","address":"黄浦区大吉路218号(近西藏南路)"},{"poiid":"B2094757D06BA4FD489D","title":"肇周路冷馄饨","lon":"121.479276738","lat":"31.2099688684","category":"500","category_name":"未知分类","address":"上海肇周路213号"},{"poiid":"B2094757D46AA1FD489E","title":"咖世家咖啡 蒙自路店 COSTA COFFEE","lon":"121.476903","lat":"31.209101","category":"67","category_name":"甜品店","address":"卢湾区蒙自路(近徐家汇路)"},{"poiid":"B2094757D069ABF9499D","title":"小肥羊(陆家浜店)","lon":"121.48257546","lat":"31.211537301","category":"86","category_name":"火锅店","address":"黄浦区陆家浜路1390号(近制造局路)"},{"poiid":"B2094757D06AA4FD439B","title":"COSTA COFFEE(徐家汇路店)","lon":"121.477546","lat":"31.209448","category":"65","category_name":"咖啡厅","address":"卢湾区徐家汇路203号(近马当路地铁3号出口)"},{"poiid":"B2094757D164A4FD439B","title":"田字坊＇太","lon":"121.48034273","lat":"31.208230831","category":"500","category_name":"未知分类","address":"上海市卢湾区马当路"},{"poiid":"B2094753D76FAAFA449C","title":"上海滩国泰旗舰店","lon":"121.466011","lat":"31.216125","category":"249","category_name":"购物服务","address":"淮海中路868号"},{"poiid":"B209475CD564A7F84292","title":"上海滩新天地店","lon":"121.47463","lat":"31.22164","category":"119","category_name":"商场","address":"\"太仓路181弄新天地北里15号\r\n\""},{"poiid":"B2094654DB6BABF8489A","title":"黄家传菜","lon":"121.4826","lat":"31.20941","category":"76","category_name":"上海菜","address":"卢湾区制造局路130号仰光大酒店内(丽园路口)"},{"poiid":"B2094757DB6AA3FE499F","title":"台北纯k party 日月光店","lon":"121.4770580388095","lat":"31.20919920601938","category":"248","category_name":"生活娱乐","address":"打浦桥"},{"poiid":"B2094757D16CABFB409C","title":"红房子医院","lon":"121.482140338","lat":"31.2112135949","category":"162","category_name":"医院","address":"上海大林路358号"},{"poiid":"B2094757D16EA1FE4698","title":"马当路","lon":"121.47786373","lat":"31.209810865","category":"500","category_name":"未知分类","address":"上海市卢湾区"},{"poiid":"B2094654DA6EAAF54793","title":"上海社会科学院研究生部","lon":"121.47963","lat":"31.21081","category":"52","category_name":"高等院校","address":"顺昌路622"},{"poiid":"B2094654DA6DA5FC459A","title":"宝鼎大厦","lon":"121.477","lat":"31.212","category":"46","category_name":"楼宇","address":"闸北区共和新路3703,3737号"},{"poiid":"B2094757D068A1FD409A","title":"盛兴点心店","lon":"121.479443054","lat":"31.212018793","category":"87","category_name":"特色／地方风味餐厅","address":"卢湾区顺昌路528号(近永年路)"},{"poiid":"B2094655D26EA5F4429B","title":"夜上海(新天地店)","lon":"121.47749","lat":"31.21282","category":"248","category_name":"生活娱乐","address":"卢湾区黄陂南路338号"},{"poiid":"B2094654DA6EA3FE4099","title":"致远大厦","lon":"121.478","lat":"31.2078","category":"46","category_name":"楼宇","address":"上海斜土路768号"},{"poiid":"B2094757D069A7FC409A","title":"一品居热气羊肉馆(顺昌店)","lon":"121.47938","lat":"31.21213","category":"86","category_name":"火锅店","address":"卢湾区顺昌路512号(近永年路)"},{"poiid":"B2094655D26FA3FF4399","title":"莫泰168连锁旅店(徐家汇路店)","lon":"121.48146","lat":"31.21081","category":"216","category_name":"经济型连锁酒店","address":"上海市黄浦区徐家汇路3-7号（近制造局路）"},{"poiid":"B2094757D06AA6FE479B","title":"黄陂南路徐家汇路","lon":"121.47800445","lat":"31.210878372","category":"500","category_name":"未知分类","address":"上海黄陂南路徐家汇路"},{"poiid":"B2094654DA68A7FA489B","title":"永业公寓","lon":"121.47814","lat":"31.208323","category":"47","category_name":"住宅区","address":"卢湾区徐家汇路135号"},{"poiid":"B2094757D66DA2F94899","title":"交大医学院","lon":"121.480342618","lat":"31.2082307214","category":"253","category_name":"校园生活","address":"上海重庆南路227号"},{"poiid":"B2094757D16AA4FD489E","title":"上海社科院","lon":"121.479635","lat":"31.210817","category":"500","category_name":"未知分类","address":"卢湾区顺昌路622号"},{"poiid":"B2094757D165A5F94192","title":"瑞金医院口腔科","lon":"121.47926573","lat":"31.209942867","category":"162","category_name":"医院","address":"上海市建国东路"},{"poiid":"B2094757D16DA1FB469C","title":"顺昌路永年路","lon":"121.479267338","lat":"31.2105510808","category":"500","category_name":"未知分类","address":"上海顺昌路永年路"},{"poiid":"B2094757D064A6F9489F","title":"卢浦大桥(徐家汇路口)","lon":"121.480679","lat":"31.210989","category":"500","category_name":"未知分类","address":"上海徐家汇路重庆南路"},{"poiid":"B2094655D36DA0FF419D","title":"徐家汇路黄陂南路","lon":"121.47971","lat":"31.21013","category":"38","category_name":"公交车站","address":""},{"poiid":"B2094654DB69A5F4409A","title":"重庆鸡公煲 顺昌路店","lon":"121.479501054","lat":"31.212284793","category":"71","category_name":"四川菜","address":"卢湾区顺昌路530号(近永年路)"},{"poiid":"B2094654DA6EAAF5489B","title":"华联超市No.1025","lon":"121.47965","lat":"31.21051","category":"118","category_name":"超级市场","address":"徐家汇路126"},{"poiid":"B2094757D068ABFB419A","title":"泰煌鸡 黄陂南路店","lon":"121.477455054","lat":"31.213034793","category":"72","category_name":"广东菜","address":"卢湾区黄陂南路807号(近永年路)"},{"poiid":"B2094750DB68AAF44492","title":"思南公馆慧公馆","lon":"121.479362","lat":"31.210035","category":"247","category_name":"餐饮美食","address":null},{"poiid":"B2094757D56EA2FE429A","title":"健康煮时尚迷你锅","lon":"121.479714","lat":"31.210135","category":"86","category_name":"火锅店","address":"上海日月光中心B2"},{"poiid":"B2094655D36CA1FF4198","title":"顺昌路徐家汇路","lon":"121.47971","lat":"31.21123","category":"38","category_name":"公交车站","address":""},{"poiid":"B2094654DA6EA7FB439D","title":"上海市李惠利中学","lon":"121.48121","lat":"31.21181","category":"55","category_name":"中学","address":"卢湾区肇周路420号(陆家浜路徐家汇路)"},{"poiid":"B2094654DB6BA4FF489D","title":"上海市基督教惠中堂(肇周路)","lon":"121.48094","lat":"31.21129","category":"245","category_name":"教堂","address":"卢湾区徐家汇路40-2号(肇周路口)"},{"poiid":"B2094655D265A7FF4499","title":"梦奇屋","lon":"121.47967","lat":"31.21183","category":"68","category_name":"快餐厅","address":"卢湾区顺昌路563号(近徐家汇路)"},{"poiid":"B2094757D66CA4FE439A","title":"避风堂","lon":"121.480282738","lat":"31.2082988329","category":"500","category_name":"未知分类","address":"上海市卢湾区"},{"poiid":"B2094757D464ABF54098","title":"巴弟鸡排 顺昌路店","lon":"121.479773054","lat":"31.211614793","category":"68","category_name":"快餐厅","address":"卢湾区顺昌路563号(近徐家汇路)"},{"poiid":"B2094655D36DA7F94599","title":"重庆南路","lon":"121.48058","lat":"31.21079","category":"38","category_name":"公交车站","address":""},{"poiid":"B2094753D36CA2FE4298","title":"香港龙凤楼","lon":"121.478298","lat":"31.208093","category":"71","category_name":"四川菜","address":"蒙自东路75号"},{"poiid":"B2094654DB69A5F9489A","title":"真锅咖啡(局门店)","lon":"121.47973","lat":"31.20984","category":"65","category_name":"咖啡厅","address":"卢湾区徐家汇路105号"},{"poiid":"B2094753D56EA7FF429C","title":"日月光广场","lon":"121.480453","lat":"31.207979","category":"500","category_name":"未知分类","address":"上海市 徐家汇路"},{"poiid":"B2094757D065A4F4499D","title":"局门路徐家汇路口","lon":"121.480478","lat":"31.209931","category":"500","category_name":"未知分类","address":"上海局门路徐家汇路口"},{"poiid":"B2094757D06AA2F84493","title":"上海市社会创新孵化园","lon":"121.48119151","lat":"31.207874929","category":"46","category_name":"楼宇","address":"上海丽园路501号"},{"poiid":"B2094654DA68A0F4489B","title":"文峰美发美容徐家汇路店","lon":"121.47956","lat":"31.20979","category":"148","category_name":"美容美发店","address":"徐家汇路115"},{"poiid":"B2094654DB6BA4FF489C","title":"杰杰宠物","lon":"121.48011","lat":"31.21095","category":"129","category_name":"宠物用品店","address":"卢湾区徐家汇路90号(近顺昌路)"},{"poiid":"B2094752D66FAAFC4993","title":"必胜客","lon":"121.479057","lat":"31.211943","category":"500","category_name":"未知分类","address":"徐家汇路618号日月光中心广场B2楼(近瑞金二路)"},{"poiid":"B2094655D36DA0FF4193","title":"徐家汇路重庆南路","lon":"121.48067","lat":"31.21098","category":"38","category_name":"公交车站","address":""},{"poiid":"B2094654DB6BA4FF4898","title":"老北京涮锅(顺昌路)","lon":"121.47952","lat":"31.2125","category":"86","category_name":"火锅店","address":"卢湾区顺昌路531号(近永年路)"},{"poiid":"B2094750DB69A7FE419D","title":"9号线_马当路","lon":"121.478485","lat":"31.211101","category":"500","category_name":"未知分类","address":null},{"poiid":"B2094757D069A1F8479C","title":"斜桥游泳馆","lon":"121.48246373","lat":"31.211333897","category":"220","category_name":"运动场所","address":"黄浦区大吉路218号(近西藏南路)"},{"poiid":"B2094757D06BA4FD489D","title":"肇周路冷馄饨","lon":"121.479276738","lat":"31.2099688684","category":"500","category_name":"未知分类","address":"上海肇周路213号"},{"poiid":"B2094757D46AA1FD489E","title":"咖世家咖啡 蒙自路店 COSTA COFFEE","lon":"121.476903","lat":"31.209101","category":"67","category_name":"甜品店","address":"卢湾区蒙自路(近徐家汇路)"}]