[{"poiid":"B2094654D56FA0FB499D","title":"欧尚(中原路店)","lon":"121.53256","lat":"31.31432","category":"118","category_name":"超级市场","address":"杨浦区中原路102号(近嫩江路)"},{"poiid":"B2094757D06FA3FD439E","title":"杨浦区市东医院","lon":"121.53765445","lat":"31.321043171","category":"162","category_name":"医院","address":"上海杨浦区市光路999号(近包头路)"},{"poiid":"B2094757D06FA1FD499D","title":"麦当劳(中原路店)","lon":"121.53259","lat":"31.31467","category":"68","category_name":"快餐厅","address":"杨浦区中原路126号欧尚对面(嫩江路)"},{"poiid":"B2094757D06EAAFE419F","title":"嫩江路地铁站","lon":"121.53196744","lat":"31.31512529","category":"36","category_name":"地铁站","address":"上海轨道交通 八号线 轨交嫩江路站 8"},{"poiid":"B2094757D06FA7F9479C","title":"德林火锅(包头路店)","lon":"121.53897","lat":"31.31732","category":"86","category_name":"火锅店","address":"杨浦区包头路436号(近国和路)"},{"poiid":"B2094757D068A3FE4993","title":"中原体育场羽毛球馆","lon":"121.53905","lat":"31.31502","category":"220","category_name":"运动场所","address":"杨浦区包头路380号(近嫩江路)"},{"poiid":"B2094757D06FA2FE4093","title":"市光二村","lon":"121.54085","lat":"31.31772","category":"47","category_name":"住宅区","address":"上海国和路包头路"},{"poiid":"B2094757D06FA5F5429A","title":"肯德基 KFC (中原店)","lon":"121.532446","lat":"31.31775","category":"68","category_name":"快餐厅","address":"杨浦区中原路188号(近国和路)"},{"poiid":"B2094757D06FA1F9409C","title":"市光四村","lon":"121.53497","lat":"31.320517","category":"47","category_name":"住宅区","address":"上海杨浦区国和路市光路中原路"},{"poiid":"B2094757D068A6F8429C","title":"包头路麻辣烫","lon":"121.539040054","lat":"31.315891793","category":"68","category_name":"快餐厅","address":"闸北区汶水路886号(近卜蜂莲花)"},{"poiid":"B2094750DA65A3FA409B","title":"鲜芋仙（中原欧尚店）","lon":"121.532402","lat":"31.314386","category":"67","category_name":"甜品店","address":"杨浦区中原路102号中原欧尚106-107店铺(近嫩江路)"},{"poiid":"B2094757D068ABF5429C","title":"虹霞火锅城(中原店)","lon":"121.53203","lat":"31.31795","category":"86","category_name":"火锅店","address":"杨浦区中原路(近国和路)"},{"poiid":"B2094757D069A2FF499F","title":"老铜人鱼味火锅 Yongfoo Elite","lon":"121.532893","lat":"31.317981","category":"86","category_name":"火锅店","address":"杨浦区国和路1065号(近中原路)"},{"poiid":"B2094757D06FAAF9489E","title":"肯德基 KFC (嫩江店)","lon":"121.532601","lat":"31.313729","category":"68","category_name":"快餐厅","address":"杨浦区中原路102号欧尚超市内(近嫩江路)"},{"poiid":"B2094757D068AAFA4193","title":"民星公园","lon":"121.534809593","lat":"31.3140266479","category":"196","category_name":"公园","address":"杨浦区嫩江路1111号(近中原路)"},{"poiid":"B2094757D069A2FE4999","title":"杨浦区文化馆","lon":"121.53263","lat":"31.3175","category":"188","category_name":"文化宫","address":"杨浦区中原路188号(近国和路)"},{"poiid":"B2094757D469A1FC4393","title":"嫩江路麻辣烫","lon":"121.53875","lat":"31.3153","category":"87","category_name":"特色／地方风味餐厅","address":"包头路386号近嫩江路"},{"poiid":"B2094757D66AA6F5439A","title":"古月村酒家","lon":"121.53234911474","lat":"31.318360691655","category":"76","category_name":"上海菜","address":"上海杨浦区国和路1079号(近包头路)  "},{"poiid":"B2094757D76AA2FB4492","title":"深井大叔港式烧腊 中原店","lon":"121.53232","lat":"31.315372","category":"72","category_name":"广东菜","address":"杨浦区中原路102号欧尚超市内(近嫩江路)"},{"poiid":"B2094654D56FA7F94999","title":"组合发型顾问嫩江店(嫩江路)","lon":"121.53262","lat":"31.315","category":"148","category_name":"美容美发店","address":"杨浦区嫩江路1240号"},{"poiid":"B2094654DB6AA2FC4592","title":"重庆鸡公煲 包头路店","lon":"121.538462054","lat":"31.317228793","category":"71","category_name":"四川菜","address":"杨浦区包头路371号(近国和路)"},{"poiid":"B2094757D064ABFC409A","title":"民欣大酒店","lon":"121.53879","lat":"31.31318","category":"76","category_name":"上海菜","address":"杨浦区包头路280号"},{"poiid":"B2094757D06AA6FC409A","title":"乐勤轩","lon":"121.53293","lat":"31.3178","category":"75","category_name":"浙江菜","address":"上海杨浦区国和路1061号(近中原路)"},{"poiid":"B2094757D068A6F94498","title":"民星住宅小区","lon":"121.53957","lat":"31.313667","category":"47","category_name":"住宅区","address":"上海包头路300弄"},{"poiid":"B2094750D76EA6FC459F","title":"呀咪咖喱屋(中原路店)","lon":"121.533","lat":"31.3142","category":"94","category_name":"西餐厅","address":"杨浦区中原路102号欧尚超市2楼(近嫩江路)"},{"poiid":"B2094654D56FA7FA439B","title":"市光一村小区","lon":"121.53577","lat":"31.31577","category":"47","category_name":"住宅区","address":"殷行"},{"poiid":"B2094757D069A1F94299","title":"本地鸡喔(国和路店)","lon":"121.53173","lat":"31.31773","category":"86","category_name":"火锅店","address":"杨浦区国和路1053号(近中原路)"},{"poiid":"B2094757D068AAF44498","title":"永琪美容美发(包头二店)","lon":"121.538451195","lat":"31.3153118921","category":"148","category_name":"美容美发店","address":"杨浦区包头路307号(近嫩江路)"},{"poiid":"B2094757D16CAAF54599","title":"包头路嫩江路","lon":"121.5356252","lat":"31.315627467","category":"500","category_name":"未知分类","address":"上海包头路嫩江路"},{"poiid":"B2094655D26EA3F9459C","title":"市光一村(北二号门)","lon":"121.5362","lat":"31.31684","category":"47","category_name":"住宅区","address":""},{"poiid":"B2094655D26AA4FD449E","title":"乡乡苑土菜馆","lon":"121.53832","lat":"31.31439","category":"76","category_name":"上海菜","address":"杨浦区嫩江路881号(近包头路)"},{"poiid":"B2094757D06BA1FD469D","title":"山夫烧烤","lon":"121.53872","lat":"31.31762","category":"68","category_name":"快餐厅","address":"杨浦区国和路(包头路口)"},{"poiid":"B2094757D46BA1FE4499","title":"来伊份 包头路二店","lon":"121.53833","lat":"31.31708","category":"68","category_name":"快餐厅","address":"杨浦区包头路371号(近国和路)"},{"poiid":"B2094654DB6BA2F8429D","title":"上海市杨浦区少年儿童图书馆","lon":"121.53595","lat":"31.31401","category":"181","category_name":"图书馆","address":"杨浦区嫩江路民星二村38号"},{"poiid":"B2094757D064A2FD4392","title":"新亚大包 国和店","lon":"121.532779054","lat":"31.318090793","category":"68","category_name":"快餐厅","address":"杨浦区国和路1065号(近中原路)"},{"poiid":"B2094757D168A0FB489D","title":"28路包头路嫩江路终点站","lon":"121.536905603","lat":"31.3151525576","category":"38","category_name":"公交车站","address":"上海市杨浦区包头路311号"},{"poiid":"B2094655D36CA7F44099","title":"国和路包头路","lon":"121.53695","lat":"31.31816","category":"38","category_name":"公交车站","address":""},{"poiid":"B2094654DB6BA2F8429B","title":"市光四村(南二号门)","lon":"121.53656","lat":"31.31839","category":"47","category_name":"住宅区","address":"市光四村1-68号"},{"poiid":"B2094654D56FA7FA419E","title":"香吧岛大龙虾嫩江店","lon":"121.53494","lat":"31.31447","category":"88","category_name":"海鲜酒楼","address":"杨浦区嫩江路1111号(近中原路)"},{"poiid":"B2094757D068ABF4429C","title":"民星二村","lon":"121.53406","lat":"31.31246","category":"47","category_name":"住宅区","address":"上海杨浦区"},{"poiid":"B2094751DA68A3F4419E","title":"民星中学","lon":"121.537617","lat":"31.315457","category":"55","category_name":"中学","address":null},{"poiid":"B2094757D165A0FB4292","title":"包头路夜排档","lon":"121.5369146","lat":"31.315104456","category":"247","category_name":"餐饮美食","address":"上海杨浦区包头路"},{"poiid":"B2094655D26DA5FD4593","title":"克莉丝汀 包头路店","lon":"121.538617054","lat":"31.315398793","category":"112","category_name":"糕饼店","address":"杨浦区包头路370号(近国和路)"},{"poiid":"B2094654D56FA7FA479D","title":"上海市杨浦区市光新村第一小学","lon":"121.53576","lat":"31.31777","category":"56","category_name":"小学","address":"杨浦区市光一村88号"},{"poiid":"B2094757D66DABFF439E","title":"信厚义绿色食府","lon":"121.5354771","lat":"31.316079377","category":"247","category_name":"餐饮美食","address":"上海市杨浦区三门路168号"},{"poiid":"B2094655D26CA6F8459A","title":"民星住宅小区(北二号门)","lon":"121.53914","lat":"31.31447","category":"47","category_name":"住宅区","address":"嫩江路857-867号"},{"poiid":"B2094654DB6AA3FF479B","title":"东北饭店","lon":"121.53884","lat":"31.31779","category":"82","category_name":"东北菜","address":"杨浦区国和路1203号(近包头路)"},{"poiid":"B2094757D068A2FD409E","title":"苏州汤包馆","lon":"121.5391","lat":"31.31714","category":"247","category_name":"餐饮美食","address":"上海杨浦区包头路440号(近国和路)  "},{"poiid":"B2094654D56FAAFE459B","title":"惠元新天地","lon":"121.539","lat":"31.3164","category":"47","category_name":"住宅区","address":"上海市杨浦区中原路38号"},{"poiid":"B2094757D06BA0FE4798","title":"大娘水饺(中原店)","lon":"121.53241216","lat":"31.314170167","category":"68","category_name":"快餐厅","address":"杨浦区中原路102号欧尚超市1楼(近嫩江路)"},{"poiid":"B2094654D56FA0FB499D","title":"欧尚(中原路店)","lon":"121.53256","lat":"31.31432","category":"118","category_name":"超级市场","address":"杨浦区中原路102号(近嫩江路)"},{"poiid":"B2094757D06FA3FD439E","title":"杨浦区市东医院","lon":"121.53765445","lat":"31.321043171","category":"162","category_name":"医院","address":"上海杨浦区市光路999号(近包头路)"},{"poiid":"B2094757D06FA1FD499D","title":"麦当劳(中原路店)","lon":"121.53259","lat":"31.31467","category":"68","category_name":"快餐厅","address":"杨浦区中原路126号欧尚对面(嫩江路)"},{"poiid":"B2094757D06EAAFE419F","title":"嫩江路地铁站","lon":"121.53196744","lat":"31.31512529","category":"36","category_name":"地铁站","address":"上海轨道交通 八号线 轨交嫩江路站 8"},{"poiid":"B2094757D06FA7F9479C","title":"德林火锅(包头路店)","lon":"121.53897","lat":"31.31732","category":"86","category_name":"火锅店","address":"杨浦区包头路436号(近国和路)"},{"poiid":"B2094757D068A3FE4993","title":"中原体育场羽毛球馆","lon":"121.53905","lat":"31.31502","category":"220","category_name":"运动场所","address":"杨浦区包头路380号(近嫩江路)"},{"poiid":"B2094757D06FA2FE4093","title":"市光二村","lon":"121.54085","lat":"31.31772","category":"47","category_name":"住宅区","address":"上海国和路包头路"},{"poiid":"B2094757D06FA5F5429A","title":"肯德基 KFC (中原店)","lon":"121.532446","lat":"31.31775","category":"68","category_name":"快餐厅","address":"杨浦区中原路188号(近国和路)"},{"poiid":"B2094757D06FA1F9409C","title":"市光四村","lon":"121.53497","lat":"31.320517","category":"47","category_name":"住宅区","address":"上海杨浦区国和路市光路中原路"},{"poiid":"B2094757D068A6F8429C","title":"包头路麻辣烫","lon":"121.539040054","lat":"31.315891793","category":"68","category_name":"快餐厅","address":"闸北区汶水路886号(近卜蜂莲花)"},{"poiid":"B2094750DA65A3FA409B","title":"鲜芋仙（中原欧尚店）","lon":"121.532402","lat":"31.314386","category":"67","category_name":"甜品店","address":"杨浦区中原路102号中原欧尚106-107店铺(近嫩江路)"},{"poiid":"B2094757D068ABF5429C","title":"虹霞火锅城(中原店)","lon":"121.53203","lat":"31.31795","category":"86","category_name":"火锅店","address":"杨浦区中原路(近国和路)"},{"poiid":"B2094757D069A2FF499F","title":"老铜人鱼味火锅 Yongfoo Elite","lon":"121.532893","lat":"31.317981","category":"86","category_name":"火锅店","address":"杨浦区国和路1065号(近中原路)"},{"poiid":"B2094757D06FAAF9489E","title":"肯德基 KFC (嫩江店)","lon":"121.532601","lat":"31.313729","category":"68","category_name":"快餐厅","address":"杨浦区中原路102号欧尚超市内(近嫩江路)"},{"poiid":"B2094757D068AAFA4193","title":"民星公园","lon":"121.534809593","lat":"31.3140266479","category":"196","category_name":"公园","address":"杨浦区嫩江路1111号(近中原路)"},{"poiid":"B2094757D069A2FE4999","title":"杨浦区文化馆","lon":"121.53263","lat":"31.3175","category":"188","category_name":"文化宫","address":"杨浦区中原路188号(近国和路)"},{"poiid":"B2094757D469A1FC4393","title":"嫩江路麻辣烫","lon":"121.53875","lat":"31.3153","category":"87","category_name":"特色／地方风味餐厅","address":"包头路386号近嫩江路"},{"poiid":"B2094757D66AA6F5439A","title":"古月村酒家","lon":"121.53234911474","lat":"31.318360691655","category":"76","category_name":"上海菜","address":"上海杨浦区国和路1079号(近包头路)  "},{"poiid":"B2094757D76AA2FB4492","title":"深井大叔港式烧腊 中原店","lon":"121.53232","lat":"31.315372","category":"72","category_name":"广东菜","address":"杨浦区中原路102号欧尚超市内(近嫩江路)"},{"poiid":"B2094654D56FA7F94999","title":"组合发型顾问嫩江店(嫩江路)","lon":"121.53262","lat":"31.315","category":"148","category_name":"美容美发店","address":"杨浦区嫩江路1240号"},{"poiid":"B2094654DB6AA2FC4592","title":"重庆鸡公煲 包头路店","lon":"121.538462054","lat":"31.317228793","category":"71","category_name":"四川菜","address":"杨浦区包头路371号(近国和路)"},{"poiid":"B2094757D064ABFC409A","title":"民欣大酒店","lon":"121.53879","lat":"31.31318","category":"76","category_name":"上海菜","address":"杨浦区包头路280号"},{"poiid":"B2094757D06AA6FC409A","title":"乐勤轩","lon":"121.53293","lat":"31.3178","category":"75","category_name":"浙江菜","address":"上海杨浦区国和路1061号(近中原路)"},{"poiid":"B2094757D068A6F94498","title":"民星住宅小区","lon":"121.53957","lat":"31.313667","category":"47","category_name":"住宅区","address":"上海包头路300弄"},{"poiid":"B2094750D76EA6FC459F","title":"呀咪咖喱屋(中原路店)","lon":"121.533","lat":"31.3142","category":"94","category_name":"西餐厅","address":"杨浦区中原路102号欧尚超市2楼(近嫩江路)"},{"poiid":"B2094654D56FA7FA439B","title":"市光一村小区","lon":"121.53577","lat":"31.31577","category":"47","category_name":"住宅区","address":"殷行"},{"poiid":"B2094757D069A1F94299","title":"本地鸡喔(国和路店)","lon":"121.53173","lat":"31.31773","category":"86","category_name":"火锅店","address":"杨浦区国和路1053号(近中原路)"},{"poiid":"B2094757D068AAF44498","title":"永琪美容美发(包头二店)","lon":"121.538451195","lat":"31.3153118921","category":"148","category_name":"美容美发店","address":"杨浦区包头路307号(近嫩江路)"},{"poiid":"B2094757D16CAAF54599","title":"包头路嫩江路","lon":"121.5356252","lat":"31.315627467","category":"500","category_name":"未知分类","address":"上海包头路嫩江路"},{"poiid":"B2094655D26EA3F9459C","title":"市光一村(北二号门)","lon":"121.5362","lat":"31.31684","category":"47","category_name":"住宅区","address":""},{"poiid":"B2094655D26AA4FD449E","title":"乡乡苑土菜馆","lon":"121.53832","lat":"31.31439","category":"76","category_name":"上海菜","address":"杨浦区嫩江路881号(近包头路)"},{"poiid":"B2094757D06BA1FD469D","title":"山夫烧烤","lon":"121.53872","lat":"31.31762","category":"68","category_name":"快餐厅","address":"杨浦区国和路(包头路口)"},{"poiid":"B2094757D46BA1FE4499","title":"来伊份 包头路二店","lon":"121.53833","lat":"31.31708","category":"68","category_name":"快餐厅","address":"杨浦区包头路371号(近国和路)"},{"poiid":"B2094654DB6BA2F8429D","title":"上海市杨浦区少年儿童图书馆","lon":"121.53595","lat":"31.31401","category":"181","category_name":"图书馆","address":"杨浦区嫩江路民星二村38号"},{"poiid":"B2094757D064A2FD4392","title":"新亚大包 国和店","lon":"121.532779054","lat":"31.318090793","category":"68","category_name":"快餐厅","address":"杨浦区国和路1065号(近中原路)"},{"poiid":"B2094757D168A0FB489D","title":"28路包头路嫩江路终点站","lon":"121.536905603","lat":"31.3151525576","category":"38","category_name":"公交车站","address":"上海市杨浦区包头路311号"},{"poiid":"B2094655D36CA7F44099","title":"国和路包头路","lon":"121.53695","lat":"31.31816","category":"38","category_name":"公交车站","address":""},{"poiid":"B2094654DB6BA2F8429B","title":"市光四村(南二号门)","lon":"121.53656","lat":"31.31839","category":"47","category_name":"住宅区","address":"市光四村1-68号"},{"poiid":"B2094654D56FA7FA419E","title":"香吧岛大龙虾嫩江店","lon":"121.53494","lat":"31.31447","category":"88","category_name":"海鲜酒楼","address":"杨浦区嫩江路1111号(近中原路)"},{"poiid":"B2094757D068ABF4429C","title":"民星二村","lon":"121.53406","lat":"31.31246","category":"47","category_name":"住宅区","address":"上海杨浦区"},{"poiid":"B2094751DA68A3F4419E","title":"民星中学","lon":"121.537617","lat":"31.315457","category":"55","category_name":"中学","address":null},{"poiid":"B2094757D165A0FB4292","title":"包头路夜排档","lon":"121.5369146","lat":"31.315104456","category":"247","category_name":"餐饮美食","address":"上海杨浦区包头路"},{"poiid":"B2094655D26DA5FD4593","title":"克莉丝汀 包头路店","lon":"121.538617054","lat":"31.315398793","category":"112","category_name":"糕饼店","address":"杨浦区包头路370号(近国和路)"},{"poiid":"B2094654D56FA7FA479D","title":"上海市杨浦区市光新村第一小学","lon":"121.53576","lat":"31.31777","category":"56","category_name":"小学","address":"杨浦区市光一村88号"},{"poiid":"B2094757D66DABFF439E","title":"信厚义绿色食府","lon":"121.5354771","lat":"31.316079377","category":"247","category_name":"餐饮美食","address":"上海市杨浦区三门路168号"},{"poiid":"B2094655D26CA6F8459A","title":"民星住宅小区(北二号门)","lon":"121.53914","lat":"31.31447","category":"47","category_name":"住宅区","address":"嫩江路857-867号"},{"poiid":"B2094654DB6AA3FF479B","title":"东北饭店","lon":"121.53884","lat":"31.31779","category":"82","category_name":"东北菜","address":"杨浦区国和路1203号(近包头路)"},{"poiid":"B2094757D068A2FD409E","title":"苏州汤包馆","lon":"121.5391","lat":"31.31714","category":"247","category_name":"餐饮美食","address":"上海杨浦区包头路440号(近国和路)  "},{"poiid":"B2094654D56FAAFE459B","title":"惠元新天地","lon":"121.539","lat":"31.3164","category":"47","category_name":"住宅区","address":"上海市杨浦区中原路38号"},{"poiid":"B2094757D06BA0FE4798","title":"大娘水饺(中原店)","lon":"121.53241216","lat":"31.314170167","category":"68","category_name":"快餐厅","address":"杨浦区中原路102号欧尚超市1楼(近嫩江路)"},{"poiid":"B2094654D56FA0FB499D","title":"欧尚(中原路店)","lon":"121.53256","lat":"31.31432","category":"118","category_name":"超级市场","address":"杨浦区中原路102号(近嫩江路)"},{"poiid":"B2094757D06FA3FD439E","title":"杨浦区市东医院","lon":"121.53765445","lat":"31.321043171","category":"162","category_name":"医院","address":"上海杨浦区市光路999号(近包头路)"},{"poiid":"B2094757D06FA1FD499D","title":"麦当劳(中原路店)","lon":"121.53259","lat":"31.31467","category":"68","category_name":"快餐厅","address":"杨浦区中原路126号欧尚对面(嫩江路)"},{"poiid":"B2094757D06EAAFE419F","title":"嫩江路地铁站","lon":"121.53196744","lat":"31.31512529","category":"36","category_name":"地铁站","address":"上海轨道交通 八号线 轨交嫩江路站 8"},{"poiid":"B2094757D06FA7F9479C","title":"德林火锅(包头路店)","lon":"121.53897","lat":"31.31732","category":"86","category_name":"火锅店","address":"杨浦区包头路436号(近国和路)"},{"poiid":"B2094757D068A3FE4993","title":"中原体育场羽毛球馆","lon":"121.53905","lat":"31.31502","category":"220","category_name":"运动场所","address":"杨浦区包头路380号(近嫩江路)"},{"poiid":"B2094757D06FA2FE4093","title":"市光二村","lon":"121.54085","lat":"31.31772","category":"47","category_name":"住宅区","address":"上海国和路包头路"},{"poiid":"B2094757D06FA5F5429A","title":"肯德基 KFC (中原店)","lon":"121.532446","lat":"31.31775","category":"68","category_name":"快餐厅","address":"杨浦区中原路188号(近国和路)"},{"poiid":"B2094757D06FA1F9409C","title":"市光四村","lon":"121.53497","lat":"31.320517","category":"47","category_name":"住宅区","address":"上海杨浦区国和路市光路中原路"},{"poiid":"B2094757D068A6F8429C","title":"包头路麻辣烫","lon":"121.539040054","lat":"31.315891793","category":"68","category_name":"快餐厅","address":"闸北区汶水路886号(近卜蜂莲花)"},{"poiid":"B2094750DA65A3FA409B","title":"鲜芋仙（中原欧尚店）","lon":"121.532402","lat":"31.314386","category":"67","category_name":"甜品店","address":"杨浦区中原路102号中原欧尚106-107店铺(近嫩江路)"},{"poiid":"B2094757D068ABF5429C","title":"虹霞火锅城(中原店)","lon":"121.53203","lat":"31.31795","category":"86","category_name":"火锅店","address":"杨浦区中原路(近国和路)"},{"poiid":"B2094757D069A2FF499F","title":"老铜人鱼味火锅 Yongfoo Elite","lon":"121.532893","lat":"31.317981","category":"86","category_name":"火锅店","address":"杨浦区国和路1065号(近中原路)"},{"poiid":"B2094757D06FAAF9489E","title":"肯德基 KFC (嫩江店)","lon":"121.532601","lat":"31.313729","category":"68","category_name":"快餐厅","address":"杨浦区中原路102号欧尚超市内(近嫩江路)"},{"poiid":"B2094757D068AAFA4193","title":"民星公园","lon":"121.534809593","lat":"31.3140266479","category":"196","category_name":"公园","address":"杨浦区嫩江路1111号(近中原路)"},{"poiid":"B2094757D069A2FE4999","title":"杨浦区文化馆","lon":"121.53263","lat":"31.3175","category":"188","category_name":"文化宫","address":"杨浦区中原路188号(近国和路)"},{"poiid":"B2094757D469A1FC4393","title":"嫩江路麻辣烫","lon":"121.53875","lat":"31.3153","category":"87","category_name":"特色／地方风味餐厅","address":"包头路386号近嫩江路"},{"poiid":"B2094757D66AA6F5439A","title":"古月村酒家","lon":"121.53234911474","lat":"31.318360691655","category":"76","category_name":"上海菜","address":"上海杨浦区国和路1079号(近包头路)  "},{"poiid":"B2094757D76AA2FB4492","title":"深井大叔港式烧腊 中原店","lon":"121.53232","lat":"31.315372","category":"72","category_name":"广东菜","address":"杨浦区中原路102号欧尚超市内(近嫩江路)"},{"poiid":"B2094654D56FA7F94999","title":"组合发型顾问嫩江店(嫩江路)","lon":"121.53262","lat":"31.315","category":"148","category_name":"美容美发店","address":"杨浦区嫩江路1240号"},{"poiid":"B2094654DB6AA2FC4592","title":"重庆鸡公煲 包头路店","lon":"121.538462054","lat":"31.317228793","category":"71","category_name":"四川菜","address":"杨浦区包头路371号(近国和路)"},{"poiid":"B2094757D064ABFC409A","title":"民欣大酒店","lon":"121.53879","lat":"31.31318","category":"76","category_name":"上海菜","address":"杨浦区包头路280号"},{"poiid":"B2094757D06AA6FC409A","title":"乐勤轩","lon":"121.53293","lat":"31.3178","category":"75","category_name":"浙江菜","address":"上海杨浦区国和路1061号(近中原路)"},{"poiid":"B2094757D068A6F94498","title":"民星住宅小区","lon":"121.53957","lat":"31.313667","category":"47","category_name":"住宅区","address":"上海包头路300弄"},{"poiid":"B2094750D76EA6FC459F","title":"呀咪咖喱屋(中原路店)","lon":"121.533","lat":"31.3142","category":"94","category_name":"西餐厅","address":"杨浦区中原路102号欧尚超市2楼(近嫩江路)"},{"poiid":"B2094654D56FA7FA439B","title":"市光一村小区","lon":"121.53577","lat":"31.31577","category":"47","category_name":"住宅区","address":"殷行"},{"poiid":"B2094757D069A1F94299","title":"本地鸡喔(国和路店)","lon":"121.53173","lat":"31.31773","category":"86","category_name":"火锅店","address":"杨浦区国和路1053号(近中原路)"},{"poiid":"B2094757D068AAF44498","title":"永琪美容美发(包头二店)","lon":"121.538451195","lat":"31.3153118921","category":"148","category_name":"美容美发店","address":"杨浦区包头路307号(近嫩江路)"},{"poiid":"B2094757D16CAAF54599","title":"包头路嫩江路","lon":"121.5356252","lat":"31.315627467","category":"500","category_name":"未知分类","address":"上海包头路嫩江路"},{"poiid":"B2094655D26EA3F9459C","title":"市光一村(北二号门)","lon":"121.5362","lat":"31.31684","category":"47","category_name":"住宅区","address":""},{"poiid":"B2094655D26AA4FD449E","title":"乡乡苑土菜馆","lon":"121.53832","lat":"31.31439","category":"76","category_name":"上海菜","address":"杨浦区嫩江路881号(近包头路)"},{"poiid":"B2094757D06BA1FD469D","title":"山夫烧烤","lon":"121.53872","lat":"31.31762","category":"68","category_name":"快餐厅","address":"杨浦区国和路(包头路口)"},{"poiid":"B2094757D46BA1FE4499","title":"来伊份 包头路二店","lon":"121.53833","lat":"31.31708","category":"68","category_name":"快餐厅","address":"杨浦区包头路371号(近国和路)"},{"poiid":"B2094654DB6BA2F8429D","title":"上海市杨浦区少年儿童图书馆","lon":"121.53595","lat":"31.31401","category":"181","category_name":"图书馆","address":"杨浦区嫩江路民星二村38号"},{"poiid":"B2094757D064A2FD4392","title":"新亚大包 国和店","lon":"121.532779054","lat":"31.318090793","category":"68","category_name":"快餐厅","address":"杨浦区国和路1065号(近中原路)"},{"poiid":"B2094757D168A0FB489D","title":"28路包头路嫩江路终点站","lon":"121.536905603","lat":"31.3151525576","category":"38","category_name":"公交车站","address":"上海市杨浦区包头路311号"},{"poiid":"B2094655D36CA7F44099","title":"国和路包头路","lon":"121.53695","lat":"31.31816","category":"38","category_name":"公交车站","address":""},{"poiid":"B2094654DB6BA2F8429B","title":"市光四村(南二号门)","lon":"121.53656","lat":"31.31839","category":"47","category_name":"住宅区","address":"市光四村1-68号"},{"poiid":"B2094654D56FA7FA419E","title":"香吧岛大龙虾嫩江店","lon":"121.53494","lat":"31.31447","category":"88","category_name":"海鲜酒楼","address":"杨浦区嫩江路1111号(近中原路)"},{"poiid":"B2094757D068ABF4429C","title":"民星二村","lon":"121.53406","lat":"31.31246","category":"47","category_name":"住宅区","address":"上海杨浦区"},{"poiid":"B2094751DA68A3F4419E","title":"民星中学","lon":"121.537617","lat":"31.315457","category":"55","category_name":"中学","address":null},{"poiid":"B2094757D165A0FB4292","title":"包头路夜排档","lon":"121.5369146","lat":"31.315104456","category":"247","category_name":"餐饮美食","address":"上海杨浦区包头路"},{"poiid":"B2094655D26DA5FD4593","title":"克莉丝汀 包头路店","lon":"121.538617054","lat":"31.315398793","category":"112","category_name":"糕饼店","address":"杨浦区包头路370号(近国和路)"},{"poiid":"B2094654D56FA7FA479D","title":"上海市杨浦区市光新村第一小学","lon":"121.53576","lat":"31.31777","category":"56","category_name":"小学","address":"杨浦区市光一村88号"},{"poiid":"B2094757D66DABFF439E","title":"信厚义绿色食府","lon":"121.5354771","lat":"31.316079377","category":"247","category_name":"餐饮美食","address":"上海市杨浦区三门路168号"},{"poiid":"B2094655D26CA6F8459A","title":"民星住宅小区(北二号门)","lon":"121.53914","lat":"31.31447","category":"47","category_name":"住宅区","address":"嫩江路857-867号"},{"poiid":"B2094654DB6AA3FF479B","title":"东北饭店","lon":"121.53884","lat":"31.31779","category":"82","category_name":"东北菜","address":"杨浦区国和路1203号(近包头路)"},{"poiid":"B2094757D068A2FD409E","title":"苏州汤包馆","lon":"121.5391","lat":"31.31714","category":"247","category_name":"餐饮美食","address":"上海杨浦区包头路440号(近国和路)  "},{"poiid":"B2094654D56FAAFE459B","title":"惠元新天地","lon":"121.539","lat":"31.3164","category":"47","category_name":"住宅区","address":"上海市杨浦区中原路38号"},{"poiid":"B2094757D06BA0FE4798","title":"大娘水饺(中原店)","lon":"121.53241216","lat":"31.314170167","category":"68","category_name":"快餐厅","address":"杨浦区中原路102号欧尚超市1楼(近嫩江路)"},{"poiid":"B2094654D56FA0FB499D","title":"欧尚(中原路店)","lon":"121.53256","lat":"31.31432","category":"118","category_name":"超级市场","address":"杨浦区中原路102号(近嫩江路)"},{"poiid":"B2094757D06FA3FD439E","title":"杨浦区市东医院","lon":"121.53765445","lat":"31.321043171","category":"162","category_name":"医院","address":"上海杨浦区市光路999号(近包头路)"},{"poiid":"B2094757D06FA1FD499D","title":"麦当劳(中原路店)","lon":"121.53259","lat":"31.31467","category":"68","category_name":"快餐厅","address":"杨浦区中原路126号欧尚对面(嫩江路)"},{"poiid":"B2094757D06EAAFE419F","title":"嫩江路地铁站","lon":"121.53196744","lat":"31.31512529","category":"36","category_name":"地铁站","address":"上海轨道交通 八号线 轨交嫩江路站 8"},{"poiid":"B2094757D06FA7F9479C","title":"德林火锅(包头路店)","lon":"121.53897","lat":"31.31732","category":"86","category_name":"火锅店","address":"杨浦区包头路436号(近国和路)"},{"poiid":"B2094757D068A3FE4993","title":"中原体育场羽毛球馆","lon":"121.53905","lat":"31.31502","category":"220","category_name":"运动场所","address":"杨浦区包头路380号(近嫩江路)"},{"poiid":"B2094757D06FA2FE4093","title":"市光二村","lon":"121.54085","lat":"31.31772","category":"47","category_name":"住宅区","address":"上海国和路包头路"},{"poiid":"B2094757D06FA5F5429A","title":"肯德基 KFC (中原店)","lon":"121.532446","lat":"31.31775","category":"68","category_name":"快餐厅","address":"杨浦区中原路188号(近国和路)"},{"poiid":"B2094757D06FA1F9409C","title":"市光四村","lon":"121.53497","lat":"31.320517","category":"47","category_name":"住宅区","address":"上海杨浦区国和路市光路中原路"},{"poiid":"B2094757D068A6F8429C","title":"包头路麻辣烫","lon":"121.539040054","lat":"31.315891793","category":"68","category_name":"快餐厅","address":"闸北区汶水路886号(近卜蜂莲花)"},{"poiid":"B2094750DA65A3FA409B","title":"鲜芋仙（中原欧尚店）","lon":"121.532402","lat":"31.314386","category":"67","category_name":"甜品店","address":"杨浦区中原路102号中原欧尚106-107店铺(近嫩江路)"},{"poiid":"B2094757D068ABF5429C","title":"虹霞火锅城(中原店)","lon":"121.53203","lat":"31.31795","category":"86","category_name":"火锅店","address":"杨浦区中原路(近国和路)"},{"poiid":"B2094757D069A2FF499F","title":"老铜人鱼味火锅 Yongfoo Elite","lon":"121.532893","lat":"31.317981","category":"86","category_name":"火锅店","address":"杨浦区国和路1065号(近中原路)"},{"poiid":"B2094757D06FAAF9489E","title":"肯德基 KFC (嫩江店)","lon":"121.532601","lat":"31.313729","category":"68","category_name":"快餐厅","address":"杨浦区中原路102号欧尚超市内(近嫩江路)"},{"poiid":"B2094757D068AAFA4193","title":"民星公园","lon":"121.534809593","lat":"31.3140266479","category":"196","category_name":"公园","address":"杨浦区嫩江路1111号(近中原路)"},{"poiid":"B2094757D069A2FE4999","title":"杨浦区文化馆","lon":"121.53263","lat":"31.3175","category":"188","category_name":"文化宫","address":"杨浦区中原路188号(近国和路)"},{"poiid":"B2094757D469A1FC4393","title":"嫩江路麻辣烫","lon":"121.53875","lat":"31.3153","category":"87","category_name":"特色／地方风味餐厅","address":"包头路386号近嫩江路"},{"poiid":"B2094757D66AA6F5439A","title":"古月村酒家","lon":"121.53234911474","lat":"31.318360691655","category":"76","category_name":"上海菜","address":"上海杨浦区国和路1079号(近包头路)  "},{"poiid":"B2094757D76AA2FB4492","title":"深井大叔港式烧腊 中原店","lon":"121.53232","lat":"31.315372","category":"72","category_name":"广东菜","address":"杨浦区中原路102号欧尚超市内(近嫩江路)"},{"poiid":"B2094654D56FA7F94999","title":"组合发型顾问嫩江店(嫩江路)","lon":"121.53262","lat":"31.315","category":"148","category_name":"美容美发店","address":"杨浦区嫩江路1240号"},{"poiid":"B2094654DB6AA2FC4592","title":"重庆鸡公煲 包头路店","lon":"121.538462054","lat":"31.317228793","category":"71","category_name":"四川菜","address":"杨浦区包头路371号(近国和路)"},{"poiid":"B2094757D064ABFC409A","title":"民欣大酒店","lon":"121.53879","lat":"31.31318","category":"76","category_name":"上海菜","address":"杨浦区包头路280号"},{"poiid":"B2094757D06AA6FC409A","title":"乐勤轩","lon":"121.53293","lat":"31.3178","category":"75","category_name":"浙江菜","address":"上海杨浦区国和路1061号(近中原路)"},{"poiid":"B2094757D068A6F94498","title":"民星住宅小区","lon":"121.53957","lat":"31.313667","category":"47","category_name":"住宅区","address":"上海包头路300弄"},{"poiid":"B2094750D76EA6FC459F","title":"呀咪咖喱屋(中原路店)","lon":"121.533","lat":"31.3142","category":"94","category_name":"西餐厅","address":"杨浦区中原路102号欧尚超市2楼(近嫩江路)"},{"poiid":"B2094654D56FA7FA439B","title":"市光一村小区","lon":"121.53577","lat":"31.31577","category":"47","category_name":"住宅区","address":"殷行"},{"poiid":"B2094757D069A1F94299","title":"本地鸡喔(国和路店)","lon":"121.53173","lat":"31.31773","category":"86","category_name":"火锅店","address":"杨浦区国和路1053号(近中原路)"},{"poiid":"B2094757D068AAF44498","title":"永琪美容美发(包头二店)","lon":"121.538451195","lat":"31.3153118921","category":"148","category_name":"美容美发店","address":"杨浦区包头路307号(近嫩江路)"},{"poiid":"B2094757D16CAAF54599","title":"包头路嫩江路","lon":"121.5356252","lat":"31.315627467","category":"500","category_name":"未知分类","address":"上海包头路嫩江路"},{"poiid":"B2094655D26EA3F9459C","title":"市光一村(北二号门)","lon":"121.5362","lat":"31.31684","category":"47","category_name":"住宅区","address":""},{"poiid":"B2094655D26AA4FD449E","title":"乡乡苑土菜馆","lon":"121.53832","lat":"31.31439","category":"76","category_name":"上海菜","address":"杨浦区嫩江路881号(近包头路)"},{"poiid":"B2094757D06BA1FD469D","title":"山夫烧烤","lon":"121.53872","lat":"31.31762","category":"68","category_name":"快餐厅","address":"杨浦区国和路(包头路口)"},{"poiid":"B2094757D46BA1FE4499","title":"来伊份 包头路二店","lon":"121.53833","lat":"31.31708","category":"68","category_name":"快餐厅","address":"杨浦区包头路371号(近国和路)"},{"poiid":"B2094654DB6BA2F8429D","title":"上海市杨浦区少年儿童图书馆","lon":"121.53595","lat":"31.31401","category":"181","category_name":"图书馆","address":"杨浦区嫩江路民星二村38号"},{"poiid":"B2094757D064A2FD4392","title":"新亚大包 国和店","lon":"121.532779054","lat":"31.318090793","category":"68","category_name":"快餐厅","address":"杨浦区国和路1065号(近中原路)"},{"poiid":"B2094757D168A0FB489D","title":"28路包头路嫩江路终点站","lon":"121.536905603","lat":"31.3151525576","category":"38","category_name":"公交车站","address":"上海市杨浦区包头路311号"},{"poiid":"B2094655D36CA7F44099","title":"国和路包头路","lon":"121.53695","lat":"31.31816","category":"38","category_name":"公交车站","address":""},{"poiid":"B2094654DB6BA2F8429B","title":"市光四村(南二号门)","lon":"121.53656","lat":"31.31839","category":"47","category_name":"住宅区","address":"市光四村1-68号"},{"poiid":"B2094654D56FA7FA419E","title":"香吧岛大龙虾嫩江店","lon":"121.53494","lat":"31.31447","category":"88","category_name":"海鲜酒楼","address":"杨浦区嫩江路1111号(近中原路)"},{"poiid":"B2094757D068ABF4429C","title":"民星二村","lon":"121.53406","lat":"31.31246","category":"47","category_name":"住宅区","address":"上海杨浦区"},{"poiid":"B2094751DA68A3F4419E","title":"民星中学","lon":"121.537617","lat":"31.315457","category":"55","category_name":"中学","address":null},{"poiid":"B2094757D165A0FB4292","title":"包头路夜排档","lon":"121.5369146","lat":"31.315104456","category":"247","category_name":"餐饮美食","address":"上海杨浦区包头路"},{"poiid":"B2094655D26DA5FD4593","title":"克莉丝汀 包头路店","lon":"121.538617054","lat":"31.315398793","category":"112","category_name":"糕饼店","address":"杨浦区包头路370号(近国和路)"},{"poiid":"B2094654D56FA7FA479D","title":"上海市杨浦区市光新村第一小学","lon":"121.53576","lat":"31.31777","category":"56","category_name":"小学","address":"杨浦区市光一村88号"},{"poiid":"B2094757D66DABFF439E","title":"信厚义绿色食府","lon":"121.5354771","lat":"31.316079377","category":"247","category_name":"餐饮美食","address":"上海市杨浦区三门路168号"},{"poiid":"B2094655D26CA6F8459A","title":"民星住宅小区(北二号门)","lon":"121.53914","lat":"31.31447","category":"47","category_name":"住宅区","address":"嫩江路857-867号"},{"poiid":"B2094654DB6AA3FF479B","title":"东北饭店","lon":"121.53884","lat":"31.31779","category":"82","category_name":"东北菜","address":"杨浦区国和路1203号(近包头路)"},{"poiid":"B2094757D068A2FD409E","title":"苏州汤包馆","lon":"121.5391","lat":"31.31714","category":"247","category_name":"餐饮美食","address":"上海杨浦区包头路440号(近国和路)  "},{"poiid":"B2094654D56FAAFE459B","title":"惠元新天地","lon":"121.539","lat":"31.3164","category":"47","category_name":"住宅区","address":"上海市杨浦区中原路38号"},{"poiid":"B2094757D06BA0FE4798","title":"大娘水饺(中原店)","lon":"121.53241216","lat":"31.314170167","category":"68","category_name":"快餐厅","address":"杨浦区中原路102号欧尚超市1楼(近嫩江路)"}]