[{"poiid":"B2094757D16BA6FE419A","title":"泰晤士小镇教堂","lon":"121.19427046","lat":"31.033529576","category":"500","category_name":"未知分类","address":"上海松江区三新北路900弄"},{"poiid":"B2094750D26BABF9499D","title":"松江区房地产交易中心","lon":"121.189308","lat":"31.031093","category":"252","category_name":"楼宇机构","address":"松江区文诚路1611号"},{"poiid":"B2094655D26FA2FC429F","title":"久阳文华府邸","lon":"121.19286","lat":"31.041756","category":"47","category_name":"住宅区","address":"上海市松江区新松江路2218弄"},{"poiid":"B2094757D06AA6FE449F","title":"文翔名苑","lon":"121.19104","lat":"31.045406","category":"47","category_name":"住宅区","address":"上海市松江区文翔路3088弄1号"},{"poiid":"B2094655D26FA5FD4193","title":"德邑小城","lon":"121.18315","lat":"31.038128","category":"47","category_name":"住宅区","address":"松江区新松江路文涵路路口"},{"poiid":"B2094655D36CA5F8419F","title":"辰塔路文翔路","lon":"121.18177","lat":"31.04232","category":"38","category_name":"公交车站","address":""},{"poiid":"B2094757D069AAFA449A","title":"月亮河","lon":"121.185","lat":"31.031597","category":"47","category_name":"住宅区","address":"上海市宝山区共康路169弄"},{"poiid":"B2094752D76DA5F9459D","title":"佘山森林公园","lon":"121.182821","lat":"31.039553","category":"250","category_name":"公园户外","address":"佘山镇外青松公路"},{"poiid":"B2094757D569A1FF4198","title":"恒杰·丁香花园","lon":"121.18690674","lat":"31.04389269","category":"47","category_name":"住宅区","address":"松江区三新北路1333弄"},{"poiid":"B2094757D16FA6F54193","title":"泰晤士天主堂","lon":"121.193124367","lat":"31.0340915886","category":"500","category_name":"未知分类","address":"上海泰晤士小镇"},{"poiid":"B2094655D265A5FF439A","title":"红墅1858","lon":"121.18858204606","lat":"31.039787753322","category":"47","category_name":"住宅区","address":"松江区弘翔路555弄(近辰塔路)"},{"poiid":"B2094750D665A4F8489A","title":"江南一品","lon":"121.19","lat":"31.0388","category":"76","category_name":"上海菜","address":"松江区新松江路1388号(近开元地中海)"},{"poiid":"B2094655D36CA3F9479E","title":"上泰绅苑","lon":"121.18873","lat":"31.034983","category":"47","category_name":"住宅区","address":"松江区弘翔路50号"},{"poiid":"B2094757D46EA3FB4398","title":"暮色","lon":"121.173","lat":"31.029437","category":"95","category_name":"日本料理","address":"松江区新北路900弄泰晤士小镇843号(近文诚路)"},{"poiid":"B2094752D16AA2FC439A","title":"钟书阁","lon":"121.190726","lat":"31.036103","category":"500","category_name":"未知分类","address":"泰晤士小镇"},{"poiid":"B2094655D265ABF8459C","title":"上尚缘","lon":"121.18362","lat":"31.045437","category":"47","category_name":"住宅区","address":"松江文翔路3588弄"},{"poiid":"B2094757D764A5F94598","title":"美厨玩家","lon":"121.173343054","lat":"31.029422793","category":"269","category_name":"烧烤","address":"三新北路900弄泰晤士小镇近文诚路"},{"poiid":"B2094655D26BA2FB4498","title":"松江工业区管委会(招呼站)","lon":"121.16672","lat":"31.04559","category":"38","category_name":"公交车站","address":""},{"poiid":"B2094757D568A4FC459C","title":"联华","lon":"121.1857685","lat":"31.03982205","category":"118","category_name":"超级市场","address":"文涵路887"},{"poiid":"B2094655D36DA7FF4399","title":"正泰生活区","lon":"121.18334","lat":"31.03046","category":"38","category_name":"公交车站","address":"思贤路3255号"},{"poiid":"B2094757D16AA1FD489A","title":"蓝色剑桥","lon":"121.18825","lat":"31.039139","category":"500","category_name":"未知分类","address":"上海市松江区新城新松江路2500弄"},{"poiid":"B2094752D76FAAFF4299","title":"SALO bar cafe","lon":"121.19043","lat":"31.038287","category":"247","category_name":"餐饮美食","address":"松江区三新北路900弄1007号"},{"poiid":"B2094757D66EA3FE4593","title":"弘翔烧烤","lon":"121.18681746","lat":"31.037476663","category":"247","category_name":"餐饮美食","address":"上海市松江区弘翔路"},{"poiid":"B2094655D264A7F5419B","title":"英郡别院","lon":"121.19","lat":"31.0368","category":"47","category_name":"住宅区","address":"松江区辰塔路1655弄"},{"poiid":"B2094751D56EA4F54692","title":"上海市第一人民医院南部8A","lon":"121.1824504","lat":"31.0425138","category":"627","category_name":"一般地点标志","address":"新松江路650号"},{"poiid":"B2094757D568A1F84798","title":"新城家园","lon":"121.18404","lat":"31.048071","category":"47","category_name":"住宅区","address":"上海市松江区辰塔路2588弄"},{"poiid":"B2094757D568AAFD4999","title":"联华","lon":"121.18643826","lat":"31.03423041","category":"118","category_name":"超级市场","address":"文涵路539"},{"poiid":"B2094655D26FAAFC409C","title":"安信生活广场","lon":"121.19230613625","lat":"31.034472614022","category":"201","category_name":"城市广场","address":"文诚路500弄"},{"poiid":"B2094752D36CA6F8409A","title":"钟书阁","lon":"121.186195","lat":"31.039203","category":"248","category_name":"生活娱乐","address":"三新北路九百弄930号"},{"poiid":"B2094654DB6DA4F54092","title":"浪琴水岸花园","lon":"121.18271","lat":"31.026304","category":"47","category_name":"住宅区","address":"文诚路2159弄"},{"poiid":"B2094757D064A6F4439F","title":"斐讯数据通信技术有限公司","lon":"121.16422219","lat":"31.049218069","category":"263","category_name":"公司","address":"上海广富林路4855号"},{"poiid":"B2094655D26BA2FD4593","title":"文涵路天翔路","lon":"121.18697","lat":"31.03231","category":"38","category_name":"公交车站","address":""},{"poiid":"B2094757D568A4F5419B","title":"复地翠堤苑","lon":"121.186707","lat":"31.047495","category":"47","category_name":"住宅区","address":"上海市松江区文翔路3688弄"},{"poiid":"B2094757D165A4F94399","title":"鑫钻视觉3ctStudio","lon":"121.18424846","lat":"31.033136567","category":"500","category_name":"未知分类","address":"上海市松江区辰塔路1655弄215号"},{"poiid":"B2094757D568A1F8469E","title":"华亭公寓","lon":"121.18635","lat":"31.028891","category":"47","category_name":"住宅区","address":"中国上海市松江区文诚路"},{"poiid":"B2094757D568A5FD4899","title":"联华","lon":"121.18555556","lat":"31.04495253","category":"118","category_name":"超级市场","address":"中国上海市松江区"},{"poiid":"B2094655D36CA2FB429A","title":"三新北路文翔路","lon":"121.18902","lat":"31.04521","category":"38","category_name":"公交车站","address":""},{"poiid":"B2094753DA6EA7FF4099","title":"绿地诺丁山","lon":"121.186924","lat":"31.045838","category":"47","category_name":"住宅区","address":"松江区文宇路88弄(三新北路口)"},{"poiid":"B2094655D36CA2FB429B","title":"三新北路新松江路","lon":"121.18996","lat":"31.03937","category":"38","category_name":"公交车站","address":""},{"poiid":"B2094752DA6AA6FE409A","title":"钟书阁","lon":"121.19579","lat":"31.036537","category":"500","category_name":"未知分类","address":"上海市 松江新北路900弄泰晤士小镇内"},{"poiid":"B2094757D569A2FD419D","title":"华亭新苑","lon":"121.18611084","lat":"31.02652181","category":"47","category_name":"住宅区","address":"上海松江文诚路1999弄"},{"poiid":"B2094757D169A2FC449E","title":"包玉刚实验学校 YK Pao School","lon":"121.191095067","lat":"31.0367700475","category":"253","category_name":"校园生活","address":"松江区三新北路900弄泰晤士小镇内"},{"poiid":"B2094752DA69A6FF409E","title":"泰晤士小镇钟书阁","lon":"121.190831","lat":"31.03616","category":"500","category_name":"未知分类","address":"上海市 泰晤士小镇钟书阁"},{"poiid":"B2094757D169A3F54399","title":"启东－吕四","lon":"121.186027367","lat":"31.0451395313","category":"500","category_name":"未知分类","address":"上海启东－吕四"},{"poiid":"B2094654DB6DA4FE409F","title":"台积电(上海)有限公司(十厂)","lon":"121.15668","lat":"31.04168","category":"263","category_name":"公司","address":""},{"poiid":"B2094655D36CA2FB4192","title":"三新北路天翔路","lon":"121.19086","lat":"31.03321","category":"38","category_name":"公交车站","address":""},{"poiid":"B2094757D568A2F5439E","title":"学苑宾馆","lon":"121.18842475","lat":"31.05353543","category":"251","category_name":"出行住宿","address":"松江区广富林路3499号(三新北路口)"},{"poiid":"B2094655D36CA2FB429D","title":"三新路新松江路","lon":"121.19259","lat":"31.03878","category":"38","category_name":"公交车站","address":""},{"poiid":"B2094757D169A1FB4492","title":"Rose Bar","lon":"121.19528","lat":"31.03301","category":"260","category_name":"其他","address":"松江区新北路900弄泰晤士小镇817号"},{"poiid":"B2094654DB69A6FC489E","title":"原野花园","lon":"121.19029","lat":"31.026768","category":"47","category_name":"住宅区","address":"上海市松江区文诚路1777弄"},{"poiid":"B2094757D16BA6FE419A","title":"泰晤士小镇教堂","lon":"121.19427046","lat":"31.033529576","category":"500","category_name":"未知分类","address":"上海松江区三新北路900弄"},{"poiid":"B2094750D26BABF9499D","title":"松江区房地产交易中心","lon":"121.189308","lat":"31.031093","category":"252","category_name":"楼宇机构","address":"松江区文诚路1611号"},{"poiid":"B2094655D26FA2FC429F","title":"久阳文华府邸","lon":"121.19286","lat":"31.041756","category":"47","category_name":"住宅区","address":"上海市松江区新松江路2218弄"},{"poiid":"B2094757D06AA6FE449F","title":"文翔名苑","lon":"121.19104","lat":"31.045406","category":"47","category_name":"住宅区","address":"上海市松江区文翔路3088弄1号"},{"poiid":"B2094655D26FA5FD4193","title":"德邑小城","lon":"121.18315","lat":"31.038128","category":"47","category_name":"住宅区","address":"松江区新松江路文涵路路口"},{"poiid":"B2094655D36CA5F8419F","title":"辰塔路文翔路","lon":"121.18177","lat":"31.04232","category":"38","category_name":"公交车站","address":""},{"poiid":"B2094757D069AAFA449A","title":"月亮河","lon":"121.185","lat":"31.031597","category":"47","category_name":"住宅区","address":"上海市宝山区共康路169弄"},{"poiid":"B2094752D76DA5F9459D","title":"佘山森林公园","lon":"121.182821","lat":"31.039553","category":"250","category_name":"公园户外","address":"佘山镇外青松公路"},{"poiid":"B2094757D569A1FF4198","title":"恒杰·丁香花园","lon":"121.18690674","lat":"31.04389269","category":"47","category_name":"住宅区","address":"松江区三新北路1333弄"},{"poiid":"B2094757D16FA6F54193","title":"泰晤士天主堂","lon":"121.193124367","lat":"31.0340915886","category":"500","category_name":"未知分类","address":"上海泰晤士小镇"},{"poiid":"B2094655D265A5FF439A","title":"红墅1858","lon":"121.18858204606","lat":"31.039787753322","category":"47","category_name":"住宅区","address":"松江区弘翔路555弄(近辰塔路)"},{"poiid":"B2094750D665A4F8489A","title":"江南一品","lon":"121.19","lat":"31.0388","category":"76","category_name":"上海菜","address":"松江区新松江路1388号(近开元地中海)"},{"poiid":"B2094655D36CA3F9479E","title":"上泰绅苑","lon":"121.18873","lat":"31.034983","category":"47","category_name":"住宅区","address":"松江区弘翔路50号"},{"poiid":"B2094757D46EA3FB4398","title":"暮色","lon":"121.173","lat":"31.029437","category":"95","category_name":"日本料理","address":"松江区新北路900弄泰晤士小镇843号(近文诚路)"},{"poiid":"B2094752D16AA2FC439A","title":"钟书阁","lon":"121.190726","lat":"31.036103","category":"500","category_name":"未知分类","address":"泰晤士小镇"},{"poiid":"B2094655D265ABF8459C","title":"上尚缘","lon":"121.18362","lat":"31.045437","category":"47","category_name":"住宅区","address":"松江文翔路3588弄"},{"poiid":"B2094757D764A5F94598","title":"美厨玩家","lon":"121.173343054","lat":"31.029422793","category":"269","category_name":"烧烤","address":"三新北路900弄泰晤士小镇近文诚路"},{"poiid":"B2094655D26BA2FB4498","title":"松江工业区管委会(招呼站)","lon":"121.16672","lat":"31.04559","category":"38","category_name":"公交车站","address":""},{"poiid":"B2094757D568A4FC459C","title":"联华","lon":"121.1857685","lat":"31.03982205","category":"118","category_name":"超级市场","address":"文涵路887"},{"poiid":"B2094655D36DA7FF4399","title":"正泰生活区","lon":"121.18334","lat":"31.03046","category":"38","category_name":"公交车站","address":"思贤路3255号"},{"poiid":"B2094757D16AA1FD489A","title":"蓝色剑桥","lon":"121.18825","lat":"31.039139","category":"500","category_name":"未知分类","address":"上海市松江区新城新松江路2500弄"},{"poiid":"B2094752D76FAAFF4299","title":"SALO bar cafe","lon":"121.19043","lat":"31.038287","category":"247","category_name":"餐饮美食","address":"松江区三新北路900弄1007号"},{"poiid":"B2094757D66EA3FE4593","title":"弘翔烧烤","lon":"121.18681746","lat":"31.037476663","category":"247","category_name":"餐饮美食","address":"上海市松江区弘翔路"},{"poiid":"B2094655D264A7F5419B","title":"英郡别院","lon":"121.19","lat":"31.0368","category":"47","category_name":"住宅区","address":"松江区辰塔路1655弄"},{"poiid":"B2094751D56EA4F54692","title":"上海市第一人民医院南部8A","lon":"121.1824504","lat":"31.0425138","category":"627","category_name":"一般地点标志","address":"新松江路650号"},{"poiid":"B2094757D568A1F84798","title":"新城家园","lon":"121.18404","lat":"31.048071","category":"47","category_name":"住宅区","address":"上海市松江区辰塔路2588弄"},{"poiid":"B2094757D568AAFD4999","title":"联华","lon":"121.18643826","lat":"31.03423041","category":"118","category_name":"超级市场","address":"文涵路539"},{"poiid":"B2094655D26FAAFC409C","title":"安信生活广场","lon":"121.19230613625","lat":"31.034472614022","category":"201","category_name":"城市广场","address":"文诚路500弄"},{"poiid":"B2094752D36CA6F8409A","title":"钟书阁","lon":"121.186195","lat":"31.039203","category":"248","category_name":"生活娱乐","address":"三新北路九百弄930号"},{"poiid":"B2094654DB6DA4F54092","title":"浪琴水岸花园","lon":"121.18271","lat":"31.026304","category":"47","category_name":"住宅区","address":"文诚路2159弄"},{"poiid":"B2094757D064A6F4439F","title":"斐讯数据通信技术有限公司","lon":"121.16422219","lat":"31.049218069","category":"263","category_name":"公司","address":"上海广富林路4855号"},{"poiid":"B2094655D26BA2FD4593","title":"文涵路天翔路","lon":"121.18697","lat":"31.03231","category":"38","category_name":"公交车站","address":""},{"poiid":"B2094757D568A4F5419B","title":"复地翠堤苑","lon":"121.186707","lat":"31.047495","category":"47","category_name":"住宅区","address":"上海市松江区文翔路3688弄"},{"poiid":"B2094757D165A4F94399","title":"鑫钻视觉3ctStudio","lon":"121.18424846","lat":"31.033136567","category":"500","category_name":"未知分类","address":"上海市松江区辰塔路1655弄215号"},{"poiid":"B2094757D568A1F8469E","title":"华亭公寓","lon":"121.18635","lat":"31.028891","category":"47","category_name":"住宅区","address":"中国上海市松江区文诚路"},{"poiid":"B2094757D568A5FD4899","title":"联华","lon":"121.18555556","lat":"31.04495253","category":"118","category_name":"超级市场","address":"中国上海市松江区"},{"poiid":"B2094655D36CA2FB429A","title":"三新北路文翔路","lon":"121.18902","lat":"31.04521","category":"38","category_name":"公交车站","address":""},{"poiid":"B2094753DA6EA7FF4099","title":"绿地诺丁山","lon":"121.186924","lat":"31.045838","category":"47","category_name":"住宅区","address":"松江区文宇路88弄(三新北路口)"},{"poiid":"B2094655D36CA2FB429B","title":"三新北路新松江路","lon":"121.18996","lat":"31.03937","category":"38","category_name":"公交车站","address":""},{"poiid":"B2094752DA6AA6FE409A","title":"钟书阁","lon":"121.19579","lat":"31.036537","category":"500","category_name":"未知分类","address":"上海市 松江新北路900弄泰晤士小镇内"},{"poiid":"B2094757D569A2FD419D","title":"华亭新苑","lon":"121.18611084","lat":"31.02652181","category":"47","category_name":"住宅区","address":"上海松江文诚路1999弄"},{"poiid":"B2094757D169A2FC449E","title":"包玉刚实验学校 YK Pao School","lon":"121.191095067","lat":"31.0367700475","category":"253","category_name":"校园生活","address":"松江区三新北路900弄泰晤士小镇内"},{"poiid":"B2094752DA69A6FF409E","title":"泰晤士小镇钟书阁","lon":"121.190831","lat":"31.03616","category":"500","category_name":"未知分类","address":"上海市 泰晤士小镇钟书阁"},{"poiid":"B2094757D169A3F54399","title":"启东－吕四","lon":"121.186027367","lat":"31.0451395313","category":"500","category_name":"未知分类","address":"上海启东－吕四"},{"poiid":"B2094654DB6DA4FE409F","title":"台积电(上海)有限公司(十厂)","lon":"121.15668","lat":"31.04168","category":"263","category_name":"公司","address":""},{"poiid":"B2094655D36CA2FB4192","title":"三新北路天翔路","lon":"121.19086","lat":"31.03321","category":"38","category_name":"公交车站","address":""},{"poiid":"B2094757D568A2F5439E","title":"学苑宾馆","lon":"121.18842475","lat":"31.05353543","category":"251","category_name":"出行住宿","address":"松江区广富林路3499号(三新北路口)"},{"poiid":"B2094655D36CA2FB429D","title":"三新路新松江路","lon":"121.19259","lat":"31.03878","category":"38","category_name":"公交车站","address":""},{"poiid":"B2094757D169A1FB4492","title":"Rose Bar","lon":"121.19528","lat":"31.03301","category":"260","category_name":"其他","address":"松江区新北路900弄泰晤士小镇817号"},{"poiid":"B2094654DB69A6FC489E","title":"原野花园","lon":"121.19029","lat":"31.026768","category":"47","category_name":"住宅区","address":"上海市松江区文诚路1777弄"}]