[{"poiid":"B2094757D06FA0F84492","title":"旗忠驾校训练基地","lon":"121.358043","lat":"31.059896","category":"500","category_name":"未知分类","address":"闵行区颛桥光华路2118号(近旗忠村)"},{"poiid":"B2094757D068A7FD469E","title":"得丘园商务会所","lon":"121.371446","lat":"31.077766","category":"217","category_name":"旅馆招待所","address":"闵行区申富路788号"},{"poiid":"B2094757D168A0FF409D","title":"上海市检察官培训中心","lon":"121.361431324","lat":"31.0568952328","category":"500","category_name":"未知分类","address":"上海闵行区昆阳路光华路"},{"poiid":"B2094757D069A3FD479A","title":"莘庄工业园","lon":"121.37200164","lat":"31.077205658","category":"46","category_name":"楼宇","address":"上海市闵行区申富路789号"},{"poiid":"B2094757D06AA6FD499B","title":"莘庄工业区","lon":"121.37030585","lat":"31.066487691","category":"500","category_name":"未知分类","address":"上海市闵行区莘庄工业区"},{"poiid":"B2094655D36CA7F5439B","title":"光华路华西路","lon":"121.36608","lat":"31.06242","category":"38","category_name":"公交车站","address":""},{"poiid":"B2094655D26FA3F4409A","title":"春华苑","lon":"121.35646","lat":"31.07574","category":"47","category_name":"住宅区","address":"虹梅南路126弄1-23号"},{"poiid":"B2094654DB6EA0F8469E","title":"上海市机动车驾驶员第一培训学校","lon":"121.35804","lat":"31.0599","category":"192","category_name":"驾校","address":"光华路2118"},{"poiid":"B2094654DB6EA0F94398","title":"上海莘闵高科技园区","lon":"121.36937","lat":"31.06384","category":"45","category_name":"产业园区","address":"光华路1508"},{"poiid":"B2094655D36CA5F9479A","title":"长岛别墅","lon":"121.365","lat":"31.0565","category":"47","category_name":"住宅区","address":"上海市闵行区昆阳北路3558号"},{"poiid":"B2094655D36CA7FC469B","title":"华宁路颛兴路","lon":"121.37441","lat":"31.06025","category":"38","category_name":"公交车站","address":""},{"poiid":"B2094654DB6AA1FA4693","title":"鑫都城柳岸人家","lon":"121.371","lat":"31.0623","category":"47","category_name":"住宅区","address":"闵行区颛兴路748弄"},{"poiid":"B2094654DB6EA0F94399","title":"上海笙翔商标织造有限公司","lon":"121.36869","lat":"31.06314","category":"263","category_name":"公司","address":"光华路1599"},{"poiid":"B2094654DB6EA0F54998","title":"上海天为经济城光中路工业小区","lon":"121.37007","lat":"31.06653","category":"47","category_name":"住宅区","address":"华宁路4018弄58号"},{"poiid":"B2094654DB6EA0F84992","title":"上海旗忠高尔夫俱乐部","lon":"121.35407","lat":"31.05601","category":"76","category_name":"上海菜","address":"闵行区昆阳北路3888号旗忠高尔夫俱乐部内"},{"poiid":"B2094654DB6EA7FF4199","title":"上海昆杰五金工具有限公司","lon":"121.36885","lat":"31.05998","category":"263","category_name":"公司","address":"华宁路3740弄198号"},{"poiid":"B2094757D06AA0FB469C","title":"华宁路","lon":"121.373209","lat":"31.064894","category":"500","category_name":"未知分类","address":"上海华宁路"},{"poiid":"B2094655D26FA3F5429B","title":"春华苑(东南门)","lon":"121.36051","lat":"31.06982","category":"47","category_name":"住宅区","address":""},{"poiid":"B2094757D065A3FC479B","title":"奥特斯(中国)有限公司","lon":"121.367153","lat":"31.072211","category":"249","category_name":"购物服务","address":"上海闵行区金都路5000号"},{"poiid":"B2094654DB6EA0F9439A","title":"欧纷泰化工(上海)有限公司","lon":"121.37168","lat":"31.06461","category":"263","category_name":"公司","address":"光华路1258"},{"poiid":"B2094655D26FA3F44792","title":"长岛别墅(东门)","lon":"121.35848","lat":"31.0506","category":"47","category_name":"住宅区","address":"昆阳路3558弄"},{"poiid":"B2094655D36DA6FC459F","title":"颛兴路华宁路","lon":"121.37616","lat":"31.06009","category":"38","category_name":"公交车站","address":""},{"poiid":"B2094654DB6EA7FE4992","title":"仙泰研发中心","lon":"121.37126","lat":"31.05878","category":"263","category_name":"公司","address":"颛兴路1688"},{"poiid":"B2094655D36CA2FE499B","title":"旗忠驾驶培训部","lon":"121.35686","lat":"31.05934","category":"38","category_name":"公交车站","address":""},{"poiid":"B2094654DB6EA7FF429B","title":"上海虹桥工业气体供应站","lon":"121.37206","lat":"31.06223","category":"248","category_name":"生活娱乐","address":"陆磊路188号"},{"poiid":"B2094757D568A0F4499B","title":"上海市公安局交巡警总队车辆管理所第六考试场","lon":"121.35805556","lat":"31.05991428","category":"192","category_name":"驾校","address":"中国上海市闵行区光华路"},{"poiid":"B2094757D06BAAFE479C","title":"中航光电子","lon":"121.375292","lat":"31.058092","category":"500","category_name":"未知分类","address":"上海华宁路3388号"},{"poiid":"B2094654DB6EA7FF4099","title":"吉多瑞工具贸易(上海)有限公司","lon":"121.37286","lat":"31.06043","category":"263","category_name":"公司","address":"华宁路3700弄76号"},{"poiid":"B2094654DB6EA0F9419B","title":"中房森林","lon":"121.366367","lat":"31.05283","category":"47","category_name":"住宅区","address":"上海市闵行区昆阳路3388号"},{"poiid":"B2094654DB6EA6FC409A","title":"上海莘闵科技创业园","lon":"121.37053","lat":"31.07306","category":"45","category_name":"产业园区","address":"金都路4299"},{"poiid":"B2094654DB6EA7F54993","title":"上海市地方税务局闵行分局第十三税务所","lon":"121.36699","lat":"31.07168","category":"250","category_name":"公园户外","address":"金都路5119号"},{"poiid":"B2094654DB6EA7FF4299","title":"上海纳杰电气成套有限公司","lon":"121.35927","lat":"31.06017","category":"263","category_name":"公司","address":""},{"poiid":"B2094654DB6EA0F84999","title":"金都派出所","lon":"121.36698","lat":"31.07169","category":"609","category_name":"警察局","address":"闵行区金都路5115号"},{"poiid":"B2094654DB6EA7F54992","title":"闵行区国家税务局第十三税务所","lon":"121.36698","lat":"31.07169","category":"250","category_name":"公园户外","address":"金都路5119号"},{"poiid":"B2094757D168A0F4499E","title":"上海橙果摄影","lon":"121.350372831","lat":"31.0674696757","category":"500","category_name":"未知分类","address":"松江区申港路518号(申徐路申忠路间)查看地图"},{"poiid":"B2094757D16AA0FB479B","title":"思源电气","lon":"121.371136","lat":"31.071769","category":"249","category_name":"购物服务","address":"上海华宁路3399号"},{"poiid":"B2094654DB6EA7FF489F","title":"上海旗忠高尔夫俱乐部练习场","lon":"121.35676","lat":"31.05476","category":"206","category_name":"高尔夫相关","address":"闵行区昆阳北路3888号"},{"poiid":"B2094757D164A6FA499C","title":"森林溪谷","lon":"121.36144485","lat":"31.049821358","category":"47","category_name":"住宅区","address":"闵行区昆阳路3388弄105号"},{"poiid":"B2094757D16FABFA469F","title":"小白宫酒店","lon":"121.36136","lat":"31.08055","category":"76","category_name":"上海菜","address":"闵行区银都西路333号(近申南三路)"},{"poiid":"B2094654DB6EA7F5499D","title":"中国船舶重工集团公司第七二六研究所","lon":"121.36428","lat":"31.0711","category":"191","category_name":"科研机构","address":"金都路5200号"},{"poiid":"B2094654DB6EA6FC409D","title":"上海思源电气股份有限公司","lon":"121.37113","lat":"31.07177","category":"263","category_name":"公司","address":"金都路4399号"},{"poiid":"B2094654DB6EA6FC429A","title":"喜利得(上海)有限公司","lon":"121.37089","lat":"31.07037","category":"263","category_name":"公司","address":"申南路1528"},{"poiid":"B2094757D164A6FF4092","title":"上海紫泉标签有限公司","lon":"121.37610089","lat":"31.060194433","category":"263","category_name":"公司","address":"上海市闵行区颛兴路1288号"},{"poiid":"B2094655D26DA6FD4599","title":"AT &&&& S","lon":"121.36715","lat":"31.07221","category":"263","category_name":"公司","address":"金都路5000"},{"poiid":"B2094757D66FA1F5459C","title":"奥特斯中国有限公司索迪斯食堂","lon":"121.36702985","lat":"31.07242781","category":"500","category_name":"未知分类","address":"上海市闵行区金都路5000号"},{"poiid":"B2094655D26BABFE4799","title":"上海人济酒店","lon":"121.36378","lat":"31.04834","category":"214","category_name":"四星级宾馆","address":"闵行区昆阳路3558弄(近旗忠高尔夫球场)"},{"poiid":"B2094757D16FA0FE449C","title":"颛桥税务局","lon":"121.354688857","lat":"31.0625376123","category":"500","category_name":"未知分类","address":"上海市闵行区联农路"},{"poiid":"B2094655D264A4FC4392","title":"奥特斯","lon":"121.36716","lat":"31.07221","category":"248","category_name":"生活娱乐","address":"金都路5000号"},{"poiid":"B2094654DB6EABFD469F","title":"长江科技工业园区","lon":"121.38092","lat":"31.06733","category":"45","category_name":"产业园区","address":"光华路888号"},{"poiid":"B2094757DB6DA6FA4993","title":"上海得丘花园酒店","lon":"121.372009","lat":"31.078146","category":"214","category_name":"四星级宾馆","address":"上海市闵行区申富路788号(近中春路)"},{"poiid":"B2094757D06FA0F84492","title":"旗忠驾校训练基地","lon":"121.358043","lat":"31.059896","category":"500","category_name":"未知分类","address":"闵行区颛桥光华路2118号(近旗忠村)"},{"poiid":"B2094757D068A7FD469E","title":"得丘园商务会所","lon":"121.371446","lat":"31.077766","category":"217","category_name":"旅馆招待所","address":"闵行区申富路788号"},{"poiid":"B2094757D168A0FF409D","title":"上海市检察官培训中心","lon":"121.361431324","lat":"31.0568952328","category":"500","category_name":"未知分类","address":"上海闵行区昆阳路光华路"},{"poiid":"B2094757D069A3FD479A","title":"莘庄工业园","lon":"121.37200164","lat":"31.077205658","category":"46","category_name":"楼宇","address":"上海市闵行区申富路789号"},{"poiid":"B2094757D06AA6FD499B","title":"莘庄工业区","lon":"121.37030585","lat":"31.066487691","category":"500","category_name":"未知分类","address":"上海市闵行区莘庄工业区"},{"poiid":"B2094655D36CA7F5439B","title":"光华路华西路","lon":"121.36608","lat":"31.06242","category":"38","category_name":"公交车站","address":""},{"poiid":"B2094655D26FA3F4409A","title":"春华苑","lon":"121.35646","lat":"31.07574","category":"47","category_name":"住宅区","address":"虹梅南路126弄1-23号"},{"poiid":"B2094654DB6EA0F8469E","title":"上海市机动车驾驶员第一培训学校","lon":"121.35804","lat":"31.0599","category":"192","category_name":"驾校","address":"光华路2118"},{"poiid":"B2094654DB6EA0F94398","title":"上海莘闵高科技园区","lon":"121.36937","lat":"31.06384","category":"45","category_name":"产业园区","address":"光华路1508"},{"poiid":"B2094655D36CA5F9479A","title":"长岛别墅","lon":"121.365","lat":"31.0565","category":"47","category_name":"住宅区","address":"上海市闵行区昆阳北路3558号"},{"poiid":"B2094655D36CA7FC469B","title":"华宁路颛兴路","lon":"121.37441","lat":"31.06025","category":"38","category_name":"公交车站","address":""},{"poiid":"B2094654DB6AA1FA4693","title":"鑫都城柳岸人家","lon":"121.371","lat":"31.0623","category":"47","category_name":"住宅区","address":"闵行区颛兴路748弄"},{"poiid":"B2094654DB6EA0F94399","title":"上海笙翔商标织造有限公司","lon":"121.36869","lat":"31.06314","category":"263","category_name":"公司","address":"光华路1599"},{"poiid":"B2094654DB6EA0F54998","title":"上海天为经济城光中路工业小区","lon":"121.37007","lat":"31.06653","category":"47","category_name":"住宅区","address":"华宁路4018弄58号"},{"poiid":"B2094654DB6EA0F84992","title":"上海旗忠高尔夫俱乐部","lon":"121.35407","lat":"31.05601","category":"76","category_name":"上海菜","address":"闵行区昆阳北路3888号旗忠高尔夫俱乐部内"},{"poiid":"B2094654DB6EA7FF4199","title":"上海昆杰五金工具有限公司","lon":"121.36885","lat":"31.05998","category":"263","category_name":"公司","address":"华宁路3740弄198号"},{"poiid":"B2094757D06AA0FB469C","title":"华宁路","lon":"121.373209","lat":"31.064894","category":"500","category_name":"未知分类","address":"上海华宁路"},{"poiid":"B2094655D26FA3F5429B","title":"春华苑(东南门)","lon":"121.36051","lat":"31.06982","category":"47","category_name":"住宅区","address":""},{"poiid":"B2094757D065A3FC479B","title":"奥特斯(中国)有限公司","lon":"121.367153","lat":"31.072211","category":"249","category_name":"购物服务","address":"上海闵行区金都路5000号"},{"poiid":"B2094654DB6EA0F9439A","title":"欧纷泰化工(上海)有限公司","lon":"121.37168","lat":"31.06461","category":"263","category_name":"公司","address":"光华路1258"},{"poiid":"B2094655D26FA3F44792","title":"长岛别墅(东门)","lon":"121.35848","lat":"31.0506","category":"47","category_name":"住宅区","address":"昆阳路3558弄"},{"poiid":"B2094655D36DA6FC459F","title":"颛兴路华宁路","lon":"121.37616","lat":"31.06009","category":"38","category_name":"公交车站","address":""},{"poiid":"B2094654DB6EA7FE4992","title":"仙泰研发中心","lon":"121.37126","lat":"31.05878","category":"263","category_name":"公司","address":"颛兴路1688"},{"poiid":"B2094655D36CA2FE499B","title":"旗忠驾驶培训部","lon":"121.35686","lat":"31.05934","category":"38","category_name":"公交车站","address":""},{"poiid":"B2094654DB6EA7FF429B","title":"上海虹桥工业气体供应站","lon":"121.37206","lat":"31.06223","category":"248","category_name":"生活娱乐","address":"陆磊路188号"},{"poiid":"B2094757D568A0F4499B","title":"上海市公安局交巡警总队车辆管理所第六考试场","lon":"121.35805556","lat":"31.05991428","category":"192","category_name":"驾校","address":"中国上海市闵行区光华路"},{"poiid":"B2094757D06BAAFE479C","title":"中航光电子","lon":"121.375292","lat":"31.058092","category":"500","category_name":"未知分类","address":"上海华宁路3388号"},{"poiid":"B2094654DB6EA7FF4099","title":"吉多瑞工具贸易(上海)有限公司","lon":"121.37286","lat":"31.06043","category":"263","category_name":"公司","address":"华宁路3700弄76号"},{"poiid":"B2094654DB6EA0F9419B","title":"中房森林","lon":"121.366367","lat":"31.05283","category":"47","category_name":"住宅区","address":"上海市闵行区昆阳路3388号"},{"poiid":"B2094654DB6EA6FC409A","title":"上海莘闵科技创业园","lon":"121.37053","lat":"31.07306","category":"45","category_name":"产业园区","address":"金都路4299"},{"poiid":"B2094654DB6EA7F54993","title":"上海市地方税务局闵行分局第十三税务所","lon":"121.36699","lat":"31.07168","category":"250","category_name":"公园户外","address":"金都路5119号"},{"poiid":"B2094654DB6EA7FF4299","title":"上海纳杰电气成套有限公司","lon":"121.35927","lat":"31.06017","category":"263","category_name":"公司","address":""},{"poiid":"B2094654DB6EA0F84999","title":"金都派出所","lon":"121.36698","lat":"31.07169","category":"609","category_name":"警察局","address":"闵行区金都路5115号"},{"poiid":"B2094654DB6EA7F54992","title":"闵行区国家税务局第十三税务所","lon":"121.36698","lat":"31.07169","category":"250","category_name":"公园户外","address":"金都路5119号"},{"poiid":"B2094757D168A0F4499E","title":"上海橙果摄影","lon":"121.350372831","lat":"31.0674696757","category":"500","category_name":"未知分类","address":"松江区申港路518号(申徐路申忠路间)查看地图"},{"poiid":"B2094757D16AA0FB479B","title":"思源电气","lon":"121.371136","lat":"31.071769","category":"249","category_name":"购物服务","address":"上海华宁路3399号"},{"poiid":"B2094654DB6EA7FF489F","title":"上海旗忠高尔夫俱乐部练习场","lon":"121.35676","lat":"31.05476","category":"206","category_name":"高尔夫相关","address":"闵行区昆阳北路3888号"},{"poiid":"B2094757D164A6FA499C","title":"森林溪谷","lon":"121.36144485","lat":"31.049821358","category":"47","category_name":"住宅区","address":"闵行区昆阳路3388弄105号"},{"poiid":"B2094757D16FABFA469F","title":"小白宫酒店","lon":"121.36136","lat":"31.08055","category":"76","category_name":"上海菜","address":"闵行区银都西路333号(近申南三路)"},{"poiid":"B2094654DB6EA7F5499D","title":"中国船舶重工集团公司第七二六研究所","lon":"121.36428","lat":"31.0711","category":"191","category_name":"科研机构","address":"金都路5200号"},{"poiid":"B2094654DB6EA6FC409D","title":"上海思源电气股份有限公司","lon":"121.37113","lat":"31.07177","category":"263","category_name":"公司","address":"金都路4399号"},{"poiid":"B2094654DB6EA6FC429A","title":"喜利得(上海)有限公司","lon":"121.37089","lat":"31.07037","category":"263","category_name":"公司","address":"申南路1528"},{"poiid":"B2094757D164A6FF4092","title":"上海紫泉标签有限公司","lon":"121.37610089","lat":"31.060194433","category":"263","category_name":"公司","address":"上海市闵行区颛兴路1288号"},{"poiid":"B2094655D26DA6FD4599","title":"AT &&&& S","lon":"121.36715","lat":"31.07221","category":"263","category_name":"公司","address":"金都路5000"},{"poiid":"B2094757D66FA1F5459C","title":"奥特斯中国有限公司索迪斯食堂","lon":"121.36702985","lat":"31.07242781","category":"500","category_name":"未知分类","address":"上海市闵行区金都路5000号"},{"poiid":"B2094655D26BABFE4799","title":"上海人济酒店","lon":"121.36378","lat":"31.04834","category":"214","category_name":"四星级宾馆","address":"闵行区昆阳路3558弄(近旗忠高尔夫球场)"},{"poiid":"B2094757D16FA0FE449C","title":"颛桥税务局","lon":"121.354688857","lat":"31.0625376123","category":"500","category_name":"未知分类","address":"上海市闵行区联农路"},{"poiid":"B2094655D264A4FC4392","title":"奥特斯","lon":"121.36716","lat":"31.07221","category":"248","category_name":"生活娱乐","address":"金都路5000号"},{"poiid":"B2094654DB6EABFD469F","title":"长江科技工业园区","lon":"121.38092","lat":"31.06733","category":"45","category_name":"产业园区","address":"光华路888号"},{"poiid":"B2094757DB6DA6FA4993","title":"上海得丘花园酒店","lon":"121.372009","lat":"31.078146","category":"214","category_name":"四星级宾馆","address":"上海市闵行区申富路788号(近中春路)"},{"poiid":"B2094757D06FA0F84492","title":"旗忠驾校训练基地","lon":"121.358043","lat":"31.059896","category":"500","category_name":"未知分类","address":"闵行区颛桥光华路2118号(近旗忠村)"},{"poiid":"B2094757D068A7FD469E","title":"得丘园商务会所","lon":"121.371446","lat":"31.077766","category":"217","category_name":"旅馆招待所","address":"闵行区申富路788号"},{"poiid":"B2094757D168A0FF409D","title":"上海市检察官培训中心","lon":"121.361431324","lat":"31.0568952328","category":"500","category_name":"未知分类","address":"上海闵行区昆阳路光华路"},{"poiid":"B2094757D069A3FD479A","title":"莘庄工业园","lon":"121.37200164","lat":"31.077205658","category":"46","category_name":"楼宇","address":"上海市闵行区申富路789号"},{"poiid":"B2094757D06AA6FD499B","title":"莘庄工业区","lon":"121.37030585","lat":"31.066487691","category":"500","category_name":"未知分类","address":"上海市闵行区莘庄工业区"},{"poiid":"B2094655D36CA7F5439B","title":"光华路华西路","lon":"121.36608","lat":"31.06242","category":"38","category_name":"公交车站","address":""},{"poiid":"B2094655D26FA3F4409A","title":"春华苑","lon":"121.35646","lat":"31.07574","category":"47","category_name":"住宅区","address":"虹梅南路126弄1-23号"},{"poiid":"B2094654DB6EA0F8469E","title":"上海市机动车驾驶员第一培训学校","lon":"121.35804","lat":"31.0599","category":"192","category_name":"驾校","address":"光华路2118"},{"poiid":"B2094654DB6EA0F94398","title":"上海莘闵高科技园区","lon":"121.36937","lat":"31.06384","category":"45","category_name":"产业园区","address":"光华路1508"},{"poiid":"B2094655D36CA5F9479A","title":"长岛别墅","lon":"121.365","lat":"31.0565","category":"47","category_name":"住宅区","address":"上海市闵行区昆阳北路3558号"},{"poiid":"B2094655D36CA7FC469B","title":"华宁路颛兴路","lon":"121.37441","lat":"31.06025","category":"38","category_name":"公交车站","address":""},{"poiid":"B2094654DB6AA1FA4693","title":"鑫都城柳岸人家","lon":"121.371","lat":"31.0623","category":"47","category_name":"住宅区","address":"闵行区颛兴路748弄"},{"poiid":"B2094654DB6EA0F94399","title":"上海笙翔商标织造有限公司","lon":"121.36869","lat":"31.06314","category":"263","category_name":"公司","address":"光华路1599"},{"poiid":"B2094654DB6EA0F54998","title":"上海天为经济城光中路工业小区","lon":"121.37007","lat":"31.06653","category":"47","category_name":"住宅区","address":"华宁路4018弄58号"},{"poiid":"B2094654DB6EA0F84992","title":"上海旗忠高尔夫俱乐部","lon":"121.35407","lat":"31.05601","category":"76","category_name":"上海菜","address":"闵行区昆阳北路3888号旗忠高尔夫俱乐部内"},{"poiid":"B2094654DB6EA7FF4199","title":"上海昆杰五金工具有限公司","lon":"121.36885","lat":"31.05998","category":"263","category_name":"公司","address":"华宁路3740弄198号"},{"poiid":"B2094757D06AA0FB469C","title":"华宁路","lon":"121.373209","lat":"31.064894","category":"500","category_name":"未知分类","address":"上海华宁路"},{"poiid":"B2094655D26FA3F5429B","title":"春华苑(东南门)","lon":"121.36051","lat":"31.06982","category":"47","category_name":"住宅区","address":""},{"poiid":"B2094757D065A3FC479B","title":"奥特斯(中国)有限公司","lon":"121.367153","lat":"31.072211","category":"249","category_name":"购物服务","address":"上海闵行区金都路5000号"},{"poiid":"B2094654DB6EA0F9439A","title":"欧纷泰化工(上海)有限公司","lon":"121.37168","lat":"31.06461","category":"263","category_name":"公司","address":"光华路1258"},{"poiid":"B2094655D26FA3F44792","title":"长岛别墅(东门)","lon":"121.35848","lat":"31.0506","category":"47","category_name":"住宅区","address":"昆阳路3558弄"},{"poiid":"B2094655D36DA6FC459F","title":"颛兴路华宁路","lon":"121.37616","lat":"31.06009","category":"38","category_name":"公交车站","address":""},{"poiid":"B2094654DB6EA7FE4992","title":"仙泰研发中心","lon":"121.37126","lat":"31.05878","category":"263","category_name":"公司","address":"颛兴路1688"},{"poiid":"B2094655D36CA2FE499B","title":"旗忠驾驶培训部","lon":"121.35686","lat":"31.05934","category":"38","category_name":"公交车站","address":""},{"poiid":"B2094654DB6EA7FF429B","title":"上海虹桥工业气体供应站","lon":"121.37206","lat":"31.06223","category":"248","category_name":"生活娱乐","address":"陆磊路188号"},{"poiid":"B2094757D568A0F4499B","title":"上海市公安局交巡警总队车辆管理所第六考试场","lon":"121.35805556","lat":"31.05991428","category":"192","category_name":"驾校","address":"中国上海市闵行区光华路"},{"poiid":"B2094757D06BAAFE479C","title":"中航光电子","lon":"121.375292","lat":"31.058092","category":"500","category_name":"未知分类","address":"上海华宁路3388号"},{"poiid":"B2094654DB6EA7FF4099","title":"吉多瑞工具贸易(上海)有限公司","lon":"121.37286","lat":"31.06043","category":"263","category_name":"公司","address":"华宁路3700弄76号"},{"poiid":"B2094654DB6EA0F9419B","title":"中房森林","lon":"121.366367","lat":"31.05283","category":"47","category_name":"住宅区","address":"上海市闵行区昆阳路3388号"},{"poiid":"B2094654DB6EA6FC409A","title":"上海莘闵科技创业园","lon":"121.37053","lat":"31.07306","category":"45","category_name":"产业园区","address":"金都路4299"},{"poiid":"B2094654DB6EA7F54993","title":"上海市地方税务局闵行分局第十三税务所","lon":"121.36699","lat":"31.07168","category":"250","category_name":"公园户外","address":"金都路5119号"},{"poiid":"B2094654DB6EA7FF4299","title":"上海纳杰电气成套有限公司","lon":"121.35927","lat":"31.06017","category":"263","category_name":"公司","address":""},{"poiid":"B2094654DB6EA0F84999","title":"金都派出所","lon":"121.36698","lat":"31.07169","category":"609","category_name":"警察局","address":"闵行区金都路5115号"},{"poiid":"B2094654DB6EA7F54992","title":"闵行区国家税务局第十三税务所","lon":"121.36698","lat":"31.07169","category":"250","category_name":"公园户外","address":"金都路5119号"},{"poiid":"B2094757D168A0F4499E","title":"上海橙果摄影","lon":"121.350372831","lat":"31.0674696757","category":"500","category_name":"未知分类","address":"松江区申港路518号(申徐路申忠路间)查看地图"},{"poiid":"B2094757D16AA0FB479B","title":"思源电气","lon":"121.371136","lat":"31.071769","category":"249","category_name":"购物服务","address":"上海华宁路3399号"},{"poiid":"B2094654DB6EA7FF489F","title":"上海旗忠高尔夫俱乐部练习场","lon":"121.35676","lat":"31.05476","category":"206","category_name":"高尔夫相关","address":"闵行区昆阳北路3888号"},{"poiid":"B2094757D164A6FA499C","title":"森林溪谷","lon":"121.36144485","lat":"31.049821358","category":"47","category_name":"住宅区","address":"闵行区昆阳路3388弄105号"},{"poiid":"B2094757D16FABFA469F","title":"小白宫酒店","lon":"121.36136","lat":"31.08055","category":"76","category_name":"上海菜","address":"闵行区银都西路333号(近申南三路)"},{"poiid":"B2094654DB6EA7F5499D","title":"中国船舶重工集团公司第七二六研究所","lon":"121.36428","lat":"31.0711","category":"191","category_name":"科研机构","address":"金都路5200号"},{"poiid":"B2094654DB6EA6FC409D","title":"上海思源电气股份有限公司","lon":"121.37113","lat":"31.07177","category":"263","category_name":"公司","address":"金都路4399号"},{"poiid":"B2094654DB6EA6FC429A","title":"喜利得(上海)有限公司","lon":"121.37089","lat":"31.07037","category":"263","category_name":"公司","address":"申南路1528"},{"poiid":"B2094757D164A6FF4092","title":"上海紫泉标签有限公司","lon":"121.37610089","lat":"31.060194433","category":"263","category_name":"公司","address":"上海市闵行区颛兴路1288号"},{"poiid":"B2094655D26DA6FD4599","title":"AT &&&& S","lon":"121.36715","lat":"31.07221","category":"263","category_name":"公司","address":"金都路5000"},{"poiid":"B2094757D66FA1F5459C","title":"奥特斯中国有限公司索迪斯食堂","lon":"121.36702985","lat":"31.07242781","category":"500","category_name":"未知分类","address":"上海市闵行区金都路5000号"},{"poiid":"B2094655D26BABFE4799","title":"上海人济酒店","lon":"121.36378","lat":"31.04834","category":"214","category_name":"四星级宾馆","address":"闵行区昆阳路3558弄(近旗忠高尔夫球场)"},{"poiid":"B2094757D16FA0FE449C","title":"颛桥税务局","lon":"121.354688857","lat":"31.0625376123","category":"500","category_name":"未知分类","address":"上海市闵行区联农路"},{"poiid":"B2094655D264A4FC4392","title":"奥特斯","lon":"121.36716","lat":"31.07221","category":"248","category_name":"生活娱乐","address":"金都路5000号"},{"poiid":"B2094654DB6EABFD469F","title":"长江科技工业园区","lon":"121.38092","lat":"31.06733","category":"45","category_name":"产业园区","address":"光华路888号"},{"poiid":"B2094757DB6DA6FA4993","title":"上海得丘花园酒店","lon":"121.372009","lat":"31.078146","category":"214","category_name":"四星级宾馆","address":"上海市闵行区申富路788号(近中春路)"}]