[{"poiid":"B2094655D268ABFC4692","title":"仲盛世界商城","lon":"121.394514","lat":"31.114042","category":"119","category_name":"商场","address":"上海闵行区都市路5001号(莘庄地铁站南广场)"},{"poiid":"B2094757D068A3F9449C","title":"锦江乐园摩天轮","lon":"121.39376546","lat":"31.115948008","category":"195","category_name":"游乐场","address":"上海闵行区虹梅路201号锦江乐园内"},{"poiid":"B2094757D068A2FF4792","title":"梅陇镇文化体育中心","lon":"121.40527285","lat":"31.113818638","category":"500","category_name":"未知分类","address":"闵行区高兴路108号(近莲花南路)"},{"poiid":"B2094757D16CA1FB419F","title":"江南名邸","lon":"121.39625","lat":"31.108831","category":"47","category_name":"住宅区","address":"上海市闵行区高兴路666弄"},{"poiid":"B2094757D068A3FD489A","title":"莘城公寓","lon":"121.39272","lat":"31.10881","category":"252","category_name":"楼宇机构","address":"莘城公寓位于闵行宝城路158弄(近莘朱路)"},{"poiid":"B2094757D165A1F54893","title":"绿地科技岛","lon":"121.39573209529","lat":"31.11807358381","category":"249","category_name":"购物服务","address":"闵行区广通路18号(莘建东路口)"},{"poiid":"B2094757D068A4F44893","title":"莘城苑","lon":"121.393653","lat":"31.106697","category":"47","category_name":"住宅区","address":"上海市浦东新区上南路3345号"},{"poiid":"B2094654DB69A5FF439B","title":"莫泰168连锁旅店(畹町路店)","lon":"121.39817","lat":"31.11209","category":"216","category_name":"经济型连锁酒店","address":"闵行区畹町路479号(近春申路)"},{"poiid":"B2094654DB6CAAF84593","title":"中城绿苑·西苑","lon":"121.40098","lat":"31.11277","category":"47","category_name":"住宅区","address":"上海闵行区伟业路621弄"},{"poiid":"B2094757D065A5FE479D","title":"COSTA COFFEE(兴梅路店)","lon":"121.40269185","lat":"31.106029482","category":"65","category_name":"咖啡厅","address":"闵行区兴梅路1234号春申景城裙楼(近莲花南路)"},{"poiid":"B2094757D069A5FE439A","title":"恒隆大酒店(春申店)","lon":"121.3996","lat":"31.10565","category":"76","category_name":"上海菜","address":"闵行区春申路2828号(近洱海路)"},{"poiid":"B2094757D06BA1FB4292","title":"小尾羊 春申店","lon":"121.40347","lat":"31.1068","category":"86","category_name":"火锅店","address":"春申路2688号近莲花南路"},{"poiid":"B2094655D36DA6FC449B","title":"畹町路","lon":"121.39903","lat":"31.11112","category":"38","category_name":"公交车站","address":""},{"poiid":"B2094757D068A6FC449F","title":"莘南花苑","lon":"121.403","lat":"31.1167","category":"47","category_name":"住宅区","address":"上海闵行区莘吉路畹町路"},{"poiid":"B2094654DB6CAAF9429A","title":"春申玫瑰苑(南门)","lon":"121.39797","lat":"31.10689","category":"656","category_name":"大门","address":"洱海路99弄"},{"poiid":"B2094654DB6CAAF94098","title":"上海市高兴实验学校","lon":"121.40003","lat":"31.11116","category":"55","category_name":"中学","address":"高兴路389"},{"poiid":"B2094750D66BAAF5459D","title":"塔哈尔羊蝎子火锅","lon":"121.396","lat":"31.1121","category":"86","category_name":"火锅店","address":"闵行区莘朱路751号(近莘吉路)"},{"poiid":"B2094655D26EA2F4489C","title":"常兴家园","lon":"121.39986","lat":"31.112307","category":"47","category_name":"住宅区","address":"莘朱路851弄"},{"poiid":"B2094654DB6CAAF8419E","title":"绿地春申花园","lon":"121.40632","lat":"31.110668","category":"47","category_name":"住宅区","address":"绿地春申花园位于闵行莲花南路988弄"},{"poiid":"B2094757D569A6FA479E","title":"名都新城四期","lon":"121.398","lat":"31.1148","category":"47","category_name":"住宅区","address":"上海市闵行区友情路50弄"},{"poiid":"B2094757D66CABFC439D","title":"蜀怡浓酒家","lon":"121.395901054","lat":"31.111994793","category":"71","category_name":"四川菜","address":"闵行区莘朱路763号(近畹町路)"},{"poiid":"B2094655D268A2FF4999","title":"闵行区老师进修学院附属梅陇实验学校","lon":"121.40003","lat":"31.11116","category":"55","category_name":"中学","address":"高兴路389"},{"poiid":"B2094655D26FA3FB4092","title":"中城绿苑东苑","lon":"121.40235","lat":"31.11334","category":"47","category_name":"住宅区","address":"上海市闵行区伟业路620弄"},{"poiid":"B2094655D265A0FE4099","title":"春申大厦","lon":"121.397763","lat":"31.107486","category":"46","category_name":"楼宇","address":"上海市闵行区春申路3555号"},{"poiid":"B2094655D268A2FF419C","title":"福家小菜","lon":"121.397","lat":"31.11234","category":"76","category_name":"上海菜","address":"闵行区莘朱路775号(近畹町路)"},{"poiid":"B2094655D268A4F94292","title":"莘南花苑一村(三号门)","lon":"121.39827","lat":"31.11137","category":"47","category_name":"住宅区","address":""},{"poiid":"B2094757D068A1FF409A","title":"品家都市星城","lon":"121.39611682655","lat":"31.108100694837","category":"500","category_name":"未知分类","address":"上海闵行区富都路111弄"},{"poiid":"B2094655D26FA3F44492","title":"莘南花苑二村(东门)","lon":"121.39923","lat":"31.10995","category":"47","category_name":"住宅区","address":""},{"poiid":"B2094654DB6CAAF94099","title":"上海市高兴实验学校向明中学附属学校","lon":"121.40003","lat":"31.11116","category":"55","category_name":"中学","address":"高兴路389"},{"poiid":"B2094655D36CA6FD489F","title":"高兴路伟业路","lon":"121.40148","lat":"31.11215","category":"38","category_name":"公交车站","address":""},{"poiid":"B2094654DB6CAAF8479B","title":"莘南花苑商办楼","lon":"121.39706","lat":"31.11237","category":"46","category_name":"楼宇","address":"莘朱路779"},{"poiid":"B2094757D068ABFE449C","title":"中祥哥德堡","lon":"121.392587","lat":"31.109343","category":"500","category_name":"未知分类","address":"中祥哥德堡位于闵行珠城路99弄"},{"poiid":"B2094757D169A1F84099","title":"高兴路夜排档","lon":"121.40091585","lat":"31.112363609","category":"247","category_name":"餐饮美食","address":"上海市闵行区高兴路向容路"},{"poiid":"B2094654DB6CAAFF4992","title":"莘南花园一村(2号门)","lon":"121.39698","lat":"31.11111","category":"47","category_name":"住宅区","address":""},{"poiid":"B2094757D169A6FC429A","title":"闵行区教师进修学院梅陇附校","lon":"121.39937885","lat":"31.111077583","category":"253","category_name":"校园生活","address":"上海高兴路389号"},{"poiid":"B2094654DB64A1FF4799","title":"莘南花苑二村","lon":"121.39724","lat":"31.108997","category":"47","category_name":"住宅区","address":"莘南花苑二村"},{"poiid":"B2094757D069AAF8409F","title":"五云德小笼","lon":"121.401154","lat":"31.105544","category":"68","category_name":"快餐厅","address":"闵行区畹町路万科假日广场117号104室(近春申路)"},{"poiid":"B2094757D068A4FD499D","title":"春申路A4口","lon":"121.401133","lat":"31.106997","category":"260","category_name":"其他","address":"上海春申路畹町路"},{"poiid":"B2094757D66AA0FE4499","title":"川流不息 春申店","lon":"121.401841","lat":"31.106043","category":"71","category_name":"四川菜","address":"闵行区畹町路99弄万科假日风景102室(近春申路)"},{"poiid":"B2094655D268A7FB499D","title":"莘南花苑一村(四号门)","lon":"121.39766","lat":"31.11039","category":"47","category_name":"住宅区","address":""},{"poiid":"B2094655D36DA7F4409F","title":"莘朱路莘吉路","lon":"121.39631","lat":"31.11231","category":"38","category_name":"公交车站","address":""},{"poiid":"B2094757D06AA5F94498","title":"闵行区教师进修学院","lon":"121.40003204","lat":"31.111152648","category":"253","category_name":"校园生活","address":"上海七莘路324号"},{"poiid":"B2094757D569A0FE499F","title":"名都新城三期","lon":"121.397809","lat":"31.109505","category":"47","category_name":"住宅区","address":"上海市闵行区富都路55弄"},{"poiid":"B2094757D469A5FA409C","title":"西域狼烧烤","lon":"121.4035359","lat":"31.1136709","category":"68","category_name":"快餐厅","address":"闵行区向荣路28号(近高兴路)"},{"poiid":"B2094654DB6CAAF8499E","title":"高兴花园二-四街坊(3号门)","lon":"121.40287","lat":"31.11152","category":"47","category_name":"住宅区","address":"莘朱路879弄"},{"poiid":"B2094654DB6CA4FE4492","title":"快客No.6437","lon":"121.39606","lat":"31.11237","category":"117","category_name":"便民商店/便利店","address":"莘朱路739号"},{"poiid":"B2094752D768A4F54392","title":"永和大王","lon":"121.402747","lat":"31.110914","category":"247","category_name":"餐饮美食","address":"大潤發"},{"poiid":"B2094654DB6CA4F8419D","title":"行西村西片一区私营民营企业工业小区","lon":"121.39764","lat":"31.11389","category":"47","category_name":"住宅区","address":"莘朱路816弄10号"},{"poiid":"B2094654DB6CAAF8499A","title":"闵行区梅陇镇卫生院高兴门诊部","lon":"121.40242","lat":"31.11237","category":"162","category_name":"医院","address":""},{"poiid":"B2094654DB6CAAFF499A","title":"新空间家园","lon":"121.3947","lat":"31.110685","category":"47","category_name":"住宅区","address":"上海市闵行区莘朱路651弄"},{"poiid":"B2094655D268ABFC4692","title":"仲盛世界商城","lon":"121.394514","lat":"31.114042","category":"119","category_name":"商场","address":"上海闵行区都市路5001号(莘庄地铁站南广场)"},{"poiid":"B2094757D068A3F9449C","title":"锦江乐园摩天轮","lon":"121.39376546","lat":"31.115948008","category":"195","category_name":"游乐场","address":"上海闵行区虹梅路201号锦江乐园内"},{"poiid":"B2094757D068A2FF4792","title":"梅陇镇文化体育中心","lon":"121.40527285","lat":"31.113818638","category":"500","category_name":"未知分类","address":"闵行区高兴路108号(近莲花南路)"},{"poiid":"B2094757D16CA1FB419F","title":"江南名邸","lon":"121.39625","lat":"31.108831","category":"47","category_name":"住宅区","address":"上海市闵行区高兴路666弄"},{"poiid":"B2094757D068A3FD489A","title":"莘城公寓","lon":"121.39272","lat":"31.10881","category":"252","category_name":"楼宇机构","address":"莘城公寓位于闵行宝城路158弄(近莘朱路)"},{"poiid":"B2094757D165A1F54893","title":"绿地科技岛","lon":"121.39573209529","lat":"31.11807358381","category":"249","category_name":"购物服务","address":"闵行区广通路18号(莘建东路口)"},{"poiid":"B2094757D068A4F44893","title":"莘城苑","lon":"121.393653","lat":"31.106697","category":"47","category_name":"住宅区","address":"上海市浦东新区上南路3345号"},{"poiid":"B2094654DB69A5FF439B","title":"莫泰168连锁旅店(畹町路店)","lon":"121.39817","lat":"31.11209","category":"216","category_name":"经济型连锁酒店","address":"闵行区畹町路479号(近春申路)"},{"poiid":"B2094654DB6CAAF84593","title":"中城绿苑·西苑","lon":"121.40098","lat":"31.11277","category":"47","category_name":"住宅区","address":"上海闵行区伟业路621弄"},{"poiid":"B2094757D065A5FE479D","title":"COSTA COFFEE(兴梅路店)","lon":"121.40269185","lat":"31.106029482","category":"65","category_name":"咖啡厅","address":"闵行区兴梅路1234号春申景城裙楼(近莲花南路)"},{"poiid":"B2094757D069A5FE439A","title":"恒隆大酒店(春申店)","lon":"121.3996","lat":"31.10565","category":"76","category_name":"上海菜","address":"闵行区春申路2828号(近洱海路)"},{"poiid":"B2094757D06BA1FB4292","title":"小尾羊 春申店","lon":"121.40347","lat":"31.1068","category":"86","category_name":"火锅店","address":"春申路2688号近莲花南路"},{"poiid":"B2094655D36DA6FC449B","title":"畹町路","lon":"121.39903","lat":"31.11112","category":"38","category_name":"公交车站","address":""},{"poiid":"B2094757D068A6FC449F","title":"莘南花苑","lon":"121.403","lat":"31.1167","category":"47","category_name":"住宅区","address":"上海闵行区莘吉路畹町路"},{"poiid":"B2094654DB6CAAF9429A","title":"春申玫瑰苑(南门)","lon":"121.39797","lat":"31.10689","category":"656","category_name":"大门","address":"洱海路99弄"},{"poiid":"B2094654DB6CAAF94098","title":"上海市高兴实验学校","lon":"121.40003","lat":"31.11116","category":"55","category_name":"中学","address":"高兴路389"},{"poiid":"B2094750D66BAAF5459D","title":"塔哈尔羊蝎子火锅","lon":"121.396","lat":"31.1121","category":"86","category_name":"火锅店","address":"闵行区莘朱路751号(近莘吉路)"},{"poiid":"B2094655D26EA2F4489C","title":"常兴家园","lon":"121.39986","lat":"31.112307","category":"47","category_name":"住宅区","address":"莘朱路851弄"},{"poiid":"B2094654DB6CAAF8419E","title":"绿地春申花园","lon":"121.40632","lat":"31.110668","category":"47","category_name":"住宅区","address":"绿地春申花园位于闵行莲花南路988弄"},{"poiid":"B2094757D569A6FA479E","title":"名都新城四期","lon":"121.398","lat":"31.1148","category":"47","category_name":"住宅区","address":"上海市闵行区友情路50弄"},{"poiid":"B2094757D66CABFC439D","title":"蜀怡浓酒家","lon":"121.395901054","lat":"31.111994793","category":"71","category_name":"四川菜","address":"闵行区莘朱路763号(近畹町路)"},{"poiid":"B2094655D268A2FF4999","title":"闵行区老师进修学院附属梅陇实验学校","lon":"121.40003","lat":"31.11116","category":"55","category_name":"中学","address":"高兴路389"},{"poiid":"B2094655D26FA3FB4092","title":"中城绿苑东苑","lon":"121.40235","lat":"31.11334","category":"47","category_name":"住宅区","address":"上海市闵行区伟业路620弄"},{"poiid":"B2094655D265A0FE4099","title":"春申大厦","lon":"121.397763","lat":"31.107486","category":"46","category_name":"楼宇","address":"上海市闵行区春申路3555号"},{"poiid":"B2094655D268A2FF419C","title":"福家小菜","lon":"121.397","lat":"31.11234","category":"76","category_name":"上海菜","address":"闵行区莘朱路775号(近畹町路)"},{"poiid":"B2094655D268A4F94292","title":"莘南花苑一村(三号门)","lon":"121.39827","lat":"31.11137","category":"47","category_name":"住宅区","address":""},{"poiid":"B2094757D068A1FF409A","title":"品家都市星城","lon":"121.39611682655","lat":"31.108100694837","category":"500","category_name":"未知分类","address":"上海闵行区富都路111弄"},{"poiid":"B2094655D26FA3F44492","title":"莘南花苑二村(东门)","lon":"121.39923","lat":"31.10995","category":"47","category_name":"住宅区","address":""},{"poiid":"B2094654DB6CAAF94099","title":"上海市高兴实验学校向明中学附属学校","lon":"121.40003","lat":"31.11116","category":"55","category_name":"中学","address":"高兴路389"},{"poiid":"B2094655D36CA6FD489F","title":"高兴路伟业路","lon":"121.40148","lat":"31.11215","category":"38","category_name":"公交车站","address":""},{"poiid":"B2094654DB6CAAF8479B","title":"莘南花苑商办楼","lon":"121.39706","lat":"31.11237","category":"46","category_name":"楼宇","address":"莘朱路779"},{"poiid":"B2094757D068ABFE449C","title":"中祥哥德堡","lon":"121.392587","lat":"31.109343","category":"500","category_name":"未知分类","address":"中祥哥德堡位于闵行珠城路99弄"},{"poiid":"B2094757D169A1F84099","title":"高兴路夜排档","lon":"121.40091585","lat":"31.112363609","category":"247","category_name":"餐饮美食","address":"上海市闵行区高兴路向容路"},{"poiid":"B2094654DB6CAAFF4992","title":"莘南花园一村(2号门)","lon":"121.39698","lat":"31.11111","category":"47","category_name":"住宅区","address":""},{"poiid":"B2094757D169A6FC429A","title":"闵行区教师进修学院梅陇附校","lon":"121.39937885","lat":"31.111077583","category":"253","category_name":"校园生活","address":"上海高兴路389号"},{"poiid":"B2094654DB64A1FF4799","title":"莘南花苑二村","lon":"121.39724","lat":"31.108997","category":"47","category_name":"住宅区","address":"莘南花苑二村"},{"poiid":"B2094757D069AAF8409F","title":"五云德小笼","lon":"121.401154","lat":"31.105544","category":"68","category_name":"快餐厅","address":"闵行区畹町路万科假日广场117号104室(近春申路)"},{"poiid":"B2094757D068A4FD499D","title":"春申路A4口","lon":"121.401133","lat":"31.106997","category":"260","category_name":"其他","address":"上海春申路畹町路"},{"poiid":"B2094757D66AA0FE4499","title":"川流不息 春申店","lon":"121.401841","lat":"31.106043","category":"71","category_name":"四川菜","address":"闵行区畹町路99弄万科假日风景102室(近春申路)"},{"poiid":"B2094655D268A7FB499D","title":"莘南花苑一村(四号门)","lon":"121.39766","lat":"31.11039","category":"47","category_name":"住宅区","address":""},{"poiid":"B2094655D36DA7F4409F","title":"莘朱路莘吉路","lon":"121.39631","lat":"31.11231","category":"38","category_name":"公交车站","address":""},{"poiid":"B2094757D06AA5F94498","title":"闵行区教师进修学院","lon":"121.40003204","lat":"31.111152648","category":"253","category_name":"校园生活","address":"上海七莘路324号"},{"poiid":"B2094757D569A0FE499F","title":"名都新城三期","lon":"121.397809","lat":"31.109505","category":"47","category_name":"住宅区","address":"上海市闵行区富都路55弄"},{"poiid":"B2094757D469A5FA409C","title":"西域狼烧烤","lon":"121.4035359","lat":"31.1136709","category":"68","category_name":"快餐厅","address":"闵行区向荣路28号(近高兴路)"},{"poiid":"B2094654DB6CAAF8499E","title":"高兴花园二-四街坊(3号门)","lon":"121.40287","lat":"31.11152","category":"47","category_name":"住宅区","address":"莘朱路879弄"},{"poiid":"B2094654DB6CA4FE4492","title":"快客No.6437","lon":"121.39606","lat":"31.11237","category":"117","category_name":"便民商店/便利店","address":"莘朱路739号"},{"poiid":"B2094752D768A4F54392","title":"永和大王","lon":"121.402747","lat":"31.110914","category":"247","category_name":"餐饮美食","address":"大潤發"},{"poiid":"B2094654DB6CA4F8419D","title":"行西村西片一区私营民营企业工业小区","lon":"121.39764","lat":"31.11389","category":"47","category_name":"住宅区","address":"莘朱路816弄10号"},{"poiid":"B2094654DB6CAAF8499A","title":"闵行区梅陇镇卫生院高兴门诊部","lon":"121.40242","lat":"31.11237","category":"162","category_name":"医院","address":""},{"poiid":"B2094654DB6CAAFF499A","title":"新空间家园","lon":"121.3947","lat":"31.110685","category":"47","category_name":"住宅区","address":"上海市闵行区莘朱路651弄"},{"poiid":"B2094655D268ABFC4692","title":"仲盛世界商城","lon":"121.394514","lat":"31.114042","category":"119","category_name":"商场","address":"上海闵行区都市路5001号(莘庄地铁站南广场)"},{"poiid":"B2094757D068A3F9449C","title":"锦江乐园摩天轮","lon":"121.39376546","lat":"31.115948008","category":"195","category_name":"游乐场","address":"上海闵行区虹梅路201号锦江乐园内"},{"poiid":"B2094757D068A2FF4792","title":"梅陇镇文化体育中心","lon":"121.40527285","lat":"31.113818638","category":"500","category_name":"未知分类","address":"闵行区高兴路108号(近莲花南路)"},{"poiid":"B2094757D16CA1FB419F","title":"江南名邸","lon":"121.39625","lat":"31.108831","category":"47","category_name":"住宅区","address":"上海市闵行区高兴路666弄"},{"poiid":"B2094757D068A3FD489A","title":"莘城公寓","lon":"121.39272","lat":"31.10881","category":"252","category_name":"楼宇机构","address":"莘城公寓位于闵行宝城路158弄(近莘朱路)"},{"poiid":"B2094757D165A1F54893","title":"绿地科技岛","lon":"121.39573209529","lat":"31.11807358381","category":"249","category_name":"购物服务","address":"闵行区广通路18号(莘建东路口)"},{"poiid":"B2094757D068A4F44893","title":"莘城苑","lon":"121.393653","lat":"31.106697","category":"47","category_name":"住宅区","address":"上海市浦东新区上南路3345号"},{"poiid":"B2094654DB69A5FF439B","title":"莫泰168连锁旅店(畹町路店)","lon":"121.39817","lat":"31.11209","category":"216","category_name":"经济型连锁酒店","address":"闵行区畹町路479号(近春申路)"},{"poiid":"B2094654DB6CAAF84593","title":"中城绿苑·西苑","lon":"121.40098","lat":"31.11277","category":"47","category_name":"住宅区","address":"上海闵行区伟业路621弄"},{"poiid":"B2094757D065A5FE479D","title":"COSTA COFFEE(兴梅路店)","lon":"121.40269185","lat":"31.106029482","category":"65","category_name":"咖啡厅","address":"闵行区兴梅路1234号春申景城裙楼(近莲花南路)"},{"poiid":"B2094757D069A5FE439A","title":"恒隆大酒店(春申店)","lon":"121.3996","lat":"31.10565","category":"76","category_name":"上海菜","address":"闵行区春申路2828号(近洱海路)"},{"poiid":"B2094757D06BA1FB4292","title":"小尾羊 春申店","lon":"121.40347","lat":"31.1068","category":"86","category_name":"火锅店","address":"春申路2688号近莲花南路"},{"poiid":"B2094655D36DA6FC449B","title":"畹町路","lon":"121.39903","lat":"31.11112","category":"38","category_name":"公交车站","address":""},{"poiid":"B2094757D068A6FC449F","title":"莘南花苑","lon":"121.403","lat":"31.1167","category":"47","category_name":"住宅区","address":"上海闵行区莘吉路畹町路"},{"poiid":"B2094654DB6CAAF9429A","title":"春申玫瑰苑(南门)","lon":"121.39797","lat":"31.10689","category":"656","category_name":"大门","address":"洱海路99弄"},{"poiid":"B2094654DB6CAAF94098","title":"上海市高兴实验学校","lon":"121.40003","lat":"31.11116","category":"55","category_name":"中学","address":"高兴路389"},{"poiid":"B2094750D66BAAF5459D","title":"塔哈尔羊蝎子火锅","lon":"121.396","lat":"31.1121","category":"86","category_name":"火锅店","address":"闵行区莘朱路751号(近莘吉路)"},{"poiid":"B2094655D26EA2F4489C","title":"常兴家园","lon":"121.39986","lat":"31.112307","category":"47","category_name":"住宅区","address":"莘朱路851弄"},{"poiid":"B2094654DB6CAAF8419E","title":"绿地春申花园","lon":"121.40632","lat":"31.110668","category":"47","category_name":"住宅区","address":"绿地春申花园位于闵行莲花南路988弄"},{"poiid":"B2094757D569A6FA479E","title":"名都新城四期","lon":"121.398","lat":"31.1148","category":"47","category_name":"住宅区","address":"上海市闵行区友情路50弄"},{"poiid":"B2094757D66CABFC439D","title":"蜀怡浓酒家","lon":"121.395901054","lat":"31.111994793","category":"71","category_name":"四川菜","address":"闵行区莘朱路763号(近畹町路)"},{"poiid":"B2094655D268A2FF4999","title":"闵行区老师进修学院附属梅陇实验学校","lon":"121.40003","lat":"31.11116","category":"55","category_name":"中学","address":"高兴路389"},{"poiid":"B2094655D26FA3FB4092","title":"中城绿苑东苑","lon":"121.40235","lat":"31.11334","category":"47","category_name":"住宅区","address":"上海市闵行区伟业路620弄"},{"poiid":"B2094655D265A0FE4099","title":"春申大厦","lon":"121.397763","lat":"31.107486","category":"46","category_name":"楼宇","address":"上海市闵行区春申路3555号"},{"poiid":"B2094655D268A2FF419C","title":"福家小菜","lon":"121.397","lat":"31.11234","category":"76","category_name":"上海菜","address":"闵行区莘朱路775号(近畹町路)"},{"poiid":"B2094655D268A4F94292","title":"莘南花苑一村(三号门)","lon":"121.39827","lat":"31.11137","category":"47","category_name":"住宅区","address":""},{"poiid":"B2094757D068A1FF409A","title":"品家都市星城","lon":"121.39611682655","lat":"31.108100694837","category":"500","category_name":"未知分类","address":"上海闵行区富都路111弄"},{"poiid":"B2094655D26FA3F44492","title":"莘南花苑二村(东门)","lon":"121.39923","lat":"31.10995","category":"47","category_name":"住宅区","address":""},{"poiid":"B2094654DB6CAAF94099","title":"上海市高兴实验学校向明中学附属学校","lon":"121.40003","lat":"31.11116","category":"55","category_name":"中学","address":"高兴路389"},{"poiid":"B2094655D36CA6FD489F","title":"高兴路伟业路","lon":"121.40148","lat":"31.11215","category":"38","category_name":"公交车站","address":""},{"poiid":"B2094654DB6CAAF8479B","title":"莘南花苑商办楼","lon":"121.39706","lat":"31.11237","category":"46","category_name":"楼宇","address":"莘朱路779"},{"poiid":"B2094757D068ABFE449C","title":"中祥哥德堡","lon":"121.392587","lat":"31.109343","category":"500","category_name":"未知分类","address":"中祥哥德堡位于闵行珠城路99弄"},{"poiid":"B2094757D169A1F84099","title":"高兴路夜排档","lon":"121.40091585","lat":"31.112363609","category":"247","category_name":"餐饮美食","address":"上海市闵行区高兴路向容路"},{"poiid":"B2094654DB6CAAFF4992","title":"莘南花园一村(2号门)","lon":"121.39698","lat":"31.11111","category":"47","category_name":"住宅区","address":""},{"poiid":"B2094757D169A6FC429A","title":"闵行区教师进修学院梅陇附校","lon":"121.39937885","lat":"31.111077583","category":"253","category_name":"校园生活","address":"上海高兴路389号"},{"poiid":"B2094654DB64A1FF4799","title":"莘南花苑二村","lon":"121.39724","lat":"31.108997","category":"47","category_name":"住宅区","address":"莘南花苑二村"},{"poiid":"B2094757D069AAF8409F","title":"五云德小笼","lon":"121.401154","lat":"31.105544","category":"68","category_name":"快餐厅","address":"闵行区畹町路万科假日广场117号104室(近春申路)"},{"poiid":"B2094757D068A4FD499D","title":"春申路A4口","lon":"121.401133","lat":"31.106997","category":"260","category_name":"其他","address":"上海春申路畹町路"},{"poiid":"B2094757D66AA0FE4499","title":"川流不息 春申店","lon":"121.401841","lat":"31.106043","category":"71","category_name":"四川菜","address":"闵行区畹町路99弄万科假日风景102室(近春申路)"},{"poiid":"B2094655D268A7FB499D","title":"莘南花苑一村(四号门)","lon":"121.39766","lat":"31.11039","category":"47","category_name":"住宅区","address":""},{"poiid":"B2094655D36DA7F4409F","title":"莘朱路莘吉路","lon":"121.39631","lat":"31.11231","category":"38","category_name":"公交车站","address":""},{"poiid":"B2094757D06AA5F94498","title":"闵行区教师进修学院","lon":"121.40003204","lat":"31.111152648","category":"253","category_name":"校园生活","address":"上海七莘路324号"},{"poiid":"B2094757D569A0FE499F","title":"名都新城三期","lon":"121.397809","lat":"31.109505","category":"47","category_name":"住宅区","address":"上海市闵行区富都路55弄"},{"poiid":"B2094757D469A5FA409C","title":"西域狼烧烤","lon":"121.4035359","lat":"31.1136709","category":"68","category_name":"快餐厅","address":"闵行区向荣路28号(近高兴路)"},{"poiid":"B2094654DB6CAAF8499E","title":"高兴花园二-四街坊(3号门)","lon":"121.40287","lat":"31.11152","category":"47","category_name":"住宅区","address":"莘朱路879弄"},{"poiid":"B2094654DB6CA4FE4492","title":"快客No.6437","lon":"121.39606","lat":"31.11237","category":"117","category_name":"便民商店/便利店","address":"莘朱路739号"},{"poiid":"B2094752D768A4F54392","title":"永和大王","lon":"121.402747","lat":"31.110914","category":"247","category_name":"餐饮美食","address":"大潤發"},{"poiid":"B2094654DB6CA4F8419D","title":"行西村西片一区私营民营企业工业小区","lon":"121.39764","lat":"31.11389","category":"47","category_name":"住宅区","address":"莘朱路816弄10号"},{"poiid":"B2094654DB6CAAF8499A","title":"闵行区梅陇镇卫生院高兴门诊部","lon":"121.40242","lat":"31.11237","category":"162","category_name":"医院","address":""},{"poiid":"B2094654DB6CAAFF499A","title":"新空间家园","lon":"121.3947","lat":"31.110685","category":"47","category_name":"住宅区","address":"上海市闵行区莘朱路651弄"},{"poiid":"B2094655D268ABFC4692","title":"仲盛世界商城","lon":"121.394514","lat":"31.114042","category":"119","category_name":"商场","address":"上海闵行区都市路5001号(莘庄地铁站南广场)"},{"poiid":"B2094757D068A3F9449C","title":"锦江乐园摩天轮","lon":"121.39376546","lat":"31.115948008","category":"195","category_name":"游乐场","address":"上海闵行区虹梅路201号锦江乐园内"},{"poiid":"B2094757D068A2FF4792","title":"梅陇镇文化体育中心","lon":"121.40527285","lat":"31.113818638","category":"500","category_name":"未知分类","address":"闵行区高兴路108号(近莲花南路)"},{"poiid":"B2094757D16CA1FB419F","title":"江南名邸","lon":"121.39625","lat":"31.108831","category":"47","category_name":"住宅区","address":"上海市闵行区高兴路666弄"},{"poiid":"B2094757D068A3FD489A","title":"莘城公寓","lon":"121.39272","lat":"31.10881","category":"252","category_name":"楼宇机构","address":"莘城公寓位于闵行宝城路158弄(近莘朱路)"},{"poiid":"B2094757D165A1F54893","title":"绿地科技岛","lon":"121.39573209529","lat":"31.11807358381","category":"249","category_name":"购物服务","address":"闵行区广通路18号(莘建东路口)"},{"poiid":"B2094757D068A4F44893","title":"莘城苑","lon":"121.393653","lat":"31.106697","category":"47","category_name":"住宅区","address":"上海市浦东新区上南路3345号"},{"poiid":"B2094654DB69A5FF439B","title":"莫泰168连锁旅店(畹町路店)","lon":"121.39817","lat":"31.11209","category":"216","category_name":"经济型连锁酒店","address":"闵行区畹町路479号(近春申路)"},{"poiid":"B2094654DB6CAAF84593","title":"中城绿苑·西苑","lon":"121.40098","lat":"31.11277","category":"47","category_name":"住宅区","address":"上海闵行区伟业路621弄"},{"poiid":"B2094757D065A5FE479D","title":"COSTA COFFEE(兴梅路店)","lon":"121.40269185","lat":"31.106029482","category":"65","category_name":"咖啡厅","address":"闵行区兴梅路1234号春申景城裙楼(近莲花南路)"},{"poiid":"B2094757D069A5FE439A","title":"恒隆大酒店(春申店)","lon":"121.3996","lat":"31.10565","category":"76","category_name":"上海菜","address":"闵行区春申路2828号(近洱海路)"},{"poiid":"B2094757D06BA1FB4292","title":"小尾羊 春申店","lon":"121.40347","lat":"31.1068","category":"86","category_name":"火锅店","address":"春申路2688号近莲花南路"},{"poiid":"B2094655D36DA6FC449B","title":"畹町路","lon":"121.39903","lat":"31.11112","category":"38","category_name":"公交车站","address":""},{"poiid":"B2094757D068A6FC449F","title":"莘南花苑","lon":"121.403","lat":"31.1167","category":"47","category_name":"住宅区","address":"上海闵行区莘吉路畹町路"},{"poiid":"B2094654DB6CAAF9429A","title":"春申玫瑰苑(南门)","lon":"121.39797","lat":"31.10689","category":"656","category_name":"大门","address":"洱海路99弄"},{"poiid":"B2094654DB6CAAF94098","title":"上海市高兴实验学校","lon":"121.40003","lat":"31.11116","category":"55","category_name":"中学","address":"高兴路389"},{"poiid":"B2094750D66BAAF5459D","title":"塔哈尔羊蝎子火锅","lon":"121.396","lat":"31.1121","category":"86","category_name":"火锅店","address":"闵行区莘朱路751号(近莘吉路)"},{"poiid":"B2094655D26EA2F4489C","title":"常兴家园","lon":"121.39986","lat":"31.112307","category":"47","category_name":"住宅区","address":"莘朱路851弄"},{"poiid":"B2094654DB6CAAF8419E","title":"绿地春申花园","lon":"121.40632","lat":"31.110668","category":"47","category_name":"住宅区","address":"绿地春申花园位于闵行莲花南路988弄"},{"poiid":"B2094757D569A6FA479E","title":"名都新城四期","lon":"121.398","lat":"31.1148","category":"47","category_name":"住宅区","address":"上海市闵行区友情路50弄"},{"poiid":"B2094757D66CABFC439D","title":"蜀怡浓酒家","lon":"121.395901054","lat":"31.111994793","category":"71","category_name":"四川菜","address":"闵行区莘朱路763号(近畹町路)"},{"poiid":"B2094655D268A2FF4999","title":"闵行区老师进修学院附属梅陇实验学校","lon":"121.40003","lat":"31.11116","category":"55","category_name":"中学","address":"高兴路389"},{"poiid":"B2094655D26FA3FB4092","title":"中城绿苑东苑","lon":"121.40235","lat":"31.11334","category":"47","category_name":"住宅区","address":"上海市闵行区伟业路620弄"},{"poiid":"B2094655D265A0FE4099","title":"春申大厦","lon":"121.397763","lat":"31.107486","category":"46","category_name":"楼宇","address":"上海市闵行区春申路3555号"},{"poiid":"B2094655D268A2FF419C","title":"福家小菜","lon":"121.397","lat":"31.11234","category":"76","category_name":"上海菜","address":"闵行区莘朱路775号(近畹町路)"},{"poiid":"B2094655D268A4F94292","title":"莘南花苑一村(三号门)","lon":"121.39827","lat":"31.11137","category":"47","category_name":"住宅区","address":""},{"poiid":"B2094757D068A1FF409A","title":"品家都市星城","lon":"121.39611682655","lat":"31.108100694837","category":"500","category_name":"未知分类","address":"上海闵行区富都路111弄"},{"poiid":"B2094655D26FA3F44492","title":"莘南花苑二村(东门)","lon":"121.39923","lat":"31.10995","category":"47","category_name":"住宅区","address":""},{"poiid":"B2094654DB6CAAF94099","title":"上海市高兴实验学校向明中学附属学校","lon":"121.40003","lat":"31.11116","category":"55","category_name":"中学","address":"高兴路389"},{"poiid":"B2094655D36CA6FD489F","title":"高兴路伟业路","lon":"121.40148","lat":"31.11215","category":"38","category_name":"公交车站","address":""},{"poiid":"B2094654DB6CAAF8479B","title":"莘南花苑商办楼","lon":"121.39706","lat":"31.11237","category":"46","category_name":"楼宇","address":"莘朱路779"},{"poiid":"B2094757D068ABFE449C","title":"中祥哥德堡","lon":"121.392587","lat":"31.109343","category":"500","category_name":"未知分类","address":"中祥哥德堡位于闵行珠城路99弄"},{"poiid":"B2094757D169A1F84099","title":"高兴路夜排档","lon":"121.40091585","lat":"31.112363609","category":"247","category_name":"餐饮美食","address":"上海市闵行区高兴路向容路"},{"poiid":"B2094654DB6CAAFF4992","title":"莘南花园一村(2号门)","lon":"121.39698","lat":"31.11111","category":"47","category_name":"住宅区","address":""},{"poiid":"B2094757D169A6FC429A","title":"闵行区教师进修学院梅陇附校","lon":"121.39937885","lat":"31.111077583","category":"253","category_name":"校园生活","address":"上海高兴路389号"},{"poiid":"B2094654DB64A1FF4799","title":"莘南花苑二村","lon":"121.39724","lat":"31.108997","category":"47","category_name":"住宅区","address":"莘南花苑二村"},{"poiid":"B2094757D069AAF8409F","title":"五云德小笼","lon":"121.401154","lat":"31.105544","category":"68","category_name":"快餐厅","address":"闵行区畹町路万科假日广场117号104室(近春申路)"},{"poiid":"B2094757D068A4FD499D","title":"春申路A4口","lon":"121.401133","lat":"31.106997","category":"260","category_name":"其他","address":"上海春申路畹町路"},{"poiid":"B2094757D66AA0FE4499","title":"川流不息 春申店","lon":"121.401841","lat":"31.106043","category":"71","category_name":"四川菜","address":"闵行区畹町路99弄万科假日风景102室(近春申路)"},{"poiid":"B2094655D268A7FB499D","title":"莘南花苑一村(四号门)","lon":"121.39766","lat":"31.11039","category":"47","category_name":"住宅区","address":""},{"poiid":"B2094655D36DA7F4409F","title":"莘朱路莘吉路","lon":"121.39631","lat":"31.11231","category":"38","category_name":"公交车站","address":""},{"poiid":"B2094757D06AA5F94498","title":"闵行区教师进修学院","lon":"121.40003204","lat":"31.111152648","category":"253","category_name":"校园生活","address":"上海七莘路324号"},{"poiid":"B2094757D569A0FE499F","title":"名都新城三期","lon":"121.397809","lat":"31.109505","category":"47","category_name":"住宅区","address":"上海市闵行区富都路55弄"},{"poiid":"B2094757D469A5FA409C","title":"西域狼烧烤","lon":"121.4035359","lat":"31.1136709","category":"68","category_name":"快餐厅","address":"闵行区向荣路28号(近高兴路)"},{"poiid":"B2094654DB6CAAF8499E","title":"高兴花园二-四街坊(3号门)","lon":"121.40287","lat":"31.11152","category":"47","category_name":"住宅区","address":"莘朱路879弄"},{"poiid":"B2094654DB6CA4FE4492","title":"快客No.6437","lon":"121.39606","lat":"31.11237","category":"117","category_name":"便民商店/便利店","address":"莘朱路739号"},{"poiid":"B2094752D768A4F54392","title":"永和大王","lon":"121.402747","lat":"31.110914","category":"247","category_name":"餐饮美食","address":"大潤發"},{"poiid":"B2094654DB6CA4F8419D","title":"行西村西片一区私营民营企业工业小区","lon":"121.39764","lat":"31.11389","category":"47","category_name":"住宅区","address":"莘朱路816弄10号"},{"poiid":"B2094654DB6CAAF8499A","title":"闵行区梅陇镇卫生院高兴门诊部","lon":"121.40242","lat":"31.11237","category":"162","category_name":"医院","address":""},{"poiid":"B2094654DB6CAAFF499A","title":"新空间家园","lon":"121.3947","lat":"31.110685","category":"47","category_name":"住宅区","address":"上海市闵行区莘朱路651弄"}]