[{"poiid":"B2094655D26BA7FC469A","title":"1933老场坊","lon":"121.49146","lat":"31.25448","category":"247","category_name":"餐饮美食","address":"虹口区溧阳路611号"},{"poiid":"B2094757D068ABFE4599","title":"中信广场","lon":"121.49155956183","lat":"31.253803450588","category":"46","category_name":"楼宇","address":"虹口区四川北路859号(近海宁路)"},{"poiid":"B2094757D06FA0FC459A","title":"苏浙汇（1933店）","lon":"121.49207337","lat":"31.254523102","category":"75","category_name":"浙江菜","address":"虹口区沙泾路10号1933老场坊3楼(近溧阳路)"},{"poiid":"B209475CD564A7F84392","title":"上海滩浦东香格里拉店","lon":"121.50058","lat":"31.23634","category":"119","category_name":"商场","address":"浦东富成路33号香格里拉酒店内大堂层"},{"poiid":"B2094757D06FA3F8409E","title":"森林湾大厦","lon":"121.494","lat":"31.2562","category":"46","category_name":"楼宇","address":"铁西卫工南街8―5号"},{"poiid":"B2094655D26AABFA469C","title":"上海九龙宾馆","lon":"121.49209","lat":"31.25397","category":"250","category_name":"公园户外","address":"上海虹口区溧阳路601号(近吴淞路)"},{"poiid":"B2094757D168A5F8439D","title":"老洋行1913创意园区","lon":"121.491155103","lat":"31.2548950978","category":"46","category_name":"楼宇","address":"虹口区哈尔滨路160号(近海伦路)"},{"poiid":"B2094757D06FA5FE4793","title":"周家嘴路新建路","lon":"121.496022","lat":"31.255533","category":"260","category_name":"其他","address":"上海周家嘴路新建路,海伦路"},{"poiid":"B2094757D16AA5FC4392","title":"1933老杨坊—空中剧场","lon":"121.492348103","lat":"31.2545270902","category":"500","category_name":"未知分类","address":"上海市虹口区沙径路10号1933老杨坊四楼"},{"poiid":"B2094757D66DA3FF499F","title":"1933","lon":"121.492579103","lat":"31.2544390883","category":"500","category_name":"未知分类","address":"上海市虹口区四平路"},{"poiid":"B2094757D068A1FE499B","title":"浦江名邸","lon":"121.49659","lat":"31.255047","category":"47","category_name":"住宅区","address":"广西北路246号百米香榭商业街南区260"},{"poiid":"B2094757D06FA0FC419C","title":"海泰国际大厦","lon":"121.491952","lat":"31.255121","category":"46","category_name":"楼宇","address":"朝阳区北三环东路与京顺路交接处路口北侧"},{"poiid":"B2094654D56DABFE499C","title":"宝矿国际大厦","lon":"121.497534","lat":"31.254199","category":"46","category_name":"楼宇","address":"上海市虹口区吴淞路218号"},{"poiid":"B2094757D06FA7FF469C","title":"耀江国际广场","lon":"121.497","lat":"31.2555","category":"46","category_name":"楼宇","address":"上海市松江区镇横港路633号"},{"poiid":"B2094757DB6CA4FB4993","title":"外滩公馆","lon":"121.494","lat":"31.25196","category":"76","category_name":"上海菜","address":"虹口区东余杭路275弄3号(近梧州路)"},{"poiid":"B2094757D66CA3F9469D","title":"红场俄式西餐厅","lon":"121.491549803","lat":"31.2556281132","category":"94","category_name":"西餐厅","address":"虹口区沙泾路10号1933老场坊1号楼308室(近九龙宾馆)"},{"poiid":"B2094757D06FA6F5449F","title":"香港丽园","lon":"121.49673","lat":"31.257858","category":"500","category_name":"未知分类","address":"虹口区通州路188号香港丽园4号楼2楼(近物美)"},{"poiid":"B2094654DB6AA7FE459F","title":"豪龙阁舟山渔村(周家嘴路店)","lon":"121.49253","lat":"31.25324","category":"75","category_name":"浙江菜","address":"虹口区周家嘴路2号(溧阳路口)"},{"poiid":"B2094757D06FA6FC4392","title":"La Douceur","lon":"121.49150192","lat":"31.254127613","category":"67","category_name":"甜品店","address":"虹口区溧阳路611号上海1933老场坊105单元(近周家嘴路)"},{"poiid":"B2094757D16CA7FE429E","title":"崇明私房菜","lon":"121.494195403","lat":"31.2537960749","category":"76","category_name":"上海菜","address":"虹口区周家嘴路328号(近新建路)"},{"poiid":"B2094757D068A3FF4098","title":"狠牛独创牛肉面馆 沙泾路店 Noodle Bull","lon":"121.492426054","lat":"31.256805793","category":"68","category_name":"快餐厅","address":"虹口区沙泾路10号1933老场坊1号楼234室(近溧阳路)"},{"poiid":"B2094654D56DAAFE449C","title":"中皇广场","lon":"121.49439","lat":"31.25442","category":"47","category_name":"住宅区","address":"中皇广场(中皇.外滩)位于虹口周家嘴路(近金田路,梧州路)"},{"poiid":"B2094757D16AA2FB449B","title":"上海市第一人民医院12F","lon":"121.4913274","lat":"31.25310036","category":"162","category_name":"医院","address":"上海海宁路100号"},{"poiid":"B2094654DB64A6FB499F","title":"如家快捷酒店(上海北外滩店)","lon":"121.49597","lat":"31.25448","category":"216","category_name":"经济型连锁酒店","address":"上海市虹口区周家嘴路345号(近金田路)"},{"poiid":"B2094654DA6FA6FE429B","title":"恒升半岛国际中心","lon":"121.49564983911","lat":"31.252855823114","category":"46","category_name":"楼宇","address":"上海市虹口区吴淞路205号"},{"poiid":"B2094655D26BABFF4098","title":"名江七星城","lon":"121.49435","lat":"31.251509","category":"47","category_name":"住宅区","address":"上海市虹口区东汉阳路309弄"},{"poiid":"B2094654D56DAAFE409F","title":"海伦大厦","lon":"121.49566","lat":"31.255604","category":"47","category_name":"住宅区","address":"普陀中山北路2550号"},{"poiid":"B2094752D36DA5F94793","title":"上海星美国际影城(虹口国际店)","lon":"121.49265","lat":"31.25661","category":"178","category_name":"电影院","address":"上海市虹口区海宁路330号"},{"poiid":"B2094757D068A2F5499E","title":"新亚大包(海宁路店)","lon":"121.49153","lat":"31.25322","category":"68","category_name":"快餐厅","address":"虹口区海宁路6-8号(近九龙路)"},{"poiid":"B2094655D26CA0FF459E","title":"1933购物中心","lon":"121.49207","lat":"31.25452","category":"119","category_name":"商场","address":"沙泾路10"},{"poiid":"B2094757D068A2F94998","title":"国际商厦","lon":"121.49205205017","lat":"31.256364309751","category":"46","category_name":"楼宇","address":"虹口区海宁路,吴淞路口"},{"poiid":"B2094752D56BA7FD4998","title":"陆家嘴正大广场","lon":"121.493009","lat":"31.254678","category":"500","category_name":"未知分类","address":null},{"poiid":"B2094654D56EA1FD4199","title":"爱思大厦","lon":"121.494","lat":"31.2564","category":"46","category_name":"楼宇","address":"上海海宁路307号"},{"poiid":"B2094752D765A7FD4099","title":"顺风大酒店","lon":"121.492684","lat":"31.252119","category":"247","category_name":"餐饮美食","address":"虹口区汉阳路88号1-3楼"},{"poiid":"B2094654D56DAAFE469B","title":"凯虹家园","lon":"121.49252","lat":"31.255821","category":"47","category_name":"住宅区","address":"梧州路299弄1-11号"},{"poiid":"B2094654D56DAAFE4498","title":"河南拉面(梧州路)","lon":"121.49356","lat":"31.25434","category":"68","category_name":"快餐厅","address":"虹口区东余杭路(近梧州路)"},{"poiid":"B2094757D568AAF4409C","title":"红意艺术主题意大利餐厅","lon":"121.49145209","lat":"31.25446615","category":"94","category_name":"西餐厅","address":"虹口区溧阳路611号1933老场坊1栋2楼(近九龙宾馆)"},{"poiid":"B2094757D06AA5FB4698","title":"红意意大利餐厅","lon":"121.4919041","lat":"31.25405408","category":"500","category_name":"未知分类","address":"1933老场坊 上海市虹口区虬江路"},{"poiid":"B2094757D065A1F94793","title":"馨虹苑","lon":"121.4950051","lat":"31.254517089","category":"252","category_name":"楼宇机构","address":"上海市浦东新区浦东大道2516号"},{"poiid":"B2094757D068AAFA479D","title":"Formula Pilota","lon":"121.492148103","lat":"31.2547370945","category":"68","category_name":"快餐厅","address":"虹口区溧阳路611号1933老场坊1-108号铺(近九龙宾馆)"},{"poiid":"B2094753D46EA2F4459F","title":"1933老厂房","lon":"121.494702","lat":"31.255092","category":"500","category_name":"未知分类","address":"上海市 海伦路"},{"poiid":"B2094750D76DA4FD439F","title":"之会所","lon":"121.492","lat":"31.2567","category":"72","category_name":"广东菜","address":"虹口区辽宁路46号D座国家音乐产业基地内(近1933老场坊)"},{"poiid":"B2094757D568A0FB4592","title":"牛市","lon":"121.49145833","lat":"31.25447754","category":"260","category_name":"其他","address":"虹口区溧阳路611号1933老场坊1-203号铺(溧阳路沙泾路)"},{"poiid":"B2094654DB69A5F9459D","title":"永乐电器(周家嘴路店)","lon":"121.49588","lat":"31.25471","category":"138","category_name":"家电电子卖场","address":"虹口区周家嘴路345-377号"},{"poiid":"B2094757D065A5F4459C","title":"17路周家嘴路新建路站","lon":"121.494636536","lat":"31.2534046173","category":"38","category_name":"公交车站","address":"上海市虹口区周家嘴路近新建路"},{"poiid":"B2094655D26FA0FD499F","title":"存德坊(北门)","lon":"121.49595","lat":"31.25498","category":"47","category_name":"住宅区","address":"海伦路31弄2-59号"},{"poiid":"B2094654DB6BA3F84699","title":"快客梧州路店","lon":"121.49343","lat":"31.25557","category":"117","category_name":"便民商店/便利店","address":""},{"poiid":"B2094757D569A6FA489F","title":"浦江名邸二期","lon":"121.49591","lat":"31.25596389","category":"47","category_name":"住宅区","address":"上海市虹口区海伦路88弄"},{"poiid":"B2094655D36DA0FC4998","title":"新建路","lon":"121.49629","lat":"31.25437","category":"38","category_name":"公交车站","address":""},{"poiid":"B2094654D56DAAFE419A","title":"希望义卖中心永乐生活电器义卖店","lon":"121.49629","lat":"31.25471","category":"138","category_name":"家电电子卖场","address":"周家嘴路373"},{"poiid":"B2094655D26BA7FC469A","title":"1933老场坊","lon":"121.49146","lat":"31.25448","category":"247","category_name":"餐饮美食","address":"虹口区溧阳路611号"},{"poiid":"B2094757D068ABFE4599","title":"中信广场","lon":"121.49155956183","lat":"31.253803450588","category":"46","category_name":"楼宇","address":"虹口区四川北路859号(近海宁路)"},{"poiid":"B2094757D06FA0FC459A","title":"苏浙汇（1933店）","lon":"121.49207337","lat":"31.254523102","category":"75","category_name":"浙江菜","address":"虹口区沙泾路10号1933老场坊3楼(近溧阳路)"},{"poiid":"B209475CD564A7F84392","title":"上海滩浦东香格里拉店","lon":"121.50058","lat":"31.23634","category":"119","category_name":"商场","address":"浦东富成路33号香格里拉酒店内大堂层"},{"poiid":"B2094757D06FA3F8409E","title":"森林湾大厦","lon":"121.494","lat":"31.2562","category":"46","category_name":"楼宇","address":"铁西卫工南街8―5号"},{"poiid":"B2094655D26AABFA469C","title":"上海九龙宾馆","lon":"121.49209","lat":"31.25397","category":"250","category_name":"公园户外","address":"上海虹口区溧阳路601号(近吴淞路)"},{"poiid":"B2094757D168A5F8439D","title":"老洋行1913创意园区","lon":"121.491155103","lat":"31.2548950978","category":"46","category_name":"楼宇","address":"虹口区哈尔滨路160号(近海伦路)"},{"poiid":"B2094757D06FA5FE4793","title":"周家嘴路新建路","lon":"121.496022","lat":"31.255533","category":"260","category_name":"其他","address":"上海周家嘴路新建路,海伦路"},{"poiid":"B2094757D16AA5FC4392","title":"1933老杨坊—空中剧场","lon":"121.492348103","lat":"31.2545270902","category":"500","category_name":"未知分类","address":"上海市虹口区沙径路10号1933老杨坊四楼"},{"poiid":"B2094757D66DA3FF499F","title":"1933","lon":"121.492579103","lat":"31.2544390883","category":"500","category_name":"未知分类","address":"上海市虹口区四平路"},{"poiid":"B2094757D068A1FE499B","title":"浦江名邸","lon":"121.49659","lat":"31.255047","category":"47","category_name":"住宅区","address":"广西北路246号百米香榭商业街南区260"},{"poiid":"B2094757D06FA0FC419C","title":"海泰国际大厦","lon":"121.491952","lat":"31.255121","category":"46","category_name":"楼宇","address":"朝阳区北三环东路与京顺路交接处路口北侧"},{"poiid":"B2094654D56DABFE499C","title":"宝矿国际大厦","lon":"121.497534","lat":"31.254199","category":"46","category_name":"楼宇","address":"上海市虹口区吴淞路218号"},{"poiid":"B2094757D06FA7FF469C","title":"耀江国际广场","lon":"121.497","lat":"31.2555","category":"46","category_name":"楼宇","address":"上海市松江区镇横港路633号"},{"poiid":"B2094757DB6CA4FB4993","title":"外滩公馆","lon":"121.494","lat":"31.25196","category":"76","category_name":"上海菜","address":"虹口区东余杭路275弄3号(近梧州路)"},{"poiid":"B2094757D66CA3F9469D","title":"红场俄式西餐厅","lon":"121.491549803","lat":"31.2556281132","category":"94","category_name":"西餐厅","address":"虹口区沙泾路10号1933老场坊1号楼308室(近九龙宾馆)"},{"poiid":"B2094757D06FA6F5449F","title":"香港丽园","lon":"121.49673","lat":"31.257858","category":"500","category_name":"未知分类","address":"虹口区通州路188号香港丽园4号楼2楼(近物美)"},{"poiid":"B2094654DB6AA7FE459F","title":"豪龙阁舟山渔村(周家嘴路店)","lon":"121.49253","lat":"31.25324","category":"75","category_name":"浙江菜","address":"虹口区周家嘴路2号(溧阳路口)"},{"poiid":"B2094757D06FA6FC4392","title":"La Douceur","lon":"121.49150192","lat":"31.254127613","category":"67","category_name":"甜品店","address":"虹口区溧阳路611号上海1933老场坊105单元(近周家嘴路)"},{"poiid":"B2094757D16CA7FE429E","title":"崇明私房菜","lon":"121.494195403","lat":"31.2537960749","category":"76","category_name":"上海菜","address":"虹口区周家嘴路328号(近新建路)"},{"poiid":"B2094757D068A3FF4098","title":"狠牛独创牛肉面馆 沙泾路店 Noodle Bull","lon":"121.492426054","lat":"31.256805793","category":"68","category_name":"快餐厅","address":"虹口区沙泾路10号1933老场坊1号楼234室(近溧阳路)"},{"poiid":"B2094654D56DAAFE449C","title":"中皇广场","lon":"121.49439","lat":"31.25442","category":"47","category_name":"住宅区","address":"中皇广场(中皇.外滩)位于虹口周家嘴路(近金田路,梧州路)"},{"poiid":"B2094757D16AA2FB449B","title":"上海市第一人民医院12F","lon":"121.4913274","lat":"31.25310036","category":"162","category_name":"医院","address":"上海海宁路100号"},{"poiid":"B2094654DB64A6FB499F","title":"如家快捷酒店(上海北外滩店)","lon":"121.49597","lat":"31.25448","category":"216","category_name":"经济型连锁酒店","address":"上海市虹口区周家嘴路345号(近金田路)"},{"poiid":"B2094654DA6FA6FE429B","title":"恒升半岛国际中心","lon":"121.49564983911","lat":"31.252855823114","category":"46","category_name":"楼宇","address":"上海市虹口区吴淞路205号"},{"poiid":"B2094655D26BABFF4098","title":"名江七星城","lon":"121.49435","lat":"31.251509","category":"47","category_name":"住宅区","address":"上海市虹口区东汉阳路309弄"},{"poiid":"B2094654D56DAAFE409F","title":"海伦大厦","lon":"121.49566","lat":"31.255604","category":"47","category_name":"住宅区","address":"普陀中山北路2550号"},{"poiid":"B2094752D36DA5F94793","title":"上海星美国际影城(虹口国际店)","lon":"121.49265","lat":"31.25661","category":"178","category_name":"电影院","address":"上海市虹口区海宁路330号"},{"poiid":"B2094757D068A2F5499E","title":"新亚大包(海宁路店)","lon":"121.49153","lat":"31.25322","category":"68","category_name":"快餐厅","address":"虹口区海宁路6-8号(近九龙路)"},{"poiid":"B2094655D26CA0FF459E","title":"1933购物中心","lon":"121.49207","lat":"31.25452","category":"119","category_name":"商场","address":"沙泾路10"},{"poiid":"B2094757D068A2F94998","title":"国际商厦","lon":"121.49205205017","lat":"31.256364309751","category":"46","category_name":"楼宇","address":"虹口区海宁路,吴淞路口"},{"poiid":"B2094752D56BA7FD4998","title":"陆家嘴正大广场","lon":"121.493009","lat":"31.254678","category":"500","category_name":"未知分类","address":null},{"poiid":"B2094654D56EA1FD4199","title":"爱思大厦","lon":"121.494","lat":"31.2564","category":"46","category_name":"楼宇","address":"上海海宁路307号"},{"poiid":"B2094752D765A7FD4099","title":"顺风大酒店","lon":"121.492684","lat":"31.252119","category":"247","category_name":"餐饮美食","address":"虹口区汉阳路88号1-3楼"},{"poiid":"B2094654D56DAAFE469B","title":"凯虹家园","lon":"121.49252","lat":"31.255821","category":"47","category_name":"住宅区","address":"梧州路299弄1-11号"},{"poiid":"B2094654D56DAAFE4498","title":"河南拉面(梧州路)","lon":"121.49356","lat":"31.25434","category":"68","category_name":"快餐厅","address":"虹口区东余杭路(近梧州路)"},{"poiid":"B2094757D568AAF4409C","title":"红意艺术主题意大利餐厅","lon":"121.49145209","lat":"31.25446615","category":"94","category_name":"西餐厅","address":"虹口区溧阳路611号1933老场坊1栋2楼(近九龙宾馆)"},{"poiid":"B2094757D06AA5FB4698","title":"红意意大利餐厅","lon":"121.4919041","lat":"31.25405408","category":"500","category_name":"未知分类","address":"1933老场坊 上海市虹口区虬江路"},{"poiid":"B2094757D065A1F94793","title":"馨虹苑","lon":"121.4950051","lat":"31.254517089","category":"252","category_name":"楼宇机构","address":"上海市浦东新区浦东大道2516号"},{"poiid":"B2094757D068AAFA479D","title":"Formula Pilota","lon":"121.492148103","lat":"31.2547370945","category":"68","category_name":"快餐厅","address":"虹口区溧阳路611号1933老场坊1-108号铺(近九龙宾馆)"},{"poiid":"B2094753D46EA2F4459F","title":"1933老厂房","lon":"121.494702","lat":"31.255092","category":"500","category_name":"未知分类","address":"上海市 海伦路"},{"poiid":"B2094750D76DA4FD439F","title":"之会所","lon":"121.492","lat":"31.2567","category":"72","category_name":"广东菜","address":"虹口区辽宁路46号D座国家音乐产业基地内(近1933老场坊)"},{"poiid":"B2094757D568A0FB4592","title":"牛市","lon":"121.49145833","lat":"31.25447754","category":"260","category_name":"其他","address":"虹口区溧阳路611号1933老场坊1-203号铺(溧阳路沙泾路)"},{"poiid":"B2094654DB69A5F9459D","title":"永乐电器(周家嘴路店)","lon":"121.49588","lat":"31.25471","category":"138","category_name":"家电电子卖场","address":"虹口区周家嘴路345-377号"},{"poiid":"B2094757D065A5F4459C","title":"17路周家嘴路新建路站","lon":"121.494636536","lat":"31.2534046173","category":"38","category_name":"公交车站","address":"上海市虹口区周家嘴路近新建路"},{"poiid":"B2094655D26FA0FD499F","title":"存德坊(北门)","lon":"121.49595","lat":"31.25498","category":"47","category_name":"住宅区","address":"海伦路31弄2-59号"},{"poiid":"B2094654DB6BA3F84699","title":"快客梧州路店","lon":"121.49343","lat":"31.25557","category":"117","category_name":"便民商店/便利店","address":""},{"poiid":"B2094757D569A6FA489F","title":"浦江名邸二期","lon":"121.49591","lat":"31.25596389","category":"47","category_name":"住宅区","address":"上海市虹口区海伦路88弄"},{"poiid":"B2094655D36DA0FC4998","title":"新建路","lon":"121.49629","lat":"31.25437","category":"38","category_name":"公交车站","address":""},{"poiid":"B2094654D56DAAFE419A","title":"希望义卖中心永乐生活电器义卖店","lon":"121.49629","lat":"31.25471","category":"138","category_name":"家电电子卖场","address":"周家嘴路373"},{"poiid":"B2094655D26BA7FC469A","title":"1933老场坊","lon":"121.49146","lat":"31.25448","category":"247","category_name":"餐饮美食","address":"虹口区溧阳路611号"},{"poiid":"B2094757D068ABFE4599","title":"中信广场","lon":"121.49155956183","lat":"31.253803450588","category":"46","category_name":"楼宇","address":"虹口区四川北路859号(近海宁路)"},{"poiid":"B2094757D06FA0FC459A","title":"苏浙汇（1933店）","lon":"121.49207337","lat":"31.254523102","category":"75","category_name":"浙江菜","address":"虹口区沙泾路10号1933老场坊3楼(近溧阳路)"},{"poiid":"B209475CD564A7F84392","title":"上海滩浦东香格里拉店","lon":"121.50058","lat":"31.23634","category":"119","category_name":"商场","address":"浦东富成路33号香格里拉酒店内大堂层"},{"poiid":"B2094757D06FA3F8409E","title":"森林湾大厦","lon":"121.494","lat":"31.2562","category":"46","category_name":"楼宇","address":"铁西卫工南街8―5号"},{"poiid":"B2094655D26AABFA469C","title":"上海九龙宾馆","lon":"121.49209","lat":"31.25397","category":"250","category_name":"公园户外","address":"上海虹口区溧阳路601号(近吴淞路)"},{"poiid":"B2094757D168A5F8439D","title":"老洋行1913创意园区","lon":"121.491155103","lat":"31.2548950978","category":"46","category_name":"楼宇","address":"虹口区哈尔滨路160号(近海伦路)"},{"poiid":"B2094757D06FA5FE4793","title":"周家嘴路新建路","lon":"121.496022","lat":"31.255533","category":"260","category_name":"其他","address":"上海周家嘴路新建路,海伦路"},{"poiid":"B2094757D16AA5FC4392","title":"1933老杨坊—空中剧场","lon":"121.492348103","lat":"31.2545270902","category":"500","category_name":"未知分类","address":"上海市虹口区沙径路10号1933老杨坊四楼"},{"poiid":"B2094757D66DA3FF499F","title":"1933","lon":"121.492579103","lat":"31.2544390883","category":"500","category_name":"未知分类","address":"上海市虹口区四平路"},{"poiid":"B2094757D068A1FE499B","title":"浦江名邸","lon":"121.49659","lat":"31.255047","category":"47","category_name":"住宅区","address":"广西北路246号百米香榭商业街南区260"},{"poiid":"B2094757D06FA0FC419C","title":"海泰国际大厦","lon":"121.491952","lat":"31.255121","category":"46","category_name":"楼宇","address":"朝阳区北三环东路与京顺路交接处路口北侧"},{"poiid":"B2094654D56DABFE499C","title":"宝矿国际大厦","lon":"121.497534","lat":"31.254199","category":"46","category_name":"楼宇","address":"上海市虹口区吴淞路218号"},{"poiid":"B2094757D06FA7FF469C","title":"耀江国际广场","lon":"121.497","lat":"31.2555","category":"46","category_name":"楼宇","address":"上海市松江区镇横港路633号"},{"poiid":"B2094757DB6CA4FB4993","title":"外滩公馆","lon":"121.494","lat":"31.25196","category":"76","category_name":"上海菜","address":"虹口区东余杭路275弄3号(近梧州路)"},{"poiid":"B2094757D66CA3F9469D","title":"红场俄式西餐厅","lon":"121.491549803","lat":"31.2556281132","category":"94","category_name":"西餐厅","address":"虹口区沙泾路10号1933老场坊1号楼308室(近九龙宾馆)"},{"poiid":"B2094757D06FA6F5449F","title":"香港丽园","lon":"121.49673","lat":"31.257858","category":"500","category_name":"未知分类","address":"虹口区通州路188号香港丽园4号楼2楼(近物美)"},{"poiid":"B2094654DB6AA7FE459F","title":"豪龙阁舟山渔村(周家嘴路店)","lon":"121.49253","lat":"31.25324","category":"75","category_name":"浙江菜","address":"虹口区周家嘴路2号(溧阳路口)"},{"poiid":"B2094757D06FA6FC4392","title":"La Douceur","lon":"121.49150192","lat":"31.254127613","category":"67","category_name":"甜品店","address":"虹口区溧阳路611号上海1933老场坊105单元(近周家嘴路)"},{"poiid":"B2094757D16CA7FE429E","title":"崇明私房菜","lon":"121.494195403","lat":"31.2537960749","category":"76","category_name":"上海菜","address":"虹口区周家嘴路328号(近新建路)"},{"poiid":"B2094757D068A3FF4098","title":"狠牛独创牛肉面馆 沙泾路店 Noodle Bull","lon":"121.492426054","lat":"31.256805793","category":"68","category_name":"快餐厅","address":"虹口区沙泾路10号1933老场坊1号楼234室(近溧阳路)"},{"poiid":"B2094654D56DAAFE449C","title":"中皇广场","lon":"121.49439","lat":"31.25442","category":"47","category_name":"住宅区","address":"中皇广场(中皇.外滩)位于虹口周家嘴路(近金田路,梧州路)"},{"poiid":"B2094757D16AA2FB449B","title":"上海市第一人民医院12F","lon":"121.4913274","lat":"31.25310036","category":"162","category_name":"医院","address":"上海海宁路100号"},{"poiid":"B2094654DB64A6FB499F","title":"如家快捷酒店(上海北外滩店)","lon":"121.49597","lat":"31.25448","category":"216","category_name":"经济型连锁酒店","address":"上海市虹口区周家嘴路345号(近金田路)"},{"poiid":"B2094654DA6FA6FE429B","title":"恒升半岛国际中心","lon":"121.49564983911","lat":"31.252855823114","category":"46","category_name":"楼宇","address":"上海市虹口区吴淞路205号"},{"poiid":"B2094655D26BABFF4098","title":"名江七星城","lon":"121.49435","lat":"31.251509","category":"47","category_name":"住宅区","address":"上海市虹口区东汉阳路309弄"},{"poiid":"B2094654D56DAAFE409F","title":"海伦大厦","lon":"121.49566","lat":"31.255604","category":"47","category_name":"住宅区","address":"普陀中山北路2550号"},{"poiid":"B2094752D36DA5F94793","title":"上海星美国际影城(虹口国际店)","lon":"121.49265","lat":"31.25661","category":"178","category_name":"电影院","address":"上海市虹口区海宁路330号"},{"poiid":"B2094757D068A2F5499E","title":"新亚大包(海宁路店)","lon":"121.49153","lat":"31.25322","category":"68","category_name":"快餐厅","address":"虹口区海宁路6-8号(近九龙路)"},{"poiid":"B2094655D26CA0FF459E","title":"1933购物中心","lon":"121.49207","lat":"31.25452","category":"119","category_name":"商场","address":"沙泾路10"},{"poiid":"B2094757D068A2F94998","title":"国际商厦","lon":"121.49205205017","lat":"31.256364309751","category":"46","category_name":"楼宇","address":"虹口区海宁路,吴淞路口"},{"poiid":"B2094752D56BA7FD4998","title":"陆家嘴正大广场","lon":"121.493009","lat":"31.254678","category":"500","category_name":"未知分类","address":null},{"poiid":"B2094654D56EA1FD4199","title":"爱思大厦","lon":"121.494","lat":"31.2564","category":"46","category_name":"楼宇","address":"上海海宁路307号"},{"poiid":"B2094752D765A7FD4099","title":"顺风大酒店","lon":"121.492684","lat":"31.252119","category":"247","category_name":"餐饮美食","address":"虹口区汉阳路88号1-3楼"},{"poiid":"B2094654D56DAAFE469B","title":"凯虹家园","lon":"121.49252","lat":"31.255821","category":"47","category_name":"住宅区","address":"梧州路299弄1-11号"},{"poiid":"B2094654D56DAAFE4498","title":"河南拉面(梧州路)","lon":"121.49356","lat":"31.25434","category":"68","category_name":"快餐厅","address":"虹口区东余杭路(近梧州路)"},{"poiid":"B2094757D568AAF4409C","title":"红意艺术主题意大利餐厅","lon":"121.49145209","lat":"31.25446615","category":"94","category_name":"西餐厅","address":"虹口区溧阳路611号1933老场坊1栋2楼(近九龙宾馆)"},{"poiid":"B2094757D06AA5FB4698","title":"红意意大利餐厅","lon":"121.4919041","lat":"31.25405408","category":"500","category_name":"未知分类","address":"1933老场坊 上海市虹口区虬江路"},{"poiid":"B2094757D065A1F94793","title":"馨虹苑","lon":"121.4950051","lat":"31.254517089","category":"252","category_name":"楼宇机构","address":"上海市浦东新区浦东大道2516号"},{"poiid":"B2094757D068AAFA479D","title":"Formula Pilota","lon":"121.492148103","lat":"31.2547370945","category":"68","category_name":"快餐厅","address":"虹口区溧阳路611号1933老场坊1-108号铺(近九龙宾馆)"},{"poiid":"B2094753D46EA2F4459F","title":"1933老厂房","lon":"121.494702","lat":"31.255092","category":"500","category_name":"未知分类","address":"上海市 海伦路"},{"poiid":"B2094750D76DA4FD439F","title":"之会所","lon":"121.492","lat":"31.2567","category":"72","category_name":"广东菜","address":"虹口区辽宁路46号D座国家音乐产业基地内(近1933老场坊)"},{"poiid":"B2094757D568A0FB4592","title":"牛市","lon":"121.49145833","lat":"31.25447754","category":"260","category_name":"其他","address":"虹口区溧阳路611号1933老场坊1-203号铺(溧阳路沙泾路)"},{"poiid":"B2094654DB69A5F9459D","title":"永乐电器(周家嘴路店)","lon":"121.49588","lat":"31.25471","category":"138","category_name":"家电电子卖场","address":"虹口区周家嘴路345-377号"},{"poiid":"B2094757D065A5F4459C","title":"17路周家嘴路新建路站","lon":"121.494636536","lat":"31.2534046173","category":"38","category_name":"公交车站","address":"上海市虹口区周家嘴路近新建路"},{"poiid":"B2094655D26FA0FD499F","title":"存德坊(北门)","lon":"121.49595","lat":"31.25498","category":"47","category_name":"住宅区","address":"海伦路31弄2-59号"},{"poiid":"B2094654DB6BA3F84699","title":"快客梧州路店","lon":"121.49343","lat":"31.25557","category":"117","category_name":"便民商店/便利店","address":""},{"poiid":"B2094757D569A6FA489F","title":"浦江名邸二期","lon":"121.49591","lat":"31.25596389","category":"47","category_name":"住宅区","address":"上海市虹口区海伦路88弄"},{"poiid":"B2094655D36DA0FC4998","title":"新建路","lon":"121.49629","lat":"31.25437","category":"38","category_name":"公交车站","address":""},{"poiid":"B2094654D56DAAFE419A","title":"希望义卖中心永乐生活电器义卖店","lon":"121.49629","lat":"31.25471","category":"138","category_name":"家电电子卖场","address":"周家嘴路373"},{"poiid":"B2094655D26BA7FC469A","title":"1933老场坊","lon":"121.49146","lat":"31.25448","category":"247","category_name":"餐饮美食","address":"虹口区溧阳路611号"},{"poiid":"B2094757D068ABFE4599","title":"中信广场","lon":"121.49155956183","lat":"31.253803450588","category":"46","category_name":"楼宇","address":"虹口区四川北路859号(近海宁路)"},{"poiid":"B2094757D06FA0FC459A","title":"苏浙汇（1933店）","lon":"121.49207337","lat":"31.254523102","category":"75","category_name":"浙江菜","address":"虹口区沙泾路10号1933老场坊3楼(近溧阳路)"},{"poiid":"B209475CD564A7F84392","title":"上海滩浦东香格里拉店","lon":"121.50058","lat":"31.23634","category":"119","category_name":"商场","address":"浦东富成路33号香格里拉酒店内大堂层"},{"poiid":"B2094757D06FA3F8409E","title":"森林湾大厦","lon":"121.494","lat":"31.2562","category":"46","category_name":"楼宇","address":"铁西卫工南街8―5号"},{"poiid":"B2094655D26AABFA469C","title":"上海九龙宾馆","lon":"121.49209","lat":"31.25397","category":"250","category_name":"公园户外","address":"上海虹口区溧阳路601号(近吴淞路)"},{"poiid":"B2094757D168A5F8439D","title":"老洋行1913创意园区","lon":"121.491155103","lat":"31.2548950978","category":"46","category_name":"楼宇","address":"虹口区哈尔滨路160号(近海伦路)"},{"poiid":"B2094757D06FA5FE4793","title":"周家嘴路新建路","lon":"121.496022","lat":"31.255533","category":"260","category_name":"其他","address":"上海周家嘴路新建路,海伦路"},{"poiid":"B2094757D16AA5FC4392","title":"1933老杨坊—空中剧场","lon":"121.492348103","lat":"31.2545270902","category":"500","category_name":"未知分类","address":"上海市虹口区沙径路10号1933老杨坊四楼"},{"poiid":"B2094757D66DA3FF499F","title":"1933","lon":"121.492579103","lat":"31.2544390883","category":"500","category_name":"未知分类","address":"上海市虹口区四平路"},{"poiid":"B2094757D068A1FE499B","title":"浦江名邸","lon":"121.49659","lat":"31.255047","category":"47","category_name":"住宅区","address":"广西北路246号百米香榭商业街南区260"},{"poiid":"B2094757D06FA0FC419C","title":"海泰国际大厦","lon":"121.491952","lat":"31.255121","category":"46","category_name":"楼宇","address":"朝阳区北三环东路与京顺路交接处路口北侧"},{"poiid":"B2094654D56DABFE499C","title":"宝矿国际大厦","lon":"121.497534","lat":"31.254199","category":"46","category_name":"楼宇","address":"上海市虹口区吴淞路218号"},{"poiid":"B2094757D06FA7FF469C","title":"耀江国际广场","lon":"121.497","lat":"31.2555","category":"46","category_name":"楼宇","address":"上海市松江区镇横港路633号"},{"poiid":"B2094757DB6CA4FB4993","title":"外滩公馆","lon":"121.494","lat":"31.25196","category":"76","category_name":"上海菜","address":"虹口区东余杭路275弄3号(近梧州路)"},{"poiid":"B2094757D66CA3F9469D","title":"红场俄式西餐厅","lon":"121.491549803","lat":"31.2556281132","category":"94","category_name":"西餐厅","address":"虹口区沙泾路10号1933老场坊1号楼308室(近九龙宾馆)"},{"poiid":"B2094757D06FA6F5449F","title":"香港丽园","lon":"121.49673","lat":"31.257858","category":"500","category_name":"未知分类","address":"虹口区通州路188号香港丽园4号楼2楼(近物美)"},{"poiid":"B2094654DB6AA7FE459F","title":"豪龙阁舟山渔村(周家嘴路店)","lon":"121.49253","lat":"31.25324","category":"75","category_name":"浙江菜","address":"虹口区周家嘴路2号(溧阳路口)"},{"poiid":"B2094757D06FA6FC4392","title":"La Douceur","lon":"121.49150192","lat":"31.254127613","category":"67","category_name":"甜品店","address":"虹口区溧阳路611号上海1933老场坊105单元(近周家嘴路)"},{"poiid":"B2094757D16CA7FE429E","title":"崇明私房菜","lon":"121.494195403","lat":"31.2537960749","category":"76","category_name":"上海菜","address":"虹口区周家嘴路328号(近新建路)"},{"poiid":"B2094757D068A3FF4098","title":"狠牛独创牛肉面馆 沙泾路店 Noodle Bull","lon":"121.492426054","lat":"31.256805793","category":"68","category_name":"快餐厅","address":"虹口区沙泾路10号1933老场坊1号楼234室(近溧阳路)"},{"poiid":"B2094654D56DAAFE449C","title":"中皇广场","lon":"121.49439","lat":"31.25442","category":"47","category_name":"住宅区","address":"中皇广场(中皇.外滩)位于虹口周家嘴路(近金田路,梧州路)"},{"poiid":"B2094757D16AA2FB449B","title":"上海市第一人民医院12F","lon":"121.4913274","lat":"31.25310036","category":"162","category_name":"医院","address":"上海海宁路100号"},{"poiid":"B2094654DB64A6FB499F","title":"如家快捷酒店(上海北外滩店)","lon":"121.49597","lat":"31.25448","category":"216","category_name":"经济型连锁酒店","address":"上海市虹口区周家嘴路345号(近金田路)"},{"poiid":"B2094654DA6FA6FE429B","title":"恒升半岛国际中心","lon":"121.49564983911","lat":"31.252855823114","category":"46","category_name":"楼宇","address":"上海市虹口区吴淞路205号"},{"poiid":"B2094655D26BABFF4098","title":"名江七星城","lon":"121.49435","lat":"31.251509","category":"47","category_name":"住宅区","address":"上海市虹口区东汉阳路309弄"},{"poiid":"B2094654D56DAAFE409F","title":"海伦大厦","lon":"121.49566","lat":"31.255604","category":"47","category_name":"住宅区","address":"普陀中山北路2550号"},{"poiid":"B2094752D36DA5F94793","title":"上海星美国际影城(虹口国际店)","lon":"121.49265","lat":"31.25661","category":"178","category_name":"电影院","address":"上海市虹口区海宁路330号"},{"poiid":"B2094757D068A2F5499E","title":"新亚大包(海宁路店)","lon":"121.49153","lat":"31.25322","category":"68","category_name":"快餐厅","address":"虹口区海宁路6-8号(近九龙路)"},{"poiid":"B2094655D26CA0FF459E","title":"1933购物中心","lon":"121.49207","lat":"31.25452","category":"119","category_name":"商场","address":"沙泾路10"},{"poiid":"B2094757D068A2F94998","title":"国际商厦","lon":"121.49205205017","lat":"31.256364309751","category":"46","category_name":"楼宇","address":"虹口区海宁路,吴淞路口"},{"poiid":"B2094752D56BA7FD4998","title":"陆家嘴正大广场","lon":"121.493009","lat":"31.254678","category":"500","category_name":"未知分类","address":null},{"poiid":"B2094654D56EA1FD4199","title":"爱思大厦","lon":"121.494","lat":"31.2564","category":"46","category_name":"楼宇","address":"上海海宁路307号"},{"poiid":"B2094752D765A7FD4099","title":"顺风大酒店","lon":"121.492684","lat":"31.252119","category":"247","category_name":"餐饮美食","address":"虹口区汉阳路88号1-3楼"},{"poiid":"B2094654D56DAAFE469B","title":"凯虹家园","lon":"121.49252","lat":"31.255821","category":"47","category_name":"住宅区","address":"梧州路299弄1-11号"},{"poiid":"B2094654D56DAAFE4498","title":"河南拉面(梧州路)","lon":"121.49356","lat":"31.25434","category":"68","category_name":"快餐厅","address":"虹口区东余杭路(近梧州路)"},{"poiid":"B2094757D568AAF4409C","title":"红意艺术主题意大利餐厅","lon":"121.49145209","lat":"31.25446615","category":"94","category_name":"西餐厅","address":"虹口区溧阳路611号1933老场坊1栋2楼(近九龙宾馆)"},{"poiid":"B2094757D06AA5FB4698","title":"红意意大利餐厅","lon":"121.4919041","lat":"31.25405408","category":"500","category_name":"未知分类","address":"1933老场坊 上海市虹口区虬江路"},{"poiid":"B2094757D065A1F94793","title":"馨虹苑","lon":"121.4950051","lat":"31.254517089","category":"252","category_name":"楼宇机构","address":"上海市浦东新区浦东大道2516号"},{"poiid":"B2094757D068AAFA479D","title":"Formula Pilota","lon":"121.492148103","lat":"31.2547370945","category":"68","category_name":"快餐厅","address":"虹口区溧阳路611号1933老场坊1-108号铺(近九龙宾馆)"},{"poiid":"B2094753D46EA2F4459F","title":"1933老厂房","lon":"121.494702","lat":"31.255092","category":"500","category_name":"未知分类","address":"上海市 海伦路"},{"poiid":"B2094750D76DA4FD439F","title":"之会所","lon":"121.492","lat":"31.2567","category":"72","category_name":"广东菜","address":"虹口区辽宁路46号D座国家音乐产业基地内(近1933老场坊)"},{"poiid":"B2094757D568A0FB4592","title":"牛市","lon":"121.49145833","lat":"31.25447754","category":"260","category_name":"其他","address":"虹口区溧阳路611号1933老场坊1-203号铺(溧阳路沙泾路)"},{"poiid":"B2094654DB69A5F9459D","title":"永乐电器(周家嘴路店)","lon":"121.49588","lat":"31.25471","category":"138","category_name":"家电电子卖场","address":"虹口区周家嘴路345-377号"},{"poiid":"B2094757D065A5F4459C","title":"17路周家嘴路新建路站","lon":"121.494636536","lat":"31.2534046173","category":"38","category_name":"公交车站","address":"上海市虹口区周家嘴路近新建路"},{"poiid":"B2094655D26FA0FD499F","title":"存德坊(北门)","lon":"121.49595","lat":"31.25498","category":"47","category_name":"住宅区","address":"海伦路31弄2-59号"},{"poiid":"B2094654DB6BA3F84699","title":"快客梧州路店","lon":"121.49343","lat":"31.25557","category":"117","category_name":"便民商店/便利店","address":""},{"poiid":"B2094757D569A6FA489F","title":"浦江名邸二期","lon":"121.49591","lat":"31.25596389","category":"47","category_name":"住宅区","address":"上海市虹口区海伦路88弄"},{"poiid":"B2094655D36DA0FC4998","title":"新建路","lon":"121.49629","lat":"31.25437","category":"38","category_name":"公交车站","address":""},{"poiid":"B2094654D56DAAFE419A","title":"希望义卖中心永乐生活电器义卖店","lon":"121.49629","lat":"31.25471","category":"138","category_name":"家电电子卖场","address":"周家嘴路373"}]