[{"poiid":"B2094654DB6AA7FC489E","title":"夏朵花园","lon":"121.43787029084206","lat":"31.21163133636796","category":"47","category_name":"住宅区","address":"徐汇区复兴西路268号(近华山路)"},{"poiid":"B2094655D26DA5F44298","title":"上海兴国宾馆","lon":"121.43521","lat":"31.21058","category":"213","category_name":"五星级宾馆","address":"徐汇区兴国路78号(华山路口)"},{"poiid":"B2094654DB65A1FF489E","title":"丁香夏朵花园","lon":"121.43792","lat":"31.21134","category":"94","category_name":"西餐厅","address":"徐汇区华山路855号近复兴西路近丁香花园"},{"poiid":"B2094753D76FAAFA449C","title":"上海滩国泰旗舰店","lon":"121.466011","lat":"31.216125","category":"249","category_name":"购物服务","address":"淮海中路868号"},{"poiid":"B209475CD564A7F8439E","title":"上海滩中信泰富店","lon":"121.45602","lat":"31.22851","category":"119","category_name":"商场","address":"\"南京西路1168号中信泰富广场，店铺号221.\r\n\""},{"poiid":"B2094757D06FA3F5419D","title":"江苏路延安西路","lon":"121.43364002","lat":"31.214805118","category":"500","category_name":"未知分类","address":"上海江苏路延安西路"},{"poiid":"B2094757D068AAFE489F","title":"复兴西路","lon":"121.443012","lat":"31.208405","category":"46","category_name":"楼宇","address":"上海永福路"},{"poiid":"B2094757D06FA2F4469A","title":"衡山小馆(延安西路店)","lon":"121.43464","lat":"31.21412","category":"72","category_name":"广东菜","address":"长宁区延安西路719号佳都大厦底楼(近江苏路)"},{"poiid":"B2094757D16EA6FE499A","title":"聚膳源","lon":"121.437081586","lat":"31.2093992236","category":"76","category_name":"上海菜","address":"徐汇区复兴西路258号(近华山路)"},{"poiid":"B2094757D069A2FE4199","title":"绅公馆","lon":"121.43344","lat":"31.21014","category":"217","category_name":"旅馆招待所","address":"长宁区华山路1220弄6号(兴国宾馆对面)"},{"poiid":"B2094757D068ABFD4998","title":"上海电力医院","lon":"121.432008446","lat":"31.2141976127","category":"162","category_name":"医院","address":"长宁区延安西路937号(近江苏路)"},{"poiid":"B2094655D268A7FB4192","title":"法华525创意树林","lon":"121.432","lat":"31.2113","category":"46","category_name":"楼宇","address":"长宁区法华镇路525号(近定西路)"},{"poiid":"B2094757D06FA7F94593","title":"华山医院(江苏路分院)","lon":"121.43308812","lat":"31.212072266","category":"162","category_name":"医院","address":"上海长宁区江苏路796号"},{"poiid":"B2094750DB6AA5F4419E","title":"MOJITO HEAVEN","lon":"121.435333","lat":"31.213684","category":"260","category_name":"其他","address":"长宁区昭化东路130号(曹家堰路口)"},{"poiid":"B2094757D065A7F8489C","title":"兴国宾馆香樟园西餐厅","lon":"121.43489833","lat":"31.210478544","category":"268","category_name":"自助","address":"长宁区兴国路78号兴国宾馆1楼(华山路口)"},{"poiid":"B2094757D46FA6FB4799","title":"昨天今天明天 Time Passage","lon":"121.435986054","lat":"31.211984793","category":"172","category_name":"酒吧","address":"徐汇区华山路1038弄183号(曹家堰路口)"},{"poiid":"B2094751D56CA1FE459C","title":"夏朵西餐厅(丁香店)","lon":"121.43855","lat":"31.21245","category":"94","category_name":"西餐厅","address":"徐汇区华山路855号(近复兴西路)"},{"poiid":"B2094757D069A1FC409B","title":"兴国宾馆8号楼宴会厅","lon":"121.43587","lat":"31.20916","category":"217","category_name":"旅馆招待所","address":"上海徐汇区兴国路78号兴国宾馆内(华山路口)  "},{"poiid":"B2094654D564A4FD4293","title":"华山花园","lon":"121.4343","lat":"31.2119","category":"47","category_name":"住宅区","address":"徐汇区华山路555号(近华山医院)"},{"poiid":"B2094753DB6CA4F54893","title":"百丽宫IMAX环贸iamp","lon":"121.433998","lat":"31.211498","category":"148","category_name":"美容美发店","address":"上海市 上海市徐汇区淮海中路999号"},{"poiid":"B2094757D66AA6F44498","title":"兴国宾馆8号楼会议中心","lon":"121.434930054","lat":"31.210905793","category":"67","category_name":"甜品店","address":"兴国路78号兴国宾馆8号楼近华山路口"},{"poiid":"B2094654D564A5F5419F","title":"夏朵小铺","lon":"121.43821","lat":"31.21105","category":"131","category_name":"珠宝首饰工艺品","address":"华山路855号"},{"poiid":"B2094757D064A3F4489B","title":"上海市教育人才交流服务中心","lon":"121.43262","lat":"31.213723","category":"260","category_name":"其他","address":"上海延安西路900号"},{"poiid":"B2094654DB6BA7F4439D","title":"上海兴华宾馆","lon":"121.43327","lat":"31.21022","category":"215","category_name":"三星级宾馆","address":"徐汇区华山路1226号(近江苏路)"},{"poiid":"B2094757D469A0FB499F","title":"半个月亮精致小火锅","lon":"121.432858","lat":"31.215258","category":"86","category_name":"火锅店","address":"长宁区江苏路591号(近延安西路)"},{"poiid":"B2094757D064A6F84698","title":"朋朋烘焙体验馆(延安西路店)","lon":"121.433578","lat":"31.21486473","category":"67","category_name":"甜品店","address":"长宁区延安西路634号(近江苏路)"},{"poiid":"B2094757D06EAAFA499E","title":"地铁十一号线","lon":"121.43346","lat":"31.21548","category":"36","category_name":"地铁站","address":"上海嘉定 - 江苏路 轨道交通十一号线 轨交 11 "},{"poiid":"B2094654D564A4FC489F","title":"AIA友邦保险大厦","lon":"121.43446","lat":"31.21363","category":"46","category_name":"楼宇","address":"曹家堰路88"},{"poiid":"B2094757D069AAFE4792","title":"逸谷(延安西路店)","lon":"121.43158","lat":"31.2121","category":"72","category_name":"广东菜","address":"长宁区延安西路1088号长峰中心H座(近番愚路)"},{"poiid":"B2094757D068A6FA4698","title":"上海市信息中心","lon":"121.43637245","lat":"31.212247079","category":"46","category_name":"楼宇","address":"上海华山路1076号"},{"poiid":"B2094757D16CA2F8459E","title":"长宁区区委党校","lon":"121.433432639","lat":"31.2127267","category":"500","category_name":"未知分类","address":"上海江苏路888号"},{"poiid":"B2094654D564A4FC419A","title":"嘉里华庭","lon":"121.43649","lat":"31.213028","category":"47","category_name":"住宅区","address":"上海市长宁区延安西路1235弄"},{"poiid":"B2094654D564A6FD4798","title":"复旦大学附属华山医院(分部)","lon":"121.4331","lat":"31.21207","category":"162","category_name":"医院","address":"江苏路796号"},{"poiid":"B2094757D465A0F54699","title":"丽宫中餐厅","lon":"121.434999054","lat":"31.210854793","category":"76","category_name":"上海菜","address":"长宁区兴国路78号兴国宾馆4楼(华山路口)"},{"poiid":"B2094654D564A6FF4599","title":"时代大厦","lon":"121.436","lat":"31.2107","category":"46","category_name":"楼宇","address":"番禺路390号"},{"poiid":"B2094655D26FA2FD4098","title":"上海小南国","lon":"121.43324","lat":"31.21022","category":"76","category_name":"上海菜","address":"长宁区华山路1226号(近江苏路)"},{"poiid":"B2094655D36CA7FC449A","title":"华山路江苏路","lon":"121.43379","lat":"31.21056","category":"38","category_name":"公交车站","address":""},{"poiid":"B2094655D36CA7FC459A","title":"华山路复兴西路","lon":"121.43621","lat":"31.21119","category":"38","category_name":"公交车站","address":""},{"poiid":"B2094757D464A0F4469B","title":"金格咖啡 复兴西路店 Ginger Cafe","lon":"121.43730620329","lat":"31.211288813686","category":"65","category_name":"咖啡厅","address":"复兴西路299弄1号近华山路"},{"poiid":"B2094757D16EA7F4449C","title":"Cuivre","lon":"121.43533258","lat":"31.212463083","category":"500","category_name":"未知分类","address":"上海淮海中路1502号(乌鲁木齐路)"},{"poiid":"B2094654D564A6FD479B","title":"复旦大学附属华山医院第三门诊部","lon":"121.43356","lat":"31.21249","category":"162","category_name":"医院","address":""},{"poiid":"B2094654D564A6FD4899","title":"贵冠商务中心","lon":"121.43384","lat":"31.21185","category":"46","category_name":"楼宇","address":"江苏路876"},{"poiid":"B2094751D465A1F84599","title":"cozy wine Bar&Bistro","lon":"121.436364","lat":"31.213477","category":"247","category_name":"餐饮美食","address":"徐匯區武康路97號（五原路口）"},{"poiid":"B2094654D564A4FD4292","title":"快客(尚联国际大楼东南)","lon":"121.43427","lat":"31.21198","category":"117","category_name":"便民商店/便利店","address":"江苏路809临"},{"poiid":"B2094751D56CA7F8479F","title":"Ginger Cafe(兴国路店)","lon":"121.43604","lat":"31.2089","category":"247","category_name":"餐饮美食","address":"徐汇区兴国路91号(近湖南路预计10月初开业)"},{"poiid":"B2094654D564A6FD479E","title":"尚联国际大楼","lon":"121.43361","lat":"31.21223","category":"46","category_name":"楼宇","address":"江苏路828"},{"poiid":"B2094654DB65AAF9429D","title":"江华机电大楼","lon":"121.43476","lat":"31.21163","category":"47","category_name":"住宅区","address":"江苏路835号"},{"poiid":"B2094753DA6EA5FA4898","title":"嘉里华庭第五座","lon":"121.436","lat":"31.2131","category":"47","category_name":"住宅区","address":"上海市长宁区华山路1038弄"},{"poiid":"B2094757D568A6F44998","title":"上海市长宁区社会主义学院","lon":"121.43373074","lat":"31.21134169","category":"52","category_name":"高等院校","address":"江苏路888"},{"poiid":"B2094654D564A4FC4093","title":"环保大楼","lon":"121.43555","lat":"31.21346","category":"46","category_name":"楼宇","address":"华山路1038弄161"},{"poiid":"B2094654DB6AA7FC489E","title":"夏朵花园","lon":"121.43787029084206","lat":"31.21163133636796","category":"47","category_name":"住宅区","address":"徐汇区复兴西路268号(近华山路)"},{"poiid":"B2094655D26DA5F44298","title":"上海兴国宾馆","lon":"121.43521","lat":"31.21058","category":"213","category_name":"五星级宾馆","address":"徐汇区兴国路78号(华山路口)"},{"poiid":"B2094654DB65A1FF489E","title":"丁香夏朵花园","lon":"121.43792","lat":"31.21134","category":"94","category_name":"西餐厅","address":"徐汇区华山路855号近复兴西路近丁香花园"},{"poiid":"B2094753D76FAAFA449C","title":"上海滩国泰旗舰店","lon":"121.466011","lat":"31.216125","category":"249","category_name":"购物服务","address":"淮海中路868号"},{"poiid":"B209475CD564A7F8439E","title":"上海滩中信泰富店","lon":"121.45602","lat":"31.22851","category":"119","category_name":"商场","address":"\"南京西路1168号中信泰富广场，店铺号221.\r\n\""},{"poiid":"B2094757D06FA3F5419D","title":"江苏路延安西路","lon":"121.43364002","lat":"31.214805118","category":"500","category_name":"未知分类","address":"上海江苏路延安西路"},{"poiid":"B2094757D068AAFE489F","title":"复兴西路","lon":"121.443012","lat":"31.208405","category":"46","category_name":"楼宇","address":"上海永福路"},{"poiid":"B2094757D06FA2F4469A","title":"衡山小馆(延安西路店)","lon":"121.43464","lat":"31.21412","category":"72","category_name":"广东菜","address":"长宁区延安西路719号佳都大厦底楼(近江苏路)"},{"poiid":"B2094757D16EA6FE499A","title":"聚膳源","lon":"121.437081586","lat":"31.2093992236","category":"76","category_name":"上海菜","address":"徐汇区复兴西路258号(近华山路)"},{"poiid":"B2094757D069A2FE4199","title":"绅公馆","lon":"121.43344","lat":"31.21014","category":"217","category_name":"旅馆招待所","address":"长宁区华山路1220弄6号(兴国宾馆对面)"},{"poiid":"B2094757D068ABFD4998","title":"上海电力医院","lon":"121.432008446","lat":"31.2141976127","category":"162","category_name":"医院","address":"长宁区延安西路937号(近江苏路)"},{"poiid":"B2094655D268A7FB4192","title":"法华525创意树林","lon":"121.432","lat":"31.2113","category":"46","category_name":"楼宇","address":"长宁区法华镇路525号(近定西路)"},{"poiid":"B2094757D06FA7F94593","title":"华山医院(江苏路分院)","lon":"121.43308812","lat":"31.212072266","category":"162","category_name":"医院","address":"上海长宁区江苏路796号"},{"poiid":"B2094750DB6AA5F4419E","title":"MOJITO HEAVEN","lon":"121.435333","lat":"31.213684","category":"260","category_name":"其他","address":"长宁区昭化东路130号(曹家堰路口)"},{"poiid":"B2094757D065A7F8489C","title":"兴国宾馆香樟园西餐厅","lon":"121.43489833","lat":"31.210478544","category":"268","category_name":"自助","address":"长宁区兴国路78号兴国宾馆1楼(华山路口)"},{"poiid":"B2094757D46FA6FB4799","title":"昨天今天明天 Time Passage","lon":"121.435986054","lat":"31.211984793","category":"172","category_name":"酒吧","address":"徐汇区华山路1038弄183号(曹家堰路口)"},{"poiid":"B2094751D56CA1FE459C","title":"夏朵西餐厅(丁香店)","lon":"121.43855","lat":"31.21245","category":"94","category_name":"西餐厅","address":"徐汇区华山路855号(近复兴西路)"},{"poiid":"B2094757D069A1FC409B","title":"兴国宾馆8号楼宴会厅","lon":"121.43587","lat":"31.20916","category":"217","category_name":"旅馆招待所","address":"上海徐汇区兴国路78号兴国宾馆内(华山路口)  "},{"poiid":"B2094654D564A4FD4293","title":"华山花园","lon":"121.4343","lat":"31.2119","category":"47","category_name":"住宅区","address":"徐汇区华山路555号(近华山医院)"},{"poiid":"B2094753DB6CA4F54893","title":"百丽宫IMAX环贸iamp","lon":"121.433998","lat":"31.211498","category":"148","category_name":"美容美发店","address":"上海市 上海市徐汇区淮海中路999号"},{"poiid":"B2094757D66AA6F44498","title":"兴国宾馆8号楼会议中心","lon":"121.434930054","lat":"31.210905793","category":"67","category_name":"甜品店","address":"兴国路78号兴国宾馆8号楼近华山路口"},{"poiid":"B2094654D564A5F5419F","title":"夏朵小铺","lon":"121.43821","lat":"31.21105","category":"131","category_name":"珠宝首饰工艺品","address":"华山路855号"},{"poiid":"B2094757D064A3F4489B","title":"上海市教育人才交流服务中心","lon":"121.43262","lat":"31.213723","category":"260","category_name":"其他","address":"上海延安西路900号"},{"poiid":"B2094654DB6BA7F4439D","title":"上海兴华宾馆","lon":"121.43327","lat":"31.21022","category":"215","category_name":"三星级宾馆","address":"徐汇区华山路1226号(近江苏路)"},{"poiid":"B2094757D469A0FB499F","title":"半个月亮精致小火锅","lon":"121.432858","lat":"31.215258","category":"86","category_name":"火锅店","address":"长宁区江苏路591号(近延安西路)"},{"poiid":"B2094757D064A6F84698","title":"朋朋烘焙体验馆(延安西路店)","lon":"121.433578","lat":"31.21486473","category":"67","category_name":"甜品店","address":"长宁区延安西路634号(近江苏路)"},{"poiid":"B2094757D06EAAFA499E","title":"地铁十一号线","lon":"121.43346","lat":"31.21548","category":"36","category_name":"地铁站","address":"上海嘉定 - 江苏路 轨道交通十一号线 轨交 11 "},{"poiid":"B2094654D564A4FC489F","title":"AIA友邦保险大厦","lon":"121.43446","lat":"31.21363","category":"46","category_name":"楼宇","address":"曹家堰路88"},{"poiid":"B2094757D069AAFE4792","title":"逸谷(延安西路店)","lon":"121.43158","lat":"31.2121","category":"72","category_name":"广东菜","address":"长宁区延安西路1088号长峰中心H座(近番愚路)"},{"poiid":"B2094757D068A6FA4698","title":"上海市信息中心","lon":"121.43637245","lat":"31.212247079","category":"46","category_name":"楼宇","address":"上海华山路1076号"},{"poiid":"B2094757D16CA2F8459E","title":"长宁区区委党校","lon":"121.433432639","lat":"31.2127267","category":"500","category_name":"未知分类","address":"上海江苏路888号"},{"poiid":"B2094654D564A4FC419A","title":"嘉里华庭","lon":"121.43649","lat":"31.213028","category":"47","category_name":"住宅区","address":"上海市长宁区延安西路1235弄"},{"poiid":"B2094654D564A6FD4798","title":"复旦大学附属华山医院(分部)","lon":"121.4331","lat":"31.21207","category":"162","category_name":"医院","address":"江苏路796号"},{"poiid":"B2094757D465A0F54699","title":"丽宫中餐厅","lon":"121.434999054","lat":"31.210854793","category":"76","category_name":"上海菜","address":"长宁区兴国路78号兴国宾馆4楼(华山路口)"},{"poiid":"B2094654D564A6FF4599","title":"时代大厦","lon":"121.436","lat":"31.2107","category":"46","category_name":"楼宇","address":"番禺路390号"},{"poiid":"B2094655D26FA2FD4098","title":"上海小南国","lon":"121.43324","lat":"31.21022","category":"76","category_name":"上海菜","address":"长宁区华山路1226号(近江苏路)"},{"poiid":"B2094655D36CA7FC449A","title":"华山路江苏路","lon":"121.43379","lat":"31.21056","category":"38","category_name":"公交车站","address":""},{"poiid":"B2094655D36CA7FC459A","title":"华山路复兴西路","lon":"121.43621","lat":"31.21119","category":"38","category_name":"公交车站","address":""},{"poiid":"B2094757D464A0F4469B","title":"金格咖啡 复兴西路店 Ginger Cafe","lon":"121.43730620329","lat":"31.211288813686","category":"65","category_name":"咖啡厅","address":"复兴西路299弄1号近华山路"},{"poiid":"B2094757D16EA7F4449C","title":"Cuivre","lon":"121.43533258","lat":"31.212463083","category":"500","category_name":"未知分类","address":"上海淮海中路1502号(乌鲁木齐路)"},{"poiid":"B2094654D564A6FD479B","title":"复旦大学附属华山医院第三门诊部","lon":"121.43356","lat":"31.21249","category":"162","category_name":"医院","address":""},{"poiid":"B2094654D564A6FD4899","title":"贵冠商务中心","lon":"121.43384","lat":"31.21185","category":"46","category_name":"楼宇","address":"江苏路876"},{"poiid":"B2094751D465A1F84599","title":"cozy wine Bar&Bistro","lon":"121.436364","lat":"31.213477","category":"247","category_name":"餐饮美食","address":"徐匯區武康路97號（五原路口）"},{"poiid":"B2094654D564A4FD4292","title":"快客(尚联国际大楼东南)","lon":"121.43427","lat":"31.21198","category":"117","category_name":"便民商店/便利店","address":"江苏路809临"},{"poiid":"B2094751D56CA7F8479F","title":"Ginger Cafe(兴国路店)","lon":"121.43604","lat":"31.2089","category":"247","category_name":"餐饮美食","address":"徐汇区兴国路91号(近湖南路预计10月初开业)"},{"poiid":"B2094654D564A6FD479E","title":"尚联国际大楼","lon":"121.43361","lat":"31.21223","category":"46","category_name":"楼宇","address":"江苏路828"},{"poiid":"B2094654DB65AAF9429D","title":"江华机电大楼","lon":"121.43476","lat":"31.21163","category":"47","category_name":"住宅区","address":"江苏路835号"},{"poiid":"B2094753DA6EA5FA4898","title":"嘉里华庭第五座","lon":"121.436","lat":"31.2131","category":"47","category_name":"住宅区","address":"上海市长宁区华山路1038弄"},{"poiid":"B2094757D568A6F44998","title":"上海市长宁区社会主义学院","lon":"121.43373074","lat":"31.21134169","category":"52","category_name":"高等院校","address":"江苏路888"},{"poiid":"B2094654D564A4FC4093","title":"环保大楼","lon":"121.43555","lat":"31.21346","category":"46","category_name":"楼宇","address":"华山路1038弄161"},{"poiid":"B2094654DB6AA7FC489E","title":"夏朵花园","lon":"121.43787029084206","lat":"31.21163133636796","category":"47","category_name":"住宅区","address":"徐汇区复兴西路268号(近华山路)"},{"poiid":"B2094655D26DA5F44298","title":"上海兴国宾馆","lon":"121.43521","lat":"31.21058","category":"213","category_name":"五星级宾馆","address":"徐汇区兴国路78号(华山路口)"},{"poiid":"B2094654DB65A1FF489E","title":"丁香夏朵花园","lon":"121.43792","lat":"31.21134","category":"94","category_name":"西餐厅","address":"徐汇区华山路855号近复兴西路近丁香花园"},{"poiid":"B2094753D76FAAFA449C","title":"上海滩国泰旗舰店","lon":"121.466011","lat":"31.216125","category":"249","category_name":"购物服务","address":"淮海中路868号"},{"poiid":"B209475CD564A7F8439E","title":"上海滩中信泰富店","lon":"121.45602","lat":"31.22851","category":"119","category_name":"商场","address":"\"南京西路1168号中信泰富广场，店铺号221.\r\n\""},{"poiid":"B2094757D06FA3F5419D","title":"江苏路延安西路","lon":"121.43364002","lat":"31.214805118","category":"500","category_name":"未知分类","address":"上海江苏路延安西路"},{"poiid":"B2094757D068AAFE489F","title":"复兴西路","lon":"121.443012","lat":"31.208405","category":"46","category_name":"楼宇","address":"上海永福路"},{"poiid":"B2094757D06FA2F4469A","title":"衡山小馆(延安西路店)","lon":"121.43464","lat":"31.21412","category":"72","category_name":"广东菜","address":"长宁区延安西路719号佳都大厦底楼(近江苏路)"},{"poiid":"B2094757D16EA6FE499A","title":"聚膳源","lon":"121.437081586","lat":"31.2093992236","category":"76","category_name":"上海菜","address":"徐汇区复兴西路258号(近华山路)"},{"poiid":"B2094757D069A2FE4199","title":"绅公馆","lon":"121.43344","lat":"31.21014","category":"217","category_name":"旅馆招待所","address":"长宁区华山路1220弄6号(兴国宾馆对面)"},{"poiid":"B2094757D068ABFD4998","title":"上海电力医院","lon":"121.432008446","lat":"31.2141976127","category":"162","category_name":"医院","address":"长宁区延安西路937号(近江苏路)"},{"poiid":"B2094655D268A7FB4192","title":"法华525创意树林","lon":"121.432","lat":"31.2113","category":"46","category_name":"楼宇","address":"长宁区法华镇路525号(近定西路)"},{"poiid":"B2094757D06FA7F94593","title":"华山医院(江苏路分院)","lon":"121.43308812","lat":"31.212072266","category":"162","category_name":"医院","address":"上海长宁区江苏路796号"},{"poiid":"B2094750DB6AA5F4419E","title":"MOJITO HEAVEN","lon":"121.435333","lat":"31.213684","category":"260","category_name":"其他","address":"长宁区昭化东路130号(曹家堰路口)"},{"poiid":"B2094757D065A7F8489C","title":"兴国宾馆香樟园西餐厅","lon":"121.43489833","lat":"31.210478544","category":"268","category_name":"自助","address":"长宁区兴国路78号兴国宾馆1楼(华山路口)"},{"poiid":"B2094757D46FA6FB4799","title":"昨天今天明天 Time Passage","lon":"121.435986054","lat":"31.211984793","category":"172","category_name":"酒吧","address":"徐汇区华山路1038弄183号(曹家堰路口)"},{"poiid":"B2094751D56CA1FE459C","title":"夏朵西餐厅(丁香店)","lon":"121.43855","lat":"31.21245","category":"94","category_name":"西餐厅","address":"徐汇区华山路855号(近复兴西路)"},{"poiid":"B2094757D069A1FC409B","title":"兴国宾馆8号楼宴会厅","lon":"121.43587","lat":"31.20916","category":"217","category_name":"旅馆招待所","address":"上海徐汇区兴国路78号兴国宾馆内(华山路口)  "},{"poiid":"B2094654D564A4FD4293","title":"华山花园","lon":"121.4343","lat":"31.2119","category":"47","category_name":"住宅区","address":"徐汇区华山路555号(近华山医院)"},{"poiid":"B2094753DB6CA4F54893","title":"百丽宫IMAX环贸iamp","lon":"121.433998","lat":"31.211498","category":"148","category_name":"美容美发店","address":"上海市 上海市徐汇区淮海中路999号"},{"poiid":"B2094757D66AA6F44498","title":"兴国宾馆8号楼会议中心","lon":"121.434930054","lat":"31.210905793","category":"67","category_name":"甜品店","address":"兴国路78号兴国宾馆8号楼近华山路口"},{"poiid":"B2094654D564A5F5419F","title":"夏朵小铺","lon":"121.43821","lat":"31.21105","category":"131","category_name":"珠宝首饰工艺品","address":"华山路855号"},{"poiid":"B2094757D064A3F4489B","title":"上海市教育人才交流服务中心","lon":"121.43262","lat":"31.213723","category":"260","category_name":"其他","address":"上海延安西路900号"},{"poiid":"B2094654DB6BA7F4439D","title":"上海兴华宾馆","lon":"121.43327","lat":"31.21022","category":"215","category_name":"三星级宾馆","address":"徐汇区华山路1226号(近江苏路)"},{"poiid":"B2094757D469A0FB499F","title":"半个月亮精致小火锅","lon":"121.432858","lat":"31.215258","category":"86","category_name":"火锅店","address":"长宁区江苏路591号(近延安西路)"},{"poiid":"B2094757D064A6F84698","title":"朋朋烘焙体验馆(延安西路店)","lon":"121.433578","lat":"31.21486473","category":"67","category_name":"甜品店","address":"长宁区延安西路634号(近江苏路)"},{"poiid":"B2094757D06EAAFA499E","title":"地铁十一号线","lon":"121.43346","lat":"31.21548","category":"36","category_name":"地铁站","address":"上海嘉定 - 江苏路 轨道交通十一号线 轨交 11 "},{"poiid":"B2094654D564A4FC489F","title":"AIA友邦保险大厦","lon":"121.43446","lat":"31.21363","category":"46","category_name":"楼宇","address":"曹家堰路88"},{"poiid":"B2094757D069AAFE4792","title":"逸谷(延安西路店)","lon":"121.43158","lat":"31.2121","category":"72","category_name":"广东菜","address":"长宁区延安西路1088号长峰中心H座(近番愚路)"},{"poiid":"B2094757D068A6FA4698","title":"上海市信息中心","lon":"121.43637245","lat":"31.212247079","category":"46","category_name":"楼宇","address":"上海华山路1076号"},{"poiid":"B2094757D16CA2F8459E","title":"长宁区区委党校","lon":"121.433432639","lat":"31.2127267","category":"500","category_name":"未知分类","address":"上海江苏路888号"},{"poiid":"B2094654D564A4FC419A","title":"嘉里华庭","lon":"121.43649","lat":"31.213028","category":"47","category_name":"住宅区","address":"上海市长宁区延安西路1235弄"},{"poiid":"B2094654D564A6FD4798","title":"复旦大学附属华山医院(分部)","lon":"121.4331","lat":"31.21207","category":"162","category_name":"医院","address":"江苏路796号"},{"poiid":"B2094757D465A0F54699","title":"丽宫中餐厅","lon":"121.434999054","lat":"31.210854793","category":"76","category_name":"上海菜","address":"长宁区兴国路78号兴国宾馆4楼(华山路口)"},{"poiid":"B2094654D564A6FF4599","title":"时代大厦","lon":"121.436","lat":"31.2107","category":"46","category_name":"楼宇","address":"番禺路390号"},{"poiid":"B2094655D26FA2FD4098","title":"上海小南国","lon":"121.43324","lat":"31.21022","category":"76","category_name":"上海菜","address":"长宁区华山路1226号(近江苏路)"},{"poiid":"B2094655D36CA7FC449A","title":"华山路江苏路","lon":"121.43379","lat":"31.21056","category":"38","category_name":"公交车站","address":""},{"poiid":"B2094655D36CA7FC459A","title":"华山路复兴西路","lon":"121.43621","lat":"31.21119","category":"38","category_name":"公交车站","address":""},{"poiid":"B2094757D464A0F4469B","title":"金格咖啡 复兴西路店 Ginger Cafe","lon":"121.43730620329","lat":"31.211288813686","category":"65","category_name":"咖啡厅","address":"复兴西路299弄1号近华山路"},{"poiid":"B2094757D16EA7F4449C","title":"Cuivre","lon":"121.43533258","lat":"31.212463083","category":"500","category_name":"未知分类","address":"上海淮海中路1502号(乌鲁木齐路)"},{"poiid":"B2094654D564A6FD479B","title":"复旦大学附属华山医院第三门诊部","lon":"121.43356","lat":"31.21249","category":"162","category_name":"医院","address":""},{"poiid":"B2094654D564A6FD4899","title":"贵冠商务中心","lon":"121.43384","lat":"31.21185","category":"46","category_name":"楼宇","address":"江苏路876"},{"poiid":"B2094751D465A1F84599","title":"cozy wine Bar&Bistro","lon":"121.436364","lat":"31.213477","category":"247","category_name":"餐饮美食","address":"徐匯區武康路97號（五原路口）"},{"poiid":"B2094654D564A4FD4292","title":"快客(尚联国际大楼东南)","lon":"121.43427","lat":"31.21198","category":"117","category_name":"便民商店/便利店","address":"江苏路809临"},{"poiid":"B2094751D56CA7F8479F","title":"Ginger Cafe(兴国路店)","lon":"121.43604","lat":"31.2089","category":"247","category_name":"餐饮美食","address":"徐汇区兴国路91号(近湖南路预计10月初开业)"},{"poiid":"B2094654D564A6FD479E","title":"尚联国际大楼","lon":"121.43361","lat":"31.21223","category":"46","category_name":"楼宇","address":"江苏路828"},{"poiid":"B2094654DB65AAF9429D","title":"江华机电大楼","lon":"121.43476","lat":"31.21163","category":"47","category_name":"住宅区","address":"江苏路835号"},{"poiid":"B2094753DA6EA5FA4898","title":"嘉里华庭第五座","lon":"121.436","lat":"31.2131","category":"47","category_name":"住宅区","address":"上海市长宁区华山路1038弄"},{"poiid":"B2094757D568A6F44998","title":"上海市长宁区社会主义学院","lon":"121.43373074","lat":"31.21134169","category":"52","category_name":"高等院校","address":"江苏路888"},{"poiid":"B2094654D564A4FC4093","title":"环保大楼","lon":"121.43555","lat":"31.21346","category":"46","category_name":"楼宇","address":"华山路1038弄161"},{"poiid":"B2094654DB6AA7FC489E","title":"夏朵花园","lon":"121.43787029084206","lat":"31.21163133636796","category":"47","category_name":"住宅区","address":"徐汇区复兴西路268号(近华山路)"},{"poiid":"B2094655D26DA5F44298","title":"上海兴国宾馆","lon":"121.43521","lat":"31.21058","category":"213","category_name":"五星级宾馆","address":"徐汇区兴国路78号(华山路口)"},{"poiid":"B2094654DB65A1FF489E","title":"丁香夏朵花园","lon":"121.43792","lat":"31.21134","category":"94","category_name":"西餐厅","address":"徐汇区华山路855号近复兴西路近丁香花园"},{"poiid":"B2094753D76FAAFA449C","title":"上海滩国泰旗舰店","lon":"121.466011","lat":"31.216125","category":"249","category_name":"购物服务","address":"淮海中路868号"},{"poiid":"B209475CD564A7F8439E","title":"上海滩中信泰富店","lon":"121.45602","lat":"31.22851","category":"119","category_name":"商场","address":"\"南京西路1168号中信泰富广场，店铺号221.\r\n\""},{"poiid":"B2094757D06FA3F5419D","title":"江苏路延安西路","lon":"121.43364002","lat":"31.214805118","category":"500","category_name":"未知分类","address":"上海江苏路延安西路"},{"poiid":"B2094757D068AAFE489F","title":"复兴西路","lon":"121.443012","lat":"31.208405","category":"46","category_name":"楼宇","address":"上海永福路"},{"poiid":"B2094757D06FA2F4469A","title":"衡山小馆(延安西路店)","lon":"121.43464","lat":"31.21412","category":"72","category_name":"广东菜","address":"长宁区延安西路719号佳都大厦底楼(近江苏路)"},{"poiid":"B2094757D16EA6FE499A","title":"聚膳源","lon":"121.437081586","lat":"31.2093992236","category":"76","category_name":"上海菜","address":"徐汇区复兴西路258号(近华山路)"},{"poiid":"B2094757D069A2FE4199","title":"绅公馆","lon":"121.43344","lat":"31.21014","category":"217","category_name":"旅馆招待所","address":"长宁区华山路1220弄6号(兴国宾馆对面)"},{"poiid":"B2094757D068ABFD4998","title":"上海电力医院","lon":"121.432008446","lat":"31.2141976127","category":"162","category_name":"医院","address":"长宁区延安西路937号(近江苏路)"},{"poiid":"B2094655D268A7FB4192","title":"法华525创意树林","lon":"121.432","lat":"31.2113","category":"46","category_name":"楼宇","address":"长宁区法华镇路525号(近定西路)"},{"poiid":"B2094757D06FA7F94593","title":"华山医院(江苏路分院)","lon":"121.43308812","lat":"31.212072266","category":"162","category_name":"医院","address":"上海长宁区江苏路796号"},{"poiid":"B2094750DB6AA5F4419E","title":"MOJITO HEAVEN","lon":"121.435333","lat":"31.213684","category":"260","category_name":"其他","address":"长宁区昭化东路130号(曹家堰路口)"},{"poiid":"B2094757D065A7F8489C","title":"兴国宾馆香樟园西餐厅","lon":"121.43489833","lat":"31.210478544","category":"268","category_name":"自助","address":"长宁区兴国路78号兴国宾馆1楼(华山路口)"},{"poiid":"B2094757D46FA6FB4799","title":"昨天今天明天 Time Passage","lon":"121.435986054","lat":"31.211984793","category":"172","category_name":"酒吧","address":"徐汇区华山路1038弄183号(曹家堰路口)"},{"poiid":"B2094751D56CA1FE459C","title":"夏朵西餐厅(丁香店)","lon":"121.43855","lat":"31.21245","category":"94","category_name":"西餐厅","address":"徐汇区华山路855号(近复兴西路)"},{"poiid":"B2094757D069A1FC409B","title":"兴国宾馆8号楼宴会厅","lon":"121.43587","lat":"31.20916","category":"217","category_name":"旅馆招待所","address":"上海徐汇区兴国路78号兴国宾馆内(华山路口)  "},{"poiid":"B2094654D564A4FD4293","title":"华山花园","lon":"121.4343","lat":"31.2119","category":"47","category_name":"住宅区","address":"徐汇区华山路555号(近华山医院)"},{"poiid":"B2094753DB6CA4F54893","title":"百丽宫IMAX环贸iamp","lon":"121.433998","lat":"31.211498","category":"148","category_name":"美容美发店","address":"上海市 上海市徐汇区淮海中路999号"},{"poiid":"B2094757D66AA6F44498","title":"兴国宾馆8号楼会议中心","lon":"121.434930054","lat":"31.210905793","category":"67","category_name":"甜品店","address":"兴国路78号兴国宾馆8号楼近华山路口"},{"poiid":"B2094654D564A5F5419F","title":"夏朵小铺","lon":"121.43821","lat":"31.21105","category":"131","category_name":"珠宝首饰工艺品","address":"华山路855号"},{"poiid":"B2094757D064A3F4489B","title":"上海市教育人才交流服务中心","lon":"121.43262","lat":"31.213723","category":"260","category_name":"其他","address":"上海延安西路900号"},{"poiid":"B2094654DB6BA7F4439D","title":"上海兴华宾馆","lon":"121.43327","lat":"31.21022","category":"215","category_name":"三星级宾馆","address":"徐汇区华山路1226号(近江苏路)"},{"poiid":"B2094757D469A0FB499F","title":"半个月亮精致小火锅","lon":"121.432858","lat":"31.215258","category":"86","category_name":"火锅店","address":"长宁区江苏路591号(近延安西路)"},{"poiid":"B2094757D064A6F84698","title":"朋朋烘焙体验馆(延安西路店)","lon":"121.433578","lat":"31.21486473","category":"67","category_name":"甜品店","address":"长宁区延安西路634号(近江苏路)"},{"poiid":"B2094757D06EAAFA499E","title":"地铁十一号线","lon":"121.43346","lat":"31.21548","category":"36","category_name":"地铁站","address":"上海嘉定 - 江苏路 轨道交通十一号线 轨交 11 "},{"poiid":"B2094654D564A4FC489F","title":"AIA友邦保险大厦","lon":"121.43446","lat":"31.21363","category":"46","category_name":"楼宇","address":"曹家堰路88"},{"poiid":"B2094757D069AAFE4792","title":"逸谷(延安西路店)","lon":"121.43158","lat":"31.2121","category":"72","category_name":"广东菜","address":"长宁区延安西路1088号长峰中心H座(近番愚路)"},{"poiid":"B2094757D068A6FA4698","title":"上海市信息中心","lon":"121.43637245","lat":"31.212247079","category":"46","category_name":"楼宇","address":"上海华山路1076号"},{"poiid":"B2094757D16CA2F8459E","title":"长宁区区委党校","lon":"121.433432639","lat":"31.2127267","category":"500","category_name":"未知分类","address":"上海江苏路888号"},{"poiid":"B2094654D564A4FC419A","title":"嘉里华庭","lon":"121.43649","lat":"31.213028","category":"47","category_name":"住宅区","address":"上海市长宁区延安西路1235弄"},{"poiid":"B2094654D564A6FD4798","title":"复旦大学附属华山医院(分部)","lon":"121.4331","lat":"31.21207","category":"162","category_name":"医院","address":"江苏路796号"},{"poiid":"B2094757D465A0F54699","title":"丽宫中餐厅","lon":"121.434999054","lat":"31.210854793","category":"76","category_name":"上海菜","address":"长宁区兴国路78号兴国宾馆4楼(华山路口)"},{"poiid":"B2094654D564A6FF4599","title":"时代大厦","lon":"121.436","lat":"31.2107","category":"46","category_name":"楼宇","address":"番禺路390号"},{"poiid":"B2094655D26FA2FD4098","title":"上海小南国","lon":"121.43324","lat":"31.21022","category":"76","category_name":"上海菜","address":"长宁区华山路1226号(近江苏路)"},{"poiid":"B2094655D36CA7FC449A","title":"华山路江苏路","lon":"121.43379","lat":"31.21056","category":"38","category_name":"公交车站","address":""},{"poiid":"B2094655D36CA7FC459A","title":"华山路复兴西路","lon":"121.43621","lat":"31.21119","category":"38","category_name":"公交车站","address":""},{"poiid":"B2094757D464A0F4469B","title":"金格咖啡 复兴西路店 Ginger Cafe","lon":"121.43730620329","lat":"31.211288813686","category":"65","category_name":"咖啡厅","address":"复兴西路299弄1号近华山路"},{"poiid":"B2094757D16EA7F4449C","title":"Cuivre","lon":"121.43533258","lat":"31.212463083","category":"500","category_name":"未知分类","address":"上海淮海中路1502号(乌鲁木齐路)"},{"poiid":"B2094654D564A6FD479B","title":"复旦大学附属华山医院第三门诊部","lon":"121.43356","lat":"31.21249","category":"162","category_name":"医院","address":""},{"poiid":"B2094654D564A6FD4899","title":"贵冠商务中心","lon":"121.43384","lat":"31.21185","category":"46","category_name":"楼宇","address":"江苏路876"},{"poiid":"B2094751D465A1F84599","title":"cozy wine Bar&Bistro","lon":"121.436364","lat":"31.213477","category":"247","category_name":"餐饮美食","address":"徐匯區武康路97號（五原路口）"},{"poiid":"B2094654D564A4FD4292","title":"快客(尚联国际大楼东南)","lon":"121.43427","lat":"31.21198","category":"117","category_name":"便民商店/便利店","address":"江苏路809临"},{"poiid":"B2094751D56CA7F8479F","title":"Ginger Cafe(兴国路店)","lon":"121.43604","lat":"31.2089","category":"247","category_name":"餐饮美食","address":"徐汇区兴国路91号(近湖南路预计10月初开业)"},{"poiid":"B2094654D564A6FD479E","title":"尚联国际大楼","lon":"121.43361","lat":"31.21223","category":"46","category_name":"楼宇","address":"江苏路828"},{"poiid":"B2094654DB65AAF9429D","title":"江华机电大楼","lon":"121.43476","lat":"31.21163","category":"47","category_name":"住宅区","address":"江苏路835号"},{"poiid":"B2094753DA6EA5FA4898","title":"嘉里华庭第五座","lon":"121.436","lat":"31.2131","category":"47","category_name":"住宅区","address":"上海市长宁区华山路1038弄"},{"poiid":"B2094757D568A6F44998","title":"上海市长宁区社会主义学院","lon":"121.43373074","lat":"31.21134169","category":"52","category_name":"高等院校","address":"江苏路888"},{"poiid":"B2094654D564A4FC4093","title":"环保大楼","lon":"121.43555","lat":"31.21346","category":"46","category_name":"楼宇","address":"华山路1038弄161"},{"poiid":"B2094654DB6AA7FC489E","title":"夏朵花园","lon":"121.43787029084206","lat":"31.21163133636796","category":"47","category_name":"住宅区","address":"徐汇区复兴西路268号(近华山路)"},{"poiid":"B2094655D26DA5F44298","title":"上海兴国宾馆","lon":"121.43521","lat":"31.21058","category":"213","category_name":"五星级宾馆","address":"徐汇区兴国路78号(华山路口)"},{"poiid":"B2094654DB65A1FF489E","title":"丁香夏朵花园","lon":"121.43792","lat":"31.21134","category":"94","category_name":"西餐厅","address":"徐汇区华山路855号近复兴西路近丁香花园"},{"poiid":"B2094753D76FAAFA449C","title":"上海滩国泰旗舰店","lon":"121.466011","lat":"31.216125","category":"249","category_name":"购物服务","address":"淮海中路868号"},{"poiid":"B209475CD564A7F8439E","title":"上海滩中信泰富店","lon":"121.45602","lat":"31.22851","category":"119","category_name":"商场","address":"\"南京西路1168号中信泰富广场，店铺号221.\r\n\""},{"poiid":"B2094757D06FA3F5419D","title":"江苏路延安西路","lon":"121.43364002","lat":"31.214805118","category":"500","category_name":"未知分类","address":"上海江苏路延安西路"},{"poiid":"B2094757D068AAFE489F","title":"复兴西路","lon":"121.443012","lat":"31.208405","category":"46","category_name":"楼宇","address":"上海永福路"},{"poiid":"B2094757D06FA2F4469A","title":"衡山小馆(延安西路店)","lon":"121.43464","lat":"31.21412","category":"72","category_name":"广东菜","address":"长宁区延安西路719号佳都大厦底楼(近江苏路)"},{"poiid":"B2094757D16EA6FE499A","title":"聚膳源","lon":"121.437081586","lat":"31.2093992236","category":"76","category_name":"上海菜","address":"徐汇区复兴西路258号(近华山路)"},{"poiid":"B2094757D069A2FE4199","title":"绅公馆","lon":"121.43344","lat":"31.21014","category":"217","category_name":"旅馆招待所","address":"长宁区华山路1220弄6号(兴国宾馆对面)"},{"poiid":"B2094757D068ABFD4998","title":"上海电力医院","lon":"121.432008446","lat":"31.2141976127","category":"162","category_name":"医院","address":"长宁区延安西路937号(近江苏路)"},{"poiid":"B2094655D268A7FB4192","title":"法华525创意树林","lon":"121.432","lat":"31.2113","category":"46","category_name":"楼宇","address":"长宁区法华镇路525号(近定西路)"},{"poiid":"B2094757D06FA7F94593","title":"华山医院(江苏路分院)","lon":"121.43308812","lat":"31.212072266","category":"162","category_name":"医院","address":"上海长宁区江苏路796号"},{"poiid":"B2094750DB6AA5F4419E","title":"MOJITO HEAVEN","lon":"121.435333","lat":"31.213684","category":"260","category_name":"其他","address":"长宁区昭化东路130号(曹家堰路口)"},{"poiid":"B2094757D065A7F8489C","title":"兴国宾馆香樟园西餐厅","lon":"121.43489833","lat":"31.210478544","category":"268","category_name":"自助","address":"长宁区兴国路78号兴国宾馆1楼(华山路口)"},{"poiid":"B2094757D46FA6FB4799","title":"昨天今天明天 Time Passage","lon":"121.435986054","lat":"31.211984793","category":"172","category_name":"酒吧","address":"徐汇区华山路1038弄183号(曹家堰路口)"},{"poiid":"B2094751D56CA1FE459C","title":"夏朵西餐厅(丁香店)","lon":"121.43855","lat":"31.21245","category":"94","category_name":"西餐厅","address":"徐汇区华山路855号(近复兴西路)"},{"poiid":"B2094757D069A1FC409B","title":"兴国宾馆8号楼宴会厅","lon":"121.43587","lat":"31.20916","category":"217","category_name":"旅馆招待所","address":"上海徐汇区兴国路78号兴国宾馆内(华山路口)  "},{"poiid":"B2094654D564A4FD4293","title":"华山花园","lon":"121.4343","lat":"31.2119","category":"47","category_name":"住宅区","address":"徐汇区华山路555号(近华山医院)"},{"poiid":"B2094753DB6CA4F54893","title":"百丽宫IMAX环贸iamp","lon":"121.433998","lat":"31.211498","category":"148","category_name":"美容美发店","address":"上海市 上海市徐汇区淮海中路999号"},{"poiid":"B2094757D66AA6F44498","title":"兴国宾馆8号楼会议中心","lon":"121.434930054","lat":"31.210905793","category":"67","category_name":"甜品店","address":"兴国路78号兴国宾馆8号楼近华山路口"},{"poiid":"B2094654D564A5F5419F","title":"夏朵小铺","lon":"121.43821","lat":"31.21105","category":"131","category_name":"珠宝首饰工艺品","address":"华山路855号"},{"poiid":"B2094757D064A3F4489B","title":"上海市教育人才交流服务中心","lon":"121.43262","lat":"31.213723","category":"260","category_name":"其他","address":"上海延安西路900号"},{"poiid":"B2094654DB6BA7F4439D","title":"上海兴华宾馆","lon":"121.43327","lat":"31.21022","category":"215","category_name":"三星级宾馆","address":"徐汇区华山路1226号(近江苏路)"},{"poiid":"B2094757D469A0FB499F","title":"半个月亮精致小火锅","lon":"121.432858","lat":"31.215258","category":"86","category_name":"火锅店","address":"长宁区江苏路591号(近延安西路)"},{"poiid":"B2094757D064A6F84698","title":"朋朋烘焙体验馆(延安西路店)","lon":"121.433578","lat":"31.21486473","category":"67","category_name":"甜品店","address":"长宁区延安西路634号(近江苏路)"},{"poiid":"B2094757D06EAAFA499E","title":"地铁十一号线","lon":"121.43346","lat":"31.21548","category":"36","category_name":"地铁站","address":"上海嘉定 - 江苏路 轨道交通十一号线 轨交 11 "},{"poiid":"B2094654D564A4FC489F","title":"AIA友邦保险大厦","lon":"121.43446","lat":"31.21363","category":"46","category_name":"楼宇","address":"曹家堰路88"},{"poiid":"B2094757D069AAFE4792","title":"逸谷(延安西路店)","lon":"121.43158","lat":"31.2121","category":"72","category_name":"广东菜","address":"长宁区延安西路1088号长峰中心H座(近番愚路)"},{"poiid":"B2094757D068A6FA4698","title":"上海市信息中心","lon":"121.43637245","lat":"31.212247079","category":"46","category_name":"楼宇","address":"上海华山路1076号"},{"poiid":"B2094757D16CA2F8459E","title":"长宁区区委党校","lon":"121.433432639","lat":"31.2127267","category":"500","category_name":"未知分类","address":"上海江苏路888号"},{"poiid":"B2094654D564A4FC419A","title":"嘉里华庭","lon":"121.43649","lat":"31.213028","category":"47","category_name":"住宅区","address":"上海市长宁区延安西路1235弄"},{"poiid":"B2094654D564A6FD4798","title":"复旦大学附属华山医院(分部)","lon":"121.4331","lat":"31.21207","category":"162","category_name":"医院","address":"江苏路796号"},{"poiid":"B2094757D465A0F54699","title":"丽宫中餐厅","lon":"121.434999054","lat":"31.210854793","category":"76","category_name":"上海菜","address":"长宁区兴国路78号兴国宾馆4楼(华山路口)"},{"poiid":"B2094654D564A6FF4599","title":"时代大厦","lon":"121.436","lat":"31.2107","category":"46","category_name":"楼宇","address":"番禺路390号"},{"poiid":"B2094655D26FA2FD4098","title":"上海小南国","lon":"121.43324","lat":"31.21022","category":"76","category_name":"上海菜","address":"长宁区华山路1226号(近江苏路)"},{"poiid":"B2094655D36CA7FC449A","title":"华山路江苏路","lon":"121.43379","lat":"31.21056","category":"38","category_name":"公交车站","address":""},{"poiid":"B2094655D36CA7FC459A","title":"华山路复兴西路","lon":"121.43621","lat":"31.21119","category":"38","category_name":"公交车站","address":""},{"poiid":"B2094757D464A0F4469B","title":"金格咖啡 复兴西路店 Ginger Cafe","lon":"121.43730620329","lat":"31.211288813686","category":"65","category_name":"咖啡厅","address":"复兴西路299弄1号近华山路"},{"poiid":"B2094757D16EA7F4449C","title":"Cuivre","lon":"121.43533258","lat":"31.212463083","category":"500","category_name":"未知分类","address":"上海淮海中路1502号(乌鲁木齐路)"},{"poiid":"B2094654D564A6FD479B","title":"复旦大学附属华山医院第三门诊部","lon":"121.43356","lat":"31.21249","category":"162","category_name":"医院","address":""},{"poiid":"B2094654D564A6FD4899","title":"贵冠商务中心","lon":"121.43384","lat":"31.21185","category":"46","category_name":"楼宇","address":"江苏路876"},{"poiid":"B2094751D465A1F84599","title":"cozy wine Bar&Bistro","lon":"121.436364","lat":"31.213477","category":"247","category_name":"餐饮美食","address":"徐匯區武康路97號（五原路口）"},{"poiid":"B2094654D564A4FD4292","title":"快客(尚联国际大楼东南)","lon":"121.43427","lat":"31.21198","category":"117","category_name":"便民商店/便利店","address":"江苏路809临"},{"poiid":"B2094751D56CA7F8479F","title":"Ginger Cafe(兴国路店)","lon":"121.43604","lat":"31.2089","category":"247","category_name":"餐饮美食","address":"徐汇区兴国路91号(近湖南路预计10月初开业)"},{"poiid":"B2094654D564A6FD479E","title":"尚联国际大楼","lon":"121.43361","lat":"31.21223","category":"46","category_name":"楼宇","address":"江苏路828"},{"poiid":"B2094654DB65AAF9429D","title":"江华机电大楼","lon":"121.43476","lat":"31.21163","category":"47","category_name":"住宅区","address":"江苏路835号"},{"poiid":"B2094753DA6EA5FA4898","title":"嘉里华庭第五座","lon":"121.436","lat":"31.2131","category":"47","category_name":"住宅区","address":"上海市长宁区华山路1038弄"},{"poiid":"B2094757D568A6F44998","title":"上海市长宁区社会主义学院","lon":"121.43373074","lat":"31.21134169","category":"52","category_name":"高等院校","address":"江苏路888"},{"poiid":"B2094654D564A4FC4093","title":"环保大楼","lon":"121.43555","lat":"31.21346","category":"46","category_name":"楼宇","address":"华山路1038弄161"}]