[{"poiid":"B2094757D06EABF54099","title":"桃浦新村地铁站","lon":"121.349774","lat":"31.281665","category":"36","category_name":"地铁站","address":"上海轨道交通 十一号线 轨交桃浦新村站 11"},{"poiid":"B2094757D06FA1FD4199","title":"桃浦七村","lon":"121.356126","lat":"31.294847","category":"47","category_name":"住宅区","address":"上海雪松路458弄"},{"poiid":"B2094757D068A7F54392","title":"桃浦十村","lon":"121.35298376","lat":"31.280492113","category":"47","category_name":"住宅区","address":"上海普陀区白丽路701弄"},{"poiid":"B2094655D268ABF84092","title":"外环沪嘉立交桥","lon":"121.35855","lat":"31.28933","category":"250","category_name":"公园户外","address":""},{"poiid":"B2094757D06FA0F4439E","title":"肯德基 KFC (桃浦店)","lon":"121.353774","lat":"31.284607","category":"68","category_name":"快餐厅","address":"普陀区雪松路368号(近绿杨路)"},{"poiid":"B2094757D068AAFA499D","title":"自由港量贩KTV","lon":"121.349792725","lat":"31.2819314006","category":"170","category_name":"KTV","address":"上海 市武威路1126-1178号百丽生活广场四楼"},{"poiid":"B2094757D06FA3F5449A","title":"麦当劳(桃浦店)","lon":"121.3503758","lat":"31.27957","category":"68","category_name":"快餐厅","address":"上海红棉路301弄6号101室(武威路白丽路交界处)"},{"poiid":"B2094757D06AA1FF4099","title":"宝弘宝马","lon":"121.35483449","lat":"31.292829136","category":"500","category_name":"未知分类","address":"上海红柳路233号"},{"poiid":"B2094757D068A0FE489B","title":"白丽生活广场","lon":"121.34955436441805","lat":"31.281760403947924","category":"500","category_name":"未知分类","address":"普陀区武威路1118号(近红棉路)"},{"poiid":"B2094655D26BA2F94492","title":"桃浦五村","lon":"121.355","lat":"31.2914","category":"38","category_name":"公交车站","address":"红棉路351弄"},{"poiid":"B2094757D06FA7FE4792","title":"永汇新苑","lon":"121.35094","lat":"31.278891","category":"47","category_name":"住宅区","address":"上海普陀区白丽路99弄"},{"poiid":"B2094757D665A0FB499E","title":"DQ冰雪皇后 武威路店 Dairy Queen","lon":"121.34985","lat":"31.28162","category":"113","category_name":"冷饮店","address":"普陀区武威路1118号白丽生活广场1楼(近红棉路)"},{"poiid":"B2094757D068A0F8439C","title":"一品全大酒店(桃浦店)","lon":"121.35344","lat":"31.28059","category":"76","category_name":"上海菜","address":"普陀区雪松路281号(近武威路)"},{"poiid":"B2094757D068A0FC4998","title":"泰煌鸡(雪松路店)","lon":"121.35368","lat":"31.28307","category":"68","category_name":"快餐厅","address":"普陀区桃浦雪松路334号(近武威路)"},{"poiid":"B2094654D46BA4FD489B","title":"紫荆苑(白丽路)","lon":"121.34696","lat":"31.28638","category":"47","category_name":"住宅区","address":""},{"poiid":"B2094654DB6AA4F94593","title":"泰煌火锅","lon":"121.3541","lat":"31.28344","category":"86","category_name":"火锅店","address":"普陀区雪松路338号(近武威路)"},{"poiid":"B2094654D464A3FD4598","title":"山茶苑","lon":"121.3498","lat":"31.28707","category":"47","category_name":"住宅区","address":"雪松路503弄"},{"poiid":"B2094757D069A4F4439E","title":"桃浦四村","lon":"121.352","lat":"31.2902","category":"252","category_name":"楼宇机构","address":"上海市普陀区绿杨路51弄"},{"poiid":"B2094757D068A6FA4099","title":"吉祥馄饨(雪松店)","lon":"121.351861925","lat":"31.2859890847","category":"68","category_name":"快餐厅","address":"普陀区雪松路436号"},{"poiid":"B2094654D46BA4FD499F","title":"桃浦新家园(银杏路)","lon":"121.34812","lat":"31.28745","category":"47","category_name":"住宅区","address":""},{"poiid":"B2094757D065A6F8489A","title":"利群医院(桃浦分院)","lon":"121.35465","lat":"31.28151","category":"162","category_name":"医院","address":"普陀区雪松路302号(近武威路)"},{"poiid":"B2094757D069A3FF4892","title":"世纪联华(雪松路店)","lon":"121.35332","lat":"31.28474","category":"119","category_name":"商场","address":"普陀区雪松路368号(近绿杨路)"},{"poiid":"B2094757D16CABFB4098","title":"新杨中学","lon":"121.354549497","lat":"31.2876831212","category":"55","category_name":"中学","address":"普陀区雪松路458弄88号(近绿杨路)"},{"poiid":"B2094654D46BA6F5419C","title":"桃浦三村和乐苑","lon":"121.3536812839","lat":"31.28901827694","category":"47","category_name":"住宅区","address":"西武威路401号"},{"poiid":"B2094757DA64A3FE489D","title":"恒达休闲广场","lon":"121.349509","lat":"31.282448","category":"252","category_name":"楼宇机构","address":"普陀白丽路237-257(单)号"},{"poiid":"B2094757D76EA7F84498","title":"苹果花园 桃浦店 Apple Garden","lon":"121.35176","lat":"31.28639","category":"47","category_name":"住宅区","address":"普陀区雪松路368号世纪联华1楼(桃浦规划一路雪松路)"},{"poiid":"B2094654D46BA6F4479B","title":"锦翔大楼","lon":"121.35658","lat":"31.28754","category":"46","category_name":"楼宇","address":"真南路"},{"poiid":"B2094654D46BAAF84693","title":"绿春苑","lon":"121.3557","lat":"31.285666","category":"47","category_name":"住宅区","address":"雪松路392弄3号门"},{"poiid":"B2094757D16DA7F4469E","title":"上海众国宝泓","lon":"121.35481595","lat":"31.2957055511","category":"47","category_name":"住宅区","address":"普陀区红柳路233号(近南大路)"},{"poiid":"B2094654D46BAAFF4293","title":"金苹果幼儿园","lon":"121.35222","lat":"31.28748","category":"57","category_name":"幼儿园","address":"普陀区雪松路458弄224号"},{"poiid":"B2094757D06AABFA4293","title":"佳木斯烤肉","lon":"121.349586","lat":"31.288665","category":"269","category_name":"烧烤","address":"普陀区雪松路458号桃浦七村西(桃浦规划一路雪松路)"},{"poiid":"B2094757D06BA6FB4998","title":"桃浦一村合欢苑","lon":"121.3559463949","lat":"31.286426800228","category":"500","category_name":"未知分类","address":"上海普陀区武威路1051弄"},{"poiid":"B2094654D46BA4FA429B","title":"小刘拉面馆","lon":"121.35153","lat":"31.28652","category":"257","category_name":"中餐厅","address":""},{"poiid":"B2094654D46BAAFF439B","title":"云峰酒家","lon":"121.35099","lat":"31.28682","category":"76","category_name":"上海菜","address":"普陀区雪松路500号(近绿杨路)"},{"poiid":"B2094757D66FA7F54093","title":"豪大大鸡排","lon":"121.35273642","lat":"31.286301791","category":"247","category_name":"餐饮美食","address":"上海雪松路384号"},{"poiid":"B2094654D46BAAF8489F","title":"华环服装百货城","lon":"121.35241","lat":"31.28896","category":"119","category_name":"商场","address":""},{"poiid":"B2094654D46BA4FD449E","title":"杜鹃苑","lon":"121.35133","lat":"31.285521","category":"47","category_name":"住宅区","address":"绿杨路201弄"},{"poiid":"B2094654D46BA6F44599","title":"白丽新村","lon":"121.35219368482","lat":"31.287662160888","category":"47","category_name":"住宅区","address":"绿杨路51弄"},{"poiid":"B2094655D264A7FA429C","title":"好又多真南路店","lon":"121.35215","lat":"31.28968","category":"118","category_name":"超级市场","address":"普陀区真南路2949号"},{"poiid":"B2094757D66CA2F84199","title":"联建小学","lon":"121.34936","lat":"31.28659","category":"56","category_name":"小学","address":"普陀区绿杨路201弄15号(雪松路银杏路)"},{"poiid":"B2094654D46BA4FA4493","title":"震轩美容美发连锁直营(绿杨路)","lon":"121.35366","lat":"31.28536","category":"148","category_name":"美容美发店","address":"普陀区绿杨路245号"},{"poiid":"B2094757D66DA0FA4799","title":"海茜茶人中西餐厅","lon":"121.35695","lat":"31.28055","category":"94","category_name":"西餐厅","address":"普陀区武威路1118号白丽生活广场4楼406室(近红棉路)"},{"poiid":"B2094757D06FA4FD449C","title":"桃浦六村(樱花苑)","lon":"121.354376849","lat":"31.2825719372","category":"252","category_name":"楼宇机构","address":"上海普陀区雪松路330弄"},{"poiid":"B2094654DB6AA4F9469D","title":"好德","lon":"121.35196","lat":"31.28577","category":"117","category_name":"便民商店/便利店","address":"雪松路447"},{"poiid":"B2094757D165A7FA4399","title":"三味拉面","lon":"121.351568925","lat":"31.2860830866","category":"247","category_name":"餐饮美食","address":"上海雪松路"},{"poiid":"B2094757D66EA5FB499D","title":"白丽苑","lon":"121.34956","lat":"31.283182","category":"47","category_name":"住宅区","address":"上海市普陀区紅棉路311弄"},{"poiid":"B2094654DB6AA4F94792","title":"保健品专卖店","lon":"121.35522","lat":"31.28883","category":"162","category_name":"医院","address":"真南路红柳路路口新杨二队105号"},{"poiid":"B2094654D46BA4FA4293","title":"重庆鸡公煲桃浦店","lon":"121.35094","lat":"31.28684","category":"71","category_name":"四川菜","address":"桃浦镇"},{"poiid":"B2094757D568AAFE439C","title":"世纪华联超市(雪松路)","lon":"121.35171468","lat":"31.28642822","category":"118","category_name":"超级市场","address":"雪松路460"},{"poiid":"B2094654D46BAAFF4598","title":"合欢苑","lon":"121.35386","lat":"31.28254","category":"47","category_name":"住宅区","address":"桃浦镇"},{"poiid":"B2094757D06EABF54099","title":"桃浦新村地铁站","lon":"121.349774","lat":"31.281665","category":"36","category_name":"地铁站","address":"上海轨道交通 十一号线 轨交桃浦新村站 11"},{"poiid":"B2094757D06FA1FD4199","title":"桃浦七村","lon":"121.356126","lat":"31.294847","category":"47","category_name":"住宅区","address":"上海雪松路458弄"},{"poiid":"B2094757D068A7F54392","title":"桃浦十村","lon":"121.35298376","lat":"31.280492113","category":"47","category_name":"住宅区","address":"上海普陀区白丽路701弄"},{"poiid":"B2094655D268ABF84092","title":"外环沪嘉立交桥","lon":"121.35855","lat":"31.28933","category":"250","category_name":"公园户外","address":""},{"poiid":"B2094757D06FA0F4439E","title":"肯德基 KFC (桃浦店)","lon":"121.353774","lat":"31.284607","category":"68","category_name":"快餐厅","address":"普陀区雪松路368号(近绿杨路)"},{"poiid":"B2094757D068AAFA499D","title":"自由港量贩KTV","lon":"121.349792725","lat":"31.2819314006","category":"170","category_name":"KTV","address":"上海 市武威路1126-1178号百丽生活广场四楼"},{"poiid":"B2094757D06FA3F5449A","title":"麦当劳(桃浦店)","lon":"121.3503758","lat":"31.27957","category":"68","category_name":"快餐厅","address":"上海红棉路301弄6号101室(武威路白丽路交界处)"},{"poiid":"B2094757D06AA1FF4099","title":"宝弘宝马","lon":"121.35483449","lat":"31.292829136","category":"500","category_name":"未知分类","address":"上海红柳路233号"},{"poiid":"B2094757D068A0FE489B","title":"白丽生活广场","lon":"121.34955436441805","lat":"31.281760403947924","category":"500","category_name":"未知分类","address":"普陀区武威路1118号(近红棉路)"},{"poiid":"B2094655D26BA2F94492","title":"桃浦五村","lon":"121.355","lat":"31.2914","category":"38","category_name":"公交车站","address":"红棉路351弄"},{"poiid":"B2094757D06FA7FE4792","title":"永汇新苑","lon":"121.35094","lat":"31.278891","category":"47","category_name":"住宅区","address":"上海普陀区白丽路99弄"},{"poiid":"B2094757D665A0FB499E","title":"DQ冰雪皇后 武威路店 Dairy Queen","lon":"121.34985","lat":"31.28162","category":"113","category_name":"冷饮店","address":"普陀区武威路1118号白丽生活广场1楼(近红棉路)"},{"poiid":"B2094757D068A0F8439C","title":"一品全大酒店(桃浦店)","lon":"121.35344","lat":"31.28059","category":"76","category_name":"上海菜","address":"普陀区雪松路281号(近武威路)"},{"poiid":"B2094757D068A0FC4998","title":"泰煌鸡(雪松路店)","lon":"121.35368","lat":"31.28307","category":"68","category_name":"快餐厅","address":"普陀区桃浦雪松路334号(近武威路)"},{"poiid":"B2094654D46BA4FD489B","title":"紫荆苑(白丽路)","lon":"121.34696","lat":"31.28638","category":"47","category_name":"住宅区","address":""},{"poiid":"B2094654DB6AA4F94593","title":"泰煌火锅","lon":"121.3541","lat":"31.28344","category":"86","category_name":"火锅店","address":"普陀区雪松路338号(近武威路)"},{"poiid":"B2094654D464A3FD4598","title":"山茶苑","lon":"121.3498","lat":"31.28707","category":"47","category_name":"住宅区","address":"雪松路503弄"},{"poiid":"B2094757D069A4F4439E","title":"桃浦四村","lon":"121.352","lat":"31.2902","category":"252","category_name":"楼宇机构","address":"上海市普陀区绿杨路51弄"},{"poiid":"B2094757D068A6FA4099","title":"吉祥馄饨(雪松店)","lon":"121.351861925","lat":"31.2859890847","category":"68","category_name":"快餐厅","address":"普陀区雪松路436号"},{"poiid":"B2094654D46BA4FD499F","title":"桃浦新家园(银杏路)","lon":"121.34812","lat":"31.28745","category":"47","category_name":"住宅区","address":""},{"poiid":"B2094757D065A6F8489A","title":"利群医院(桃浦分院)","lon":"121.35465","lat":"31.28151","category":"162","category_name":"医院","address":"普陀区雪松路302号(近武威路)"},{"poiid":"B2094757D069A3FF4892","title":"世纪联华(雪松路店)","lon":"121.35332","lat":"31.28474","category":"119","category_name":"商场","address":"普陀区雪松路368号(近绿杨路)"},{"poiid":"B2094757D16CABFB4098","title":"新杨中学","lon":"121.354549497","lat":"31.2876831212","category":"55","category_name":"中学","address":"普陀区雪松路458弄88号(近绿杨路)"},{"poiid":"B2094654D46BA6F5419C","title":"桃浦三村和乐苑","lon":"121.3536812839","lat":"31.28901827694","category":"47","category_name":"住宅区","address":"西武威路401号"},{"poiid":"B2094757DA64A3FE489D","title":"恒达休闲广场","lon":"121.349509","lat":"31.282448","category":"252","category_name":"楼宇机构","address":"普陀白丽路237-257(单)号"},{"poiid":"B2094757D76EA7F84498","title":"苹果花园 桃浦店 Apple Garden","lon":"121.35176","lat":"31.28639","category":"47","category_name":"住宅区","address":"普陀区雪松路368号世纪联华1楼(桃浦规划一路雪松路)"},{"poiid":"B2094654D46BA6F4479B","title":"锦翔大楼","lon":"121.35658","lat":"31.28754","category":"46","category_name":"楼宇","address":"真南路"},{"poiid":"B2094654D46BAAF84693","title":"绿春苑","lon":"121.3557","lat":"31.285666","category":"47","category_name":"住宅区","address":"雪松路392弄3号门"},{"poiid":"B2094757D16DA7F4469E","title":"上海众国宝泓","lon":"121.35481595","lat":"31.2957055511","category":"47","category_name":"住宅区","address":"普陀区红柳路233号(近南大路)"},{"poiid":"B2094654D46BAAFF4293","title":"金苹果幼儿园","lon":"121.35222","lat":"31.28748","category":"57","category_name":"幼儿园","address":"普陀区雪松路458弄224号"},{"poiid":"B2094757D06AABFA4293","title":"佳木斯烤肉","lon":"121.349586","lat":"31.288665","category":"269","category_name":"烧烤","address":"普陀区雪松路458号桃浦七村西(桃浦规划一路雪松路)"},{"poiid":"B2094757D06BA6FB4998","title":"桃浦一村合欢苑","lon":"121.3559463949","lat":"31.286426800228","category":"500","category_name":"未知分类","address":"上海普陀区武威路1051弄"},{"poiid":"B2094654D46BA4FA429B","title":"小刘拉面馆","lon":"121.35153","lat":"31.28652","category":"257","category_name":"中餐厅","address":""},{"poiid":"B2094654D46BAAFF439B","title":"云峰酒家","lon":"121.35099","lat":"31.28682","category":"76","category_name":"上海菜","address":"普陀区雪松路500号(近绿杨路)"},{"poiid":"B2094757D66FA7F54093","title":"豪大大鸡排","lon":"121.35273642","lat":"31.286301791","category":"247","category_name":"餐饮美食","address":"上海雪松路384号"},{"poiid":"B2094654D46BAAF8489F","title":"华环服装百货城","lon":"121.35241","lat":"31.28896","category":"119","category_name":"商场","address":""},{"poiid":"B2094654D46BA4FD449E","title":"杜鹃苑","lon":"121.35133","lat":"31.285521","category":"47","category_name":"住宅区","address":"绿杨路201弄"},{"poiid":"B2094654D46BA6F44599","title":"白丽新村","lon":"121.35219368482","lat":"31.287662160888","category":"47","category_name":"住宅区","address":"绿杨路51弄"},{"poiid":"B2094655D264A7FA429C","title":"好又多真南路店","lon":"121.35215","lat":"31.28968","category":"118","category_name":"超级市场","address":"普陀区真南路2949号"},{"poiid":"B2094757D66CA2F84199","title":"联建小学","lon":"121.34936","lat":"31.28659","category":"56","category_name":"小学","address":"普陀区绿杨路201弄15号(雪松路银杏路)"},{"poiid":"B2094654D46BA4FA4493","title":"震轩美容美发连锁直营(绿杨路)","lon":"121.35366","lat":"31.28536","category":"148","category_name":"美容美发店","address":"普陀区绿杨路245号"},{"poiid":"B2094757D66DA0FA4799","title":"海茜茶人中西餐厅","lon":"121.35695","lat":"31.28055","category":"94","category_name":"西餐厅","address":"普陀区武威路1118号白丽生活广场4楼406室(近红棉路)"},{"poiid":"B2094757D06FA4FD449C","title":"桃浦六村(樱花苑)","lon":"121.354376849","lat":"31.2825719372","category":"252","category_name":"楼宇机构","address":"上海普陀区雪松路330弄"},{"poiid":"B2094654DB6AA4F9469D","title":"好德","lon":"121.35196","lat":"31.28577","category":"117","category_name":"便民商店/便利店","address":"雪松路447"},{"poiid":"B2094757D165A7FA4399","title":"三味拉面","lon":"121.351568925","lat":"31.2860830866","category":"247","category_name":"餐饮美食","address":"上海雪松路"},{"poiid":"B2094757D66EA5FB499D","title":"白丽苑","lon":"121.34956","lat":"31.283182","category":"47","category_name":"住宅区","address":"上海市普陀区紅棉路311弄"},{"poiid":"B2094654DB6AA4F94792","title":"保健品专卖店","lon":"121.35522","lat":"31.28883","category":"162","category_name":"医院","address":"真南路红柳路路口新杨二队105号"},{"poiid":"B2094654D46BA4FA4293","title":"重庆鸡公煲桃浦店","lon":"121.35094","lat":"31.28684","category":"71","category_name":"四川菜","address":"桃浦镇"},{"poiid":"B2094757D568AAFE439C","title":"世纪华联超市(雪松路)","lon":"121.35171468","lat":"31.28642822","category":"118","category_name":"超级市场","address":"雪松路460"},{"poiid":"B2094654D46BAAFF4598","title":"合欢苑","lon":"121.35386","lat":"31.28254","category":"47","category_name":"住宅区","address":"桃浦镇"},{"poiid":"B2094757D06EABF54099","title":"桃浦新村地铁站","lon":"121.349774","lat":"31.281665","category":"36","category_name":"地铁站","address":"上海轨道交通 十一号线 轨交桃浦新村站 11"},{"poiid":"B2094757D06FA1FD4199","title":"桃浦七村","lon":"121.356126","lat":"31.294847","category":"47","category_name":"住宅区","address":"上海雪松路458弄"},{"poiid":"B2094757D068A7F54392","title":"桃浦十村","lon":"121.35298376","lat":"31.280492113","category":"47","category_name":"住宅区","address":"上海普陀区白丽路701弄"},{"poiid":"B2094655D268ABF84092","title":"外环沪嘉立交桥","lon":"121.35855","lat":"31.28933","category":"250","category_name":"公园户外","address":""},{"poiid":"B2094757D06FA0F4439E","title":"肯德基 KFC (桃浦店)","lon":"121.353774","lat":"31.284607","category":"68","category_name":"快餐厅","address":"普陀区雪松路368号(近绿杨路)"},{"poiid":"B2094757D068AAFA499D","title":"自由港量贩KTV","lon":"121.349792725","lat":"31.2819314006","category":"170","category_name":"KTV","address":"上海 市武威路1126-1178号百丽生活广场四楼"},{"poiid":"B2094757D06FA3F5449A","title":"麦当劳(桃浦店)","lon":"121.3503758","lat":"31.27957","category":"68","category_name":"快餐厅","address":"上海红棉路301弄6号101室(武威路白丽路交界处)"},{"poiid":"B2094757D06AA1FF4099","title":"宝弘宝马","lon":"121.35483449","lat":"31.292829136","category":"500","category_name":"未知分类","address":"上海红柳路233号"},{"poiid":"B2094757D068A0FE489B","title":"白丽生活广场","lon":"121.34955436441805","lat":"31.281760403947924","category":"500","category_name":"未知分类","address":"普陀区武威路1118号(近红棉路)"},{"poiid":"B2094655D26BA2F94492","title":"桃浦五村","lon":"121.355","lat":"31.2914","category":"38","category_name":"公交车站","address":"红棉路351弄"},{"poiid":"B2094757D06FA7FE4792","title":"永汇新苑","lon":"121.35094","lat":"31.278891","category":"47","category_name":"住宅区","address":"上海普陀区白丽路99弄"},{"poiid":"B2094757D665A0FB499E","title":"DQ冰雪皇后 武威路店 Dairy Queen","lon":"121.34985","lat":"31.28162","category":"113","category_name":"冷饮店","address":"普陀区武威路1118号白丽生活广场1楼(近红棉路)"},{"poiid":"B2094757D068A0F8439C","title":"一品全大酒店(桃浦店)","lon":"121.35344","lat":"31.28059","category":"76","category_name":"上海菜","address":"普陀区雪松路281号(近武威路)"},{"poiid":"B2094757D068A0FC4998","title":"泰煌鸡(雪松路店)","lon":"121.35368","lat":"31.28307","category":"68","category_name":"快餐厅","address":"普陀区桃浦雪松路334号(近武威路)"},{"poiid":"B2094654D46BA4FD489B","title":"紫荆苑(白丽路)","lon":"121.34696","lat":"31.28638","category":"47","category_name":"住宅区","address":""},{"poiid":"B2094654DB6AA4F94593","title":"泰煌火锅","lon":"121.3541","lat":"31.28344","category":"86","category_name":"火锅店","address":"普陀区雪松路338号(近武威路)"},{"poiid":"B2094654D464A3FD4598","title":"山茶苑","lon":"121.3498","lat":"31.28707","category":"47","category_name":"住宅区","address":"雪松路503弄"},{"poiid":"B2094757D069A4F4439E","title":"桃浦四村","lon":"121.352","lat":"31.2902","category":"252","category_name":"楼宇机构","address":"上海市普陀区绿杨路51弄"},{"poiid":"B2094757D068A6FA4099","title":"吉祥馄饨(雪松店)","lon":"121.351861925","lat":"31.2859890847","category":"68","category_name":"快餐厅","address":"普陀区雪松路436号"},{"poiid":"B2094654D46BA4FD499F","title":"桃浦新家园(银杏路)","lon":"121.34812","lat":"31.28745","category":"47","category_name":"住宅区","address":""},{"poiid":"B2094757D065A6F8489A","title":"利群医院(桃浦分院)","lon":"121.35465","lat":"31.28151","category":"162","category_name":"医院","address":"普陀区雪松路302号(近武威路)"},{"poiid":"B2094757D069A3FF4892","title":"世纪联华(雪松路店)","lon":"121.35332","lat":"31.28474","category":"119","category_name":"商场","address":"普陀区雪松路368号(近绿杨路)"},{"poiid":"B2094757D16CABFB4098","title":"新杨中学","lon":"121.354549497","lat":"31.2876831212","category":"55","category_name":"中学","address":"普陀区雪松路458弄88号(近绿杨路)"},{"poiid":"B2094654D46BA6F5419C","title":"桃浦三村和乐苑","lon":"121.3536812839","lat":"31.28901827694","category":"47","category_name":"住宅区","address":"西武威路401号"},{"poiid":"B2094757DA64A3FE489D","title":"恒达休闲广场","lon":"121.349509","lat":"31.282448","category":"252","category_name":"楼宇机构","address":"普陀白丽路237-257(单)号"},{"poiid":"B2094757D76EA7F84498","title":"苹果花园 桃浦店 Apple Garden","lon":"121.35176","lat":"31.28639","category":"47","category_name":"住宅区","address":"普陀区雪松路368号世纪联华1楼(桃浦规划一路雪松路)"},{"poiid":"B2094654D46BA6F4479B","title":"锦翔大楼","lon":"121.35658","lat":"31.28754","category":"46","category_name":"楼宇","address":"真南路"},{"poiid":"B2094654D46BAAF84693","title":"绿春苑","lon":"121.3557","lat":"31.285666","category":"47","category_name":"住宅区","address":"雪松路392弄3号门"},{"poiid":"B2094757D16DA7F4469E","title":"上海众国宝泓","lon":"121.35481595","lat":"31.2957055511","category":"47","category_name":"住宅区","address":"普陀区红柳路233号(近南大路)"},{"poiid":"B2094654D46BAAFF4293","title":"金苹果幼儿园","lon":"121.35222","lat":"31.28748","category":"57","category_name":"幼儿园","address":"普陀区雪松路458弄224号"},{"poiid":"B2094757D06AABFA4293","title":"佳木斯烤肉","lon":"121.349586","lat":"31.288665","category":"269","category_name":"烧烤","address":"普陀区雪松路458号桃浦七村西(桃浦规划一路雪松路)"},{"poiid":"B2094757D06BA6FB4998","title":"桃浦一村合欢苑","lon":"121.3559463949","lat":"31.286426800228","category":"500","category_name":"未知分类","address":"上海普陀区武威路1051弄"},{"poiid":"B2094654D46BA4FA429B","title":"小刘拉面馆","lon":"121.35153","lat":"31.28652","category":"257","category_name":"中餐厅","address":""},{"poiid":"B2094654D46BAAFF439B","title":"云峰酒家","lon":"121.35099","lat":"31.28682","category":"76","category_name":"上海菜","address":"普陀区雪松路500号(近绿杨路)"},{"poiid":"B2094757D66FA7F54093","title":"豪大大鸡排","lon":"121.35273642","lat":"31.286301791","category":"247","category_name":"餐饮美食","address":"上海雪松路384号"},{"poiid":"B2094654D46BAAF8489F","title":"华环服装百货城","lon":"121.35241","lat":"31.28896","category":"119","category_name":"商场","address":""},{"poiid":"B2094654D46BA4FD449E","title":"杜鹃苑","lon":"121.35133","lat":"31.285521","category":"47","category_name":"住宅区","address":"绿杨路201弄"},{"poiid":"B2094654D46BA6F44599","title":"白丽新村","lon":"121.35219368482","lat":"31.287662160888","category":"47","category_name":"住宅区","address":"绿杨路51弄"},{"poiid":"B2094655D264A7FA429C","title":"好又多真南路店","lon":"121.35215","lat":"31.28968","category":"118","category_name":"超级市场","address":"普陀区真南路2949号"},{"poiid":"B2094757D66CA2F84199","title":"联建小学","lon":"121.34936","lat":"31.28659","category":"56","category_name":"小学","address":"普陀区绿杨路201弄15号(雪松路银杏路)"},{"poiid":"B2094654D46BA4FA4493","title":"震轩美容美发连锁直营(绿杨路)","lon":"121.35366","lat":"31.28536","category":"148","category_name":"美容美发店","address":"普陀区绿杨路245号"},{"poiid":"B2094757D66DA0FA4799","title":"海茜茶人中西餐厅","lon":"121.35695","lat":"31.28055","category":"94","category_name":"西餐厅","address":"普陀区武威路1118号白丽生活广场4楼406室(近红棉路)"},{"poiid":"B2094757D06FA4FD449C","title":"桃浦六村(樱花苑)","lon":"121.354376849","lat":"31.2825719372","category":"252","category_name":"楼宇机构","address":"上海普陀区雪松路330弄"},{"poiid":"B2094654DB6AA4F9469D","title":"好德","lon":"121.35196","lat":"31.28577","category":"117","category_name":"便民商店/便利店","address":"雪松路447"},{"poiid":"B2094757D165A7FA4399","title":"三味拉面","lon":"121.351568925","lat":"31.2860830866","category":"247","category_name":"餐饮美食","address":"上海雪松路"},{"poiid":"B2094757D66EA5FB499D","title":"白丽苑","lon":"121.34956","lat":"31.283182","category":"47","category_name":"住宅区","address":"上海市普陀区紅棉路311弄"},{"poiid":"B2094654DB6AA4F94792","title":"保健品专卖店","lon":"121.35522","lat":"31.28883","category":"162","category_name":"医院","address":"真南路红柳路路口新杨二队105号"},{"poiid":"B2094654D46BA4FA4293","title":"重庆鸡公煲桃浦店","lon":"121.35094","lat":"31.28684","category":"71","category_name":"四川菜","address":"桃浦镇"},{"poiid":"B2094757D568AAFE439C","title":"世纪华联超市(雪松路)","lon":"121.35171468","lat":"31.28642822","category":"118","category_name":"超级市场","address":"雪松路460"},{"poiid":"B2094654D46BAAFF4598","title":"合欢苑","lon":"121.35386","lat":"31.28254","category":"47","category_name":"住宅区","address":"桃浦镇"},{"poiid":"B2094757D06EABF54099","title":"桃浦新村地铁站","lon":"121.349774","lat":"31.281665","category":"36","category_name":"地铁站","address":"上海轨道交通 十一号线 轨交桃浦新村站 11"},{"poiid":"B2094757D06FA1FD4199","title":"桃浦七村","lon":"121.356126","lat":"31.294847","category":"47","category_name":"住宅区","address":"上海雪松路458弄"},{"poiid":"B2094757D068A7F54392","title":"桃浦十村","lon":"121.35298376","lat":"31.280492113","category":"47","category_name":"住宅区","address":"上海普陀区白丽路701弄"},{"poiid":"B2094655D268ABF84092","title":"外环沪嘉立交桥","lon":"121.35855","lat":"31.28933","category":"250","category_name":"公园户外","address":""},{"poiid":"B2094757D06FA0F4439E","title":"肯德基 KFC (桃浦店)","lon":"121.353774","lat":"31.284607","category":"68","category_name":"快餐厅","address":"普陀区雪松路368号(近绿杨路)"},{"poiid":"B2094757D068AAFA499D","title":"自由港量贩KTV","lon":"121.349792725","lat":"31.2819314006","category":"170","category_name":"KTV","address":"上海 市武威路1126-1178号百丽生活广场四楼"},{"poiid":"B2094757D06FA3F5449A","title":"麦当劳(桃浦店)","lon":"121.3503758","lat":"31.27957","category":"68","category_name":"快餐厅","address":"上海红棉路301弄6号101室(武威路白丽路交界处)"},{"poiid":"B2094757D06AA1FF4099","title":"宝弘宝马","lon":"121.35483449","lat":"31.292829136","category":"500","category_name":"未知分类","address":"上海红柳路233号"},{"poiid":"B2094757D068A0FE489B","title":"白丽生活广场","lon":"121.34955436441805","lat":"31.281760403947924","category":"500","category_name":"未知分类","address":"普陀区武威路1118号(近红棉路)"},{"poiid":"B2094655D26BA2F94492","title":"桃浦五村","lon":"121.355","lat":"31.2914","category":"38","category_name":"公交车站","address":"红棉路351弄"},{"poiid":"B2094757D06FA7FE4792","title":"永汇新苑","lon":"121.35094","lat":"31.278891","category":"47","category_name":"住宅区","address":"上海普陀区白丽路99弄"},{"poiid":"B2094757D665A0FB499E","title":"DQ冰雪皇后 武威路店 Dairy Queen","lon":"121.34985","lat":"31.28162","category":"113","category_name":"冷饮店","address":"普陀区武威路1118号白丽生活广场1楼(近红棉路)"},{"poiid":"B2094757D068A0F8439C","title":"一品全大酒店(桃浦店)","lon":"121.35344","lat":"31.28059","category":"76","category_name":"上海菜","address":"普陀区雪松路281号(近武威路)"},{"poiid":"B2094757D068A0FC4998","title":"泰煌鸡(雪松路店)","lon":"121.35368","lat":"31.28307","category":"68","category_name":"快餐厅","address":"普陀区桃浦雪松路334号(近武威路)"},{"poiid":"B2094654D46BA4FD489B","title":"紫荆苑(白丽路)","lon":"121.34696","lat":"31.28638","category":"47","category_name":"住宅区","address":""},{"poiid":"B2094654DB6AA4F94593","title":"泰煌火锅","lon":"121.3541","lat":"31.28344","category":"86","category_name":"火锅店","address":"普陀区雪松路338号(近武威路)"},{"poiid":"B2094654D464A3FD4598","title":"山茶苑","lon":"121.3498","lat":"31.28707","category":"47","category_name":"住宅区","address":"雪松路503弄"},{"poiid":"B2094757D069A4F4439E","title":"桃浦四村","lon":"121.352","lat":"31.2902","category":"252","category_name":"楼宇机构","address":"上海市普陀区绿杨路51弄"},{"poiid":"B2094757D068A6FA4099","title":"吉祥馄饨(雪松店)","lon":"121.351861925","lat":"31.2859890847","category":"68","category_name":"快餐厅","address":"普陀区雪松路436号"},{"poiid":"B2094654D46BA4FD499F","title":"桃浦新家园(银杏路)","lon":"121.34812","lat":"31.28745","category":"47","category_name":"住宅区","address":""},{"poiid":"B2094757D065A6F8489A","title":"利群医院(桃浦分院)","lon":"121.35465","lat":"31.28151","category":"162","category_name":"医院","address":"普陀区雪松路302号(近武威路)"},{"poiid":"B2094757D069A3FF4892","title":"世纪联华(雪松路店)","lon":"121.35332","lat":"31.28474","category":"119","category_name":"商场","address":"普陀区雪松路368号(近绿杨路)"},{"poiid":"B2094757D16CABFB4098","title":"新杨中学","lon":"121.354549497","lat":"31.2876831212","category":"55","category_name":"中学","address":"普陀区雪松路458弄88号(近绿杨路)"},{"poiid":"B2094654D46BA6F5419C","title":"桃浦三村和乐苑","lon":"121.3536812839","lat":"31.28901827694","category":"47","category_name":"住宅区","address":"西武威路401号"},{"poiid":"B2094757DA64A3FE489D","title":"恒达休闲广场","lon":"121.349509","lat":"31.282448","category":"252","category_name":"楼宇机构","address":"普陀白丽路237-257(单)号"},{"poiid":"B2094757D76EA7F84498","title":"苹果花园 桃浦店 Apple Garden","lon":"121.35176","lat":"31.28639","category":"47","category_name":"住宅区","address":"普陀区雪松路368号世纪联华1楼(桃浦规划一路雪松路)"},{"poiid":"B2094654D46BA6F4479B","title":"锦翔大楼","lon":"121.35658","lat":"31.28754","category":"46","category_name":"楼宇","address":"真南路"},{"poiid":"B2094654D46BAAF84693","title":"绿春苑","lon":"121.3557","lat":"31.285666","category":"47","category_name":"住宅区","address":"雪松路392弄3号门"},{"poiid":"B2094757D16DA7F4469E","title":"上海众国宝泓","lon":"121.35481595","lat":"31.2957055511","category":"47","category_name":"住宅区","address":"普陀区红柳路233号(近南大路)"},{"poiid":"B2094654D46BAAFF4293","title":"金苹果幼儿园","lon":"121.35222","lat":"31.28748","category":"57","category_name":"幼儿园","address":"普陀区雪松路458弄224号"},{"poiid":"B2094757D06AABFA4293","title":"佳木斯烤肉","lon":"121.349586","lat":"31.288665","category":"269","category_name":"烧烤","address":"普陀区雪松路458号桃浦七村西(桃浦规划一路雪松路)"},{"poiid":"B2094757D06BA6FB4998","title":"桃浦一村合欢苑","lon":"121.3559463949","lat":"31.286426800228","category":"500","category_name":"未知分类","address":"上海普陀区武威路1051弄"},{"poiid":"B2094654D46BA4FA429B","title":"小刘拉面馆","lon":"121.35153","lat":"31.28652","category":"257","category_name":"中餐厅","address":""},{"poiid":"B2094654D46BAAFF439B","title":"云峰酒家","lon":"121.35099","lat":"31.28682","category":"76","category_name":"上海菜","address":"普陀区雪松路500号(近绿杨路)"},{"poiid":"B2094757D66FA7F54093","title":"豪大大鸡排","lon":"121.35273642","lat":"31.286301791","category":"247","category_name":"餐饮美食","address":"上海雪松路384号"},{"poiid":"B2094654D46BAAF8489F","title":"华环服装百货城","lon":"121.35241","lat":"31.28896","category":"119","category_name":"商场","address":""},{"poiid":"B2094654D46BA4FD449E","title":"杜鹃苑","lon":"121.35133","lat":"31.285521","category":"47","category_name":"住宅区","address":"绿杨路201弄"},{"poiid":"B2094654D46BA6F44599","title":"白丽新村","lon":"121.35219368482","lat":"31.287662160888","category":"47","category_name":"住宅区","address":"绿杨路51弄"},{"poiid":"B2094655D264A7FA429C","title":"好又多真南路店","lon":"121.35215","lat":"31.28968","category":"118","category_name":"超级市场","address":"普陀区真南路2949号"},{"poiid":"B2094757D66CA2F84199","title":"联建小学","lon":"121.34936","lat":"31.28659","category":"56","category_name":"小学","address":"普陀区绿杨路201弄15号(雪松路银杏路)"},{"poiid":"B2094654D46BA4FA4493","title":"震轩美容美发连锁直营(绿杨路)","lon":"121.35366","lat":"31.28536","category":"148","category_name":"美容美发店","address":"普陀区绿杨路245号"},{"poiid":"B2094757D66DA0FA4799","title":"海茜茶人中西餐厅","lon":"121.35695","lat":"31.28055","category":"94","category_name":"西餐厅","address":"普陀区武威路1118号白丽生活广场4楼406室(近红棉路)"},{"poiid":"B2094757D06FA4FD449C","title":"桃浦六村(樱花苑)","lon":"121.354376849","lat":"31.2825719372","category":"252","category_name":"楼宇机构","address":"上海普陀区雪松路330弄"},{"poiid":"B2094654DB6AA4F9469D","title":"好德","lon":"121.35196","lat":"31.28577","category":"117","category_name":"便民商店/便利店","address":"雪松路447"},{"poiid":"B2094757D165A7FA4399","title":"三味拉面","lon":"121.351568925","lat":"31.2860830866","category":"247","category_name":"餐饮美食","address":"上海雪松路"},{"poiid":"B2094757D66EA5FB499D","title":"白丽苑","lon":"121.34956","lat":"31.283182","category":"47","category_name":"住宅区","address":"上海市普陀区紅棉路311弄"},{"poiid":"B2094654DB6AA4F94792","title":"保健品专卖店","lon":"121.35522","lat":"31.28883","category":"162","category_name":"医院","address":"真南路红柳路路口新杨二队105号"},{"poiid":"B2094654D46BA4FA4293","title":"重庆鸡公煲桃浦店","lon":"121.35094","lat":"31.28684","category":"71","category_name":"四川菜","address":"桃浦镇"},{"poiid":"B2094757D568AAFE439C","title":"世纪华联超市(雪松路)","lon":"121.35171468","lat":"31.28642822","category":"118","category_name":"超级市场","address":"雪松路460"},{"poiid":"B2094654D46BAAFF4598","title":"合欢苑","lon":"121.35386","lat":"31.28254","category":"47","category_name":"住宅区","address":"桃浦镇"}]