[{"poiid":"B2094750D56DAAFD4593","title":"浅水湾艺术创意中心","lon":"121.439895","lat":"31.248973","category":"252","category_name":"楼宇机构","address":"宜昌路179号"},{"poiid":"B2094654DA6CA6F84698","title":"上海市普陀区人民医院","lon":"121.44177","lat":"31.24562","category":"162","category_name":"医院","address":"普陀区江宁路1291号(近澳门路)"},{"poiid":"B2094757D06FA5FC469F","title":"苏州河梦清园环保主题公园","lon":"121.44088","lat":"31.25094","category":"196","category_name":"公园","address":"普陀区宜昌路66号(近江宁路)"},{"poiid":"B209475CD564A7F8439E","title":"上海滩中信泰富店","lon":"121.45602","lat":"31.22851","category":"119","category_name":"商场","address":"\"南京西路1168号中信泰富广场，店铺号221.\r\n\""},{"poiid":"B2094757D06BA4FA439B","title":"中远两湾城西区","lon":"121.43790815","lat":"31.2489427579","category":"500","category_name":"未知分类","address":"上海中远两湾城99弄239号"},{"poiid":"B2094757D06FA6FE4593","title":"半岛花园","lon":"121.4397888","lat":"31.24708175","category":"47","category_name":"住宅区","address":"半岛花园位于普陀西康路1518弄"},{"poiid":"B2094757D06AABF4469C","title":"江宁路澳门路","lon":"121.44116074","lat":"31.246652676","category":"250","category_name":"公园户外","address":"上海市普陀区江宁路澳门路"},{"poiid":"B2094757D069A6F54099","title":"中华1912文化创意产业园","lon":"121.440299","lat":"31.246047","category":"260","category_name":"其他","address":"上海普陀区澳门路477号"},{"poiid":"B2094757D06FA4FE479B","title":"东方罗玛经典浴场","lon":"121.44088","lat":"31.24721","category":"149","category_name":"洗浴推拿场所","address":"普陀区江宁路1420号(澳门路口)"},{"poiid":"B2094757D068A5FF4093","title":"莫干山路涂鸦墙","lon":"121.44355495","lat":"31.249478668","category":"500","category_name":"未知分类","address":"上海市普陀区莫干山路"},{"poiid":"B2094654DA6CA6FE4892","title":"向阳渔港","lon":"121.43799","lat":"31.24436","category":"75","category_name":"浙江菜","address":"普陀区澳门路608号(近西康路)"},{"poiid":"B2094757D165A6FB449C","title":"玫瑰婚典一号会馆","lon":"121.43842895","lat":"31.250425686","category":"500","category_name":"未知分类","address":"普陀区宜昌路100号梦清园内(近中潭路)查看地图"},{"poiid":"B2094757D56CA2F5469E","title":"一号码头 Mimosa Supperclub","lon":"121.44170211433","lat":"31.249054090883","category":"247","category_name":"餐饮美食","address":"宜昌路88号近江宁路和昌化路之间"},{"poiid":"B2094654DA6CA6FE439E","title":"世纪之门","lon":"121.43903","lat":"31.247503","category":"47","category_name":"住宅区","address":"上海市江宁路1415弄"},{"poiid":"B2094757D06FAAFD4793","title":"古都日式料理","lon":"121.442442742","lat":"31.246909673","category":"247","category_name":"餐饮美食","address":"澳门路339号(近江宁路)"},{"poiid":"B2094752D269A3F54693","title":"浅水湾文化艺术中心","lon":"121.439621","lat":"31.248962","category":"248","category_name":"生活娱乐","address":"上海市普陀区宜昌路179号"},{"poiid":"B2094757D069A0FF469D","title":"浅水湾恺悦名城","lon":"121.44122259","lat":"31.248589515","category":"47","category_name":"住宅区","address":"上海普陀区澳门路330弄"},{"poiid":"B2094757D06FAAFD449F","title":"刘家香(陕西北路店)","lon":"121.43775","lat":"31.2463","category":"260","category_name":"其他","address":"普陀区陕西北路1726号(近宜昌路)"},{"poiid":"B2094757D068A6FC4792","title":"华生大厦","lon":"121.43988","lat":"31.244855","category":"46","category_name":"楼宇","address":"上海市普陀区陕西北路1622号"},{"poiid":"B2094757D068AAFC4798","title":"夏面馆(澳门路店)","lon":"121.44184","lat":"31.24639","category":"68","category_name":"快餐厅","address":"普陀区澳门路337号(近江宁路)"},{"poiid":"B2094757D469A5F84898","title":"煲宫","lon":"121.438156","lat":"31.245513","category":"76","category_name":"上海菜","address":"杨浦区控江路1734号(环球超市旁)"},{"poiid":"B2094655D26AABF8429C","title":"上海壹号码头精品酒店","lon":"121.44022","lat":"31.24956","category":"250","category_name":"公园户外","address":"上海普陀区宜昌路130号(近江宁路桥)。"},{"poiid":"B2094757D068A2FA489D","title":"江宁学校","lon":"121.43678","lat":"31.24699","category":"55","category_name":"中学","address":"普陀区西康路1518弄半岛花园1号(近宜昌路)"},{"poiid":"B2094757D66DA7FD4398","title":"煲宫猪肚鸡","lon":"121.440037853","lat":"31.2455802647","category":"86","category_name":"火锅店","address":"普陀区陕西北路1622号(澳门路口)"},{"poiid":"B2094757D168A7FA4993","title":"3号线镇坪路站","lon":"121.43886995","lat":"31.2523957238","category":"500","category_name":"未知分类","address":"上海市普陀区农林路"},{"poiid":"B2094751D365A2F44399","title":"上海浅水湾文化艺术中心","lon":"121.4366563","lat":"31.2512422","category":"248","category_name":"生活娱乐","address":"宜昌路179号"},{"poiid":"B2094654DA6CA6F9469E","title":"河滨围城","lon":"121.44302","lat":"31.247782","category":"47","category_name":"住宅区","address":"上海市普陀区澳门路249号"},{"poiid":"B2094750D464AAF94999","title":"红翼酒吧餐厅","lon":"121.440475","lat":"31.245855","category":"94","category_name":"西餐厅","address":"普陀区澳门路477弄中华1912创意园5栋1楼107室(近陕西北路)"},{"poiid":"B2094757D66DA3F4439C","title":"东方罗马","lon":"121.441131586","lat":"31.2477197733","category":"500","category_name":"未知分类","address":"上海市普陀区光复西路"},{"poiid":"B2094757D16DA2FC469E","title":"江宁路桥","lon":"121.438143747","lat":"31.2487116859","category":"500","category_name":"未知分类","address":"上海江宁路宜昌路"},{"poiid":"B2094757DB69A1FB4492","title":"朱雀门西安美食 澳门路店","lon":"121.440155","lat":"31.246061","category":"84","category_name":"西北菜","address":"普陀区澳门路477号中华1912创意园6号楼103室(近长寿公园)"},{"poiid":"B2094654DB69A6FA409A","title":"中远两湾城四期(璀璨天成)","lon":"121.44374","lat":"31.24952","category":"47","category_name":"住宅区","address":"普陀区中潭路41号"},{"poiid":"B2094757D16CABF4409C","title":"段氏姐妹","lon":"121.441385586","lat":"31.2466607526","category":"500","category_name":"未知分类","address":"上海市陕西北路1306号"},{"poiid":"B2094757D068A7FF499A","title":"百嘉盛大酒店","lon":"121.44230813","lat":"31.245816833","category":"260","category_name":"其他","address":"上海普陀区江宁路1286号(普陀路口)"},{"poiid":"B2094654DA6CA6FB4392","title":"中环商务大厦","lon":"121.443","lat":"31.2464","category":"46","category_name":"楼宇","address":"上海长寿路468号"},{"poiid":"B2094757D569A7FF409B","title":"壹号码头PIERONE","lon":"121.4402211","lat":"31.24956944","category":"47","category_name":"住宅区","address":"普陀区宜昌路88号梦清园公园内"},{"poiid":"B2094752D16BA3FB439A","title":"派悦坊Pantry\\'s best","lon":"121.437222","lat":"31.248004","category":"247","category_name":"餐饮美食","address":"澳门路477号5幢106室"},{"poiid":"B2094757D068A5FD4793","title":"我爱我汤(陕西北路店)","lon":"121.44009","lat":"31.24442","category":"68","category_name":"快餐厅","address":"普陀区陕西北路1622号吉买盛1楼(近普陀路)"},{"poiid":"B2094654D465A6FC4292","title":"梦清馆上海苏州河展示中心","lon":"121.43997","lat":"31.24964","category":"183","category_name":"展览馆","address":"普陀区宜昌路130号(江宁路口)"},{"poiid":"B2094753D165A1FE4398","title":"小胖龙虾","lon":"121.43906797139","lat":"31.24542076315","category":"247","category_name":"餐饮美食","address":"上海市 长寿路140号"},{"poiid":"B2094655D26CAAF8479C","title":"汉庭快捷酒店(上海澳门路店)","lon":"121.44014","lat":"31.24578","category":"216","category_name":"经济型连锁酒店","address":"上海市普陀区澳门路503号(陕西北路口)"},{"poiid":"B2094655D265A4F94798","title":"德诚大厦","lon":"121.44","lat":"31.2508","category":"46","category_name":"楼宇","address":"上海市普陀区常德路1436号"},{"poiid":"B2094654DB69A7FB4293","title":"纪北小区","lon":"121.43863","lat":"31.24842","category":"47","category_name":"住宅区","address":"闵行区纪翟路"},{"poiid":"B2094655D265A0F8419E","title":"乐活居","lon":"121.43847","lat":"31.245991","category":"47","category_name":"住宅区","address":"陕西北路1688弄"},{"poiid":"B2094654DA6CA6FF469D","title":"都华名苑","lon":"121.43755","lat":"31.2459","category":"47","category_name":"住宅区","address":"上海市普陀区陕西北路1789弄"},{"poiid":"B2094655D265A0F84693","title":"浅水湾恺悦名城(北门)","lon":"121.44067","lat":"31.2494","category":"47","category_name":"住宅区","address":"宜昌路79号"},{"poiid":"B2094752D16BA5FF439A","title":"大宁国际","lon":"121.438873","lat":"31.24971","category":"500","category_name":"未知分类","address":null},{"poiid":"B2094750D768A4FB409B","title":"达美乐比萨(澳门路店)","lon":"121.44","lat":"31.246","category":"94","category_name":"西餐厅","address":"普陀区澳门路477号6幢1楼101室(近江宁路)"},{"poiid":"B2094753D768ABFB4193","title":"浅水湾文化艺术中心","lon":"121.438354","lat":"31.246471","category":"500","category_name":"未知分类","address":"上海市 普陀区宜昌路179号"},{"poiid":"B2094757D06AA2F9449D","title":"东北四季饺子王","lon":"121.43985758","lat":"31.244264705","category":"82","category_name":"东北菜","address":"普陀区澳门路582号(近陕西北路)"},{"poiid":"B2094750D56DAAFD4593","title":"浅水湾艺术创意中心","lon":"121.439895","lat":"31.248973","category":"252","category_name":"楼宇机构","address":"宜昌路179号"},{"poiid":"B2094654DA6CA6F84698","title":"上海市普陀区人民医院","lon":"121.44177","lat":"31.24562","category":"162","category_name":"医院","address":"普陀区江宁路1291号(近澳门路)"},{"poiid":"B2094757D06FA5FC469F","title":"苏州河梦清园环保主题公园","lon":"121.44088","lat":"31.25094","category":"196","category_name":"公园","address":"普陀区宜昌路66号(近江宁路)"},{"poiid":"B209475CD564A7F8439E","title":"上海滩中信泰富店","lon":"121.45602","lat":"31.22851","category":"119","category_name":"商场","address":"\"南京西路1168号中信泰富广场，店铺号221.\r\n\""},{"poiid":"B2094757D06BA4FA439B","title":"中远两湾城西区","lon":"121.43790815","lat":"31.2489427579","category":"500","category_name":"未知分类","address":"上海中远两湾城99弄239号"},{"poiid":"B2094757D06FA6FE4593","title":"半岛花园","lon":"121.4397888","lat":"31.24708175","category":"47","category_name":"住宅区","address":"半岛花园位于普陀西康路1518弄"},{"poiid":"B2094757D06AABF4469C","title":"江宁路澳门路","lon":"121.44116074","lat":"31.246652676","category":"250","category_name":"公园户外","address":"上海市普陀区江宁路澳门路"},{"poiid":"B2094757D069A6F54099","title":"中华1912文化创意产业园","lon":"121.440299","lat":"31.246047","category":"260","category_name":"其他","address":"上海普陀区澳门路477号"},{"poiid":"B2094757D06FA4FE479B","title":"东方罗玛经典浴场","lon":"121.44088","lat":"31.24721","category":"149","category_name":"洗浴推拿场所","address":"普陀区江宁路1420号(澳门路口)"},{"poiid":"B2094757D068A5FF4093","title":"莫干山路涂鸦墙","lon":"121.44355495","lat":"31.249478668","category":"500","category_name":"未知分类","address":"上海市普陀区莫干山路"},{"poiid":"B2094654DA6CA6FE4892","title":"向阳渔港","lon":"121.43799","lat":"31.24436","category":"75","category_name":"浙江菜","address":"普陀区澳门路608号(近西康路)"},{"poiid":"B2094757D165A6FB449C","title":"玫瑰婚典一号会馆","lon":"121.43842895","lat":"31.250425686","category":"500","category_name":"未知分类","address":"普陀区宜昌路100号梦清园内(近中潭路)查看地图"},{"poiid":"B2094757D56CA2F5469E","title":"一号码头 Mimosa Supperclub","lon":"121.44170211433","lat":"31.249054090883","category":"247","category_name":"餐饮美食","address":"宜昌路88号近江宁路和昌化路之间"},{"poiid":"B2094654DA6CA6FE439E","title":"世纪之门","lon":"121.43903","lat":"31.247503","category":"47","category_name":"住宅区","address":"上海市江宁路1415弄"},{"poiid":"B2094757D06FAAFD4793","title":"古都日式料理","lon":"121.442442742","lat":"31.246909673","category":"247","category_name":"餐饮美食","address":"澳门路339号(近江宁路)"},{"poiid":"B2094752D269A3F54693","title":"浅水湾文化艺术中心","lon":"121.439621","lat":"31.248962","category":"248","category_name":"生活娱乐","address":"上海市普陀区宜昌路179号"},{"poiid":"B2094757D069A0FF469D","title":"浅水湾恺悦名城","lon":"121.44122259","lat":"31.248589515","category":"47","category_name":"住宅区","address":"上海普陀区澳门路330弄"},{"poiid":"B2094757D06FAAFD449F","title":"刘家香(陕西北路店)","lon":"121.43775","lat":"31.2463","category":"260","category_name":"其他","address":"普陀区陕西北路1726号(近宜昌路)"},{"poiid":"B2094757D068A6FC4792","title":"华生大厦","lon":"121.43988","lat":"31.244855","category":"46","category_name":"楼宇","address":"上海市普陀区陕西北路1622号"},{"poiid":"B2094757D068AAFC4798","title":"夏面馆(澳门路店)","lon":"121.44184","lat":"31.24639","category":"68","category_name":"快餐厅","address":"普陀区澳门路337号(近江宁路)"},{"poiid":"B2094757D469A5F84898","title":"煲宫","lon":"121.438156","lat":"31.245513","category":"76","category_name":"上海菜","address":"杨浦区控江路1734号(环球超市旁)"},{"poiid":"B2094655D26AABF8429C","title":"上海壹号码头精品酒店","lon":"121.44022","lat":"31.24956","category":"250","category_name":"公园户外","address":"上海普陀区宜昌路130号(近江宁路桥)。"},{"poiid":"B2094757D068A2FA489D","title":"江宁学校","lon":"121.43678","lat":"31.24699","category":"55","category_name":"中学","address":"普陀区西康路1518弄半岛花园1号(近宜昌路)"},{"poiid":"B2094757D66DA7FD4398","title":"煲宫猪肚鸡","lon":"121.440037853","lat":"31.2455802647","category":"86","category_name":"火锅店","address":"普陀区陕西北路1622号(澳门路口)"},{"poiid":"B2094757D168A7FA4993","title":"3号线镇坪路站","lon":"121.43886995","lat":"31.2523957238","category":"500","category_name":"未知分类","address":"上海市普陀区农林路"},{"poiid":"B2094751D365A2F44399","title":"上海浅水湾文化艺术中心","lon":"121.4366563","lat":"31.2512422","category":"248","category_name":"生活娱乐","address":"宜昌路179号"},{"poiid":"B2094654DA6CA6F9469E","title":"河滨围城","lon":"121.44302","lat":"31.247782","category":"47","category_name":"住宅区","address":"上海市普陀区澳门路249号"},{"poiid":"B2094750D464AAF94999","title":"红翼酒吧餐厅","lon":"121.440475","lat":"31.245855","category":"94","category_name":"西餐厅","address":"普陀区澳门路477弄中华1912创意园5栋1楼107室(近陕西北路)"},{"poiid":"B2094757D66DA3F4439C","title":"东方罗马","lon":"121.441131586","lat":"31.2477197733","category":"500","category_name":"未知分类","address":"上海市普陀区光复西路"},{"poiid":"B2094757D16DA2FC469E","title":"江宁路桥","lon":"121.438143747","lat":"31.2487116859","category":"500","category_name":"未知分类","address":"上海江宁路宜昌路"},{"poiid":"B2094757DB69A1FB4492","title":"朱雀门西安美食 澳门路店","lon":"121.440155","lat":"31.246061","category":"84","category_name":"西北菜","address":"普陀区澳门路477号中华1912创意园6号楼103室(近长寿公园)"},{"poiid":"B2094654DB69A6FA409A","title":"中远两湾城四期(璀璨天成)","lon":"121.44374","lat":"31.24952","category":"47","category_name":"住宅区","address":"普陀区中潭路41号"},{"poiid":"B2094757D16CABF4409C","title":"段氏姐妹","lon":"121.441385586","lat":"31.2466607526","category":"500","category_name":"未知分类","address":"上海市陕西北路1306号"},{"poiid":"B2094757D068A7FF499A","title":"百嘉盛大酒店","lon":"121.44230813","lat":"31.245816833","category":"260","category_name":"其他","address":"上海普陀区江宁路1286号(普陀路口)"},{"poiid":"B2094654DA6CA6FB4392","title":"中环商务大厦","lon":"121.443","lat":"31.2464","category":"46","category_name":"楼宇","address":"上海长寿路468号"},{"poiid":"B2094757D569A7FF409B","title":"壹号码头PIERONE","lon":"121.4402211","lat":"31.24956944","category":"47","category_name":"住宅区","address":"普陀区宜昌路88号梦清园公园内"},{"poiid":"B2094752D16BA3FB439A","title":"派悦坊Pantry\\'s best","lon":"121.437222","lat":"31.248004","category":"247","category_name":"餐饮美食","address":"澳门路477号5幢106室"},{"poiid":"B2094757D068A5FD4793","title":"我爱我汤(陕西北路店)","lon":"121.44009","lat":"31.24442","category":"68","category_name":"快餐厅","address":"普陀区陕西北路1622号吉买盛1楼(近普陀路)"},{"poiid":"B2094654D465A6FC4292","title":"梦清馆上海苏州河展示中心","lon":"121.43997","lat":"31.24964","category":"183","category_name":"展览馆","address":"普陀区宜昌路130号(江宁路口)"},{"poiid":"B2094753D165A1FE4398","title":"小胖龙虾","lon":"121.43906797139","lat":"31.24542076315","category":"247","category_name":"餐饮美食","address":"上海市 长寿路140号"},{"poiid":"B2094655D26CAAF8479C","title":"汉庭快捷酒店(上海澳门路店)","lon":"121.44014","lat":"31.24578","category":"216","category_name":"经济型连锁酒店","address":"上海市普陀区澳门路503号(陕西北路口)"},{"poiid":"B2094655D265A4F94798","title":"德诚大厦","lon":"121.44","lat":"31.2508","category":"46","category_name":"楼宇","address":"上海市普陀区常德路1436号"},{"poiid":"B2094654DB69A7FB4293","title":"纪北小区","lon":"121.43863","lat":"31.24842","category":"47","category_name":"住宅区","address":"闵行区纪翟路"},{"poiid":"B2094655D265A0F8419E","title":"乐活居","lon":"121.43847","lat":"31.245991","category":"47","category_name":"住宅区","address":"陕西北路1688弄"},{"poiid":"B2094654DA6CA6FF469D","title":"都华名苑","lon":"121.43755","lat":"31.2459","category":"47","category_name":"住宅区","address":"上海市普陀区陕西北路1789弄"},{"poiid":"B2094655D265A0F84693","title":"浅水湾恺悦名城(北门)","lon":"121.44067","lat":"31.2494","category":"47","category_name":"住宅区","address":"宜昌路79号"},{"poiid":"B2094752D16BA5FF439A","title":"大宁国际","lon":"121.438873","lat":"31.24971","category":"500","category_name":"未知分类","address":null},{"poiid":"B2094750D768A4FB409B","title":"达美乐比萨(澳门路店)","lon":"121.44","lat":"31.246","category":"94","category_name":"西餐厅","address":"普陀区澳门路477号6幢1楼101室(近江宁路)"},{"poiid":"B2094753D768ABFB4193","title":"浅水湾文化艺术中心","lon":"121.438354","lat":"31.246471","category":"500","category_name":"未知分类","address":"上海市 普陀区宜昌路179号"},{"poiid":"B2094757D06AA2F9449D","title":"东北四季饺子王","lon":"121.43985758","lat":"31.244264705","category":"82","category_name":"东北菜","address":"普陀区澳门路582号(近陕西北路)"},{"poiid":"B2094750D56DAAFD4593","title":"浅水湾艺术创意中心","lon":"121.439895","lat":"31.248973","category":"252","category_name":"楼宇机构","address":"宜昌路179号"},{"poiid":"B2094654DA6CA6F84698","title":"上海市普陀区人民医院","lon":"121.44177","lat":"31.24562","category":"162","category_name":"医院","address":"普陀区江宁路1291号(近澳门路)"},{"poiid":"B2094757D06FA5FC469F","title":"苏州河梦清园环保主题公园","lon":"121.44088","lat":"31.25094","category":"196","category_name":"公园","address":"普陀区宜昌路66号(近江宁路)"},{"poiid":"B209475CD564A7F8439E","title":"上海滩中信泰富店","lon":"121.45602","lat":"31.22851","category":"119","category_name":"商场","address":"\"南京西路1168号中信泰富广场，店铺号221.\r\n\""},{"poiid":"B2094757D06BA4FA439B","title":"中远两湾城西区","lon":"121.43790815","lat":"31.2489427579","category":"500","category_name":"未知分类","address":"上海中远两湾城99弄239号"},{"poiid":"B2094757D06FA6FE4593","title":"半岛花园","lon":"121.4397888","lat":"31.24708175","category":"47","category_name":"住宅区","address":"半岛花园位于普陀西康路1518弄"},{"poiid":"B2094757D06AABF4469C","title":"江宁路澳门路","lon":"121.44116074","lat":"31.246652676","category":"250","category_name":"公园户外","address":"上海市普陀区江宁路澳门路"},{"poiid":"B2094757D069A6F54099","title":"中华1912文化创意产业园","lon":"121.440299","lat":"31.246047","category":"260","category_name":"其他","address":"上海普陀区澳门路477号"},{"poiid":"B2094757D06FA4FE479B","title":"东方罗玛经典浴场","lon":"121.44088","lat":"31.24721","category":"149","category_name":"洗浴推拿场所","address":"普陀区江宁路1420号(澳门路口)"},{"poiid":"B2094757D068A5FF4093","title":"莫干山路涂鸦墙","lon":"121.44355495","lat":"31.249478668","category":"500","category_name":"未知分类","address":"上海市普陀区莫干山路"},{"poiid":"B2094654DA6CA6FE4892","title":"向阳渔港","lon":"121.43799","lat":"31.24436","category":"75","category_name":"浙江菜","address":"普陀区澳门路608号(近西康路)"},{"poiid":"B2094757D165A6FB449C","title":"玫瑰婚典一号会馆","lon":"121.43842895","lat":"31.250425686","category":"500","category_name":"未知分类","address":"普陀区宜昌路100号梦清园内(近中潭路)查看地图"},{"poiid":"B2094757D56CA2F5469E","title":"一号码头 Mimosa Supperclub","lon":"121.44170211433","lat":"31.249054090883","category":"247","category_name":"餐饮美食","address":"宜昌路88号近江宁路和昌化路之间"},{"poiid":"B2094654DA6CA6FE439E","title":"世纪之门","lon":"121.43903","lat":"31.247503","category":"47","category_name":"住宅区","address":"上海市江宁路1415弄"},{"poiid":"B2094757D06FAAFD4793","title":"古都日式料理","lon":"121.442442742","lat":"31.246909673","category":"247","category_name":"餐饮美食","address":"澳门路339号(近江宁路)"},{"poiid":"B2094752D269A3F54693","title":"浅水湾文化艺术中心","lon":"121.439621","lat":"31.248962","category":"248","category_name":"生活娱乐","address":"上海市普陀区宜昌路179号"},{"poiid":"B2094757D069A0FF469D","title":"浅水湾恺悦名城","lon":"121.44122259","lat":"31.248589515","category":"47","category_name":"住宅区","address":"上海普陀区澳门路330弄"},{"poiid":"B2094757D06FAAFD449F","title":"刘家香(陕西北路店)","lon":"121.43775","lat":"31.2463","category":"260","category_name":"其他","address":"普陀区陕西北路1726号(近宜昌路)"},{"poiid":"B2094757D068A6FC4792","title":"华生大厦","lon":"121.43988","lat":"31.244855","category":"46","category_name":"楼宇","address":"上海市普陀区陕西北路1622号"},{"poiid":"B2094757D068AAFC4798","title":"夏面馆(澳门路店)","lon":"121.44184","lat":"31.24639","category":"68","category_name":"快餐厅","address":"普陀区澳门路337号(近江宁路)"},{"poiid":"B2094757D469A5F84898","title":"煲宫","lon":"121.438156","lat":"31.245513","category":"76","category_name":"上海菜","address":"杨浦区控江路1734号(环球超市旁)"},{"poiid":"B2094655D26AABF8429C","title":"上海壹号码头精品酒店","lon":"121.44022","lat":"31.24956","category":"250","category_name":"公园户外","address":"上海普陀区宜昌路130号(近江宁路桥)。"},{"poiid":"B2094757D068A2FA489D","title":"江宁学校","lon":"121.43678","lat":"31.24699","category":"55","category_name":"中学","address":"普陀区西康路1518弄半岛花园1号(近宜昌路)"},{"poiid":"B2094757D66DA7FD4398","title":"煲宫猪肚鸡","lon":"121.440037853","lat":"31.2455802647","category":"86","category_name":"火锅店","address":"普陀区陕西北路1622号(澳门路口)"},{"poiid":"B2094757D168A7FA4993","title":"3号线镇坪路站","lon":"121.43886995","lat":"31.2523957238","category":"500","category_name":"未知分类","address":"上海市普陀区农林路"},{"poiid":"B2094751D365A2F44399","title":"上海浅水湾文化艺术中心","lon":"121.4366563","lat":"31.2512422","category":"248","category_name":"生活娱乐","address":"宜昌路179号"},{"poiid":"B2094654DA6CA6F9469E","title":"河滨围城","lon":"121.44302","lat":"31.247782","category":"47","category_name":"住宅区","address":"上海市普陀区澳门路249号"},{"poiid":"B2094750D464AAF94999","title":"红翼酒吧餐厅","lon":"121.440475","lat":"31.245855","category":"94","category_name":"西餐厅","address":"普陀区澳门路477弄中华1912创意园5栋1楼107室(近陕西北路)"},{"poiid":"B2094757D66DA3F4439C","title":"东方罗马","lon":"121.441131586","lat":"31.2477197733","category":"500","category_name":"未知分类","address":"上海市普陀区光复西路"},{"poiid":"B2094757D16DA2FC469E","title":"江宁路桥","lon":"121.438143747","lat":"31.2487116859","category":"500","category_name":"未知分类","address":"上海江宁路宜昌路"},{"poiid":"B2094757DB69A1FB4492","title":"朱雀门西安美食 澳门路店","lon":"121.440155","lat":"31.246061","category":"84","category_name":"西北菜","address":"普陀区澳门路477号中华1912创意园6号楼103室(近长寿公园)"},{"poiid":"B2094654DB69A6FA409A","title":"中远两湾城四期(璀璨天成)","lon":"121.44374","lat":"31.24952","category":"47","category_name":"住宅区","address":"普陀区中潭路41号"},{"poiid":"B2094757D16CABF4409C","title":"段氏姐妹","lon":"121.441385586","lat":"31.2466607526","category":"500","category_name":"未知分类","address":"上海市陕西北路1306号"},{"poiid":"B2094757D068A7FF499A","title":"百嘉盛大酒店","lon":"121.44230813","lat":"31.245816833","category":"260","category_name":"其他","address":"上海普陀区江宁路1286号(普陀路口)"},{"poiid":"B2094654DA6CA6FB4392","title":"中环商务大厦","lon":"121.443","lat":"31.2464","category":"46","category_name":"楼宇","address":"上海长寿路468号"},{"poiid":"B2094757D569A7FF409B","title":"壹号码头PIERONE","lon":"121.4402211","lat":"31.24956944","category":"47","category_name":"住宅区","address":"普陀区宜昌路88号梦清园公园内"},{"poiid":"B2094752D16BA3FB439A","title":"派悦坊Pantry\\'s best","lon":"121.437222","lat":"31.248004","category":"247","category_name":"餐饮美食","address":"澳门路477号5幢106室"},{"poiid":"B2094757D068A5FD4793","title":"我爱我汤(陕西北路店)","lon":"121.44009","lat":"31.24442","category":"68","category_name":"快餐厅","address":"普陀区陕西北路1622号吉买盛1楼(近普陀路)"},{"poiid":"B2094654D465A6FC4292","title":"梦清馆上海苏州河展示中心","lon":"121.43997","lat":"31.24964","category":"183","category_name":"展览馆","address":"普陀区宜昌路130号(江宁路口)"},{"poiid":"B2094753D165A1FE4398","title":"小胖龙虾","lon":"121.43906797139","lat":"31.24542076315","category":"247","category_name":"餐饮美食","address":"上海市 长寿路140号"},{"poiid":"B2094655D26CAAF8479C","title":"汉庭快捷酒店(上海澳门路店)","lon":"121.44014","lat":"31.24578","category":"216","category_name":"经济型连锁酒店","address":"上海市普陀区澳门路503号(陕西北路口)"},{"poiid":"B2094655D265A4F94798","title":"德诚大厦","lon":"121.44","lat":"31.2508","category":"46","category_name":"楼宇","address":"上海市普陀区常德路1436号"},{"poiid":"B2094654DB69A7FB4293","title":"纪北小区","lon":"121.43863","lat":"31.24842","category":"47","category_name":"住宅区","address":"闵行区纪翟路"},{"poiid":"B2094655D265A0F8419E","title":"乐活居","lon":"121.43847","lat":"31.245991","category":"47","category_name":"住宅区","address":"陕西北路1688弄"},{"poiid":"B2094654DA6CA6FF469D","title":"都华名苑","lon":"121.43755","lat":"31.2459","category":"47","category_name":"住宅区","address":"上海市普陀区陕西北路1789弄"},{"poiid":"B2094655D265A0F84693","title":"浅水湾恺悦名城(北门)","lon":"121.44067","lat":"31.2494","category":"47","category_name":"住宅区","address":"宜昌路79号"},{"poiid":"B2094752D16BA5FF439A","title":"大宁国际","lon":"121.438873","lat":"31.24971","category":"500","category_name":"未知分类","address":null},{"poiid":"B2094750D768A4FB409B","title":"达美乐比萨(澳门路店)","lon":"121.44","lat":"31.246","category":"94","category_name":"西餐厅","address":"普陀区澳门路477号6幢1楼101室(近江宁路)"},{"poiid":"B2094753D768ABFB4193","title":"浅水湾文化艺术中心","lon":"121.438354","lat":"31.246471","category":"500","category_name":"未知分类","address":"上海市 普陀区宜昌路179号"},{"poiid":"B2094757D06AA2F9449D","title":"东北四季饺子王","lon":"121.43985758","lat":"31.244264705","category":"82","category_name":"东北菜","address":"普陀区澳门路582号(近陕西北路)"},{"poiid":"B2094750D56DAAFD4593","title":"浅水湾艺术创意中心","lon":"121.439895","lat":"31.248973","category":"252","category_name":"楼宇机构","address":"宜昌路179号"},{"poiid":"B2094654DA6CA6F84698","title":"上海市普陀区人民医院","lon":"121.44177","lat":"31.24562","category":"162","category_name":"医院","address":"普陀区江宁路1291号(近澳门路)"},{"poiid":"B2094757D06FA5FC469F","title":"苏州河梦清园环保主题公园","lon":"121.44088","lat":"31.25094","category":"196","category_name":"公园","address":"普陀区宜昌路66号(近江宁路)"},{"poiid":"B209475CD564A7F8439E","title":"上海滩中信泰富店","lon":"121.45602","lat":"31.22851","category":"119","category_name":"商场","address":"\"南京西路1168号中信泰富广场，店铺号221.\r\n\""},{"poiid":"B2094757D06BA4FA439B","title":"中远两湾城西区","lon":"121.43790815","lat":"31.2489427579","category":"500","category_name":"未知分类","address":"上海中远两湾城99弄239号"},{"poiid":"B2094757D06FA6FE4593","title":"半岛花园","lon":"121.4397888","lat":"31.24708175","category":"47","category_name":"住宅区","address":"半岛花园位于普陀西康路1518弄"},{"poiid":"B2094757D06AABF4469C","title":"江宁路澳门路","lon":"121.44116074","lat":"31.246652676","category":"250","category_name":"公园户外","address":"上海市普陀区江宁路澳门路"},{"poiid":"B2094757D069A6F54099","title":"中华1912文化创意产业园","lon":"121.440299","lat":"31.246047","category":"260","category_name":"其他","address":"上海普陀区澳门路477号"},{"poiid":"B2094757D06FA4FE479B","title":"东方罗玛经典浴场","lon":"121.44088","lat":"31.24721","category":"149","category_name":"洗浴推拿场所","address":"普陀区江宁路1420号(澳门路口)"},{"poiid":"B2094757D068A5FF4093","title":"莫干山路涂鸦墙","lon":"121.44355495","lat":"31.249478668","category":"500","category_name":"未知分类","address":"上海市普陀区莫干山路"},{"poiid":"B2094654DA6CA6FE4892","title":"向阳渔港","lon":"121.43799","lat":"31.24436","category":"75","category_name":"浙江菜","address":"普陀区澳门路608号(近西康路)"},{"poiid":"B2094757D165A6FB449C","title":"玫瑰婚典一号会馆","lon":"121.43842895","lat":"31.250425686","category":"500","category_name":"未知分类","address":"普陀区宜昌路100号梦清园内(近中潭路)查看地图"},{"poiid":"B2094757D56CA2F5469E","title":"一号码头 Mimosa Supperclub","lon":"121.44170211433","lat":"31.249054090883","category":"247","category_name":"餐饮美食","address":"宜昌路88号近江宁路和昌化路之间"},{"poiid":"B2094654DA6CA6FE439E","title":"世纪之门","lon":"121.43903","lat":"31.247503","category":"47","category_name":"住宅区","address":"上海市江宁路1415弄"},{"poiid":"B2094757D06FAAFD4793","title":"古都日式料理","lon":"121.442442742","lat":"31.246909673","category":"247","category_name":"餐饮美食","address":"澳门路339号(近江宁路)"},{"poiid":"B2094752D269A3F54693","title":"浅水湾文化艺术中心","lon":"121.439621","lat":"31.248962","category":"248","category_name":"生活娱乐","address":"上海市普陀区宜昌路179号"},{"poiid":"B2094757D069A0FF469D","title":"浅水湾恺悦名城","lon":"121.44122259","lat":"31.248589515","category":"47","category_name":"住宅区","address":"上海普陀区澳门路330弄"},{"poiid":"B2094757D06FAAFD449F","title":"刘家香(陕西北路店)","lon":"121.43775","lat":"31.2463","category":"260","category_name":"其他","address":"普陀区陕西北路1726号(近宜昌路)"},{"poiid":"B2094757D068A6FC4792","title":"华生大厦","lon":"121.43988","lat":"31.244855","category":"46","category_name":"楼宇","address":"上海市普陀区陕西北路1622号"},{"poiid":"B2094757D068AAFC4798","title":"夏面馆(澳门路店)","lon":"121.44184","lat":"31.24639","category":"68","category_name":"快餐厅","address":"普陀区澳门路337号(近江宁路)"},{"poiid":"B2094757D469A5F84898","title":"煲宫","lon":"121.438156","lat":"31.245513","category":"76","category_name":"上海菜","address":"杨浦区控江路1734号(环球超市旁)"},{"poiid":"B2094655D26AABF8429C","title":"上海壹号码头精品酒店","lon":"121.44022","lat":"31.24956","category":"250","category_name":"公园户外","address":"上海普陀区宜昌路130号(近江宁路桥)。"},{"poiid":"B2094757D068A2FA489D","title":"江宁学校","lon":"121.43678","lat":"31.24699","category":"55","category_name":"中学","address":"普陀区西康路1518弄半岛花园1号(近宜昌路)"},{"poiid":"B2094757D66DA7FD4398","title":"煲宫猪肚鸡","lon":"121.440037853","lat":"31.2455802647","category":"86","category_name":"火锅店","address":"普陀区陕西北路1622号(澳门路口)"},{"poiid":"B2094757D168A7FA4993","title":"3号线镇坪路站","lon":"121.43886995","lat":"31.2523957238","category":"500","category_name":"未知分类","address":"上海市普陀区农林路"},{"poiid":"B2094751D365A2F44399","title":"上海浅水湾文化艺术中心","lon":"121.4366563","lat":"31.2512422","category":"248","category_name":"生活娱乐","address":"宜昌路179号"},{"poiid":"B2094654DA6CA6F9469E","title":"河滨围城","lon":"121.44302","lat":"31.247782","category":"47","category_name":"住宅区","address":"上海市普陀区澳门路249号"},{"poiid":"B2094750D464AAF94999","title":"红翼酒吧餐厅","lon":"121.440475","lat":"31.245855","category":"94","category_name":"西餐厅","address":"普陀区澳门路477弄中华1912创意园5栋1楼107室(近陕西北路)"},{"poiid":"B2094757D66DA3F4439C","title":"东方罗马","lon":"121.441131586","lat":"31.2477197733","category":"500","category_name":"未知分类","address":"上海市普陀区光复西路"},{"poiid":"B2094757D16DA2FC469E","title":"江宁路桥","lon":"121.438143747","lat":"31.2487116859","category":"500","category_name":"未知分类","address":"上海江宁路宜昌路"},{"poiid":"B2094757DB69A1FB4492","title":"朱雀门西安美食 澳门路店","lon":"121.440155","lat":"31.246061","category":"84","category_name":"西北菜","address":"普陀区澳门路477号中华1912创意园6号楼103室(近长寿公园)"},{"poiid":"B2094654DB69A6FA409A","title":"中远两湾城四期(璀璨天成)","lon":"121.44374","lat":"31.24952","category":"47","category_name":"住宅区","address":"普陀区中潭路41号"},{"poiid":"B2094757D16CABF4409C","title":"段氏姐妹","lon":"121.441385586","lat":"31.2466607526","category":"500","category_name":"未知分类","address":"上海市陕西北路1306号"},{"poiid":"B2094757D068A7FF499A","title":"百嘉盛大酒店","lon":"121.44230813","lat":"31.245816833","category":"260","category_name":"其他","address":"上海普陀区江宁路1286号(普陀路口)"},{"poiid":"B2094654DA6CA6FB4392","title":"中环商务大厦","lon":"121.443","lat":"31.2464","category":"46","category_name":"楼宇","address":"上海长寿路468号"},{"poiid":"B2094757D569A7FF409B","title":"壹号码头PIERONE","lon":"121.4402211","lat":"31.24956944","category":"47","category_name":"住宅区","address":"普陀区宜昌路88号梦清园公园内"},{"poiid":"B2094752D16BA3FB439A","title":"派悦坊Pantry\\'s best","lon":"121.437222","lat":"31.248004","category":"247","category_name":"餐饮美食","address":"澳门路477号5幢106室"},{"poiid":"B2094757D068A5FD4793","title":"我爱我汤(陕西北路店)","lon":"121.44009","lat":"31.24442","category":"68","category_name":"快餐厅","address":"普陀区陕西北路1622号吉买盛1楼(近普陀路)"},{"poiid":"B2094654D465A6FC4292","title":"梦清馆上海苏州河展示中心","lon":"121.43997","lat":"31.24964","category":"183","category_name":"展览馆","address":"普陀区宜昌路130号(江宁路口)"},{"poiid":"B2094753D165A1FE4398","title":"小胖龙虾","lon":"121.43906797139","lat":"31.24542076315","category":"247","category_name":"餐饮美食","address":"上海市 长寿路140号"},{"poiid":"B2094655D26CAAF8479C","title":"汉庭快捷酒店(上海澳门路店)","lon":"121.44014","lat":"31.24578","category":"216","category_name":"经济型连锁酒店","address":"上海市普陀区澳门路503号(陕西北路口)"},{"poiid":"B2094655D265A4F94798","title":"德诚大厦","lon":"121.44","lat":"31.2508","category":"46","category_name":"楼宇","address":"上海市普陀区常德路1436号"},{"poiid":"B2094654DB69A7FB4293","title":"纪北小区","lon":"121.43863","lat":"31.24842","category":"47","category_name":"住宅区","address":"闵行区纪翟路"},{"poiid":"B2094655D265A0F8419E","title":"乐活居","lon":"121.43847","lat":"31.245991","category":"47","category_name":"住宅区","address":"陕西北路1688弄"},{"poiid":"B2094654DA6CA6FF469D","title":"都华名苑","lon":"121.43755","lat":"31.2459","category":"47","category_name":"住宅区","address":"上海市普陀区陕西北路1789弄"},{"poiid":"B2094655D265A0F84693","title":"浅水湾恺悦名城(北门)","lon":"121.44067","lat":"31.2494","category":"47","category_name":"住宅区","address":"宜昌路79号"},{"poiid":"B2094752D16BA5FF439A","title":"大宁国际","lon":"121.438873","lat":"31.24971","category":"500","category_name":"未知分类","address":null},{"poiid":"B2094750D768A4FB409B","title":"达美乐比萨(澳门路店)","lon":"121.44","lat":"31.246","category":"94","category_name":"西餐厅","address":"普陀区澳门路477号6幢1楼101室(近江宁路)"},{"poiid":"B2094753D768ABFB4193","title":"浅水湾文化艺术中心","lon":"121.438354","lat":"31.246471","category":"500","category_name":"未知分类","address":"上海市 普陀区宜昌路179号"},{"poiid":"B2094757D06AA2F9449D","title":"东北四季饺子王","lon":"121.43985758","lat":"31.244264705","category":"82","category_name":"东北菜","address":"普陀区澳门路582号(近陕西北路)"}]