[{"poiid":"B2094757D06FA0FA4093","title":"通用汽车中国总部","lon":"121.611518","lat":"31.258484","category":"46","category_name":"楼宇","address":"上海金皖路56号"},{"poiid":"B2094757D068A5FB4498","title":"富豪金丰酒店","lon":"121.611114061","lat":"31.2546132888","category":"217","category_name":"旅馆招待所","address":"浦东新区金港路318号(近申江路)查看地图"},{"poiid":"B2094757D06FA3FA4293","title":"星巴克(中惠广场店)","lon":"121.609055","lat":"31.253059","category":"260","category_name":"其他","address":"浦东新区新金桥路1088号中惠广场B100室(近金湘路)"},{"poiid":"B2094655D264A6F54892","title":"禹洲金桥国际","lon":"121.61327","lat":"31.256","category":"47","category_name":"住宅区","address":"浦东金湘路201弄15号(新金桥路与金港路交点)"},{"poiid":"B2094757D464A7FD459C","title":"沈家花园 新金桥店","lon":"121.61101051625","lat":"31.253419846704","category":"47","category_name":"住宅区","address":"浦东新区新金桥路1122号(金港路新金桥路)"},{"poiid":"B2094757D068A0FB459B","title":"金桥新城","lon":"121.609231","lat":"31.262573","category":"47","category_name":"住宅区","address":"上海东陆路2000弄"},{"poiid":"B2094757D06AA4F9489B","title":"方正大厦","lon":"121.618","lat":"31.2592","category":"46","category_name":"楼宇","address":"丰台学城海鹰路1号,3号"},{"poiid":"B2094757D46EAAF5459C","title":"光头烧烤 金高路店","lon":"121.608973","lat":"31.266761","category":"269","category_name":"烧烤","address":"金高路1895号近佳林路"},{"poiid":"B2094654D568AAFE409F","title":"爱立诚大厦","lon":"121.617","lat":"31.2602","category":"46","category_name":"楼宇","address":"浦东新区金湘路333号"},{"poiid":"B2094655D26CA7FE479E","title":"永业小区","lon":"121.61426","lat":"31.26496","category":"47","category_name":"住宅区","address":"佳虹路50弄1-30号"},{"poiid":"B2094757DA64A0FA4892","title":"同华大厦","lon":"121.61644174655","lat":"31.259770959798","category":"252","category_name":"楼宇机构","address":"金湘路345号"},{"poiid":"B2094654D568A0F9449C","title":"金舍苑","lon":"121.6096","lat":"31.26136","category":"47","category_name":"住宅区","address":"金高路2131弄1-52号"},{"poiid":"B2094655D36CA0FE439B","title":"金皖路通用公司","lon":"121.61415","lat":"31.25865","category":"38","category_name":"公交车站","address":""},{"poiid":"B2094757D568ABF8459E","title":"禹洲国际大厦","lon":"121.61332","lat":"31.25514389","category":"46","category_name":"楼宇","address":"浦东新区金湘路225弄"},{"poiid":"B2094654D568AAFE4192","title":"金桥出口加工区3-5号","lon":"121.61405","lat":"31.25906","category":"45","category_name":"产业园区","address":"金皖路55号(3-10)"},{"poiid":"B2094654D568A0F8429E","title":"上海市浦东新区金桥地段医院","lon":"121.61347","lat":"31.26367","category":"162","category_name":"医院","address":"浦东新区金桥路1240号(金明路金桥路)"},{"poiid":"B2094654DB64A6FA459D","title":"味千拉面 新金桥店","lon":"121.609280054","lat":"31.253093793","category":"95","category_name":"日本料理","address":"浦东新区新金桥路1088号中惠广场B102B113单元(近金湘路)"},{"poiid":"B2094757D06FABF5459B","title":"ICBC SDC Shanghai","lon":"121.61748301","lat":"31.250660182","category":"500","category_name":"未知分类","address":"上海云桥路875号"},{"poiid":"B2094757D069A4F4499B","title":"上海通用汽车培训中心","lon":"121.617045","lat":"31.252899","category":"500","category_name":"未知分类","address":"上海宁桥路669号"},{"poiid":"B2094757D169A4F84299","title":"上海夏普","lon":"121.614901339","lat":"31.2588510008","category":"500","category_name":"未知分类","address":"上海市浦东新区金海路1111号"},{"poiid":"B2094655D36CA6FB419A","title":"东陆路金海路","lon":"121.61235","lat":"31.26246","category":"38","category_name":"公交车站","address":""},{"poiid":"B2094655D36DA1FD429B","title":"金海路曹家沟桥","lon":"121.61473","lat":"31.26206","category":"250","category_name":"公园户外","address":""},{"poiid":"B2094757D068A6FA409B","title":"上海日立电器有限公司","lon":"121.62077638","lat":"31.252898312","category":"46","category_name":"楼宇","address":"上海浦东金桥出口加工区宁桥路888号"},{"poiid":"B2094750D164A5F4419D","title":"维也纳酒店上海新金桥店","lon":"121.61520224727","lat":"31.255083124501","category":"215","category_name":"三星级宾馆","address":"浦东新区新金桥路1388号"},{"poiid":"B2094757D06BA1FC4193","title":"上海大众汽车金桥4S店","lon":"121.607505","lat":"31.258932","category":"500","category_name":"未知分类","address":"上海浦东新区金海路351号"},{"poiid":"B2094655D26AAAFD439D","title":"锦江之星上海新金桥路店","lon":"121.61452","lat":"31.25453","category":"250","category_name":"公园户外","address":"上海浦东新区新金桥路店1348号(近A2O公里)"},{"poiid":"B2094757D165A4F54993","title":"今唐城量贩式KTV","lon":"121.61435061","lat":"31.257147279","category":"170","category_name":"KTV","address":"浦东新区金湘路209号(近新金桥路)"},{"poiid":"B2094654DB6BA1FC469E","title":"浦东新区金桥社区卫生服务中心","lon":"121.61347","lat":"31.26367","category":"162","category_name":"医院","address":"佳林路1028"},{"poiid":"B2094655D26BA4F44192","title":"永建路86弄小区","lon":"121.616","lat":"31.26377","category":"47","category_name":"住宅区","address":"永建路86弄1-35号"},{"poiid":"B2094757D069A7FD4392","title":"三晋春秋(新金桥路店)","lon":"121.6133","lat":"31.25335","category":"260","category_name":"其他","address":"浦东新区金港路333号禹州国际1期2楼(近方正大厦)"},{"poiid":"B2094654D568AAFD459C","title":"金条出口加工区","lon":"121.61141","lat":"31.26024","category":"45","category_name":"产业园区","address":"金海路550"},{"poiid":"B2094654D568AAFC449B","title":"上海金陵金桥工业园区","lon":"121.61954","lat":"31.26097","category":"45","category_name":"产业园区","address":"金海路900"},{"poiid":"B2094757D16EA5FF4192","title":"上海市新陆中学","lon":"121.619461339","lat":"31.2573407661","category":"55","category_name":"中学","address":"上海市新金桥路1811号"},{"poiid":"B2094655D36CA0FF4593","title":"金海路金京路","lon":"121.61838","lat":"31.26318","category":"38","category_name":"公交车站","address":""},{"poiid":"B2094654DB65A4FF4292","title":"炎通咖啡金桥店","lon":"121.61172","lat":"31.26327","category":"65","category_name":"咖啡厅","address":"东陆路1755弄72-77号"},{"poiid":"B2094655D36CA0FE4398","title":"金皖路新金桥路","lon":"121.61807","lat":"31.25657","category":"38","category_name":"公交车站","address":""},{"poiid":"B2094655D264A6FF449A","title":"蜀悦渔乡 金湘路店","lon":"121.60921","lat":"31.25353","category":"71","category_name":"四川菜","address":"浦东新区金湘路345号(近新金桥路)"},{"poiid":"B2094655D265A4F5459F","title":"永建路86弄小区(西门)","lon":"121.6151","lat":"31.26384","category":"47","category_name":"住宅区","address":"永建路86弄1-35号"},{"poiid":"B2094757D064A7FF439C","title":"欧莱雅研发和创新中心","lon":"121.61284362","lat":"31.251635695","category":"46","category_name":"楼宇","address":"上海云桥路金豫路550号"},{"poiid":"B2094757D06BAAFF429A","title":"世外桃源","lon":"121.60816","lat":"31.2642","category":"76","category_name":"上海菜","address":"浦东新区东陆路1755弄"},{"poiid":"B2094757D465A3F9469A","title":"御花园 Rivoli Cafe","lon":"121.611247","lat":"31.255067","category":"47","category_name":"住宅区","address":"浦东新区金港路318富豪金丰酒店2楼(金港路金湘路)"},{"poiid":"B2094757DB68AAFE419A","title":"凌家传菜","lon":"121.61535","lat":"31.25478","category":"76","category_name":"上海菜","address":"浦东新区新金桥路1388号(近金豫路)"},{"poiid":"B2094655D26FA6F84698","title":"肯德基 新金桥路店 KFC","lon":"121.609280054","lat":"31.253093793","category":"68","category_name":"快餐厅","address":"浦东新区新金桥路1088号中惠广场A102-202室(近金湘路)"},{"poiid":"B2094757D169AAF94498","title":"金桥管委会","lon":"121.618635339","lat":"31.2575439708","category":"500","category_name":"未知分类","address":"上海市浦东新区新金桥路1566号"},{"poiid":"B2094655D36DA0FD4093","title":"新金桥路金豫路","lon":"121.61581","lat":"31.25489","category":"38","category_name":"公交车站","address":""},{"poiid":"B2094655D26BA1FE429E","title":"宁桥路金豫路","lon":"121.61851","lat":"31.25272","category":"38","category_name":"公交车站","address":"上海宁桥路金豫路"},{"poiid":"B2094654D568AAFC449A","title":"上海名辰摸塑科技有限公司","lon":"121.61857","lat":"31.26186","category":"263","category_name":"公司","address":"金海路900"},{"poiid":"B2094655D265A4FE439E","title":"金领之都7号楼","lon":"121.62216","lat":"31.26012","category":"46","category_name":"楼宇","address":""},{"poiid":"B2094757D16BA3F44992","title":"佳林路小区","lon":"121.615771339","lat":"31.2636201104","category":"252","category_name":"楼宇机构","address":"上海市浦东新区佳林路1071弄"},{"poiid":"B2094654D568A0F84398","title":"金桥工商所","lon":"121.61565","lat":"31.26425","category":"250","category_name":"公园户外","address":"永建路102"},{"poiid":"B2094757D06FA0FA4093","title":"通用汽车中国总部","lon":"121.611518","lat":"31.258484","category":"46","category_name":"楼宇","address":"上海金皖路56号"},{"poiid":"B2094757D068A5FB4498","title":"富豪金丰酒店","lon":"121.611114061","lat":"31.2546132888","category":"217","category_name":"旅馆招待所","address":"浦东新区金港路318号(近申江路)查看地图"},{"poiid":"B2094757D06FA3FA4293","title":"星巴克(中惠广场店)","lon":"121.609055","lat":"31.253059","category":"260","category_name":"其他","address":"浦东新区新金桥路1088号中惠广场B100室(近金湘路)"},{"poiid":"B2094655D264A6F54892","title":"禹洲金桥国际","lon":"121.61327","lat":"31.256","category":"47","category_name":"住宅区","address":"浦东金湘路201弄15号(新金桥路与金港路交点)"},{"poiid":"B2094757D464A7FD459C","title":"沈家花园 新金桥店","lon":"121.61101051625","lat":"31.253419846704","category":"47","category_name":"住宅区","address":"浦东新区新金桥路1122号(金港路新金桥路)"},{"poiid":"B2094757D068A0FB459B","title":"金桥新城","lon":"121.609231","lat":"31.262573","category":"47","category_name":"住宅区","address":"上海东陆路2000弄"},{"poiid":"B2094757D06AA4F9489B","title":"方正大厦","lon":"121.618","lat":"31.2592","category":"46","category_name":"楼宇","address":"丰台学城海鹰路1号,3号"},{"poiid":"B2094757D46EAAF5459C","title":"光头烧烤 金高路店","lon":"121.608973","lat":"31.266761","category":"269","category_name":"烧烤","address":"金高路1895号近佳林路"},{"poiid":"B2094654D568AAFE409F","title":"爱立诚大厦","lon":"121.617","lat":"31.2602","category":"46","category_name":"楼宇","address":"浦东新区金湘路333号"},{"poiid":"B2094655D26CA7FE479E","title":"永业小区","lon":"121.61426","lat":"31.26496","category":"47","category_name":"住宅区","address":"佳虹路50弄1-30号"},{"poiid":"B2094757DA64A0FA4892","title":"同华大厦","lon":"121.61644174655","lat":"31.259770959798","category":"252","category_name":"楼宇机构","address":"金湘路345号"},{"poiid":"B2094654D568A0F9449C","title":"金舍苑","lon":"121.6096","lat":"31.26136","category":"47","category_name":"住宅区","address":"金高路2131弄1-52号"},{"poiid":"B2094655D36CA0FE439B","title":"金皖路通用公司","lon":"121.61415","lat":"31.25865","category":"38","category_name":"公交车站","address":""},{"poiid":"B2094757D568ABF8459E","title":"禹洲国际大厦","lon":"121.61332","lat":"31.25514389","category":"46","category_name":"楼宇","address":"浦东新区金湘路225弄"},{"poiid":"B2094654D568AAFE4192","title":"金桥出口加工区3-5号","lon":"121.61405","lat":"31.25906","category":"45","category_name":"产业园区","address":"金皖路55号(3-10)"},{"poiid":"B2094654D568A0F8429E","title":"上海市浦东新区金桥地段医院","lon":"121.61347","lat":"31.26367","category":"162","category_name":"医院","address":"浦东新区金桥路1240号(金明路金桥路)"},{"poiid":"B2094654DB64A6FA459D","title":"味千拉面 新金桥店","lon":"121.609280054","lat":"31.253093793","category":"95","category_name":"日本料理","address":"浦东新区新金桥路1088号中惠广场B102B113单元(近金湘路)"},{"poiid":"B2094757D06FABF5459B","title":"ICBC SDC Shanghai","lon":"121.61748301","lat":"31.250660182","category":"500","category_name":"未知分类","address":"上海云桥路875号"},{"poiid":"B2094757D069A4F4499B","title":"上海通用汽车培训中心","lon":"121.617045","lat":"31.252899","category":"500","category_name":"未知分类","address":"上海宁桥路669号"},{"poiid":"B2094757D169A4F84299","title":"上海夏普","lon":"121.614901339","lat":"31.2588510008","category":"500","category_name":"未知分类","address":"上海市浦东新区金海路1111号"},{"poiid":"B2094655D36CA6FB419A","title":"东陆路金海路","lon":"121.61235","lat":"31.26246","category":"38","category_name":"公交车站","address":""},{"poiid":"B2094655D36DA1FD429B","title":"金海路曹家沟桥","lon":"121.61473","lat":"31.26206","category":"250","category_name":"公园户外","address":""},{"poiid":"B2094757D068A6FA409B","title":"上海日立电器有限公司","lon":"121.62077638","lat":"31.252898312","category":"46","category_name":"楼宇","address":"上海浦东金桥出口加工区宁桥路888号"},{"poiid":"B2094750D164A5F4419D","title":"维也纳酒店上海新金桥店","lon":"121.61520224727","lat":"31.255083124501","category":"215","category_name":"三星级宾馆","address":"浦东新区新金桥路1388号"},{"poiid":"B2094757D06BA1FC4193","title":"上海大众汽车金桥4S店","lon":"121.607505","lat":"31.258932","category":"500","category_name":"未知分类","address":"上海浦东新区金海路351号"},{"poiid":"B2094655D26AAAFD439D","title":"锦江之星上海新金桥路店","lon":"121.61452","lat":"31.25453","category":"250","category_name":"公园户外","address":"上海浦东新区新金桥路店1348号(近A2O公里)"},{"poiid":"B2094757D165A4F54993","title":"今唐城量贩式KTV","lon":"121.61435061","lat":"31.257147279","category":"170","category_name":"KTV","address":"浦东新区金湘路209号(近新金桥路)"},{"poiid":"B2094654DB6BA1FC469E","title":"浦东新区金桥社区卫生服务中心","lon":"121.61347","lat":"31.26367","category":"162","category_name":"医院","address":"佳林路1028"},{"poiid":"B2094655D26BA4F44192","title":"永建路86弄小区","lon":"121.616","lat":"31.26377","category":"47","category_name":"住宅区","address":"永建路86弄1-35号"},{"poiid":"B2094757D069A7FD4392","title":"三晋春秋(新金桥路店)","lon":"121.6133","lat":"31.25335","category":"260","category_name":"其他","address":"浦东新区金港路333号禹州国际1期2楼(近方正大厦)"},{"poiid":"B2094654D568AAFD459C","title":"金条出口加工区","lon":"121.61141","lat":"31.26024","category":"45","category_name":"产业园区","address":"金海路550"},{"poiid":"B2094654D568AAFC449B","title":"上海金陵金桥工业园区","lon":"121.61954","lat":"31.26097","category":"45","category_name":"产业园区","address":"金海路900"},{"poiid":"B2094757D16EA5FF4192","title":"上海市新陆中学","lon":"121.619461339","lat":"31.2573407661","category":"55","category_name":"中学","address":"上海市新金桥路1811号"},{"poiid":"B2094655D36CA0FF4593","title":"金海路金京路","lon":"121.61838","lat":"31.26318","category":"38","category_name":"公交车站","address":""},{"poiid":"B2094654DB65A4FF4292","title":"炎通咖啡金桥店","lon":"121.61172","lat":"31.26327","category":"65","category_name":"咖啡厅","address":"东陆路1755弄72-77号"},{"poiid":"B2094655D36CA0FE4398","title":"金皖路新金桥路","lon":"121.61807","lat":"31.25657","category":"38","category_name":"公交车站","address":""},{"poiid":"B2094655D264A6FF449A","title":"蜀悦渔乡 金湘路店","lon":"121.60921","lat":"31.25353","category":"71","category_name":"四川菜","address":"浦东新区金湘路345号(近新金桥路)"},{"poiid":"B2094655D265A4F5459F","title":"永建路86弄小区(西门)","lon":"121.6151","lat":"31.26384","category":"47","category_name":"住宅区","address":"永建路86弄1-35号"},{"poiid":"B2094757D064A7FF439C","title":"欧莱雅研发和创新中心","lon":"121.61284362","lat":"31.251635695","category":"46","category_name":"楼宇","address":"上海云桥路金豫路550号"},{"poiid":"B2094757D06BAAFF429A","title":"世外桃源","lon":"121.60816","lat":"31.2642","category":"76","category_name":"上海菜","address":"浦东新区东陆路1755弄"},{"poiid":"B2094757D465A3F9469A","title":"御花园 Rivoli Cafe","lon":"121.611247","lat":"31.255067","category":"47","category_name":"住宅区","address":"浦东新区金港路318富豪金丰酒店2楼(金港路金湘路)"},{"poiid":"B2094757DB68AAFE419A","title":"凌家传菜","lon":"121.61535","lat":"31.25478","category":"76","category_name":"上海菜","address":"浦东新区新金桥路1388号(近金豫路)"},{"poiid":"B2094655D26FA6F84698","title":"肯德基 新金桥路店 KFC","lon":"121.609280054","lat":"31.253093793","category":"68","category_name":"快餐厅","address":"浦东新区新金桥路1088号中惠广场A102-202室(近金湘路)"},{"poiid":"B2094757D169AAF94498","title":"金桥管委会","lon":"121.618635339","lat":"31.2575439708","category":"500","category_name":"未知分类","address":"上海市浦东新区新金桥路1566号"},{"poiid":"B2094655D36DA0FD4093","title":"新金桥路金豫路","lon":"121.61581","lat":"31.25489","category":"38","category_name":"公交车站","address":""},{"poiid":"B2094655D26BA1FE429E","title":"宁桥路金豫路","lon":"121.61851","lat":"31.25272","category":"38","category_name":"公交车站","address":"上海宁桥路金豫路"},{"poiid":"B2094654D568AAFC449A","title":"上海名辰摸塑科技有限公司","lon":"121.61857","lat":"31.26186","category":"263","category_name":"公司","address":"金海路900"},{"poiid":"B2094655D265A4FE439E","title":"金领之都7号楼","lon":"121.62216","lat":"31.26012","category":"46","category_name":"楼宇","address":""},{"poiid":"B2094757D16BA3F44992","title":"佳林路小区","lon":"121.615771339","lat":"31.2636201104","category":"252","category_name":"楼宇机构","address":"上海市浦东新区佳林路1071弄"},{"poiid":"B2094654D568A0F84398","title":"金桥工商所","lon":"121.61565","lat":"31.26425","category":"250","category_name":"公园户外","address":"永建路102"},{"poiid":"B2094757D06FA0FA4093","title":"通用汽车中国总部","lon":"121.611518","lat":"31.258484","category":"46","category_name":"楼宇","address":"上海金皖路56号"},{"poiid":"B2094757D068A5FB4498","title":"富豪金丰酒店","lon":"121.611114061","lat":"31.2546132888","category":"217","category_name":"旅馆招待所","address":"浦东新区金港路318号(近申江路)查看地图"},{"poiid":"B2094757D06FA3FA4293","title":"星巴克(中惠广场店)","lon":"121.609055","lat":"31.253059","category":"260","category_name":"其他","address":"浦东新区新金桥路1088号中惠广场B100室(近金湘路)"},{"poiid":"B2094655D264A6F54892","title":"禹洲金桥国际","lon":"121.61327","lat":"31.256","category":"47","category_name":"住宅区","address":"浦东金湘路201弄15号(新金桥路与金港路交点)"},{"poiid":"B2094757D464A7FD459C","title":"沈家花园 新金桥店","lon":"121.61101051625","lat":"31.253419846704","category":"47","category_name":"住宅区","address":"浦东新区新金桥路1122号(金港路新金桥路)"},{"poiid":"B2094757D068A0FB459B","title":"金桥新城","lon":"121.609231","lat":"31.262573","category":"47","category_name":"住宅区","address":"上海东陆路2000弄"},{"poiid":"B2094757D06AA4F9489B","title":"方正大厦","lon":"121.618","lat":"31.2592","category":"46","category_name":"楼宇","address":"丰台学城海鹰路1号,3号"},{"poiid":"B2094757D46EAAF5459C","title":"光头烧烤 金高路店","lon":"121.608973","lat":"31.266761","category":"269","category_name":"烧烤","address":"金高路1895号近佳林路"},{"poiid":"B2094654D568AAFE409F","title":"爱立诚大厦","lon":"121.617","lat":"31.2602","category":"46","category_name":"楼宇","address":"浦东新区金湘路333号"},{"poiid":"B2094655D26CA7FE479E","title":"永业小区","lon":"121.61426","lat":"31.26496","category":"47","category_name":"住宅区","address":"佳虹路50弄1-30号"},{"poiid":"B2094757DA64A0FA4892","title":"同华大厦","lon":"121.61644174655","lat":"31.259770959798","category":"252","category_name":"楼宇机构","address":"金湘路345号"},{"poiid":"B2094654D568A0F9449C","title":"金舍苑","lon":"121.6096","lat":"31.26136","category":"47","category_name":"住宅区","address":"金高路2131弄1-52号"},{"poiid":"B2094655D36CA0FE439B","title":"金皖路通用公司","lon":"121.61415","lat":"31.25865","category":"38","category_name":"公交车站","address":""},{"poiid":"B2094757D568ABF8459E","title":"禹洲国际大厦","lon":"121.61332","lat":"31.25514389","category":"46","category_name":"楼宇","address":"浦东新区金湘路225弄"},{"poiid":"B2094654D568AAFE4192","title":"金桥出口加工区3-5号","lon":"121.61405","lat":"31.25906","category":"45","category_name":"产业园区","address":"金皖路55号(3-10)"},{"poiid":"B2094654D568A0F8429E","title":"上海市浦东新区金桥地段医院","lon":"121.61347","lat":"31.26367","category":"162","category_name":"医院","address":"浦东新区金桥路1240号(金明路金桥路)"},{"poiid":"B2094654DB64A6FA459D","title":"味千拉面 新金桥店","lon":"121.609280054","lat":"31.253093793","category":"95","category_name":"日本料理","address":"浦东新区新金桥路1088号中惠广场B102B113单元(近金湘路)"},{"poiid":"B2094757D06FABF5459B","title":"ICBC SDC Shanghai","lon":"121.61748301","lat":"31.250660182","category":"500","category_name":"未知分类","address":"上海云桥路875号"},{"poiid":"B2094757D069A4F4499B","title":"上海通用汽车培训中心","lon":"121.617045","lat":"31.252899","category":"500","category_name":"未知分类","address":"上海宁桥路669号"},{"poiid":"B2094757D169A4F84299","title":"上海夏普","lon":"121.614901339","lat":"31.2588510008","category":"500","category_name":"未知分类","address":"上海市浦东新区金海路1111号"},{"poiid":"B2094655D36CA6FB419A","title":"东陆路金海路","lon":"121.61235","lat":"31.26246","category":"38","category_name":"公交车站","address":""},{"poiid":"B2094655D36DA1FD429B","title":"金海路曹家沟桥","lon":"121.61473","lat":"31.26206","category":"250","category_name":"公园户外","address":""},{"poiid":"B2094757D068A6FA409B","title":"上海日立电器有限公司","lon":"121.62077638","lat":"31.252898312","category":"46","category_name":"楼宇","address":"上海浦东金桥出口加工区宁桥路888号"},{"poiid":"B2094750D164A5F4419D","title":"维也纳酒店上海新金桥店","lon":"121.61520224727","lat":"31.255083124501","category":"215","category_name":"三星级宾馆","address":"浦东新区新金桥路1388号"},{"poiid":"B2094757D06BA1FC4193","title":"上海大众汽车金桥4S店","lon":"121.607505","lat":"31.258932","category":"500","category_name":"未知分类","address":"上海浦东新区金海路351号"},{"poiid":"B2094655D26AAAFD439D","title":"锦江之星上海新金桥路店","lon":"121.61452","lat":"31.25453","category":"250","category_name":"公园户外","address":"上海浦东新区新金桥路店1348号(近A2O公里)"},{"poiid":"B2094757D165A4F54993","title":"今唐城量贩式KTV","lon":"121.61435061","lat":"31.257147279","category":"170","category_name":"KTV","address":"浦东新区金湘路209号(近新金桥路)"},{"poiid":"B2094654DB6BA1FC469E","title":"浦东新区金桥社区卫生服务中心","lon":"121.61347","lat":"31.26367","category":"162","category_name":"医院","address":"佳林路1028"},{"poiid":"B2094655D26BA4F44192","title":"永建路86弄小区","lon":"121.616","lat":"31.26377","category":"47","category_name":"住宅区","address":"永建路86弄1-35号"},{"poiid":"B2094757D069A7FD4392","title":"三晋春秋(新金桥路店)","lon":"121.6133","lat":"31.25335","category":"260","category_name":"其他","address":"浦东新区金港路333号禹州国际1期2楼(近方正大厦)"},{"poiid":"B2094654D568AAFD459C","title":"金条出口加工区","lon":"121.61141","lat":"31.26024","category":"45","category_name":"产业园区","address":"金海路550"},{"poiid":"B2094654D568AAFC449B","title":"上海金陵金桥工业园区","lon":"121.61954","lat":"31.26097","category":"45","category_name":"产业园区","address":"金海路900"},{"poiid":"B2094757D16EA5FF4192","title":"上海市新陆中学","lon":"121.619461339","lat":"31.2573407661","category":"55","category_name":"中学","address":"上海市新金桥路1811号"},{"poiid":"B2094655D36CA0FF4593","title":"金海路金京路","lon":"121.61838","lat":"31.26318","category":"38","category_name":"公交车站","address":""},{"poiid":"B2094654DB65A4FF4292","title":"炎通咖啡金桥店","lon":"121.61172","lat":"31.26327","category":"65","category_name":"咖啡厅","address":"东陆路1755弄72-77号"},{"poiid":"B2094655D36CA0FE4398","title":"金皖路新金桥路","lon":"121.61807","lat":"31.25657","category":"38","category_name":"公交车站","address":""},{"poiid":"B2094655D264A6FF449A","title":"蜀悦渔乡 金湘路店","lon":"121.60921","lat":"31.25353","category":"71","category_name":"四川菜","address":"浦东新区金湘路345号(近新金桥路)"},{"poiid":"B2094655D265A4F5459F","title":"永建路86弄小区(西门)","lon":"121.6151","lat":"31.26384","category":"47","category_name":"住宅区","address":"永建路86弄1-35号"},{"poiid":"B2094757D064A7FF439C","title":"欧莱雅研发和创新中心","lon":"121.61284362","lat":"31.251635695","category":"46","category_name":"楼宇","address":"上海云桥路金豫路550号"},{"poiid":"B2094757D06BAAFF429A","title":"世外桃源","lon":"121.60816","lat":"31.2642","category":"76","category_name":"上海菜","address":"浦东新区东陆路1755弄"},{"poiid":"B2094757D465A3F9469A","title":"御花园 Rivoli Cafe","lon":"121.611247","lat":"31.255067","category":"47","category_name":"住宅区","address":"浦东新区金港路318富豪金丰酒店2楼(金港路金湘路)"},{"poiid":"B2094757DB68AAFE419A","title":"凌家传菜","lon":"121.61535","lat":"31.25478","category":"76","category_name":"上海菜","address":"浦东新区新金桥路1388号(近金豫路)"},{"poiid":"B2094655D26FA6F84698","title":"肯德基 新金桥路店 KFC","lon":"121.609280054","lat":"31.253093793","category":"68","category_name":"快餐厅","address":"浦东新区新金桥路1088号中惠广场A102-202室(近金湘路)"},{"poiid":"B2094757D169AAF94498","title":"金桥管委会","lon":"121.618635339","lat":"31.2575439708","category":"500","category_name":"未知分类","address":"上海市浦东新区新金桥路1566号"},{"poiid":"B2094655D36DA0FD4093","title":"新金桥路金豫路","lon":"121.61581","lat":"31.25489","category":"38","category_name":"公交车站","address":""},{"poiid":"B2094655D26BA1FE429E","title":"宁桥路金豫路","lon":"121.61851","lat":"31.25272","category":"38","category_name":"公交车站","address":"上海宁桥路金豫路"},{"poiid":"B2094654D568AAFC449A","title":"上海名辰摸塑科技有限公司","lon":"121.61857","lat":"31.26186","category":"263","category_name":"公司","address":"金海路900"},{"poiid":"B2094655D265A4FE439E","title":"金领之都7号楼","lon":"121.62216","lat":"31.26012","category":"46","category_name":"楼宇","address":""},{"poiid":"B2094757D16BA3F44992","title":"佳林路小区","lon":"121.615771339","lat":"31.2636201104","category":"252","category_name":"楼宇机构","address":"上海市浦东新区佳林路1071弄"},{"poiid":"B2094654D568A0F84398","title":"金桥工商所","lon":"121.61565","lat":"31.26425","category":"250","category_name":"公园户外","address":"永建路102"},{"poiid":"B2094757D06FA0FA4093","title":"通用汽车中国总部","lon":"121.611518","lat":"31.258484","category":"46","category_name":"楼宇","address":"上海金皖路56号"},{"poiid":"B2094757D068A5FB4498","title":"富豪金丰酒店","lon":"121.611114061","lat":"31.2546132888","category":"217","category_name":"旅馆招待所","address":"浦东新区金港路318号(近申江路)查看地图"},{"poiid":"B2094757D06FA3FA4293","title":"星巴克(中惠广场店)","lon":"121.609055","lat":"31.253059","category":"260","category_name":"其他","address":"浦东新区新金桥路1088号中惠广场B100室(近金湘路)"},{"poiid":"B2094655D264A6F54892","title":"禹洲金桥国际","lon":"121.61327","lat":"31.256","category":"47","category_name":"住宅区","address":"浦东金湘路201弄15号(新金桥路与金港路交点)"},{"poiid":"B2094757D464A7FD459C","title":"沈家花园 新金桥店","lon":"121.61101051625","lat":"31.253419846704","category":"47","category_name":"住宅区","address":"浦东新区新金桥路1122号(金港路新金桥路)"},{"poiid":"B2094757D068A0FB459B","title":"金桥新城","lon":"121.609231","lat":"31.262573","category":"47","category_name":"住宅区","address":"上海东陆路2000弄"},{"poiid":"B2094757D06AA4F9489B","title":"方正大厦","lon":"121.618","lat":"31.2592","category":"46","category_name":"楼宇","address":"丰台学城海鹰路1号,3号"},{"poiid":"B2094757D46EAAF5459C","title":"光头烧烤 金高路店","lon":"121.608973","lat":"31.266761","category":"269","category_name":"烧烤","address":"金高路1895号近佳林路"},{"poiid":"B2094654D568AAFE409F","title":"爱立诚大厦","lon":"121.617","lat":"31.2602","category":"46","category_name":"楼宇","address":"浦东新区金湘路333号"},{"poiid":"B2094655D26CA7FE479E","title":"永业小区","lon":"121.61426","lat":"31.26496","category":"47","category_name":"住宅区","address":"佳虹路50弄1-30号"},{"poiid":"B2094757DA64A0FA4892","title":"同华大厦","lon":"121.61644174655","lat":"31.259770959798","category":"252","category_name":"楼宇机构","address":"金湘路345号"},{"poiid":"B2094654D568A0F9449C","title":"金舍苑","lon":"121.6096","lat":"31.26136","category":"47","category_name":"住宅区","address":"金高路2131弄1-52号"},{"poiid":"B2094655D36CA0FE439B","title":"金皖路通用公司","lon":"121.61415","lat":"31.25865","category":"38","category_name":"公交车站","address":""},{"poiid":"B2094757D568ABF8459E","title":"禹洲国际大厦","lon":"121.61332","lat":"31.25514389","category":"46","category_name":"楼宇","address":"浦东新区金湘路225弄"},{"poiid":"B2094654D568AAFE4192","title":"金桥出口加工区3-5号","lon":"121.61405","lat":"31.25906","category":"45","category_name":"产业园区","address":"金皖路55号(3-10)"},{"poiid":"B2094654D568A0F8429E","title":"上海市浦东新区金桥地段医院","lon":"121.61347","lat":"31.26367","category":"162","category_name":"医院","address":"浦东新区金桥路1240号(金明路金桥路)"},{"poiid":"B2094654DB64A6FA459D","title":"味千拉面 新金桥店","lon":"121.609280054","lat":"31.253093793","category":"95","category_name":"日本料理","address":"浦东新区新金桥路1088号中惠广场B102B113单元(近金湘路)"},{"poiid":"B2094757D06FABF5459B","title":"ICBC SDC Shanghai","lon":"121.61748301","lat":"31.250660182","category":"500","category_name":"未知分类","address":"上海云桥路875号"},{"poiid":"B2094757D069A4F4499B","title":"上海通用汽车培训中心","lon":"121.617045","lat":"31.252899","category":"500","category_name":"未知分类","address":"上海宁桥路669号"},{"poiid":"B2094757D169A4F84299","title":"上海夏普","lon":"121.614901339","lat":"31.2588510008","category":"500","category_name":"未知分类","address":"上海市浦东新区金海路1111号"},{"poiid":"B2094655D36CA6FB419A","title":"东陆路金海路","lon":"121.61235","lat":"31.26246","category":"38","category_name":"公交车站","address":""},{"poiid":"B2094655D36DA1FD429B","title":"金海路曹家沟桥","lon":"121.61473","lat":"31.26206","category":"250","category_name":"公园户外","address":""},{"poiid":"B2094757D068A6FA409B","title":"上海日立电器有限公司","lon":"121.62077638","lat":"31.252898312","category":"46","category_name":"楼宇","address":"上海浦东金桥出口加工区宁桥路888号"},{"poiid":"B2094750D164A5F4419D","title":"维也纳酒店上海新金桥店","lon":"121.61520224727","lat":"31.255083124501","category":"215","category_name":"三星级宾馆","address":"浦东新区新金桥路1388号"},{"poiid":"B2094757D06BA1FC4193","title":"上海大众汽车金桥4S店","lon":"121.607505","lat":"31.258932","category":"500","category_name":"未知分类","address":"上海浦东新区金海路351号"},{"poiid":"B2094655D26AAAFD439D","title":"锦江之星上海新金桥路店","lon":"121.61452","lat":"31.25453","category":"250","category_name":"公园户外","address":"上海浦东新区新金桥路店1348号(近A2O公里)"},{"poiid":"B2094757D165A4F54993","title":"今唐城量贩式KTV","lon":"121.61435061","lat":"31.257147279","category":"170","category_name":"KTV","address":"浦东新区金湘路209号(近新金桥路)"},{"poiid":"B2094654DB6BA1FC469E","title":"浦东新区金桥社区卫生服务中心","lon":"121.61347","lat":"31.26367","category":"162","category_name":"医院","address":"佳林路1028"},{"poiid":"B2094655D26BA4F44192","title":"永建路86弄小区","lon":"121.616","lat":"31.26377","category":"47","category_name":"住宅区","address":"永建路86弄1-35号"},{"poiid":"B2094757D069A7FD4392","title":"三晋春秋(新金桥路店)","lon":"121.6133","lat":"31.25335","category":"260","category_name":"其他","address":"浦东新区金港路333号禹州国际1期2楼(近方正大厦)"},{"poiid":"B2094654D568AAFD459C","title":"金条出口加工区","lon":"121.61141","lat":"31.26024","category":"45","category_name":"产业园区","address":"金海路550"},{"poiid":"B2094654D568AAFC449B","title":"上海金陵金桥工业园区","lon":"121.61954","lat":"31.26097","category":"45","category_name":"产业园区","address":"金海路900"},{"poiid":"B2094757D16EA5FF4192","title":"上海市新陆中学","lon":"121.619461339","lat":"31.2573407661","category":"55","category_name":"中学","address":"上海市新金桥路1811号"},{"poiid":"B2094655D36CA0FF4593","title":"金海路金京路","lon":"121.61838","lat":"31.26318","category":"38","category_name":"公交车站","address":""},{"poiid":"B2094654DB65A4FF4292","title":"炎通咖啡金桥店","lon":"121.61172","lat":"31.26327","category":"65","category_name":"咖啡厅","address":"东陆路1755弄72-77号"},{"poiid":"B2094655D36CA0FE4398","title":"金皖路新金桥路","lon":"121.61807","lat":"31.25657","category":"38","category_name":"公交车站","address":""},{"poiid":"B2094655D264A6FF449A","title":"蜀悦渔乡 金湘路店","lon":"121.60921","lat":"31.25353","category":"71","category_name":"四川菜","address":"浦东新区金湘路345号(近新金桥路)"},{"poiid":"B2094655D265A4F5459F","title":"永建路86弄小区(西门)","lon":"121.6151","lat":"31.26384","category":"47","category_name":"住宅区","address":"永建路86弄1-35号"},{"poiid":"B2094757D064A7FF439C","title":"欧莱雅研发和创新中心","lon":"121.61284362","lat":"31.251635695","category":"46","category_name":"楼宇","address":"上海云桥路金豫路550号"},{"poiid":"B2094757D06BAAFF429A","title":"世外桃源","lon":"121.60816","lat":"31.2642","category":"76","category_name":"上海菜","address":"浦东新区东陆路1755弄"},{"poiid":"B2094757D465A3F9469A","title":"御花园 Rivoli Cafe","lon":"121.611247","lat":"31.255067","category":"47","category_name":"住宅区","address":"浦东新区金港路318富豪金丰酒店2楼(金港路金湘路)"},{"poiid":"B2094757DB68AAFE419A","title":"凌家传菜","lon":"121.61535","lat":"31.25478","category":"76","category_name":"上海菜","address":"浦东新区新金桥路1388号(近金豫路)"},{"poiid":"B2094655D26FA6F84698","title":"肯德基 新金桥路店 KFC","lon":"121.609280054","lat":"31.253093793","category":"68","category_name":"快餐厅","address":"浦东新区新金桥路1088号中惠广场A102-202室(近金湘路)"},{"poiid":"B2094757D169AAF94498","title":"金桥管委会","lon":"121.618635339","lat":"31.2575439708","category":"500","category_name":"未知分类","address":"上海市浦东新区新金桥路1566号"},{"poiid":"B2094655D36DA0FD4093","title":"新金桥路金豫路","lon":"121.61581","lat":"31.25489","category":"38","category_name":"公交车站","address":""},{"poiid":"B2094655D26BA1FE429E","title":"宁桥路金豫路","lon":"121.61851","lat":"31.25272","category":"38","category_name":"公交车站","address":"上海宁桥路金豫路"},{"poiid":"B2094654D568AAFC449A","title":"上海名辰摸塑科技有限公司","lon":"121.61857","lat":"31.26186","category":"263","category_name":"公司","address":"金海路900"},{"poiid":"B2094655D265A4FE439E","title":"金领之都7号楼","lon":"121.62216","lat":"31.26012","category":"46","category_name":"楼宇","address":""},{"poiid":"B2094757D16BA3F44992","title":"佳林路小区","lon":"121.615771339","lat":"31.2636201104","category":"252","category_name":"楼宇机构","address":"上海市浦东新区佳林路1071弄"},{"poiid":"B2094654D568A0F84398","title":"金桥工商所","lon":"121.61565","lat":"31.26425","category":"250","category_name":"公园户外","address":"永建路102"}]