[{"poiid":"B2094757D06EAAFF4392","title":"殷高西路地铁站","lon":"121.485236","lat":"31.320193","category":"36","category_name":"地铁站","address":"上海轨道交通 三号线 轨交殷高西路站 轻轨 3"},{"poiid":"B2094757D06FA1FD459F","title":"四季绿城","lon":"121.47614294","lat":"31.330535534","category":"47","category_name":"住宅区","address":"上海市宝山区新二路999号"},{"poiid":"B2094757D068A3FC4093","title":"逸仙路高架","lon":"121.48360317","lat":"31.318403135","category":"500","category_name":"未知分类","address":"上海殷高西路"},{"poiid":"B2094757D068A2F9429C","title":"三花现代城","lon":"121.481926","lat":"31.322185","category":"47","category_name":"住宅区","address":"上海市宝山区云西路168弄"},{"poiid":"B2094757D068A6FE429B","title":"交大附中","lon":"121.49007","lat":"31.3194","category":"55","category_name":"中学","address":"宝山区殷高路42号(吉浦路殷高路)"},{"poiid":"B2094757D06FA5FB4999","title":"美岸栖庭(二期)","lon":"121.49002456","lat":"31.326800622","category":"47","category_name":"住宅区","address":"上海市宝山区国权北路828弄"},{"poiid":"B2094757D06FA2FC459B","title":"高境一村","lon":"121.48119","lat":"31.318478","category":"500","category_name":"未知分类","address":"上海市殷高西路高境一村"},{"poiid":"B2094757D06FA0F94693","title":"高境二村","lon":"121.47961","lat":"31.320936","category":"252","category_name":"楼宇机构","address":"上海市宝山区殷高西路"},{"poiid":"B2094757D06FA7F9409E","title":"逸仙华庭","lon":"121.48258","lat":"31.315216","category":"47","category_name":"住宅区","address":"上海逸仙路1238弄"},{"poiid":"B2094757D06BA4FD4398","title":"拓思车间","lon":"121.4855301","lat":"31.327003605","category":"263","category_name":"公司","address":"宝山区逸仙路1780号(殷高西路与长江南路中间左转车道对面)"},{"poiid":"B2094757D068ABFB4992","title":"嘉骏花苑","lon":"121.47465","lat":"31.328863","category":"47","category_name":"住宅区","address":"上海宝山区新二路1088弄"},{"poiid":"B2094757D064A5F84998","title":"雪佛兰4S店","lon":"121.487406103","lat":"31.3227235161","category":"500","category_name":"未知分类","address":"上海市高逸路99号"},{"poiid":"B2094655D26AA0F9429E","title":"地铁殷高西路站","lon":"121.48532","lat":"31.32027","category":"36","category_name":"地铁站","address":""},{"poiid":"B2094655D26CA7FF439F","title":"尚景天地","lon":"121.481","lat":"31.3266","category":"46","category_name":"楼宇","address":"松江区工业区鼎源路广富林路路口"},{"poiid":"B2094757D065A7F44092","title":"馨良苑","lon":"121.4754","lat":"31.32555","category":"252","category_name":"楼宇机构","address":"上海市宝山区新二路183弄"},{"poiid":"B2094757D66AA4F5419C","title":"荣城大酒家","lon":"121.47506","lat":"31.32956","category":"76","category_name":"上海菜","address":"宝山区新二路777号(近殷高西路)"},{"poiid":"B2094757D068AAF44093","title":"高境镇人民政府","lon":"121.48249816","lat":"31.320768356","category":"500","category_name":"未知分类","address":"上海宝山区殷高西路111"},{"poiid":"B2094757D06BA6FE4298","title":"高境庙","lon":"121.4852581","lat":"31.319954458","category":"244","category_name":"寺庙道观","address":"上海宝山区殷高西路"},{"poiid":"B2094655D26FA1FB4199","title":"高境一村(二号门)","lon":"121.47827","lat":"31.32063","category":"47","category_name":"住宅区","address":""},{"poiid":"B2094654D465AAFA499F","title":"殷高小区","lon":"121.49012","lat":"31.322084","category":"47","category_name":"住宅区","address":"殷高路21弄20幢"},{"poiid":"B2094655D36DA0FA499C","title":"殷高西路高境新村","lon":"121.47766","lat":"31.3209","category":"38","category_name":"公交车站","address":""},{"poiid":"B2094753D66CA4F5439B","title":"上海法莱德大酒店","lon":"121.483796238899","lat":"31.3236353548847","category":"214","category_name":"四星级宾馆","address":"逸仙路1600弄61号"},{"poiid":"B2094655D264A0F8429E","title":"杰圣家苑","lon":"121.4831","lat":"31.320992","category":"47","category_name":"住宅区","address":"上海市宝山区殷高西路331弄"},{"poiid":"B2094757D069A6F8449A","title":"聚仙阁大酒店","lon":"121.48698","lat":"31.32328","category":"76","category_name":"上海菜","address":"宝山区高逸路118号(近殷高西路)"},{"poiid":"B209475CD369A3F9429B","title":"法莱德大酒店粤玲珑中餐厅","lon":"121.4842414856","lat":"31.32297546907","category":"72","category_name":"广东菜","address":"逸仙路1600弄61号2楼近求新路"},{"poiid":"B2094654D465AAFB429B","title":"高境欣苑","lon":"121.4865","lat":"31.318892","category":"47","category_name":"住宅区","address":"上海市宝山区逸仙路1511号"},{"poiid":"B2094655D36DA6FF409E","title":"殷高西路","lon":"121.48532","lat":"31.32027","category":"38","category_name":"公交车站","address":""},{"poiid":"B2094757D469A7FF4699","title":"味记龙虾","lon":"121.483425","lat":"31.320743","category":"269","category_name":"烧烤","address":"宝山区殷高西路626号104室(高跃路殷高西路)"},{"poiid":"B2094654D56EA0FE4792","title":"重庆鸡公煲(殷高西路)","lon":"121.47906","lat":"31.321","category":"71","category_name":"四川菜","address":"宝山区高镜殷高西路588号113室(近江扬南路)"},{"poiid":"B2094757D169AAFE409B","title":"长安铃木4s店","lon":"121.4860411","lat":"31.324957562","category":"500","category_name":"未知分类","address":"上海逸仙路1150号"},{"poiid":"B2094757D16CABFE4499","title":"上海欢乐谷激流勇进","lon":"121.4842384","lat":"31.320573471","category":"195","category_name":"游乐场","address":"上海松江区佘山镇林湖路888号"},{"poiid":"B2094655D36DA0FA489A","title":"逸仙路殷高西路","lon":"121.48523","lat":"31.32019","category":"38","category_name":"公交车站","address":""},{"poiid":"B2094757D06BA3F44393","title":"北京现代逸仙店","lon":"121.486422","lat":"31.326165","category":"500","category_name":"未知分类","address":"上海逸仙路1680号"},{"poiid":"B2094757D66CA5F44092","title":"逸仙大眾4S","lon":"121.487325103","lat":"31.3223565084","category":"500","category_name":"未知分类","address":"上海高逸路67號"},{"poiid":"B2094654D465AAFD4698","title":"徐悲鸿艺术幼儿园(高境一村)","lon":"121.47905","lat":"31.31772","category":"57","category_name":"幼儿园","address":"宝山区高境一村112号"},{"poiid":"B2094757D069A0FD479D","title":"常州恐龙园","lon":"121.48805","lat":"31.323561","category":"196","category_name":"公园","address":"常州新北区环球恐龙城汉江路1号"},{"poiid":"B2094757D165ABFD499B","title":"宝山公安分局交警支队","lon":"121.48368188","lat":"31.323623901","category":"500","category_name":"未知分类","address":"上海湄浦路331号"},{"poiid":"B2094757D06AABFF479A","title":"苏州同里古镇","lon":"121.48234724","lat":"31.325628482","category":"500","category_name":"未知分类","address":"上海鱼行街115"},{"poiid":"B2094654D56EA0FE4492","title":"上海华军电力安装工程有限公司","lon":"121.48371","lat":"31.32405","category":"263","category_name":"公司","address":""},{"poiid":"B2094753D264A3FF4493","title":"东方明珠","lon":"121.482613","lat":"31.328026","category":"500","category_name":"未知分类","address":"上海市 陆家嘴"},{"poiid":"B2094654DB69A4FC409E","title":"好百年家居(高境店)","lon":"121.48144","lat":"31.3203","category":"123","category_name":"家具建材市场","address":"宝山区高境镇殷高西路与江杨南路交汇处"},{"poiid":"B2094757D064A5F8479C","title":"912路终点站","lon":"121.480781103","lat":"31.3206084718","category":"500","category_name":"未知分类","address":"上海殷高西路新二路"},{"poiid":"B2094757D66FA2FA439A","title":"YOBA酸奶冰淇淋","lon":"121.484245103","lat":"31.3203014654","category":"247","category_name":"餐饮美食","address":"上海来福士"},{"poiid":"B2094655D26EA1FC439E","title":"上海大众汽车逸仙销售服务有限公司","lon":"121.48712","lat":"31.32225","category":"158","category_name":"汽车销售","address":"宝山区高逸路67号(近殷高西路)"},{"poiid":"B2094757D169A6F8489E","title":"食汇捞 时尚特色火锅","lon":"121.4845681","lat":"31.327827622","category":"247","category_name":"餐饮美食","address":"上海长江南路719号 近淞发路"},{"poiid":"B2094655D36DA0FA469C","title":"逸仙路安汾路","lon":"121.48516","lat":"31.31529","category":"38","category_name":"公交车站","address":"上海市宝山区安汾路"},{"poiid":"B2094654D56EA0FC419E","title":"快客(粤雅美容美发有限公司东)","lon":"121.48121","lat":"31.32089","category":"117","category_name":"便民商店/便利店","address":""},{"poiid":"B2094655D26AA4F54999","title":"国祥通用别克汽车售后服务","lon":"121.48738","lat":"31.32252","category":"247","category_name":"餐饮美食","address":"宝山区高逸路99号(近殷高西路)"},{"poiid":"B2094757D16AA7F8489D","title":"Rickey.C秘密基地","lon":"121.479493103","lat":"31.3232105263","category":"500","category_name":"未知分类","address":null},{"poiid":"B2094655D26FA6FE419B","title":"上海市宝山区高境镇第二小学","lon":"121.48168","lat":"31.32038","category":"56","category_name":"小学","address":"宝山区高境一村82号"},{"poiid":"B2094757D06EAAFF4392","title":"殷高西路地铁站","lon":"121.485236","lat":"31.320193","category":"36","category_name":"地铁站","address":"上海轨道交通 三号线 轨交殷高西路站 轻轨 3"},{"poiid":"B2094757D06FA1FD459F","title":"四季绿城","lon":"121.47614294","lat":"31.330535534","category":"47","category_name":"住宅区","address":"上海市宝山区新二路999号"},{"poiid":"B2094757D068A3FC4093","title":"逸仙路高架","lon":"121.48360317","lat":"31.318403135","category":"500","category_name":"未知分类","address":"上海殷高西路"},{"poiid":"B2094757D068A2F9429C","title":"三花现代城","lon":"121.481926","lat":"31.322185","category":"47","category_name":"住宅区","address":"上海市宝山区云西路168弄"},{"poiid":"B2094757D068A6FE429B","title":"交大附中","lon":"121.49007","lat":"31.3194","category":"55","category_name":"中学","address":"宝山区殷高路42号(吉浦路殷高路)"},{"poiid":"B2094757D06FA5FB4999","title":"美岸栖庭(二期)","lon":"121.49002456","lat":"31.326800622","category":"47","category_name":"住宅区","address":"上海市宝山区国权北路828弄"},{"poiid":"B2094757D06FA2FC459B","title":"高境一村","lon":"121.48119","lat":"31.318478","category":"500","category_name":"未知分类","address":"上海市殷高西路高境一村"},{"poiid":"B2094757D06FA0F94693","title":"高境二村","lon":"121.47961","lat":"31.320936","category":"252","category_name":"楼宇机构","address":"上海市宝山区殷高西路"},{"poiid":"B2094757D06FA7F9409E","title":"逸仙华庭","lon":"121.48258","lat":"31.315216","category":"47","category_name":"住宅区","address":"上海逸仙路1238弄"},{"poiid":"B2094757D06BA4FD4398","title":"拓思车间","lon":"121.4855301","lat":"31.327003605","category":"263","category_name":"公司","address":"宝山区逸仙路1780号(殷高西路与长江南路中间左转车道对面)"},{"poiid":"B2094757D068ABFB4992","title":"嘉骏花苑","lon":"121.47465","lat":"31.328863","category":"47","category_name":"住宅区","address":"上海宝山区新二路1088弄"},{"poiid":"B2094757D064A5F84998","title":"雪佛兰4S店","lon":"121.487406103","lat":"31.3227235161","category":"500","category_name":"未知分类","address":"上海市高逸路99号"},{"poiid":"B2094655D26AA0F9429E","title":"地铁殷高西路站","lon":"121.48532","lat":"31.32027","category":"36","category_name":"地铁站","address":""},{"poiid":"B2094655D26CA7FF439F","title":"尚景天地","lon":"121.481","lat":"31.3266","category":"46","category_name":"楼宇","address":"松江区工业区鼎源路广富林路路口"},{"poiid":"B2094757D065A7F44092","title":"馨良苑","lon":"121.4754","lat":"31.32555","category":"252","category_name":"楼宇机构","address":"上海市宝山区新二路183弄"},{"poiid":"B2094757D66AA4F5419C","title":"荣城大酒家","lon":"121.47506","lat":"31.32956","category":"76","category_name":"上海菜","address":"宝山区新二路777号(近殷高西路)"},{"poiid":"B2094757D068AAF44093","title":"高境镇人民政府","lon":"121.48249816","lat":"31.320768356","category":"500","category_name":"未知分类","address":"上海宝山区殷高西路111"},{"poiid":"B2094757D06BA6FE4298","title":"高境庙","lon":"121.4852581","lat":"31.319954458","category":"244","category_name":"寺庙道观","address":"上海宝山区殷高西路"},{"poiid":"B2094655D26FA1FB4199","title":"高境一村(二号门)","lon":"121.47827","lat":"31.32063","category":"47","category_name":"住宅区","address":""},{"poiid":"B2094654D465AAFA499F","title":"殷高小区","lon":"121.49012","lat":"31.322084","category":"47","category_name":"住宅区","address":"殷高路21弄20幢"},{"poiid":"B2094655D36DA0FA499C","title":"殷高西路高境新村","lon":"121.47766","lat":"31.3209","category":"38","category_name":"公交车站","address":""},{"poiid":"B2094753D66CA4F5439B","title":"上海法莱德大酒店","lon":"121.483796238899","lat":"31.3236353548847","category":"214","category_name":"四星级宾馆","address":"逸仙路1600弄61号"},{"poiid":"B2094655D264A0F8429E","title":"杰圣家苑","lon":"121.4831","lat":"31.320992","category":"47","category_name":"住宅区","address":"上海市宝山区殷高西路331弄"},{"poiid":"B2094757D069A6F8449A","title":"聚仙阁大酒店","lon":"121.48698","lat":"31.32328","category":"76","category_name":"上海菜","address":"宝山区高逸路118号(近殷高西路)"},{"poiid":"B209475CD369A3F9429B","title":"法莱德大酒店粤玲珑中餐厅","lon":"121.4842414856","lat":"31.32297546907","category":"72","category_name":"广东菜","address":"逸仙路1600弄61号2楼近求新路"},{"poiid":"B2094654D465AAFB429B","title":"高境欣苑","lon":"121.4865","lat":"31.318892","category":"47","category_name":"住宅区","address":"上海市宝山区逸仙路1511号"},{"poiid":"B2094655D36DA6FF409E","title":"殷高西路","lon":"121.48532","lat":"31.32027","category":"38","category_name":"公交车站","address":""},{"poiid":"B2094757D469A7FF4699","title":"味记龙虾","lon":"121.483425","lat":"31.320743","category":"269","category_name":"烧烤","address":"宝山区殷高西路626号104室(高跃路殷高西路)"},{"poiid":"B2094654D56EA0FE4792","title":"重庆鸡公煲(殷高西路)","lon":"121.47906","lat":"31.321","category":"71","category_name":"四川菜","address":"宝山区高镜殷高西路588号113室(近江扬南路)"},{"poiid":"B2094757D169AAFE409B","title":"长安铃木4s店","lon":"121.4860411","lat":"31.324957562","category":"500","category_name":"未知分类","address":"上海逸仙路1150号"},{"poiid":"B2094757D16CABFE4499","title":"上海欢乐谷激流勇进","lon":"121.4842384","lat":"31.320573471","category":"195","category_name":"游乐场","address":"上海松江区佘山镇林湖路888号"},{"poiid":"B2094655D36DA0FA489A","title":"逸仙路殷高西路","lon":"121.48523","lat":"31.32019","category":"38","category_name":"公交车站","address":""},{"poiid":"B2094757D06BA3F44393","title":"北京现代逸仙店","lon":"121.486422","lat":"31.326165","category":"500","category_name":"未知分类","address":"上海逸仙路1680号"},{"poiid":"B2094757D66CA5F44092","title":"逸仙大眾4S","lon":"121.487325103","lat":"31.3223565084","category":"500","category_name":"未知分类","address":"上海高逸路67號"},{"poiid":"B2094654D465AAFD4698","title":"徐悲鸿艺术幼儿园(高境一村)","lon":"121.47905","lat":"31.31772","category":"57","category_name":"幼儿园","address":"宝山区高境一村112号"},{"poiid":"B2094757D069A0FD479D","title":"常州恐龙园","lon":"121.48805","lat":"31.323561","category":"196","category_name":"公园","address":"常州新北区环球恐龙城汉江路1号"},{"poiid":"B2094757D165ABFD499B","title":"宝山公安分局交警支队","lon":"121.48368188","lat":"31.323623901","category":"500","category_name":"未知分类","address":"上海湄浦路331号"},{"poiid":"B2094757D06AABFF479A","title":"苏州同里古镇","lon":"121.48234724","lat":"31.325628482","category":"500","category_name":"未知分类","address":"上海鱼行街115"},{"poiid":"B2094654D56EA0FE4492","title":"上海华军电力安装工程有限公司","lon":"121.48371","lat":"31.32405","category":"263","category_name":"公司","address":""},{"poiid":"B2094753D264A3FF4493","title":"东方明珠","lon":"121.482613","lat":"31.328026","category":"500","category_name":"未知分类","address":"上海市 陆家嘴"},{"poiid":"B2094654DB69A4FC409E","title":"好百年家居(高境店)","lon":"121.48144","lat":"31.3203","category":"123","category_name":"家具建材市场","address":"宝山区高境镇殷高西路与江杨南路交汇处"},{"poiid":"B2094757D064A5F8479C","title":"912路终点站","lon":"121.480781103","lat":"31.3206084718","category":"500","category_name":"未知分类","address":"上海殷高西路新二路"},{"poiid":"B2094757D66FA2FA439A","title":"YOBA酸奶冰淇淋","lon":"121.484245103","lat":"31.3203014654","category":"247","category_name":"餐饮美食","address":"上海来福士"},{"poiid":"B2094655D26EA1FC439E","title":"上海大众汽车逸仙销售服务有限公司","lon":"121.48712","lat":"31.32225","category":"158","category_name":"汽车销售","address":"宝山区高逸路67号(近殷高西路)"},{"poiid":"B2094757D169A6F8489E","title":"食汇捞 时尚特色火锅","lon":"121.4845681","lat":"31.327827622","category":"247","category_name":"餐饮美食","address":"上海长江南路719号 近淞发路"},{"poiid":"B2094655D36DA0FA469C","title":"逸仙路安汾路","lon":"121.48516","lat":"31.31529","category":"38","category_name":"公交车站","address":"上海市宝山区安汾路"},{"poiid":"B2094654D56EA0FC419E","title":"快客(粤雅美容美发有限公司东)","lon":"121.48121","lat":"31.32089","category":"117","category_name":"便民商店/便利店","address":""},{"poiid":"B2094655D26AA4F54999","title":"国祥通用别克汽车售后服务","lon":"121.48738","lat":"31.32252","category":"247","category_name":"餐饮美食","address":"宝山区高逸路99号(近殷高西路)"},{"poiid":"B2094757D16AA7F8489D","title":"Rickey.C秘密基地","lon":"121.479493103","lat":"31.3232105263","category":"500","category_name":"未知分类","address":null},{"poiid":"B2094655D26FA6FE419B","title":"上海市宝山区高境镇第二小学","lon":"121.48168","lat":"31.32038","category":"56","category_name":"小学","address":"宝山区高境一村82号"},{"poiid":"B2094757D06EAAFF4392","title":"殷高西路地铁站","lon":"121.485236","lat":"31.320193","category":"36","category_name":"地铁站","address":"上海轨道交通 三号线 轨交殷高西路站 轻轨 3"},{"poiid":"B2094757D06FA1FD459F","title":"四季绿城","lon":"121.47614294","lat":"31.330535534","category":"47","category_name":"住宅区","address":"上海市宝山区新二路999号"},{"poiid":"B2094757D068A3FC4093","title":"逸仙路高架","lon":"121.48360317","lat":"31.318403135","category":"500","category_name":"未知分类","address":"上海殷高西路"},{"poiid":"B2094757D068A2F9429C","title":"三花现代城","lon":"121.481926","lat":"31.322185","category":"47","category_name":"住宅区","address":"上海市宝山区云西路168弄"},{"poiid":"B2094757D068A6FE429B","title":"交大附中","lon":"121.49007","lat":"31.3194","category":"55","category_name":"中学","address":"宝山区殷高路42号(吉浦路殷高路)"},{"poiid":"B2094757D06FA5FB4999","title":"美岸栖庭(二期)","lon":"121.49002456","lat":"31.326800622","category":"47","category_name":"住宅区","address":"上海市宝山区国权北路828弄"},{"poiid":"B2094757D06FA2FC459B","title":"高境一村","lon":"121.48119","lat":"31.318478","category":"500","category_name":"未知分类","address":"上海市殷高西路高境一村"},{"poiid":"B2094757D06FA0F94693","title":"高境二村","lon":"121.47961","lat":"31.320936","category":"252","category_name":"楼宇机构","address":"上海市宝山区殷高西路"},{"poiid":"B2094757D06FA7F9409E","title":"逸仙华庭","lon":"121.48258","lat":"31.315216","category":"47","category_name":"住宅区","address":"上海逸仙路1238弄"},{"poiid":"B2094757D06BA4FD4398","title":"拓思车间","lon":"121.4855301","lat":"31.327003605","category":"263","category_name":"公司","address":"宝山区逸仙路1780号(殷高西路与长江南路中间左转车道对面)"},{"poiid":"B2094757D068ABFB4992","title":"嘉骏花苑","lon":"121.47465","lat":"31.328863","category":"47","category_name":"住宅区","address":"上海宝山区新二路1088弄"},{"poiid":"B2094757D064A5F84998","title":"雪佛兰4S店","lon":"121.487406103","lat":"31.3227235161","category":"500","category_name":"未知分类","address":"上海市高逸路99号"},{"poiid":"B2094655D26AA0F9429E","title":"地铁殷高西路站","lon":"121.48532","lat":"31.32027","category":"36","category_name":"地铁站","address":""},{"poiid":"B2094655D26CA7FF439F","title":"尚景天地","lon":"121.481","lat":"31.3266","category":"46","category_name":"楼宇","address":"松江区工业区鼎源路广富林路路口"},{"poiid":"B2094757D065A7F44092","title":"馨良苑","lon":"121.4754","lat":"31.32555","category":"252","category_name":"楼宇机构","address":"上海市宝山区新二路183弄"},{"poiid":"B2094757D66AA4F5419C","title":"荣城大酒家","lon":"121.47506","lat":"31.32956","category":"76","category_name":"上海菜","address":"宝山区新二路777号(近殷高西路)"},{"poiid":"B2094757D068AAF44093","title":"高境镇人民政府","lon":"121.48249816","lat":"31.320768356","category":"500","category_name":"未知分类","address":"上海宝山区殷高西路111"},{"poiid":"B2094757D06BA6FE4298","title":"高境庙","lon":"121.4852581","lat":"31.319954458","category":"244","category_name":"寺庙道观","address":"上海宝山区殷高西路"},{"poiid":"B2094655D26FA1FB4199","title":"高境一村(二号门)","lon":"121.47827","lat":"31.32063","category":"47","category_name":"住宅区","address":""},{"poiid":"B2094654D465AAFA499F","title":"殷高小区","lon":"121.49012","lat":"31.322084","category":"47","category_name":"住宅区","address":"殷高路21弄20幢"},{"poiid":"B2094655D36DA0FA499C","title":"殷高西路高境新村","lon":"121.47766","lat":"31.3209","category":"38","category_name":"公交车站","address":""},{"poiid":"B2094753D66CA4F5439B","title":"上海法莱德大酒店","lon":"121.483796238899","lat":"31.3236353548847","category":"214","category_name":"四星级宾馆","address":"逸仙路1600弄61号"},{"poiid":"B2094655D264A0F8429E","title":"杰圣家苑","lon":"121.4831","lat":"31.320992","category":"47","category_name":"住宅区","address":"上海市宝山区殷高西路331弄"},{"poiid":"B2094757D069A6F8449A","title":"聚仙阁大酒店","lon":"121.48698","lat":"31.32328","category":"76","category_name":"上海菜","address":"宝山区高逸路118号(近殷高西路)"},{"poiid":"B209475CD369A3F9429B","title":"法莱德大酒店粤玲珑中餐厅","lon":"121.4842414856","lat":"31.32297546907","category":"72","category_name":"广东菜","address":"逸仙路1600弄61号2楼近求新路"},{"poiid":"B2094654D465AAFB429B","title":"高境欣苑","lon":"121.4865","lat":"31.318892","category":"47","category_name":"住宅区","address":"上海市宝山区逸仙路1511号"},{"poiid":"B2094655D36DA6FF409E","title":"殷高西路","lon":"121.48532","lat":"31.32027","category":"38","category_name":"公交车站","address":""},{"poiid":"B2094757D469A7FF4699","title":"味记龙虾","lon":"121.483425","lat":"31.320743","category":"269","category_name":"烧烤","address":"宝山区殷高西路626号104室(高跃路殷高西路)"},{"poiid":"B2094654D56EA0FE4792","title":"重庆鸡公煲(殷高西路)","lon":"121.47906","lat":"31.321","category":"71","category_name":"四川菜","address":"宝山区高镜殷高西路588号113室(近江扬南路)"},{"poiid":"B2094757D169AAFE409B","title":"长安铃木4s店","lon":"121.4860411","lat":"31.324957562","category":"500","category_name":"未知分类","address":"上海逸仙路1150号"},{"poiid":"B2094757D16CABFE4499","title":"上海欢乐谷激流勇进","lon":"121.4842384","lat":"31.320573471","category":"195","category_name":"游乐场","address":"上海松江区佘山镇林湖路888号"},{"poiid":"B2094655D36DA0FA489A","title":"逸仙路殷高西路","lon":"121.48523","lat":"31.32019","category":"38","category_name":"公交车站","address":""},{"poiid":"B2094757D06BA3F44393","title":"北京现代逸仙店","lon":"121.486422","lat":"31.326165","category":"500","category_name":"未知分类","address":"上海逸仙路1680号"},{"poiid":"B2094757D66CA5F44092","title":"逸仙大眾4S","lon":"121.487325103","lat":"31.3223565084","category":"500","category_name":"未知分类","address":"上海高逸路67號"},{"poiid":"B2094654D465AAFD4698","title":"徐悲鸿艺术幼儿园(高境一村)","lon":"121.47905","lat":"31.31772","category":"57","category_name":"幼儿园","address":"宝山区高境一村112号"},{"poiid":"B2094757D069A0FD479D","title":"常州恐龙园","lon":"121.48805","lat":"31.323561","category":"196","category_name":"公园","address":"常州新北区环球恐龙城汉江路1号"},{"poiid":"B2094757D165ABFD499B","title":"宝山公安分局交警支队","lon":"121.48368188","lat":"31.323623901","category":"500","category_name":"未知分类","address":"上海湄浦路331号"},{"poiid":"B2094757D06AABFF479A","title":"苏州同里古镇","lon":"121.48234724","lat":"31.325628482","category":"500","category_name":"未知分类","address":"上海鱼行街115"},{"poiid":"B2094654D56EA0FE4492","title":"上海华军电力安装工程有限公司","lon":"121.48371","lat":"31.32405","category":"263","category_name":"公司","address":""},{"poiid":"B2094753D264A3FF4493","title":"东方明珠","lon":"121.482613","lat":"31.328026","category":"500","category_name":"未知分类","address":"上海市 陆家嘴"},{"poiid":"B2094654DB69A4FC409E","title":"好百年家居(高境店)","lon":"121.48144","lat":"31.3203","category":"123","category_name":"家具建材市场","address":"宝山区高境镇殷高西路与江杨南路交汇处"},{"poiid":"B2094757D064A5F8479C","title":"912路终点站","lon":"121.480781103","lat":"31.3206084718","category":"500","category_name":"未知分类","address":"上海殷高西路新二路"},{"poiid":"B2094757D66FA2FA439A","title":"YOBA酸奶冰淇淋","lon":"121.484245103","lat":"31.3203014654","category":"247","category_name":"餐饮美食","address":"上海来福士"},{"poiid":"B2094655D26EA1FC439E","title":"上海大众汽车逸仙销售服务有限公司","lon":"121.48712","lat":"31.32225","category":"158","category_name":"汽车销售","address":"宝山区高逸路67号(近殷高西路)"},{"poiid":"B2094757D169A6F8489E","title":"食汇捞 时尚特色火锅","lon":"121.4845681","lat":"31.327827622","category":"247","category_name":"餐饮美食","address":"上海长江南路719号 近淞发路"},{"poiid":"B2094655D36DA0FA469C","title":"逸仙路安汾路","lon":"121.48516","lat":"31.31529","category":"38","category_name":"公交车站","address":"上海市宝山区安汾路"},{"poiid":"B2094654D56EA0FC419E","title":"快客(粤雅美容美发有限公司东)","lon":"121.48121","lat":"31.32089","category":"117","category_name":"便民商店/便利店","address":""},{"poiid":"B2094655D26AA4F54999","title":"国祥通用别克汽车售后服务","lon":"121.48738","lat":"31.32252","category":"247","category_name":"餐饮美食","address":"宝山区高逸路99号(近殷高西路)"},{"poiid":"B2094757D16AA7F8489D","title":"Rickey.C秘密基地","lon":"121.479493103","lat":"31.3232105263","category":"500","category_name":"未知分类","address":null},{"poiid":"B2094655D26FA6FE419B","title":"上海市宝山区高境镇第二小学","lon":"121.48168","lat":"31.32038","category":"56","category_name":"小学","address":"宝山区高境一村82号"},{"poiid":"B2094757D06EAAFF4392","title":"殷高西路地铁站","lon":"121.485236","lat":"31.320193","category":"36","category_name":"地铁站","address":"上海轨道交通 三号线 轨交殷高西路站 轻轨 3"},{"poiid":"B2094757D06FA1FD459F","title":"四季绿城","lon":"121.47614294","lat":"31.330535534","category":"47","category_name":"住宅区","address":"上海市宝山区新二路999号"},{"poiid":"B2094757D068A3FC4093","title":"逸仙路高架","lon":"121.48360317","lat":"31.318403135","category":"500","category_name":"未知分类","address":"上海殷高西路"},{"poiid":"B2094757D068A2F9429C","title":"三花现代城","lon":"121.481926","lat":"31.322185","category":"47","category_name":"住宅区","address":"上海市宝山区云西路168弄"},{"poiid":"B2094757D068A6FE429B","title":"交大附中","lon":"121.49007","lat":"31.3194","category":"55","category_name":"中学","address":"宝山区殷高路42号(吉浦路殷高路)"},{"poiid":"B2094757D06FA5FB4999","title":"美岸栖庭(二期)","lon":"121.49002456","lat":"31.326800622","category":"47","category_name":"住宅区","address":"上海市宝山区国权北路828弄"},{"poiid":"B2094757D06FA2FC459B","title":"高境一村","lon":"121.48119","lat":"31.318478","category":"500","category_name":"未知分类","address":"上海市殷高西路高境一村"},{"poiid":"B2094757D06FA0F94693","title":"高境二村","lon":"121.47961","lat":"31.320936","category":"252","category_name":"楼宇机构","address":"上海市宝山区殷高西路"},{"poiid":"B2094757D06FA7F9409E","title":"逸仙华庭","lon":"121.48258","lat":"31.315216","category":"47","category_name":"住宅区","address":"上海逸仙路1238弄"},{"poiid":"B2094757D06BA4FD4398","title":"拓思车间","lon":"121.4855301","lat":"31.327003605","category":"263","category_name":"公司","address":"宝山区逸仙路1780号(殷高西路与长江南路中间左转车道对面)"},{"poiid":"B2094757D068ABFB4992","title":"嘉骏花苑","lon":"121.47465","lat":"31.328863","category":"47","category_name":"住宅区","address":"上海宝山区新二路1088弄"},{"poiid":"B2094757D064A5F84998","title":"雪佛兰4S店","lon":"121.487406103","lat":"31.3227235161","category":"500","category_name":"未知分类","address":"上海市高逸路99号"},{"poiid":"B2094655D26AA0F9429E","title":"地铁殷高西路站","lon":"121.48532","lat":"31.32027","category":"36","category_name":"地铁站","address":""},{"poiid":"B2094655D26CA7FF439F","title":"尚景天地","lon":"121.481","lat":"31.3266","category":"46","category_name":"楼宇","address":"松江区工业区鼎源路广富林路路口"},{"poiid":"B2094757D065A7F44092","title":"馨良苑","lon":"121.4754","lat":"31.32555","category":"252","category_name":"楼宇机构","address":"上海市宝山区新二路183弄"},{"poiid":"B2094757D66AA4F5419C","title":"荣城大酒家","lon":"121.47506","lat":"31.32956","category":"76","category_name":"上海菜","address":"宝山区新二路777号(近殷高西路)"},{"poiid":"B2094757D068AAF44093","title":"高境镇人民政府","lon":"121.48249816","lat":"31.320768356","category":"500","category_name":"未知分类","address":"上海宝山区殷高西路111"},{"poiid":"B2094757D06BA6FE4298","title":"高境庙","lon":"121.4852581","lat":"31.319954458","category":"244","category_name":"寺庙道观","address":"上海宝山区殷高西路"},{"poiid":"B2094655D26FA1FB4199","title":"高境一村(二号门)","lon":"121.47827","lat":"31.32063","category":"47","category_name":"住宅区","address":""},{"poiid":"B2094654D465AAFA499F","title":"殷高小区","lon":"121.49012","lat":"31.322084","category":"47","category_name":"住宅区","address":"殷高路21弄20幢"},{"poiid":"B2094655D36DA0FA499C","title":"殷高西路高境新村","lon":"121.47766","lat":"31.3209","category":"38","category_name":"公交车站","address":""},{"poiid":"B2094753D66CA4F5439B","title":"上海法莱德大酒店","lon":"121.483796238899","lat":"31.3236353548847","category":"214","category_name":"四星级宾馆","address":"逸仙路1600弄61号"},{"poiid":"B2094655D264A0F8429E","title":"杰圣家苑","lon":"121.4831","lat":"31.320992","category":"47","category_name":"住宅区","address":"上海市宝山区殷高西路331弄"},{"poiid":"B2094757D069A6F8449A","title":"聚仙阁大酒店","lon":"121.48698","lat":"31.32328","category":"76","category_name":"上海菜","address":"宝山区高逸路118号(近殷高西路)"},{"poiid":"B209475CD369A3F9429B","title":"法莱德大酒店粤玲珑中餐厅","lon":"121.4842414856","lat":"31.32297546907","category":"72","category_name":"广东菜","address":"逸仙路1600弄61号2楼近求新路"},{"poiid":"B2094654D465AAFB429B","title":"高境欣苑","lon":"121.4865","lat":"31.318892","category":"47","category_name":"住宅区","address":"上海市宝山区逸仙路1511号"},{"poiid":"B2094655D36DA6FF409E","title":"殷高西路","lon":"121.48532","lat":"31.32027","category":"38","category_name":"公交车站","address":""},{"poiid":"B2094757D469A7FF4699","title":"味记龙虾","lon":"121.483425","lat":"31.320743","category":"269","category_name":"烧烤","address":"宝山区殷高西路626号104室(高跃路殷高西路)"},{"poiid":"B2094654D56EA0FE4792","title":"重庆鸡公煲(殷高西路)","lon":"121.47906","lat":"31.321","category":"71","category_name":"四川菜","address":"宝山区高镜殷高西路588号113室(近江扬南路)"},{"poiid":"B2094757D169AAFE409B","title":"长安铃木4s店","lon":"121.4860411","lat":"31.324957562","category":"500","category_name":"未知分类","address":"上海逸仙路1150号"},{"poiid":"B2094757D16CABFE4499","title":"上海欢乐谷激流勇进","lon":"121.4842384","lat":"31.320573471","category":"195","category_name":"游乐场","address":"上海松江区佘山镇林湖路888号"},{"poiid":"B2094655D36DA0FA489A","title":"逸仙路殷高西路","lon":"121.48523","lat":"31.32019","category":"38","category_name":"公交车站","address":""},{"poiid":"B2094757D06BA3F44393","title":"北京现代逸仙店","lon":"121.486422","lat":"31.326165","category":"500","category_name":"未知分类","address":"上海逸仙路1680号"},{"poiid":"B2094757D66CA5F44092","title":"逸仙大眾4S","lon":"121.487325103","lat":"31.3223565084","category":"500","category_name":"未知分类","address":"上海高逸路67號"},{"poiid":"B2094654D465AAFD4698","title":"徐悲鸿艺术幼儿园(高境一村)","lon":"121.47905","lat":"31.31772","category":"57","category_name":"幼儿园","address":"宝山区高境一村112号"},{"poiid":"B2094757D069A0FD479D","title":"常州恐龙园","lon":"121.48805","lat":"31.323561","category":"196","category_name":"公园","address":"常州新北区环球恐龙城汉江路1号"},{"poiid":"B2094757D165ABFD499B","title":"宝山公安分局交警支队","lon":"121.48368188","lat":"31.323623901","category":"500","category_name":"未知分类","address":"上海湄浦路331号"},{"poiid":"B2094757D06AABFF479A","title":"苏州同里古镇","lon":"121.48234724","lat":"31.325628482","category":"500","category_name":"未知分类","address":"上海鱼行街115"},{"poiid":"B2094654D56EA0FE4492","title":"上海华军电力安装工程有限公司","lon":"121.48371","lat":"31.32405","category":"263","category_name":"公司","address":""},{"poiid":"B2094753D264A3FF4493","title":"东方明珠","lon":"121.482613","lat":"31.328026","category":"500","category_name":"未知分类","address":"上海市 陆家嘴"},{"poiid":"B2094654DB69A4FC409E","title":"好百年家居(高境店)","lon":"121.48144","lat":"31.3203","category":"123","category_name":"家具建材市场","address":"宝山区高境镇殷高西路与江杨南路交汇处"},{"poiid":"B2094757D064A5F8479C","title":"912路终点站","lon":"121.480781103","lat":"31.3206084718","category":"500","category_name":"未知分类","address":"上海殷高西路新二路"},{"poiid":"B2094757D66FA2FA439A","title":"YOBA酸奶冰淇淋","lon":"121.484245103","lat":"31.3203014654","category":"247","category_name":"餐饮美食","address":"上海来福士"},{"poiid":"B2094655D26EA1FC439E","title":"上海大众汽车逸仙销售服务有限公司","lon":"121.48712","lat":"31.32225","category":"158","category_name":"汽车销售","address":"宝山区高逸路67号(近殷高西路)"},{"poiid":"B2094757D169A6F8489E","title":"食汇捞 时尚特色火锅","lon":"121.4845681","lat":"31.327827622","category":"247","category_name":"餐饮美食","address":"上海长江南路719号 近淞发路"},{"poiid":"B2094655D36DA0FA469C","title":"逸仙路安汾路","lon":"121.48516","lat":"31.31529","category":"38","category_name":"公交车站","address":"上海市宝山区安汾路"},{"poiid":"B2094654D56EA0FC419E","title":"快客(粤雅美容美发有限公司东)","lon":"121.48121","lat":"31.32089","category":"117","category_name":"便民商店/便利店","address":""},{"poiid":"B2094655D26AA4F54999","title":"国祥通用别克汽车售后服务","lon":"121.48738","lat":"31.32252","category":"247","category_name":"餐饮美食","address":"宝山区高逸路99号(近殷高西路)"},{"poiid":"B2094757D16AA7F8489D","title":"Rickey.C秘密基地","lon":"121.479493103","lat":"31.3232105263","category":"500","category_name":"未知分类","address":null},{"poiid":"B2094655D26FA6FE419B","title":"上海市宝山区高境镇第二小学","lon":"121.48168","lat":"31.32038","category":"56","category_name":"小学","address":"宝山区高境一村82号"}]