[{"poiid":"B2094655D26CA4FB4499","title":"上海滩国际大厦","lon":"121.499","lat":"31.2502","category":"46","category_name":"楼宇","address":"丰台学城海鹰路1号,3号"},{"poiid":"B2094757D06FA5FE4793","title":"周家嘴路新建路","lon":"121.496022","lat":"31.255533","category":"260","category_name":"其他","address":"上海周家嘴路新建路,海伦路"},{"poiid":"B2094757D06FA3F44092","title":"新建路隧道","lon":"121.49868207","lat":"31.25213545","category":"260","category_name":"其他","address":"上海虹口区新建路-浦东新区陆家嘴环路"},{"poiid":"B209475CD564A7F84392","title":"上海滩浦东香格里拉店","lon":"121.50058","lat":"31.23634","category":"119","category_name":"商场","address":"浦东富成路33号香格里拉酒店内大堂层"},{"poiid":"B2094757D068A3F5469E","title":"海员医院(东长治路分院)","lon":"121.498129972","lat":"31.250511409","category":"162","category_name":"医院","address":"上海虹口区东长治路505号"},{"poiid":"B2094654D56DABFE499C","title":"宝矿国际大厦","lon":"121.497534","lat":"31.254199","category":"46","category_name":"楼宇","address":"上海市虹口区吴淞路218号"},{"poiid":"B2094757D068A1FE499B","title":"浦江名邸","lon":"121.49659","lat":"31.255047","category":"47","category_name":"住宅区","address":"广西北路246号百米香榭商业街南区260"},{"poiid":"B2094757D06FA4FE4999","title":"海湾大厦","lon":"121.498","lat":"31.2499","category":"46","category_name":"楼宇","address":"虹口区黄浦路53号(近外白渡桥)"},{"poiid":"B2094757D06FA7FF469C","title":"耀江国际广场","lon":"121.497","lat":"31.2555","category":"46","category_name":"楼宇","address":"上海市松江区镇横港路633号"},{"poiid":"B2094750DA6FA7FB4198","title":"桔子水晶酒店","lon":"121.502227","lat":"31.252765","category":"251","category_name":"出行住宿","address":"上海市虹口区公平路369号"},{"poiid":"B2094655D36DA7F9499B","title":"周家嘴路高阳路","lon":"121.5002","lat":"31.25672","category":"38","category_name":"公交车站","address":""},{"poiid":"B2094655D26BA2F9479E","title":"唐山路新建路","lon":"121.49753","lat":"31.25193","category":"38","category_name":"公交车站","address":""},{"poiid":"B2094655D26FA6FC479D","title":"章氏 唐山店","lon":"121.50104949388","lat":"31.253911762853","category":"68","category_name":"快餐厅","address":"虹口区唐山路216号(近高阳路)"},{"poiid":"B2094757D06BA4FC459F","title":"美年体检","lon":"121.49821","lat":"31.250433","category":"162","category_name":"医院","address":"虹口区东长治路505号"},{"poiid":"B2094654DB65A4FC449A","title":"莫泰168连锁旅店(周家嘴路店)","lon":"121.49899","lat":"31.25588","category":"216","category_name":"经济型连锁酒店","address":"上海虹口区周家嘴路518号（近高阳路）"},{"poiid":"B2094654DA6FA6FE429B","title":"恒升半岛国际中心","lon":"121.49564983911","lat":"31.252855823114","category":"46","category_name":"楼宇","address":"上海市虹口区吴淞路205号"},{"poiid":"B2094757D068AAFC4698","title":"公平路唐山路","lon":"121.5008606","lat":"31.253434067","category":"500","category_name":"未知分类","address":"上海公平路唐山路"},{"poiid":"B2094757D068A3F5479F","title":"和泰玫瑰园","lon":"121.50043","lat":"31.251926","category":"500","category_name":"未知分类","address":"和泰玫瑰园位于虹口东长治路655号"},{"poiid":"B2094757D568A7FD4699","title":"7天上海北外滩店","lon":"121.49877035","lat":"31.2525982","category":"216","category_name":"经济型连锁酒店","address":"唐山路145号(新建路隧道口)"},{"poiid":"B2094757D06AA7FA409D","title":"东长治路","lon":"121.5008371","lat":"31.250816012","category":"500","category_name":"未知分类","address":"上海东长治路"},{"poiid":"B2094654DB64A6FB499F","title":"如家快捷酒店(上海北外滩店)","lon":"121.49597","lat":"31.25448","category":"216","category_name":"经济型连锁酒店","address":"上海市虹口区周家嘴路345号(近金田路)"},{"poiid":"B2094757D064A3FA489F","title":"建桥69创意园区","lon":"121.49902","lat":"31.25464","category":"179","category_name":"音乐厅","address":"虹口区通州路69号(通州路周家嘴路)"},{"poiid":"B2094757D069A0FC479D","title":"长青学校","lon":"121.502249","lat":"31.253862","category":"55","category_name":"中学","address":"虹口区唐山路333号(近高阳路)"},{"poiid":"B2094750DA64A2F4489C","title":"陆家嘴金融区","lon":"121.4972","lat":"31.253206","category":"500","category_name":"未知分类","address":null},{"poiid":"B2094757D069AAF94192","title":"85路终点站","lon":"121.49845758","lat":"31.2526024166","category":"500","category_name":"未知分类","address":"上海浦东陆家嘴"},{"poiid":"B2094757D06BA3FA4298","title":"帝海沈家门海鲜","lon":"121.50094874946","lat":"31.255188994862","category":"76","category_name":"上海菜","address":"虹口区东余杭路716号(东余杭路高阳路)"},{"poiid":"B2094654D56DA4F54993","title":"上海市虹口区东余杭路幼儿园","lon":"121.49711","lat":"31.2523","category":"57","category_name":"幼儿园","address":"东汉阳路453"},{"poiid":"B209475DDB64ABFA4993","title":"canil狗窝","lon":"121.496696","lat":"31.252607","category":"247","category_name":"餐饮美食","address":"上海市 溧阳路611号1933老场坊1-109室(近海宁路)"},{"poiid":"B2094757D06BA3FE459F","title":"海泰苑","lon":"121.49942","lat":"31.255056","category":"252","category_name":"楼宇机构","address":"上海市虹口区通州路88弄"},{"poiid":"B2094654D56DA4FB479F","title":"福赐公寓","lon":"121.49955","lat":"31.253382","category":"47","category_name":"住宅区","address":"东余杭路578弄1-7号"},{"poiid":"B2094655D26FABFA449A","title":"商务楼(唐山路)","lon":"121.50006","lat":"31.253","category":"46","category_name":"楼宇","address":"唐山路215"},{"poiid":"B2094654DB64A4FC409D","title":"司麦脱大厦","lon":"121.50041","lat":"31.25276","category":"46","category_name":"楼宇","address":"唐山路216"},{"poiid":"B2094655D26BAAFE4698","title":"有恒邨(南门)","lon":"121.49887","lat":"31.25375","category":"47","category_name":"住宅区","address":"东余杭路557弄1-59号"},{"poiid":"B2094654D56DA4FB4899","title":"德裕社区理发店","lon":"121.49876","lat":"31.25369","category":"148","category_name":"美容美发店","address":""},{"poiid":"B2094753D56DABF94493","title":"上海环球金融中心100层","lon":"121.499992","lat":"31.25242","category":"500","category_name":"未知分类","address":"上海市 上海环球金融中心"},{"poiid":"B2094655D264A7F5499F","title":"有恒邨","lon":"121.49875","lat":"31.25387","category":"47","category_name":"住宅区","address":"东余杭路557弄1-59号"},{"poiid":"B2094654DB6BA3F84298","title":"福赐公寓(北门)","lon":"121.49937","lat":"31.25372","category":"47","category_name":"住宅区","address":"东余杭路578弄1-7号"},{"poiid":"B2094654D56DA4F54893","title":"建唐大楼","lon":"121.49776","lat":"31.25226","category":"47","category_name":"住宅区","address":"东汉阳路490"},{"poiid":"B2094654DB6BA3F8429E","title":"美林小厨 周家嘴店 Merrylin Cafeteria","lon":"121.49792247708","lat":"31.255992902549","category":"72","category_name":"广东菜","address":"虹口区周家嘴路518号(近通州路)"},{"poiid":"B2094655D26FA0FA4393","title":"建唐大楼(北门)","lon":"121.49768","lat":"31.25239","category":"47","category_name":"住宅区","address":"东汉阳路490"},{"poiid":"B2094757D16EA4F8439B","title":"珊珊小笼","lon":"121.5012588","lat":"31.252850155","category":"247","category_name":"餐饮美食","address":"上海唐山路408号"},{"poiid":"B2094654D56DA4FB459E","title":"晟隆大厦","lon":"121.50245","lat":"31.25159","category":"46","category_name":"楼宇","address":"鲁尔大厦位于铁西兴华南街5号"},{"poiid":"B2094757D065A3F4469B","title":"紫苏养身会所","lon":"121.501509044","lat":"31.2536483218","category":"148","category_name":"美容美发店","address":"上海四川北路2185号"},{"poiid":"B2094655D26DA6F94892","title":"好德No.844","lon":"121.49713","lat":"31.2537","category":"117","category_name":"便民商店/便利店","address":"新建路185"},{"poiid":"B2094655D265A6F54199","title":"和泰玫瑰苑","lon":"121.50043","lat":"31.25193","category":"47","category_name":"住宅区","address":"上海市虹口区东长治路665弄"},{"poiid":"B2094757D16CAAFF429A","title":"艺术幼儿园","lon":"121.50077","lat":"31.25424","category":"57","category_name":"幼儿园","address":"虹口区高阳路390号(高阳路唐山路)"},{"poiid":"B2094757D168ABF9469E","title":"北外滩敬老院","lon":"121.498925","lat":"31.252608","category":"615","category_name":"敬老院","address":"虹口区唐山路145号"},{"poiid":"B2094655D26BA2F9479D","title":"唐山路高阳路","lon":"121.50148","lat":"31.25339","category":"38","category_name":"公交车站","address":""},{"poiid":"B209475CD768A6FA499C","title":"东郊宾馆","lon":"121.499694","lat":"31.252273","category":"217","category_name":"旅馆招待所","address":"上海市 金科路1800号"},{"poiid":"B2094654D56DA4FA469E","title":"田伟餐厅","lon":"121.5009","lat":"31.25354","category":"257","category_name":"中餐厅","address":"高阳路325号"},{"poiid":"B2094655D26CA4FB4499","title":"上海滩国际大厦","lon":"121.499","lat":"31.2502","category":"46","category_name":"楼宇","address":"丰台学城海鹰路1号,3号"},{"poiid":"B2094757D06FA5FE4793","title":"周家嘴路新建路","lon":"121.496022","lat":"31.255533","category":"260","category_name":"其他","address":"上海周家嘴路新建路,海伦路"},{"poiid":"B2094757D06FA3F44092","title":"新建路隧道","lon":"121.49868207","lat":"31.25213545","category":"260","category_name":"其他","address":"上海虹口区新建路-浦东新区陆家嘴环路"},{"poiid":"B209475CD564A7F84392","title":"上海滩浦东香格里拉店","lon":"121.50058","lat":"31.23634","category":"119","category_name":"商场","address":"浦东富成路33号香格里拉酒店内大堂层"},{"poiid":"B2094757D068A3F5469E","title":"海员医院(东长治路分院)","lon":"121.498129972","lat":"31.250511409","category":"162","category_name":"医院","address":"上海虹口区东长治路505号"},{"poiid":"B2094654D56DABFE499C","title":"宝矿国际大厦","lon":"121.497534","lat":"31.254199","category":"46","category_name":"楼宇","address":"上海市虹口区吴淞路218号"},{"poiid":"B2094757D068A1FE499B","title":"浦江名邸","lon":"121.49659","lat":"31.255047","category":"47","category_name":"住宅区","address":"广西北路246号百米香榭商业街南区260"},{"poiid":"B2094757D06FA4FE4999","title":"海湾大厦","lon":"121.498","lat":"31.2499","category":"46","category_name":"楼宇","address":"虹口区黄浦路53号(近外白渡桥)"},{"poiid":"B2094757D06FA7FF469C","title":"耀江国际广场","lon":"121.497","lat":"31.2555","category":"46","category_name":"楼宇","address":"上海市松江区镇横港路633号"},{"poiid":"B2094750DA6FA7FB4198","title":"桔子水晶酒店","lon":"121.502227","lat":"31.252765","category":"251","category_name":"出行住宿","address":"上海市虹口区公平路369号"},{"poiid":"B2094655D36DA7F9499B","title":"周家嘴路高阳路","lon":"121.5002","lat":"31.25672","category":"38","category_name":"公交车站","address":""},{"poiid":"B2094655D26BA2F9479E","title":"唐山路新建路","lon":"121.49753","lat":"31.25193","category":"38","category_name":"公交车站","address":""},{"poiid":"B2094655D26FA6FC479D","title":"章氏 唐山店","lon":"121.50104949388","lat":"31.253911762853","category":"68","category_name":"快餐厅","address":"虹口区唐山路216号(近高阳路)"},{"poiid":"B2094757D06BA4FC459F","title":"美年体检","lon":"121.49821","lat":"31.250433","category":"162","category_name":"医院","address":"虹口区东长治路505号"},{"poiid":"B2094654DB65A4FC449A","title":"莫泰168连锁旅店(周家嘴路店)","lon":"121.49899","lat":"31.25588","category":"216","category_name":"经济型连锁酒店","address":"上海虹口区周家嘴路518号（近高阳路）"},{"poiid":"B2094654DA6FA6FE429B","title":"恒升半岛国际中心","lon":"121.49564983911","lat":"31.252855823114","category":"46","category_name":"楼宇","address":"上海市虹口区吴淞路205号"},{"poiid":"B2094757D068AAFC4698","title":"公平路唐山路","lon":"121.5008606","lat":"31.253434067","category":"500","category_name":"未知分类","address":"上海公平路唐山路"},{"poiid":"B2094757D068A3F5479F","title":"和泰玫瑰园","lon":"121.50043","lat":"31.251926","category":"500","category_name":"未知分类","address":"和泰玫瑰园位于虹口东长治路655号"},{"poiid":"B2094757D568A7FD4699","title":"7天上海北外滩店","lon":"121.49877035","lat":"31.2525982","category":"216","category_name":"经济型连锁酒店","address":"唐山路145号(新建路隧道口)"},{"poiid":"B2094757D06AA7FA409D","title":"东长治路","lon":"121.5008371","lat":"31.250816012","category":"500","category_name":"未知分类","address":"上海东长治路"},{"poiid":"B2094654DB64A6FB499F","title":"如家快捷酒店(上海北外滩店)","lon":"121.49597","lat":"31.25448","category":"216","category_name":"经济型连锁酒店","address":"上海市虹口区周家嘴路345号(近金田路)"},{"poiid":"B2094757D064A3FA489F","title":"建桥69创意园区","lon":"121.49902","lat":"31.25464","category":"179","category_name":"音乐厅","address":"虹口区通州路69号(通州路周家嘴路)"},{"poiid":"B2094757D069A0FC479D","title":"长青学校","lon":"121.502249","lat":"31.253862","category":"55","category_name":"中学","address":"虹口区唐山路333号(近高阳路)"},{"poiid":"B2094750DA64A2F4489C","title":"陆家嘴金融区","lon":"121.4972","lat":"31.253206","category":"500","category_name":"未知分类","address":null},{"poiid":"B2094757D069AAF94192","title":"85路终点站","lon":"121.49845758","lat":"31.2526024166","category":"500","category_name":"未知分类","address":"上海浦东陆家嘴"},{"poiid":"B2094757D06BA3FA4298","title":"帝海沈家门海鲜","lon":"121.50094874946","lat":"31.255188994862","category":"76","category_name":"上海菜","address":"虹口区东余杭路716号(东余杭路高阳路)"},{"poiid":"B2094654D56DA4F54993","title":"上海市虹口区东余杭路幼儿园","lon":"121.49711","lat":"31.2523","category":"57","category_name":"幼儿园","address":"东汉阳路453"},{"poiid":"B209475DDB64ABFA4993","title":"canil狗窝","lon":"121.496696","lat":"31.252607","category":"247","category_name":"餐饮美食","address":"上海市 溧阳路611号1933老场坊1-109室(近海宁路)"},{"poiid":"B2094757D06BA3FE459F","title":"海泰苑","lon":"121.49942","lat":"31.255056","category":"252","category_name":"楼宇机构","address":"上海市虹口区通州路88弄"},{"poiid":"B2094654D56DA4FB479F","title":"福赐公寓","lon":"121.49955","lat":"31.253382","category":"47","category_name":"住宅区","address":"东余杭路578弄1-7号"},{"poiid":"B2094655D26FABFA449A","title":"商务楼(唐山路)","lon":"121.50006","lat":"31.253","category":"46","category_name":"楼宇","address":"唐山路215"},{"poiid":"B2094654DB64A4FC409D","title":"司麦脱大厦","lon":"121.50041","lat":"31.25276","category":"46","category_name":"楼宇","address":"唐山路216"},{"poiid":"B2094655D26BAAFE4698","title":"有恒邨(南门)","lon":"121.49887","lat":"31.25375","category":"47","category_name":"住宅区","address":"东余杭路557弄1-59号"},{"poiid":"B2094654D56DA4FB4899","title":"德裕社区理发店","lon":"121.49876","lat":"31.25369","category":"148","category_name":"美容美发店","address":""},{"poiid":"B2094753D56DABF94493","title":"上海环球金融中心100层","lon":"121.499992","lat":"31.25242","category":"500","category_name":"未知分类","address":"上海市 上海环球金融中心"},{"poiid":"B2094655D264A7F5499F","title":"有恒邨","lon":"121.49875","lat":"31.25387","category":"47","category_name":"住宅区","address":"东余杭路557弄1-59号"},{"poiid":"B2094654DB6BA3F84298","title":"福赐公寓(北门)","lon":"121.49937","lat":"31.25372","category":"47","category_name":"住宅区","address":"东余杭路578弄1-7号"},{"poiid":"B2094654D56DA4F54893","title":"建唐大楼","lon":"121.49776","lat":"31.25226","category":"47","category_name":"住宅区","address":"东汉阳路490"},{"poiid":"B2094654DB6BA3F8429E","title":"美林小厨 周家嘴店 Merrylin Cafeteria","lon":"121.49792247708","lat":"31.255992902549","category":"72","category_name":"广东菜","address":"虹口区周家嘴路518号(近通州路)"},{"poiid":"B2094655D26FA0FA4393","title":"建唐大楼(北门)","lon":"121.49768","lat":"31.25239","category":"47","category_name":"住宅区","address":"东汉阳路490"},{"poiid":"B2094757D16EA4F8439B","title":"珊珊小笼","lon":"121.5012588","lat":"31.252850155","category":"247","category_name":"餐饮美食","address":"上海唐山路408号"},{"poiid":"B2094654D56DA4FB459E","title":"晟隆大厦","lon":"121.50245","lat":"31.25159","category":"46","category_name":"楼宇","address":"鲁尔大厦位于铁西兴华南街5号"},{"poiid":"B2094757D065A3F4469B","title":"紫苏养身会所","lon":"121.501509044","lat":"31.2536483218","category":"148","category_name":"美容美发店","address":"上海四川北路2185号"},{"poiid":"B2094655D26DA6F94892","title":"好德No.844","lon":"121.49713","lat":"31.2537","category":"117","category_name":"便民商店/便利店","address":"新建路185"},{"poiid":"B2094655D265A6F54199","title":"和泰玫瑰苑","lon":"121.50043","lat":"31.25193","category":"47","category_name":"住宅区","address":"上海市虹口区东长治路665弄"},{"poiid":"B2094757D16CAAFF429A","title":"艺术幼儿园","lon":"121.50077","lat":"31.25424","category":"57","category_name":"幼儿园","address":"虹口区高阳路390号(高阳路唐山路)"},{"poiid":"B2094757D168ABF9469E","title":"北外滩敬老院","lon":"121.498925","lat":"31.252608","category":"615","category_name":"敬老院","address":"虹口区唐山路145号"},{"poiid":"B2094655D26BA2F9479D","title":"唐山路高阳路","lon":"121.50148","lat":"31.25339","category":"38","category_name":"公交车站","address":""},{"poiid":"B209475CD768A6FA499C","title":"东郊宾馆","lon":"121.499694","lat":"31.252273","category":"217","category_name":"旅馆招待所","address":"上海市 金科路1800号"},{"poiid":"B2094654D56DA4FA469E","title":"田伟餐厅","lon":"121.5009","lat":"31.25354","category":"257","category_name":"中餐厅","address":"高阳路325号"},{"poiid":"B2094655D26CA4FB4499","title":"上海滩国际大厦","lon":"121.499","lat":"31.2502","category":"46","category_name":"楼宇","address":"丰台学城海鹰路1号,3号"},{"poiid":"B2094757D06FA5FE4793","title":"周家嘴路新建路","lon":"121.496022","lat":"31.255533","category":"260","category_name":"其他","address":"上海周家嘴路新建路,海伦路"},{"poiid":"B2094757D06FA3F44092","title":"新建路隧道","lon":"121.49868207","lat":"31.25213545","category":"260","category_name":"其他","address":"上海虹口区新建路-浦东新区陆家嘴环路"},{"poiid":"B209475CD564A7F84392","title":"上海滩浦东香格里拉店","lon":"121.50058","lat":"31.23634","category":"119","category_name":"商场","address":"浦东富成路33号香格里拉酒店内大堂层"},{"poiid":"B2094757D068A3F5469E","title":"海员医院(东长治路分院)","lon":"121.498129972","lat":"31.250511409","category":"162","category_name":"医院","address":"上海虹口区东长治路505号"},{"poiid":"B2094654D56DABFE499C","title":"宝矿国际大厦","lon":"121.497534","lat":"31.254199","category":"46","category_name":"楼宇","address":"上海市虹口区吴淞路218号"},{"poiid":"B2094757D068A1FE499B","title":"浦江名邸","lon":"121.49659","lat":"31.255047","category":"47","category_name":"住宅区","address":"广西北路246号百米香榭商业街南区260"},{"poiid":"B2094757D06FA4FE4999","title":"海湾大厦","lon":"121.498","lat":"31.2499","category":"46","category_name":"楼宇","address":"虹口区黄浦路53号(近外白渡桥)"},{"poiid":"B2094757D06FA7FF469C","title":"耀江国际广场","lon":"121.497","lat":"31.2555","category":"46","category_name":"楼宇","address":"上海市松江区镇横港路633号"},{"poiid":"B2094750DA6FA7FB4198","title":"桔子水晶酒店","lon":"121.502227","lat":"31.252765","category":"251","category_name":"出行住宿","address":"上海市虹口区公平路369号"},{"poiid":"B2094655D36DA7F9499B","title":"周家嘴路高阳路","lon":"121.5002","lat":"31.25672","category":"38","category_name":"公交车站","address":""},{"poiid":"B2094655D26BA2F9479E","title":"唐山路新建路","lon":"121.49753","lat":"31.25193","category":"38","category_name":"公交车站","address":""},{"poiid":"B2094655D26FA6FC479D","title":"章氏 唐山店","lon":"121.50104949388","lat":"31.253911762853","category":"68","category_name":"快餐厅","address":"虹口区唐山路216号(近高阳路)"},{"poiid":"B2094757D06BA4FC459F","title":"美年体检","lon":"121.49821","lat":"31.250433","category":"162","category_name":"医院","address":"虹口区东长治路505号"},{"poiid":"B2094654DB65A4FC449A","title":"莫泰168连锁旅店(周家嘴路店)","lon":"121.49899","lat":"31.25588","category":"216","category_name":"经济型连锁酒店","address":"上海虹口区周家嘴路518号（近高阳路）"},{"poiid":"B2094654DA6FA6FE429B","title":"恒升半岛国际中心","lon":"121.49564983911","lat":"31.252855823114","category":"46","category_name":"楼宇","address":"上海市虹口区吴淞路205号"},{"poiid":"B2094757D068AAFC4698","title":"公平路唐山路","lon":"121.5008606","lat":"31.253434067","category":"500","category_name":"未知分类","address":"上海公平路唐山路"},{"poiid":"B2094757D068A3F5479F","title":"和泰玫瑰园","lon":"121.50043","lat":"31.251926","category":"500","category_name":"未知分类","address":"和泰玫瑰园位于虹口东长治路655号"},{"poiid":"B2094757D568A7FD4699","title":"7天上海北外滩店","lon":"121.49877035","lat":"31.2525982","category":"216","category_name":"经济型连锁酒店","address":"唐山路145号(新建路隧道口)"},{"poiid":"B2094757D06AA7FA409D","title":"东长治路","lon":"121.5008371","lat":"31.250816012","category":"500","category_name":"未知分类","address":"上海东长治路"},{"poiid":"B2094654DB64A6FB499F","title":"如家快捷酒店(上海北外滩店)","lon":"121.49597","lat":"31.25448","category":"216","category_name":"经济型连锁酒店","address":"上海市虹口区周家嘴路345号(近金田路)"},{"poiid":"B2094757D064A3FA489F","title":"建桥69创意园区","lon":"121.49902","lat":"31.25464","category":"179","category_name":"音乐厅","address":"虹口区通州路69号(通州路周家嘴路)"},{"poiid":"B2094757D069A0FC479D","title":"长青学校","lon":"121.502249","lat":"31.253862","category":"55","category_name":"中学","address":"虹口区唐山路333号(近高阳路)"},{"poiid":"B2094750DA64A2F4489C","title":"陆家嘴金融区","lon":"121.4972","lat":"31.253206","category":"500","category_name":"未知分类","address":null},{"poiid":"B2094757D069AAF94192","title":"85路终点站","lon":"121.49845758","lat":"31.2526024166","category":"500","category_name":"未知分类","address":"上海浦东陆家嘴"},{"poiid":"B2094757D06BA3FA4298","title":"帝海沈家门海鲜","lon":"121.50094874946","lat":"31.255188994862","category":"76","category_name":"上海菜","address":"虹口区东余杭路716号(东余杭路高阳路)"},{"poiid":"B2094654D56DA4F54993","title":"上海市虹口区东余杭路幼儿园","lon":"121.49711","lat":"31.2523","category":"57","category_name":"幼儿园","address":"东汉阳路453"},{"poiid":"B209475DDB64ABFA4993","title":"canil狗窝","lon":"121.496696","lat":"31.252607","category":"247","category_name":"餐饮美食","address":"上海市 溧阳路611号1933老场坊1-109室(近海宁路)"},{"poiid":"B2094757D06BA3FE459F","title":"海泰苑","lon":"121.49942","lat":"31.255056","category":"252","category_name":"楼宇机构","address":"上海市虹口区通州路88弄"},{"poiid":"B2094654D56DA4FB479F","title":"福赐公寓","lon":"121.49955","lat":"31.253382","category":"47","category_name":"住宅区","address":"东余杭路578弄1-7号"},{"poiid":"B2094655D26FABFA449A","title":"商务楼(唐山路)","lon":"121.50006","lat":"31.253","category":"46","category_name":"楼宇","address":"唐山路215"},{"poiid":"B2094654DB64A4FC409D","title":"司麦脱大厦","lon":"121.50041","lat":"31.25276","category":"46","category_name":"楼宇","address":"唐山路216"},{"poiid":"B2094655D26BAAFE4698","title":"有恒邨(南门)","lon":"121.49887","lat":"31.25375","category":"47","category_name":"住宅区","address":"东余杭路557弄1-59号"},{"poiid":"B2094654D56DA4FB4899","title":"德裕社区理发店","lon":"121.49876","lat":"31.25369","category":"148","category_name":"美容美发店","address":""},{"poiid":"B2094753D56DABF94493","title":"上海环球金融中心100层","lon":"121.499992","lat":"31.25242","category":"500","category_name":"未知分类","address":"上海市 上海环球金融中心"},{"poiid":"B2094655D264A7F5499F","title":"有恒邨","lon":"121.49875","lat":"31.25387","category":"47","category_name":"住宅区","address":"东余杭路557弄1-59号"},{"poiid":"B2094654DB6BA3F84298","title":"福赐公寓(北门)","lon":"121.49937","lat":"31.25372","category":"47","category_name":"住宅区","address":"东余杭路578弄1-7号"},{"poiid":"B2094654D56DA4F54893","title":"建唐大楼","lon":"121.49776","lat":"31.25226","category":"47","category_name":"住宅区","address":"东汉阳路490"},{"poiid":"B2094654DB6BA3F8429E","title":"美林小厨 周家嘴店 Merrylin Cafeteria","lon":"121.49792247708","lat":"31.255992902549","category":"72","category_name":"广东菜","address":"虹口区周家嘴路518号(近通州路)"},{"poiid":"B2094655D26FA0FA4393","title":"建唐大楼(北门)","lon":"121.49768","lat":"31.25239","category":"47","category_name":"住宅区","address":"东汉阳路490"},{"poiid":"B2094757D16EA4F8439B","title":"珊珊小笼","lon":"121.5012588","lat":"31.252850155","category":"247","category_name":"餐饮美食","address":"上海唐山路408号"},{"poiid":"B2094654D56DA4FB459E","title":"晟隆大厦","lon":"121.50245","lat":"31.25159","category":"46","category_name":"楼宇","address":"鲁尔大厦位于铁西兴华南街5号"},{"poiid":"B2094757D065A3F4469B","title":"紫苏养身会所","lon":"121.501509044","lat":"31.2536483218","category":"148","category_name":"美容美发店","address":"上海四川北路2185号"},{"poiid":"B2094655D26DA6F94892","title":"好德No.844","lon":"121.49713","lat":"31.2537","category":"117","category_name":"便民商店/便利店","address":"新建路185"},{"poiid":"B2094655D265A6F54199","title":"和泰玫瑰苑","lon":"121.50043","lat":"31.25193","category":"47","category_name":"住宅区","address":"上海市虹口区东长治路665弄"},{"poiid":"B2094757D16CAAFF429A","title":"艺术幼儿园","lon":"121.50077","lat":"31.25424","category":"57","category_name":"幼儿园","address":"虹口区高阳路390号(高阳路唐山路)"},{"poiid":"B2094757D168ABF9469E","title":"北外滩敬老院","lon":"121.498925","lat":"31.252608","category":"615","category_name":"敬老院","address":"虹口区唐山路145号"},{"poiid":"B2094655D26BA2F9479D","title":"唐山路高阳路","lon":"121.50148","lat":"31.25339","category":"38","category_name":"公交车站","address":""},{"poiid":"B209475CD768A6FA499C","title":"东郊宾馆","lon":"121.499694","lat":"31.252273","category":"217","category_name":"旅馆招待所","address":"上海市 金科路1800号"},{"poiid":"B2094654D56DA4FA469E","title":"田伟餐厅","lon":"121.5009","lat":"31.25354","category":"257","category_name":"中餐厅","address":"高阳路325号"},{"poiid":"B2094655D26CA4FB4499","title":"上海滩国际大厦","lon":"121.499","lat":"31.2502","category":"46","category_name":"楼宇","address":"丰台学城海鹰路1号,3号"},{"poiid":"B2094757D06FA5FE4793","title":"周家嘴路新建路","lon":"121.496022","lat":"31.255533","category":"260","category_name":"其他","address":"上海周家嘴路新建路,海伦路"},{"poiid":"B2094757D06FA3F44092","title":"新建路隧道","lon":"121.49868207","lat":"31.25213545","category":"260","category_name":"其他","address":"上海虹口区新建路-浦东新区陆家嘴环路"},{"poiid":"B209475CD564A7F84392","title":"上海滩浦东香格里拉店","lon":"121.50058","lat":"31.23634","category":"119","category_name":"商场","address":"浦东富成路33号香格里拉酒店内大堂层"},{"poiid":"B2094757D068A3F5469E","title":"海员医院(东长治路分院)","lon":"121.498129972","lat":"31.250511409","category":"162","category_name":"医院","address":"上海虹口区东长治路505号"},{"poiid":"B2094654D56DABFE499C","title":"宝矿国际大厦","lon":"121.497534","lat":"31.254199","category":"46","category_name":"楼宇","address":"上海市虹口区吴淞路218号"},{"poiid":"B2094757D068A1FE499B","title":"浦江名邸","lon":"121.49659","lat":"31.255047","category":"47","category_name":"住宅区","address":"广西北路246号百米香榭商业街南区260"},{"poiid":"B2094757D06FA4FE4999","title":"海湾大厦","lon":"121.498","lat":"31.2499","category":"46","category_name":"楼宇","address":"虹口区黄浦路53号(近外白渡桥)"},{"poiid":"B2094757D06FA7FF469C","title":"耀江国际广场","lon":"121.497","lat":"31.2555","category":"46","category_name":"楼宇","address":"上海市松江区镇横港路633号"},{"poiid":"B2094750DA6FA7FB4198","title":"桔子水晶酒店","lon":"121.502227","lat":"31.252765","category":"251","category_name":"出行住宿","address":"上海市虹口区公平路369号"},{"poiid":"B2094655D36DA7F9499B","title":"周家嘴路高阳路","lon":"121.5002","lat":"31.25672","category":"38","category_name":"公交车站","address":""},{"poiid":"B2094655D26BA2F9479E","title":"唐山路新建路","lon":"121.49753","lat":"31.25193","category":"38","category_name":"公交车站","address":""},{"poiid":"B2094655D26FA6FC479D","title":"章氏 唐山店","lon":"121.50104949388","lat":"31.253911762853","category":"68","category_name":"快餐厅","address":"虹口区唐山路216号(近高阳路)"},{"poiid":"B2094757D06BA4FC459F","title":"美年体检","lon":"121.49821","lat":"31.250433","category":"162","category_name":"医院","address":"虹口区东长治路505号"},{"poiid":"B2094654DB65A4FC449A","title":"莫泰168连锁旅店(周家嘴路店)","lon":"121.49899","lat":"31.25588","category":"216","category_name":"经济型连锁酒店","address":"上海虹口区周家嘴路518号（近高阳路）"},{"poiid":"B2094654DA6FA6FE429B","title":"恒升半岛国际中心","lon":"121.49564983911","lat":"31.252855823114","category":"46","category_name":"楼宇","address":"上海市虹口区吴淞路205号"},{"poiid":"B2094757D068AAFC4698","title":"公平路唐山路","lon":"121.5008606","lat":"31.253434067","category":"500","category_name":"未知分类","address":"上海公平路唐山路"},{"poiid":"B2094757D068A3F5479F","title":"和泰玫瑰园","lon":"121.50043","lat":"31.251926","category":"500","category_name":"未知分类","address":"和泰玫瑰园位于虹口东长治路655号"},{"poiid":"B2094757D568A7FD4699","title":"7天上海北外滩店","lon":"121.49877035","lat":"31.2525982","category":"216","category_name":"经济型连锁酒店","address":"唐山路145号(新建路隧道口)"},{"poiid":"B2094757D06AA7FA409D","title":"东长治路","lon":"121.5008371","lat":"31.250816012","category":"500","category_name":"未知分类","address":"上海东长治路"},{"poiid":"B2094654DB64A6FB499F","title":"如家快捷酒店(上海北外滩店)","lon":"121.49597","lat":"31.25448","category":"216","category_name":"经济型连锁酒店","address":"上海市虹口区周家嘴路345号(近金田路)"},{"poiid":"B2094757D064A3FA489F","title":"建桥69创意园区","lon":"121.49902","lat":"31.25464","category":"179","category_name":"音乐厅","address":"虹口区通州路69号(通州路周家嘴路)"},{"poiid":"B2094757D069A0FC479D","title":"长青学校","lon":"121.502249","lat":"31.253862","category":"55","category_name":"中学","address":"虹口区唐山路333号(近高阳路)"},{"poiid":"B2094750DA64A2F4489C","title":"陆家嘴金融区","lon":"121.4972","lat":"31.253206","category":"500","category_name":"未知分类","address":null},{"poiid":"B2094757D069AAF94192","title":"85路终点站","lon":"121.49845758","lat":"31.2526024166","category":"500","category_name":"未知分类","address":"上海浦东陆家嘴"},{"poiid":"B2094757D06BA3FA4298","title":"帝海沈家门海鲜","lon":"121.50094874946","lat":"31.255188994862","category":"76","category_name":"上海菜","address":"虹口区东余杭路716号(东余杭路高阳路)"},{"poiid":"B2094654D56DA4F54993","title":"上海市虹口区东余杭路幼儿园","lon":"121.49711","lat":"31.2523","category":"57","category_name":"幼儿园","address":"东汉阳路453"},{"poiid":"B209475DDB64ABFA4993","title":"canil狗窝","lon":"121.496696","lat":"31.252607","category":"247","category_name":"餐饮美食","address":"上海市 溧阳路611号1933老场坊1-109室(近海宁路)"},{"poiid":"B2094757D06BA3FE459F","title":"海泰苑","lon":"121.49942","lat":"31.255056","category":"252","category_name":"楼宇机构","address":"上海市虹口区通州路88弄"},{"poiid":"B2094654D56DA4FB479F","title":"福赐公寓","lon":"121.49955","lat":"31.253382","category":"47","category_name":"住宅区","address":"东余杭路578弄1-7号"},{"poiid":"B2094655D26FABFA449A","title":"商务楼(唐山路)","lon":"121.50006","lat":"31.253","category":"46","category_name":"楼宇","address":"唐山路215"},{"poiid":"B2094654DB64A4FC409D","title":"司麦脱大厦","lon":"121.50041","lat":"31.25276","category":"46","category_name":"楼宇","address":"唐山路216"},{"poiid":"B2094655D26BAAFE4698","title":"有恒邨(南门)","lon":"121.49887","lat":"31.25375","category":"47","category_name":"住宅区","address":"东余杭路557弄1-59号"},{"poiid":"B2094654D56DA4FB4899","title":"德裕社区理发店","lon":"121.49876","lat":"31.25369","category":"148","category_name":"美容美发店","address":""},{"poiid":"B2094753D56DABF94493","title":"上海环球金融中心100层","lon":"121.499992","lat":"31.25242","category":"500","category_name":"未知分类","address":"上海市 上海环球金融中心"},{"poiid":"B2094655D264A7F5499F","title":"有恒邨","lon":"121.49875","lat":"31.25387","category":"47","category_name":"住宅区","address":"东余杭路557弄1-59号"},{"poiid":"B2094654DB6BA3F84298","title":"福赐公寓(北门)","lon":"121.49937","lat":"31.25372","category":"47","category_name":"住宅区","address":"东余杭路578弄1-7号"},{"poiid":"B2094654D56DA4F54893","title":"建唐大楼","lon":"121.49776","lat":"31.25226","category":"47","category_name":"住宅区","address":"东汉阳路490"},{"poiid":"B2094654DB6BA3F8429E","title":"美林小厨 周家嘴店 Merrylin Cafeteria","lon":"121.49792247708","lat":"31.255992902549","category":"72","category_name":"广东菜","address":"虹口区周家嘴路518号(近通州路)"},{"poiid":"B2094655D26FA0FA4393","title":"建唐大楼(北门)","lon":"121.49768","lat":"31.25239","category":"47","category_name":"住宅区","address":"东汉阳路490"},{"poiid":"B2094757D16EA4F8439B","title":"珊珊小笼","lon":"121.5012588","lat":"31.252850155","category":"247","category_name":"餐饮美食","address":"上海唐山路408号"},{"poiid":"B2094654D56DA4FB459E","title":"晟隆大厦","lon":"121.50245","lat":"31.25159","category":"46","category_name":"楼宇","address":"鲁尔大厦位于铁西兴华南街5号"},{"poiid":"B2094757D065A3F4469B","title":"紫苏养身会所","lon":"121.501509044","lat":"31.2536483218","category":"148","category_name":"美容美发店","address":"上海四川北路2185号"},{"poiid":"B2094655D26DA6F94892","title":"好德No.844","lon":"121.49713","lat":"31.2537","category":"117","category_name":"便民商店/便利店","address":"新建路185"},{"poiid":"B2094655D265A6F54199","title":"和泰玫瑰苑","lon":"121.50043","lat":"31.25193","category":"47","category_name":"住宅区","address":"上海市虹口区东长治路665弄"},{"poiid":"B2094757D16CAAFF429A","title":"艺术幼儿园","lon":"121.50077","lat":"31.25424","category":"57","category_name":"幼儿园","address":"虹口区高阳路390号(高阳路唐山路)"},{"poiid":"B2094757D168ABF9469E","title":"北外滩敬老院","lon":"121.498925","lat":"31.252608","category":"615","category_name":"敬老院","address":"虹口区唐山路145号"},{"poiid":"B2094655D26BA2F9479D","title":"唐山路高阳路","lon":"121.50148","lat":"31.25339","category":"38","category_name":"公交车站","address":""},{"poiid":"B209475CD768A6FA499C","title":"东郊宾馆","lon":"121.499694","lat":"31.252273","category":"217","category_name":"旅馆招待所","address":"上海市 金科路1800号"},{"poiid":"B2094654D56DA4FA469E","title":"田伟餐厅","lon":"121.5009","lat":"31.25354","category":"257","category_name":"中餐厅","address":"高阳路325号"}]