[{"poiid":"B2094655D26BA1F9479C","title":"庙镇","lon":"121.34963","lat":"31.71314","category":"38","category_name":"公交车站","address":""},{"poiid":"B2094757D168A7F5419A","title":"海升伴侬生态园","lon":"121.342380883","lat":"31.7210488784","category":"500","category_name":"未知分类","address":"上海崇明县宏海路庙镇西500米"},{"poiid":"B2094654D468A7FE409E","title":"崇明县庙镇人民医院","lon":"121.34873","lat":"31.71583","category":"162","category_name":"医院","address":"近郊崇明县庙镇镇为民街24号"},{"poiid":"B2094654D468A7FD499C","title":"崇明县崇西中学","lon":"121.34597","lat":"31.71499","category":"55","category_name":"中学","address":"崇明县庙镇镇庙镇大街192号"},{"poiid":"B2094655D26FA5FD479A","title":"庙镇电影院","lon":"121.34846","lat":"31.71547","category":"178","category_name":"电影院","address":"庙镇剧场路12号"},{"poiid":"B2094654D468A7FE429A","title":"崇明县庙镇幼儿园","lon":"121.3504","lat":"31.71497","category":"57","category_name":"幼儿园","address":"近郊崇明县庙中路80号"},{"poiid":"B2094750DA6FA0FF449F","title":"上海庙草原大舞台","lon":"121.350166","lat":"31.713218","category":"189","category_name":"文艺团体","address":"崇明县庙镇"},{"poiid":"B2094750D164A7FA4899","title":"崇明西岸氧吧度假旅店","lon":"121.343822479248","lat":"31.7014440054969","category":"215","category_name":"三星级宾馆","address":"上海崇明岛陈海公路宏海公路交叉处"},{"poiid":"B2094654D468A7FE419F","title":"中国农业银行庙镇支行","lon":"121.35039","lat":"31.71296","category":"150","category_name":"银行","address":"嘉定区庙镇镇庙镇大街60号"},{"poiid":"B2094655D36CA6F94599","title":"番瓜镇","lon":"121.32845","lat":"31.70395","category":"38","category_name":"公交车站","address":""},{"poiid":"B2094750D164A4FB429D","title":"上海崇明智宸农庄","lon":"121.328136920929","lat":"31.7066833701761","category":"215","category_name":"三星级宾馆","address":"近郊崇明庙镇庙南北路1437号(近陈海公路宏海公路交界处)"},{"poiid":"B2094655D36DA7FF419C","title":"镇东村","lon":"121.35526","lat":"31.71016","category":"38","category_name":"公交车站","address":""},{"poiid":"B2094655D36DA1F5439F","title":"小高桥","lon":"121.34371","lat":"31.6976","category":"38","category_name":"公交车站","address":""},{"poiid":"B2094654D468A7FE4798","title":"崇明县人民法院庙镇人民法庭","lon":"121.35105","lat":"31.71465","category":"252","category_name":"楼宇机构","address":""},{"poiid":"B2094757D16EAAF5479C","title":"崇明庙镇中心小学","lon":"121.351665","lat":"31.717026","category":"253","category_name":"校园生活","address":"上海市崇明县庙镇庙中路82号"},{"poiid":"B2094655D36DA7F94899","title":"周家河头","lon":"121.35304","lat":"31.72233","category":"38","category_name":"公交车站","address":""},{"poiid":"B2094757D16AA1F5469F","title":"崇明庙镇菜场","lon":"121.35395797","lat":"31.700018879","category":"500","category_name":"未知分类","address":"上海崇明庙镇大街"}]