[{"poiid":"B2094654D56EABFA4893","title":"新华医院","lon":"121.51764","lat":"31.27412","category":"162","category_name":"医院","address":"杨浦区控江路1665号(近江浦路)"},{"poiid":"B2094757D06FA1FA469F","title":"新华医院急诊大楼","lon":"121.517640149","lat":"31.2741306456","category":"162","category_name":"医院","address":"杨浦区控江路1556号(近江浦路)"},{"poiid":"B2094757D06FA2FF4299","title":"新华医院儿科","lon":"121.51646213","lat":"31.274249013","category":"162","category_name":"医院","address":"杨浦区控江路1665号(近江浦路)"},{"poiid":"B2094757D06FA2F94098","title":"迈玛瑞","lon":"121.51877594","lat":"31.275295257","category":"76","category_name":"上海菜","address":"杨浦区江浦路1526号(近控江路)"},{"poiid":"B2094757D06FA0FF439C","title":"彩虹坊(杨浦店)","lon":"121.51948","lat":"31.27349","category":"75","category_name":"浙江菜","address":"杨浦区江浦路1500号(近控江路)"},{"poiid":"B2094757D06EAAFD4793","title":"江浦路地铁站","lon":"121.518079","lat":"31.2748730376","category":"36","category_name":"地铁站","address":"上海轨道交通 八号线 轨交江浦路站 8"},{"poiid":"B2094757D06FA6F4499C","title":"现代星洲城","lon":"121.518951","lat":"31.269247","category":"47","category_name":"住宅区","address":"上海市杨浦区江浦路1199号"},{"poiid":"B2094757D068A2F54898","title":"新华医院门诊综合楼","lon":"121.517633443","lat":"31.2741272069","category":"162","category_name":"医院","address":"上海市杨浦区控江路1665号"},{"poiid":"B2094757D06FA5F84593","title":"吴记老锅底麻辣火锅(江浦路店)","lon":"121.52023","lat":"31.27258","category":"86","category_name":"火锅店","address":"上海杨浦区江浦路1380号(近控江路)  "},{"poiid":"B2094751DA64A6F9439A","title":"鲜芋仙","lon":"121.519587","lat":"31.271143","category":"247","category_name":"餐饮美食","address":"杨浦区控江路1720号"},{"poiid":"B2094757D06FA7F8459C","title":"食其家(控江路店)","lon":"121.51641082","lat":"31.274255752","category":"95","category_name":"日本料理","address":"杨浦区控江路1667号甲(近双辽路)"},{"poiid":"B2094757D06FABFA4398","title":"永和大王(控江路店)","lon":"121.51695","lat":"31.2742","category":"68","category_name":"快餐厅","address":"上海杨浦区控江路1667号(近江浦路)  "},{"poiid":"B2094757D068A5FE4793","title":"周家嘴路江浦路站(公交145,716,870,962)","lon":"121.520926","lat":"31.271083","category":"38","category_name":"公交车站","address":"上海周家嘴路江浦路"},{"poiid":"B2094655D26CA6FE409E","title":"双辽路200弄小区","lon":"121.5171","lat":"31.27245","category":"47","category_name":"住宅区","address":"上海杨浦区双辽路200弄"},{"poiid":"B2094757D16FA5FE439D","title":"新华医院呼吸监护室","lon":"121.519554103","lat":"31.2708834319","category":"500","category_name":"未知分类","address":null},{"poiid":"B2094757D06FABFA409F","title":"新华医院外科大楼","lon":"121.51646305","lat":"31.274250129","category":"162","category_name":"医院","address":"上海杨浦区控江路1665号(近江浦路)"},{"poiid":"B2094757D068A6F8439A","title":"双辽新村","lon":"121.5162558","lat":"31.270172308","category":"252","category_name":"楼宇机构","address":"上海市杨浦区双辽支路60弄"},{"poiid":"B2094757D06BA2FC409F","title":"邵稼楼 江浦路店","lon":"121.51792907715","lat":"31.276350021362","category":"76","category_name":"上海菜","address":"杨浦区江浦路1527号1-2楼(近本溪路)"},{"poiid":"B2094757D16CA4F8409E","title":"双辽支路","lon":"121.5163852","lat":"31.26985461","category":"500","category_name":"未知分类","address":"上海双辽支路"},{"poiid":"B2094757D068A7F9469C","title":"新华医院科教楼","lon":"121.517176","lat":"31.274434","category":"162","category_name":"医院","address":"上海杨浦区控江路1665号(近江浦路)"},{"poiid":"B2094757D06AAAFF4893","title":"杨浦区教师进修学院附属中学","lon":"121.52025","lat":"31.27081","category":"253","category_name":"校园生活","address":"杨浦区江浦路1322号(近周家嘴路)"},{"poiid":"B2094752DA69A6FD4992","title":"上海K11购物艺术中心","lon":"121.52008","lat":"31.273733","category":"500","category_name":"未知分类","address":"上海市 上海市黄浦区淮海中路300号"},{"poiid":"B2094654D56EABF5499A","title":"阳明新城","lon":"121.5214","lat":"31.269705","category":"47","category_name":"住宅区","address":"阳明新城位于杨浦江浦路1188号"},{"poiid":"B2094757D06BA0FD4798","title":"新华医院口腔科","lon":"121.5174691","lat":"31.274501507","category":"162","category_name":"医院","address":"上海杨浦区控江路1665号(近江浦路)"},{"poiid":"B2094757D06BA7FE419F","title":"悸动台湾正宗烧仙草(江浦路店)","lon":"121.51943206","lat":"31.272819519","category":"113","category_name":"冷饮店","address":"杨浦区江浦路1380号(近控江路)"},{"poiid":"B2094654D56EABFF489B","title":"汽车公寓小区","lon":"121.51963","lat":"31.27365","category":"47","category_name":"住宅区","address":"江浦路1420弄1-17号"},{"poiid":"B2094654D56EABFF479E","title":"思香林面菜馆 杨浦店","lon":"121.52000535327","lat":"31.271909704411","category":"68","category_name":"快餐厅","address":"杨浦区江浦路1380号-2(近控江路)"},{"poiid":"B2094757D66AA7F8439E","title":"筱萍饭店","lon":"121.51975647614","lat":"31.27252126898","category":"68","category_name":"快餐厅","address":"杨浦区江浦路1330号(近周家嘴路)"},{"poiid":"B2094655D26CA6FD429C","title":"飞虹路723弄小区","lon":"121.518","lat":"31.2722","category":"47","category_name":"住宅区","address":"飞虹路723弄"},{"poiid":"B2094757D06AA0F5409D","title":"双辽支路葱油饼摊","lon":"121.51672","lat":"31.27182","category":"68","category_name":"快餐厅","address":"杨浦区双辽支路70弄门口黄桥烧饼旁(近许昌路)"},{"poiid":"B2094654D56EABF94593","title":"快客No.1432","lon":"121.51973","lat":"31.27091","category":"117","category_name":"便民商店/便利店","address":"江浦路1283甲"},{"poiid":"B2094757D16FABFC459B","title":"江浦街道经济园区","lon":"121.51863691","lat":"31.270131691","category":"46","category_name":"楼宇","address":"上海周家嘴路2299号"},{"poiid":"B2094655D36CA0F9429E","title":"江浦路控江路","lon":"121.51887","lat":"31.2741","category":"38","category_name":"公交车站","address":""},{"poiid":"B2094654D56EABF5449B","title":"信通浦皓园","lon":"121.52245","lat":"31.270864","category":"47","category_name":"住宅区","address":"上海市杨浦区周家嘴路2408号"},{"poiid":"B2094753D264A3FE449D","title":"争鲜回转寿司(壹丰广场店)","lon":"121.520089","lat":"31.271877","category":"247","category_name":"餐饮美食","address":"上海市 虹口区四川北路1363号B1"},{"poiid":"B2094751D364ABF8479D","title":"大悦城","lon":"121.519608","lat":"31.273337","category":"500","category_name":"未知分类","address":"西藏北路161号"},{"poiid":"B2094757D464AAFB4592","title":"乔家栅 江浦店","lon":"121.520070054","lat":"31.272001793","category":"247","category_name":"餐饮美食","address":"杨浦区江浦路1300号(近周家嘴路)"},{"poiid":"B2094757D16EA0F9479F","title":"东北饺子王","lon":"121.52065","lat":"31.27024","category":"82","category_name":"东北菜","address":"杨浦区江浦路1353号(近控江路)"},{"poiid":"B2094757D469A0FA469A","title":"恬妈尚菜","lon":"121.52200699","lat":"31.27110003","category":"91","category_name":"台湾菜","address":"杨浦区周家嘴路2420号(近江浦路)"},{"poiid":"B2094757D06FA6F44199","title":"许昌路飞虹路","lon":"121.51563269","lat":"31.268809056","category":"260","category_name":"其他","address":"上海杨浦区许昌路飞虹路"},{"poiid":"B2094757D465A1FB499E","title":"马记川味麻辣烫 江浦路店","lon":"121.520042054","lat":"31.270678793","category":"87","category_name":"特色／地方风味餐厅","address":"杨浦区江浦路(近中山北二路)"},{"poiid":"B2094654D56EABFF4693","title":"良友金伴(江浦路)","lon":"121.51958","lat":"31.27244","category":"117","category_name":"便民商店/便利店","address":"江浦路1380-5临"},{"poiid":"B2094750D76CA3F9439C","title":"真功夫(海烟商厦店)","lon":"121.516","lat":"31.2742","category":"68","category_name":"快餐厅","address":"杨浦区控江路1667号海烟商厦(近双辽路)"},{"poiid":"B2094655D26DA4FD459B","title":"上海东亚进修学院","lon":"121.51903","lat":"31.27465","category":"253","category_name":"校园生活","address":"杨浦区控江路1555号上海信息技术大厦B座6楼(近江浦路)"},{"poiid":"B2094654D56EABFA4999","title":"上海第二医科大学新华临床医学院","lon":"121.51764","lat":"31.27413","category":"52","category_name":"高等院校","address":"杨浦区控江路1665"},{"poiid":"B2094757D06AA3FB4093","title":"新华医院放疗科","lon":"121.5175801","lat":"31.272469465","category":"162","category_name":"医院","address":"上海杨浦区控江路1665号(近江浦路)"},{"poiid":"B2094752D66EA2F9469F","title":"初花","lon":"121.516559","lat":"31.271468","category":"247","category_name":"餐饮美食","address":"虹桥路1446号古北湾大酒店3楼(近古北路)"},{"poiid":"B2094757D169A0F84092","title":"小卡灵顿#小P#训练基地","lon":"121.5190041","lat":"31.270696428","category":"500","category_name":"未知分类","address":"上海杨浦区双辽路155弄16号"},{"poiid":"B2094654DB65A2F84092","title":"上海医药高等专科学校继续教育学院","lon":"121.51905","lat":"31.27277","category":"52","category_name":"高等院校","address":"江浦路1379"},{"poiid":"B2094654D56EABF9449B","title":"上海医药高等专科学校临床三部","lon":"121.51905","lat":"31.27277","category":"52","category_name":"高等院校","address":"江浦路1379"},{"poiid":"B2094654D56EABFA4893","title":"新华医院","lon":"121.51764","lat":"31.27412","category":"162","category_name":"医院","address":"杨浦区控江路1665号(近江浦路)"},{"poiid":"B2094757D06FA1FA469F","title":"新华医院急诊大楼","lon":"121.517640149","lat":"31.2741306456","category":"162","category_name":"医院","address":"杨浦区控江路1556号(近江浦路)"},{"poiid":"B2094757D06FA2FF4299","title":"新华医院儿科","lon":"121.51646213","lat":"31.274249013","category":"162","category_name":"医院","address":"杨浦区控江路1665号(近江浦路)"},{"poiid":"B2094757D06FA2F94098","title":"迈玛瑞","lon":"121.51877594","lat":"31.275295257","category":"76","category_name":"上海菜","address":"杨浦区江浦路1526号(近控江路)"},{"poiid":"B2094757D06FA0FF439C","title":"彩虹坊(杨浦店)","lon":"121.51948","lat":"31.27349","category":"75","category_name":"浙江菜","address":"杨浦区江浦路1500号(近控江路)"},{"poiid":"B2094757D06EAAFD4793","title":"江浦路地铁站","lon":"121.518079","lat":"31.2748730376","category":"36","category_name":"地铁站","address":"上海轨道交通 八号线 轨交江浦路站 8"},{"poiid":"B2094757D06FA6F4499C","title":"现代星洲城","lon":"121.518951","lat":"31.269247","category":"47","category_name":"住宅区","address":"上海市杨浦区江浦路1199号"},{"poiid":"B2094757D068A2F54898","title":"新华医院门诊综合楼","lon":"121.517633443","lat":"31.2741272069","category":"162","category_name":"医院","address":"上海市杨浦区控江路1665号"},{"poiid":"B2094757D06FA5F84593","title":"吴记老锅底麻辣火锅(江浦路店)","lon":"121.52023","lat":"31.27258","category":"86","category_name":"火锅店","address":"上海杨浦区江浦路1380号(近控江路)  "},{"poiid":"B2094751DA64A6F9439A","title":"鲜芋仙","lon":"121.519587","lat":"31.271143","category":"247","category_name":"餐饮美食","address":"杨浦区控江路1720号"},{"poiid":"B2094757D06FA7F8459C","title":"食其家(控江路店)","lon":"121.51641082","lat":"31.274255752","category":"95","category_name":"日本料理","address":"杨浦区控江路1667号甲(近双辽路)"},{"poiid":"B2094757D06FABFA4398","title":"永和大王(控江路店)","lon":"121.51695","lat":"31.2742","category":"68","category_name":"快餐厅","address":"上海杨浦区控江路1667号(近江浦路)  "},{"poiid":"B2094757D068A5FE4793","title":"周家嘴路江浦路站(公交145,716,870,962)","lon":"121.520926","lat":"31.271083","category":"38","category_name":"公交车站","address":"上海周家嘴路江浦路"},{"poiid":"B2094655D26CA6FE409E","title":"双辽路200弄小区","lon":"121.5171","lat":"31.27245","category":"47","category_name":"住宅区","address":"上海杨浦区双辽路200弄"},{"poiid":"B2094757D16FA5FE439D","title":"新华医院呼吸监护室","lon":"121.519554103","lat":"31.2708834319","category":"500","category_name":"未知分类","address":null},{"poiid":"B2094757D06FABFA409F","title":"新华医院外科大楼","lon":"121.51646305","lat":"31.274250129","category":"162","category_name":"医院","address":"上海杨浦区控江路1665号(近江浦路)"},{"poiid":"B2094757D068A6F8439A","title":"双辽新村","lon":"121.5162558","lat":"31.270172308","category":"252","category_name":"楼宇机构","address":"上海市杨浦区双辽支路60弄"},{"poiid":"B2094757D06BA2FC409F","title":"邵稼楼 江浦路店","lon":"121.51792907715","lat":"31.276350021362","category":"76","category_name":"上海菜","address":"杨浦区江浦路1527号1-2楼(近本溪路)"},{"poiid":"B2094757D16CA4F8409E","title":"双辽支路","lon":"121.5163852","lat":"31.26985461","category":"500","category_name":"未知分类","address":"上海双辽支路"},{"poiid":"B2094757D068A7F9469C","title":"新华医院科教楼","lon":"121.517176","lat":"31.274434","category":"162","category_name":"医院","address":"上海杨浦区控江路1665号(近江浦路)"},{"poiid":"B2094757D06AAAFF4893","title":"杨浦区教师进修学院附属中学","lon":"121.52025","lat":"31.27081","category":"253","category_name":"校园生活","address":"杨浦区江浦路1322号(近周家嘴路)"},{"poiid":"B2094752DA69A6FD4992","title":"上海K11购物艺术中心","lon":"121.52008","lat":"31.273733","category":"500","category_name":"未知分类","address":"上海市 上海市黄浦区淮海中路300号"},{"poiid":"B2094654D56EABF5499A","title":"阳明新城","lon":"121.5214","lat":"31.269705","category":"47","category_name":"住宅区","address":"阳明新城位于杨浦江浦路1188号"},{"poiid":"B2094757D06BA0FD4798","title":"新华医院口腔科","lon":"121.5174691","lat":"31.274501507","category":"162","category_name":"医院","address":"上海杨浦区控江路1665号(近江浦路)"},{"poiid":"B2094757D06BA7FE419F","title":"悸动台湾正宗烧仙草(江浦路店)","lon":"121.51943206","lat":"31.272819519","category":"113","category_name":"冷饮店","address":"杨浦区江浦路1380号(近控江路)"},{"poiid":"B2094654D56EABFF489B","title":"汽车公寓小区","lon":"121.51963","lat":"31.27365","category":"47","category_name":"住宅区","address":"江浦路1420弄1-17号"},{"poiid":"B2094654D56EABFF479E","title":"思香林面菜馆 杨浦店","lon":"121.52000535327","lat":"31.271909704411","category":"68","category_name":"快餐厅","address":"杨浦区江浦路1380号-2(近控江路)"},{"poiid":"B2094757D66AA7F8439E","title":"筱萍饭店","lon":"121.51975647614","lat":"31.27252126898","category":"68","category_name":"快餐厅","address":"杨浦区江浦路1330号(近周家嘴路)"},{"poiid":"B2094655D26CA6FD429C","title":"飞虹路723弄小区","lon":"121.518","lat":"31.2722","category":"47","category_name":"住宅区","address":"飞虹路723弄"},{"poiid":"B2094757D06AA0F5409D","title":"双辽支路葱油饼摊","lon":"121.51672","lat":"31.27182","category":"68","category_name":"快餐厅","address":"杨浦区双辽支路70弄门口黄桥烧饼旁(近许昌路)"},{"poiid":"B2094654D56EABF94593","title":"快客No.1432","lon":"121.51973","lat":"31.27091","category":"117","category_name":"便民商店/便利店","address":"江浦路1283甲"},{"poiid":"B2094757D16FABFC459B","title":"江浦街道经济园区","lon":"121.51863691","lat":"31.270131691","category":"46","category_name":"楼宇","address":"上海周家嘴路2299号"},{"poiid":"B2094655D36CA0F9429E","title":"江浦路控江路","lon":"121.51887","lat":"31.2741","category":"38","category_name":"公交车站","address":""},{"poiid":"B2094654D56EABF5449B","title":"信通浦皓园","lon":"121.52245","lat":"31.270864","category":"47","category_name":"住宅区","address":"上海市杨浦区周家嘴路2408号"},{"poiid":"B2094753D264A3FE449D","title":"争鲜回转寿司(壹丰广场店)","lon":"121.520089","lat":"31.271877","category":"247","category_name":"餐饮美食","address":"上海市 虹口区四川北路1363号B1"},{"poiid":"B2094751D364ABF8479D","title":"大悦城","lon":"121.519608","lat":"31.273337","category":"500","category_name":"未知分类","address":"西藏北路161号"},{"poiid":"B2094757D464AAFB4592","title":"乔家栅 江浦店","lon":"121.520070054","lat":"31.272001793","category":"247","category_name":"餐饮美食","address":"杨浦区江浦路1300号(近周家嘴路)"},{"poiid":"B2094757D16EA0F9479F","title":"东北饺子王","lon":"121.52065","lat":"31.27024","category":"82","category_name":"东北菜","address":"杨浦区江浦路1353号(近控江路)"},{"poiid":"B2094757D469A0FA469A","title":"恬妈尚菜","lon":"121.52200699","lat":"31.27110003","category":"91","category_name":"台湾菜","address":"杨浦区周家嘴路2420号(近江浦路)"},{"poiid":"B2094757D06FA6F44199","title":"许昌路飞虹路","lon":"121.51563269","lat":"31.268809056","category":"260","category_name":"其他","address":"上海杨浦区许昌路飞虹路"},{"poiid":"B2094757D465A1FB499E","title":"马记川味麻辣烫 江浦路店","lon":"121.520042054","lat":"31.270678793","category":"87","category_name":"特色／地方风味餐厅","address":"杨浦区江浦路(近中山北二路)"},{"poiid":"B2094654D56EABFF4693","title":"良友金伴(江浦路)","lon":"121.51958","lat":"31.27244","category":"117","category_name":"便民商店/便利店","address":"江浦路1380-5临"},{"poiid":"B2094750D76CA3F9439C","title":"真功夫(海烟商厦店)","lon":"121.516","lat":"31.2742","category":"68","category_name":"快餐厅","address":"杨浦区控江路1667号海烟商厦(近双辽路)"},{"poiid":"B2094655D26DA4FD459B","title":"上海东亚进修学院","lon":"121.51903","lat":"31.27465","category":"253","category_name":"校园生活","address":"杨浦区控江路1555号上海信息技术大厦B座6楼(近江浦路)"},{"poiid":"B2094654D56EABFA4999","title":"上海第二医科大学新华临床医学院","lon":"121.51764","lat":"31.27413","category":"52","category_name":"高等院校","address":"杨浦区控江路1665"},{"poiid":"B2094757D06AA3FB4093","title":"新华医院放疗科","lon":"121.5175801","lat":"31.272469465","category":"162","category_name":"医院","address":"上海杨浦区控江路1665号(近江浦路)"},{"poiid":"B2094752D66EA2F9469F","title":"初花","lon":"121.516559","lat":"31.271468","category":"247","category_name":"餐饮美食","address":"虹桥路1446号古北湾大酒店3楼(近古北路)"},{"poiid":"B2094757D169A0F84092","title":"小卡灵顿#小P#训练基地","lon":"121.5190041","lat":"31.270696428","category":"500","category_name":"未知分类","address":"上海杨浦区双辽路155弄16号"},{"poiid":"B2094654DB65A2F84092","title":"上海医药高等专科学校继续教育学院","lon":"121.51905","lat":"31.27277","category":"52","category_name":"高等院校","address":"江浦路1379"},{"poiid":"B2094654D56EABF9449B","title":"上海医药高等专科学校临床三部","lon":"121.51905","lat":"31.27277","category":"52","category_name":"高等院校","address":"江浦路1379"},{"poiid":"B2094654D56EABFA4893","title":"新华医院","lon":"121.51764","lat":"31.27412","category":"162","category_name":"医院","address":"杨浦区控江路1665号(近江浦路)"},{"poiid":"B2094757D06FA1FA469F","title":"新华医院急诊大楼","lon":"121.517640149","lat":"31.2741306456","category":"162","category_name":"医院","address":"杨浦区控江路1556号(近江浦路)"},{"poiid":"B2094757D06FA2FF4299","title":"新华医院儿科","lon":"121.51646213","lat":"31.274249013","category":"162","category_name":"医院","address":"杨浦区控江路1665号(近江浦路)"},{"poiid":"B2094757D06FA2F94098","title":"迈玛瑞","lon":"121.51877594","lat":"31.275295257","category":"76","category_name":"上海菜","address":"杨浦区江浦路1526号(近控江路)"},{"poiid":"B2094757D06FA0FF439C","title":"彩虹坊(杨浦店)","lon":"121.51948","lat":"31.27349","category":"75","category_name":"浙江菜","address":"杨浦区江浦路1500号(近控江路)"},{"poiid":"B2094757D06EAAFD4793","title":"江浦路地铁站","lon":"121.518079","lat":"31.2748730376","category":"36","category_name":"地铁站","address":"上海轨道交通 八号线 轨交江浦路站 8"},{"poiid":"B2094757D06FA6F4499C","title":"现代星洲城","lon":"121.518951","lat":"31.269247","category":"47","category_name":"住宅区","address":"上海市杨浦区江浦路1199号"},{"poiid":"B2094757D068A2F54898","title":"新华医院门诊综合楼","lon":"121.517633443","lat":"31.2741272069","category":"162","category_name":"医院","address":"上海市杨浦区控江路1665号"},{"poiid":"B2094757D06FA5F84593","title":"吴记老锅底麻辣火锅(江浦路店)","lon":"121.52023","lat":"31.27258","category":"86","category_name":"火锅店","address":"上海杨浦区江浦路1380号(近控江路)  "},{"poiid":"B2094751DA64A6F9439A","title":"鲜芋仙","lon":"121.519587","lat":"31.271143","category":"247","category_name":"餐饮美食","address":"杨浦区控江路1720号"},{"poiid":"B2094757D06FA7F8459C","title":"食其家(控江路店)","lon":"121.51641082","lat":"31.274255752","category":"95","category_name":"日本料理","address":"杨浦区控江路1667号甲(近双辽路)"},{"poiid":"B2094757D06FABFA4398","title":"永和大王(控江路店)","lon":"121.51695","lat":"31.2742","category":"68","category_name":"快餐厅","address":"上海杨浦区控江路1667号(近江浦路)  "},{"poiid":"B2094757D068A5FE4793","title":"周家嘴路江浦路站(公交145,716,870,962)","lon":"121.520926","lat":"31.271083","category":"38","category_name":"公交车站","address":"上海周家嘴路江浦路"},{"poiid":"B2094655D26CA6FE409E","title":"双辽路200弄小区","lon":"121.5171","lat":"31.27245","category":"47","category_name":"住宅区","address":"上海杨浦区双辽路200弄"},{"poiid":"B2094757D16FA5FE439D","title":"新华医院呼吸监护室","lon":"121.519554103","lat":"31.2708834319","category":"500","category_name":"未知分类","address":null},{"poiid":"B2094757D06FABFA409F","title":"新华医院外科大楼","lon":"121.51646305","lat":"31.274250129","category":"162","category_name":"医院","address":"上海杨浦区控江路1665号(近江浦路)"},{"poiid":"B2094757D068A6F8439A","title":"双辽新村","lon":"121.5162558","lat":"31.270172308","category":"252","category_name":"楼宇机构","address":"上海市杨浦区双辽支路60弄"},{"poiid":"B2094757D06BA2FC409F","title":"邵稼楼 江浦路店","lon":"121.51792907715","lat":"31.276350021362","category":"76","category_name":"上海菜","address":"杨浦区江浦路1527号1-2楼(近本溪路)"},{"poiid":"B2094757D16CA4F8409E","title":"双辽支路","lon":"121.5163852","lat":"31.26985461","category":"500","category_name":"未知分类","address":"上海双辽支路"},{"poiid":"B2094757D068A7F9469C","title":"新华医院科教楼","lon":"121.517176","lat":"31.274434","category":"162","category_name":"医院","address":"上海杨浦区控江路1665号(近江浦路)"},{"poiid":"B2094757D06AAAFF4893","title":"杨浦区教师进修学院附属中学","lon":"121.52025","lat":"31.27081","category":"253","category_name":"校园生活","address":"杨浦区江浦路1322号(近周家嘴路)"},{"poiid":"B2094752DA69A6FD4992","title":"上海K11购物艺术中心","lon":"121.52008","lat":"31.273733","category":"500","category_name":"未知分类","address":"上海市 上海市黄浦区淮海中路300号"},{"poiid":"B2094654D56EABF5499A","title":"阳明新城","lon":"121.5214","lat":"31.269705","category":"47","category_name":"住宅区","address":"阳明新城位于杨浦江浦路1188号"},{"poiid":"B2094757D06BA0FD4798","title":"新华医院口腔科","lon":"121.5174691","lat":"31.274501507","category":"162","category_name":"医院","address":"上海杨浦区控江路1665号(近江浦路)"},{"poiid":"B2094757D06BA7FE419F","title":"悸动台湾正宗烧仙草(江浦路店)","lon":"121.51943206","lat":"31.272819519","category":"113","category_name":"冷饮店","address":"杨浦区江浦路1380号(近控江路)"},{"poiid":"B2094654D56EABFF489B","title":"汽车公寓小区","lon":"121.51963","lat":"31.27365","category":"47","category_name":"住宅区","address":"江浦路1420弄1-17号"},{"poiid":"B2094654D56EABFF479E","title":"思香林面菜馆 杨浦店","lon":"121.52000535327","lat":"31.271909704411","category":"68","category_name":"快餐厅","address":"杨浦区江浦路1380号-2(近控江路)"},{"poiid":"B2094757D66AA7F8439E","title":"筱萍饭店","lon":"121.51975647614","lat":"31.27252126898","category":"68","category_name":"快餐厅","address":"杨浦区江浦路1330号(近周家嘴路)"},{"poiid":"B2094655D26CA6FD429C","title":"飞虹路723弄小区","lon":"121.518","lat":"31.2722","category":"47","category_name":"住宅区","address":"飞虹路723弄"},{"poiid":"B2094757D06AA0F5409D","title":"双辽支路葱油饼摊","lon":"121.51672","lat":"31.27182","category":"68","category_name":"快餐厅","address":"杨浦区双辽支路70弄门口黄桥烧饼旁(近许昌路)"},{"poiid":"B2094654D56EABF94593","title":"快客No.1432","lon":"121.51973","lat":"31.27091","category":"117","category_name":"便民商店/便利店","address":"江浦路1283甲"},{"poiid":"B2094757D16FABFC459B","title":"江浦街道经济园区","lon":"121.51863691","lat":"31.270131691","category":"46","category_name":"楼宇","address":"上海周家嘴路2299号"},{"poiid":"B2094655D36CA0F9429E","title":"江浦路控江路","lon":"121.51887","lat":"31.2741","category":"38","category_name":"公交车站","address":""},{"poiid":"B2094654D56EABF5449B","title":"信通浦皓园","lon":"121.52245","lat":"31.270864","category":"47","category_name":"住宅区","address":"上海市杨浦区周家嘴路2408号"},{"poiid":"B2094753D264A3FE449D","title":"争鲜回转寿司(壹丰广场店)","lon":"121.520089","lat":"31.271877","category":"247","category_name":"餐饮美食","address":"上海市 虹口区四川北路1363号B1"},{"poiid":"B2094751D364ABF8479D","title":"大悦城","lon":"121.519608","lat":"31.273337","category":"500","category_name":"未知分类","address":"西藏北路161号"},{"poiid":"B2094757D464AAFB4592","title":"乔家栅 江浦店","lon":"121.520070054","lat":"31.272001793","category":"247","category_name":"餐饮美食","address":"杨浦区江浦路1300号(近周家嘴路)"},{"poiid":"B2094757D16EA0F9479F","title":"东北饺子王","lon":"121.52065","lat":"31.27024","category":"82","category_name":"东北菜","address":"杨浦区江浦路1353号(近控江路)"},{"poiid":"B2094757D469A0FA469A","title":"恬妈尚菜","lon":"121.52200699","lat":"31.27110003","category":"91","category_name":"台湾菜","address":"杨浦区周家嘴路2420号(近江浦路)"},{"poiid":"B2094757D06FA6F44199","title":"许昌路飞虹路","lon":"121.51563269","lat":"31.268809056","category":"260","category_name":"其他","address":"上海杨浦区许昌路飞虹路"},{"poiid":"B2094757D465A1FB499E","title":"马记川味麻辣烫 江浦路店","lon":"121.520042054","lat":"31.270678793","category":"87","category_name":"特色／地方风味餐厅","address":"杨浦区江浦路(近中山北二路)"},{"poiid":"B2094654D56EABFF4693","title":"良友金伴(江浦路)","lon":"121.51958","lat":"31.27244","category":"117","category_name":"便民商店/便利店","address":"江浦路1380-5临"},{"poiid":"B2094750D76CA3F9439C","title":"真功夫(海烟商厦店)","lon":"121.516","lat":"31.2742","category":"68","category_name":"快餐厅","address":"杨浦区控江路1667号海烟商厦(近双辽路)"},{"poiid":"B2094655D26DA4FD459B","title":"上海东亚进修学院","lon":"121.51903","lat":"31.27465","category":"253","category_name":"校园生活","address":"杨浦区控江路1555号上海信息技术大厦B座6楼(近江浦路)"},{"poiid":"B2094654D56EABFA4999","title":"上海第二医科大学新华临床医学院","lon":"121.51764","lat":"31.27413","category":"52","category_name":"高等院校","address":"杨浦区控江路1665"},{"poiid":"B2094757D06AA3FB4093","title":"新华医院放疗科","lon":"121.5175801","lat":"31.272469465","category":"162","category_name":"医院","address":"上海杨浦区控江路1665号(近江浦路)"},{"poiid":"B2094752D66EA2F9469F","title":"初花","lon":"121.516559","lat":"31.271468","category":"247","category_name":"餐饮美食","address":"虹桥路1446号古北湾大酒店3楼(近古北路)"},{"poiid":"B2094757D169A0F84092","title":"小卡灵顿#小P#训练基地","lon":"121.5190041","lat":"31.270696428","category":"500","category_name":"未知分类","address":"上海杨浦区双辽路155弄16号"},{"poiid":"B2094654DB65A2F84092","title":"上海医药高等专科学校继续教育学院","lon":"121.51905","lat":"31.27277","category":"52","category_name":"高等院校","address":"江浦路1379"},{"poiid":"B2094654D56EABF9449B","title":"上海医药高等专科学校临床三部","lon":"121.51905","lat":"31.27277","category":"52","category_name":"高等院校","address":"江浦路1379"},{"poiid":"B2094654D56EABFA4893","title":"新华医院","lon":"121.51764","lat":"31.27412","category":"162","category_name":"医院","address":"杨浦区控江路1665号(近江浦路)"},{"poiid":"B2094757D06FA1FA469F","title":"新华医院急诊大楼","lon":"121.517640149","lat":"31.2741306456","category":"162","category_name":"医院","address":"杨浦区控江路1556号(近江浦路)"},{"poiid":"B2094757D06FA2FF4299","title":"新华医院儿科","lon":"121.51646213","lat":"31.274249013","category":"162","category_name":"医院","address":"杨浦区控江路1665号(近江浦路)"},{"poiid":"B2094757D06FA2F94098","title":"迈玛瑞","lon":"121.51877594","lat":"31.275295257","category":"76","category_name":"上海菜","address":"杨浦区江浦路1526号(近控江路)"},{"poiid":"B2094757D06FA0FF439C","title":"彩虹坊(杨浦店)","lon":"121.51948","lat":"31.27349","category":"75","category_name":"浙江菜","address":"杨浦区江浦路1500号(近控江路)"},{"poiid":"B2094757D06EAAFD4793","title":"江浦路地铁站","lon":"121.518079","lat":"31.2748730376","category":"36","category_name":"地铁站","address":"上海轨道交通 八号线 轨交江浦路站 8"},{"poiid":"B2094757D06FA6F4499C","title":"现代星洲城","lon":"121.518951","lat":"31.269247","category":"47","category_name":"住宅区","address":"上海市杨浦区江浦路1199号"},{"poiid":"B2094757D068A2F54898","title":"新华医院门诊综合楼","lon":"121.517633443","lat":"31.2741272069","category":"162","category_name":"医院","address":"上海市杨浦区控江路1665号"},{"poiid":"B2094757D06FA5F84593","title":"吴记老锅底麻辣火锅(江浦路店)","lon":"121.52023","lat":"31.27258","category":"86","category_name":"火锅店","address":"上海杨浦区江浦路1380号(近控江路)  "},{"poiid":"B2094751DA64A6F9439A","title":"鲜芋仙","lon":"121.519587","lat":"31.271143","category":"247","category_name":"餐饮美食","address":"杨浦区控江路1720号"},{"poiid":"B2094757D06FA7F8459C","title":"食其家(控江路店)","lon":"121.51641082","lat":"31.274255752","category":"95","category_name":"日本料理","address":"杨浦区控江路1667号甲(近双辽路)"},{"poiid":"B2094757D06FABFA4398","title":"永和大王(控江路店)","lon":"121.51695","lat":"31.2742","category":"68","category_name":"快餐厅","address":"上海杨浦区控江路1667号(近江浦路)  "},{"poiid":"B2094757D068A5FE4793","title":"周家嘴路江浦路站(公交145,716,870,962)","lon":"121.520926","lat":"31.271083","category":"38","category_name":"公交车站","address":"上海周家嘴路江浦路"},{"poiid":"B2094655D26CA6FE409E","title":"双辽路200弄小区","lon":"121.5171","lat":"31.27245","category":"47","category_name":"住宅区","address":"上海杨浦区双辽路200弄"},{"poiid":"B2094757D16FA5FE439D","title":"新华医院呼吸监护室","lon":"121.519554103","lat":"31.2708834319","category":"500","category_name":"未知分类","address":null},{"poiid":"B2094757D06FABFA409F","title":"新华医院外科大楼","lon":"121.51646305","lat":"31.274250129","category":"162","category_name":"医院","address":"上海杨浦区控江路1665号(近江浦路)"},{"poiid":"B2094757D068A6F8439A","title":"双辽新村","lon":"121.5162558","lat":"31.270172308","category":"252","category_name":"楼宇机构","address":"上海市杨浦区双辽支路60弄"},{"poiid":"B2094757D06BA2FC409F","title":"邵稼楼 江浦路店","lon":"121.51792907715","lat":"31.276350021362","category":"76","category_name":"上海菜","address":"杨浦区江浦路1527号1-2楼(近本溪路)"},{"poiid":"B2094757D16CA4F8409E","title":"双辽支路","lon":"121.5163852","lat":"31.26985461","category":"500","category_name":"未知分类","address":"上海双辽支路"},{"poiid":"B2094757D068A7F9469C","title":"新华医院科教楼","lon":"121.517176","lat":"31.274434","category":"162","category_name":"医院","address":"上海杨浦区控江路1665号(近江浦路)"},{"poiid":"B2094757D06AAAFF4893","title":"杨浦区教师进修学院附属中学","lon":"121.52025","lat":"31.27081","category":"253","category_name":"校园生活","address":"杨浦区江浦路1322号(近周家嘴路)"},{"poiid":"B2094752DA69A6FD4992","title":"上海K11购物艺术中心","lon":"121.52008","lat":"31.273733","category":"500","category_name":"未知分类","address":"上海市 上海市黄浦区淮海中路300号"},{"poiid":"B2094654D56EABF5499A","title":"阳明新城","lon":"121.5214","lat":"31.269705","category":"47","category_name":"住宅区","address":"阳明新城位于杨浦江浦路1188号"},{"poiid":"B2094757D06BA0FD4798","title":"新华医院口腔科","lon":"121.5174691","lat":"31.274501507","category":"162","category_name":"医院","address":"上海杨浦区控江路1665号(近江浦路)"},{"poiid":"B2094757D06BA7FE419F","title":"悸动台湾正宗烧仙草(江浦路店)","lon":"121.51943206","lat":"31.272819519","category":"113","category_name":"冷饮店","address":"杨浦区江浦路1380号(近控江路)"},{"poiid":"B2094654D56EABFF489B","title":"汽车公寓小区","lon":"121.51963","lat":"31.27365","category":"47","category_name":"住宅区","address":"江浦路1420弄1-17号"},{"poiid":"B2094654D56EABFF479E","title":"思香林面菜馆 杨浦店","lon":"121.52000535327","lat":"31.271909704411","category":"68","category_name":"快餐厅","address":"杨浦区江浦路1380号-2(近控江路)"},{"poiid":"B2094757D66AA7F8439E","title":"筱萍饭店","lon":"121.51975647614","lat":"31.27252126898","category":"68","category_name":"快餐厅","address":"杨浦区江浦路1330号(近周家嘴路)"},{"poiid":"B2094655D26CA6FD429C","title":"飞虹路723弄小区","lon":"121.518","lat":"31.2722","category":"47","category_name":"住宅区","address":"飞虹路723弄"},{"poiid":"B2094757D06AA0F5409D","title":"双辽支路葱油饼摊","lon":"121.51672","lat":"31.27182","category":"68","category_name":"快餐厅","address":"杨浦区双辽支路70弄门口黄桥烧饼旁(近许昌路)"},{"poiid":"B2094654D56EABF94593","title":"快客No.1432","lon":"121.51973","lat":"31.27091","category":"117","category_name":"便民商店/便利店","address":"江浦路1283甲"},{"poiid":"B2094757D16FABFC459B","title":"江浦街道经济园区","lon":"121.51863691","lat":"31.270131691","category":"46","category_name":"楼宇","address":"上海周家嘴路2299号"},{"poiid":"B2094655D36CA0F9429E","title":"江浦路控江路","lon":"121.51887","lat":"31.2741","category":"38","category_name":"公交车站","address":""},{"poiid":"B2094654D56EABF5449B","title":"信通浦皓园","lon":"121.52245","lat":"31.270864","category":"47","category_name":"住宅区","address":"上海市杨浦区周家嘴路2408号"},{"poiid":"B2094753D264A3FE449D","title":"争鲜回转寿司(壹丰广场店)","lon":"121.520089","lat":"31.271877","category":"247","category_name":"餐饮美食","address":"上海市 虹口区四川北路1363号B1"},{"poiid":"B2094751D364ABF8479D","title":"大悦城","lon":"121.519608","lat":"31.273337","category":"500","category_name":"未知分类","address":"西藏北路161号"},{"poiid":"B2094757D464AAFB4592","title":"乔家栅 江浦店","lon":"121.520070054","lat":"31.272001793","category":"247","category_name":"餐饮美食","address":"杨浦区江浦路1300号(近周家嘴路)"},{"poiid":"B2094757D16EA0F9479F","title":"东北饺子王","lon":"121.52065","lat":"31.27024","category":"82","category_name":"东北菜","address":"杨浦区江浦路1353号(近控江路)"},{"poiid":"B2094757D469A0FA469A","title":"恬妈尚菜","lon":"121.52200699","lat":"31.27110003","category":"91","category_name":"台湾菜","address":"杨浦区周家嘴路2420号(近江浦路)"},{"poiid":"B2094757D06FA6F44199","title":"许昌路飞虹路","lon":"121.51563269","lat":"31.268809056","category":"260","category_name":"其他","address":"上海杨浦区许昌路飞虹路"},{"poiid":"B2094757D465A1FB499E","title":"马记川味麻辣烫 江浦路店","lon":"121.520042054","lat":"31.270678793","category":"87","category_name":"特色／地方风味餐厅","address":"杨浦区江浦路(近中山北二路)"},{"poiid":"B2094654D56EABFF4693","title":"良友金伴(江浦路)","lon":"121.51958","lat":"31.27244","category":"117","category_name":"便民商店/便利店","address":"江浦路1380-5临"},{"poiid":"B2094750D76CA3F9439C","title":"真功夫(海烟商厦店)","lon":"121.516","lat":"31.2742","category":"68","category_name":"快餐厅","address":"杨浦区控江路1667号海烟商厦(近双辽路)"},{"poiid":"B2094655D26DA4FD459B","title":"上海东亚进修学院","lon":"121.51903","lat":"31.27465","category":"253","category_name":"校园生活","address":"杨浦区控江路1555号上海信息技术大厦B座6楼(近江浦路)"},{"poiid":"B2094654D56EABFA4999","title":"上海第二医科大学新华临床医学院","lon":"121.51764","lat":"31.27413","category":"52","category_name":"高等院校","address":"杨浦区控江路1665"},{"poiid":"B2094757D06AA3FB4093","title":"新华医院放疗科","lon":"121.5175801","lat":"31.272469465","category":"162","category_name":"医院","address":"上海杨浦区控江路1665号(近江浦路)"},{"poiid":"B2094752D66EA2F9469F","title":"初花","lon":"121.516559","lat":"31.271468","category":"247","category_name":"餐饮美食","address":"虹桥路1446号古北湾大酒店3楼(近古北路)"},{"poiid":"B2094757D169A0F84092","title":"小卡灵顿#小P#训练基地","lon":"121.5190041","lat":"31.270696428","category":"500","category_name":"未知分类","address":"上海杨浦区双辽路155弄16号"},{"poiid":"B2094654DB65A2F84092","title":"上海医药高等专科学校继续教育学院","lon":"121.51905","lat":"31.27277","category":"52","category_name":"高等院校","address":"江浦路1379"},{"poiid":"B2094654D56EABF9449B","title":"上海医药高等专科学校临床三部","lon":"121.51905","lat":"31.27277","category":"52","category_name":"高等院校","address":"江浦路1379"}]