[{"poiid":"B2094757D06FA3F9429C","title":"银河宾馆","lon":"121.41138860008414","lat":"31.20410764288778","category":"214","category_name":"四星级宾馆","address":"长宁区中山西路888号银河宾馆内(近延安西路)"},{"poiid":"B2094655D26FA5FE4299","title":"东华大学(延安西路校区)","lon":"121.41384","lat":"31.20653","category":"671","category_name":"高校中心点","address":"上海市长宁区延安西路1882号"},{"poiid":"B2094655D26EA5FD4099","title":"虹桥宾馆","lon":"121.41060904662709","lat":"31.20369027936784","category":"214","category_name":"四星级宾馆","address":"上海市长宁区延安西路2000号(近中山西路口)"},{"poiid":"B2094757D06FA3F5459B","title":"唐宫(银河店)","lon":"121.4118","lat":"31.20395","category":"72","category_name":"广东菜","address":"长宁区中山西路888号银河宾馆2楼(近延安西路)"},{"poiid":"B2094757D06FA6FB479D","title":"柚子(虹桥店)","lon":"121.40877","lat":"31.20379","category":"95","category_name":"日本料理","address":"长宁区仙霞路8号仲盛金融中心2楼"},{"poiid":"B2094655D26DA3FD459E","title":"上海国际贸易中心","lon":"121.41","lat":"31.2082","category":"46","category_name":"楼宇","address":"上海市长宁区延安西路2201号"},{"poiid":"B2094750DB6CA0FE449A","title":"纽斯韩式汗蒸会所","lon":"121.411201","lat":"31.20803","category":"148","category_name":"美容美发店","address":null},{"poiid":"B2094757D068A5FF409C","title":"上海内环线高架路","lon":"121.412181378","lat":"31.2059787732","category":"260","category_name":"其他","address":"上海市内环线高架路"},{"poiid":"B2094654DB65A3FC469F","title":"东华大学-莱佛士国际设计学院","lon":"121.4128","lat":"31.20497","category":"671","category_name":"高校中心点","address":"上海市长宁区延安西路1882号"},{"poiid":"B2094655D269AAFB429E","title":"银河宾馆宴会厅","lon":"121.4113","lat":"31.20401","category":"247","category_name":"餐饮美食","address":"长宁区中山西路888号银河宾馆内(近延安西路)查看地图"},{"poiid":"B2094655D26AA7FB469E","title":"一兆韦德虹桥店","lon":"121.41033","lat":"31.20403","category":"247","category_name":"餐饮美食","address":"长宁区延安西路2000号虹桥宾馆3楼(近中山西路)"},{"poiid":"B2094757D069A7F94493","title":"东华大学 旭日楼","lon":"121.412886526","lat":"31.2028334153","category":"253","category_name":"校园生活","address":"上海长宁区延安西路1882号东华大学延安路校区"},{"poiid":"B2094751D26DA0FE409A","title":"古北国际财富中心二期","lon":"121.41","lat":"31.2036","category":"252","category_name":"楼宇机构","address":"红宝石路200号"},{"poiid":"B2094654DB6BA7FE4393","title":"澳门豆捞坊(仲盛金融中心)","lon":"121.40811","lat":"31.20396","category":"86","category_name":"火锅店","address":"长宁区延安西路2067号仲盛金融中心2楼(近仙霞路)"},{"poiid":"B2094757D16FA3FD4698","title":"甬府酒楼","lon":"121.41141408","lat":"31.203946917","category":"75","category_name":"浙江菜","address":"长宁区中山西路888号银河宾馆1楼(近延安西路)"},{"poiid":"B2094757D065A4FB4898","title":"城日本料理","lon":"121.4104","lat":"31.20364","category":"95","category_name":"日本料理","address":"长宁区延安西路2000号虹桥宾馆1号门1楼(近中山西路)"},{"poiid":"B2094655D26EAAF5449C","title":"银河咖啡厅","lon":"121.4113","lat":"31.20401","category":"65","category_name":"咖啡厅","address":"长宁区中山西路888号银河宾馆1楼(近延安西路)"},{"poiid":"B2094655D268ABFF4092","title":"内环延安西路立交桥","lon":"121.41219","lat":"31.20563","category":"250","category_name":"公园户外","address":""},{"poiid":"B2094655D26EA7FC4292","title":"莫泰268(上海虹桥开发区店)","lon":"121.41212","lat":"31.20283","category":"250","category_name":"公园户外","address":"上海市长宁区中山西路906号(近新华路)"},{"poiid":"B2094753D569ABFD439C","title":"鸟心","lon":"121.411972","lat":"31.205631","category":"500","category_name":"未知分类","address":"上海市 仙霞路99号尚嘉中心B2楼"},{"poiid":"B2094757D16CA7FF429A","title":"虹桥宾馆 虹苑厅","lon":"121.41009","lat":"31.20364","category":"76","category_name":"上海菜","address":"长宁区延安西路2000号虹桥宾馆1楼(近中山西路)"},{"poiid":"B2094757D66CA3FE4493","title":"小红楼203","lon":"121.411216386","lat":"31.2056514504","category":"247","category_name":"餐饮美食","address":null},{"poiid":"B2094757D16EA0FA439B","title":"樱川","lon":"121.411448586","lat":"31.2039649174","category":"247","category_name":"餐饮美食","address":"上海市长宁区中山西路888号银河宾馆二楼"},{"poiid":"B2094753D464A7FD4098","title":"南小馆","lon":"121.412155","lat":"31.205631","category":"247","category_name":"餐饮美食","address":"上海市 尚嘉中心"},{"poiid":"B2094750D76DA6FC469B","title":"空海日本料理","lon":"121.41","lat":"31.2039","category":"95","category_name":"日本料理","address":"长宁区延安西路2000号虹桥宾馆大厅内(近中山西路)"},{"poiid":"B2094654D56BA0FA4592","title":"虹桥豪苑","lon":"121.40938","lat":"31.207148","category":"47","category_name":"住宅区","address":"上海长宁区紫云路118弄"},{"poiid":"B2094655D268A0F94198","title":"花园餐厅","lon":"121.41131","lat":"31.20401","category":"76","category_name":"上海菜","address":"长宁区中山西路888号银河宾馆3楼(近延安西路)"},{"poiid":"B2094751D26FA2F8439B","title":"中山医院","lon":"121.411529","lat":"31.205919","category":"162","category_name":"医院","address":null},{"poiid":"B2094757D06BA4F8489B","title":"zeta villa","lon":"121.411146786","lat":"31.2055030475","category":"500","category_name":"未知分类","address":"上海紫云路118号虹桥豪苑4号楼底层"},{"poiid":"B2094654D564A3FD439F","title":"V8club","lon":"121.4113","lat":"31.204","category":"170","category_name":"KTV","address":"中山西路888号银河宾馆2层"},{"poiid":"B2094654D564A7F84592","title":"上海喜天游大酒店","lon":"121.41246","lat":"31.20543","category":"250","category_name":"公园户外","address":"上海市长宁区中山西路827号"},{"poiid":"B2094757D068ABFB469F","title":"东华大学(延安路校区)二教","lon":"121.413879","lat":"31.206532","category":"253","category_name":"校园生活","address":"上海市长宁区延安西路1882号 东华大学 第二教学楼"},{"poiid":"B2094654D564A3FD439E","title":"花月日本料理","lon":"121.4113","lat":"31.20401","category":"95","category_name":"日本料理","address":"中山西路888号银河宾馆2楼近延安西路"},{"poiid":"B2094757D06FAAF4409E","title":"延安路高架外灘方向","lon":"121.413614","lat":"31.20365","category":"500","category_name":"未知分类","address":"上海延安路"},{"poiid":"B2094757D76AA1FE449A","title":"紫云路福建沙县特色营养小吃","lon":"121.409192","lat":"31.205454","category":"68","category_name":"快餐厅","address":"长宁区紫云路联建新村1号101室(近紫云大厦)"},{"poiid":"B2094752D769A2FE4092","title":"本家","lon":"121.412352","lat":"31.207938","category":"247","category_name":"餐饮美食","address":"天山路1900号(近延安西路)"},{"poiid":"B2094757D06AA1F8449A","title":"かつ膳","lon":"121.40834591","lat":"31.206333207","category":"95","category_name":"日本料理","address":"长宁区遵义路100号上海城5楼(紫云西路口)"},{"poiid":"B2094753D765A0FC489F","title":"糯美人韩国年糕火锅","lon":"121.408226","lat":"31.204523","category":"96","category_name":"韩国料理","address":"长宁区仙霞路8号仲盛金融中心2楼(近延安西路口)"},{"poiid":"B2094655D268A0F5479B","title":"钢琴酒吧KTV","lon":"121.41131","lat":"31.20401","category":"170","category_name":"KTV","address":""},{"poiid":"B2094655D264A7FB4993","title":"联建社区卫生服务站","lon":"121.40971","lat":"31.20558","category":"162","category_name":"医院","address":""},{"poiid":"B2094655D26EA4F84993","title":"平壤馆","lon":"121.41214923858","lat":"31.204814543329","category":"247","category_name":"餐饮美食","address":"中山西路888号银河宾馆1楼近延安西路"},{"poiid":"B2094753D46AA0F5419C","title":"尚嘉中心","lon":"121.409927","lat":"31.204006","category":"500","category_name":"未知分类","address":"上海市 长宁区仙霞路99号"},{"poiid":"B2094757D66CAAFF429B","title":"Yang's House","lon":"121.411394586","lat":"31.2056599505","category":"500","category_name":"未知分类","address":"上海市长宁区紫云路"},{"poiid":"B2094757D16AA2F44698","title":"和之美","lon":"121.40867363","lat":"31.20410942","category":"95","category_name":"日本料理","address":"长宁区仙霞路1号(近延安西路)"},{"poiid":"B2094654DB64AAF5499F","title":"百花园","lon":"121.41019","lat":"31.20399","category":"196","category_name":"公园","address":"延安西路2000"},{"poiid":"B2094655D36DA7F8489C","title":"中山西路新华路","lon":"121.41206","lat":"31.20396","category":"38","category_name":"公交车站","address":""},{"poiid":"B2094757D06AAAFF419A","title":"虹桥宾馆(礼宾部)","lon":"121.409612586","lat":"31.2058769548","category":"217","category_name":"旅馆招待所","address":"上海市长宁区延安西路2000号"},{"poiid":"B2094654D56BA0FA439C","title":"中紫小区","lon":"121.41093","lat":"31.207148","category":"47","category_name":"住宅区","address":"中山西路800弄53"},{"poiid":"B2094750D76EA1FC489D","title":"G.HAUSLIVEHOUSE&CLUB","lon":"121.411","lat":"31.204","category":"269","category_name":"烧烤","address":"中山西路888号银河宾馆2楼(近延安西路)"},{"poiid":"B2094654D564A7F84699","title":"东华大学-拉萨尔国际设计学院","lon":"121.4128","lat":"31.20497","category":"52","category_name":"高等院校","address":"新华路832"},{"poiid":"B2094757D06FA3F9429C","title":"银河宾馆","lon":"121.41138860008414","lat":"31.20410764288778","category":"214","category_name":"四星级宾馆","address":"长宁区中山西路888号银河宾馆内(近延安西路)"},{"poiid":"B2094655D26FA5FE4299","title":"东华大学(延安西路校区)","lon":"121.41384","lat":"31.20653","category":"671","category_name":"高校中心点","address":"上海市长宁区延安西路1882号"},{"poiid":"B2094655D26EA5FD4099","title":"虹桥宾馆","lon":"121.41060904662709","lat":"31.20369027936784","category":"214","category_name":"四星级宾馆","address":"上海市长宁区延安西路2000号(近中山西路口)"},{"poiid":"B2094757D06FA3F5459B","title":"唐宫(银河店)","lon":"121.4118","lat":"31.20395","category":"72","category_name":"广东菜","address":"长宁区中山西路888号银河宾馆2楼(近延安西路)"},{"poiid":"B2094757D06FA6FB479D","title":"柚子(虹桥店)","lon":"121.40877","lat":"31.20379","category":"95","category_name":"日本料理","address":"长宁区仙霞路8号仲盛金融中心2楼"},{"poiid":"B2094655D26DA3FD459E","title":"上海国际贸易中心","lon":"121.41","lat":"31.2082","category":"46","category_name":"楼宇","address":"上海市长宁区延安西路2201号"},{"poiid":"B2094750DB6CA0FE449A","title":"纽斯韩式汗蒸会所","lon":"121.411201","lat":"31.20803","category":"148","category_name":"美容美发店","address":null},{"poiid":"B2094757D068A5FF409C","title":"上海内环线高架路","lon":"121.412181378","lat":"31.2059787732","category":"260","category_name":"其他","address":"上海市内环线高架路"},{"poiid":"B2094654DB65A3FC469F","title":"东华大学-莱佛士国际设计学院","lon":"121.4128","lat":"31.20497","category":"671","category_name":"高校中心点","address":"上海市长宁区延安西路1882号"},{"poiid":"B2094655D269AAFB429E","title":"银河宾馆宴会厅","lon":"121.4113","lat":"31.20401","category":"247","category_name":"餐饮美食","address":"长宁区中山西路888号银河宾馆内(近延安西路)查看地图"},{"poiid":"B2094655D26AA7FB469E","title":"一兆韦德虹桥店","lon":"121.41033","lat":"31.20403","category":"247","category_name":"餐饮美食","address":"长宁区延安西路2000号虹桥宾馆3楼(近中山西路)"},{"poiid":"B2094757D069A7F94493","title":"东华大学 旭日楼","lon":"121.412886526","lat":"31.2028334153","category":"253","category_name":"校园生活","address":"上海长宁区延安西路1882号东华大学延安路校区"},{"poiid":"B2094751D26DA0FE409A","title":"古北国际财富中心二期","lon":"121.41","lat":"31.2036","category":"252","category_name":"楼宇机构","address":"红宝石路200号"},{"poiid":"B2094654DB6BA7FE4393","title":"澳门豆捞坊(仲盛金融中心)","lon":"121.40811","lat":"31.20396","category":"86","category_name":"火锅店","address":"长宁区延安西路2067号仲盛金融中心2楼(近仙霞路)"},{"poiid":"B2094757D16FA3FD4698","title":"甬府酒楼","lon":"121.41141408","lat":"31.203946917","category":"75","category_name":"浙江菜","address":"长宁区中山西路888号银河宾馆1楼(近延安西路)"},{"poiid":"B2094757D065A4FB4898","title":"城日本料理","lon":"121.4104","lat":"31.20364","category":"95","category_name":"日本料理","address":"长宁区延安西路2000号虹桥宾馆1号门1楼(近中山西路)"},{"poiid":"B2094655D26EAAF5449C","title":"银河咖啡厅","lon":"121.4113","lat":"31.20401","category":"65","category_name":"咖啡厅","address":"长宁区中山西路888号银河宾馆1楼(近延安西路)"},{"poiid":"B2094655D268ABFF4092","title":"内环延安西路立交桥","lon":"121.41219","lat":"31.20563","category":"250","category_name":"公园户外","address":""},{"poiid":"B2094655D26EA7FC4292","title":"莫泰268(上海虹桥开发区店)","lon":"121.41212","lat":"31.20283","category":"250","category_name":"公园户外","address":"上海市长宁区中山西路906号(近新华路)"},{"poiid":"B2094753D569ABFD439C","title":"鸟心","lon":"121.411972","lat":"31.205631","category":"500","category_name":"未知分类","address":"上海市 仙霞路99号尚嘉中心B2楼"},{"poiid":"B2094757D16CA7FF429A","title":"虹桥宾馆 虹苑厅","lon":"121.41009","lat":"31.20364","category":"76","category_name":"上海菜","address":"长宁区延安西路2000号虹桥宾馆1楼(近中山西路)"},{"poiid":"B2094757D66CA3FE4493","title":"小红楼203","lon":"121.411216386","lat":"31.2056514504","category":"247","category_name":"餐饮美食","address":null},{"poiid":"B2094757D16EA0FA439B","title":"樱川","lon":"121.411448586","lat":"31.2039649174","category":"247","category_name":"餐饮美食","address":"上海市长宁区中山西路888号银河宾馆二楼"},{"poiid":"B2094753D464A7FD4098","title":"南小馆","lon":"121.412155","lat":"31.205631","category":"247","category_name":"餐饮美食","address":"上海市 尚嘉中心"},{"poiid":"B2094750D76DA6FC469B","title":"空海日本料理","lon":"121.41","lat":"31.2039","category":"95","category_name":"日本料理","address":"长宁区延安西路2000号虹桥宾馆大厅内(近中山西路)"},{"poiid":"B2094654D56BA0FA4592","title":"虹桥豪苑","lon":"121.40938","lat":"31.207148","category":"47","category_name":"住宅区","address":"上海长宁区紫云路118弄"},{"poiid":"B2094655D268A0F94198","title":"花园餐厅","lon":"121.41131","lat":"31.20401","category":"76","category_name":"上海菜","address":"长宁区中山西路888号银河宾馆3楼(近延安西路)"},{"poiid":"B2094751D26FA2F8439B","title":"中山医院","lon":"121.411529","lat":"31.205919","category":"162","category_name":"医院","address":null},{"poiid":"B2094757D06BA4F8489B","title":"zeta villa","lon":"121.411146786","lat":"31.2055030475","category":"500","category_name":"未知分类","address":"上海紫云路118号虹桥豪苑4号楼底层"},{"poiid":"B2094654D564A3FD439F","title":"V8club","lon":"121.4113","lat":"31.204","category":"170","category_name":"KTV","address":"中山西路888号银河宾馆2层"},{"poiid":"B2094654D564A7F84592","title":"上海喜天游大酒店","lon":"121.41246","lat":"31.20543","category":"250","category_name":"公园户外","address":"上海市长宁区中山西路827号"},{"poiid":"B2094757D068ABFB469F","title":"东华大学(延安路校区)二教","lon":"121.413879","lat":"31.206532","category":"253","category_name":"校园生活","address":"上海市长宁区延安西路1882号 东华大学 第二教学楼"},{"poiid":"B2094654D564A3FD439E","title":"花月日本料理","lon":"121.4113","lat":"31.20401","category":"95","category_name":"日本料理","address":"中山西路888号银河宾馆2楼近延安西路"},{"poiid":"B2094757D06FAAF4409E","title":"延安路高架外灘方向","lon":"121.413614","lat":"31.20365","category":"500","category_name":"未知分类","address":"上海延安路"},{"poiid":"B2094757D76AA1FE449A","title":"紫云路福建沙县特色营养小吃","lon":"121.409192","lat":"31.205454","category":"68","category_name":"快餐厅","address":"长宁区紫云路联建新村1号101室(近紫云大厦)"},{"poiid":"B2094752D769A2FE4092","title":"本家","lon":"121.412352","lat":"31.207938","category":"247","category_name":"餐饮美食","address":"天山路1900号(近延安西路)"},{"poiid":"B2094757D06AA1F8449A","title":"かつ膳","lon":"121.40834591","lat":"31.206333207","category":"95","category_name":"日本料理","address":"长宁区遵义路100号上海城5楼(紫云西路口)"},{"poiid":"B2094753D765A0FC489F","title":"糯美人韩国年糕火锅","lon":"121.408226","lat":"31.204523","category":"96","category_name":"韩国料理","address":"长宁区仙霞路8号仲盛金融中心2楼(近延安西路口)"},{"poiid":"B2094655D268A0F5479B","title":"钢琴酒吧KTV","lon":"121.41131","lat":"31.20401","category":"170","category_name":"KTV","address":""},{"poiid":"B2094655D264A7FB4993","title":"联建社区卫生服务站","lon":"121.40971","lat":"31.20558","category":"162","category_name":"医院","address":""},{"poiid":"B2094655D26EA4F84993","title":"平壤馆","lon":"121.41214923858","lat":"31.204814543329","category":"247","category_name":"餐饮美食","address":"中山西路888号银河宾馆1楼近延安西路"},{"poiid":"B2094753D46AA0F5419C","title":"尚嘉中心","lon":"121.409927","lat":"31.204006","category":"500","category_name":"未知分类","address":"上海市 长宁区仙霞路99号"},{"poiid":"B2094757D66CAAFF429B","title":"Yang's House","lon":"121.411394586","lat":"31.2056599505","category":"500","category_name":"未知分类","address":"上海市长宁区紫云路"},{"poiid":"B2094757D16AA2F44698","title":"和之美","lon":"121.40867363","lat":"31.20410942","category":"95","category_name":"日本料理","address":"长宁区仙霞路1号(近延安西路)"},{"poiid":"B2094654DB64AAF5499F","title":"百花园","lon":"121.41019","lat":"31.20399","category":"196","category_name":"公园","address":"延安西路2000"},{"poiid":"B2094655D36DA7F8489C","title":"中山西路新华路","lon":"121.41206","lat":"31.20396","category":"38","category_name":"公交车站","address":""},{"poiid":"B2094757D06AAAFF419A","title":"虹桥宾馆(礼宾部)","lon":"121.409612586","lat":"31.2058769548","category":"217","category_name":"旅馆招待所","address":"上海市长宁区延安西路2000号"},{"poiid":"B2094654D56BA0FA439C","title":"中紫小区","lon":"121.41093","lat":"31.207148","category":"47","category_name":"住宅区","address":"中山西路800弄53"},{"poiid":"B2094750D76EA1FC489D","title":"G.HAUSLIVEHOUSE&CLUB","lon":"121.411","lat":"31.204","category":"269","category_name":"烧烤","address":"中山西路888号银河宾馆2楼(近延安西路)"},{"poiid":"B2094654D564A7F84699","title":"东华大学-拉萨尔国际设计学院","lon":"121.4128","lat":"31.20497","category":"52","category_name":"高等院校","address":"新华路832"},{"poiid":"B2094757D06FA3F9429C","title":"银河宾馆","lon":"121.41138860008414","lat":"31.20410764288778","category":"214","category_name":"四星级宾馆","address":"长宁区中山西路888号银河宾馆内(近延安西路)"},{"poiid":"B2094655D26FA5FE4299","title":"东华大学(延安西路校区)","lon":"121.41384","lat":"31.20653","category":"671","category_name":"高校中心点","address":"上海市长宁区延安西路1882号"},{"poiid":"B2094655D26EA5FD4099","title":"虹桥宾馆","lon":"121.41060904662709","lat":"31.20369027936784","category":"214","category_name":"四星级宾馆","address":"上海市长宁区延安西路2000号(近中山西路口)"},{"poiid":"B2094757D06FA3F5459B","title":"唐宫(银河店)","lon":"121.4118","lat":"31.20395","category":"72","category_name":"广东菜","address":"长宁区中山西路888号银河宾馆2楼(近延安西路)"},{"poiid":"B2094757D06FA6FB479D","title":"柚子(虹桥店)","lon":"121.40877","lat":"31.20379","category":"95","category_name":"日本料理","address":"长宁区仙霞路8号仲盛金融中心2楼"},{"poiid":"B2094655D26DA3FD459E","title":"上海国际贸易中心","lon":"121.41","lat":"31.2082","category":"46","category_name":"楼宇","address":"上海市长宁区延安西路2201号"},{"poiid":"B2094750DB6CA0FE449A","title":"纽斯韩式汗蒸会所","lon":"121.411201","lat":"31.20803","category":"148","category_name":"美容美发店","address":null},{"poiid":"B2094757D068A5FF409C","title":"上海内环线高架路","lon":"121.412181378","lat":"31.2059787732","category":"260","category_name":"其他","address":"上海市内环线高架路"},{"poiid":"B2094654DB65A3FC469F","title":"东华大学-莱佛士国际设计学院","lon":"121.4128","lat":"31.20497","category":"671","category_name":"高校中心点","address":"上海市长宁区延安西路1882号"},{"poiid":"B2094655D269AAFB429E","title":"银河宾馆宴会厅","lon":"121.4113","lat":"31.20401","category":"247","category_name":"餐饮美食","address":"长宁区中山西路888号银河宾馆内(近延安西路)查看地图"},{"poiid":"B2094655D26AA7FB469E","title":"一兆韦德虹桥店","lon":"121.41033","lat":"31.20403","category":"247","category_name":"餐饮美食","address":"长宁区延安西路2000号虹桥宾馆3楼(近中山西路)"},{"poiid":"B2094757D069A7F94493","title":"东华大学 旭日楼","lon":"121.412886526","lat":"31.2028334153","category":"253","category_name":"校园生活","address":"上海长宁区延安西路1882号东华大学延安路校区"},{"poiid":"B2094751D26DA0FE409A","title":"古北国际财富中心二期","lon":"121.41","lat":"31.2036","category":"252","category_name":"楼宇机构","address":"红宝石路200号"},{"poiid":"B2094654DB6BA7FE4393","title":"澳门豆捞坊(仲盛金融中心)","lon":"121.40811","lat":"31.20396","category":"86","category_name":"火锅店","address":"长宁区延安西路2067号仲盛金融中心2楼(近仙霞路)"},{"poiid":"B2094757D16FA3FD4698","title":"甬府酒楼","lon":"121.41141408","lat":"31.203946917","category":"75","category_name":"浙江菜","address":"长宁区中山西路888号银河宾馆1楼(近延安西路)"},{"poiid":"B2094757D065A4FB4898","title":"城日本料理","lon":"121.4104","lat":"31.20364","category":"95","category_name":"日本料理","address":"长宁区延安西路2000号虹桥宾馆1号门1楼(近中山西路)"},{"poiid":"B2094655D26EAAF5449C","title":"银河咖啡厅","lon":"121.4113","lat":"31.20401","category":"65","category_name":"咖啡厅","address":"长宁区中山西路888号银河宾馆1楼(近延安西路)"},{"poiid":"B2094655D268ABFF4092","title":"内环延安西路立交桥","lon":"121.41219","lat":"31.20563","category":"250","category_name":"公园户外","address":""},{"poiid":"B2094655D26EA7FC4292","title":"莫泰268(上海虹桥开发区店)","lon":"121.41212","lat":"31.20283","category":"250","category_name":"公园户外","address":"上海市长宁区中山西路906号(近新华路)"},{"poiid":"B2094753D569ABFD439C","title":"鸟心","lon":"121.411972","lat":"31.205631","category":"500","category_name":"未知分类","address":"上海市 仙霞路99号尚嘉中心B2楼"},{"poiid":"B2094757D16CA7FF429A","title":"虹桥宾馆 虹苑厅","lon":"121.41009","lat":"31.20364","category":"76","category_name":"上海菜","address":"长宁区延安西路2000号虹桥宾馆1楼(近中山西路)"},{"poiid":"B2094757D66CA3FE4493","title":"小红楼203","lon":"121.411216386","lat":"31.2056514504","category":"247","category_name":"餐饮美食","address":null},{"poiid":"B2094757D16EA0FA439B","title":"樱川","lon":"121.411448586","lat":"31.2039649174","category":"247","category_name":"餐饮美食","address":"上海市长宁区中山西路888号银河宾馆二楼"},{"poiid":"B2094753D464A7FD4098","title":"南小馆","lon":"121.412155","lat":"31.205631","category":"247","category_name":"餐饮美食","address":"上海市 尚嘉中心"},{"poiid":"B2094750D76DA6FC469B","title":"空海日本料理","lon":"121.41","lat":"31.2039","category":"95","category_name":"日本料理","address":"长宁区延安西路2000号虹桥宾馆大厅内(近中山西路)"},{"poiid":"B2094654D56BA0FA4592","title":"虹桥豪苑","lon":"121.40938","lat":"31.207148","category":"47","category_name":"住宅区","address":"上海长宁区紫云路118弄"},{"poiid":"B2094655D268A0F94198","title":"花园餐厅","lon":"121.41131","lat":"31.20401","category":"76","category_name":"上海菜","address":"长宁区中山西路888号银河宾馆3楼(近延安西路)"},{"poiid":"B2094751D26FA2F8439B","title":"中山医院","lon":"121.411529","lat":"31.205919","category":"162","category_name":"医院","address":null},{"poiid":"B2094757D06BA4F8489B","title":"zeta villa","lon":"121.411146786","lat":"31.2055030475","category":"500","category_name":"未知分类","address":"上海紫云路118号虹桥豪苑4号楼底层"},{"poiid":"B2094654D564A3FD439F","title":"V8club","lon":"121.4113","lat":"31.204","category":"170","category_name":"KTV","address":"中山西路888号银河宾馆2层"},{"poiid":"B2094654D564A7F84592","title":"上海喜天游大酒店","lon":"121.41246","lat":"31.20543","category":"250","category_name":"公园户外","address":"上海市长宁区中山西路827号"},{"poiid":"B2094757D068ABFB469F","title":"东华大学(延安路校区)二教","lon":"121.413879","lat":"31.206532","category":"253","category_name":"校园生活","address":"上海市长宁区延安西路1882号 东华大学 第二教学楼"},{"poiid":"B2094654D564A3FD439E","title":"花月日本料理","lon":"121.4113","lat":"31.20401","category":"95","category_name":"日本料理","address":"中山西路888号银河宾馆2楼近延安西路"},{"poiid":"B2094757D06FAAF4409E","title":"延安路高架外灘方向","lon":"121.413614","lat":"31.20365","category":"500","category_name":"未知分类","address":"上海延安路"},{"poiid":"B2094757D76AA1FE449A","title":"紫云路福建沙县特色营养小吃","lon":"121.409192","lat":"31.205454","category":"68","category_name":"快餐厅","address":"长宁区紫云路联建新村1号101室(近紫云大厦)"},{"poiid":"B2094752D769A2FE4092","title":"本家","lon":"121.412352","lat":"31.207938","category":"247","category_name":"餐饮美食","address":"天山路1900号(近延安西路)"},{"poiid":"B2094757D06AA1F8449A","title":"かつ膳","lon":"121.40834591","lat":"31.206333207","category":"95","category_name":"日本料理","address":"长宁区遵义路100号上海城5楼(紫云西路口)"},{"poiid":"B2094753D765A0FC489F","title":"糯美人韩国年糕火锅","lon":"121.408226","lat":"31.204523","category":"96","category_name":"韩国料理","address":"长宁区仙霞路8号仲盛金融中心2楼(近延安西路口)"},{"poiid":"B2094655D268A0F5479B","title":"钢琴酒吧KTV","lon":"121.41131","lat":"31.20401","category":"170","category_name":"KTV","address":""},{"poiid":"B2094655D264A7FB4993","title":"联建社区卫生服务站","lon":"121.40971","lat":"31.20558","category":"162","category_name":"医院","address":""},{"poiid":"B2094655D26EA4F84993","title":"平壤馆","lon":"121.41214923858","lat":"31.204814543329","category":"247","category_name":"餐饮美食","address":"中山西路888号银河宾馆1楼近延安西路"},{"poiid":"B2094753D46AA0F5419C","title":"尚嘉中心","lon":"121.409927","lat":"31.204006","category":"500","category_name":"未知分类","address":"上海市 长宁区仙霞路99号"},{"poiid":"B2094757D66CAAFF429B","title":"Yang's House","lon":"121.411394586","lat":"31.2056599505","category":"500","category_name":"未知分类","address":"上海市长宁区紫云路"},{"poiid":"B2094757D16AA2F44698","title":"和之美","lon":"121.40867363","lat":"31.20410942","category":"95","category_name":"日本料理","address":"长宁区仙霞路1号(近延安西路)"},{"poiid":"B2094654DB64AAF5499F","title":"百花园","lon":"121.41019","lat":"31.20399","category":"196","category_name":"公园","address":"延安西路2000"},{"poiid":"B2094655D36DA7F8489C","title":"中山西路新华路","lon":"121.41206","lat":"31.20396","category":"38","category_name":"公交车站","address":""},{"poiid":"B2094757D06AAAFF419A","title":"虹桥宾馆(礼宾部)","lon":"121.409612586","lat":"31.2058769548","category":"217","category_name":"旅馆招待所","address":"上海市长宁区延安西路2000号"},{"poiid":"B2094654D56BA0FA439C","title":"中紫小区","lon":"121.41093","lat":"31.207148","category":"47","category_name":"住宅区","address":"中山西路800弄53"},{"poiid":"B2094750D76EA1FC489D","title":"G.HAUSLIVEHOUSE&CLUB","lon":"121.411","lat":"31.204","category":"269","category_name":"烧烤","address":"中山西路888号银河宾馆2楼(近延安西路)"},{"poiid":"B2094654D564A7F84699","title":"东华大学-拉萨尔国际设计学院","lon":"121.4128","lat":"31.20497","category":"52","category_name":"高等院校","address":"新华路832"},{"poiid":"B2094757D06FA3F9429C","title":"银河宾馆","lon":"121.41138860008414","lat":"31.20410764288778","category":"214","category_name":"四星级宾馆","address":"长宁区中山西路888号银河宾馆内(近延安西路)"},{"poiid":"B2094655D26FA5FE4299","title":"东华大学(延安西路校区)","lon":"121.41384","lat":"31.20653","category":"671","category_name":"高校中心点","address":"上海市长宁区延安西路1882号"},{"poiid":"B2094655D26EA5FD4099","title":"虹桥宾馆","lon":"121.41060904662709","lat":"31.20369027936784","category":"214","category_name":"四星级宾馆","address":"上海市长宁区延安西路2000号(近中山西路口)"},{"poiid":"B2094757D06FA3F5459B","title":"唐宫(银河店)","lon":"121.4118","lat":"31.20395","category":"72","category_name":"广东菜","address":"长宁区中山西路888号银河宾馆2楼(近延安西路)"},{"poiid":"B2094757D06FA6FB479D","title":"柚子(虹桥店)","lon":"121.40877","lat":"31.20379","category":"95","category_name":"日本料理","address":"长宁区仙霞路8号仲盛金融中心2楼"},{"poiid":"B2094655D26DA3FD459E","title":"上海国际贸易中心","lon":"121.41","lat":"31.2082","category":"46","category_name":"楼宇","address":"上海市长宁区延安西路2201号"},{"poiid":"B2094750DB6CA0FE449A","title":"纽斯韩式汗蒸会所","lon":"121.411201","lat":"31.20803","category":"148","category_name":"美容美发店","address":null},{"poiid":"B2094757D068A5FF409C","title":"上海内环线高架路","lon":"121.412181378","lat":"31.2059787732","category":"260","category_name":"其他","address":"上海市内环线高架路"},{"poiid":"B2094654DB65A3FC469F","title":"东华大学-莱佛士国际设计学院","lon":"121.4128","lat":"31.20497","category":"671","category_name":"高校中心点","address":"上海市长宁区延安西路1882号"},{"poiid":"B2094655D269AAFB429E","title":"银河宾馆宴会厅","lon":"121.4113","lat":"31.20401","category":"247","category_name":"餐饮美食","address":"长宁区中山西路888号银河宾馆内(近延安西路)查看地图"},{"poiid":"B2094655D26AA7FB469E","title":"一兆韦德虹桥店","lon":"121.41033","lat":"31.20403","category":"247","category_name":"餐饮美食","address":"长宁区延安西路2000号虹桥宾馆3楼(近中山西路)"},{"poiid":"B2094757D069A7F94493","title":"东华大学 旭日楼","lon":"121.412886526","lat":"31.2028334153","category":"253","category_name":"校园生活","address":"上海长宁区延安西路1882号东华大学延安路校区"},{"poiid":"B2094751D26DA0FE409A","title":"古北国际财富中心二期","lon":"121.41","lat":"31.2036","category":"252","category_name":"楼宇机构","address":"红宝石路200号"},{"poiid":"B2094654DB6BA7FE4393","title":"澳门豆捞坊(仲盛金融中心)","lon":"121.40811","lat":"31.20396","category":"86","category_name":"火锅店","address":"长宁区延安西路2067号仲盛金融中心2楼(近仙霞路)"},{"poiid":"B2094757D16FA3FD4698","title":"甬府酒楼","lon":"121.41141408","lat":"31.203946917","category":"75","category_name":"浙江菜","address":"长宁区中山西路888号银河宾馆1楼(近延安西路)"},{"poiid":"B2094757D065A4FB4898","title":"城日本料理","lon":"121.4104","lat":"31.20364","category":"95","category_name":"日本料理","address":"长宁区延安西路2000号虹桥宾馆1号门1楼(近中山西路)"},{"poiid":"B2094655D26EAAF5449C","title":"银河咖啡厅","lon":"121.4113","lat":"31.20401","category":"65","category_name":"咖啡厅","address":"长宁区中山西路888号银河宾馆1楼(近延安西路)"},{"poiid":"B2094655D268ABFF4092","title":"内环延安西路立交桥","lon":"121.41219","lat":"31.20563","category":"250","category_name":"公园户外","address":""},{"poiid":"B2094655D26EA7FC4292","title":"莫泰268(上海虹桥开发区店)","lon":"121.41212","lat":"31.20283","category":"250","category_name":"公园户外","address":"上海市长宁区中山西路906号(近新华路)"},{"poiid":"B2094753D569ABFD439C","title":"鸟心","lon":"121.411972","lat":"31.205631","category":"500","category_name":"未知分类","address":"上海市 仙霞路99号尚嘉中心B2楼"},{"poiid":"B2094757D16CA7FF429A","title":"虹桥宾馆 虹苑厅","lon":"121.41009","lat":"31.20364","category":"76","category_name":"上海菜","address":"长宁区延安西路2000号虹桥宾馆1楼(近中山西路)"},{"poiid":"B2094757D66CA3FE4493","title":"小红楼203","lon":"121.411216386","lat":"31.2056514504","category":"247","category_name":"餐饮美食","address":null},{"poiid":"B2094757D16EA0FA439B","title":"樱川","lon":"121.411448586","lat":"31.2039649174","category":"247","category_name":"餐饮美食","address":"上海市长宁区中山西路888号银河宾馆二楼"},{"poiid":"B2094753D464A7FD4098","title":"南小馆","lon":"121.412155","lat":"31.205631","category":"247","category_name":"餐饮美食","address":"上海市 尚嘉中心"},{"poiid":"B2094750D76DA6FC469B","title":"空海日本料理","lon":"121.41","lat":"31.2039","category":"95","category_name":"日本料理","address":"长宁区延安西路2000号虹桥宾馆大厅内(近中山西路)"},{"poiid":"B2094654D56BA0FA4592","title":"虹桥豪苑","lon":"121.40938","lat":"31.207148","category":"47","category_name":"住宅区","address":"上海长宁区紫云路118弄"},{"poiid":"B2094655D268A0F94198","title":"花园餐厅","lon":"121.41131","lat":"31.20401","category":"76","category_name":"上海菜","address":"长宁区中山西路888号银河宾馆3楼(近延安西路)"},{"poiid":"B2094751D26FA2F8439B","title":"中山医院","lon":"121.411529","lat":"31.205919","category":"162","category_name":"医院","address":null},{"poiid":"B2094757D06BA4F8489B","title":"zeta villa","lon":"121.411146786","lat":"31.2055030475","category":"500","category_name":"未知分类","address":"上海紫云路118号虹桥豪苑4号楼底层"},{"poiid":"B2094654D564A3FD439F","title":"V8club","lon":"121.4113","lat":"31.204","category":"170","category_name":"KTV","address":"中山西路888号银河宾馆2层"},{"poiid":"B2094654D564A7F84592","title":"上海喜天游大酒店","lon":"121.41246","lat":"31.20543","category":"250","category_name":"公园户外","address":"上海市长宁区中山西路827号"},{"poiid":"B2094757D068ABFB469F","title":"东华大学(延安路校区)二教","lon":"121.413879","lat":"31.206532","category":"253","category_name":"校园生活","address":"上海市长宁区延安西路1882号 东华大学 第二教学楼"},{"poiid":"B2094654D564A3FD439E","title":"花月日本料理","lon":"121.4113","lat":"31.20401","category":"95","category_name":"日本料理","address":"中山西路888号银河宾馆2楼近延安西路"},{"poiid":"B2094757D06FAAF4409E","title":"延安路高架外灘方向","lon":"121.413614","lat":"31.20365","category":"500","category_name":"未知分类","address":"上海延安路"},{"poiid":"B2094757D76AA1FE449A","title":"紫云路福建沙县特色营养小吃","lon":"121.409192","lat":"31.205454","category":"68","category_name":"快餐厅","address":"长宁区紫云路联建新村1号101室(近紫云大厦)"},{"poiid":"B2094752D769A2FE4092","title":"本家","lon":"121.412352","lat":"31.207938","category":"247","category_name":"餐饮美食","address":"天山路1900号(近延安西路)"},{"poiid":"B2094757D06AA1F8449A","title":"かつ膳","lon":"121.40834591","lat":"31.206333207","category":"95","category_name":"日本料理","address":"长宁区遵义路100号上海城5楼(紫云西路口)"},{"poiid":"B2094753D765A0FC489F","title":"糯美人韩国年糕火锅","lon":"121.408226","lat":"31.204523","category":"96","category_name":"韩国料理","address":"长宁区仙霞路8号仲盛金融中心2楼(近延安西路口)"},{"poiid":"B2094655D268A0F5479B","title":"钢琴酒吧KTV","lon":"121.41131","lat":"31.20401","category":"170","category_name":"KTV","address":""},{"poiid":"B2094655D264A7FB4993","title":"联建社区卫生服务站","lon":"121.40971","lat":"31.20558","category":"162","category_name":"医院","address":""},{"poiid":"B2094655D26EA4F84993","title":"平壤馆","lon":"121.41214923858","lat":"31.204814543329","category":"247","category_name":"餐饮美食","address":"中山西路888号银河宾馆1楼近延安西路"},{"poiid":"B2094753D46AA0F5419C","title":"尚嘉中心","lon":"121.409927","lat":"31.204006","category":"500","category_name":"未知分类","address":"上海市 长宁区仙霞路99号"},{"poiid":"B2094757D66CAAFF429B","title":"Yang's House","lon":"121.411394586","lat":"31.2056599505","category":"500","category_name":"未知分类","address":"上海市长宁区紫云路"},{"poiid":"B2094757D16AA2F44698","title":"和之美","lon":"121.40867363","lat":"31.20410942","category":"95","category_name":"日本料理","address":"长宁区仙霞路1号(近延安西路)"},{"poiid":"B2094654DB64AAF5499F","title":"百花园","lon":"121.41019","lat":"31.20399","category":"196","category_name":"公园","address":"延安西路2000"},{"poiid":"B2094655D36DA7F8489C","title":"中山西路新华路","lon":"121.41206","lat":"31.20396","category":"38","category_name":"公交车站","address":""},{"poiid":"B2094757D06AAAFF419A","title":"虹桥宾馆(礼宾部)","lon":"121.409612586","lat":"31.2058769548","category":"217","category_name":"旅馆招待所","address":"上海市长宁区延安西路2000号"},{"poiid":"B2094654D56BA0FA439C","title":"中紫小区","lon":"121.41093","lat":"31.207148","category":"47","category_name":"住宅区","address":"中山西路800弄53"},{"poiid":"B2094750D76EA1FC489D","title":"G.HAUSLIVEHOUSE&CLUB","lon":"121.411","lat":"31.204","category":"269","category_name":"烧烤","address":"中山西路888号银河宾馆2楼(近延安西路)"},{"poiid":"B2094654D564A7F84699","title":"东华大学-拉萨尔国际设计学院","lon":"121.4128","lat":"31.20497","category":"52","category_name":"高等院校","address":"新华路832"}]