[{"poiid":"B2094757DA69A1FA469E","title":"上海婚礼中心","lon":"121.43717610502","lat":"31.339079734167","category":"638","category_name":"金融服务类公司","address":"宝山区纪蕴路458号(近南蕴藻路)查看地图"},{"poiid":"B2094757D06EAAFC4093","title":"呼兰路地铁站","lon":"121.43764864","lat":"31.340091187","category":"36","category_name":"地铁站","address":"上海轨道交通 一号线 轨交呼兰路站 1"},{"poiid":"B2094654D469ABF44499","title":"上海交通职业技术学院(上海市交通学校)","lon":"121.44139","lat":"31.34187","category":"52","category_name":"高等院校","address":"宝山区呼兰路883号(呼兰路呼青路)"},{"poiid":"B2094757D06FA6F4489A","title":"通河全民健身活动中心","lon":"121.44552","lat":"31.33684","category":"221","category_name":"健身中心","address":"宝山区通河路590号(近呼玛路)"},{"poiid":"B2094757D06AA6FF429A","title":"呼玛三村","lon":"121.44167595","lat":"31.339503388","category":"252","category_name":"楼宇机构","address":"上海宝山区呼玛路近共和新路"},{"poiid":"B2094757D06FA0FE4392","title":"呼玛二村","lon":"121.455","lat":"31.348","category":"47","category_name":"住宅区","address":"上海呼玛二村"},{"poiid":"B2094757D06FA1F4489A","title":"上海智力产业园","lon":"121.437162","lat":"31.339822","category":"260","category_name":"其他","address":"上海纪蕴路588号南区6号楼"},{"poiid":"B2094757D06FA5F9499A","title":"长江西路通河路","lon":"121.44644","lat":"31.334228","category":"500","category_name":"未知分类","address":"上海长江西路通河路"},{"poiid":"B2094757D068A0FF459E","title":"呼玛四村","lon":"121.44572","lat":"31.344154","category":"252","category_name":"楼宇机构","address":"上海呼兰路675号"},{"poiid":"B2094655D36CA7FF4299","title":"呼玛一村","lon":"121.44975","lat":"31.341736","category":"38","category_name":"公交车站","address":"呼玛路爱辉路"},{"poiid":"B2094757D068A7FB419D","title":"胖子烧烤","lon":"121.44590595","lat":"31.3347402976","category":"247","category_name":"餐饮美食","address":"上海长江西路通河路"},{"poiid":"B2094654D469ABF4439B","title":"通河一村","lon":"121.44834","lat":"31.335154","category":"47","category_name":"住宅区","address":"通河路100弄"},{"poiid":"B2094757D16BABFA409B","title":"上海婚庆中心","lon":"121.442654","lat":"31.337633","category":"500","category_name":"未知分类","address":"上海市宝山区纪蕰路478号"},{"poiid":"B2094757D06FABFD409E","title":"通河中学","lon":"121.44054","lat":"31.33593","category":"55","category_name":"中学","address":"宝山区呼玛路888号(共和新路呼玛路)"},{"poiid":"B2094757D068A2F8479F","title":"富浩花苑","lon":"121.453779174","lat":"31.3445242076","category":"47","category_name":"住宅区","address":"上海市宝山区虎林路800弄"},{"poiid":"B2094757D068A0FB479E","title":"泗塘公园","lon":"121.449898778","lat":"31.3383032726","category":"196","category_name":"公园","address":"上海宝山区爱晖路710号"},{"poiid":"B2094654D469ABF4469E","title":"锦辉豪居","lon":"121.44714","lat":"31.345362","category":"47","category_name":"住宅区","address":"上海市宝山区爱晖路1018弄"},{"poiid":"B2094654D469ABF4419E","title":"呼玛二村玉兰苑","lon":"121.44536","lat":"31.34211","category":"47","category_name":"住宅区","address":"通和新村"},{"poiid":"B2094757D068A4F8419B","title":"上海交通职业技术学院(北校区)","lon":"121.44466305","lat":"31.3420826381","category":"54","category_name":"职业技术学校","address":"上海市宝山区呼兰路763号"},{"poiid":"B2094757D168A6F8489D","title":"呼玛五村","lon":"121.43906","lat":"31.340595","category":"47","category_name":"住宅区","address":"上海宝山区呼兰路1017弄"},{"poiid":"B2094757D168A3F5469A","title":"老好人大酒店","lon":"121.44604375","lat":"31.3391038811","category":"76","category_name":"上海菜","address":"宝山区呼玛路588号"},{"poiid":"B2094655D26BA2FF479D","title":"通河路","lon":"121.44688","lat":"31.34327","category":"38","category_name":"公交车站","address":"通河三村"},{"poiid":"B2094655D264A0F9469D","title":"牧羊鱼林港通河路店","lon":"121.44555","lat":"31.3361","category":"86","category_name":"火锅店","address":"宝山区通河路500号(近长江西路)"},{"poiid":"B2094757D06FA3F4419A","title":"张庙","lon":"121.45220947","lat":"31.336538314","category":"260","category_name":"其他","address":"上海宝山区"},{"poiid":"B2094655D36CA7FF4398","title":"呼兰路通河路","lon":"121.4446","lat":"31.34246","category":"38","category_name":"公交车站","address":""},{"poiid":"B2094757D06BA2FE4499","title":"虎林园","lon":"121.44578","lat":"31.34248","category":"196","category_name":"公园","address":"宝山区呼兰路700号(近爱辉路)"},{"poiid":"B2094655D26FA4FC459F","title":"好德","lon":"121.44581","lat":"31.34303","category":"117","category_name":"便民商店/便利店","address":""},{"poiid":"B2094654D46AA2F54493","title":"协作网通河街道图书馆第六分馆","lon":"121.446","lat":"31.34373","category":"181","category_name":"图书馆","address":""},{"poiid":"B2094654D46AA2F5459C","title":"万源百货","lon":"121.44576","lat":"31.34301","category":"119","category_name":"商场","address":""},{"poiid":"B2094757D165A5FF4299","title":"Qian's home","lon":"121.44470995","lat":"31.3443604817","category":"500","category_name":"未知分类","address":null},{"poiid":"B2094655D26FA4FE4293","title":"快客","lon":"121.44559","lat":"31.34296","category":"117","category_name":"便民商店/便利店","address":""},{"poiid":"B2094654D469ABF4459E","title":"上海新闻出版职业技术学校","lon":"121.44023","lat":"31.34199","category":"54","category_name":"职业技术学校","address":"宝山区呼兰路921号"},{"poiid":"B2094757D16CABFA449D","title":"麦咖啡McCafe王府井店","lon":"121.44544595","lat":"31.3418784342","category":"65","category_name":"咖啡厅","address":"北京东城区王府井大街200号工美大厦1楼"},{"poiid":"B2094757D465A0FA4692","title":"百味鲜海鲜酒楼","lon":"121.44724","lat":"31.33868","category":"76","category_name":"上海菜","address":"宝山区呼玛路616号(近通河路)"},{"poiid":"B2094750D768A6F5459A","title":"马氏猪肚鸡","lon":"121.449","lat":"31.3398","category":"86","category_name":"火锅店","address":"宝山区呼玛路537号(近爱辉路)"},{"poiid":"B2094757D168A3FA4098","title":"呼玛四村小区门口烧烤摊","lon":"121.44632747","lat":"31.344394218","category":"500","category_name":"未知分类","address":"上海呼玛四村门口"},{"poiid":"B2094757D064A4F9469C","title":"宝山区呼兰路","lon":"121.445870441","lat":"31.3427823058","category":"500","category_name":"未知分类","address":"上海呼玛四村"},{"poiid":"B2094757D568A4FB4598","title":"光明便利(呼兰路)","lon":"121.44653022","lat":"31.34317464","category":"117","category_name":"便民商店/便利店","address":"呼兰路635号"},{"poiid":"B2094654D46AA1FC4493","title":"东东骨头王火锅城 宝山店","lon":"121.44707777469","lat":"31.332782671506","category":"86","category_name":"火锅店","address":"宝山区通河路508号(近长江西路)"},{"poiid":"B2094654D469ABF44199","title":"长江路地段医院","lon":"121.44473","lat":"31.34019","category":"162","category_name":"医院","address":"宝山区通河路596号"},{"poiid":"B2094654D469ABF44498","title":"上海市交通学校","lon":"121.44139","lat":"31.34187","category":"55","category_name":"中学","address":"呼兰路883"},{"poiid":"B2094757D66EA6FE449C","title":"真南路真北路","lon":"121.44348475","lat":"31.3432692609","category":"500","category_name":"未知分类","address":"上海同济校区"},{"poiid":"B2094654D46AA1FC4193","title":"呼玛三村小区","lon":"121.44049","lat":"31.3406","category":"47","category_name":"住宅区","address":"通和新村"},{"poiid":"B2094757D06BA2F9469F","title":"通河全民健身中心游泳池","lon":"121.44472","lat":"31.33802","category":"220","category_name":"运动场所","address":"宝山区通河路590号(近呼玛路)"},{"poiid":"B2094655D36CA4FE4092","title":"爱辉路呼兰路","lon":"121.44977","lat":"31.34101","category":"38","category_name":"公交车站","address":""},{"poiid":"B2094654D469ABFB499B","title":"上海市呼玛中学","lon":"121.45","lat":"31.3433","category":"55","category_name":"中学","address":"宝山区爱辉路585号"},{"poiid":"B2094757D16CA6F54593","title":"845终点站","lon":"121.445073","lat":"31.342437","category":"500","category_name":"未知分类","address":"上海呼兰路"},{"poiid":"B2094757D569A3FE439D","title":"baby pinH","lon":"121.44253472","lat":"31.34180366","category":"117","category_name":"便民商店/便利店","address":"呼兰路"},{"poiid":"B2094757D06BA3FF439F","title":"木萨火锅店(清真)","lon":"121.446814","lat":"31.338571","category":"247","category_name":"餐饮美食","address":"上海市宝山区呼玛路636号"},{"poiid":"B2094757D06BAAF4499E","title":"上海安吉大众4S店","lon":"121.435288","lat":"31.350714","category":"500","category_name":"未知分类","address":"上海市蕴川路329号"},{"poiid":"B2094757DA69A1FA469E","title":"上海婚礼中心","lon":"121.43717610502","lat":"31.339079734167","category":"638","category_name":"金融服务类公司","address":"宝山区纪蕴路458号(近南蕴藻路)查看地图"},{"poiid":"B2094757D06EAAFC4093","title":"呼兰路地铁站","lon":"121.43764864","lat":"31.340091187","category":"36","category_name":"地铁站","address":"上海轨道交通 一号线 轨交呼兰路站 1"},{"poiid":"B2094654D469ABF44499","title":"上海交通职业技术学院(上海市交通学校)","lon":"121.44139","lat":"31.34187","category":"52","category_name":"高等院校","address":"宝山区呼兰路883号(呼兰路呼青路)"},{"poiid":"B2094757D06FA6F4489A","title":"通河全民健身活动中心","lon":"121.44552","lat":"31.33684","category":"221","category_name":"健身中心","address":"宝山区通河路590号(近呼玛路)"},{"poiid":"B2094757D06AA6FF429A","title":"呼玛三村","lon":"121.44167595","lat":"31.339503388","category":"252","category_name":"楼宇机构","address":"上海宝山区呼玛路近共和新路"},{"poiid":"B2094757D06FA0FE4392","title":"呼玛二村","lon":"121.455","lat":"31.348","category":"47","category_name":"住宅区","address":"上海呼玛二村"},{"poiid":"B2094757D06FA1F4489A","title":"上海智力产业园","lon":"121.437162","lat":"31.339822","category":"260","category_name":"其他","address":"上海纪蕴路588号南区6号楼"},{"poiid":"B2094757D06FA5F9499A","title":"长江西路通河路","lon":"121.44644","lat":"31.334228","category":"500","category_name":"未知分类","address":"上海长江西路通河路"},{"poiid":"B2094757D068A0FF459E","title":"呼玛四村","lon":"121.44572","lat":"31.344154","category":"252","category_name":"楼宇机构","address":"上海呼兰路675号"},{"poiid":"B2094655D36CA7FF4299","title":"呼玛一村","lon":"121.44975","lat":"31.341736","category":"38","category_name":"公交车站","address":"呼玛路爱辉路"},{"poiid":"B2094757D068A7FB419D","title":"胖子烧烤","lon":"121.44590595","lat":"31.3347402976","category":"247","category_name":"餐饮美食","address":"上海长江西路通河路"},{"poiid":"B2094654D469ABF4439B","title":"通河一村","lon":"121.44834","lat":"31.335154","category":"47","category_name":"住宅区","address":"通河路100弄"},{"poiid":"B2094757D16BABFA409B","title":"上海婚庆中心","lon":"121.442654","lat":"31.337633","category":"500","category_name":"未知分类","address":"上海市宝山区纪蕰路478号"},{"poiid":"B2094757D06FABFD409E","title":"通河中学","lon":"121.44054","lat":"31.33593","category":"55","category_name":"中学","address":"宝山区呼玛路888号(共和新路呼玛路)"},{"poiid":"B2094757D068A2F8479F","title":"富浩花苑","lon":"121.453779174","lat":"31.3445242076","category":"47","category_name":"住宅区","address":"上海市宝山区虎林路800弄"},{"poiid":"B2094757D068A0FB479E","title":"泗塘公园","lon":"121.449898778","lat":"31.3383032726","category":"196","category_name":"公园","address":"上海宝山区爱晖路710号"},{"poiid":"B2094654D469ABF4469E","title":"锦辉豪居","lon":"121.44714","lat":"31.345362","category":"47","category_name":"住宅区","address":"上海市宝山区爱晖路1018弄"},{"poiid":"B2094654D469ABF4419E","title":"呼玛二村玉兰苑","lon":"121.44536","lat":"31.34211","category":"47","category_name":"住宅区","address":"通和新村"},{"poiid":"B2094757D068A4F8419B","title":"上海交通职业技术学院(北校区)","lon":"121.44466305","lat":"31.3420826381","category":"54","category_name":"职业技术学校","address":"上海市宝山区呼兰路763号"},{"poiid":"B2094757D168A6F8489D","title":"呼玛五村","lon":"121.43906","lat":"31.340595","category":"47","category_name":"住宅区","address":"上海宝山区呼兰路1017弄"},{"poiid":"B2094757D168A3F5469A","title":"老好人大酒店","lon":"121.44604375","lat":"31.3391038811","category":"76","category_name":"上海菜","address":"宝山区呼玛路588号"},{"poiid":"B2094655D26BA2FF479D","title":"通河路","lon":"121.44688","lat":"31.34327","category":"38","category_name":"公交车站","address":"通河三村"},{"poiid":"B2094655D264A0F9469D","title":"牧羊鱼林港通河路店","lon":"121.44555","lat":"31.3361","category":"86","category_name":"火锅店","address":"宝山区通河路500号(近长江西路)"},{"poiid":"B2094757D06FA3F4419A","title":"张庙","lon":"121.45220947","lat":"31.336538314","category":"260","category_name":"其他","address":"上海宝山区"},{"poiid":"B2094655D36CA7FF4398","title":"呼兰路通河路","lon":"121.4446","lat":"31.34246","category":"38","category_name":"公交车站","address":""},{"poiid":"B2094757D06BA2FE4499","title":"虎林园","lon":"121.44578","lat":"31.34248","category":"196","category_name":"公园","address":"宝山区呼兰路700号(近爱辉路)"},{"poiid":"B2094655D26FA4FC459F","title":"好德","lon":"121.44581","lat":"31.34303","category":"117","category_name":"便民商店/便利店","address":""},{"poiid":"B2094654D46AA2F54493","title":"协作网通河街道图书馆第六分馆","lon":"121.446","lat":"31.34373","category":"181","category_name":"图书馆","address":""},{"poiid":"B2094654D46AA2F5459C","title":"万源百货","lon":"121.44576","lat":"31.34301","category":"119","category_name":"商场","address":""},{"poiid":"B2094757D165A5FF4299","title":"Qian's home","lon":"121.44470995","lat":"31.3443604817","category":"500","category_name":"未知分类","address":null},{"poiid":"B2094655D26FA4FE4293","title":"快客","lon":"121.44559","lat":"31.34296","category":"117","category_name":"便民商店/便利店","address":""},{"poiid":"B2094654D469ABF4459E","title":"上海新闻出版职业技术学校","lon":"121.44023","lat":"31.34199","category":"54","category_name":"职业技术学校","address":"宝山区呼兰路921号"},{"poiid":"B2094757D16CABFA449D","title":"麦咖啡McCafe王府井店","lon":"121.44544595","lat":"31.3418784342","category":"65","category_name":"咖啡厅","address":"北京东城区王府井大街200号工美大厦1楼"},{"poiid":"B2094757D465A0FA4692","title":"百味鲜海鲜酒楼","lon":"121.44724","lat":"31.33868","category":"76","category_name":"上海菜","address":"宝山区呼玛路616号(近通河路)"},{"poiid":"B2094750D768A6F5459A","title":"马氏猪肚鸡","lon":"121.449","lat":"31.3398","category":"86","category_name":"火锅店","address":"宝山区呼玛路537号(近爱辉路)"},{"poiid":"B2094757D168A3FA4098","title":"呼玛四村小区门口烧烤摊","lon":"121.44632747","lat":"31.344394218","category":"500","category_name":"未知分类","address":"上海呼玛四村门口"},{"poiid":"B2094757D064A4F9469C","title":"宝山区呼兰路","lon":"121.445870441","lat":"31.3427823058","category":"500","category_name":"未知分类","address":"上海呼玛四村"},{"poiid":"B2094757D568A4FB4598","title":"光明便利(呼兰路)","lon":"121.44653022","lat":"31.34317464","category":"117","category_name":"便民商店/便利店","address":"呼兰路635号"},{"poiid":"B2094654D46AA1FC4493","title":"东东骨头王火锅城 宝山店","lon":"121.44707777469","lat":"31.332782671506","category":"86","category_name":"火锅店","address":"宝山区通河路508号(近长江西路)"},{"poiid":"B2094654D469ABF44199","title":"长江路地段医院","lon":"121.44473","lat":"31.34019","category":"162","category_name":"医院","address":"宝山区通河路596号"},{"poiid":"B2094654D469ABF44498","title":"上海市交通学校","lon":"121.44139","lat":"31.34187","category":"55","category_name":"中学","address":"呼兰路883"},{"poiid":"B2094757D66EA6FE449C","title":"真南路真北路","lon":"121.44348475","lat":"31.3432692609","category":"500","category_name":"未知分类","address":"上海同济校区"},{"poiid":"B2094654D46AA1FC4193","title":"呼玛三村小区","lon":"121.44049","lat":"31.3406","category":"47","category_name":"住宅区","address":"通和新村"},{"poiid":"B2094757D06BA2F9469F","title":"通河全民健身中心游泳池","lon":"121.44472","lat":"31.33802","category":"220","category_name":"运动场所","address":"宝山区通河路590号(近呼玛路)"},{"poiid":"B2094655D36CA4FE4092","title":"爱辉路呼兰路","lon":"121.44977","lat":"31.34101","category":"38","category_name":"公交车站","address":""},{"poiid":"B2094654D469ABFB499B","title":"上海市呼玛中学","lon":"121.45","lat":"31.3433","category":"55","category_name":"中学","address":"宝山区爱辉路585号"},{"poiid":"B2094757D16CA6F54593","title":"845终点站","lon":"121.445073","lat":"31.342437","category":"500","category_name":"未知分类","address":"上海呼兰路"},{"poiid":"B2094757D569A3FE439D","title":"baby pinH","lon":"121.44253472","lat":"31.34180366","category":"117","category_name":"便民商店/便利店","address":"呼兰路"},{"poiid":"B2094757D06BA3FF439F","title":"木萨火锅店(清真)","lon":"121.446814","lat":"31.338571","category":"247","category_name":"餐饮美食","address":"上海市宝山区呼玛路636号"},{"poiid":"B2094757D06BAAF4499E","title":"上海安吉大众4S店","lon":"121.435288","lat":"31.350714","category":"500","category_name":"未知分类","address":"上海市蕴川路329号"},{"poiid":"B2094757DA69A1FA469E","title":"上海婚礼中心","lon":"121.43717610502","lat":"31.339079734167","category":"638","category_name":"金融服务类公司","address":"宝山区纪蕴路458号(近南蕴藻路)查看地图"},{"poiid":"B2094757D06EAAFC4093","title":"呼兰路地铁站","lon":"121.43764864","lat":"31.340091187","category":"36","category_name":"地铁站","address":"上海轨道交通 一号线 轨交呼兰路站 1"},{"poiid":"B2094654D469ABF44499","title":"上海交通职业技术学院(上海市交通学校)","lon":"121.44139","lat":"31.34187","category":"52","category_name":"高等院校","address":"宝山区呼兰路883号(呼兰路呼青路)"},{"poiid":"B2094757D06FA6F4489A","title":"通河全民健身活动中心","lon":"121.44552","lat":"31.33684","category":"221","category_name":"健身中心","address":"宝山区通河路590号(近呼玛路)"},{"poiid":"B2094757D06AA6FF429A","title":"呼玛三村","lon":"121.44167595","lat":"31.339503388","category":"252","category_name":"楼宇机构","address":"上海宝山区呼玛路近共和新路"},{"poiid":"B2094757D06FA0FE4392","title":"呼玛二村","lon":"121.455","lat":"31.348","category":"47","category_name":"住宅区","address":"上海呼玛二村"},{"poiid":"B2094757D06FA1F4489A","title":"上海智力产业园","lon":"121.437162","lat":"31.339822","category":"260","category_name":"其他","address":"上海纪蕴路588号南区6号楼"},{"poiid":"B2094757D06FA5F9499A","title":"长江西路通河路","lon":"121.44644","lat":"31.334228","category":"500","category_name":"未知分类","address":"上海长江西路通河路"},{"poiid":"B2094757D068A0FF459E","title":"呼玛四村","lon":"121.44572","lat":"31.344154","category":"252","category_name":"楼宇机构","address":"上海呼兰路675号"},{"poiid":"B2094655D36CA7FF4299","title":"呼玛一村","lon":"121.44975","lat":"31.341736","category":"38","category_name":"公交车站","address":"呼玛路爱辉路"},{"poiid":"B2094757D068A7FB419D","title":"胖子烧烤","lon":"121.44590595","lat":"31.3347402976","category":"247","category_name":"餐饮美食","address":"上海长江西路通河路"},{"poiid":"B2094654D469ABF4439B","title":"通河一村","lon":"121.44834","lat":"31.335154","category":"47","category_name":"住宅区","address":"通河路100弄"},{"poiid":"B2094757D16BABFA409B","title":"上海婚庆中心","lon":"121.442654","lat":"31.337633","category":"500","category_name":"未知分类","address":"上海市宝山区纪蕰路478号"},{"poiid":"B2094757D06FABFD409E","title":"通河中学","lon":"121.44054","lat":"31.33593","category":"55","category_name":"中学","address":"宝山区呼玛路888号(共和新路呼玛路)"},{"poiid":"B2094757D068A2F8479F","title":"富浩花苑","lon":"121.453779174","lat":"31.3445242076","category":"47","category_name":"住宅区","address":"上海市宝山区虎林路800弄"},{"poiid":"B2094757D068A0FB479E","title":"泗塘公园","lon":"121.449898778","lat":"31.3383032726","category":"196","category_name":"公园","address":"上海宝山区爱晖路710号"},{"poiid":"B2094654D469ABF4469E","title":"锦辉豪居","lon":"121.44714","lat":"31.345362","category":"47","category_name":"住宅区","address":"上海市宝山区爱晖路1018弄"},{"poiid":"B2094654D469ABF4419E","title":"呼玛二村玉兰苑","lon":"121.44536","lat":"31.34211","category":"47","category_name":"住宅区","address":"通和新村"},{"poiid":"B2094757D068A4F8419B","title":"上海交通职业技术学院(北校区)","lon":"121.44466305","lat":"31.3420826381","category":"54","category_name":"职业技术学校","address":"上海市宝山区呼兰路763号"},{"poiid":"B2094757D168A6F8489D","title":"呼玛五村","lon":"121.43906","lat":"31.340595","category":"47","category_name":"住宅区","address":"上海宝山区呼兰路1017弄"},{"poiid":"B2094757D168A3F5469A","title":"老好人大酒店","lon":"121.44604375","lat":"31.3391038811","category":"76","category_name":"上海菜","address":"宝山区呼玛路588号"},{"poiid":"B2094655D26BA2FF479D","title":"通河路","lon":"121.44688","lat":"31.34327","category":"38","category_name":"公交车站","address":"通河三村"},{"poiid":"B2094655D264A0F9469D","title":"牧羊鱼林港通河路店","lon":"121.44555","lat":"31.3361","category":"86","category_name":"火锅店","address":"宝山区通河路500号(近长江西路)"},{"poiid":"B2094757D06FA3F4419A","title":"张庙","lon":"121.45220947","lat":"31.336538314","category":"260","category_name":"其他","address":"上海宝山区"},{"poiid":"B2094655D36CA7FF4398","title":"呼兰路通河路","lon":"121.4446","lat":"31.34246","category":"38","category_name":"公交车站","address":""},{"poiid":"B2094757D06BA2FE4499","title":"虎林园","lon":"121.44578","lat":"31.34248","category":"196","category_name":"公园","address":"宝山区呼兰路700号(近爱辉路)"},{"poiid":"B2094655D26FA4FC459F","title":"好德","lon":"121.44581","lat":"31.34303","category":"117","category_name":"便民商店/便利店","address":""},{"poiid":"B2094654D46AA2F54493","title":"协作网通河街道图书馆第六分馆","lon":"121.446","lat":"31.34373","category":"181","category_name":"图书馆","address":""},{"poiid":"B2094654D46AA2F5459C","title":"万源百货","lon":"121.44576","lat":"31.34301","category":"119","category_name":"商场","address":""},{"poiid":"B2094757D165A5FF4299","title":"Qian's home","lon":"121.44470995","lat":"31.3443604817","category":"500","category_name":"未知分类","address":null},{"poiid":"B2094655D26FA4FE4293","title":"快客","lon":"121.44559","lat":"31.34296","category":"117","category_name":"便民商店/便利店","address":""},{"poiid":"B2094654D469ABF4459E","title":"上海新闻出版职业技术学校","lon":"121.44023","lat":"31.34199","category":"54","category_name":"职业技术学校","address":"宝山区呼兰路921号"},{"poiid":"B2094757D16CABFA449D","title":"麦咖啡McCafe王府井店","lon":"121.44544595","lat":"31.3418784342","category":"65","category_name":"咖啡厅","address":"北京东城区王府井大街200号工美大厦1楼"},{"poiid":"B2094757D465A0FA4692","title":"百味鲜海鲜酒楼","lon":"121.44724","lat":"31.33868","category":"76","category_name":"上海菜","address":"宝山区呼玛路616号(近通河路)"},{"poiid":"B2094750D768A6F5459A","title":"马氏猪肚鸡","lon":"121.449","lat":"31.3398","category":"86","category_name":"火锅店","address":"宝山区呼玛路537号(近爱辉路)"},{"poiid":"B2094757D168A3FA4098","title":"呼玛四村小区门口烧烤摊","lon":"121.44632747","lat":"31.344394218","category":"500","category_name":"未知分类","address":"上海呼玛四村门口"},{"poiid":"B2094757D064A4F9469C","title":"宝山区呼兰路","lon":"121.445870441","lat":"31.3427823058","category":"500","category_name":"未知分类","address":"上海呼玛四村"},{"poiid":"B2094757D568A4FB4598","title":"光明便利(呼兰路)","lon":"121.44653022","lat":"31.34317464","category":"117","category_name":"便民商店/便利店","address":"呼兰路635号"},{"poiid":"B2094654D46AA1FC4493","title":"东东骨头王火锅城 宝山店","lon":"121.44707777469","lat":"31.332782671506","category":"86","category_name":"火锅店","address":"宝山区通河路508号(近长江西路)"},{"poiid":"B2094654D469ABF44199","title":"长江路地段医院","lon":"121.44473","lat":"31.34019","category":"162","category_name":"医院","address":"宝山区通河路596号"},{"poiid":"B2094654D469ABF44498","title":"上海市交通学校","lon":"121.44139","lat":"31.34187","category":"55","category_name":"中学","address":"呼兰路883"},{"poiid":"B2094757D66EA6FE449C","title":"真南路真北路","lon":"121.44348475","lat":"31.3432692609","category":"500","category_name":"未知分类","address":"上海同济校区"},{"poiid":"B2094654D46AA1FC4193","title":"呼玛三村小区","lon":"121.44049","lat":"31.3406","category":"47","category_name":"住宅区","address":"通和新村"},{"poiid":"B2094757D06BA2F9469F","title":"通河全民健身中心游泳池","lon":"121.44472","lat":"31.33802","category":"220","category_name":"运动场所","address":"宝山区通河路590号(近呼玛路)"},{"poiid":"B2094655D36CA4FE4092","title":"爱辉路呼兰路","lon":"121.44977","lat":"31.34101","category":"38","category_name":"公交车站","address":""},{"poiid":"B2094654D469ABFB499B","title":"上海市呼玛中学","lon":"121.45","lat":"31.3433","category":"55","category_name":"中学","address":"宝山区爱辉路585号"},{"poiid":"B2094757D16CA6F54593","title":"845终点站","lon":"121.445073","lat":"31.342437","category":"500","category_name":"未知分类","address":"上海呼兰路"},{"poiid":"B2094757D569A3FE439D","title":"baby pinH","lon":"121.44253472","lat":"31.34180366","category":"117","category_name":"便民商店/便利店","address":"呼兰路"},{"poiid":"B2094757D06BA3FF439F","title":"木萨火锅店(清真)","lon":"121.446814","lat":"31.338571","category":"247","category_name":"餐饮美食","address":"上海市宝山区呼玛路636号"},{"poiid":"B2094757D06BAAF4499E","title":"上海安吉大众4S店","lon":"121.435288","lat":"31.350714","category":"500","category_name":"未知分类","address":"上海市蕴川路329号"},{"poiid":"B2094757DA69A1FA469E","title":"上海婚礼中心","lon":"121.43717610502","lat":"31.339079734167","category":"638","category_name":"金融服务类公司","address":"宝山区纪蕴路458号(近南蕴藻路)查看地图"},{"poiid":"B2094757D06EAAFC4093","title":"呼兰路地铁站","lon":"121.43764864","lat":"31.340091187","category":"36","category_name":"地铁站","address":"上海轨道交通 一号线 轨交呼兰路站 1"},{"poiid":"B2094654D469ABF44499","title":"上海交通职业技术学院(上海市交通学校)","lon":"121.44139","lat":"31.34187","category":"52","category_name":"高等院校","address":"宝山区呼兰路883号(呼兰路呼青路)"},{"poiid":"B2094757D06FA6F4489A","title":"通河全民健身活动中心","lon":"121.44552","lat":"31.33684","category":"221","category_name":"健身中心","address":"宝山区通河路590号(近呼玛路)"},{"poiid":"B2094757D06AA6FF429A","title":"呼玛三村","lon":"121.44167595","lat":"31.339503388","category":"252","category_name":"楼宇机构","address":"上海宝山区呼玛路近共和新路"},{"poiid":"B2094757D06FA0FE4392","title":"呼玛二村","lon":"121.455","lat":"31.348","category":"47","category_name":"住宅区","address":"上海呼玛二村"},{"poiid":"B2094757D06FA1F4489A","title":"上海智力产业园","lon":"121.437162","lat":"31.339822","category":"260","category_name":"其他","address":"上海纪蕴路588号南区6号楼"},{"poiid":"B2094757D06FA5F9499A","title":"长江西路通河路","lon":"121.44644","lat":"31.334228","category":"500","category_name":"未知分类","address":"上海长江西路通河路"},{"poiid":"B2094757D068A0FF459E","title":"呼玛四村","lon":"121.44572","lat":"31.344154","category":"252","category_name":"楼宇机构","address":"上海呼兰路675号"},{"poiid":"B2094655D36CA7FF4299","title":"呼玛一村","lon":"121.44975","lat":"31.341736","category":"38","category_name":"公交车站","address":"呼玛路爱辉路"},{"poiid":"B2094757D068A7FB419D","title":"胖子烧烤","lon":"121.44590595","lat":"31.3347402976","category":"247","category_name":"餐饮美食","address":"上海长江西路通河路"},{"poiid":"B2094654D469ABF4439B","title":"通河一村","lon":"121.44834","lat":"31.335154","category":"47","category_name":"住宅区","address":"通河路100弄"},{"poiid":"B2094757D16BABFA409B","title":"上海婚庆中心","lon":"121.442654","lat":"31.337633","category":"500","category_name":"未知分类","address":"上海市宝山区纪蕰路478号"},{"poiid":"B2094757D06FABFD409E","title":"通河中学","lon":"121.44054","lat":"31.33593","category":"55","category_name":"中学","address":"宝山区呼玛路888号(共和新路呼玛路)"},{"poiid":"B2094757D068A2F8479F","title":"富浩花苑","lon":"121.453779174","lat":"31.3445242076","category":"47","category_name":"住宅区","address":"上海市宝山区虎林路800弄"},{"poiid":"B2094757D068A0FB479E","title":"泗塘公园","lon":"121.449898778","lat":"31.3383032726","category":"196","category_name":"公园","address":"上海宝山区爱晖路710号"},{"poiid":"B2094654D469ABF4469E","title":"锦辉豪居","lon":"121.44714","lat":"31.345362","category":"47","category_name":"住宅区","address":"上海市宝山区爱晖路1018弄"},{"poiid":"B2094654D469ABF4419E","title":"呼玛二村玉兰苑","lon":"121.44536","lat":"31.34211","category":"47","category_name":"住宅区","address":"通和新村"},{"poiid":"B2094757D068A4F8419B","title":"上海交通职业技术学院(北校区)","lon":"121.44466305","lat":"31.3420826381","category":"54","category_name":"职业技术学校","address":"上海市宝山区呼兰路763号"},{"poiid":"B2094757D168A6F8489D","title":"呼玛五村","lon":"121.43906","lat":"31.340595","category":"47","category_name":"住宅区","address":"上海宝山区呼兰路1017弄"},{"poiid":"B2094757D168A3F5469A","title":"老好人大酒店","lon":"121.44604375","lat":"31.3391038811","category":"76","category_name":"上海菜","address":"宝山区呼玛路588号"},{"poiid":"B2094655D26BA2FF479D","title":"通河路","lon":"121.44688","lat":"31.34327","category":"38","category_name":"公交车站","address":"通河三村"},{"poiid":"B2094655D264A0F9469D","title":"牧羊鱼林港通河路店","lon":"121.44555","lat":"31.3361","category":"86","category_name":"火锅店","address":"宝山区通河路500号(近长江西路)"},{"poiid":"B2094757D06FA3F4419A","title":"张庙","lon":"121.45220947","lat":"31.336538314","category":"260","category_name":"其他","address":"上海宝山区"},{"poiid":"B2094655D36CA7FF4398","title":"呼兰路通河路","lon":"121.4446","lat":"31.34246","category":"38","category_name":"公交车站","address":""},{"poiid":"B2094757D06BA2FE4499","title":"虎林园","lon":"121.44578","lat":"31.34248","category":"196","category_name":"公园","address":"宝山区呼兰路700号(近爱辉路)"},{"poiid":"B2094655D26FA4FC459F","title":"好德","lon":"121.44581","lat":"31.34303","category":"117","category_name":"便民商店/便利店","address":""},{"poiid":"B2094654D46AA2F54493","title":"协作网通河街道图书馆第六分馆","lon":"121.446","lat":"31.34373","category":"181","category_name":"图书馆","address":""},{"poiid":"B2094654D46AA2F5459C","title":"万源百货","lon":"121.44576","lat":"31.34301","category":"119","category_name":"商场","address":""},{"poiid":"B2094757D165A5FF4299","title":"Qian's home","lon":"121.44470995","lat":"31.3443604817","category":"500","category_name":"未知分类","address":null},{"poiid":"B2094655D26FA4FE4293","title":"快客","lon":"121.44559","lat":"31.34296","category":"117","category_name":"便民商店/便利店","address":""},{"poiid":"B2094654D469ABF4459E","title":"上海新闻出版职业技术学校","lon":"121.44023","lat":"31.34199","category":"54","category_name":"职业技术学校","address":"宝山区呼兰路921号"},{"poiid":"B2094757D16CABFA449D","title":"麦咖啡McCafe王府井店","lon":"121.44544595","lat":"31.3418784342","category":"65","category_name":"咖啡厅","address":"北京东城区王府井大街200号工美大厦1楼"},{"poiid":"B2094757D465A0FA4692","title":"百味鲜海鲜酒楼","lon":"121.44724","lat":"31.33868","category":"76","category_name":"上海菜","address":"宝山区呼玛路616号(近通河路)"},{"poiid":"B2094750D768A6F5459A","title":"马氏猪肚鸡","lon":"121.449","lat":"31.3398","category":"86","category_name":"火锅店","address":"宝山区呼玛路537号(近爱辉路)"},{"poiid":"B2094757D168A3FA4098","title":"呼玛四村小区门口烧烤摊","lon":"121.44632747","lat":"31.344394218","category":"500","category_name":"未知分类","address":"上海呼玛四村门口"},{"poiid":"B2094757D064A4F9469C","title":"宝山区呼兰路","lon":"121.445870441","lat":"31.3427823058","category":"500","category_name":"未知分类","address":"上海呼玛四村"},{"poiid":"B2094757D568A4FB4598","title":"光明便利(呼兰路)","lon":"121.44653022","lat":"31.34317464","category":"117","category_name":"便民商店/便利店","address":"呼兰路635号"},{"poiid":"B2094654D46AA1FC4493","title":"东东骨头王火锅城 宝山店","lon":"121.44707777469","lat":"31.332782671506","category":"86","category_name":"火锅店","address":"宝山区通河路508号(近长江西路)"},{"poiid":"B2094654D469ABF44199","title":"长江路地段医院","lon":"121.44473","lat":"31.34019","category":"162","category_name":"医院","address":"宝山区通河路596号"},{"poiid":"B2094654D469ABF44498","title":"上海市交通学校","lon":"121.44139","lat":"31.34187","category":"55","category_name":"中学","address":"呼兰路883"},{"poiid":"B2094757D66EA6FE449C","title":"真南路真北路","lon":"121.44348475","lat":"31.3432692609","category":"500","category_name":"未知分类","address":"上海同济校区"},{"poiid":"B2094654D46AA1FC4193","title":"呼玛三村小区","lon":"121.44049","lat":"31.3406","category":"47","category_name":"住宅区","address":"通和新村"},{"poiid":"B2094757D06BA2F9469F","title":"通河全民健身中心游泳池","lon":"121.44472","lat":"31.33802","category":"220","category_name":"运动场所","address":"宝山区通河路590号(近呼玛路)"},{"poiid":"B2094655D36CA4FE4092","title":"爱辉路呼兰路","lon":"121.44977","lat":"31.34101","category":"38","category_name":"公交车站","address":""},{"poiid":"B2094654D469ABFB499B","title":"上海市呼玛中学","lon":"121.45","lat":"31.3433","category":"55","category_name":"中学","address":"宝山区爱辉路585号"},{"poiid":"B2094757D16CA6F54593","title":"845终点站","lon":"121.445073","lat":"31.342437","category":"500","category_name":"未知分类","address":"上海呼兰路"},{"poiid":"B2094757D569A3FE439D","title":"baby pinH","lon":"121.44253472","lat":"31.34180366","category":"117","category_name":"便民商店/便利店","address":"呼兰路"},{"poiid":"B2094757D06BA3FF439F","title":"木萨火锅店(清真)","lon":"121.446814","lat":"31.338571","category":"247","category_name":"餐饮美食","address":"上海市宝山区呼玛路636号"},{"poiid":"B2094757D06BAAF4499E","title":"上海安吉大众4S店","lon":"121.435288","lat":"31.350714","category":"500","category_name":"未知分类","address":"上海市蕴川路329号"}]