[{"poiid":"B2094654DB65A3F9409F","title":"同济大学","lon":"121.50083329447739","lat":"31.283135988567455","category":"671","category_name":"高校中心点","address":"上海市杨浦区四平路1239号"},{"poiid":"B2094757D06FA3FE4993","title":"同济大学南校区","lon":"121.500104","lat":"31.2804","category":"52","category_name":"高等院校","address":"上海杨浦区赤峰路67号"},{"poiid":"B2094757D06FA2FD4898","title":"同济大学游泳馆","lon":"121.50164684","lat":"31.280176495","category":"231","category_name":"游泳馆","address":"杨浦区四平路1239号同济大学内(近彰武路)"},{"poiid":"B2094757D06FA2FC4992","title":"Salabim意式餐厅(赤峰路店)","lon":"121.50036","lat":"31.28033","category":"94","category_name":"西餐厅","address":"上海杨浦区赤峰路70号(近同济大学)"},{"poiid":"B2094757D068A3FE499D","title":"同济大学校医院","lon":"121.50079","lat":"31.28029","category":"162","category_name":"医院","address":"上海杨浦区赤峰路50号(近四平路)  "},{"poiid":"B2094654DB65A6FD499C","title":"同济大学(南二门)","lon":"121.49676","lat":"31.28203","category":"52","category_name":"高等院校","address":"杨浦区赤峰路200"},{"poiid":"B2094757D06FA6FF4792","title":"同济大学土木工程学院","lon":"121.49913415","lat":"31.281220153","category":"253","category_name":"校园生活","address":"上海杨浦区四平路1239号内"},{"poiid":"B2094757D06FA6FF449B","title":"同济大学本部学苑饮食广场","lon":"121.50288391","lat":"31.282517632","category":"112","category_name":"糕饼店","address":"杨浦区四平路1239号同济大学内(近彰武路)"},{"poiid":"B2094757D06FA4FA449A","title":"同济大学第一教学楼","lon":"121.498786867","lat":"31.2787655687","category":"253","category_name":"校园生活","address":"上海赤峰路67号"},{"poiid":"B2094655D26CA1FD499B","title":"同济大学(南一门)","lon":"121.5004","lat":"31.2807","category":"52","category_name":"高等院校","address":"赤峰路50"},{"poiid":"B2094757D06FA5F94793","title":"第五街(同济大学店)","lon":"121.500271655","lat":"31.283556159","category":"68","category_name":"快餐厅","address":"杨浦区四平路1239号同济大学本部校区音乐广场旁(近彰武路)"},{"poiid":"B2094757D06BABFF439C","title":"同济大学中德学院","lon":"121.500404","lat":"31.280711","category":"253","category_name":"校园生活","address":"上海杨浦区四平路1239号同济大学四平路校区"},{"poiid":"B2094757D16CA6FB4092","title":"同济大学科技园","lon":"121.501968078","lat":"31.2818079602","category":"46","category_name":"楼宇","address":"上海杨浦区四平路1239号同济大学四平路校区"},{"poiid":"B2094757D06BA2FB4999","title":"同济大学医学楼","lon":"121.501498844","lat":"31.2810634958","category":"253","category_name":"校园生活","address":"上海杨浦区四平路1239号同济大学四平路校区"},{"poiid":"B2094757D069A6FC489D","title":"同济大学西南八楼","lon":"121.49957995","lat":"31.282160425","category":"500","category_name":"未知分类","address":"上海杨浦区四平路1239号同济大学内(近赤峰路)"},{"poiid":"B2094757D06FA6F8499F","title":"同济大学大学生活动中心","lon":"121.50053739","lat":"31.283949644","category":"249","category_name":"购物服务","address":"上海杨浦区四平路1239号同济大学内"},{"poiid":"B2094757D16EA2FB499A","title":"同济大学经济与管理学院云通楼","lon":"121.4998186","lat":"31.281060744","category":"500","category_name":"未知分类","address":"上海赤峰路50号"},{"poiid":"B2094757D06AA0FB469B","title":"同济大学网球场","lon":"121.50183","lat":"31.2824","category":"253","category_name":"校园生活","address":"杨浦区四平路1249号(近赤峰路)"},{"poiid":"B2094757D06BA4F94098","title":"交行上分培训中心","lon":"121.498069","lat":"31.281133","category":"253","category_name":"校园生活","address":"上海赤峰路89弄"},{"poiid":"B2094655D265A2FC469B","title":"同济大学电影学院实验剧场","lon":"121.49946","lat":"31.27884","category":"180","category_name":"剧场","address":""},{"poiid":"B2094757D069A2FC4093","title":"同济大学南校区体育馆","lon":"121.49941","lat":"31.27931","category":"224","category_name":"综合体育馆","address":"虹口区赤峰路65号同济大学南校区内(近四平路)"},{"poiid":"B2094757D06AA1FE409A","title":"上海市贸易学校","lon":"121.50351","lat":"31.27909","category":"52","category_name":"高等院校","address":"虹口区赤峰路43号(近四平路)"},{"poiid":"B2094757D06AA2F5479B","title":"63号设计创意工场","lon":"121.50099945","lat":"31.279600143","category":"190","category_name":"培训机构","address":"虹口区赤峰路63号(近密云路)"},{"poiid":"B2094757D068A7FB409D","title":"红辣椒餐厅","lon":"121.502438","lat":"31.279491","category":"68","category_name":"快餐厅","address":"上海虹口区赤峰路53号(近四平路)"},{"poiid":"B2094757D06AA6FB439D","title":"同济大学黑暗料理街","lon":"121.50228","lat":"31.28364","category":"68","category_name":"快餐厅","address":"杨浦区四平路1239号同济大学南门外(近同济大学中德学院)"},{"poiid":"B2094757D06FA4F54598","title":"同济大学西苑饮食广场","lon":"121.49798183","lat":"31.282833915","category":"253","category_name":"校园生活","address":"上海四平路1239号"},{"poiid":"B2094654DB64A5FD4392","title":"三好坞景观餐厅","lon":"121.50083","lat":"31.28313","category":"76","category_name":"上海菜","address":"杨浦区四平路1239号同济大学内(近彰武路)"},{"poiid":"B2094655D265A0FA4492","title":"萨啦斌欧式西餐厅","lon":"121.49996","lat":"31.28085","category":"94","category_name":"西餐厅","address":"赤峰路70"},{"poiid":"B2094750DB6DA0F84793","title":"同济君禧大酒店","lon":"121.508113","lat":"31.281384","category":"247","category_name":"餐饮美食","address":"彰武路50号同济君禧大酒店2楼"},{"poiid":"B2094757D069A3FD489D","title":"全家便利(赤峰路三店)","lon":"121.501546","lat":"31.279798","category":"117","category_name":"便民商店/便利店","address":"上海虹口区赤峰路63-4号"},{"poiid":"B2094757DB68AAFF4898","title":"同济大学建筑与城市规划学院","lon":"121.500195","lat":"31.280733","category":"52","category_name":"高等院校","address":"杨浦区赤峰路67同济大学南校区"},{"poiid":"B2094757D16CA4F54693","title":"同济大学音乐广场","lon":"121.498366","lat":"31.281004","category":"500","category_name":"未知分类","address":"上海市赤峰路"},{"poiid":"B2094654DB6AAAF8419E","title":"书香公寓","lon":"121.50202","lat":"31.2792","category":"47","category_name":"住宅区","address":"上海市杨浦区赤峰路59弄(神往大酒店旁)"},{"poiid":"B2094655D26EA2F4499C","title":"德桐咖啡快餐","lon":"121.50028","lat":"31.28126","category":"65","category_name":"咖啡厅","address":"同济大学中德学院3层"},{"poiid":"B2094757D069A1FE4198","title":"新亚大包 赤峰路店","lon":"121.50387457557","lat":"31.279416633279","category":"68","category_name":"快餐厅","address":"虹口区赤峰路63号(近四平路)"},{"poiid":"B2094655D26CA1FC4492","title":"同济云通楼","lon":"121.4999","lat":"31.28088","category":"46","category_name":"楼宇","address":"赤峰路66-2"},{"poiid":"B2094654DB6AAAF8419B","title":"同济大学3号门","lon":"121.50001","lat":"31.2804","category":"52","category_name":"高等院校","address":"赤峰路67"},{"poiid":"B2094757D16DAAFC459F","title":"那诺咖啡","lon":"121.5004561","lat":"31.280717637","category":"260","category_name":"其他","address":"虹口区赤峰路65号同济大学科技园1楼(近四平路)"},{"poiid":"B2094654DB6AAAF8419A","title":"同济大学国家大学科技园(密云路)","lon":"121.50033","lat":"31.28022","category":"45","category_name":"产业园区","address":"赤峰路65"},{"poiid":"B2094757D06BA5FA419E","title":"同昆数码彩印(赤峰路店)","lon":"121.49892","lat":"31.28066","category":"500","category_name":"未知分类","address":"虹口区赤峰路81号(近同济大学)"},{"poiid":"B2094757D568A6FA429F","title":"王师傅蛋炒饭","lon":"121.5009231","lat":"31.28003806","category":"68","category_name":"快餐厅","address":"虹口区赤峰路65号同济大学内(近四平路)"},{"poiid":"B2094757D66CA2FF459B","title":"同济大学南门流动摊贩与夜市","lon":"121.500733103","lat":"31.2802976287","category":"68","category_name":"快餐厅","address":"上海市杨浦区赤峰路同济大学南门外"},{"poiid":"B2094757D66CA5FE419E","title":"吉祥馄饨","lon":"121.501689103","lat":"31.2794756115","category":"68","category_name":"快餐厅","address":"虹口区赤峰路53号(近四平路)"},{"poiid":"B2094654DB65A6FD4693","title":"同济大学传播与艺术学院","lon":"121.5003","lat":"31.28127","category":"52","category_name":"高等院校","address":""},{"poiid":"B2094757D064ABFB409B","title":"志超酒家(赤峰店)","lon":"121.49818","lat":"31.28136","category":"76","category_name":"上海菜","address":"虹口区赤峰路180号(近密云路)"},{"poiid":"B2094757D16BA0FD419B","title":"同济南校门(赤峰路65号)","lon":"121.500552","lat":"31.280129","category":"500","category_name":"未知分类","address":"上海杨浦区赤峰路65号"},{"poiid":"B2094655D26DA6F9419F","title":"上海大众汽车同济销售服务有限公司","lon":"121.49832","lat":"31.28148","category":"159","category_name":"汽车维修","address":"虹口区赤峰路150号(近密云路)"},{"poiid":"B2094757D66DA5F94992","title":"同济大学经济与管理学院","lon":"121.4998041","lat":"31.280945642","category":"500","category_name":"未知分类","address":"上海市虹口区密云路"},{"poiid":"B2094655D26CA1F8499F","title":"同济大学网络教育学院","lon":"121.49925","lat":"31.28061","category":"52","category_name":"高等院校","address":""},{"poiid":"B2094655D264ABF44598","title":"教育部同济大学外国留学生预科部","lon":"121.49917","lat":"31.28037","category":"52","category_name":"高等院校","address":""},{"poiid":"B2094654DB65A3F9409F","title":"同济大学","lon":"121.50083329447739","lat":"31.283135988567455","category":"671","category_name":"高校中心点","address":"上海市杨浦区四平路1239号"},{"poiid":"B2094757D06FA3FE4993","title":"同济大学南校区","lon":"121.500104","lat":"31.2804","category":"52","category_name":"高等院校","address":"上海杨浦区赤峰路67号"},{"poiid":"B2094757D06FA2FD4898","title":"同济大学游泳馆","lon":"121.50164684","lat":"31.280176495","category":"231","category_name":"游泳馆","address":"杨浦区四平路1239号同济大学内(近彰武路)"},{"poiid":"B2094757D06FA2FC4992","title":"Salabim意式餐厅(赤峰路店)","lon":"121.50036","lat":"31.28033","category":"94","category_name":"西餐厅","address":"上海杨浦区赤峰路70号(近同济大学)"},{"poiid":"B2094757D068A3FE499D","title":"同济大学校医院","lon":"121.50079","lat":"31.28029","category":"162","category_name":"医院","address":"上海杨浦区赤峰路50号(近四平路)  "},{"poiid":"B2094654DB65A6FD499C","title":"同济大学(南二门)","lon":"121.49676","lat":"31.28203","category":"52","category_name":"高等院校","address":"杨浦区赤峰路200"},{"poiid":"B2094757D06FA6FF4792","title":"同济大学土木工程学院","lon":"121.49913415","lat":"31.281220153","category":"253","category_name":"校园生活","address":"上海杨浦区四平路1239号内"},{"poiid":"B2094757D06FA6FF449B","title":"同济大学本部学苑饮食广场","lon":"121.50288391","lat":"31.282517632","category":"112","category_name":"糕饼店","address":"杨浦区四平路1239号同济大学内(近彰武路)"},{"poiid":"B2094757D06FA4FA449A","title":"同济大学第一教学楼","lon":"121.498786867","lat":"31.2787655687","category":"253","category_name":"校园生活","address":"上海赤峰路67号"},{"poiid":"B2094655D26CA1FD499B","title":"同济大学(南一门)","lon":"121.5004","lat":"31.2807","category":"52","category_name":"高等院校","address":"赤峰路50"},{"poiid":"B2094757D06FA5F94793","title":"第五街(同济大学店)","lon":"121.500271655","lat":"31.283556159","category":"68","category_name":"快餐厅","address":"杨浦区四平路1239号同济大学本部校区音乐广场旁(近彰武路)"},{"poiid":"B2094757D06BABFF439C","title":"同济大学中德学院","lon":"121.500404","lat":"31.280711","category":"253","category_name":"校园生活","address":"上海杨浦区四平路1239号同济大学四平路校区"},{"poiid":"B2094757D16CA6FB4092","title":"同济大学科技园","lon":"121.501968078","lat":"31.2818079602","category":"46","category_name":"楼宇","address":"上海杨浦区四平路1239号同济大学四平路校区"},{"poiid":"B2094757D06BA2FB4999","title":"同济大学医学楼","lon":"121.501498844","lat":"31.2810634958","category":"253","category_name":"校园生活","address":"上海杨浦区四平路1239号同济大学四平路校区"},{"poiid":"B2094757D069A6FC489D","title":"同济大学西南八楼","lon":"121.49957995","lat":"31.282160425","category":"500","category_name":"未知分类","address":"上海杨浦区四平路1239号同济大学内(近赤峰路)"},{"poiid":"B2094757D06FA6F8499F","title":"同济大学大学生活动中心","lon":"121.50053739","lat":"31.283949644","category":"249","category_name":"购物服务","address":"上海杨浦区四平路1239号同济大学内"},{"poiid":"B2094757D16EA2FB499A","title":"同济大学经济与管理学院云通楼","lon":"121.4998186","lat":"31.281060744","category":"500","category_name":"未知分类","address":"上海赤峰路50号"},{"poiid":"B2094757D06AA0FB469B","title":"同济大学网球场","lon":"121.50183","lat":"31.2824","category":"253","category_name":"校园生活","address":"杨浦区四平路1249号(近赤峰路)"},{"poiid":"B2094757D06BA4F94098","title":"交行上分培训中心","lon":"121.498069","lat":"31.281133","category":"253","category_name":"校园生活","address":"上海赤峰路89弄"},{"poiid":"B2094655D265A2FC469B","title":"同济大学电影学院实验剧场","lon":"121.49946","lat":"31.27884","category":"180","category_name":"剧场","address":""},{"poiid":"B2094757D069A2FC4093","title":"同济大学南校区体育馆","lon":"121.49941","lat":"31.27931","category":"224","category_name":"综合体育馆","address":"虹口区赤峰路65号同济大学南校区内(近四平路)"},{"poiid":"B2094757D06AA1FE409A","title":"上海市贸易学校","lon":"121.50351","lat":"31.27909","category":"52","category_name":"高等院校","address":"虹口区赤峰路43号(近四平路)"},{"poiid":"B2094757D06AA2F5479B","title":"63号设计创意工场","lon":"121.50099945","lat":"31.279600143","category":"190","category_name":"培训机构","address":"虹口区赤峰路63号(近密云路)"},{"poiid":"B2094757D068A7FB409D","title":"红辣椒餐厅","lon":"121.502438","lat":"31.279491","category":"68","category_name":"快餐厅","address":"上海虹口区赤峰路53号(近四平路)"},{"poiid":"B2094757D06AA6FB439D","title":"同济大学黑暗料理街","lon":"121.50228","lat":"31.28364","category":"68","category_name":"快餐厅","address":"杨浦区四平路1239号同济大学南门外(近同济大学中德学院)"},{"poiid":"B2094757D06FA4F54598","title":"同济大学西苑饮食广场","lon":"121.49798183","lat":"31.282833915","category":"253","category_name":"校园生活","address":"上海四平路1239号"},{"poiid":"B2094654DB64A5FD4392","title":"三好坞景观餐厅","lon":"121.50083","lat":"31.28313","category":"76","category_name":"上海菜","address":"杨浦区四平路1239号同济大学内(近彰武路)"},{"poiid":"B2094655D265A0FA4492","title":"萨啦斌欧式西餐厅","lon":"121.49996","lat":"31.28085","category":"94","category_name":"西餐厅","address":"赤峰路70"},{"poiid":"B2094750DB6DA0F84793","title":"同济君禧大酒店","lon":"121.508113","lat":"31.281384","category":"247","category_name":"餐饮美食","address":"彰武路50号同济君禧大酒店2楼"},{"poiid":"B2094757D069A3FD489D","title":"全家便利(赤峰路三店)","lon":"121.501546","lat":"31.279798","category":"117","category_name":"便民商店/便利店","address":"上海虹口区赤峰路63-4号"},{"poiid":"B2094757DB68AAFF4898","title":"同济大学建筑与城市规划学院","lon":"121.500195","lat":"31.280733","category":"52","category_name":"高等院校","address":"杨浦区赤峰路67同济大学南校区"},{"poiid":"B2094757D16CA4F54693","title":"同济大学音乐广场","lon":"121.498366","lat":"31.281004","category":"500","category_name":"未知分类","address":"上海市赤峰路"},{"poiid":"B2094654DB6AAAF8419E","title":"书香公寓","lon":"121.50202","lat":"31.2792","category":"47","category_name":"住宅区","address":"上海市杨浦区赤峰路59弄(神往大酒店旁)"},{"poiid":"B2094655D26EA2F4499C","title":"德桐咖啡快餐","lon":"121.50028","lat":"31.28126","category":"65","category_name":"咖啡厅","address":"同济大学中德学院3层"},{"poiid":"B2094757D069A1FE4198","title":"新亚大包 赤峰路店","lon":"121.50387457557","lat":"31.279416633279","category":"68","category_name":"快餐厅","address":"虹口区赤峰路63号(近四平路)"},{"poiid":"B2094655D26CA1FC4492","title":"同济云通楼","lon":"121.4999","lat":"31.28088","category":"46","category_name":"楼宇","address":"赤峰路66-2"},{"poiid":"B2094654DB6AAAF8419B","title":"同济大学3号门","lon":"121.50001","lat":"31.2804","category":"52","category_name":"高等院校","address":"赤峰路67"},{"poiid":"B2094757D16DAAFC459F","title":"那诺咖啡","lon":"121.5004561","lat":"31.280717637","category":"260","category_name":"其他","address":"虹口区赤峰路65号同济大学科技园1楼(近四平路)"},{"poiid":"B2094654DB6AAAF8419A","title":"同济大学国家大学科技园(密云路)","lon":"121.50033","lat":"31.28022","category":"45","category_name":"产业园区","address":"赤峰路65"},{"poiid":"B2094757D06BA5FA419E","title":"同昆数码彩印(赤峰路店)","lon":"121.49892","lat":"31.28066","category":"500","category_name":"未知分类","address":"虹口区赤峰路81号(近同济大学)"},{"poiid":"B2094757D568A6FA429F","title":"王师傅蛋炒饭","lon":"121.5009231","lat":"31.28003806","category":"68","category_name":"快餐厅","address":"虹口区赤峰路65号同济大学内(近四平路)"},{"poiid":"B2094757D66CA2FF459B","title":"同济大学南门流动摊贩与夜市","lon":"121.500733103","lat":"31.2802976287","category":"68","category_name":"快餐厅","address":"上海市杨浦区赤峰路同济大学南门外"},{"poiid":"B2094757D66CA5FE419E","title":"吉祥馄饨","lon":"121.501689103","lat":"31.2794756115","category":"68","category_name":"快餐厅","address":"虹口区赤峰路53号(近四平路)"},{"poiid":"B2094654DB65A6FD4693","title":"同济大学传播与艺术学院","lon":"121.5003","lat":"31.28127","category":"52","category_name":"高等院校","address":""},{"poiid":"B2094757D064ABFB409B","title":"志超酒家(赤峰店)","lon":"121.49818","lat":"31.28136","category":"76","category_name":"上海菜","address":"虹口区赤峰路180号(近密云路)"},{"poiid":"B2094757D16BA0FD419B","title":"同济南校门(赤峰路65号)","lon":"121.500552","lat":"31.280129","category":"500","category_name":"未知分类","address":"上海杨浦区赤峰路65号"},{"poiid":"B2094655D26DA6F9419F","title":"上海大众汽车同济销售服务有限公司","lon":"121.49832","lat":"31.28148","category":"159","category_name":"汽车维修","address":"虹口区赤峰路150号(近密云路)"},{"poiid":"B2094757D66DA5F94992","title":"同济大学经济与管理学院","lon":"121.4998041","lat":"31.280945642","category":"500","category_name":"未知分类","address":"上海市虹口区密云路"},{"poiid":"B2094655D26CA1F8499F","title":"同济大学网络教育学院","lon":"121.49925","lat":"31.28061","category":"52","category_name":"高等院校","address":""},{"poiid":"B2094655D264ABF44598","title":"教育部同济大学外国留学生预科部","lon":"121.49917","lat":"31.28037","category":"52","category_name":"高等院校","address":""},{"poiid":"B2094654DB65A3F9409F","title":"同济大学","lon":"121.50083329447739","lat":"31.283135988567455","category":"671","category_name":"高校中心点","address":"上海市杨浦区四平路1239号"},{"poiid":"B2094757D06FA3FE4993","title":"同济大学南校区","lon":"121.500104","lat":"31.2804","category":"52","category_name":"高等院校","address":"上海杨浦区赤峰路67号"},{"poiid":"B2094757D06FA2FD4898","title":"同济大学游泳馆","lon":"121.50164684","lat":"31.280176495","category":"231","category_name":"游泳馆","address":"杨浦区四平路1239号同济大学内(近彰武路)"},{"poiid":"B2094757D06FA2FC4992","title":"Salabim意式餐厅(赤峰路店)","lon":"121.50036","lat":"31.28033","category":"94","category_name":"西餐厅","address":"上海杨浦区赤峰路70号(近同济大学)"},{"poiid":"B2094757D068A3FE499D","title":"同济大学校医院","lon":"121.50079","lat":"31.28029","category":"162","category_name":"医院","address":"上海杨浦区赤峰路50号(近四平路)  "},{"poiid":"B2094654DB65A6FD499C","title":"同济大学(南二门)","lon":"121.49676","lat":"31.28203","category":"52","category_name":"高等院校","address":"杨浦区赤峰路200"},{"poiid":"B2094757D06FA6FF4792","title":"同济大学土木工程学院","lon":"121.49913415","lat":"31.281220153","category":"253","category_name":"校园生活","address":"上海杨浦区四平路1239号内"},{"poiid":"B2094757D06FA6FF449B","title":"同济大学本部学苑饮食广场","lon":"121.50288391","lat":"31.282517632","category":"112","category_name":"糕饼店","address":"杨浦区四平路1239号同济大学内(近彰武路)"},{"poiid":"B2094757D06FA4FA449A","title":"同济大学第一教学楼","lon":"121.498786867","lat":"31.2787655687","category":"253","category_name":"校园生活","address":"上海赤峰路67号"},{"poiid":"B2094655D26CA1FD499B","title":"同济大学(南一门)","lon":"121.5004","lat":"31.2807","category":"52","category_name":"高等院校","address":"赤峰路50"},{"poiid":"B2094757D06FA5F94793","title":"第五街(同济大学店)","lon":"121.500271655","lat":"31.283556159","category":"68","category_name":"快餐厅","address":"杨浦区四平路1239号同济大学本部校区音乐广场旁(近彰武路)"},{"poiid":"B2094757D06BABFF439C","title":"同济大学中德学院","lon":"121.500404","lat":"31.280711","category":"253","category_name":"校园生活","address":"上海杨浦区四平路1239号同济大学四平路校区"},{"poiid":"B2094757D16CA6FB4092","title":"同济大学科技园","lon":"121.501968078","lat":"31.2818079602","category":"46","category_name":"楼宇","address":"上海杨浦区四平路1239号同济大学四平路校区"},{"poiid":"B2094757D06BA2FB4999","title":"同济大学医学楼","lon":"121.501498844","lat":"31.2810634958","category":"253","category_name":"校园生活","address":"上海杨浦区四平路1239号同济大学四平路校区"},{"poiid":"B2094757D069A6FC489D","title":"同济大学西南八楼","lon":"121.49957995","lat":"31.282160425","category":"500","category_name":"未知分类","address":"上海杨浦区四平路1239号同济大学内(近赤峰路)"},{"poiid":"B2094757D06FA6F8499F","title":"同济大学大学生活动中心","lon":"121.50053739","lat":"31.283949644","category":"249","category_name":"购物服务","address":"上海杨浦区四平路1239号同济大学内"},{"poiid":"B2094757D16EA2FB499A","title":"同济大学经济与管理学院云通楼","lon":"121.4998186","lat":"31.281060744","category":"500","category_name":"未知分类","address":"上海赤峰路50号"},{"poiid":"B2094757D06AA0FB469B","title":"同济大学网球场","lon":"121.50183","lat":"31.2824","category":"253","category_name":"校园生活","address":"杨浦区四平路1249号(近赤峰路)"},{"poiid":"B2094757D06BA4F94098","title":"交行上分培训中心","lon":"121.498069","lat":"31.281133","category":"253","category_name":"校园生活","address":"上海赤峰路89弄"},{"poiid":"B2094655D265A2FC469B","title":"同济大学电影学院实验剧场","lon":"121.49946","lat":"31.27884","category":"180","category_name":"剧场","address":""},{"poiid":"B2094757D069A2FC4093","title":"同济大学南校区体育馆","lon":"121.49941","lat":"31.27931","category":"224","category_name":"综合体育馆","address":"虹口区赤峰路65号同济大学南校区内(近四平路)"},{"poiid":"B2094757D06AA1FE409A","title":"上海市贸易学校","lon":"121.50351","lat":"31.27909","category":"52","category_name":"高等院校","address":"虹口区赤峰路43号(近四平路)"},{"poiid":"B2094757D06AA2F5479B","title":"63号设计创意工场","lon":"121.50099945","lat":"31.279600143","category":"190","category_name":"培训机构","address":"虹口区赤峰路63号(近密云路)"},{"poiid":"B2094757D068A7FB409D","title":"红辣椒餐厅","lon":"121.502438","lat":"31.279491","category":"68","category_name":"快餐厅","address":"上海虹口区赤峰路53号(近四平路)"},{"poiid":"B2094757D06AA6FB439D","title":"同济大学黑暗料理街","lon":"121.50228","lat":"31.28364","category":"68","category_name":"快餐厅","address":"杨浦区四平路1239号同济大学南门外(近同济大学中德学院)"},{"poiid":"B2094757D06FA4F54598","title":"同济大学西苑饮食广场","lon":"121.49798183","lat":"31.282833915","category":"253","category_name":"校园生活","address":"上海四平路1239号"},{"poiid":"B2094654DB64A5FD4392","title":"三好坞景观餐厅","lon":"121.50083","lat":"31.28313","category":"76","category_name":"上海菜","address":"杨浦区四平路1239号同济大学内(近彰武路)"},{"poiid":"B2094655D265A0FA4492","title":"萨啦斌欧式西餐厅","lon":"121.49996","lat":"31.28085","category":"94","category_name":"西餐厅","address":"赤峰路70"},{"poiid":"B2094750DB6DA0F84793","title":"同济君禧大酒店","lon":"121.508113","lat":"31.281384","category":"247","category_name":"餐饮美食","address":"彰武路50号同济君禧大酒店2楼"},{"poiid":"B2094757D069A3FD489D","title":"全家便利(赤峰路三店)","lon":"121.501546","lat":"31.279798","category":"117","category_name":"便民商店/便利店","address":"上海虹口区赤峰路63-4号"},{"poiid":"B2094757DB68AAFF4898","title":"同济大学建筑与城市规划学院","lon":"121.500195","lat":"31.280733","category":"52","category_name":"高等院校","address":"杨浦区赤峰路67同济大学南校区"},{"poiid":"B2094757D16CA4F54693","title":"同济大学音乐广场","lon":"121.498366","lat":"31.281004","category":"500","category_name":"未知分类","address":"上海市赤峰路"},{"poiid":"B2094654DB6AAAF8419E","title":"书香公寓","lon":"121.50202","lat":"31.2792","category":"47","category_name":"住宅区","address":"上海市杨浦区赤峰路59弄(神往大酒店旁)"},{"poiid":"B2094655D26EA2F4499C","title":"德桐咖啡快餐","lon":"121.50028","lat":"31.28126","category":"65","category_name":"咖啡厅","address":"同济大学中德学院3层"},{"poiid":"B2094757D069A1FE4198","title":"新亚大包 赤峰路店","lon":"121.50387457557","lat":"31.279416633279","category":"68","category_name":"快餐厅","address":"虹口区赤峰路63号(近四平路)"},{"poiid":"B2094655D26CA1FC4492","title":"同济云通楼","lon":"121.4999","lat":"31.28088","category":"46","category_name":"楼宇","address":"赤峰路66-2"},{"poiid":"B2094654DB6AAAF8419B","title":"同济大学3号门","lon":"121.50001","lat":"31.2804","category":"52","category_name":"高等院校","address":"赤峰路67"},{"poiid":"B2094757D16DAAFC459F","title":"那诺咖啡","lon":"121.5004561","lat":"31.280717637","category":"260","category_name":"其他","address":"虹口区赤峰路65号同济大学科技园1楼(近四平路)"},{"poiid":"B2094654DB6AAAF8419A","title":"同济大学国家大学科技园(密云路)","lon":"121.50033","lat":"31.28022","category":"45","category_name":"产业园区","address":"赤峰路65"},{"poiid":"B2094757D06BA5FA419E","title":"同昆数码彩印(赤峰路店)","lon":"121.49892","lat":"31.28066","category":"500","category_name":"未知分类","address":"虹口区赤峰路81号(近同济大学)"},{"poiid":"B2094757D568A6FA429F","title":"王师傅蛋炒饭","lon":"121.5009231","lat":"31.28003806","category":"68","category_name":"快餐厅","address":"虹口区赤峰路65号同济大学内(近四平路)"},{"poiid":"B2094757D66CA2FF459B","title":"同济大学南门流动摊贩与夜市","lon":"121.500733103","lat":"31.2802976287","category":"68","category_name":"快餐厅","address":"上海市杨浦区赤峰路同济大学南门外"},{"poiid":"B2094757D66CA5FE419E","title":"吉祥馄饨","lon":"121.501689103","lat":"31.2794756115","category":"68","category_name":"快餐厅","address":"虹口区赤峰路53号(近四平路)"},{"poiid":"B2094654DB65A6FD4693","title":"同济大学传播与艺术学院","lon":"121.5003","lat":"31.28127","category":"52","category_name":"高等院校","address":""},{"poiid":"B2094757D064ABFB409B","title":"志超酒家(赤峰店)","lon":"121.49818","lat":"31.28136","category":"76","category_name":"上海菜","address":"虹口区赤峰路180号(近密云路)"},{"poiid":"B2094757D16BA0FD419B","title":"同济南校门(赤峰路65号)","lon":"121.500552","lat":"31.280129","category":"500","category_name":"未知分类","address":"上海杨浦区赤峰路65号"},{"poiid":"B2094655D26DA6F9419F","title":"上海大众汽车同济销售服务有限公司","lon":"121.49832","lat":"31.28148","category":"159","category_name":"汽车维修","address":"虹口区赤峰路150号(近密云路)"},{"poiid":"B2094757D66DA5F94992","title":"同济大学经济与管理学院","lon":"121.4998041","lat":"31.280945642","category":"500","category_name":"未知分类","address":"上海市虹口区密云路"},{"poiid":"B2094655D26CA1F8499F","title":"同济大学网络教育学院","lon":"121.49925","lat":"31.28061","category":"52","category_name":"高等院校","address":""},{"poiid":"B2094655D264ABF44598","title":"教育部同济大学外国留学生预科部","lon":"121.49917","lat":"31.28037","category":"52","category_name":"高等院校","address":""},{"poiid":"B2094654DB65A3F9409F","title":"同济大学","lon":"121.50083329447739","lat":"31.283135988567455","category":"671","category_name":"高校中心点","address":"上海市杨浦区四平路1239号"},{"poiid":"B2094757D06FA3FE4993","title":"同济大学南校区","lon":"121.500104","lat":"31.2804","category":"52","category_name":"高等院校","address":"上海杨浦区赤峰路67号"},{"poiid":"B2094757D06FA2FD4898","title":"同济大学游泳馆","lon":"121.50164684","lat":"31.280176495","category":"231","category_name":"游泳馆","address":"杨浦区四平路1239号同济大学内(近彰武路)"},{"poiid":"B2094757D06FA2FC4992","title":"Salabim意式餐厅(赤峰路店)","lon":"121.50036","lat":"31.28033","category":"94","category_name":"西餐厅","address":"上海杨浦区赤峰路70号(近同济大学)"},{"poiid":"B2094757D068A3FE499D","title":"同济大学校医院","lon":"121.50079","lat":"31.28029","category":"162","category_name":"医院","address":"上海杨浦区赤峰路50号(近四平路)  "},{"poiid":"B2094654DB65A6FD499C","title":"同济大学(南二门)","lon":"121.49676","lat":"31.28203","category":"52","category_name":"高等院校","address":"杨浦区赤峰路200"},{"poiid":"B2094757D06FA6FF4792","title":"同济大学土木工程学院","lon":"121.49913415","lat":"31.281220153","category":"253","category_name":"校园生活","address":"上海杨浦区四平路1239号内"},{"poiid":"B2094757D06FA6FF449B","title":"同济大学本部学苑饮食广场","lon":"121.50288391","lat":"31.282517632","category":"112","category_name":"糕饼店","address":"杨浦区四平路1239号同济大学内(近彰武路)"},{"poiid":"B2094757D06FA4FA449A","title":"同济大学第一教学楼","lon":"121.498786867","lat":"31.2787655687","category":"253","category_name":"校园生活","address":"上海赤峰路67号"},{"poiid":"B2094655D26CA1FD499B","title":"同济大学(南一门)","lon":"121.5004","lat":"31.2807","category":"52","category_name":"高等院校","address":"赤峰路50"},{"poiid":"B2094757D06FA5F94793","title":"第五街(同济大学店)","lon":"121.500271655","lat":"31.283556159","category":"68","category_name":"快餐厅","address":"杨浦区四平路1239号同济大学本部校区音乐广场旁(近彰武路)"},{"poiid":"B2094757D06BABFF439C","title":"同济大学中德学院","lon":"121.500404","lat":"31.280711","category":"253","category_name":"校园生活","address":"上海杨浦区四平路1239号同济大学四平路校区"},{"poiid":"B2094757D16CA6FB4092","title":"同济大学科技园","lon":"121.501968078","lat":"31.2818079602","category":"46","category_name":"楼宇","address":"上海杨浦区四平路1239号同济大学四平路校区"},{"poiid":"B2094757D06BA2FB4999","title":"同济大学医学楼","lon":"121.501498844","lat":"31.2810634958","category":"253","category_name":"校园生活","address":"上海杨浦区四平路1239号同济大学四平路校区"},{"poiid":"B2094757D069A6FC489D","title":"同济大学西南八楼","lon":"121.49957995","lat":"31.282160425","category":"500","category_name":"未知分类","address":"上海杨浦区四平路1239号同济大学内(近赤峰路)"},{"poiid":"B2094757D06FA6F8499F","title":"同济大学大学生活动中心","lon":"121.50053739","lat":"31.283949644","category":"249","category_name":"购物服务","address":"上海杨浦区四平路1239号同济大学内"},{"poiid":"B2094757D16EA2FB499A","title":"同济大学经济与管理学院云通楼","lon":"121.4998186","lat":"31.281060744","category":"500","category_name":"未知分类","address":"上海赤峰路50号"},{"poiid":"B2094757D06AA0FB469B","title":"同济大学网球场","lon":"121.50183","lat":"31.2824","category":"253","category_name":"校园生活","address":"杨浦区四平路1249号(近赤峰路)"},{"poiid":"B2094757D06BA4F94098","title":"交行上分培训中心","lon":"121.498069","lat":"31.281133","category":"253","category_name":"校园生活","address":"上海赤峰路89弄"},{"poiid":"B2094655D265A2FC469B","title":"同济大学电影学院实验剧场","lon":"121.49946","lat":"31.27884","category":"180","category_name":"剧场","address":""},{"poiid":"B2094757D069A2FC4093","title":"同济大学南校区体育馆","lon":"121.49941","lat":"31.27931","category":"224","category_name":"综合体育馆","address":"虹口区赤峰路65号同济大学南校区内(近四平路)"},{"poiid":"B2094757D06AA1FE409A","title":"上海市贸易学校","lon":"121.50351","lat":"31.27909","category":"52","category_name":"高等院校","address":"虹口区赤峰路43号(近四平路)"},{"poiid":"B2094757D06AA2F5479B","title":"63号设计创意工场","lon":"121.50099945","lat":"31.279600143","category":"190","category_name":"培训机构","address":"虹口区赤峰路63号(近密云路)"},{"poiid":"B2094757D068A7FB409D","title":"红辣椒餐厅","lon":"121.502438","lat":"31.279491","category":"68","category_name":"快餐厅","address":"上海虹口区赤峰路53号(近四平路)"},{"poiid":"B2094757D06AA6FB439D","title":"同济大学黑暗料理街","lon":"121.50228","lat":"31.28364","category":"68","category_name":"快餐厅","address":"杨浦区四平路1239号同济大学南门外(近同济大学中德学院)"},{"poiid":"B2094757D06FA4F54598","title":"同济大学西苑饮食广场","lon":"121.49798183","lat":"31.282833915","category":"253","category_name":"校园生活","address":"上海四平路1239号"},{"poiid":"B2094654DB64A5FD4392","title":"三好坞景观餐厅","lon":"121.50083","lat":"31.28313","category":"76","category_name":"上海菜","address":"杨浦区四平路1239号同济大学内(近彰武路)"},{"poiid":"B2094655D265A0FA4492","title":"萨啦斌欧式西餐厅","lon":"121.49996","lat":"31.28085","category":"94","category_name":"西餐厅","address":"赤峰路70"},{"poiid":"B2094750DB6DA0F84793","title":"同济君禧大酒店","lon":"121.508113","lat":"31.281384","category":"247","category_name":"餐饮美食","address":"彰武路50号同济君禧大酒店2楼"},{"poiid":"B2094757D069A3FD489D","title":"全家便利(赤峰路三店)","lon":"121.501546","lat":"31.279798","category":"117","category_name":"便民商店/便利店","address":"上海虹口区赤峰路63-4号"},{"poiid":"B2094757DB68AAFF4898","title":"同济大学建筑与城市规划学院","lon":"121.500195","lat":"31.280733","category":"52","category_name":"高等院校","address":"杨浦区赤峰路67同济大学南校区"},{"poiid":"B2094757D16CA4F54693","title":"同济大学音乐广场","lon":"121.498366","lat":"31.281004","category":"500","category_name":"未知分类","address":"上海市赤峰路"},{"poiid":"B2094654DB6AAAF8419E","title":"书香公寓","lon":"121.50202","lat":"31.2792","category":"47","category_name":"住宅区","address":"上海市杨浦区赤峰路59弄(神往大酒店旁)"},{"poiid":"B2094655D26EA2F4499C","title":"德桐咖啡快餐","lon":"121.50028","lat":"31.28126","category":"65","category_name":"咖啡厅","address":"同济大学中德学院3层"},{"poiid":"B2094757D069A1FE4198","title":"新亚大包 赤峰路店","lon":"121.50387457557","lat":"31.279416633279","category":"68","category_name":"快餐厅","address":"虹口区赤峰路63号(近四平路)"},{"poiid":"B2094655D26CA1FC4492","title":"同济云通楼","lon":"121.4999","lat":"31.28088","category":"46","category_name":"楼宇","address":"赤峰路66-2"},{"poiid":"B2094654DB6AAAF8419B","title":"同济大学3号门","lon":"121.50001","lat":"31.2804","category":"52","category_name":"高等院校","address":"赤峰路67"},{"poiid":"B2094757D16DAAFC459F","title":"那诺咖啡","lon":"121.5004561","lat":"31.280717637","category":"260","category_name":"其他","address":"虹口区赤峰路65号同济大学科技园1楼(近四平路)"},{"poiid":"B2094654DB6AAAF8419A","title":"同济大学国家大学科技园(密云路)","lon":"121.50033","lat":"31.28022","category":"45","category_name":"产业园区","address":"赤峰路65"},{"poiid":"B2094757D06BA5FA419E","title":"同昆数码彩印(赤峰路店)","lon":"121.49892","lat":"31.28066","category":"500","category_name":"未知分类","address":"虹口区赤峰路81号(近同济大学)"},{"poiid":"B2094757D568A6FA429F","title":"王师傅蛋炒饭","lon":"121.5009231","lat":"31.28003806","category":"68","category_name":"快餐厅","address":"虹口区赤峰路65号同济大学内(近四平路)"},{"poiid":"B2094757D66CA2FF459B","title":"同济大学南门流动摊贩与夜市","lon":"121.500733103","lat":"31.2802976287","category":"68","category_name":"快餐厅","address":"上海市杨浦区赤峰路同济大学南门外"},{"poiid":"B2094757D66CA5FE419E","title":"吉祥馄饨","lon":"121.501689103","lat":"31.2794756115","category":"68","category_name":"快餐厅","address":"虹口区赤峰路53号(近四平路)"},{"poiid":"B2094654DB65A6FD4693","title":"同济大学传播与艺术学院","lon":"121.5003","lat":"31.28127","category":"52","category_name":"高等院校","address":""},{"poiid":"B2094757D064ABFB409B","title":"志超酒家(赤峰店)","lon":"121.49818","lat":"31.28136","category":"76","category_name":"上海菜","address":"虹口区赤峰路180号(近密云路)"},{"poiid":"B2094757D16BA0FD419B","title":"同济南校门(赤峰路65号)","lon":"121.500552","lat":"31.280129","category":"500","category_name":"未知分类","address":"上海杨浦区赤峰路65号"},{"poiid":"B2094655D26DA6F9419F","title":"上海大众汽车同济销售服务有限公司","lon":"121.49832","lat":"31.28148","category":"159","category_name":"汽车维修","address":"虹口区赤峰路150号(近密云路)"},{"poiid":"B2094757D66DA5F94992","title":"同济大学经济与管理学院","lon":"121.4998041","lat":"31.280945642","category":"500","category_name":"未知分类","address":"上海市虹口区密云路"},{"poiid":"B2094655D26CA1F8499F","title":"同济大学网络教育学院","lon":"121.49925","lat":"31.28061","category":"52","category_name":"高等院校","address":""},{"poiid":"B2094655D264ABF44598","title":"教育部同济大学外国留学生预科部","lon":"121.49917","lat":"31.28037","category":"52","category_name":"高等院校","address":""}]