[{"poiid":"B2094757D06FA3F54899","title":"复旦大学南苑学生生活园区","lon":"121.500366","lat":"31.291772","category":"253","category_name":"校园生活","address":"上海杨浦区松花江路2500弄复旦大学南区内"},{"poiid":"B2094655D26CA1F9419D","title":"复旦大学南区","lon":"121.50035","lat":"31.29176","category":"52","category_name":"高等院校","address":"松花江路2500"},{"poiid":"B2094757D06FA5F8489E","title":"盛鸿楼","lon":"121.49638175","lat":"31.287764874","category":"76","category_name":"上海菜","address":"虹口区中山北二路1800号(近曲阳商务中心)"},{"poiid":"B2094757D06FA0FC4999","title":"运光新村","lon":"121.49408","lat":"31.293043","category":"47","category_name":"住宅区","address":"上海杨浦区邯郸路47弄"},{"poiid":"B2094654DB64A6FF409B","title":"汉庭快捷酒店(上海复旦店)","lon":"121.49862","lat":"31.29256","category":"216","category_name":"经济型连锁酒店","address":"虹口区松花江路2628号(近邯郸路)"},{"poiid":"B2094750D365A0FD419A","title":"虹口区婚姻登记中心","lon":"121.495216","lat":"31.288152","category":"248","category_name":"生活娱乐","address":"巴林路76号"},{"poiid":"B2094757D06AA4FE489D","title":"新港悦大酒店","lon":"121.49858975","lat":"31.290297582","category":"72","category_name":"广东菜","address":"虹口区辉河路106号(近运光路)"},{"poiid":"B2094654D56DA0FF439E","title":"大秦富贵(松花江路)","lon":"121.49863","lat":"31.29273","category":"68","category_name":"快餐厅","address":"杨浦区松花江路2628号(近邯郸路)"},{"poiid":"B2094757D06FA4F5489E","title":"捞王猪肚鸡(曲阳店)","lon":"121.49391088","lat":"31.288647664","category":"86","category_name":"火锅店","address":"虹口区伊敏河路76号"},{"poiid":"B2094751D368AAFF4199","title":"老鸿兴苏州汤包馆(运光路店)","lon":"121.49608","lat":"31.29066","category":"68","category_name":"快餐厅","address":"虹口区运光路76号(近辉河路)"},{"poiid":"B2094757D664ABFE499A","title":"海强面馆","lon":"121.49529746934","lat":"31.290673840541","category":"68","category_name":"快餐厅","address":"虹口区运光路100弄3号103室(近松花江路)"},{"poiid":"B2094757D569A0FC409E","title":"运光路烤鸭摊","lon":"121.4960931","lat":"31.29065694","category":"68","category_name":"快餐厅","address":"虹口区运光路76号曲园美食附近"},{"poiid":"B2094751D368AAFC4792","title":"鱼酷","lon":"121.4985885248064","lat":"31.2881874239465","category":"247","category_name":"餐饮美食","address":"特力屋四楼"},{"poiid":"B2094757D06AA1F4419F","title":"上海市虹口实验学校","lon":"121.49673656","lat":"31.2896219","category":"500","category_name":"未知分类","address":"虹口区运光路(近辉河路)"},{"poiid":"B2094655D26BA2FB469D","title":"松花江路邯郸路","lon":"121.49844","lat":"31.29328","category":"38","category_name":"公交车站","address":"上海松花江路,邯郸路"},{"poiid":"B2094757D06FA5FB449F","title":"复旦大学南区食堂","lon":"121.50031781","lat":"31.29187341","category":"68","category_name":"快餐厅","address":"杨浦区邯郸路220号复旦大学内(近国权路)"},{"poiid":"B2094757D068A6FF4993","title":"红宝石(伊敏河路店)","lon":"121.49382","lat":"31.28874","category":"67","category_name":"甜品店","address":"虹口区伊敏河路85号(近曲阳商务中心)"},{"poiid":"B2094655D26DA5FD4198","title":"复城国际住宅区","lon":"121.49311","lat":"31.28938","category":"47","category_name":"住宅区","address":"伊敏河路99弄"},{"poiid":"B2094757D06BA3FC4899","title":"银联花园","lon":"121.495","lat":"31.2905","category":"47","category_name":"住宅区","address":"上海东体育会路880弄"},{"poiid":"B2094654D56DA0F84392","title":"运五小区","lon":"121.49715","lat":"31.291039","category":"47","category_name":"住宅区","address":"运光路90弄1-8号"},{"poiid":"B2094655D26FA7F9479C","title":"运五小区(南门)","lon":"121.49729","lat":"31.29079","category":"47","category_name":"住宅区","address":"运光路90弄1-8号"},{"poiid":"B2094655D26CA1F44599","title":"运光路100弄小区","lon":"121.49789","lat":"31.29097","category":"47","category_name":"住宅区","address":"运光路100弄1-6号"},{"poiid":"B2094654D56DA0F8429B","title":"创意美容美发","lon":"121.496","lat":"31.29064","category":"148","category_name":"美容美发店","address":""},{"poiid":"B2094654D56DA0F4419B","title":"辉华大楼","lon":"121.49861","lat":"31.290745","category":"47","category_name":"住宅区","address":"辉河路118号"},{"poiid":"B2094654D56DA0F8449A","title":"运光家具店","lon":"121.4974","lat":"31.29079","category":"123","category_name":"家具建材市场","address":"运光路90号"},{"poiid":"B2094654D56CA1FB459B","title":"邮政曲阳大楼","lon":"121.5","lat":"31.2908","category":"46","category_name":"楼宇","address":"中山北二路1631号"},{"poiid":"B2094654D56DA0F84599","title":"快客No.1293","lon":"121.49527","lat":"31.29037","category":"117","category_name":"便民商店/便利店","address":"运光路69"},{"poiid":"B2094654DB65A6F4449E","title":"上海市运光第二中学","lon":"121.49758","lat":"31.28949","category":"55","category_name":"中学","address":"辉河路65"},{"poiid":"B2094757D16DABF4459A","title":"曲阳街道社区卫生服务中心","lon":"121.49486","lat":"31.28798","category":"162","category_name":"医院","address":"虹口区巴林路78号(近辉河路)"},{"poiid":"B2094757D16FA7F4449D","title":"翠花餐厅","lon":"121.4994","lat":"31.29232","category":"68","category_name":"快餐厅","address":"虹口区松花江路2612号(松花江路邯郸路)"},{"poiid":"B2094757D469A4FD4998","title":"兄弟龙虾店","lon":"121.49316","lat":"31.29178","category":"68","category_name":"快餐厅","address":"虹口区运光路16号(近邯郸路)"},{"poiid":"B2094757D06BA1FA4992","title":"巴林小区","lon":"121.49617","lat":"31.287172","category":"47","category_name":"住宅区","address":"巴林路61弄1-25号"},{"poiid":"B2094757D665A5F4479A","title":"福来面馆 巴林路店","lon":"121.49719576593","lat":"31.288322627241","category":"247","category_name":"餐饮美食","address":"虹口区辉河路58号甲(近巴林路)"},{"poiid":"B2094654D56DA0F44093","title":"唯唯美发中心","lon":"121.49814","lat":"31.29133","category":"148","category_name":"美容美发店","address":"虹口区松花江路1583号(近运光路)"},{"poiid":"B2094654DB6BA3FD4899","title":"好德No.826(林云小区北)","lon":"121.49837","lat":"31.28971","category":"117","category_name":"便民商店/便利店","address":"辉河路66"},{"poiid":"B2094654D56DA0F4459C","title":"可的(辉河路)","lon":"121.498","lat":"31.2895","category":"117","category_name":"便民商店/便利店","address":"虹口区辉河路65号(近运光路)"},{"poiid":"B2094655D26CA1FB489A","title":"松花江路2599弄小区(东门)","lon":"121.4978","lat":"31.29199","category":"47","category_name":"住宅区","address":"松花江路2599弄3-11号"},{"poiid":"B2094654D56DA0F4489C","title":"上海市虹口区妇幼保健所","lon":"121.49485","lat":"31.28846","category":"162","category_name":"医院","address":"虹口区巴林路76号(近曲阳商务中心)"},{"poiid":"B2094654D56DA0FB499C","title":"良友金伴便利连锁No.355","lon":"121.49818","lat":"31.29203","category":"117","category_name":"便民商店/便利店","address":"松花江路2599弄1"},{"poiid":"B2094757D064A5FB4593","title":"南湖职校二分校","lon":"121.4948195","lat":"31.29378666","category":"253","category_name":"校园生活","address":"上海邯郸路53号"},{"poiid":"B2094757D164A5FE429E","title":"达人秀-实在高包子","lon":"121.4982751","lat":"31.289778826","category":"247","category_name":"餐饮美食","address":"上海市新港路60号"},{"poiid":"B2094655D26BA0FC4499","title":"辉河路40弄小区(西门)","lon":"121.49839","lat":"31.28996","category":"47","category_name":"住宅区","address":"辉河路40弄1-40号边弄"},{"poiid":"B2094655D26CA1FA4892","title":"辉河路43弄小区(辉河路)","lon":"121.49773","lat":"31.28858","category":"47","category_name":"住宅区","address":"辉河路43弄1-3号"},{"poiid":"B2094757D16BA2F8419F","title":"辉河路烧烤摊","lon":"121.49817442","lat":"31.288515635","category":"68","category_name":"快餐厅","address":"虹口区辉河路47号门口(近巴林路)"},{"poiid":"B2094654D56DA0FB4998","title":"通德苑","lon":"121.49789","lat":"31.293037","category":"47","category_name":"住宅区","address":"上海市卢湾区徐家汇路515弄"},{"poiid":"B2094654D56DA0FF449F","title":"万安商务楼","lon":"121.49905","lat":"31.29147","category":"46","category_name":"楼宇","address":"松花江路2600号"},{"poiid":"B2094654D56DA0FF449E","title":"罗记麻辣烫(松花江路)","lon":"121.49878","lat":"31.29146","category":"257","category_name":"中餐厅","address":""},{"poiid":"B2094757D16AA6FE439E","title":"苏州藏书羊肉","lon":"121.49344","lat":"31.29147","category":"68","category_name":"快餐厅","address":"虹口区运光路23号(近邯郸路)"},{"poiid":"B2094757D16CA6F5429B","title":"邯郸路100弄","lon":"121.4977511","lat":"31.291511863","category":"500","category_name":"未知分类","address":"上海市虹口区邯郸路"},{"poiid":"B2094655D26CA1FA489D","title":"辉河路59弄小区","lon":"121.49778","lat":"31.28919","category":"47","category_name":"住宅区","address":"辉河路59弄1-9号"},{"poiid":"B2094757D06FA3F54899","title":"复旦大学南苑学生生活园区","lon":"121.500366","lat":"31.291772","category":"253","category_name":"校园生活","address":"上海杨浦区松花江路2500弄复旦大学南区内"},{"poiid":"B2094655D26CA1F9419D","title":"复旦大学南区","lon":"121.50035","lat":"31.29176","category":"52","category_name":"高等院校","address":"松花江路2500"},{"poiid":"B2094757D06FA5F8489E","title":"盛鸿楼","lon":"121.49638175","lat":"31.287764874","category":"76","category_name":"上海菜","address":"虹口区中山北二路1800号(近曲阳商务中心)"},{"poiid":"B2094757D06FA0FC4999","title":"运光新村","lon":"121.49408","lat":"31.293043","category":"47","category_name":"住宅区","address":"上海杨浦区邯郸路47弄"},{"poiid":"B2094654DB64A6FF409B","title":"汉庭快捷酒店(上海复旦店)","lon":"121.49862","lat":"31.29256","category":"216","category_name":"经济型连锁酒店","address":"虹口区松花江路2628号(近邯郸路)"},{"poiid":"B2094750D365A0FD419A","title":"虹口区婚姻登记中心","lon":"121.495216","lat":"31.288152","category":"248","category_name":"生活娱乐","address":"巴林路76号"},{"poiid":"B2094757D06AA4FE489D","title":"新港悦大酒店","lon":"121.49858975","lat":"31.290297582","category":"72","category_name":"广东菜","address":"虹口区辉河路106号(近运光路)"},{"poiid":"B2094654D56DA0FF439E","title":"大秦富贵(松花江路)","lon":"121.49863","lat":"31.29273","category":"68","category_name":"快餐厅","address":"杨浦区松花江路2628号(近邯郸路)"},{"poiid":"B2094757D06FA4F5489E","title":"捞王猪肚鸡(曲阳店)","lon":"121.49391088","lat":"31.288647664","category":"86","category_name":"火锅店","address":"虹口区伊敏河路76号"},{"poiid":"B2094751D368AAFF4199","title":"老鸿兴苏州汤包馆(运光路店)","lon":"121.49608","lat":"31.29066","category":"68","category_name":"快餐厅","address":"虹口区运光路76号(近辉河路)"},{"poiid":"B2094757D664ABFE499A","title":"海强面馆","lon":"121.49529746934","lat":"31.290673840541","category":"68","category_name":"快餐厅","address":"虹口区运光路100弄3号103室(近松花江路)"},{"poiid":"B2094757D569A0FC409E","title":"运光路烤鸭摊","lon":"121.4960931","lat":"31.29065694","category":"68","category_name":"快餐厅","address":"虹口区运光路76号曲园美食附近"},{"poiid":"B2094751D368AAFC4792","title":"鱼酷","lon":"121.4985885248064","lat":"31.2881874239465","category":"247","category_name":"餐饮美食","address":"特力屋四楼"},{"poiid":"B2094757D06AA1F4419F","title":"上海市虹口实验学校","lon":"121.49673656","lat":"31.2896219","category":"500","category_name":"未知分类","address":"虹口区运光路(近辉河路)"},{"poiid":"B2094655D26BA2FB469D","title":"松花江路邯郸路","lon":"121.49844","lat":"31.29328","category":"38","category_name":"公交车站","address":"上海松花江路,邯郸路"},{"poiid":"B2094757D06FA5FB449F","title":"复旦大学南区食堂","lon":"121.50031781","lat":"31.29187341","category":"68","category_name":"快餐厅","address":"杨浦区邯郸路220号复旦大学内(近国权路)"},{"poiid":"B2094757D068A6FF4993","title":"红宝石(伊敏河路店)","lon":"121.49382","lat":"31.28874","category":"67","category_name":"甜品店","address":"虹口区伊敏河路85号(近曲阳商务中心)"},{"poiid":"B2094655D26DA5FD4198","title":"复城国际住宅区","lon":"121.49311","lat":"31.28938","category":"47","category_name":"住宅区","address":"伊敏河路99弄"},{"poiid":"B2094757D06BA3FC4899","title":"银联花园","lon":"121.495","lat":"31.2905","category":"47","category_name":"住宅区","address":"上海东体育会路880弄"},{"poiid":"B2094654D56DA0F84392","title":"运五小区","lon":"121.49715","lat":"31.291039","category":"47","category_name":"住宅区","address":"运光路90弄1-8号"},{"poiid":"B2094655D26FA7F9479C","title":"运五小区(南门)","lon":"121.49729","lat":"31.29079","category":"47","category_name":"住宅区","address":"运光路90弄1-8号"},{"poiid":"B2094655D26CA1F44599","title":"运光路100弄小区","lon":"121.49789","lat":"31.29097","category":"47","category_name":"住宅区","address":"运光路100弄1-6号"},{"poiid":"B2094654D56DA0F8429B","title":"创意美容美发","lon":"121.496","lat":"31.29064","category":"148","category_name":"美容美发店","address":""},{"poiid":"B2094654D56DA0F4419B","title":"辉华大楼","lon":"121.49861","lat":"31.290745","category":"47","category_name":"住宅区","address":"辉河路118号"},{"poiid":"B2094654D56DA0F8449A","title":"运光家具店","lon":"121.4974","lat":"31.29079","category":"123","category_name":"家具建材市场","address":"运光路90号"},{"poiid":"B2094654D56CA1FB459B","title":"邮政曲阳大楼","lon":"121.5","lat":"31.2908","category":"46","category_name":"楼宇","address":"中山北二路1631号"},{"poiid":"B2094654D56DA0F84599","title":"快客No.1293","lon":"121.49527","lat":"31.29037","category":"117","category_name":"便民商店/便利店","address":"运光路69"},{"poiid":"B2094654DB65A6F4449E","title":"上海市运光第二中学","lon":"121.49758","lat":"31.28949","category":"55","category_name":"中学","address":"辉河路65"},{"poiid":"B2094757D16DABF4459A","title":"曲阳街道社区卫生服务中心","lon":"121.49486","lat":"31.28798","category":"162","category_name":"医院","address":"虹口区巴林路78号(近辉河路)"},{"poiid":"B2094757D16FA7F4449D","title":"翠花餐厅","lon":"121.4994","lat":"31.29232","category":"68","category_name":"快餐厅","address":"虹口区松花江路2612号(松花江路邯郸路)"},{"poiid":"B2094757D469A4FD4998","title":"兄弟龙虾店","lon":"121.49316","lat":"31.29178","category":"68","category_name":"快餐厅","address":"虹口区运光路16号(近邯郸路)"},{"poiid":"B2094757D06BA1FA4992","title":"巴林小区","lon":"121.49617","lat":"31.287172","category":"47","category_name":"住宅区","address":"巴林路61弄1-25号"},{"poiid":"B2094757D665A5F4479A","title":"福来面馆 巴林路店","lon":"121.49719576593","lat":"31.288322627241","category":"247","category_name":"餐饮美食","address":"虹口区辉河路58号甲(近巴林路)"},{"poiid":"B2094654D56DA0F44093","title":"唯唯美发中心","lon":"121.49814","lat":"31.29133","category":"148","category_name":"美容美发店","address":"虹口区松花江路1583号(近运光路)"},{"poiid":"B2094654DB6BA3FD4899","title":"好德No.826(林云小区北)","lon":"121.49837","lat":"31.28971","category":"117","category_name":"便民商店/便利店","address":"辉河路66"},{"poiid":"B2094654D56DA0F4459C","title":"可的(辉河路)","lon":"121.498","lat":"31.2895","category":"117","category_name":"便民商店/便利店","address":"虹口区辉河路65号(近运光路)"},{"poiid":"B2094655D26CA1FB489A","title":"松花江路2599弄小区(东门)","lon":"121.4978","lat":"31.29199","category":"47","category_name":"住宅区","address":"松花江路2599弄3-11号"},{"poiid":"B2094654D56DA0F4489C","title":"上海市虹口区妇幼保健所","lon":"121.49485","lat":"31.28846","category":"162","category_name":"医院","address":"虹口区巴林路76号(近曲阳商务中心)"},{"poiid":"B2094654D56DA0FB499C","title":"良友金伴便利连锁No.355","lon":"121.49818","lat":"31.29203","category":"117","category_name":"便民商店/便利店","address":"松花江路2599弄1"},{"poiid":"B2094757D064A5FB4593","title":"南湖职校二分校","lon":"121.4948195","lat":"31.29378666","category":"253","category_name":"校园生活","address":"上海邯郸路53号"},{"poiid":"B2094757D164A5FE429E","title":"达人秀-实在高包子","lon":"121.4982751","lat":"31.289778826","category":"247","category_name":"餐饮美食","address":"上海市新港路60号"},{"poiid":"B2094655D26BA0FC4499","title":"辉河路40弄小区(西门)","lon":"121.49839","lat":"31.28996","category":"47","category_name":"住宅区","address":"辉河路40弄1-40号边弄"},{"poiid":"B2094655D26CA1FA4892","title":"辉河路43弄小区(辉河路)","lon":"121.49773","lat":"31.28858","category":"47","category_name":"住宅区","address":"辉河路43弄1-3号"},{"poiid":"B2094757D16BA2F8419F","title":"辉河路烧烤摊","lon":"121.49817442","lat":"31.288515635","category":"68","category_name":"快餐厅","address":"虹口区辉河路47号门口(近巴林路)"},{"poiid":"B2094654D56DA0FB4998","title":"通德苑","lon":"121.49789","lat":"31.293037","category":"47","category_name":"住宅区","address":"上海市卢湾区徐家汇路515弄"},{"poiid":"B2094654D56DA0FF449F","title":"万安商务楼","lon":"121.49905","lat":"31.29147","category":"46","category_name":"楼宇","address":"松花江路2600号"},{"poiid":"B2094654D56DA0FF449E","title":"罗记麻辣烫(松花江路)","lon":"121.49878","lat":"31.29146","category":"257","category_name":"中餐厅","address":""},{"poiid":"B2094757D16AA6FE439E","title":"苏州藏书羊肉","lon":"121.49344","lat":"31.29147","category":"68","category_name":"快餐厅","address":"虹口区运光路23号(近邯郸路)"},{"poiid":"B2094757D16CA6F5429B","title":"邯郸路100弄","lon":"121.4977511","lat":"31.291511863","category":"500","category_name":"未知分类","address":"上海市虹口区邯郸路"},{"poiid":"B2094655D26CA1FA489D","title":"辉河路59弄小区","lon":"121.49778","lat":"31.28919","category":"47","category_name":"住宅区","address":"辉河路59弄1-9号"},{"poiid":"B2094757D06FA3F54899","title":"复旦大学南苑学生生活园区","lon":"121.500366","lat":"31.291772","category":"253","category_name":"校园生活","address":"上海杨浦区松花江路2500弄复旦大学南区内"},{"poiid":"B2094655D26CA1F9419D","title":"复旦大学南区","lon":"121.50035","lat":"31.29176","category":"52","category_name":"高等院校","address":"松花江路2500"},{"poiid":"B2094757D06FA5F8489E","title":"盛鸿楼","lon":"121.49638175","lat":"31.287764874","category":"76","category_name":"上海菜","address":"虹口区中山北二路1800号(近曲阳商务中心)"},{"poiid":"B2094757D06FA0FC4999","title":"运光新村","lon":"121.49408","lat":"31.293043","category":"47","category_name":"住宅区","address":"上海杨浦区邯郸路47弄"},{"poiid":"B2094654DB64A6FF409B","title":"汉庭快捷酒店(上海复旦店)","lon":"121.49862","lat":"31.29256","category":"216","category_name":"经济型连锁酒店","address":"虹口区松花江路2628号(近邯郸路)"},{"poiid":"B2094750D365A0FD419A","title":"虹口区婚姻登记中心","lon":"121.495216","lat":"31.288152","category":"248","category_name":"生活娱乐","address":"巴林路76号"},{"poiid":"B2094757D06AA4FE489D","title":"新港悦大酒店","lon":"121.49858975","lat":"31.290297582","category":"72","category_name":"广东菜","address":"虹口区辉河路106号(近运光路)"},{"poiid":"B2094654D56DA0FF439E","title":"大秦富贵(松花江路)","lon":"121.49863","lat":"31.29273","category":"68","category_name":"快餐厅","address":"杨浦区松花江路2628号(近邯郸路)"},{"poiid":"B2094757D06FA4F5489E","title":"捞王猪肚鸡(曲阳店)","lon":"121.49391088","lat":"31.288647664","category":"86","category_name":"火锅店","address":"虹口区伊敏河路76号"},{"poiid":"B2094751D368AAFF4199","title":"老鸿兴苏州汤包馆(运光路店)","lon":"121.49608","lat":"31.29066","category":"68","category_name":"快餐厅","address":"虹口区运光路76号(近辉河路)"},{"poiid":"B2094757D664ABFE499A","title":"海强面馆","lon":"121.49529746934","lat":"31.290673840541","category":"68","category_name":"快餐厅","address":"虹口区运光路100弄3号103室(近松花江路)"},{"poiid":"B2094757D569A0FC409E","title":"运光路烤鸭摊","lon":"121.4960931","lat":"31.29065694","category":"68","category_name":"快餐厅","address":"虹口区运光路76号曲园美食附近"},{"poiid":"B2094751D368AAFC4792","title":"鱼酷","lon":"121.4985885248064","lat":"31.2881874239465","category":"247","category_name":"餐饮美食","address":"特力屋四楼"},{"poiid":"B2094757D06AA1F4419F","title":"上海市虹口实验学校","lon":"121.49673656","lat":"31.2896219","category":"500","category_name":"未知分类","address":"虹口区运光路(近辉河路)"},{"poiid":"B2094655D26BA2FB469D","title":"松花江路邯郸路","lon":"121.49844","lat":"31.29328","category":"38","category_name":"公交车站","address":"上海松花江路,邯郸路"},{"poiid":"B2094757D06FA5FB449F","title":"复旦大学南区食堂","lon":"121.50031781","lat":"31.29187341","category":"68","category_name":"快餐厅","address":"杨浦区邯郸路220号复旦大学内(近国权路)"},{"poiid":"B2094757D068A6FF4993","title":"红宝石(伊敏河路店)","lon":"121.49382","lat":"31.28874","category":"67","category_name":"甜品店","address":"虹口区伊敏河路85号(近曲阳商务中心)"},{"poiid":"B2094655D26DA5FD4198","title":"复城国际住宅区","lon":"121.49311","lat":"31.28938","category":"47","category_name":"住宅区","address":"伊敏河路99弄"},{"poiid":"B2094757D06BA3FC4899","title":"银联花园","lon":"121.495","lat":"31.2905","category":"47","category_name":"住宅区","address":"上海东体育会路880弄"},{"poiid":"B2094654D56DA0F84392","title":"运五小区","lon":"121.49715","lat":"31.291039","category":"47","category_name":"住宅区","address":"运光路90弄1-8号"},{"poiid":"B2094655D26FA7F9479C","title":"运五小区(南门)","lon":"121.49729","lat":"31.29079","category":"47","category_name":"住宅区","address":"运光路90弄1-8号"},{"poiid":"B2094655D26CA1F44599","title":"运光路100弄小区","lon":"121.49789","lat":"31.29097","category":"47","category_name":"住宅区","address":"运光路100弄1-6号"},{"poiid":"B2094654D56DA0F8429B","title":"创意美容美发","lon":"121.496","lat":"31.29064","category":"148","category_name":"美容美发店","address":""},{"poiid":"B2094654D56DA0F4419B","title":"辉华大楼","lon":"121.49861","lat":"31.290745","category":"47","category_name":"住宅区","address":"辉河路118号"},{"poiid":"B2094654D56DA0F8449A","title":"运光家具店","lon":"121.4974","lat":"31.29079","category":"123","category_name":"家具建材市场","address":"运光路90号"},{"poiid":"B2094654D56CA1FB459B","title":"邮政曲阳大楼","lon":"121.5","lat":"31.2908","category":"46","category_name":"楼宇","address":"中山北二路1631号"},{"poiid":"B2094654D56DA0F84599","title":"快客No.1293","lon":"121.49527","lat":"31.29037","category":"117","category_name":"便民商店/便利店","address":"运光路69"},{"poiid":"B2094654DB65A6F4449E","title":"上海市运光第二中学","lon":"121.49758","lat":"31.28949","category":"55","category_name":"中学","address":"辉河路65"},{"poiid":"B2094757D16DABF4459A","title":"曲阳街道社区卫生服务中心","lon":"121.49486","lat":"31.28798","category":"162","category_name":"医院","address":"虹口区巴林路78号(近辉河路)"},{"poiid":"B2094757D16FA7F4449D","title":"翠花餐厅","lon":"121.4994","lat":"31.29232","category":"68","category_name":"快餐厅","address":"虹口区松花江路2612号(松花江路邯郸路)"},{"poiid":"B2094757D469A4FD4998","title":"兄弟龙虾店","lon":"121.49316","lat":"31.29178","category":"68","category_name":"快餐厅","address":"虹口区运光路16号(近邯郸路)"},{"poiid":"B2094757D06BA1FA4992","title":"巴林小区","lon":"121.49617","lat":"31.287172","category":"47","category_name":"住宅区","address":"巴林路61弄1-25号"},{"poiid":"B2094757D665A5F4479A","title":"福来面馆 巴林路店","lon":"121.49719576593","lat":"31.288322627241","category":"247","category_name":"餐饮美食","address":"虹口区辉河路58号甲(近巴林路)"},{"poiid":"B2094654D56DA0F44093","title":"唯唯美发中心","lon":"121.49814","lat":"31.29133","category":"148","category_name":"美容美发店","address":"虹口区松花江路1583号(近运光路)"},{"poiid":"B2094654DB6BA3FD4899","title":"好德No.826(林云小区北)","lon":"121.49837","lat":"31.28971","category":"117","category_name":"便民商店/便利店","address":"辉河路66"},{"poiid":"B2094654D56DA0F4459C","title":"可的(辉河路)","lon":"121.498","lat":"31.2895","category":"117","category_name":"便民商店/便利店","address":"虹口区辉河路65号(近运光路)"},{"poiid":"B2094655D26CA1FB489A","title":"松花江路2599弄小区(东门)","lon":"121.4978","lat":"31.29199","category":"47","category_name":"住宅区","address":"松花江路2599弄3-11号"},{"poiid":"B2094654D56DA0F4489C","title":"上海市虹口区妇幼保健所","lon":"121.49485","lat":"31.28846","category":"162","category_name":"医院","address":"虹口区巴林路76号(近曲阳商务中心)"},{"poiid":"B2094654D56DA0FB499C","title":"良友金伴便利连锁No.355","lon":"121.49818","lat":"31.29203","category":"117","category_name":"便民商店/便利店","address":"松花江路2599弄1"},{"poiid":"B2094757D064A5FB4593","title":"南湖职校二分校","lon":"121.4948195","lat":"31.29378666","category":"253","category_name":"校园生活","address":"上海邯郸路53号"},{"poiid":"B2094757D164A5FE429E","title":"达人秀-实在高包子","lon":"121.4982751","lat":"31.289778826","category":"247","category_name":"餐饮美食","address":"上海市新港路60号"},{"poiid":"B2094655D26BA0FC4499","title":"辉河路40弄小区(西门)","lon":"121.49839","lat":"31.28996","category":"47","category_name":"住宅区","address":"辉河路40弄1-40号边弄"},{"poiid":"B2094655D26CA1FA4892","title":"辉河路43弄小区(辉河路)","lon":"121.49773","lat":"31.28858","category":"47","category_name":"住宅区","address":"辉河路43弄1-3号"},{"poiid":"B2094757D16BA2F8419F","title":"辉河路烧烤摊","lon":"121.49817442","lat":"31.288515635","category":"68","category_name":"快餐厅","address":"虹口区辉河路47号门口(近巴林路)"},{"poiid":"B2094654D56DA0FB4998","title":"通德苑","lon":"121.49789","lat":"31.293037","category":"47","category_name":"住宅区","address":"上海市卢湾区徐家汇路515弄"},{"poiid":"B2094654D56DA0FF449F","title":"万安商务楼","lon":"121.49905","lat":"31.29147","category":"46","category_name":"楼宇","address":"松花江路2600号"},{"poiid":"B2094654D56DA0FF449E","title":"罗记麻辣烫(松花江路)","lon":"121.49878","lat":"31.29146","category":"257","category_name":"中餐厅","address":""},{"poiid":"B2094757D16AA6FE439E","title":"苏州藏书羊肉","lon":"121.49344","lat":"31.29147","category":"68","category_name":"快餐厅","address":"虹口区运光路23号(近邯郸路)"},{"poiid":"B2094757D16CA6F5429B","title":"邯郸路100弄","lon":"121.4977511","lat":"31.291511863","category":"500","category_name":"未知分类","address":"上海市虹口区邯郸路"},{"poiid":"B2094655D26CA1FA489D","title":"辉河路59弄小区","lon":"121.49778","lat":"31.28919","category":"47","category_name":"住宅区","address":"辉河路59弄1-9号"},{"poiid":"B2094757D06FA3F54899","title":"复旦大学南苑学生生活园区","lon":"121.500366","lat":"31.291772","category":"253","category_name":"校园生活","address":"上海杨浦区松花江路2500弄复旦大学南区内"},{"poiid":"B2094655D26CA1F9419D","title":"复旦大学南区","lon":"121.50035","lat":"31.29176","category":"52","category_name":"高等院校","address":"松花江路2500"},{"poiid":"B2094757D06FA5F8489E","title":"盛鸿楼","lon":"121.49638175","lat":"31.287764874","category":"76","category_name":"上海菜","address":"虹口区中山北二路1800号(近曲阳商务中心)"},{"poiid":"B2094757D06FA0FC4999","title":"运光新村","lon":"121.49408","lat":"31.293043","category":"47","category_name":"住宅区","address":"上海杨浦区邯郸路47弄"},{"poiid":"B2094654DB64A6FF409B","title":"汉庭快捷酒店(上海复旦店)","lon":"121.49862","lat":"31.29256","category":"216","category_name":"经济型连锁酒店","address":"虹口区松花江路2628号(近邯郸路)"},{"poiid":"B2094750D365A0FD419A","title":"虹口区婚姻登记中心","lon":"121.495216","lat":"31.288152","category":"248","category_name":"生活娱乐","address":"巴林路76号"},{"poiid":"B2094757D06AA4FE489D","title":"新港悦大酒店","lon":"121.49858975","lat":"31.290297582","category":"72","category_name":"广东菜","address":"虹口区辉河路106号(近运光路)"},{"poiid":"B2094654D56DA0FF439E","title":"大秦富贵(松花江路)","lon":"121.49863","lat":"31.29273","category":"68","category_name":"快餐厅","address":"杨浦区松花江路2628号(近邯郸路)"},{"poiid":"B2094757D06FA4F5489E","title":"捞王猪肚鸡(曲阳店)","lon":"121.49391088","lat":"31.288647664","category":"86","category_name":"火锅店","address":"虹口区伊敏河路76号"},{"poiid":"B2094751D368AAFF4199","title":"老鸿兴苏州汤包馆(运光路店)","lon":"121.49608","lat":"31.29066","category":"68","category_name":"快餐厅","address":"虹口区运光路76号(近辉河路)"},{"poiid":"B2094757D664ABFE499A","title":"海强面馆","lon":"121.49529746934","lat":"31.290673840541","category":"68","category_name":"快餐厅","address":"虹口区运光路100弄3号103室(近松花江路)"},{"poiid":"B2094757D569A0FC409E","title":"运光路烤鸭摊","lon":"121.4960931","lat":"31.29065694","category":"68","category_name":"快餐厅","address":"虹口区运光路76号曲园美食附近"},{"poiid":"B2094751D368AAFC4792","title":"鱼酷","lon":"121.4985885248064","lat":"31.2881874239465","category":"247","category_name":"餐饮美食","address":"特力屋四楼"},{"poiid":"B2094757D06AA1F4419F","title":"上海市虹口实验学校","lon":"121.49673656","lat":"31.2896219","category":"500","category_name":"未知分类","address":"虹口区运光路(近辉河路)"},{"poiid":"B2094655D26BA2FB469D","title":"松花江路邯郸路","lon":"121.49844","lat":"31.29328","category":"38","category_name":"公交车站","address":"上海松花江路,邯郸路"},{"poiid":"B2094757D06FA5FB449F","title":"复旦大学南区食堂","lon":"121.50031781","lat":"31.29187341","category":"68","category_name":"快餐厅","address":"杨浦区邯郸路220号复旦大学内(近国权路)"},{"poiid":"B2094757D068A6FF4993","title":"红宝石(伊敏河路店)","lon":"121.49382","lat":"31.28874","category":"67","category_name":"甜品店","address":"虹口区伊敏河路85号(近曲阳商务中心)"},{"poiid":"B2094655D26DA5FD4198","title":"复城国际住宅区","lon":"121.49311","lat":"31.28938","category":"47","category_name":"住宅区","address":"伊敏河路99弄"},{"poiid":"B2094757D06BA3FC4899","title":"银联花园","lon":"121.495","lat":"31.2905","category":"47","category_name":"住宅区","address":"上海东体育会路880弄"},{"poiid":"B2094654D56DA0F84392","title":"运五小区","lon":"121.49715","lat":"31.291039","category":"47","category_name":"住宅区","address":"运光路90弄1-8号"},{"poiid":"B2094655D26FA7F9479C","title":"运五小区(南门)","lon":"121.49729","lat":"31.29079","category":"47","category_name":"住宅区","address":"运光路90弄1-8号"},{"poiid":"B2094655D26CA1F44599","title":"运光路100弄小区","lon":"121.49789","lat":"31.29097","category":"47","category_name":"住宅区","address":"运光路100弄1-6号"},{"poiid":"B2094654D56DA0F8429B","title":"创意美容美发","lon":"121.496","lat":"31.29064","category":"148","category_name":"美容美发店","address":""},{"poiid":"B2094654D56DA0F4419B","title":"辉华大楼","lon":"121.49861","lat":"31.290745","category":"47","category_name":"住宅区","address":"辉河路118号"},{"poiid":"B2094654D56DA0F8449A","title":"运光家具店","lon":"121.4974","lat":"31.29079","category":"123","category_name":"家具建材市场","address":"运光路90号"},{"poiid":"B2094654D56CA1FB459B","title":"邮政曲阳大楼","lon":"121.5","lat":"31.2908","category":"46","category_name":"楼宇","address":"中山北二路1631号"},{"poiid":"B2094654D56DA0F84599","title":"快客No.1293","lon":"121.49527","lat":"31.29037","category":"117","category_name":"便民商店/便利店","address":"运光路69"},{"poiid":"B2094654DB65A6F4449E","title":"上海市运光第二中学","lon":"121.49758","lat":"31.28949","category":"55","category_name":"中学","address":"辉河路65"},{"poiid":"B2094757D16DABF4459A","title":"曲阳街道社区卫生服务中心","lon":"121.49486","lat":"31.28798","category":"162","category_name":"医院","address":"虹口区巴林路78号(近辉河路)"},{"poiid":"B2094757D16FA7F4449D","title":"翠花餐厅","lon":"121.4994","lat":"31.29232","category":"68","category_name":"快餐厅","address":"虹口区松花江路2612号(松花江路邯郸路)"},{"poiid":"B2094757D469A4FD4998","title":"兄弟龙虾店","lon":"121.49316","lat":"31.29178","category":"68","category_name":"快餐厅","address":"虹口区运光路16号(近邯郸路)"},{"poiid":"B2094757D06BA1FA4992","title":"巴林小区","lon":"121.49617","lat":"31.287172","category":"47","category_name":"住宅区","address":"巴林路61弄1-25号"},{"poiid":"B2094757D665A5F4479A","title":"福来面馆 巴林路店","lon":"121.49719576593","lat":"31.288322627241","category":"247","category_name":"餐饮美食","address":"虹口区辉河路58号甲(近巴林路)"},{"poiid":"B2094654D56DA0F44093","title":"唯唯美发中心","lon":"121.49814","lat":"31.29133","category":"148","category_name":"美容美发店","address":"虹口区松花江路1583号(近运光路)"},{"poiid":"B2094654DB6BA3FD4899","title":"好德No.826(林云小区北)","lon":"121.49837","lat":"31.28971","category":"117","category_name":"便民商店/便利店","address":"辉河路66"},{"poiid":"B2094654D56DA0F4459C","title":"可的(辉河路)","lon":"121.498","lat":"31.2895","category":"117","category_name":"便民商店/便利店","address":"虹口区辉河路65号(近运光路)"},{"poiid":"B2094655D26CA1FB489A","title":"松花江路2599弄小区(东门)","lon":"121.4978","lat":"31.29199","category":"47","category_name":"住宅区","address":"松花江路2599弄3-11号"},{"poiid":"B2094654D56DA0F4489C","title":"上海市虹口区妇幼保健所","lon":"121.49485","lat":"31.28846","category":"162","category_name":"医院","address":"虹口区巴林路76号(近曲阳商务中心)"},{"poiid":"B2094654D56DA0FB499C","title":"良友金伴便利连锁No.355","lon":"121.49818","lat":"31.29203","category":"117","category_name":"便民商店/便利店","address":"松花江路2599弄1"},{"poiid":"B2094757D064A5FB4593","title":"南湖职校二分校","lon":"121.4948195","lat":"31.29378666","category":"253","category_name":"校园生活","address":"上海邯郸路53号"},{"poiid":"B2094757D164A5FE429E","title":"达人秀-实在高包子","lon":"121.4982751","lat":"31.289778826","category":"247","category_name":"餐饮美食","address":"上海市新港路60号"},{"poiid":"B2094655D26BA0FC4499","title":"辉河路40弄小区(西门)","lon":"121.49839","lat":"31.28996","category":"47","category_name":"住宅区","address":"辉河路40弄1-40号边弄"},{"poiid":"B2094655D26CA1FA4892","title":"辉河路43弄小区(辉河路)","lon":"121.49773","lat":"31.28858","category":"47","category_name":"住宅区","address":"辉河路43弄1-3号"},{"poiid":"B2094757D16BA2F8419F","title":"辉河路烧烤摊","lon":"121.49817442","lat":"31.288515635","category":"68","category_name":"快餐厅","address":"虹口区辉河路47号门口(近巴林路)"},{"poiid":"B2094654D56DA0FB4998","title":"通德苑","lon":"121.49789","lat":"31.293037","category":"47","category_name":"住宅区","address":"上海市卢湾区徐家汇路515弄"},{"poiid":"B2094654D56DA0FF449F","title":"万安商务楼","lon":"121.49905","lat":"31.29147","category":"46","category_name":"楼宇","address":"松花江路2600号"},{"poiid":"B2094654D56DA0FF449E","title":"罗记麻辣烫(松花江路)","lon":"121.49878","lat":"31.29146","category":"257","category_name":"中餐厅","address":""},{"poiid":"B2094757D16AA6FE439E","title":"苏州藏书羊肉","lon":"121.49344","lat":"31.29147","category":"68","category_name":"快餐厅","address":"虹口区运光路23号(近邯郸路)"},{"poiid":"B2094757D16CA6F5429B","title":"邯郸路100弄","lon":"121.4977511","lat":"31.291511863","category":"500","category_name":"未知分类","address":"上海市虹口区邯郸路"},{"poiid":"B2094655D26CA1FA489D","title":"辉河路59弄小区","lon":"121.49778","lat":"31.28919","category":"47","category_name":"住宅区","address":"辉河路59弄1-9号"}]