[{"poiid":"B2094757D06EAAFD489F","title":"龙漕路地铁站","lon":"121.44440039","lat":"31.16977842","category":"36","category_name":"地铁站","address":"上海轨道交通 三号线 轨交龙漕路站 轻轨 3"},{"poiid":"B2094655D36CA1FD4492","title":"石龙路地铁站","lon":"121.44431","lat":"31.15736","category":"36","category_name":"地铁站","address":"上海轨道交通 三号线 轨交石龙路站 轻轨 3"},{"poiid":"B2094757D06FAAFB4193","title":"酷贝拉","lon":"121.445486586","lat":"31.1693282406","category":"173","category_name":"游戏厅","address":"上海徐汇区龙吴路118号"},{"poiid":"B2094757D06FA7F94893","title":"柳州螺蛳粉 石龙路店","lon":"121.44338","lat":"31.15687","category":"257","category_name":"中餐厅","address":"徐汇区石龙路121号(近3号线石龙站)"},{"poiid":"B2094757D068A2FC4598","title":"西雅图","lon":"121.4369812","lat":"31.166835784","category":"500","category_name":"未知分类","address":"上海徐匯區三江路88號"},{"poiid":"B2094757D068A3F5469C","title":"馨汇南苑","lon":"121.4443","lat":"31.164896","category":"47","category_name":"住宅区","address":"上海南宁路501弄"},{"poiid":"B2094757D06FA1FE4199","title":"肯德基 KFC (龙漕店)","lon":"121.44408168","lat":"31.170129693","category":"68","category_name":"快餐厅","address":"徐汇区轻轨3号线龙漕路地铁站1楼(近龙吴路)"},{"poiid":"B2094757D068A6FF4593","title":"正大综艺摄影棚","lon":"121.43657","lat":"31.15854","category":"500","category_name":"未知分类","address":"徐汇区老沪闵路166号(近漕宝路地铁站)"},{"poiid":"B2094757D068A3F9459B","title":"小李烧烤(龙漕路店)","lon":"121.44401","lat":"31.16934","category":"68","category_name":"快餐厅","address":"徐汇区凯旋南路115号(近龙漕路站3号口)"},{"poiid":"B2094757D568A5FC459A","title":"下河迷仓","lon":"121.44194","lat":"31.16946389","category":"248","category_name":"生活娱乐","address":"徐汇区龙漕路200弄100号3楼(近远大心胸医院)"},{"poiid":"B2094654DB6CA6FB459D","title":"三江小区","lon":"121.44025","lat":"31.164818","category":"47","category_name":"住宅区","address":"上海徐汇区三江路301弄"},{"poiid":"B2094654DA6DABF4489A","title":"徐汇御景苑","lon":"121.44683","lat":"31.166031","category":"47","category_name":"住宅区","address":"龙吴路288弄1-13号"},{"poiid":"B2094654DA6DA2F9439A","title":"上海远大心胸医院","lon":"121.44254","lat":"31.16964","category":"162","category_name":"医院","address":"徐汇区龙漕路218号(近轻轨三号线龙漕路站)"},{"poiid":"B2094654DB65A1F44193","title":"东泉小区","lon":"121.44322","lat":"31.156372","category":"47","category_name":"住宅区","address":"东泉路50弄1-30号,64弄11-16号,104弄1-33号"},{"poiid":"B2094757D06BA2FD4198","title":"龙华机场新村","lon":"121.44908258","lat":"31.166325182","category":"21","category_name":"飞机场","address":"上海市徐汇区龙华西路机场新村(近民航中专宿舍)"},{"poiid":"B2094655D26AA0F9419C","title":"地铁龙漕路站","lon":"121.44436","lat":"31.16985","category":"36","category_name":"地铁站","address":""},{"poiid":"B2094654DB69A4FD499A","title":"锦江之星(龙漕路店)","lon":"121.43821","lat":"31.16715","category":"216","category_name":"经济型连锁酒店","address":"徐汇区三江路68号(近漕宝路地铁站)"},{"poiid":"B2094655D36DA6FD4992","title":"龙漕路","lon":"121.44436","lat":"31.16985","category":"38","category_name":"公交车站","address":""},{"poiid":"B2094655D26AA0F9419F","title":"地铁石龙路站","lon":"121.44113","lat":"31.15672","category":"36","category_name":"地铁站","address":""},{"poiid":"B2094750D26EA3FC479F","title":"徐家汇地铁站","lon":"121.439998","lat":"31.156708","category":"36","category_name":"地铁站","address":null},{"poiid":"B2094654DA65AAF84098","title":"乾骏大厦","lon":"121.43819","lat":"31.164591","category":"47","category_name":"住宅区","address":"宾阳路62弄1-4"},{"poiid":"B2094654DA6DA1F9449F","title":"广明牛肉","lon":"121.43573406628","lat":"31.168551302981","category":"86","category_name":"火锅店","address":"徐汇区龙漕路67号(近漕宝路)"},{"poiid":"B2094655D36DA6FE4492","title":"石龙路","lon":"121.44113","lat":"31.15672","category":"38","category_name":"公交车站","address":""},{"poiid":"B2094654DA65AAFF4592","title":"保利星苑","lon":"121.43556","lat":"31.164545","category":"47","category_name":"住宅区","address":"上海市徐汇区宾阳路28弄"},{"poiid":"B2094757D069AAFA499E","title":"京世造型田林店","lon":"121.44571906","lat":"31.164113638","category":"500","category_name":"未知分类","address":"上海田林路479号"},{"poiid":"B2094757D069A5F44392","title":"上海光大会展","lon":"121.43766058","lat":"31.163745131","category":"500","category_name":"未知分类","address":"上海市徐汇区康健路"},{"poiid":"B2094757D06AA4FD4199","title":"人河酒家","lon":"121.44145","lat":"31.16907","category":"76","category_name":"上海菜","address":"徐汇区龙漕路190号(近田东路)"},{"poiid":"B2094757D66AA6FB489C","title":"忠义新香辣 田东店","lon":"121.44088288648","lat":"31.16982342958","category":"71","category_name":"四川菜","address":"徐汇区田东路3号(近龙漕路)"},{"poiid":"B2094752D664AAF4469C","title":"徐汇滨江","lon":"121.44139","lat":"31.164899","category":"47","category_name":"住宅区","address":null},{"poiid":"B2094751D56AA3F5469D","title":"浦东老八样","lon":"121.4448","lat":"31.16167","category":"76","category_name":"上海菜","address":"徐汇区南宁路660号(近三江路)"},{"poiid":"B209475CD269A5FA469E","title":"徐家汇","lon":"121.443702","lat":"31.164222","category":"500","category_name":"未知分类","address":"上海市 港汇广场"},{"poiid":"B209475CD66CA6F94698","title":"馨逸公寓","lon":"121.440589","lat":"31.160362","category":"47","category_name":"住宅区","address":"上海市 徐汇区宾南路36弄"},{"poiid":"B2094654DA65AAFF4899","title":"梦蝶苑","lon":"121.43734","lat":"31.164413","category":"47","category_name":"住宅区","address":"梦蝶苑位于徐汇徐汇区老沪闵路110弄8号"},{"poiid":"B2094757D16FA6FC469D","title":"漕河泾派出所","lon":"121.438737686","lat":"31.1655311465","category":"609","category_name":"警察局","address":"上海南宁路668号"},{"poiid":"B2094757D065A4FB489B","title":"南宁路","lon":"121.442027","lat":"31.165349","category":"500","category_name":"未知分类","address":"上海南宁路宾南路"},{"poiid":"B2094750D56DA4FD4598","title":"徐家汇 港汇","lon":"121.44712","lat":"31.16105","category":"500","category_name":"未知分类","address":null},{"poiid":"B2094655D26DA0F8439C","title":"三江小区(正门)","lon":"121.43952","lat":"31.16421","category":"47","category_name":"住宅区","address":"三江路301弄"},{"poiid":"B2094753D26EA1FE479B","title":"世博会中国馆","lon":"121.442369","lat":"31.164631","category":"263","category_name":"公司","address":"上海市 中国 上海市 世博大道1200号梅赛德斯奔驰文化演艺中心"},{"poiid":"B2094757D164A5F4409C","title":"上师大五教","lon":"121.442588586","lat":"31.1622151017","category":"500","category_name":"未知分类","address":"上海徐汇校区"},{"poiid":"B2094654DA65AAF84199","title":"好德便利No.349","lon":"121.43933","lat":"31.16433","category":"117","category_name":"便民商店/便利店","address":"三江路301弄10识别"},{"poiid":"B2094654DA65AAF84093","title":"光明便利三江店","lon":"121.43905","lat":"31.16428","category":"117","category_name":"便民商店/便利店","address":"徐汇区三江路301弄8号"},{"poiid":"B2094655D26FA1F9409A","title":"国家香料香精化妆品质量监督检验中心","lon":"121.44202","lat":"31.16534","category":"250","category_name":"公园户外","address":"龙吴路137号"},{"poiid":"B2094654DA6DA1F9409D","title":"凯翔小区","lon":"121.43934","lat":"31.170198","category":"47","category_name":"住宅区","address":"龙漕路135弄"},{"poiid":"B2094752D064A7FF449B","title":"浦东老八样（徐汇店）","lon":"121.439821","lat":"31.163445","category":"247","category_name":"餐饮美食","address":"徐汇区南宁路660号"},{"poiid":"B2094654DA65A6F94899","title":"上海沪申五官科医院","lon":"121.44297","lat":"31.15646","category":"162","category_name":"医院","address":"徐汇区石龙路269号(东泉路石龙路)"},{"poiid":"B2094655D26BA0FD4392","title":"凯旋都市工业园","lon":"121.44406","lat":"31.16748","category":"45","category_name":"产业园区","address":"凯旋南路31"},{"poiid":"B2094753D568A3F5409A","title":"上海南站","lon":"121.441062","lat":"31.16567","category":"500","category_name":"未知分类","address":"上海市 南站"},{"poiid":"B2094757D16FA0F44299","title":"旬阳新村","lon":"121.44479958","lat":"31.161077079","category":"47","category_name":"住宅区","address":"上海旬阳"},{"poiid":"B2094757D168A7FE449C","title":"上海南动车运用所","lon":"121.4371464","lat":"31.1605879","category":"500","category_name":"未知分类","address":"上海市徐汇区南宁路661号"},{"poiid":"B2094654DA65ABFD4898","title":"龙华综合楼二号楼","lon":"121.44747","lat":"31.16264","category":"46","category_name":"楼宇","address":"龙吴路388"},{"poiid":"B2094757D06EAAFD489F","title":"龙漕路地铁站","lon":"121.44440039","lat":"31.16977842","category":"36","category_name":"地铁站","address":"上海轨道交通 三号线 轨交龙漕路站 轻轨 3"},{"poiid":"B2094655D36CA1FD4492","title":"石龙路地铁站","lon":"121.44431","lat":"31.15736","category":"36","category_name":"地铁站","address":"上海轨道交通 三号线 轨交石龙路站 轻轨 3"},{"poiid":"B2094757D06FAAFB4193","title":"酷贝拉","lon":"121.445486586","lat":"31.1693282406","category":"173","category_name":"游戏厅","address":"上海徐汇区龙吴路118号"},{"poiid":"B2094757D06FA7F94893","title":"柳州螺蛳粉 石龙路店","lon":"121.44338","lat":"31.15687","category":"257","category_name":"中餐厅","address":"徐汇区石龙路121号(近3号线石龙站)"},{"poiid":"B2094757D068A2FC4598","title":"西雅图","lon":"121.4369812","lat":"31.166835784","category":"500","category_name":"未知分类","address":"上海徐匯區三江路88號"},{"poiid":"B2094757D068A3F5469C","title":"馨汇南苑","lon":"121.4443","lat":"31.164896","category":"47","category_name":"住宅区","address":"上海南宁路501弄"},{"poiid":"B2094757D06FA1FE4199","title":"肯德基 KFC (龙漕店)","lon":"121.44408168","lat":"31.170129693","category":"68","category_name":"快餐厅","address":"徐汇区轻轨3号线龙漕路地铁站1楼(近龙吴路)"},{"poiid":"B2094757D068A6FF4593","title":"正大综艺摄影棚","lon":"121.43657","lat":"31.15854","category":"500","category_name":"未知分类","address":"徐汇区老沪闵路166号(近漕宝路地铁站)"},{"poiid":"B2094757D068A3F9459B","title":"小李烧烤(龙漕路店)","lon":"121.44401","lat":"31.16934","category":"68","category_name":"快餐厅","address":"徐汇区凯旋南路115号(近龙漕路站3号口)"},{"poiid":"B2094757D568A5FC459A","title":"下河迷仓","lon":"121.44194","lat":"31.16946389","category":"248","category_name":"生活娱乐","address":"徐汇区龙漕路200弄100号3楼(近远大心胸医院)"},{"poiid":"B2094654DB6CA6FB459D","title":"三江小区","lon":"121.44025","lat":"31.164818","category":"47","category_name":"住宅区","address":"上海徐汇区三江路301弄"},{"poiid":"B2094654DA6DABF4489A","title":"徐汇御景苑","lon":"121.44683","lat":"31.166031","category":"47","category_name":"住宅区","address":"龙吴路288弄1-13号"},{"poiid":"B2094654DA6DA2F9439A","title":"上海远大心胸医院","lon":"121.44254","lat":"31.16964","category":"162","category_name":"医院","address":"徐汇区龙漕路218号(近轻轨三号线龙漕路站)"},{"poiid":"B2094654DB65A1F44193","title":"东泉小区","lon":"121.44322","lat":"31.156372","category":"47","category_name":"住宅区","address":"东泉路50弄1-30号,64弄11-16号,104弄1-33号"},{"poiid":"B2094757D06BA2FD4198","title":"龙华机场新村","lon":"121.44908258","lat":"31.166325182","category":"21","category_name":"飞机场","address":"上海市徐汇区龙华西路机场新村(近民航中专宿舍)"},{"poiid":"B2094655D26AA0F9419C","title":"地铁龙漕路站","lon":"121.44436","lat":"31.16985","category":"36","category_name":"地铁站","address":""},{"poiid":"B2094654DB69A4FD499A","title":"锦江之星(龙漕路店)","lon":"121.43821","lat":"31.16715","category":"216","category_name":"经济型连锁酒店","address":"徐汇区三江路68号(近漕宝路地铁站)"},{"poiid":"B2094655D36DA6FD4992","title":"龙漕路","lon":"121.44436","lat":"31.16985","category":"38","category_name":"公交车站","address":""},{"poiid":"B2094655D26AA0F9419F","title":"地铁石龙路站","lon":"121.44113","lat":"31.15672","category":"36","category_name":"地铁站","address":""},{"poiid":"B2094750D26EA3FC479F","title":"徐家汇地铁站","lon":"121.439998","lat":"31.156708","category":"36","category_name":"地铁站","address":null},{"poiid":"B2094654DA65AAF84098","title":"乾骏大厦","lon":"121.43819","lat":"31.164591","category":"47","category_name":"住宅区","address":"宾阳路62弄1-4"},{"poiid":"B2094654DA6DA1F9449F","title":"广明牛肉","lon":"121.43573406628","lat":"31.168551302981","category":"86","category_name":"火锅店","address":"徐汇区龙漕路67号(近漕宝路)"},{"poiid":"B2094655D36DA6FE4492","title":"石龙路","lon":"121.44113","lat":"31.15672","category":"38","category_name":"公交车站","address":""},{"poiid":"B2094654DA65AAFF4592","title":"保利星苑","lon":"121.43556","lat":"31.164545","category":"47","category_name":"住宅区","address":"上海市徐汇区宾阳路28弄"},{"poiid":"B2094757D069AAFA499E","title":"京世造型田林店","lon":"121.44571906","lat":"31.164113638","category":"500","category_name":"未知分类","address":"上海田林路479号"},{"poiid":"B2094757D069A5F44392","title":"上海光大会展","lon":"121.43766058","lat":"31.163745131","category":"500","category_name":"未知分类","address":"上海市徐汇区康健路"},{"poiid":"B2094757D06AA4FD4199","title":"人河酒家","lon":"121.44145","lat":"31.16907","category":"76","category_name":"上海菜","address":"徐汇区龙漕路190号(近田东路)"},{"poiid":"B2094757D66AA6FB489C","title":"忠义新香辣 田东店","lon":"121.44088288648","lat":"31.16982342958","category":"71","category_name":"四川菜","address":"徐汇区田东路3号(近龙漕路)"},{"poiid":"B2094752D664AAF4469C","title":"徐汇滨江","lon":"121.44139","lat":"31.164899","category":"47","category_name":"住宅区","address":null},{"poiid":"B2094751D56AA3F5469D","title":"浦东老八样","lon":"121.4448","lat":"31.16167","category":"76","category_name":"上海菜","address":"徐汇区南宁路660号(近三江路)"},{"poiid":"B209475CD269A5FA469E","title":"徐家汇","lon":"121.443702","lat":"31.164222","category":"500","category_name":"未知分类","address":"上海市 港汇广场"},{"poiid":"B209475CD66CA6F94698","title":"馨逸公寓","lon":"121.440589","lat":"31.160362","category":"47","category_name":"住宅区","address":"上海市 徐汇区宾南路36弄"},{"poiid":"B2094654DA65AAFF4899","title":"梦蝶苑","lon":"121.43734","lat":"31.164413","category":"47","category_name":"住宅区","address":"梦蝶苑位于徐汇徐汇区老沪闵路110弄8号"},{"poiid":"B2094757D16FA6FC469D","title":"漕河泾派出所","lon":"121.438737686","lat":"31.1655311465","category":"609","category_name":"警察局","address":"上海南宁路668号"},{"poiid":"B2094757D065A4FB489B","title":"南宁路","lon":"121.442027","lat":"31.165349","category":"500","category_name":"未知分类","address":"上海南宁路宾南路"},{"poiid":"B2094750D56DA4FD4598","title":"徐家汇 港汇","lon":"121.44712","lat":"31.16105","category":"500","category_name":"未知分类","address":null},{"poiid":"B2094655D26DA0F8439C","title":"三江小区(正门)","lon":"121.43952","lat":"31.16421","category":"47","category_name":"住宅区","address":"三江路301弄"},{"poiid":"B2094753D26EA1FE479B","title":"世博会中国馆","lon":"121.442369","lat":"31.164631","category":"263","category_name":"公司","address":"上海市 中国 上海市 世博大道1200号梅赛德斯奔驰文化演艺中心"},{"poiid":"B2094757D164A5F4409C","title":"上师大五教","lon":"121.442588586","lat":"31.1622151017","category":"500","category_name":"未知分类","address":"上海徐汇校区"},{"poiid":"B2094654DA65AAF84199","title":"好德便利No.349","lon":"121.43933","lat":"31.16433","category":"117","category_name":"便民商店/便利店","address":"三江路301弄10识别"},{"poiid":"B2094654DA65AAF84093","title":"光明便利三江店","lon":"121.43905","lat":"31.16428","category":"117","category_name":"便民商店/便利店","address":"徐汇区三江路301弄8号"},{"poiid":"B2094655D26FA1F9409A","title":"国家香料香精化妆品质量监督检验中心","lon":"121.44202","lat":"31.16534","category":"250","category_name":"公园户外","address":"龙吴路137号"},{"poiid":"B2094654DA6DA1F9409D","title":"凯翔小区","lon":"121.43934","lat":"31.170198","category":"47","category_name":"住宅区","address":"龙漕路135弄"},{"poiid":"B2094752D064A7FF449B","title":"浦东老八样（徐汇店）","lon":"121.439821","lat":"31.163445","category":"247","category_name":"餐饮美食","address":"徐汇区南宁路660号"},{"poiid":"B2094654DA65A6F94899","title":"上海沪申五官科医院","lon":"121.44297","lat":"31.15646","category":"162","category_name":"医院","address":"徐汇区石龙路269号(东泉路石龙路)"},{"poiid":"B2094655D26BA0FD4392","title":"凯旋都市工业园","lon":"121.44406","lat":"31.16748","category":"45","category_name":"产业园区","address":"凯旋南路31"},{"poiid":"B2094753D568A3F5409A","title":"上海南站","lon":"121.441062","lat":"31.16567","category":"500","category_name":"未知分类","address":"上海市 南站"},{"poiid":"B2094757D16FA0F44299","title":"旬阳新村","lon":"121.44479958","lat":"31.161077079","category":"47","category_name":"住宅区","address":"上海旬阳"},{"poiid":"B2094757D168A7FE449C","title":"上海南动车运用所","lon":"121.4371464","lat":"31.1605879","category":"500","category_name":"未知分类","address":"上海市徐汇区南宁路661号"},{"poiid":"B2094654DA65ABFD4898","title":"龙华综合楼二号楼","lon":"121.44747","lat":"31.16264","category":"46","category_name":"楼宇","address":"龙吴路388"},{"poiid":"B2094757D06EAAFD489F","title":"龙漕路地铁站","lon":"121.44440039","lat":"31.16977842","category":"36","category_name":"地铁站","address":"上海轨道交通 三号线 轨交龙漕路站 轻轨 3"},{"poiid":"B2094655D36CA1FD4492","title":"石龙路地铁站","lon":"121.44431","lat":"31.15736","category":"36","category_name":"地铁站","address":"上海轨道交通 三号线 轨交石龙路站 轻轨 3"},{"poiid":"B2094757D06FAAFB4193","title":"酷贝拉","lon":"121.445486586","lat":"31.1693282406","category":"173","category_name":"游戏厅","address":"上海徐汇区龙吴路118号"},{"poiid":"B2094757D06FA7F94893","title":"柳州螺蛳粉 石龙路店","lon":"121.44338","lat":"31.15687","category":"257","category_name":"中餐厅","address":"徐汇区石龙路121号(近3号线石龙站)"},{"poiid":"B2094757D068A2FC4598","title":"西雅图","lon":"121.4369812","lat":"31.166835784","category":"500","category_name":"未知分类","address":"上海徐匯區三江路88號"},{"poiid":"B2094757D068A3F5469C","title":"馨汇南苑","lon":"121.4443","lat":"31.164896","category":"47","category_name":"住宅区","address":"上海南宁路501弄"},{"poiid":"B2094757D06FA1FE4199","title":"肯德基 KFC (龙漕店)","lon":"121.44408168","lat":"31.170129693","category":"68","category_name":"快餐厅","address":"徐汇区轻轨3号线龙漕路地铁站1楼(近龙吴路)"},{"poiid":"B2094757D068A6FF4593","title":"正大综艺摄影棚","lon":"121.43657","lat":"31.15854","category":"500","category_name":"未知分类","address":"徐汇区老沪闵路166号(近漕宝路地铁站)"},{"poiid":"B2094757D068A3F9459B","title":"小李烧烤(龙漕路店)","lon":"121.44401","lat":"31.16934","category":"68","category_name":"快餐厅","address":"徐汇区凯旋南路115号(近龙漕路站3号口)"},{"poiid":"B2094757D568A5FC459A","title":"下河迷仓","lon":"121.44194","lat":"31.16946389","category":"248","category_name":"生活娱乐","address":"徐汇区龙漕路200弄100号3楼(近远大心胸医院)"},{"poiid":"B2094654DB6CA6FB459D","title":"三江小区","lon":"121.44025","lat":"31.164818","category":"47","category_name":"住宅区","address":"上海徐汇区三江路301弄"},{"poiid":"B2094654DA6DABF4489A","title":"徐汇御景苑","lon":"121.44683","lat":"31.166031","category":"47","category_name":"住宅区","address":"龙吴路288弄1-13号"},{"poiid":"B2094654DA6DA2F9439A","title":"上海远大心胸医院","lon":"121.44254","lat":"31.16964","category":"162","category_name":"医院","address":"徐汇区龙漕路218号(近轻轨三号线龙漕路站)"},{"poiid":"B2094654DB65A1F44193","title":"东泉小区","lon":"121.44322","lat":"31.156372","category":"47","category_name":"住宅区","address":"东泉路50弄1-30号,64弄11-16号,104弄1-33号"},{"poiid":"B2094757D06BA2FD4198","title":"龙华机场新村","lon":"121.44908258","lat":"31.166325182","category":"21","category_name":"飞机场","address":"上海市徐汇区龙华西路机场新村(近民航中专宿舍)"},{"poiid":"B2094655D26AA0F9419C","title":"地铁龙漕路站","lon":"121.44436","lat":"31.16985","category":"36","category_name":"地铁站","address":""},{"poiid":"B2094654DB69A4FD499A","title":"锦江之星(龙漕路店)","lon":"121.43821","lat":"31.16715","category":"216","category_name":"经济型连锁酒店","address":"徐汇区三江路68号(近漕宝路地铁站)"},{"poiid":"B2094655D36DA6FD4992","title":"龙漕路","lon":"121.44436","lat":"31.16985","category":"38","category_name":"公交车站","address":""},{"poiid":"B2094655D26AA0F9419F","title":"地铁石龙路站","lon":"121.44113","lat":"31.15672","category":"36","category_name":"地铁站","address":""},{"poiid":"B2094750D26EA3FC479F","title":"徐家汇地铁站","lon":"121.439998","lat":"31.156708","category":"36","category_name":"地铁站","address":null},{"poiid":"B2094654DA65AAF84098","title":"乾骏大厦","lon":"121.43819","lat":"31.164591","category":"47","category_name":"住宅区","address":"宾阳路62弄1-4"},{"poiid":"B2094654DA6DA1F9449F","title":"广明牛肉","lon":"121.43573406628","lat":"31.168551302981","category":"86","category_name":"火锅店","address":"徐汇区龙漕路67号(近漕宝路)"},{"poiid":"B2094655D36DA6FE4492","title":"石龙路","lon":"121.44113","lat":"31.15672","category":"38","category_name":"公交车站","address":""},{"poiid":"B2094654DA65AAFF4592","title":"保利星苑","lon":"121.43556","lat":"31.164545","category":"47","category_name":"住宅区","address":"上海市徐汇区宾阳路28弄"},{"poiid":"B2094757D069AAFA499E","title":"京世造型田林店","lon":"121.44571906","lat":"31.164113638","category":"500","category_name":"未知分类","address":"上海田林路479号"},{"poiid":"B2094757D069A5F44392","title":"上海光大会展","lon":"121.43766058","lat":"31.163745131","category":"500","category_name":"未知分类","address":"上海市徐汇区康健路"},{"poiid":"B2094757D06AA4FD4199","title":"人河酒家","lon":"121.44145","lat":"31.16907","category":"76","category_name":"上海菜","address":"徐汇区龙漕路190号(近田东路)"},{"poiid":"B2094757D66AA6FB489C","title":"忠义新香辣 田东店","lon":"121.44088288648","lat":"31.16982342958","category":"71","category_name":"四川菜","address":"徐汇区田东路3号(近龙漕路)"},{"poiid":"B2094752D664AAF4469C","title":"徐汇滨江","lon":"121.44139","lat":"31.164899","category":"47","category_name":"住宅区","address":null},{"poiid":"B2094751D56AA3F5469D","title":"浦东老八样","lon":"121.4448","lat":"31.16167","category":"76","category_name":"上海菜","address":"徐汇区南宁路660号(近三江路)"},{"poiid":"B209475CD269A5FA469E","title":"徐家汇","lon":"121.443702","lat":"31.164222","category":"500","category_name":"未知分类","address":"上海市 港汇广场"},{"poiid":"B209475CD66CA6F94698","title":"馨逸公寓","lon":"121.440589","lat":"31.160362","category":"47","category_name":"住宅区","address":"上海市 徐汇区宾南路36弄"},{"poiid":"B2094654DA65AAFF4899","title":"梦蝶苑","lon":"121.43734","lat":"31.164413","category":"47","category_name":"住宅区","address":"梦蝶苑位于徐汇徐汇区老沪闵路110弄8号"},{"poiid":"B2094757D16FA6FC469D","title":"漕河泾派出所","lon":"121.438737686","lat":"31.1655311465","category":"609","category_name":"警察局","address":"上海南宁路668号"},{"poiid":"B2094757D065A4FB489B","title":"南宁路","lon":"121.442027","lat":"31.165349","category":"500","category_name":"未知分类","address":"上海南宁路宾南路"},{"poiid":"B2094750D56DA4FD4598","title":"徐家汇 港汇","lon":"121.44712","lat":"31.16105","category":"500","category_name":"未知分类","address":null},{"poiid":"B2094655D26DA0F8439C","title":"三江小区(正门)","lon":"121.43952","lat":"31.16421","category":"47","category_name":"住宅区","address":"三江路301弄"},{"poiid":"B2094753D26EA1FE479B","title":"世博会中国馆","lon":"121.442369","lat":"31.164631","category":"263","category_name":"公司","address":"上海市 中国 上海市 世博大道1200号梅赛德斯奔驰文化演艺中心"},{"poiid":"B2094757D164A5F4409C","title":"上师大五教","lon":"121.442588586","lat":"31.1622151017","category":"500","category_name":"未知分类","address":"上海徐汇校区"},{"poiid":"B2094654DA65AAF84199","title":"好德便利No.349","lon":"121.43933","lat":"31.16433","category":"117","category_name":"便民商店/便利店","address":"三江路301弄10识别"},{"poiid":"B2094654DA65AAF84093","title":"光明便利三江店","lon":"121.43905","lat":"31.16428","category":"117","category_name":"便民商店/便利店","address":"徐汇区三江路301弄8号"},{"poiid":"B2094655D26FA1F9409A","title":"国家香料香精化妆品质量监督检验中心","lon":"121.44202","lat":"31.16534","category":"250","category_name":"公园户外","address":"龙吴路137号"},{"poiid":"B2094654DA6DA1F9409D","title":"凯翔小区","lon":"121.43934","lat":"31.170198","category":"47","category_name":"住宅区","address":"龙漕路135弄"},{"poiid":"B2094752D064A7FF449B","title":"浦东老八样（徐汇店）","lon":"121.439821","lat":"31.163445","category":"247","category_name":"餐饮美食","address":"徐汇区南宁路660号"},{"poiid":"B2094654DA65A6F94899","title":"上海沪申五官科医院","lon":"121.44297","lat":"31.15646","category":"162","category_name":"医院","address":"徐汇区石龙路269号(东泉路石龙路)"},{"poiid":"B2094655D26BA0FD4392","title":"凯旋都市工业园","lon":"121.44406","lat":"31.16748","category":"45","category_name":"产业园区","address":"凯旋南路31"},{"poiid":"B2094753D568A3F5409A","title":"上海南站","lon":"121.441062","lat":"31.16567","category":"500","category_name":"未知分类","address":"上海市 南站"},{"poiid":"B2094757D16FA0F44299","title":"旬阳新村","lon":"121.44479958","lat":"31.161077079","category":"47","category_name":"住宅区","address":"上海旬阳"},{"poiid":"B2094757D168A7FE449C","title":"上海南动车运用所","lon":"121.4371464","lat":"31.1605879","category":"500","category_name":"未知分类","address":"上海市徐汇区南宁路661号"},{"poiid":"B2094654DA65ABFD4898","title":"龙华综合楼二号楼","lon":"121.44747","lat":"31.16264","category":"46","category_name":"楼宇","address":"龙吴路388"},{"poiid":"B2094757D06EAAFD489F","title":"龙漕路地铁站","lon":"121.44440039","lat":"31.16977842","category":"36","category_name":"地铁站","address":"上海轨道交通 三号线 轨交龙漕路站 轻轨 3"},{"poiid":"B2094655D36CA1FD4492","title":"石龙路地铁站","lon":"121.44431","lat":"31.15736","category":"36","category_name":"地铁站","address":"上海轨道交通 三号线 轨交石龙路站 轻轨 3"},{"poiid":"B2094757D06FAAFB4193","title":"酷贝拉","lon":"121.445486586","lat":"31.1693282406","category":"173","category_name":"游戏厅","address":"上海徐汇区龙吴路118号"},{"poiid":"B2094757D06FA7F94893","title":"柳州螺蛳粉 石龙路店","lon":"121.44338","lat":"31.15687","category":"257","category_name":"中餐厅","address":"徐汇区石龙路121号(近3号线石龙站)"},{"poiid":"B2094757D068A2FC4598","title":"西雅图","lon":"121.4369812","lat":"31.166835784","category":"500","category_name":"未知分类","address":"上海徐匯區三江路88號"},{"poiid":"B2094757D068A3F5469C","title":"馨汇南苑","lon":"121.4443","lat":"31.164896","category":"47","category_name":"住宅区","address":"上海南宁路501弄"},{"poiid":"B2094757D06FA1FE4199","title":"肯德基 KFC (龙漕店)","lon":"121.44408168","lat":"31.170129693","category":"68","category_name":"快餐厅","address":"徐汇区轻轨3号线龙漕路地铁站1楼(近龙吴路)"},{"poiid":"B2094757D068A6FF4593","title":"正大综艺摄影棚","lon":"121.43657","lat":"31.15854","category":"500","category_name":"未知分类","address":"徐汇区老沪闵路166号(近漕宝路地铁站)"},{"poiid":"B2094757D068A3F9459B","title":"小李烧烤(龙漕路店)","lon":"121.44401","lat":"31.16934","category":"68","category_name":"快餐厅","address":"徐汇区凯旋南路115号(近龙漕路站3号口)"},{"poiid":"B2094757D568A5FC459A","title":"下河迷仓","lon":"121.44194","lat":"31.16946389","category":"248","category_name":"生活娱乐","address":"徐汇区龙漕路200弄100号3楼(近远大心胸医院)"},{"poiid":"B2094654DB6CA6FB459D","title":"三江小区","lon":"121.44025","lat":"31.164818","category":"47","category_name":"住宅区","address":"上海徐汇区三江路301弄"},{"poiid":"B2094654DA6DABF4489A","title":"徐汇御景苑","lon":"121.44683","lat":"31.166031","category":"47","category_name":"住宅区","address":"龙吴路288弄1-13号"},{"poiid":"B2094654DA6DA2F9439A","title":"上海远大心胸医院","lon":"121.44254","lat":"31.16964","category":"162","category_name":"医院","address":"徐汇区龙漕路218号(近轻轨三号线龙漕路站)"},{"poiid":"B2094654DB65A1F44193","title":"东泉小区","lon":"121.44322","lat":"31.156372","category":"47","category_name":"住宅区","address":"东泉路50弄1-30号,64弄11-16号,104弄1-33号"},{"poiid":"B2094757D06BA2FD4198","title":"龙华机场新村","lon":"121.44908258","lat":"31.166325182","category":"21","category_name":"飞机场","address":"上海市徐汇区龙华西路机场新村(近民航中专宿舍)"},{"poiid":"B2094655D26AA0F9419C","title":"地铁龙漕路站","lon":"121.44436","lat":"31.16985","category":"36","category_name":"地铁站","address":""},{"poiid":"B2094654DB69A4FD499A","title":"锦江之星(龙漕路店)","lon":"121.43821","lat":"31.16715","category":"216","category_name":"经济型连锁酒店","address":"徐汇区三江路68号(近漕宝路地铁站)"},{"poiid":"B2094655D36DA6FD4992","title":"龙漕路","lon":"121.44436","lat":"31.16985","category":"38","category_name":"公交车站","address":""},{"poiid":"B2094655D26AA0F9419F","title":"地铁石龙路站","lon":"121.44113","lat":"31.15672","category":"36","category_name":"地铁站","address":""},{"poiid":"B2094750D26EA3FC479F","title":"徐家汇地铁站","lon":"121.439998","lat":"31.156708","category":"36","category_name":"地铁站","address":null},{"poiid":"B2094654DA65AAF84098","title":"乾骏大厦","lon":"121.43819","lat":"31.164591","category":"47","category_name":"住宅区","address":"宾阳路62弄1-4"},{"poiid":"B2094654DA6DA1F9449F","title":"广明牛肉","lon":"121.43573406628","lat":"31.168551302981","category":"86","category_name":"火锅店","address":"徐汇区龙漕路67号(近漕宝路)"},{"poiid":"B2094655D36DA6FE4492","title":"石龙路","lon":"121.44113","lat":"31.15672","category":"38","category_name":"公交车站","address":""},{"poiid":"B2094654DA65AAFF4592","title":"保利星苑","lon":"121.43556","lat":"31.164545","category":"47","category_name":"住宅区","address":"上海市徐汇区宾阳路28弄"},{"poiid":"B2094757D069AAFA499E","title":"京世造型田林店","lon":"121.44571906","lat":"31.164113638","category":"500","category_name":"未知分类","address":"上海田林路479号"},{"poiid":"B2094757D069A5F44392","title":"上海光大会展","lon":"121.43766058","lat":"31.163745131","category":"500","category_name":"未知分类","address":"上海市徐汇区康健路"},{"poiid":"B2094757D06AA4FD4199","title":"人河酒家","lon":"121.44145","lat":"31.16907","category":"76","category_name":"上海菜","address":"徐汇区龙漕路190号(近田东路)"},{"poiid":"B2094757D66AA6FB489C","title":"忠义新香辣 田东店","lon":"121.44088288648","lat":"31.16982342958","category":"71","category_name":"四川菜","address":"徐汇区田东路3号(近龙漕路)"},{"poiid":"B2094752D664AAF4469C","title":"徐汇滨江","lon":"121.44139","lat":"31.164899","category":"47","category_name":"住宅区","address":null},{"poiid":"B2094751D56AA3F5469D","title":"浦东老八样","lon":"121.4448","lat":"31.16167","category":"76","category_name":"上海菜","address":"徐汇区南宁路660号(近三江路)"},{"poiid":"B209475CD269A5FA469E","title":"徐家汇","lon":"121.443702","lat":"31.164222","category":"500","category_name":"未知分类","address":"上海市 港汇广场"},{"poiid":"B209475CD66CA6F94698","title":"馨逸公寓","lon":"121.440589","lat":"31.160362","category":"47","category_name":"住宅区","address":"上海市 徐汇区宾南路36弄"},{"poiid":"B2094654DA65AAFF4899","title":"梦蝶苑","lon":"121.43734","lat":"31.164413","category":"47","category_name":"住宅区","address":"梦蝶苑位于徐汇徐汇区老沪闵路110弄8号"},{"poiid":"B2094757D16FA6FC469D","title":"漕河泾派出所","lon":"121.438737686","lat":"31.1655311465","category":"609","category_name":"警察局","address":"上海南宁路668号"},{"poiid":"B2094757D065A4FB489B","title":"南宁路","lon":"121.442027","lat":"31.165349","category":"500","category_name":"未知分类","address":"上海南宁路宾南路"},{"poiid":"B2094750D56DA4FD4598","title":"徐家汇 港汇","lon":"121.44712","lat":"31.16105","category":"500","category_name":"未知分类","address":null},{"poiid":"B2094655D26DA0F8439C","title":"三江小区(正门)","lon":"121.43952","lat":"31.16421","category":"47","category_name":"住宅区","address":"三江路301弄"},{"poiid":"B2094753D26EA1FE479B","title":"世博会中国馆","lon":"121.442369","lat":"31.164631","category":"263","category_name":"公司","address":"上海市 中国 上海市 世博大道1200号梅赛德斯奔驰文化演艺中心"},{"poiid":"B2094757D164A5F4409C","title":"上师大五教","lon":"121.442588586","lat":"31.1622151017","category":"500","category_name":"未知分类","address":"上海徐汇校区"},{"poiid":"B2094654DA65AAF84199","title":"好德便利No.349","lon":"121.43933","lat":"31.16433","category":"117","category_name":"便民商店/便利店","address":"三江路301弄10识别"},{"poiid":"B2094654DA65AAF84093","title":"光明便利三江店","lon":"121.43905","lat":"31.16428","category":"117","category_name":"便民商店/便利店","address":"徐汇区三江路301弄8号"},{"poiid":"B2094655D26FA1F9409A","title":"国家香料香精化妆品质量监督检验中心","lon":"121.44202","lat":"31.16534","category":"250","category_name":"公园户外","address":"龙吴路137号"},{"poiid":"B2094654DA6DA1F9409D","title":"凯翔小区","lon":"121.43934","lat":"31.170198","category":"47","category_name":"住宅区","address":"龙漕路135弄"},{"poiid":"B2094752D064A7FF449B","title":"浦东老八样（徐汇店）","lon":"121.439821","lat":"31.163445","category":"247","category_name":"餐饮美食","address":"徐汇区南宁路660号"},{"poiid":"B2094654DA65A6F94899","title":"上海沪申五官科医院","lon":"121.44297","lat":"31.15646","category":"162","category_name":"医院","address":"徐汇区石龙路269号(东泉路石龙路)"},{"poiid":"B2094655D26BA0FD4392","title":"凯旋都市工业园","lon":"121.44406","lat":"31.16748","category":"45","category_name":"产业园区","address":"凯旋南路31"},{"poiid":"B2094753D568A3F5409A","title":"上海南站","lon":"121.441062","lat":"31.16567","category":"500","category_name":"未知分类","address":"上海市 南站"},{"poiid":"B2094757D16FA0F44299","title":"旬阳新村","lon":"121.44479958","lat":"31.161077079","category":"47","category_name":"住宅区","address":"上海旬阳"},{"poiid":"B2094757D168A7FE449C","title":"上海南动车运用所","lon":"121.4371464","lat":"31.1605879","category":"500","category_name":"未知分类","address":"上海市徐汇区南宁路661号"},{"poiid":"B2094654DA65ABFD4898","title":"龙华综合楼二号楼","lon":"121.44747","lat":"31.16264","category":"46","category_name":"楼宇","address":"龙吴路388"}]