[{"poiid":"B2094757D06FA6F8409F","title":"中山北路曹杨路","lon":"121.4156694","lat":"31.2391901","category":"38","category_name":"公交车站","address":"上海普砣区中山北路曹杨路"},{"poiid":"B2094757D06FAAF9429E","title":"江苏饭店","lon":"121.41120158","lat":"31.246796755","category":"247","category_name":"餐饮美食","address":"普陀区普陀区武宁路888号(近中宁路)"},{"poiid":"B2094757D06EAAF5449E","title":"枫桥路地铁站","lon":"121.41106525","lat":"31.242099931","category":"36","category_name":"地铁站","address":"上海轨道交通 十一号线 轨交枫桥路站 11"},{"poiid":"B2094654DB6AA6F8409E","title":"上海港鸿大酒店","lon":"121.41536","lat":"31.24405","category":"215","category_name":"三星级宾馆","address":"上海市普陀区武宁路501号(近中山北路)"},{"poiid":"B2094757D06FAAF54799","title":"武宁公园","lon":"121.41519767","lat":"31.24542618","category":"196","category_name":"公园","address":"普陀区石泉路450号(近中宁路)"},{"poiid":"B2094757D068A0F8469D","title":"金狮麟豪冠酒店","lon":"121.410437492","lat":"31.2447190276","category":"75","category_name":"浙江菜","address":"普陀区武宁路1047号(近曹杨路)"},{"poiid":"B2094757D169A1FB469B","title":"普陀区住房保障和房屋管理局","lon":"121.41657358","lat":"31.239492612","category":"500","category_name":"未知分类","address":"上海市普陀区曹杨路"},{"poiid":"B2094757D06FA1F8429B","title":"普陀区业余大学","lon":"121.41262","lat":"31.24079","category":"53","category_name":"成人教育","address":"普陀区曹杨路805号(近三汽公司)"},{"poiid":"B2094757D06FA7FF449B","title":"内环武宁路高驾上匝道","lon":"121.419364","lat":"31.241994","category":"500","category_name":"未知分类","address":"上海武宁路中山北路"},{"poiid":"B2094655D36CA5FA459C","title":"曹杨路大众三汽公司","lon":"121.41327","lat":"31.24071","category":"38","category_name":"公交车站","address":""},{"poiid":"B2094655D26FA5FD429B","title":"红宝石(曹阳店)","lon":"121.41508","lat":"31.23877","category":"67","category_name":"甜品店","address":"普陀区中山北路3015号(近曹杨路)"},{"poiid":"B2094654D56BA3F94492","title":"图门串烤 曹杨路店","lon":"121.41474","lat":"31.23926","category":"68","category_name":"快餐厅","address":"普陀区曹杨路683号(近中山北路兰溪路)"},{"poiid":"B2094757D068A2FF439F","title":"上海电器科学研究所","lon":"121.415145","lat":"31.244191","category":"500","category_name":"未知分类","address":"上海市武宁路505号"},{"poiid":"B2094757D168ABFC4593","title":"劳动和社会保障局","lon":"121.410700386","lat":"31.2455235303","category":"500","category_name":"未知分类","address":"上海武宁路1036号"},{"poiid":"B2094757D16AABFC4298","title":"上海悦馨大酒店","lon":"121.413955586","lat":"31.2480587799","category":"76","category_name":"上海菜","address":"普陀区中宁路176号广西宾馆后侧"},{"poiid":"B2094655D26AA0F94093","title":"地铁曹杨路站","lon":"121.41833","lat":"31.23976","category":"36","category_name":"地铁站","address":""},{"poiid":"B2094654D56BA2F4469C","title":"鸿运大厦","lon":"121.41538","lat":"31.24405","category":"46","category_name":"楼宇","address":"武宁路501号"},{"poiid":"B2094654D56AAAFD469F","title":"武宁长途汽车站","lon":"121.41323","lat":"31.24603","category":"35","category_name":"长途汽车站","address":"中宁路230"},{"poiid":"B2094757D069A4F44892","title":"上海市测绘院","lon":"121.417523","lat":"31.242752","category":"500","category_name":"未知分类","address":"上海武宁路419号"},{"poiid":"B2094757DA6BA3FC479C","title":"上海普陀区房产交易中心","lon":"121.41673007377847","lat":"31.23966038441211","category":"252","category_name":"楼宇机构","address":"上海市普陀区中山北路2930号"},{"poiid":"B2094654D56BA2FA4393","title":"永乐生活电器(曹杨店)","lon":"121.41294","lat":"31.24048","category":"138","category_name":"家电电子卖场","address":"普陀区曹杨路777号(近兰溪路)"},{"poiid":"B2094757D068A1FA499C","title":"曹杨路花卉市场","lon":"121.41194","lat":"31.24177","category":"249","category_name":"购物服务","address":"上海普陀区曹杨路900号(近三汽公司)"},{"poiid":"B2094655D36CA5FA449B","title":"曹阳路兰溪路","lon":"121.41387","lat":"31.24033","category":"38","category_name":"公交车站","address":""},{"poiid":"B2094757D069A7F94793","title":"Hayes星港","lon":"121.41215","lat":"31.243679","category":"47","category_name":"住宅区","address":"上海武宁路955弄"},{"poiid":"B2094757D469A7FF4298","title":"真功夫 曹杨路店","lon":"121.415448054","lat":"31.239198793","category":"68","category_name":"快餐厅","address":"普陀区曹杨路648号1楼A座(近中山北路)"},{"poiid":"B2094654D56AAAFE469F","title":"上海市国家税务局车辆购置税曹杨征收所","lon":"121.41257","lat":"31.24795","category":"250","category_name":"公园户外","address":"武宁路"},{"poiid":"B2094750D76DAAFA409F","title":"吉野家  杨柳青店","lon":"121.415","lat":"31.2451","category":"95","category_name":"日本料理","address":"普陀区武宁路768号乐天玛特购物中心1楼(近杨柳青路)"},{"poiid":"B2094655D264A0FE4693","title":"喜士多武宁门市","lon":"121.4155","lat":"31.24399","category":"117","category_name":"便民商店/便利店","address":"武宁路503"},{"poiid":"B2094655D26BA2FC439B","title":"武宁路中宁路","lon":"121.41516","lat":"31.24451","category":"38","category_name":"公交车站","address":""},{"poiid":"B2094757D068A4FC4092","title":"花溪园","lon":"121.416","lat":"31.2448","category":"47","category_name":"住宅区","address":"上海兰溪路90弄花溪园小区"},{"poiid":"B2094757D068A2FA429E","title":"曹杨华庭","lon":"121.411","lat":"31.2441","category":"47","category_name":"住宅区","address":"上海市普陀区杏山路500弄"},{"poiid":"B2094757D16CA6F4489F","title":"全家便利(曹杨路店)","lon":"121.41165408","lat":"31.241584553","category":"117","category_name":"便民商店/便利店","address":"上海普陀区曹杨路867号"},{"poiid":"B2094654D56BA2F4469E","title":"上海星港","lon":"121.41226","lat":"31.24498","category":"47","category_name":"住宅区","address":"上海浦东新区东昌路、银城路交界处"},{"poiid":"B2094757D16CA0FA4593","title":"武宁路中宁路公交站","lon":"121.415541","lat":"31.244142","category":"38","category_name":"公交车站","address":"上海武宁路中宁路"},{"poiid":"B2094757D06AA0F8419E","title":"陈记甜品","lon":"121.415768586","lat":"31.2390546037","category":"247","category_name":"餐饮美食","address":"上海中山北路3011号"},{"poiid":"B2094654D56BA2FB409A","title":"枫桥苑","lon":"121.41119","lat":"31.242687","category":"47","category_name":"住宅区","address":"上海市普陀区曹杨路922弄"},{"poiid":"B2094654DB69A4FD499F","title":"锦江之星(武宁店)","lon":"121.41953","lat":"31.24219","category":"216","category_name":"经济型连锁酒店","address":"上海普陀区中山北路2701号(近武宁路)  "},{"poiid":"B2094757D064ABFD409C","title":"中国建筑上海设计院有限公司","lon":"121.415282","lat":"31.244136","category":"263","category_name":"公司","address":"上海武宁路503号"},{"poiid":"B209475CD56CA6F9489D","title":"森井-special sushi","lon":"121.414657","lat":"31.244592","category":"500","category_name":"未知分类","address":"上海市 普陀区中山北路3300号月星环球港L2026号"},{"poiid":"B2094757D069A6FB419F","title":"丰裕生煎(中山北路店)","lon":"121.41514","lat":"31.23856","category":"68","category_name":"快餐厅","address":"普陀区中山北路3011号(近曹杨路)"},{"poiid":"B2094753D26DA1FC429A","title":"普陀区中心医院","lon":"121.415744","lat":"31.244083","category":"162","category_name":"医院","address":"上海市 枣阳路130号"},{"poiid":"B2094654D56BA2FF459C","title":"中国农业银行普陀支行营业部","lon":"121.4137","lat":"31.24","category":"150","category_name":"银行","address":"上海市普陀区曹杨路697号"},{"poiid":"B2094751D46AA0F5449C","title":"上海市普陀区房地产交易中心","lon":"121.416504","lat":"31.239807","category":"500","category_name":"未知分类","address":"中山北路2930号"},{"poiid":"B2094757D069A3FF489B","title":"金仕堡健身会所(曹杨店)","lon":"121.415407186","lat":"31.239324209","category":"221","category_name":"健身中心","address":"普陀区曹杨路710弄中关村公寓内"},{"poiid":"B2094757D16DA1FE4099","title":"曹杨四村","lon":"121.414","lat":"31.2433","category":"500","category_name":"未知分类","address":"花溪路122弄"},{"poiid":"B2094757D16EA3FA4692","title":"厦门沃头蚝干粥武宁店","lon":"121.415297886","lat":"31.2442795059","category":"500","category_name":"未知分类","address":"上海武宁路"},{"poiid":"B2094654DB69A5FC4298","title":"7天连锁酒店(武宁路店)","lon":"121.41849","lat":"31.24352","category":"216","category_name":"经济型连锁酒店","address":"普陀区武宁路492号(近中山北路)"},{"poiid":"B2094757D56CABFA439D","title":"家德东北饭庄","lon":"121.4176082","lat":"31.2404343","category":"82","category_name":"东北菜","address":"普陀区中山北路2911号中关村大厦1楼(近曹杨路)"},{"poiid":"B2094757D06AA4F5499D","title":"coco都可茶饮(兰溪路店)","lon":"121.414413328","lat":"31.2407235614","category":"113","category_name":"冷饮店","address":"普陀区兰溪路49-3号(近沙田学校)"},{"poiid":"B2094655D26DA5F9469F","title":"普陀区房屋土地管理局三号楼","lon":"121.41586","lat":"31.23972","category":"46","category_name":"楼宇","address":"中山北路2981甲"},{"poiid":"B2094757D06FA7F9449B","title":"中关村公寓","lon":"121.41596","lat":"31.240488","category":"500","category_name":"未知分类","address":"上海市普陀区中山北路2923号,曹杨路710弄"},{"poiid":"B2094757D168A5FE419D","title":"上海星港二期","lon":"121.41232954","lat":"31.242888878","category":"47","category_name":"住宅区","address":"上海市宝山区殷高西路331弄"},{"poiid":"B2094654D56BA2FF459F","title":"中国农业银行上海市普陀支行","lon":"121.41369","lat":"31.23999","category":"150","category_name":"银行","address":"普陀区曹杨路697号1楼(近兰溪路)"},{"poiid":"B2094757D069A0FE419A","title":"武宁路中山北路红绿灯","lon":"121.41623842","lat":"31.241898718","category":"500","category_name":"未知分类","address":"上海普陀区武宁路中山北路口"},{"poiid":"B2094654DB64A6FB409D","title":"上海广西宾馆","lon":"121.41406","lat":"31.24752","category":"215","category_name":"三星级宾馆","address":"普陀区中宁路176号(近石泉路)"},{"poiid":"B2094757D76DA1F54799","title":"重庆鸡公煲","lon":"121.41735","lat":"31.24026","category":"71","category_name":"四川菜","address":"普陀区梅岭北路124号(近11号线枫桥路站3号口)"},{"poiid":"B2094757D76CA3FF479E","title":"四妈香酥鸡柳","lon":"121.414142","lat":"31.240495","category":"68","category_name":"快餐厅","address":"普陀区曹杨路748号(近兰溪路)"},{"poiid":"B2094757D568A1F84592","title":"Alibi","lon":"121.4116281","lat":"31.24495611","category":"94","category_name":"西餐厅","address":"普陀区武宁路955弄1号1204室(近曹杨地铁站)"},{"poiid":"B2094757D069A6FC4399","title":"白玉兰小吃 兰溪店","lon":"121.41390958913","lat":"31.2392270865","category":"68","category_name":"快餐厅","address":"普陀区兰溪路17号(近曹杨路)"},{"poiid":"B2094757D06BABFE499F","title":"上海电器科学研究所食堂","lon":"121.415715186","lat":"31.2442198048","category":"500","category_name":"未知分类","address":"上海曹杨路800号"},{"poiid":"B2094654D56BA2FA4798","title":"上海电器科学研究所(集团)有限公司(曹杨路)","lon":"121.41289","lat":"31.24159","category":"263","category_name":"公司","address":"曹杨路800号"},{"poiid":"B2094757D66CAAFD499D","title":"老凤祥银楼(武宁店)","lon":"121.41627","lat":"31.24378","category":"500","category_name":"未知分类","address":"普陀区武宁路查看地图"},{"poiid":"B2094655D265A7FF4293","title":"阿飞茶吧棋牌","lon":"121.4122","lat":"31.24373","category":"66","category_name":"茶艺馆","address":"武宁路955弄34"},{"poiid":"B2094654D56BA2F44998","title":"华东电力设计院(武宁路)","lon":"121.41821","lat":"31.24205","category":"191","category_name":"科研机构","address":"武宁路409"},{"poiid":"B2094654DB69A6FE459B","title":"武宁苑","lon":"121.41888","lat":"31.244137","category":"47","category_name":"住宅区","address":"上海市普陀区武宁路492号"},{"poiid":"B2094655D36CA5FA4493","title":"曹杨路兰溪路","lon":"121.41348","lat":"31.24061","category":"38","category_name":"公交车站","address":"上海市普陀区兰溪路125号"},{"poiid":"B2094757D169A5FE4693","title":"米洛护肤造型(曹杨店)","lon":"121.41100358","lat":"31.243562691","category":"148","category_name":"美容美发店","address":"上海市普陀区武宁路916号"},{"poiid":"B2094757D66CA2F9489B","title":"上海市轻工业品进出口有限公司","lon":"121.41613929","lat":"31.244042071","category":"263","category_name":"公司","address":"上海市武宁路501号鸿运大厦16-18楼"},{"poiid":"B2094752DB6BA5FD449B","title":"沪西大剧院","lon":"121.417521","lat":"31.24294","category":"500","category_name":"未知分类","address":"上海市 武宁路205号"},{"poiid":"B2094654D56BA2FF4592","title":"曹杨君悦苑","lon":"121.41281","lat":"31.239714","category":"47","category_name":"住宅区","address":"兰溪路10弄"},{"poiid":"B2094757D66FA6F8429A","title":"上海电科智能系统股份有限公司","lon":"121.41394258","lat":"31.244193704","category":"263","category_name":"公司","address":"上海市普陀区武宁路509号3楼"},{"poiid":"B2094757D16FA6FF479B","title":"民望餐厅","lon":"121.416954041","lat":"31.2434806824","category":"500","category_name":"未知分类","address":"上海武宁路507号电科大厦二楼"},{"poiid":"B2094757D068ABF54999","title":"中山北路二手车交易市场","lon":"121.41769409","lat":"31.240209579","category":"260","category_name":"其他","address":"普陀区中山北路2907号展厅313室(近武宁路)"},{"poiid":"B2094655D26EAAF9419C","title":"月季园别墅式宾馆餐厅","lon":"121.41448","lat":"31.24755","category":"257","category_name":"中餐厅","address":"普陀区中宁路138弄月季园"},{"poiid":"B2094655D265A0F8499C","title":"重庆鸡公煲川夫烤鱼","lon":"121.41232","lat":"31.24656","category":"71","category_name":"四川菜","address":"普陀区中山北路2400弄7号(近东新路)"},{"poiid":"B2094654D56BA2FA4792","title":"凯综商务楼","lon":"121.41168","lat":"31.24221","category":"46","category_name":"楼宇","address":"曹杨路888号"},{"poiid":"B2094655D26AA5F4439D","title":"上海公交驾校曹杨路分校","lon":"121.41291","lat":"31.24125","category":"247","category_name":"餐饮美食","address":"普陀区曹杨路788号(近三汽公司)"},{"poiid":"B2094654D56BA2FA479C","title":"上海大众三汽公共交通有限公司门诊部","lon":"121.41291","lat":"31.24125","category":"162","category_name":"医院","address":"曹杨路788号2层"},{"poiid":"B2094757D069A1FE4392","title":"FOUNT JAPANESE CUISINE","lon":"121.41652674","lat":"31.240108387","category":"95","category_name":"日本料理","address":"上海徐汇区永嘉路570号永嘉庭5号楼1号"},{"poiid":"B2094757D169AAF54092","title":"联纵智达大厦","lon":"121.41165758","lat":"31.241588853","category":"252","category_name":"楼宇机构","address":"上海市普陀区曹杨路867号"},{"poiid":"B2094753D46BA3FA489A","title":"拿渡麻辣香锅","lon":"121.418998","lat":"31.241003","category":"247","category_name":"餐饮美食","address":"上海市 月星环球港"},{"poiid":"B2094757D16EABFF429F","title":"Sindy's home","lon":"121.417175586","lat":"31.2438101968","category":"500","category_name":"未知分类","address":"上海市武宁路内环外中环内 某个小区"},{"poiid":"B2094757D16BA3FB449C","title":"枣阳苑","lon":"121.415","lat":"31.2417","category":"252","category_name":"楼宇机构","address":"上海市普陀区杏山路254号"},{"poiid":"B2094757D66DAAFD4293","title":"馨佳园二街坊","lon":"121.416843586","lat":"31.2414396504","category":"47","category_name":"住宅区","address":"上海宝山区韶山路418弄"},{"poiid":"B2094654D56BA2FA479B","title":"光明便利No.004","lon":"121.41294","lat":"31.24108","category":"117","category_name":"便民商店/便利店","address":"曹杨路770"},{"poiid":"B2094655D36CA2FA499E","title":"三汽公司(招呼站)","lon":"121.41365","lat":"31.24033","category":"38","category_name":"公交车站","address":""},{"poiid":"B2094654D56BA2FA479E","title":"上海市普陀区沪西职业技术学校","lon":"121.41291","lat":"31.24125","category":"54","category_name":"职业技术学校","address":"曹杨路788号4层"},{"poiid":"B2094757D06BA3F9489A","title":"维络城港汇体验站","lon":"121.41234823","lat":"31.242703898","category":"500","category_name":"未知分类","address":"上海徐汇区虹桥路1号港汇广场地下一层名店运动城内,近肯德基"},{"poiid":"B2094654D56BA2FA4892","title":"上海嘉定工业开发区绿色经济城","lon":"121.41168","lat":"31.24221","category":"45","category_name":"产业园区","address":"曹杨路888号凯综商务楼211"},{"poiid":"B2094654D56AABF5409E","title":"正宗兰州牛肉拉面(武宁路)","lon":"121.41859","lat":"31.2426","category":"90","category_name":"清真餐馆","address":"武宁路458"},{"poiid":"B2094655D26DA7F8419F","title":"上海电视大学普陀分校(东北门)","lon":"121.41246","lat":"31.24085","category":"678","category_name":"学校大门","address":"曹杨路805"},{"poiid":"B2094655D26DA1FC419D","title":"上海市普陀区业余大学(东北门)","lon":"121.41246","lat":"31.24086","category":"678","category_name":"学校大门","address":"曹杨路805"},{"poiid":"B2094757D569A3FE4192","title":"陆家宅幼儿园","lon":"121.419471","lat":"31.243125","category":"57","category_name":"幼儿园","address":"普陀区中山北路2655弄21号(近武宁路)"},{"poiid":"B2094654D56BA2F44799","title":"中国电子科技集团公司第五十研究所","lon":"121.41698","lat":"31.24312","category":"191","category_name":"科研机构","address":"武宁路423"},{"poiid":"B2094655D36CA3FE459A","title":"桓进商务楼","lon":"121.41361","lat":"31.24008","category":"46","category_name":"楼宇","address":"曹杨路739"},{"poiid":"B2094654DB6BA0F5489C","title":"中关村公寓(西门)","lon":"121.41461","lat":"31.2401","category":"656","category_name":"大门","address":"曹杨路710弄1-33号"},{"poiid":"B2094655D265A5FB4798","title":"鼎升商务楼","lon":"121.41583","lat":"31.23988","category":"46","category_name":"楼宇","address":"中山北路2959号"},{"poiid":"B2094757D568A6FC4298","title":"明珠花艺设计普陀店","lon":"121.4146189","lat":"31.24009694","category":"120","category_name":"小商品市场","address":"曹杨路710弄31号101室"},{"poiid":"B2094753D16AA2FE4493","title":"乐语通信(曹杨路店)","lon":"121.414","lat":"31.24039","category":"138","category_name":"家电电子卖场","address":"普陀区曹杨路744号(近兰溪路)"},{"poiid":"B2094757D464A5F94999","title":"老天母卤味专家 兰溪店","lon":"121.413262054","lat":"31.239324793","category":"68","category_name":"快餐厅","address":"普陀区兰溪路54号(近白兰路)"},{"poiid":"B2094757D16AA0FB4599","title":"阳澄湖蟹王酒楼","lon":"121.415851586","lat":"31.2412086458","category":"500","category_name":"未知分类","address":"苏州昆山市巴城镇阳澄湖畔  "},{"poiid":"B2094655D264A6FB429B","title":"鼎升商务楼南楼","lon":"121.41556","lat":"31.23973","category":"46","category_name":"楼宇","address":"中山北路2981号"},{"poiid":"B2094654D56AAAFE4598","title":"快客No.6599","lon":"121.41177","lat":"31.24591","category":"117","category_name":"便民商店/便利店","address":"武宁路900弄1"},{"poiid":"B2094752D265A5F4479D","title":"cola-pie造型沙龙","lon":"121.413679","lat":"31.238763","category":"148","category_name":"美容美发店","address":"曹杨路505号尚诚国际大厦604"},{"poiid":"B2094654D56BA3F9469B","title":"溢香阁桂林米粉 中山北路店","lon":"121.414518054","lat":"31.238562793","category":"68","category_name":"快餐厅","address":"普陀区中山北路3019号(近曹杨路)"},{"poiid":"B2094750DA6DA3F9409D","title":"普陀城投-安居房产","lon":"121.412399","lat":"31.241737","category":"252","category_name":"楼宇机构","address":"上海市普陀区曹杨路868号"},{"poiid":"B2094655D265A1FA409A","title":"小俞家弄(北门)","lon":"121.41106","lat":"31.2454","category":"47","category_name":"住宅区","address":""},{"poiid":"B2094654D56BA2FC469A","title":"中国银行上海市兰溪路支行","lon":"121.414","lat":"31.2395","category":"150","category_name":"银行","address":"普陀区兰溪路7号(曹杨路兰溪路)"},{"poiid":"B2094757D069A4FB419A","title":"中国电信兰溪路营业厅","lon":"121.414139","lat":"31.239551","category":"500","category_name":"未知分类","address":"普陀区兰溪路3号(近曹杨路口)"},{"poiid":"B2094654D56BA2F5499D","title":"上海嘉定工业区绿色经济城(中山北路)","lon":"121.4158","lat":"31.23993","category":"45","category_name":"产业园区","address":"中山北路2959号鼎升商务楼206"},{"poiid":"B2094655D26DA2F94093","title":"联农大厦(东门)","lon":"121.41224","lat":"31.24114","category":"47","category_name":"住宅区","address":"曹杨路859弄5号"},{"poiid":"B2094757D76EA7FA489B","title":"麻辣煮意","lon":"121.415541","lat":"31.238662","category":"87","category_name":"特色／地方风味餐厅","address":"普陀区中山北路3018号弘基广场B186号商铺(近曹杨路)"},{"poiid":"B2094655D26DA7F8439E","title":"上海中宁汽车商厦","lon":"121.41764","lat":"31.24016","category":"46","category_name":"楼宇","address":"中山北路2900、2918"},{"poiid":"B2094757D16AA2FD459C","title":"浦江饭店","lon":"121.414264129","lat":"31.2399060104","category":"247","category_name":"餐饮美食","address":"上海黄浦路15号"},{"poiid":"B2094654D56AABF5409B","title":"绿叶小区","lon":"121.41916","lat":"31.242767","category":"47","category_name":"住宅区","address":"中山北路2701弄"},{"poiid":"B2094654D56BA2FB4098","title":"宝丰药品总汇曹杨路店","lon":"121.41062","lat":"31.2426","category":"162","category_name":"医院","address":"曹杨路926"},{"poiid":"B2094757D06BA0FD449A","title":"石泉路中宁路公交站","lon":"121.417218","lat":"31.247137","category":"38","category_name":"公交车站","address":"上海石泉路中宁路"},{"poiid":"B2094655D26EA3F5439E","title":"中桥大楼(北门)","lon":"121.41096","lat":"31.24186","category":"47","category_name":"住宅区","address":""},{"poiid":"B2094655D26EA3FC4898","title":"东元大楼(东北门)","lon":"121.41285","lat":"31.24056","category":"47","category_name":"住宅区","address":"曹杨路783弄2-3号"},{"poiid":"B2094750DB6EABFF439A","title":"江南名庐(一期)","lon":"121.416625","lat":"31.23912","category":"47","category_name":"住宅区","address":"上海市普陀区曹杨路619号"},{"poiid":"B2094757D06FA1FD479E","title":"布丁酒店(中山北路店)","lon":"121.4181","lat":"31.240674","category":"216","category_name":"经济型连锁酒店","address":"普陀区中山北路1218号"},{"poiid":"B2094654D56AAAFD479D","title":"中宁商务住宅楼","lon":"121.41479","lat":"31.24778","category":"46","category_name":"楼宇","address":"中宁路138弄1"},{"poiid":"B2094654D56BA2FC469E","title":"永琪美容美发(兰溪路)","lon":"121.41392","lat":"31.23944","category":"148","category_name":"美容美发店","address":"曹杨新村"},{"poiid":"B2094655D26CAAFF489E","title":"良友金伴便利连锁No.381","lon":"121.41969","lat":"31.24281","category":"117","category_name":"便民商店/便利店","address":""},{"poiid":"B2094757D065A4F84798","title":"曹阳八村","lon":"121.41157641","lat":"31.24538096","category":"252","category_name":"楼宇机构","address":"上海曹阳八村"},{"poiid":"B2094757D468A0FB4398","title":"厦门沃头蚝干粥店 武宁路店","lon":"121.4123538","lat":"31.2453791","category":"260","category_name":"其他","address":"普陀区武宁路959-963号"},{"poiid":"B2094757D06FA4FE489D","title":"买卖提红玫瑰烤涮龙虾馆(曹杨路店)","lon":"121.4158","lat":"31.23922","category":"257","category_name":"中餐厅","address":"上海普陀区中山北路2981号(近曹杨路)"},{"poiid":"B2094757D66CA5FC4699","title":"KING SPORT健身会所","lon":"121.41602258","lat":"31.240144625","category":"500","category_name":"未知分类","address":"上海市普陀区曹杨路710弄"},{"poiid":"B2094757D66DA4FA429E","title":"雍记","lon":"121.41561805","lat":"31.23942209","category":"500","category_name":"未知分类","address":"上海中山北路曹杨路弘基广场4楼"},{"poiid":"B2094654D56BA2FA439A","title":"中桥大楼","lon":"121.41067","lat":"31.24132","category":"47","category_name":"住宅区","address":"曹杨路903弄"},{"poiid":"B2094654D56BA2FA449A","title":"东元大楼","lon":"121.41241","lat":"31.240047","category":"47","category_name":"住宅区","address":"曹杨路783弄2-3号"},{"poiid":"B2094655D264A7F8419F","title":"上海星港二期(西北门)","lon":"121.41235","lat":"31.24384","category":"48","category_name":"楼宇大门","address":"曹杨新村"},{"poiid":"B2094655D26DA3F54092","title":"可的(曹杨路)","lon":"121.41013","lat":"31.24288","category":"117","category_name":"便民商店/便利店","address":"普陀区曹杨路1040弄1号中友大厦(曹杨路武宁路)"},{"poiid":"B209475CDA6CA7F9499C","title":"黄浦区外滩","lon":"121.419601","lat":"31.242237","category":"500","category_name":"未知分类","address":"上海市 黄浦区外滩"},{"poiid":"B2094654D56BA3F9439D","title":"中国联通兰溪路营业厅","lon":"121.41413","lat":"31.23955","category":"151","category_name":"电讯营业厅","address":"普陀区兰溪路3号(近曹杨路)"},{"poiid":"B2094655D265A0F94099","title":"全家","lon":"121.4184","lat":"31.24001","category":"117","category_name":"便民商店/便利店","address":"凯旋北路634临"},{"poiid":"B2094655D26DA3F9419E","title":"香港修身堂专业健康纤体机构","lon":"121.41876","lat":"31.24075","category":"148","category_name":"美容美发店","address":"普陀区中山北路2790号杰地大厦9楼(近武宁路)"},{"poiid":"B2094655D26FA5FF4498","title":"曹杨七村枫杨园","lon":"121.41046","lat":"31.24174","category":"47","category_name":"住宅区","address":"枫桥路22-36"},{"poiid":"B2094757D16EA4FB429B","title":"全家便利店","lon":"121.41377055","lat":"31.240160005","category":"500","category_name":"未知分类","address":"上海永乐曹杨店旁"},{"poiid":"B2094757D66EA1F44793","title":"农业银行分行票据中心","lon":"121.41367","lat":"31.240026","category":"500","category_name":"未知分类","address":"上海曹杨路697号4楼"},{"poiid":"B2094757D168AAF4499F","title":"电大(普陀分校)","lon":"121.41234858","lat":"31.240270627","category":"500","category_name":"未知分类","address":"上海市普陀区曹杨路"},{"poiid":"B2094750D26DA3FC4692","title":"上海普陀区","lon":"121.4128622","lat":"31.2409694","category":"500","category_name":"未知分类","address":"上海普陀区"},{"poiid":"B2094757D16BA3FA429A","title":"达善纳会所","lon":"121.415684586","lat":"31.2404446309","category":"500","category_name":"未知分类","address":"普陀区曹杨路710弄中关村公寓31号103室(近中山北路)"},{"poiid":"B2094757D169A2FA479C","title":"中山北路2701弄","lon":"121.418738586","lat":"31.2424826708","category":"500","category_name":"未知分类","address":"上海市普陀区中山北路2701弄"},{"poiid":"B2094654D565A3F9409F","title":"美德商务楼","lon":"121.41659","lat":"31.239","category":"46","category_name":"楼宇","address":"曹杨路630号"},{"poiid":"B2094655D26AA7F9479F","title":"昂立中学生教育中山北路店","lon":"121.41734","lat":"31.2397","category":"247","category_name":"餐饮美食","address":"普陀区中山北路2918号3号楼2楼(曹杨路与武宁路之间)"},{"poiid":"B2094655D26FA2FA429C","title":"白玉兰大酒家(兰溪路一店)","lon":"121.41367","lat":"31.23931","category":"257","category_name":"中餐厅","address":"普陀区兰溪路17号(曹杨路兰溪路)"},{"poiid":"B2094654D56BA2F4499C","title":"上海市旧机动车交易市场","lon":"121.41768","lat":"31.24116","category":"160","category_name":"二手车交易","address":"普陀区中山北路2907(武宁路曹杨路中间中山北路上)"},{"poiid":"B209475CD76EA4FB409F","title":"欢乐谷","lon":"121.412002","lat":"31.240497","category":"500","category_name":"未知分类","address":"上海市 欢乐谷"},{"poiid":"B2094655D26DA0F94893","title":"宏图三包曹杨路店","lon":"121.41118","lat":"31.24162","category":"138","category_name":"家电电子卖场","address":"曹杨路899号"},{"poiid":"B2094654DB6BA0F5499F","title":"上海星港(西门)","lon":"121.41162","lat":"31.24495","category":"48","category_name":"楼宇大门","address":"武宁路955弄1号"},{"poiid":"B2094654D56BA3F94592","title":"可的(中山北路)","lon":"121.41503","lat":"31.2388","category":"117","category_name":"便民商店/便利店","address":"中山北路3013"},{"poiid":"B2094753D269AAFC489D","title":"鲜芋仙曹杨店","lon":"121.414278","lat":"31.238875","category":"500","category_name":"未知分类","address":"上海市 曹杨路520号"},{"poiid":"B2094757D16FABF9439C","title":"曹杨路中桥大楼","lon":"121.410616","lat":"31.241244","category":"500","category_name":"未知分类","address":"上海曹杨路903弄"},{"poiid":"B2094757D065A1F8419E","title":"君悦苑","lon":"121.413758019","lat":"31.2397964857","category":"252","category_name":"楼宇机构","address":"上海兰溪路10号"},{"poiid":"B2094757D66DA6FF4693","title":"联通大华营业厅","lon":"121.418394586","lat":"31.245457729","category":"150","category_name":"银行","address":"上海大华二路155号"},{"poiid":"B2094757D56EA4FB489A","title":"奕婷(曹杨店)","lon":"121.413956","lat":"31.240436","category":"249","category_name":"购物服务","address":"曹杨路748号"},{"poiid":"B2094757D168A0F8479C","title":"联农大厦","lon":"121.41198","lat":"31.241074","category":"252","category_name":"楼宇机构","address":"上海曹杨路859弄5号"},{"poiid":"B2094757D069A2FA449C","title":"上水市北公司武宁营业站","lon":"121.417801","lat":"31.243431","category":"260","category_name":"其他","address":"上海武宁路500号"},{"poiid":"B2094757D065AAF9409D","title":"伊登流行广场","lon":"121.41389925","lat":"31.23941361","category":"141","category_name":"服装鞋帽皮具店","address":"上海曹杨"},{"poiid":"B2094751DB6CA7F8409D","title":"乐购","lon":"121.41952","lat":"31.241688","category":"249","category_name":"购物服务","address":"中山北路光新路"},{"poiid":"B2094757D06BA2FD469D","title":"武宁绿地石泉路出口","lon":"121.418779586","lat":"31.2411340444","category":"500","category_name":"未知分类","address":"上海武宁公园"},{"poiid":"B2094757D06FA6FF4699","title":"上海小叶两爬专营店","lon":"121.411427","lat":"31.241897","category":"129","category_name":"宠物用品店","address":"普陀区曹杨路900号水族区14号(近武宁路)"},{"poiid":"B2094757D16DA6FA429E","title":"申之春美容美发(曹杨路店)","lon":"121.41105","lat":"31.24169","category":"148","category_name":"美容美发店","address":"上海普陀区曹杨路2152号  "},{"poiid":"B2094654D56AAAFD459A","title":"上海职业介绍普陀分中心(武宁路)","lon":"121.41065","lat":"31.24596","category":"252","category_name":"楼宇机构","address":"武宁路1036"},{"poiid":"B2094655D26DA4FC4993","title":"武宁苑(南门)","lon":"121.41859","lat":"31.24372","category":"48","category_name":"楼宇大门","address":"武宁路492弄51支弄"},{"poiid":"B2094654D56BA3F9469A","title":"剪道(香港)烫染连锁机构曹杨店","lon":"121.41489","lat":"31.23864","category":"148","category_name":"美容美发店","address":"中山北路3017"},{"poiid":"B2094655D265A4FA469D","title":"雷允上武宁药店","lon":"121.41241","lat":"31.24579","category":"669","category_name":"药店","address":"普陀区武宁路888号(武宁路中宁路)"},{"poiid":"B2094751D365A7FA4692","title":"韩国","lon":"121.4184043","lat":"31.2398851","category":"500","category_name":"未知分类","address":"首尔"},{"poiid":"B2094757DA6EABFC499E","title":"普陀区社会保障中心","lon":"121.410581899998","lat":"31.2457802999999","category":"248","category_name":"生活娱乐","address":"普陀区武宁路1032"},{"poiid":"B2094757D065A6F54499","title":"上海市闸北区税务局","lon":"121.4186263","lat":"31.2409816","category":"500","category_name":"未知分类","address":"上海中山北路198号申航大厦"},{"poiid":"B2094757D164AAF94798","title":"小姿美甲工作室","lon":"121.41579658","lat":"31.239437611","category":"148","category_name":"美容美发店","address":"上海市普陀区曹杨路"},{"poiid":"B2094655D26EA1F5499E","title":"胜利大酒店","lon":"121.41371","lat":"31.24833","category":"214","category_name":"四星级宾馆","address":"中宁路176号"},{"poiid":"B2094757D66FA7FA4893","title":"南江风韵度假村","lon":"121.417798","lat":"31.240284","category":"500","category_name":"未知分类","address":"上海近郊崇明县向化镇南江村"},{"poiid":"B2094750DA6FAAF94399","title":"曹杨路派出所","lon":"121.410255","lat":"31.242246","category":"609","category_name":"警察局","address":null},{"poiid":"B2094757D16BA1FD499C","title":"汇尚商务楼","lon":"121.41029554","lat":"31.24294353","category":"252","category_name":"楼宇机构","address":"上海曹杨路930号"},{"poiid":"B2094654DB6BA0FB4892","title":"申通快递","lon":"121.41181","lat":"31.24604","category":"248","category_name":"生活娱乐","address":"武宁路900弄5号"},{"poiid":"B2094654DB6BA0F5499A","title":"枫桥苑(南门)","lon":"121.4109","lat":"31.24239","category":"48","category_name":"楼宇大门","address":"曹杨路922弄1-22号"},{"poiid":"B2094757D064A5FE4498","title":"普陀区就业促进中心","lon":"121.410701","lat":"31.245966","category":"500","category_name":"未知分类","address":"上海武宁路曹杨路"},{"poiid":"B2094654DB6BA0FB489E","title":"宁泉新苑(南门)","lon":"121.41735","lat":"31.2473","category":"48","category_name":"楼宇大门","address":"石泉路450弄"},{"poiid":"B2094757DA6EA5FB459E","title":"强生汽车修理厂(武宁路分厂)","lon":"121.411058","lat":"31.2458920000002","category":"263","category_name":"公司","address":"普陀区武宁路1000号"},{"poiid":"B2094757D068A6FF449F","title":"普陀区电视大学","lon":"121.41694558","lat":"31.23940161","category":"253","category_name":"校园生活","address":"上海曹杨路805号"},{"poiid":"B2094757D66DA5F8499D","title":"曹杨停车场","lon":"121.411360086","lat":"31.2406788355","category":"500","category_name":"未知分类","address":"上海普陀区曹杨路788号"},{"poiid":"B2094757D66EAAFF479A","title":"青田会馆(桂巷店)","lon":"121.413654586","lat":"31.2393576096","category":"500","category_name":"未知分类","address":"上海市普陀区桂巷路70号"},{"poiid":"B2094654DB6BA0F5419E","title":"上海共联通信信息发展有限公司(兰溪路)","lon":"121.41413","lat":"31.23954","category":"263","category_name":"公司","address":"兰溪路3"},{"poiid":"B2094654DB65A5FC4392","title":"北京中搜网络技术有限公司上海分公司","lon":"121.41734","lat":"31.2397","category":"263","category_name":"公司","address":"中山北路2918号2号楼2208室"},{"poiid":"B2094655D26BA0FA479C","title":"荣翔棋牌室","lon":"121.41928","lat":"31.24284","category":"175","category_name":"棋牌室","address":""},{"poiid":"B2094654D565A3F9439F","title":"上海轻音信息科技有限公司","lon":"121.41876","lat":"31.24075","category":"263","category_name":"公司","address":"中山北路2790号杰地大厦408"},{"poiid":"B2094757D164A3F84399","title":"周家嘴路保定路","lon":"121.417338106","lat":"31.2391369453","category":"500","category_name":"未知分类","address":"上海周家嘴路保定路"},{"poiid":"B2094654D56BA2F54792","title":"中关村公寓(东门)","lon":"121.41626","lat":"31.24023","category":"656","category_name":"大门","address":""},{"poiid":"B2094750D06CA3F4489A","title":"普陀区社保中心","lon":"121.411178","lat":"31.246221","category":"627","category_name":"一般地点标志","address":"武宁路1032号"},{"poiid":"B2094757DA69A1FE409E","title":"罗客Looker","lon":"121.4185085434","lat":"31.239899687892","category":"632","category_name":"教育出国类公司","address":"上海市岚皋路597号品尊国际中心801室"},{"poiid":"B2094757D168A5F9469E","title":"小北's  sweet home","lon":"121.41570558","lat":"31.238818599","category":"500","category_name":"未知分类","address":null},{"poiid":"B2094654D565A3F8499B","title":"诚诚茶坊","lon":"121.4177","lat":"31.2396","category":"260","category_name":"其他","address":"普陀区凯旋北路664号(近曹杨路地铁站)"},{"poiid":"B2094757D66CA2FD419A","title":"梦工厂汽车电影","lon":"121.415113686","lat":"31.2386400956","category":"500","category_name":"未知分类","address":"上海市军工路5169号"},{"poiid":"B2094655D26DA7FC469F","title":"绿叶小区(西门)","lon":"121.41876","lat":"31.24242","category":"656","category_name":"大门","address":"武宁路450"},{"poiid":"B2094654DB6BA6FD469E","title":"富锦棋牌","lon":"121.4184","lat":"31.24067","category":"175","category_name":"棋牌室","address":"中山北路2900号"},{"poiid":"B2094655D26DA1FC419F","title":"曹杨君悦苑(南一门)","lon":"121.41324","lat":"31.2394","category":"656","category_name":"大门","address":"兰溪路10弄"},{"poiid":"B2094654DB6BA0F5459A","title":"兰溪园(北门)","lon":"121.41352","lat":"31.23917","category":"656","category_name":"大门","address":"兰溪路21弄"},{"poiid":"B2094655D26CA7FC439E","title":"中宁家园(南一门)","lon":"121.41636","lat":"31.24842","category":"656","category_name":"大门","address":"中宁路88弄"}]