[{"poiid":"B2094757D06FA1F44893","title":"宝钢人才开发院","lon":"121.43393707","lat":"31.412914276","category":"263","category_name":"公司","address":"上海宝山区四元路"},{"poiid":"B2094757D068A3FC429E","title":"月浦公园","lon":"121.42663094","lat":"31.416554936","category":"196","category_name":"公园","address":"宝山区月浦镇龙镇路205号(北安路龙镇路)"},{"poiid":"B2094757D06FA2F8469F","title":"江杨北路地铁站","lon":"121.439261","lat":"31.407223","category":"36","category_name":"地铁站","address":"上海轨道交通 三号线 轨交江杨北路站 轻轨 3"},{"poiid":"B2094654D46AA3FF429B","title":"上海中冶医院","lon":"121.43325","lat":"31.41258","category":"162","category_name":"医院","address":"宝山区春蕾路456号"},{"poiid":"B2094757D068ABFE449F","title":"馨煌大酒店","lon":"121.42714","lat":"31.40976","category":"76","category_name":"上海菜","address":"宝山区安家路17号(安家路庆安路)"},{"poiid":"B2094757D169A2FF4292","title":"段氏龙虾","lon":"121.43410167","lat":"31.406575144","category":"247","category_name":"餐饮美食","address":"上海市宝山区绥化路100号"},{"poiid":"B2094654DB69A5FE479D","title":"肯德基 月浦路 KFC","lon":"121.42707152064","lat":"31.417603276693","category":"68","category_name":"快餐厅","address":"宝山区龙镇路200弄2号(近德都路)"},{"poiid":"B2094757D068A0F8459F","title":"红辣椒 月浦店","lon":"121.42518","lat":"31.41344","category":"71","category_name":"四川菜","address":"宝山区四元路299号(近德都路)"},{"poiid":"B2094757D16BA0FE469E","title":"宝钢五号门","lon":"121.434525779","lat":"31.4148508003","category":"500","category_name":"未知分类","address":"上海宝钢五号门"},{"poiid":"B2094654D469AAFF4493","title":"富浩河滨花园","lon":"121.433","lat":"31.4124","category":"47","category_name":"住宅区","address":"上海市宝山区德都路88弄"},{"poiid":"B2094654D46AA3FE409D","title":"庆安苑","lon":"121.43623","lat":"31.406603","category":"47","category_name":"住宅区","address":"绥化路50弄"},{"poiid":"B2094757D464A0FF4292","title":"金牡丹大酒店 月浦店","lon":"121.42624303983","lat":"31.41717175352","category":"76","category_name":"上海菜","address":"宝山区龙镇路83号(近北安路)"},{"poiid":"B2094757D06BA4FA4293","title":"鼎中鼎澳门豆捞 月浦店","lon":"121.424644054","lat":"31.413510793","category":"86","category_name":"火锅店","address":"宝山区月浦镇四元路吉买盛超市内(庆安路四元路)"},{"poiid":"B2094750DB68A6FF499F","title":"炫音KTV(月浦店)","lon":"121.426544","lat":"31.417119","category":"170","category_name":"KTV","address":"宝山区月浦镇龙镇路98-2号"},{"poiid":"B2094654DB69A7F8409A","title":"上海市宝山区月浦中学","lon":"121.4353","lat":"31.41132","category":"55","category_name":"中学","address":"宝山区四元路20弄78号(近春雷路)"},{"poiid":"B2094654D46AA3FD469D","title":"乐业五村","lon":"121.42473","lat":"31.410698","category":"47","category_name":"住宅区","address":"德都路218弄"},{"poiid":"B2094757D168ABFE4099","title":"混迹于宝钢大院内","lon":"121.43918367","lat":"31.418531369","category":"500","category_name":"未知分类","address":"上海市宝山区纬十二西路"},{"poiid":"B2094654D46AA3FF4699","title":"乐业一村(春雷路)","lon":"121.43397","lat":"31.40993","category":"47","category_name":"住宅区","address":""},{"poiid":"B2094757D06AA5FB429D","title":"月浦单宿","lon":"121.4306692","lat":"31.4169697","category":"500","category_name":"未知分类","address":"上海市宝山区龙镇路7号"},{"poiid":"B2094757D46EA3FB4999","title":"丹晟小吃店","lon":"121.433661","lat":"31.413047","category":"68","category_name":"快餐厅","address":"宝山区春雷路354弄1号(近四元路)"},{"poiid":"B2094757D569A2FD4699","title":"新月时代家园","lon":"121.433","lat":"31.4121","category":"47","category_name":"住宅区","address":"上海市宝山区德都路28弄1-23号"},{"poiid":"B2094757D569A2FF409F","title":"新月万升家园","lon":"121.434659","lat":"31.412331","category":"47","category_name":"住宅区","address":"上海市宝山区绥化路265弄"},{"poiid":"B2094654DB69A7F9449F","title":"月泉湾名邸","lon":"121.4251","lat":"31.412052","category":"47","category_name":"住宅区","address":"上海市宝山区安家路16号"},{"poiid":"B2094655D26BA1FA459D","title":"马泾桥","lon":"121.41912","lat":"31.41649","category":"38","category_name":"公交车站","address":"宝山区月浦镇马泾桥新村"},{"poiid":"B2094654D46AA3FE4593","title":"宝莲湖景园","lon":"121.42947","lat":"31.405355","category":"47","category_name":"住宅区","address":"上海市宝山区绥化路260弄"},{"poiid":"B2094654D469AAFF459A","title":"新月丽苑","lon":"121.43195","lat":"31.40723","category":"47","category_name":"住宅区","address":"上海市宝山区绥化路66弄"},{"poiid":"B2094655D36CA0F8489D","title":"江杨北路四元路","lon":"121.43576","lat":"31.41426","category":"38","category_name":"公交车站","address":""},{"poiid":"B2094757D06BA1FA4299","title":"月浦七村","lon":"121.432","lat":"31.4132","category":"252","category_name":"楼宇机构","address":"上海龙镇路德都路"},{"poiid":"B2094757D068A1FD4399","title":"家在月浦","lon":"121.433696","lat":"31.411756","category":"500","category_name":"未知分类","address":"上海家在月浦"},{"poiid":"B2094655D36CA5FD429D","title":"春雷路四元路","lon":"121.43341","lat":"31.41243","category":"38","category_name":"公交车站","address":""},{"poiid":"B2094655D26BAAFE439C","title":"嘉诚国际花园","lon":"121.42482","lat":"31.406294","category":"47","category_name":"住宅区","address":"上海市宝山区月浦镇德都路50弄"},{"poiid":"B2094654D46AA3FF4693","title":"良友金伴(春雷路)","lon":"121.43367","lat":"31.41239","category":"117","category_name":"便民商店/便利店","address":"宝山区春雷路459号(春雷路四元路)"},{"poiid":"B2094757D16FA2F8429D","title":"鑫斐大酒店(月浦店)","lon":"121.43425","lat":"31.4094","category":"76","category_name":"上海菜","address":"宝山区月浦春雷路29号"},{"poiid":"B2094654D469AAFF449F","title":"宝钢教育培训中心","lon":"121.43473","lat":"31.41367","category":"190","category_name":"培训机构","address":"泗元路19号"},{"poiid":"B2094654D468ABFC499A","title":"月浦镇社区卫生服务中心","lon":"121.43111","lat":"31.4165","category":"162","category_name":"医院","address":"龙镇路1号"},{"poiid":"B2094654D46AA3FF469F","title":"快客(春雷路)","lon":"121.43372","lat":"31.41192","category":"117","category_name":"便民商店/便利店","address":""},{"poiid":"B2094654D469AAFF429B","title":"月浦镇第十居民区","lon":"121.43013","lat":"31.41466","category":"47","category_name":"住宅区","address":""},{"poiid":"B2094757D569A2FE499F","title":"月浦六七九村","lon":"121.42309814","lat":"31.41687446","category":"47","category_name":"住宅区","address":"中国上海市宝山区"},{"poiid":"B2094757DB6CA3FE4492","title":"上海朗域国际酒店","lon":"121.426681","lat":"31.421014","category":"88","category_name":"海鲜酒楼","address":"宝山区月浦镇北安路118号"},{"poiid":"B2094654D468ABFF409D","title":"会宾楼餐厅","lon":"121.42972","lat":"31.41685","category":"81","category_name":"湖北菜","address":"宝山区龙镇路10号月浦公园北门侧面(北安路龙镇路)"},{"poiid":"B2094757D165A2F44592","title":"宝钢人才开发院计算机楼","lon":"121.43433567","lat":"31.413938283","category":"500","category_name":"未知分类","address":"上海市宝山区宝泉路"},{"poiid":"B2094757D16BA4FF489F","title":"中国农业银行月浦支行","lon":"121.431603679","lat":"31.4156253149","category":"150","category_name":"银行","address":"上海市宝山区龙镇路78号"},{"poiid":"B2094655D36CA5F54999","title":"宝泉路四元路","lon":"121.42981","lat":"31.41413","category":"38","category_name":"公交车站","address":""},{"poiid":"B2094654D46AA3FF429D","title":"春雷路三五四弄","lon":"121.43326","lat":"31.41136","category":"47","category_name":"住宅区","address":""},{"poiid":"B2094757D16FA6FB4399","title":"宝钢人才开发院食堂","lon":"121.434645679","lat":"31.4140482851","category":"500","category_name":"未知分类","address":"上海市宝山区四元路"},{"poiid":"B2094757D16DABF9429B","title":"月浦八村","lon":"121.42426","lat":"31.416502","category":"252","category_name":"楼宇机构","address":"德都路1弄"},{"poiid":"B2094757D065A0F4489A","title":"乐业三村","lon":"121.431414","lat":"31.414577","category":"252","category_name":"楼宇机构","address":"上海市宝山区德都路168弄"},{"poiid":"B2094654D468ABFC4392","title":"月浦地段医院","lon":"121.43204","lat":"31.41693","category":"162","category_name":"医院","address":"宝山区月浦镇龙镇路2号"},{"poiid":"B2094757D164A7F9489C","title":"太阳花幼稚园","lon":"121.43288253","lat":"31.411327393","category":"500","category_name":"未知分类","address":"上海宝山区四元路二十弄76号"},{"poiid":"B2094654DB69A6F9469F","title":"金悦生活广场","lon":"121.427829","lat":"31.406021","category":"46","category_name":"楼宇","address":"宝山区月浦镇绥化路288号"},{"poiid":"B2094757D06FA1F44893","title":"宝钢人才开发院","lon":"121.43393707","lat":"31.412914276","category":"263","category_name":"公司","address":"上海宝山区四元路"},{"poiid":"B2094757D068A3FC429E","title":"月浦公园","lon":"121.42663094","lat":"31.416554936","category":"196","category_name":"公园","address":"宝山区月浦镇龙镇路205号(北安路龙镇路)"},{"poiid":"B2094757D06FA2F8469F","title":"江杨北路地铁站","lon":"121.439261","lat":"31.407223","category":"36","category_name":"地铁站","address":"上海轨道交通 三号线 轨交江杨北路站 轻轨 3"},{"poiid":"B2094654D46AA3FF429B","title":"上海中冶医院","lon":"121.43325","lat":"31.41258","category":"162","category_name":"医院","address":"宝山区春蕾路456号"},{"poiid":"B2094757D068ABFE449F","title":"馨煌大酒店","lon":"121.42714","lat":"31.40976","category":"76","category_name":"上海菜","address":"宝山区安家路17号(安家路庆安路)"},{"poiid":"B2094757D169A2FF4292","title":"段氏龙虾","lon":"121.43410167","lat":"31.406575144","category":"247","category_name":"餐饮美食","address":"上海市宝山区绥化路100号"},{"poiid":"B2094654DB69A5FE479D","title":"肯德基 月浦路 KFC","lon":"121.42707152064","lat":"31.417603276693","category":"68","category_name":"快餐厅","address":"宝山区龙镇路200弄2号(近德都路)"},{"poiid":"B2094757D068A0F8459F","title":"红辣椒 月浦店","lon":"121.42518","lat":"31.41344","category":"71","category_name":"四川菜","address":"宝山区四元路299号(近德都路)"},{"poiid":"B2094757D16BA0FE469E","title":"宝钢五号门","lon":"121.434525779","lat":"31.4148508003","category":"500","category_name":"未知分类","address":"上海宝钢五号门"},{"poiid":"B2094654D469AAFF4493","title":"富浩河滨花园","lon":"121.433","lat":"31.4124","category":"47","category_name":"住宅区","address":"上海市宝山区德都路88弄"},{"poiid":"B2094654D46AA3FE409D","title":"庆安苑","lon":"121.43623","lat":"31.406603","category":"47","category_name":"住宅区","address":"绥化路50弄"},{"poiid":"B2094757D464A0FF4292","title":"金牡丹大酒店 月浦店","lon":"121.42624303983","lat":"31.41717175352","category":"76","category_name":"上海菜","address":"宝山区龙镇路83号(近北安路)"},{"poiid":"B2094757D06BA4FA4293","title":"鼎中鼎澳门豆捞 月浦店","lon":"121.424644054","lat":"31.413510793","category":"86","category_name":"火锅店","address":"宝山区月浦镇四元路吉买盛超市内(庆安路四元路)"},{"poiid":"B2094750DB68A6FF499F","title":"炫音KTV(月浦店)","lon":"121.426544","lat":"31.417119","category":"170","category_name":"KTV","address":"宝山区月浦镇龙镇路98-2号"},{"poiid":"B2094654DB69A7F8409A","title":"上海市宝山区月浦中学","lon":"121.4353","lat":"31.41132","category":"55","category_name":"中学","address":"宝山区四元路20弄78号(近春雷路)"},{"poiid":"B2094654D46AA3FD469D","title":"乐业五村","lon":"121.42473","lat":"31.410698","category":"47","category_name":"住宅区","address":"德都路218弄"},{"poiid":"B2094757D168ABFE4099","title":"混迹于宝钢大院内","lon":"121.43918367","lat":"31.418531369","category":"500","category_name":"未知分类","address":"上海市宝山区纬十二西路"},{"poiid":"B2094654D46AA3FF4699","title":"乐业一村(春雷路)","lon":"121.43397","lat":"31.40993","category":"47","category_name":"住宅区","address":""},{"poiid":"B2094757D06AA5FB429D","title":"月浦单宿","lon":"121.4306692","lat":"31.4169697","category":"500","category_name":"未知分类","address":"上海市宝山区龙镇路7号"},{"poiid":"B2094757D46EA3FB4999","title":"丹晟小吃店","lon":"121.433661","lat":"31.413047","category":"68","category_name":"快餐厅","address":"宝山区春雷路354弄1号(近四元路)"},{"poiid":"B2094757D569A2FD4699","title":"新月时代家园","lon":"121.433","lat":"31.4121","category":"47","category_name":"住宅区","address":"上海市宝山区德都路28弄1-23号"},{"poiid":"B2094757D569A2FF409F","title":"新月万升家园","lon":"121.434659","lat":"31.412331","category":"47","category_name":"住宅区","address":"上海市宝山区绥化路265弄"},{"poiid":"B2094654DB69A7F9449F","title":"月泉湾名邸","lon":"121.4251","lat":"31.412052","category":"47","category_name":"住宅区","address":"上海市宝山区安家路16号"},{"poiid":"B2094655D26BA1FA459D","title":"马泾桥","lon":"121.41912","lat":"31.41649","category":"38","category_name":"公交车站","address":"宝山区月浦镇马泾桥新村"},{"poiid":"B2094654D46AA3FE4593","title":"宝莲湖景园","lon":"121.42947","lat":"31.405355","category":"47","category_name":"住宅区","address":"上海市宝山区绥化路260弄"},{"poiid":"B2094654D469AAFF459A","title":"新月丽苑","lon":"121.43195","lat":"31.40723","category":"47","category_name":"住宅区","address":"上海市宝山区绥化路66弄"},{"poiid":"B2094655D36CA0F8489D","title":"江杨北路四元路","lon":"121.43576","lat":"31.41426","category":"38","category_name":"公交车站","address":""},{"poiid":"B2094757D06BA1FA4299","title":"月浦七村","lon":"121.432","lat":"31.4132","category":"252","category_name":"楼宇机构","address":"上海龙镇路德都路"},{"poiid":"B2094757D068A1FD4399","title":"家在月浦","lon":"121.433696","lat":"31.411756","category":"500","category_name":"未知分类","address":"上海家在月浦"},{"poiid":"B2094655D36CA5FD429D","title":"春雷路四元路","lon":"121.43341","lat":"31.41243","category":"38","category_name":"公交车站","address":""},{"poiid":"B2094655D26BAAFE439C","title":"嘉诚国际花园","lon":"121.42482","lat":"31.406294","category":"47","category_name":"住宅区","address":"上海市宝山区月浦镇德都路50弄"},{"poiid":"B2094654D46AA3FF4693","title":"良友金伴(春雷路)","lon":"121.43367","lat":"31.41239","category":"117","category_name":"便民商店/便利店","address":"宝山区春雷路459号(春雷路四元路)"},{"poiid":"B2094757D16FA2F8429D","title":"鑫斐大酒店(月浦店)","lon":"121.43425","lat":"31.4094","category":"76","category_name":"上海菜","address":"宝山区月浦春雷路29号"},{"poiid":"B2094654D469AAFF449F","title":"宝钢教育培训中心","lon":"121.43473","lat":"31.41367","category":"190","category_name":"培训机构","address":"泗元路19号"},{"poiid":"B2094654D468ABFC499A","title":"月浦镇社区卫生服务中心","lon":"121.43111","lat":"31.4165","category":"162","category_name":"医院","address":"龙镇路1号"},{"poiid":"B2094654D46AA3FF469F","title":"快客(春雷路)","lon":"121.43372","lat":"31.41192","category":"117","category_name":"便民商店/便利店","address":""},{"poiid":"B2094654D469AAFF429B","title":"月浦镇第十居民区","lon":"121.43013","lat":"31.41466","category":"47","category_name":"住宅区","address":""},{"poiid":"B2094757D569A2FE499F","title":"月浦六七九村","lon":"121.42309814","lat":"31.41687446","category":"47","category_name":"住宅区","address":"中国上海市宝山区"},{"poiid":"B2094757DB6CA3FE4492","title":"上海朗域国际酒店","lon":"121.426681","lat":"31.421014","category":"88","category_name":"海鲜酒楼","address":"宝山区月浦镇北安路118号"},{"poiid":"B2094654D468ABFF409D","title":"会宾楼餐厅","lon":"121.42972","lat":"31.41685","category":"81","category_name":"湖北菜","address":"宝山区龙镇路10号月浦公园北门侧面(北安路龙镇路)"},{"poiid":"B2094757D165A2F44592","title":"宝钢人才开发院计算机楼","lon":"121.43433567","lat":"31.413938283","category":"500","category_name":"未知分类","address":"上海市宝山区宝泉路"},{"poiid":"B2094757D16BA4FF489F","title":"中国农业银行月浦支行","lon":"121.431603679","lat":"31.4156253149","category":"150","category_name":"银行","address":"上海市宝山区龙镇路78号"},{"poiid":"B2094655D36CA5F54999","title":"宝泉路四元路","lon":"121.42981","lat":"31.41413","category":"38","category_name":"公交车站","address":""},{"poiid":"B2094654D46AA3FF429D","title":"春雷路三五四弄","lon":"121.43326","lat":"31.41136","category":"47","category_name":"住宅区","address":""},{"poiid":"B2094757D16FA6FB4399","title":"宝钢人才开发院食堂","lon":"121.434645679","lat":"31.4140482851","category":"500","category_name":"未知分类","address":"上海市宝山区四元路"},{"poiid":"B2094757D16DABF9429B","title":"月浦八村","lon":"121.42426","lat":"31.416502","category":"252","category_name":"楼宇机构","address":"德都路1弄"},{"poiid":"B2094757D065A0F4489A","title":"乐业三村","lon":"121.431414","lat":"31.414577","category":"252","category_name":"楼宇机构","address":"上海市宝山区德都路168弄"},{"poiid":"B2094654D468ABFC4392","title":"月浦地段医院","lon":"121.43204","lat":"31.41693","category":"162","category_name":"医院","address":"宝山区月浦镇龙镇路2号"},{"poiid":"B2094757D164A7F9489C","title":"太阳花幼稚园","lon":"121.43288253","lat":"31.411327393","category":"500","category_name":"未知分类","address":"上海宝山区四元路二十弄76号"},{"poiid":"B2094654DB69A6F9469F","title":"金悦生活广场","lon":"121.427829","lat":"31.406021","category":"46","category_name":"楼宇","address":"宝山区月浦镇绥化路288号"},{"poiid":"B2094757D06FA1F44893","title":"宝钢人才开发院","lon":"121.43393707","lat":"31.412914276","category":"263","category_name":"公司","address":"上海宝山区四元路"},{"poiid":"B2094757D068A3FC429E","title":"月浦公园","lon":"121.42663094","lat":"31.416554936","category":"196","category_name":"公园","address":"宝山区月浦镇龙镇路205号(北安路龙镇路)"},{"poiid":"B2094757D06FA2F8469F","title":"江杨北路地铁站","lon":"121.439261","lat":"31.407223","category":"36","category_name":"地铁站","address":"上海轨道交通 三号线 轨交江杨北路站 轻轨 3"},{"poiid":"B2094654D46AA3FF429B","title":"上海中冶医院","lon":"121.43325","lat":"31.41258","category":"162","category_name":"医院","address":"宝山区春蕾路456号"},{"poiid":"B2094757D068ABFE449F","title":"馨煌大酒店","lon":"121.42714","lat":"31.40976","category":"76","category_name":"上海菜","address":"宝山区安家路17号(安家路庆安路)"},{"poiid":"B2094757D169A2FF4292","title":"段氏龙虾","lon":"121.43410167","lat":"31.406575144","category":"247","category_name":"餐饮美食","address":"上海市宝山区绥化路100号"},{"poiid":"B2094654DB69A5FE479D","title":"肯德基 月浦路 KFC","lon":"121.42707152064","lat":"31.417603276693","category":"68","category_name":"快餐厅","address":"宝山区龙镇路200弄2号(近德都路)"},{"poiid":"B2094757D068A0F8459F","title":"红辣椒 月浦店","lon":"121.42518","lat":"31.41344","category":"71","category_name":"四川菜","address":"宝山区四元路299号(近德都路)"},{"poiid":"B2094757D16BA0FE469E","title":"宝钢五号门","lon":"121.434525779","lat":"31.4148508003","category":"500","category_name":"未知分类","address":"上海宝钢五号门"},{"poiid":"B2094654D469AAFF4493","title":"富浩河滨花园","lon":"121.433","lat":"31.4124","category":"47","category_name":"住宅区","address":"上海市宝山区德都路88弄"},{"poiid":"B2094654D46AA3FE409D","title":"庆安苑","lon":"121.43623","lat":"31.406603","category":"47","category_name":"住宅区","address":"绥化路50弄"},{"poiid":"B2094757D464A0FF4292","title":"金牡丹大酒店 月浦店","lon":"121.42624303983","lat":"31.41717175352","category":"76","category_name":"上海菜","address":"宝山区龙镇路83号(近北安路)"},{"poiid":"B2094757D06BA4FA4293","title":"鼎中鼎澳门豆捞 月浦店","lon":"121.424644054","lat":"31.413510793","category":"86","category_name":"火锅店","address":"宝山区月浦镇四元路吉买盛超市内(庆安路四元路)"},{"poiid":"B2094750DB68A6FF499F","title":"炫音KTV(月浦店)","lon":"121.426544","lat":"31.417119","category":"170","category_name":"KTV","address":"宝山区月浦镇龙镇路98-2号"},{"poiid":"B2094654DB69A7F8409A","title":"上海市宝山区月浦中学","lon":"121.4353","lat":"31.41132","category":"55","category_name":"中学","address":"宝山区四元路20弄78号(近春雷路)"},{"poiid":"B2094654D46AA3FD469D","title":"乐业五村","lon":"121.42473","lat":"31.410698","category":"47","category_name":"住宅区","address":"德都路218弄"},{"poiid":"B2094757D168ABFE4099","title":"混迹于宝钢大院内","lon":"121.43918367","lat":"31.418531369","category":"500","category_name":"未知分类","address":"上海市宝山区纬十二西路"},{"poiid":"B2094654D46AA3FF4699","title":"乐业一村(春雷路)","lon":"121.43397","lat":"31.40993","category":"47","category_name":"住宅区","address":""},{"poiid":"B2094757D06AA5FB429D","title":"月浦单宿","lon":"121.4306692","lat":"31.4169697","category":"500","category_name":"未知分类","address":"上海市宝山区龙镇路7号"},{"poiid":"B2094757D46EA3FB4999","title":"丹晟小吃店","lon":"121.433661","lat":"31.413047","category":"68","category_name":"快餐厅","address":"宝山区春雷路354弄1号(近四元路)"},{"poiid":"B2094757D569A2FD4699","title":"新月时代家园","lon":"121.433","lat":"31.4121","category":"47","category_name":"住宅区","address":"上海市宝山区德都路28弄1-23号"},{"poiid":"B2094757D569A2FF409F","title":"新月万升家园","lon":"121.434659","lat":"31.412331","category":"47","category_name":"住宅区","address":"上海市宝山区绥化路265弄"},{"poiid":"B2094654DB69A7F9449F","title":"月泉湾名邸","lon":"121.4251","lat":"31.412052","category":"47","category_name":"住宅区","address":"上海市宝山区安家路16号"},{"poiid":"B2094655D26BA1FA459D","title":"马泾桥","lon":"121.41912","lat":"31.41649","category":"38","category_name":"公交车站","address":"宝山区月浦镇马泾桥新村"},{"poiid":"B2094654D46AA3FE4593","title":"宝莲湖景园","lon":"121.42947","lat":"31.405355","category":"47","category_name":"住宅区","address":"上海市宝山区绥化路260弄"},{"poiid":"B2094654D469AAFF459A","title":"新月丽苑","lon":"121.43195","lat":"31.40723","category":"47","category_name":"住宅区","address":"上海市宝山区绥化路66弄"},{"poiid":"B2094655D36CA0F8489D","title":"江杨北路四元路","lon":"121.43576","lat":"31.41426","category":"38","category_name":"公交车站","address":""},{"poiid":"B2094757D06BA1FA4299","title":"月浦七村","lon":"121.432","lat":"31.4132","category":"252","category_name":"楼宇机构","address":"上海龙镇路德都路"},{"poiid":"B2094757D068A1FD4399","title":"家在月浦","lon":"121.433696","lat":"31.411756","category":"500","category_name":"未知分类","address":"上海家在月浦"},{"poiid":"B2094655D36CA5FD429D","title":"春雷路四元路","lon":"121.43341","lat":"31.41243","category":"38","category_name":"公交车站","address":""},{"poiid":"B2094655D26BAAFE439C","title":"嘉诚国际花园","lon":"121.42482","lat":"31.406294","category":"47","category_name":"住宅区","address":"上海市宝山区月浦镇德都路50弄"},{"poiid":"B2094654D46AA3FF4693","title":"良友金伴(春雷路)","lon":"121.43367","lat":"31.41239","category":"117","category_name":"便民商店/便利店","address":"宝山区春雷路459号(春雷路四元路)"},{"poiid":"B2094757D16FA2F8429D","title":"鑫斐大酒店(月浦店)","lon":"121.43425","lat":"31.4094","category":"76","category_name":"上海菜","address":"宝山区月浦春雷路29号"},{"poiid":"B2094654D469AAFF449F","title":"宝钢教育培训中心","lon":"121.43473","lat":"31.41367","category":"190","category_name":"培训机构","address":"泗元路19号"},{"poiid":"B2094654D468ABFC499A","title":"月浦镇社区卫生服务中心","lon":"121.43111","lat":"31.4165","category":"162","category_name":"医院","address":"龙镇路1号"},{"poiid":"B2094654D46AA3FF469F","title":"快客(春雷路)","lon":"121.43372","lat":"31.41192","category":"117","category_name":"便民商店/便利店","address":""},{"poiid":"B2094654D469AAFF429B","title":"月浦镇第十居民区","lon":"121.43013","lat":"31.41466","category":"47","category_name":"住宅区","address":""},{"poiid":"B2094757D569A2FE499F","title":"月浦六七九村","lon":"121.42309814","lat":"31.41687446","category":"47","category_name":"住宅区","address":"中国上海市宝山区"},{"poiid":"B2094757DB6CA3FE4492","title":"上海朗域国际酒店","lon":"121.426681","lat":"31.421014","category":"88","category_name":"海鲜酒楼","address":"宝山区月浦镇北安路118号"},{"poiid":"B2094654D468ABFF409D","title":"会宾楼餐厅","lon":"121.42972","lat":"31.41685","category":"81","category_name":"湖北菜","address":"宝山区龙镇路10号月浦公园北门侧面(北安路龙镇路)"},{"poiid":"B2094757D165A2F44592","title":"宝钢人才开发院计算机楼","lon":"121.43433567","lat":"31.413938283","category":"500","category_name":"未知分类","address":"上海市宝山区宝泉路"},{"poiid":"B2094757D16BA4FF489F","title":"中国农业银行月浦支行","lon":"121.431603679","lat":"31.4156253149","category":"150","category_name":"银行","address":"上海市宝山区龙镇路78号"},{"poiid":"B2094655D36CA5F54999","title":"宝泉路四元路","lon":"121.42981","lat":"31.41413","category":"38","category_name":"公交车站","address":""},{"poiid":"B2094654D46AA3FF429D","title":"春雷路三五四弄","lon":"121.43326","lat":"31.41136","category":"47","category_name":"住宅区","address":""},{"poiid":"B2094757D16FA6FB4399","title":"宝钢人才开发院食堂","lon":"121.434645679","lat":"31.4140482851","category":"500","category_name":"未知分类","address":"上海市宝山区四元路"},{"poiid":"B2094757D16DABF9429B","title":"月浦八村","lon":"121.42426","lat":"31.416502","category":"252","category_name":"楼宇机构","address":"德都路1弄"},{"poiid":"B2094757D065A0F4489A","title":"乐业三村","lon":"121.431414","lat":"31.414577","category":"252","category_name":"楼宇机构","address":"上海市宝山区德都路168弄"},{"poiid":"B2094654D468ABFC4392","title":"月浦地段医院","lon":"121.43204","lat":"31.41693","category":"162","category_name":"医院","address":"宝山区月浦镇龙镇路2号"},{"poiid":"B2094757D164A7F9489C","title":"太阳花幼稚园","lon":"121.43288253","lat":"31.411327393","category":"500","category_name":"未知分类","address":"上海宝山区四元路二十弄76号"},{"poiid":"B2094654DB69A6F9469F","title":"金悦生活广场","lon":"121.427829","lat":"31.406021","category":"46","category_name":"楼宇","address":"宝山区月浦镇绥化路288号"},{"poiid":"B2094757D06FA1F44893","title":"宝钢人才开发院","lon":"121.43393707","lat":"31.412914276","category":"263","category_name":"公司","address":"上海宝山区四元路"},{"poiid":"B2094757D068A3FC429E","title":"月浦公园","lon":"121.42663094","lat":"31.416554936","category":"196","category_name":"公园","address":"宝山区月浦镇龙镇路205号(北安路龙镇路)"},{"poiid":"B2094757D06FA2F8469F","title":"江杨北路地铁站","lon":"121.439261","lat":"31.407223","category":"36","category_name":"地铁站","address":"上海轨道交通 三号线 轨交江杨北路站 轻轨 3"},{"poiid":"B2094654D46AA3FF429B","title":"上海中冶医院","lon":"121.43325","lat":"31.41258","category":"162","category_name":"医院","address":"宝山区春蕾路456号"},{"poiid":"B2094757D068ABFE449F","title":"馨煌大酒店","lon":"121.42714","lat":"31.40976","category":"76","category_name":"上海菜","address":"宝山区安家路17号(安家路庆安路)"},{"poiid":"B2094757D169A2FF4292","title":"段氏龙虾","lon":"121.43410167","lat":"31.406575144","category":"247","category_name":"餐饮美食","address":"上海市宝山区绥化路100号"},{"poiid":"B2094654DB69A5FE479D","title":"肯德基 月浦路 KFC","lon":"121.42707152064","lat":"31.417603276693","category":"68","category_name":"快餐厅","address":"宝山区龙镇路200弄2号(近德都路)"},{"poiid":"B2094757D068A0F8459F","title":"红辣椒 月浦店","lon":"121.42518","lat":"31.41344","category":"71","category_name":"四川菜","address":"宝山区四元路299号(近德都路)"},{"poiid":"B2094757D16BA0FE469E","title":"宝钢五号门","lon":"121.434525779","lat":"31.4148508003","category":"500","category_name":"未知分类","address":"上海宝钢五号门"},{"poiid":"B2094654D469AAFF4493","title":"富浩河滨花园","lon":"121.433","lat":"31.4124","category":"47","category_name":"住宅区","address":"上海市宝山区德都路88弄"},{"poiid":"B2094654D46AA3FE409D","title":"庆安苑","lon":"121.43623","lat":"31.406603","category":"47","category_name":"住宅区","address":"绥化路50弄"},{"poiid":"B2094757D464A0FF4292","title":"金牡丹大酒店 月浦店","lon":"121.42624303983","lat":"31.41717175352","category":"76","category_name":"上海菜","address":"宝山区龙镇路83号(近北安路)"},{"poiid":"B2094757D06BA4FA4293","title":"鼎中鼎澳门豆捞 月浦店","lon":"121.424644054","lat":"31.413510793","category":"86","category_name":"火锅店","address":"宝山区月浦镇四元路吉买盛超市内(庆安路四元路)"},{"poiid":"B2094750DB68A6FF499F","title":"炫音KTV(月浦店)","lon":"121.426544","lat":"31.417119","category":"170","category_name":"KTV","address":"宝山区月浦镇龙镇路98-2号"},{"poiid":"B2094654DB69A7F8409A","title":"上海市宝山区月浦中学","lon":"121.4353","lat":"31.41132","category":"55","category_name":"中学","address":"宝山区四元路20弄78号(近春雷路)"},{"poiid":"B2094654D46AA3FD469D","title":"乐业五村","lon":"121.42473","lat":"31.410698","category":"47","category_name":"住宅区","address":"德都路218弄"},{"poiid":"B2094757D168ABFE4099","title":"混迹于宝钢大院内","lon":"121.43918367","lat":"31.418531369","category":"500","category_name":"未知分类","address":"上海市宝山区纬十二西路"},{"poiid":"B2094654D46AA3FF4699","title":"乐业一村(春雷路)","lon":"121.43397","lat":"31.40993","category":"47","category_name":"住宅区","address":""},{"poiid":"B2094757D06AA5FB429D","title":"月浦单宿","lon":"121.4306692","lat":"31.4169697","category":"500","category_name":"未知分类","address":"上海市宝山区龙镇路7号"},{"poiid":"B2094757D46EA3FB4999","title":"丹晟小吃店","lon":"121.433661","lat":"31.413047","category":"68","category_name":"快餐厅","address":"宝山区春雷路354弄1号(近四元路)"},{"poiid":"B2094757D569A2FD4699","title":"新月时代家园","lon":"121.433","lat":"31.4121","category":"47","category_name":"住宅区","address":"上海市宝山区德都路28弄1-23号"},{"poiid":"B2094757D569A2FF409F","title":"新月万升家园","lon":"121.434659","lat":"31.412331","category":"47","category_name":"住宅区","address":"上海市宝山区绥化路265弄"},{"poiid":"B2094654DB69A7F9449F","title":"月泉湾名邸","lon":"121.4251","lat":"31.412052","category":"47","category_name":"住宅区","address":"上海市宝山区安家路16号"},{"poiid":"B2094655D26BA1FA459D","title":"马泾桥","lon":"121.41912","lat":"31.41649","category":"38","category_name":"公交车站","address":"宝山区月浦镇马泾桥新村"},{"poiid":"B2094654D46AA3FE4593","title":"宝莲湖景园","lon":"121.42947","lat":"31.405355","category":"47","category_name":"住宅区","address":"上海市宝山区绥化路260弄"},{"poiid":"B2094654D469AAFF459A","title":"新月丽苑","lon":"121.43195","lat":"31.40723","category":"47","category_name":"住宅区","address":"上海市宝山区绥化路66弄"},{"poiid":"B2094655D36CA0F8489D","title":"江杨北路四元路","lon":"121.43576","lat":"31.41426","category":"38","category_name":"公交车站","address":""},{"poiid":"B2094757D06BA1FA4299","title":"月浦七村","lon":"121.432","lat":"31.4132","category":"252","category_name":"楼宇机构","address":"上海龙镇路德都路"},{"poiid":"B2094757D068A1FD4399","title":"家在月浦","lon":"121.433696","lat":"31.411756","category":"500","category_name":"未知分类","address":"上海家在月浦"},{"poiid":"B2094655D36CA5FD429D","title":"春雷路四元路","lon":"121.43341","lat":"31.41243","category":"38","category_name":"公交车站","address":""},{"poiid":"B2094655D26BAAFE439C","title":"嘉诚国际花园","lon":"121.42482","lat":"31.406294","category":"47","category_name":"住宅区","address":"上海市宝山区月浦镇德都路50弄"},{"poiid":"B2094654D46AA3FF4693","title":"良友金伴(春雷路)","lon":"121.43367","lat":"31.41239","category":"117","category_name":"便民商店/便利店","address":"宝山区春雷路459号(春雷路四元路)"},{"poiid":"B2094757D16FA2F8429D","title":"鑫斐大酒店(月浦店)","lon":"121.43425","lat":"31.4094","category":"76","category_name":"上海菜","address":"宝山区月浦春雷路29号"},{"poiid":"B2094654D469AAFF449F","title":"宝钢教育培训中心","lon":"121.43473","lat":"31.41367","category":"190","category_name":"培训机构","address":"泗元路19号"},{"poiid":"B2094654D468ABFC499A","title":"月浦镇社区卫生服务中心","lon":"121.43111","lat":"31.4165","category":"162","category_name":"医院","address":"龙镇路1号"},{"poiid":"B2094654D46AA3FF469F","title":"快客(春雷路)","lon":"121.43372","lat":"31.41192","category":"117","category_name":"便民商店/便利店","address":""},{"poiid":"B2094654D469AAFF429B","title":"月浦镇第十居民区","lon":"121.43013","lat":"31.41466","category":"47","category_name":"住宅区","address":""},{"poiid":"B2094757D569A2FE499F","title":"月浦六七九村","lon":"121.42309814","lat":"31.41687446","category":"47","category_name":"住宅区","address":"中国上海市宝山区"},{"poiid":"B2094757DB6CA3FE4492","title":"上海朗域国际酒店","lon":"121.426681","lat":"31.421014","category":"88","category_name":"海鲜酒楼","address":"宝山区月浦镇北安路118号"},{"poiid":"B2094654D468ABFF409D","title":"会宾楼餐厅","lon":"121.42972","lat":"31.41685","category":"81","category_name":"湖北菜","address":"宝山区龙镇路10号月浦公园北门侧面(北安路龙镇路)"},{"poiid":"B2094757D165A2F44592","title":"宝钢人才开发院计算机楼","lon":"121.43433567","lat":"31.413938283","category":"500","category_name":"未知分类","address":"上海市宝山区宝泉路"},{"poiid":"B2094757D16BA4FF489F","title":"中国农业银行月浦支行","lon":"121.431603679","lat":"31.4156253149","category":"150","category_name":"银行","address":"上海市宝山区龙镇路78号"},{"poiid":"B2094655D36CA5F54999","title":"宝泉路四元路","lon":"121.42981","lat":"31.41413","category":"38","category_name":"公交车站","address":""},{"poiid":"B2094654D46AA3FF429D","title":"春雷路三五四弄","lon":"121.43326","lat":"31.41136","category":"47","category_name":"住宅区","address":""},{"poiid":"B2094757D16FA6FB4399","title":"宝钢人才开发院食堂","lon":"121.434645679","lat":"31.4140482851","category":"500","category_name":"未知分类","address":"上海市宝山区四元路"},{"poiid":"B2094757D16DABF9429B","title":"月浦八村","lon":"121.42426","lat":"31.416502","category":"252","category_name":"楼宇机构","address":"德都路1弄"},{"poiid":"B2094757D065A0F4489A","title":"乐业三村","lon":"121.431414","lat":"31.414577","category":"252","category_name":"楼宇机构","address":"上海市宝山区德都路168弄"},{"poiid":"B2094654D468ABFC4392","title":"月浦地段医院","lon":"121.43204","lat":"31.41693","category":"162","category_name":"医院","address":"宝山区月浦镇龙镇路2号"},{"poiid":"B2094757D164A7F9489C","title":"太阳花幼稚园","lon":"121.43288253","lat":"31.411327393","category":"500","category_name":"未知分类","address":"上海宝山区四元路二十弄76号"},{"poiid":"B2094654DB69A6F9469F","title":"金悦生活广场","lon":"121.427829","lat":"31.406021","category":"46","category_name":"楼宇","address":"宝山区月浦镇绥化路288号"}]