[{"poiid":"B2094654DB69A4F8449A","title":"星巴克(甜爱路店)","lon":"121.482833","lat":"31.267952","category":"65","category_name":"咖啡厅","address":"虹口区四川北路2258号(近鲁迅公园)"},{"poiid":"B2094655D26FA4FE4198","title":"鲁迅公园(南一门)","lon":"121.48264","lat":"31.26851","category":"656","category_name":"大门","address":"四川北路2288"},{"poiid":"B2094757D06FA3F8429F","title":"村夫烤鱼(四川北路店)","lon":"121.48118","lat":"31.26857","category":"68","category_name":"快餐厅","address":"虹口区四川北路2289号(鲁迅公园对面)"},{"poiid":"B2094757D068A3F8469F","title":"空间188创意产业园","lon":"121.480954024","lat":"31.267077267","category":"46","category_name":"楼宇","address":"上海虹口区东江湾路188号(近天通庵路)"},{"poiid":"B2094757D06FA3F8469E","title":"必胜客(东江湾店)","lon":"121.479673","lat":"31.270087","category":"94","category_name":"西餐厅","address":"虹口区东江湾路444号虹口足球场内(近四川路)"},{"poiid":"B2094757D069A7FF4593","title":"虹口足球场外场","lon":"121.4805031","lat":"31.268686386","category":"220","category_name":"运动场所","address":"上海虹口区东江湾路444号"},{"poiid":"B2094757D06FA0FE4792","title":"来天华(虹足店)","lon":"121.48044","lat":"31.2702","category":"75","category_name":"浙江菜","address":"虹口区东江湾路440号虹口足球场1号门(东江湾路四川北路)"},{"poiid":"B2094757D06FABF94698","title":"派克餐厅","lon":"121.48135990389","lat":"31.26860917101","category":"76","category_name":"上海菜","address":"虹口区四川北路2339弄内(近西江湾路)"},{"poiid":"B2094757D06FA6FC489F","title":"鲁迅纪念馆","lon":"121.4836595","lat":"31.269515801","category":"179","category_name":"音乐厅","address":"虹口区甜爱路200号(近四川北路)"},{"poiid":"B2094757D06FA2FF4892","title":"绿野仙踪","lon":"121.482361983","lat":"31.2685864405","category":"260","category_name":"其他","address":"虹口区四川北路2298号(近鲁迅公园)"},{"poiid":"B2094757D068A5FB4292","title":"甜爱支路","lon":"121.483617","lat":"31.268032","category":"260","category_name":"其他","address":"上海甜爱支路"},{"poiid":"B2094757D168ABFC459B","title":"多伦路","lon":"121.482221","lat":"31.266354","category":"500","category_name":"未知分类","address":"上海多伦路"},{"poiid":"B2094757D465A1FF4193","title":"买卖提红玫瑰烤涮龙虾馆 虹口店","lon":"121.48254808963","lat":"31.266878970068","category":"68","category_name":"快餐厅","address":"虹口区四川北路2277号(近鲁迅公园)"},{"poiid":"B2094757D169A1FF479B","title":"鲁迅公园湖中央","lon":"121.4821434","lat":"31.268464681","category":"196","category_name":"公园","address":"上海鲁迅公园"},{"poiid":"B2094655D26AA0F4469C","title":"虹口足球场壁球馆","lon":"121.48194","lat":"31.26912","category":"247","category_name":"餐饮美食","address":"虹口区东江湾路444号虹口足球场21号看台5楼(近四川路)"},{"poiid":"B2094757D068A2F5459E","title":"豪享来上海东江湾店","lon":"121.4814","lat":"31.2663","category":"247","category_name":"餐饮美食","address":"上海市虹口区东江湾路10号"},{"poiid":"B2094753DA69A7F84299","title":"表叔茶餐厅（虹口龙之梦店）","lon":"121.482292","lat":"31.268997","category":"500","category_name":"未知分类","address":"上海市 上海市虹口区西江湾路388号凯德龙之梦B1层19号铺"},{"poiid":"B2094655D26CA0F9449A","title":"青岛啤酒吧","lon":"121.47999","lat":"31.2693","category":"260","category_name":"其他","address":"虹口区四川北路2365号(近东江湾路)"},{"poiid":"B2094454D26EA1F5419E","title":"虹口龙之梦鱼非鱼","lon":"121.480056","lat":"31.267036","category":"247","category_name":"餐饮美食","address":"上海市 江湾路"},{"poiid":"B2094752D66CA1FB449F","title":"Costa鲁迅公园店","lon":"121.482819","lat":"31.269187","category":"247","category_name":"餐饮美食","address":"上海市虹口区四川北路鲁迅公园边门"},{"poiid":"B2094654DB6AA6FE459F","title":"麦当劳(虹口公园店)","lon":"121.48333","lat":"31.26839","category":"68","category_name":"快餐厅","address":"虹口区甜爱支路22-50号"},{"poiid":"B209475CD56CA2FD469D","title":"四川香天下火锅（虹口店）","lon":"121.482283","lat":"31.268065","category":"247","category_name":"餐饮美食","address":"四川北路2211号天鹅宾馆3楼"},{"poiid":"B2094655D26AA0FF489D","title":"恒毅室内攀岩馆","lon":"121.48194","lat":"31.26912","category":"247","category_name":"餐饮美食","address":"虹口区东江湾路444号虹口足球场21看台上楼(近四川路)"},{"poiid":"B2094757D06FA3FE4193","title":"696LIVE","lon":"121.48015058","lat":"31.268119063","category":"260","category_name":"其他","address":"虹口区东江湾路188号A栋115(近虹口足球场)"},{"poiid":"B2094757D06FA5F5469A","title":"中村家","lon":"121.48013","lat":"31.2679","category":"95","category_name":"日本料理","address":"虹口区东江湾路198号(近虹口足球场)"},{"poiid":"B2094757D068A4FC429D","title":"天鹅宾馆","lon":"121.481954491","lat":"31.2682752047","category":"215","category_name":"三星级宾馆","address":"虹口区四川北路2211号(近鲁迅公园)"},{"poiid":"B2094757D56DAAFD459A","title":"品宴轩大酒店","lon":"121.48306","lat":"31.26831","category":"76","category_name":"上海菜","address":"虹口区甜爱支路50号(近鲁迅公园)"},{"poiid":"B2094757D06FA7FE489E","title":"九牛一品(四川北路店)","lon":"121.482284228","lat":"31.2684988232","category":"68","category_name":"快餐厅","address":"虹口区四川北路2318号(近鲁迅公园)"},{"poiid":"B2094655D26CA1F4419F","title":"虹口体育场(四号门)","lon":"121.48019","lat":"31.26957","category":"224","category_name":"综合体育馆","address":""},{"poiid":"B2094757D068A7FB4292","title":"呷哺呷哺天兴百货餐厅","lon":"121.4810505","lat":"31.266224434","category":"86","category_name":"火锅店","address":"虹口区四川北路2118号2楼C座"},{"poiid":"B2094757D168A0FB429E","title":"红玫瑰","lon":"121.4805621","lat":"31.267852368","category":"500","category_name":"未知分类","address":"上海市虹口区中山北一路"},{"poiid":"B2094757D16BAAFB499D","title":"汉庭海友客栈","lon":"121.4793721","lat":"31.268376379","category":"216","category_name":"经济型连锁酒店","address":"虹口区东江湾路199-221号(近虹口足球场)"},{"poiid":"B2094757D068A6FB489A","title":"肯德基 KFC (同心店)","lon":"121.479679","lat":"31.267153","category":"68","category_name":"快餐厅","address":"虹口区同心路1号华联吉买盛内(近东江湾路)"},{"poiid":"B2094757D069A6F5469D","title":"康美盲人保健按摩院","lon":"121.47955","lat":"31.26909","category":"149","category_name":"洗浴推拿场所","address":"虹口区东江湾路259号(花园路口)"},{"poiid":"B2094757D069A1F9429D","title":"上海411医院外科大楼14楼","lon":"121.4815991","lat":"31.26651534","category":"162","category_name":"医院","address":"上海市虹口区东江湾路15号"},{"poiid":"B2094654DB6AAAF9449D","title":"虹口足球场(南门)","lon":"121.4802","lat":"31.26956","category":"230","category_name":"足球场","address":"东江湾路444号"},{"poiid":"B2094753D064A6F5429D","title":"麦当劳(鲁迅公园店)","lon":"121.48222","lat":"31.26833","category":"68","category_name":"快餐厅","address":"虹口区四川北路2398号(近鲁迅公园)"},{"poiid":"B2094654DB6AAAF94593","title":"城市之家酒店(上海鲁迅公园店)","lon":"121.48181","lat":"31.26627","category":"250","category_name":"公园户外","address":"虹口区四川北路2131号(近东江湾路)"},{"poiid":"B2094655D26EA5F84292","title":"如家快捷酒店(上海鲁迅公园店)","lon":"121.48258","lat":"31.26624","category":"216","category_name":"经济型连锁酒店","address":"上海市虹口区四川北路2146号(近鲁迅公园)"},{"poiid":"B2094757D069A6F94893","title":"机场四线鲁迅公园终点站","lon":"121.4818278","lat":"31.268149554","category":"38","category_name":"公交车站","address":"上海四川北路(近黄渡路)"},{"poiid":"B2094655D26AA7FB449D","title":"虹口少体校羽毛球馆","lon":"121.48194","lat":"31.26912","category":"247","category_name":"餐饮美食","address":"虹口区东江湾路444号虹口足球场8号看台对面6楼(近四川路)"},{"poiid":"B2094757D06FA7F94992","title":"彩虹献血屋","lon":"121.482173995","lat":"31.2686655496","category":"162","category_name":"医院","address":"虹口区四川北路2388号(近西江湾路)"},{"poiid":"B2094757D06FA5FF4399","title":"快乐柠檬(虹口店)","lon":"121.48266577","lat":"31.268470385","category":"113","category_name":"冷饮店","address":"虹口区四川北路2298号(近鲁迅公园)"},{"poiid":"B2094757D06FABF9409D","title":"竹家庄避风塘(四川北路店)","lon":"121.4809763","lat":"31.266190033","category":"111","category_name":"休闲餐饮场所","address":"虹口区四川北路1885号(近多伦路)"},{"poiid":"B2094757D66CA5FB479B","title":"虹兆糕团店(甜爱店)","lon":"121.48081","lat":"31.26887","category":"257","category_name":"中餐厅","address":"上海虹口区四川北路(近139路终点站)  "},{"poiid":"B209475CD669A5FD4298","title":"四川香天下火鍋","lon":"121.481636","lat":"31.268674","category":"247","category_name":"餐饮美食","address":"上海市 四川北路2211号天鹅宾馆3楼(近虹口体育场站)"},{"poiid":"B2094757D66EAAFE499C","title":"虹口公园游乐场","lon":"121.481001103","lat":"31.2694094011","category":"500","category_name":"未知分类","address":"上海市虹口区内环高架路"},{"poiid":"B2094753D46CA4FC449B","title":"金逸国际影城","lon":"121.482185","lat":"31.267364","category":"178","category_name":"电影院","address":"上海市 虹口龙之梦"},{"poiid":"B2094757D66AA0FE419D","title":"InJoy Space","lon":"121.479828054","lat":"31.267933793","category":"111","category_name":"休闲餐饮场所","address":"东江湾路188号G1栋近四川北路"},{"poiid":"B2094454D365A3FB499A","title":"泰谷泰国休闲餐厅","lon":"121.482215","lat":"31.268922","category":"247","category_name":"餐饮美食","address":"上海市 虹口龙之梦B1"},{"poiid":"B2094654DB69A4F8449A","title":"星巴克(甜爱路店)","lon":"121.482833","lat":"31.267952","category":"65","category_name":"咖啡厅","address":"虹口区四川北路2258号(近鲁迅公园)"},{"poiid":"B2094655D26FA4FE4198","title":"鲁迅公园(南一门)","lon":"121.48264","lat":"31.26851","category":"656","category_name":"大门","address":"四川北路2288"},{"poiid":"B2094757D06FA3F8429F","title":"村夫烤鱼(四川北路店)","lon":"121.48118","lat":"31.26857","category":"68","category_name":"快餐厅","address":"虹口区四川北路2289号(鲁迅公园对面)"},{"poiid":"B2094757D068A3F8469F","title":"空间188创意产业园","lon":"121.480954024","lat":"31.267077267","category":"46","category_name":"楼宇","address":"上海虹口区东江湾路188号(近天通庵路)"},{"poiid":"B2094757D06FA3F8469E","title":"必胜客(东江湾店)","lon":"121.479673","lat":"31.270087","category":"94","category_name":"西餐厅","address":"虹口区东江湾路444号虹口足球场内(近四川路)"},{"poiid":"B2094757D069A7FF4593","title":"虹口足球场外场","lon":"121.4805031","lat":"31.268686386","category":"220","category_name":"运动场所","address":"上海虹口区东江湾路444号"},{"poiid":"B2094757D06FA0FE4792","title":"来天华(虹足店)","lon":"121.48044","lat":"31.2702","category":"75","category_name":"浙江菜","address":"虹口区东江湾路440号虹口足球场1号门(东江湾路四川北路)"},{"poiid":"B2094757D06FABF94698","title":"派克餐厅","lon":"121.48135990389","lat":"31.26860917101","category":"76","category_name":"上海菜","address":"虹口区四川北路2339弄内(近西江湾路)"},{"poiid":"B2094757D06FA6FC489F","title":"鲁迅纪念馆","lon":"121.4836595","lat":"31.269515801","category":"179","category_name":"音乐厅","address":"虹口区甜爱路200号(近四川北路)"},{"poiid":"B2094757D06FA2FF4892","title":"绿野仙踪","lon":"121.482361983","lat":"31.2685864405","category":"260","category_name":"其他","address":"虹口区四川北路2298号(近鲁迅公园)"},{"poiid":"B2094757D068A5FB4292","title":"甜爱支路","lon":"121.483617","lat":"31.268032","category":"260","category_name":"其他","address":"上海甜爱支路"},{"poiid":"B2094757D168ABFC459B","title":"多伦路","lon":"121.482221","lat":"31.266354","category":"500","category_name":"未知分类","address":"上海多伦路"},{"poiid":"B2094757D465A1FF4193","title":"买卖提红玫瑰烤涮龙虾馆 虹口店","lon":"121.48254808963","lat":"31.266878970068","category":"68","category_name":"快餐厅","address":"虹口区四川北路2277号(近鲁迅公园)"},{"poiid":"B2094757D169A1FF479B","title":"鲁迅公园湖中央","lon":"121.4821434","lat":"31.268464681","category":"196","category_name":"公园","address":"上海鲁迅公园"},{"poiid":"B2094655D26AA0F4469C","title":"虹口足球场壁球馆","lon":"121.48194","lat":"31.26912","category":"247","category_name":"餐饮美食","address":"虹口区东江湾路444号虹口足球场21号看台5楼(近四川路)"},{"poiid":"B2094757D068A2F5459E","title":"豪享来上海东江湾店","lon":"121.4814","lat":"31.2663","category":"247","category_name":"餐饮美食","address":"上海市虹口区东江湾路10号"},{"poiid":"B2094753DA69A7F84299","title":"表叔茶餐厅（虹口龙之梦店）","lon":"121.482292","lat":"31.268997","category":"500","category_name":"未知分类","address":"上海市 上海市虹口区西江湾路388号凯德龙之梦B1层19号铺"},{"poiid":"B2094655D26CA0F9449A","title":"青岛啤酒吧","lon":"121.47999","lat":"31.2693","category":"260","category_name":"其他","address":"虹口区四川北路2365号(近东江湾路)"},{"poiid":"B2094454D26EA1F5419E","title":"虹口龙之梦鱼非鱼","lon":"121.480056","lat":"31.267036","category":"247","category_name":"餐饮美食","address":"上海市 江湾路"},{"poiid":"B2094752D66CA1FB449F","title":"Costa鲁迅公园店","lon":"121.482819","lat":"31.269187","category":"247","category_name":"餐饮美食","address":"上海市虹口区四川北路鲁迅公园边门"},{"poiid":"B2094654DB6AA6FE459F","title":"麦当劳(虹口公园店)","lon":"121.48333","lat":"31.26839","category":"68","category_name":"快餐厅","address":"虹口区甜爱支路22-50号"},{"poiid":"B209475CD56CA2FD469D","title":"四川香天下火锅（虹口店）","lon":"121.482283","lat":"31.268065","category":"247","category_name":"餐饮美食","address":"四川北路2211号天鹅宾馆3楼"},{"poiid":"B2094655D26AA0FF489D","title":"恒毅室内攀岩馆","lon":"121.48194","lat":"31.26912","category":"247","category_name":"餐饮美食","address":"虹口区东江湾路444号虹口足球场21看台上楼(近四川路)"},{"poiid":"B2094757D06FA3FE4193","title":"696LIVE","lon":"121.48015058","lat":"31.268119063","category":"260","category_name":"其他","address":"虹口区东江湾路188号A栋115(近虹口足球场)"},{"poiid":"B2094757D06FA5F5469A","title":"中村家","lon":"121.48013","lat":"31.2679","category":"95","category_name":"日本料理","address":"虹口区东江湾路198号(近虹口足球场)"},{"poiid":"B2094757D068A4FC429D","title":"天鹅宾馆","lon":"121.481954491","lat":"31.2682752047","category":"215","category_name":"三星级宾馆","address":"虹口区四川北路2211号(近鲁迅公园)"},{"poiid":"B2094757D56DAAFD459A","title":"品宴轩大酒店","lon":"121.48306","lat":"31.26831","category":"76","category_name":"上海菜","address":"虹口区甜爱支路50号(近鲁迅公园)"},{"poiid":"B2094757D06FA7FE489E","title":"九牛一品(四川北路店)","lon":"121.482284228","lat":"31.2684988232","category":"68","category_name":"快餐厅","address":"虹口区四川北路2318号(近鲁迅公园)"},{"poiid":"B2094655D26CA1F4419F","title":"虹口体育场(四号门)","lon":"121.48019","lat":"31.26957","category":"224","category_name":"综合体育馆","address":""},{"poiid":"B2094757D068A7FB4292","title":"呷哺呷哺天兴百货餐厅","lon":"121.4810505","lat":"31.266224434","category":"86","category_name":"火锅店","address":"虹口区四川北路2118号2楼C座"},{"poiid":"B2094757D168A0FB429E","title":"红玫瑰","lon":"121.4805621","lat":"31.267852368","category":"500","category_name":"未知分类","address":"上海市虹口区中山北一路"},{"poiid":"B2094757D16BAAFB499D","title":"汉庭海友客栈","lon":"121.4793721","lat":"31.268376379","category":"216","category_name":"经济型连锁酒店","address":"虹口区东江湾路199-221号(近虹口足球场)"},{"poiid":"B2094757D068A6FB489A","title":"肯德基 KFC (同心店)","lon":"121.479679","lat":"31.267153","category":"68","category_name":"快餐厅","address":"虹口区同心路1号华联吉买盛内(近东江湾路)"},{"poiid":"B2094757D069A6F5469D","title":"康美盲人保健按摩院","lon":"121.47955","lat":"31.26909","category":"149","category_name":"洗浴推拿场所","address":"虹口区东江湾路259号(花园路口)"},{"poiid":"B2094757D069A1F9429D","title":"上海411医院外科大楼14楼","lon":"121.4815991","lat":"31.26651534","category":"162","category_name":"医院","address":"上海市虹口区东江湾路15号"},{"poiid":"B2094654DB6AAAF9449D","title":"虹口足球场(南门)","lon":"121.4802","lat":"31.26956","category":"230","category_name":"足球场","address":"东江湾路444号"},{"poiid":"B2094753D064A6F5429D","title":"麦当劳(鲁迅公园店)","lon":"121.48222","lat":"31.26833","category":"68","category_name":"快餐厅","address":"虹口区四川北路2398号(近鲁迅公园)"},{"poiid":"B2094654DB6AAAF94593","title":"城市之家酒店(上海鲁迅公园店)","lon":"121.48181","lat":"31.26627","category":"250","category_name":"公园户外","address":"虹口区四川北路2131号(近东江湾路)"},{"poiid":"B2094655D26EA5F84292","title":"如家快捷酒店(上海鲁迅公园店)","lon":"121.48258","lat":"31.26624","category":"216","category_name":"经济型连锁酒店","address":"上海市虹口区四川北路2146号(近鲁迅公园)"},{"poiid":"B2094757D069A6F94893","title":"机场四线鲁迅公园终点站","lon":"121.4818278","lat":"31.268149554","category":"38","category_name":"公交车站","address":"上海四川北路(近黄渡路)"},{"poiid":"B2094655D26AA7FB449D","title":"虹口少体校羽毛球馆","lon":"121.48194","lat":"31.26912","category":"247","category_name":"餐饮美食","address":"虹口区东江湾路444号虹口足球场8号看台对面6楼(近四川路)"},{"poiid":"B2094757D06FA7F94992","title":"彩虹献血屋","lon":"121.482173995","lat":"31.2686655496","category":"162","category_name":"医院","address":"虹口区四川北路2388号(近西江湾路)"},{"poiid":"B2094757D06FA5FF4399","title":"快乐柠檬(虹口店)","lon":"121.48266577","lat":"31.268470385","category":"113","category_name":"冷饮店","address":"虹口区四川北路2298号(近鲁迅公园)"},{"poiid":"B2094757D06FABF9409D","title":"竹家庄避风塘(四川北路店)","lon":"121.4809763","lat":"31.266190033","category":"111","category_name":"休闲餐饮场所","address":"虹口区四川北路1885号(近多伦路)"},{"poiid":"B2094757D66CA5FB479B","title":"虹兆糕团店(甜爱店)","lon":"121.48081","lat":"31.26887","category":"257","category_name":"中餐厅","address":"上海虹口区四川北路(近139路终点站)  "},{"poiid":"B209475CD669A5FD4298","title":"四川香天下火鍋","lon":"121.481636","lat":"31.268674","category":"247","category_name":"餐饮美食","address":"上海市 四川北路2211号天鹅宾馆3楼(近虹口体育场站)"},{"poiid":"B2094757D66EAAFE499C","title":"虹口公园游乐场","lon":"121.481001103","lat":"31.2694094011","category":"500","category_name":"未知分类","address":"上海市虹口区内环高架路"},{"poiid":"B2094753D46CA4FC449B","title":"金逸国际影城","lon":"121.482185","lat":"31.267364","category":"178","category_name":"电影院","address":"上海市 虹口龙之梦"},{"poiid":"B2094757D66AA0FE419D","title":"InJoy Space","lon":"121.479828054","lat":"31.267933793","category":"111","category_name":"休闲餐饮场所","address":"东江湾路188号G1栋近四川北路"},{"poiid":"B2094454D365A3FB499A","title":"泰谷泰国休闲餐厅","lon":"121.482215","lat":"31.268922","category":"247","category_name":"餐饮美食","address":"上海市 虹口龙之梦B1"},{"poiid":"B2094654DB69A4F8449A","title":"星巴克(甜爱路店)","lon":"121.482833","lat":"31.267952","category":"65","category_name":"咖啡厅","address":"虹口区四川北路2258号(近鲁迅公园)"},{"poiid":"B2094655D26FA4FE4198","title":"鲁迅公园(南一门)","lon":"121.48264","lat":"31.26851","category":"656","category_name":"大门","address":"四川北路2288"},{"poiid":"B2094757D06FA3F8429F","title":"村夫烤鱼(四川北路店)","lon":"121.48118","lat":"31.26857","category":"68","category_name":"快餐厅","address":"虹口区四川北路2289号(鲁迅公园对面)"},{"poiid":"B2094757D068A3F8469F","title":"空间188创意产业园","lon":"121.480954024","lat":"31.267077267","category":"46","category_name":"楼宇","address":"上海虹口区东江湾路188号(近天通庵路)"},{"poiid":"B2094757D06FA3F8469E","title":"必胜客(东江湾店)","lon":"121.479673","lat":"31.270087","category":"94","category_name":"西餐厅","address":"虹口区东江湾路444号虹口足球场内(近四川路)"},{"poiid":"B2094757D069A7FF4593","title":"虹口足球场外场","lon":"121.4805031","lat":"31.268686386","category":"220","category_name":"运动场所","address":"上海虹口区东江湾路444号"},{"poiid":"B2094757D06FA0FE4792","title":"来天华(虹足店)","lon":"121.48044","lat":"31.2702","category":"75","category_name":"浙江菜","address":"虹口区东江湾路440号虹口足球场1号门(东江湾路四川北路)"},{"poiid":"B2094757D06FABF94698","title":"派克餐厅","lon":"121.48135990389","lat":"31.26860917101","category":"76","category_name":"上海菜","address":"虹口区四川北路2339弄内(近西江湾路)"},{"poiid":"B2094757D06FA6FC489F","title":"鲁迅纪念馆","lon":"121.4836595","lat":"31.269515801","category":"179","category_name":"音乐厅","address":"虹口区甜爱路200号(近四川北路)"},{"poiid":"B2094757D06FA2FF4892","title":"绿野仙踪","lon":"121.482361983","lat":"31.2685864405","category":"260","category_name":"其他","address":"虹口区四川北路2298号(近鲁迅公园)"},{"poiid":"B2094757D068A5FB4292","title":"甜爱支路","lon":"121.483617","lat":"31.268032","category":"260","category_name":"其他","address":"上海甜爱支路"},{"poiid":"B2094757D168ABFC459B","title":"多伦路","lon":"121.482221","lat":"31.266354","category":"500","category_name":"未知分类","address":"上海多伦路"},{"poiid":"B2094757D465A1FF4193","title":"买卖提红玫瑰烤涮龙虾馆 虹口店","lon":"121.48254808963","lat":"31.266878970068","category":"68","category_name":"快餐厅","address":"虹口区四川北路2277号(近鲁迅公园)"},{"poiid":"B2094757D169A1FF479B","title":"鲁迅公园湖中央","lon":"121.4821434","lat":"31.268464681","category":"196","category_name":"公园","address":"上海鲁迅公园"},{"poiid":"B2094655D26AA0F4469C","title":"虹口足球场壁球馆","lon":"121.48194","lat":"31.26912","category":"247","category_name":"餐饮美食","address":"虹口区东江湾路444号虹口足球场21号看台5楼(近四川路)"},{"poiid":"B2094757D068A2F5459E","title":"豪享来上海东江湾店","lon":"121.4814","lat":"31.2663","category":"247","category_name":"餐饮美食","address":"上海市虹口区东江湾路10号"},{"poiid":"B2094753DA69A7F84299","title":"表叔茶餐厅（虹口龙之梦店）","lon":"121.482292","lat":"31.268997","category":"500","category_name":"未知分类","address":"上海市 上海市虹口区西江湾路388号凯德龙之梦B1层19号铺"},{"poiid":"B2094655D26CA0F9449A","title":"青岛啤酒吧","lon":"121.47999","lat":"31.2693","category":"260","category_name":"其他","address":"虹口区四川北路2365号(近东江湾路)"},{"poiid":"B2094454D26EA1F5419E","title":"虹口龙之梦鱼非鱼","lon":"121.480056","lat":"31.267036","category":"247","category_name":"餐饮美食","address":"上海市 江湾路"},{"poiid":"B2094752D66CA1FB449F","title":"Costa鲁迅公园店","lon":"121.482819","lat":"31.269187","category":"247","category_name":"餐饮美食","address":"上海市虹口区四川北路鲁迅公园边门"},{"poiid":"B2094654DB6AA6FE459F","title":"麦当劳(虹口公园店)","lon":"121.48333","lat":"31.26839","category":"68","category_name":"快餐厅","address":"虹口区甜爱支路22-50号"},{"poiid":"B209475CD56CA2FD469D","title":"四川香天下火锅（虹口店）","lon":"121.482283","lat":"31.268065","category":"247","category_name":"餐饮美食","address":"四川北路2211号天鹅宾馆3楼"},{"poiid":"B2094655D26AA0FF489D","title":"恒毅室内攀岩馆","lon":"121.48194","lat":"31.26912","category":"247","category_name":"餐饮美食","address":"虹口区东江湾路444号虹口足球场21看台上楼(近四川路)"},{"poiid":"B2094757D06FA3FE4193","title":"696LIVE","lon":"121.48015058","lat":"31.268119063","category":"260","category_name":"其他","address":"虹口区东江湾路188号A栋115(近虹口足球场)"},{"poiid":"B2094757D06FA5F5469A","title":"中村家","lon":"121.48013","lat":"31.2679","category":"95","category_name":"日本料理","address":"虹口区东江湾路198号(近虹口足球场)"},{"poiid":"B2094757D068A4FC429D","title":"天鹅宾馆","lon":"121.481954491","lat":"31.2682752047","category":"215","category_name":"三星级宾馆","address":"虹口区四川北路2211号(近鲁迅公园)"},{"poiid":"B2094757D56DAAFD459A","title":"品宴轩大酒店","lon":"121.48306","lat":"31.26831","category":"76","category_name":"上海菜","address":"虹口区甜爱支路50号(近鲁迅公园)"},{"poiid":"B2094757D06FA7FE489E","title":"九牛一品(四川北路店)","lon":"121.482284228","lat":"31.2684988232","category":"68","category_name":"快餐厅","address":"虹口区四川北路2318号(近鲁迅公园)"},{"poiid":"B2094655D26CA1F4419F","title":"虹口体育场(四号门)","lon":"121.48019","lat":"31.26957","category":"224","category_name":"综合体育馆","address":""},{"poiid":"B2094757D068A7FB4292","title":"呷哺呷哺天兴百货餐厅","lon":"121.4810505","lat":"31.266224434","category":"86","category_name":"火锅店","address":"虹口区四川北路2118号2楼C座"},{"poiid":"B2094757D168A0FB429E","title":"红玫瑰","lon":"121.4805621","lat":"31.267852368","category":"500","category_name":"未知分类","address":"上海市虹口区中山北一路"},{"poiid":"B2094757D16BAAFB499D","title":"汉庭海友客栈","lon":"121.4793721","lat":"31.268376379","category":"216","category_name":"经济型连锁酒店","address":"虹口区东江湾路199-221号(近虹口足球场)"},{"poiid":"B2094757D068A6FB489A","title":"肯德基 KFC (同心店)","lon":"121.479679","lat":"31.267153","category":"68","category_name":"快餐厅","address":"虹口区同心路1号华联吉买盛内(近东江湾路)"},{"poiid":"B2094757D069A6F5469D","title":"康美盲人保健按摩院","lon":"121.47955","lat":"31.26909","category":"149","category_name":"洗浴推拿场所","address":"虹口区东江湾路259号(花园路口)"},{"poiid":"B2094757D069A1F9429D","title":"上海411医院外科大楼14楼","lon":"121.4815991","lat":"31.26651534","category":"162","category_name":"医院","address":"上海市虹口区东江湾路15号"},{"poiid":"B2094654DB6AAAF9449D","title":"虹口足球场(南门)","lon":"121.4802","lat":"31.26956","category":"230","category_name":"足球场","address":"东江湾路444号"},{"poiid":"B2094753D064A6F5429D","title":"麦当劳(鲁迅公园店)","lon":"121.48222","lat":"31.26833","category":"68","category_name":"快餐厅","address":"虹口区四川北路2398号(近鲁迅公园)"},{"poiid":"B2094654DB6AAAF94593","title":"城市之家酒店(上海鲁迅公园店)","lon":"121.48181","lat":"31.26627","category":"250","category_name":"公园户外","address":"虹口区四川北路2131号(近东江湾路)"},{"poiid":"B2094655D26EA5F84292","title":"如家快捷酒店(上海鲁迅公园店)","lon":"121.48258","lat":"31.26624","category":"216","category_name":"经济型连锁酒店","address":"上海市虹口区四川北路2146号(近鲁迅公园)"},{"poiid":"B2094757D069A6F94893","title":"机场四线鲁迅公园终点站","lon":"121.4818278","lat":"31.268149554","category":"38","category_name":"公交车站","address":"上海四川北路(近黄渡路)"},{"poiid":"B2094655D26AA7FB449D","title":"虹口少体校羽毛球馆","lon":"121.48194","lat":"31.26912","category":"247","category_name":"餐饮美食","address":"虹口区东江湾路444号虹口足球场8号看台对面6楼(近四川路)"},{"poiid":"B2094757D06FA7F94992","title":"彩虹献血屋","lon":"121.482173995","lat":"31.2686655496","category":"162","category_name":"医院","address":"虹口区四川北路2388号(近西江湾路)"},{"poiid":"B2094757D06FA5FF4399","title":"快乐柠檬(虹口店)","lon":"121.48266577","lat":"31.268470385","category":"113","category_name":"冷饮店","address":"虹口区四川北路2298号(近鲁迅公园)"},{"poiid":"B2094757D06FABF9409D","title":"竹家庄避风塘(四川北路店)","lon":"121.4809763","lat":"31.266190033","category":"111","category_name":"休闲餐饮场所","address":"虹口区四川北路1885号(近多伦路)"},{"poiid":"B2094757D66CA5FB479B","title":"虹兆糕团店(甜爱店)","lon":"121.48081","lat":"31.26887","category":"257","category_name":"中餐厅","address":"上海虹口区四川北路(近139路终点站)  "},{"poiid":"B209475CD669A5FD4298","title":"四川香天下火鍋","lon":"121.481636","lat":"31.268674","category":"247","category_name":"餐饮美食","address":"上海市 四川北路2211号天鹅宾馆3楼(近虹口体育场站)"},{"poiid":"B2094757D66EAAFE499C","title":"虹口公园游乐场","lon":"121.481001103","lat":"31.2694094011","category":"500","category_name":"未知分类","address":"上海市虹口区内环高架路"},{"poiid":"B2094753D46CA4FC449B","title":"金逸国际影城","lon":"121.482185","lat":"31.267364","category":"178","category_name":"电影院","address":"上海市 虹口龙之梦"},{"poiid":"B2094757D66AA0FE419D","title":"InJoy Space","lon":"121.479828054","lat":"31.267933793","category":"111","category_name":"休闲餐饮场所","address":"东江湾路188号G1栋近四川北路"},{"poiid":"B2094454D365A3FB499A","title":"泰谷泰国休闲餐厅","lon":"121.482215","lat":"31.268922","category":"247","category_name":"餐饮美食","address":"上海市 虹口龙之梦B1"},{"poiid":"B2094654DB69A4F8449A","title":"星巴克(甜爱路店)","lon":"121.482833","lat":"31.267952","category":"65","category_name":"咖啡厅","address":"虹口区四川北路2258号(近鲁迅公园)"},{"poiid":"B2094655D26FA4FE4198","title":"鲁迅公园(南一门)","lon":"121.48264","lat":"31.26851","category":"656","category_name":"大门","address":"四川北路2288"},{"poiid":"B2094757D06FA3F8429F","title":"村夫烤鱼(四川北路店)","lon":"121.48118","lat":"31.26857","category":"68","category_name":"快餐厅","address":"虹口区四川北路2289号(鲁迅公园对面)"},{"poiid":"B2094757D068A3F8469F","title":"空间188创意产业园","lon":"121.480954024","lat":"31.267077267","category":"46","category_name":"楼宇","address":"上海虹口区东江湾路188号(近天通庵路)"},{"poiid":"B2094757D06FA3F8469E","title":"必胜客(东江湾店)","lon":"121.479673","lat":"31.270087","category":"94","category_name":"西餐厅","address":"虹口区东江湾路444号虹口足球场内(近四川路)"},{"poiid":"B2094757D069A7FF4593","title":"虹口足球场外场","lon":"121.4805031","lat":"31.268686386","category":"220","category_name":"运动场所","address":"上海虹口区东江湾路444号"},{"poiid":"B2094757D06FA0FE4792","title":"来天华(虹足店)","lon":"121.48044","lat":"31.2702","category":"75","category_name":"浙江菜","address":"虹口区东江湾路440号虹口足球场1号门(东江湾路四川北路)"},{"poiid":"B2094757D06FABF94698","title":"派克餐厅","lon":"121.48135990389","lat":"31.26860917101","category":"76","category_name":"上海菜","address":"虹口区四川北路2339弄内(近西江湾路)"},{"poiid":"B2094757D06FA6FC489F","title":"鲁迅纪念馆","lon":"121.4836595","lat":"31.269515801","category":"179","category_name":"音乐厅","address":"虹口区甜爱路200号(近四川北路)"},{"poiid":"B2094757D06FA2FF4892","title":"绿野仙踪","lon":"121.482361983","lat":"31.2685864405","category":"260","category_name":"其他","address":"虹口区四川北路2298号(近鲁迅公园)"},{"poiid":"B2094757D068A5FB4292","title":"甜爱支路","lon":"121.483617","lat":"31.268032","category":"260","category_name":"其他","address":"上海甜爱支路"},{"poiid":"B2094757D168ABFC459B","title":"多伦路","lon":"121.482221","lat":"31.266354","category":"500","category_name":"未知分类","address":"上海多伦路"},{"poiid":"B2094757D465A1FF4193","title":"买卖提红玫瑰烤涮龙虾馆 虹口店","lon":"121.48254808963","lat":"31.266878970068","category":"68","category_name":"快餐厅","address":"虹口区四川北路2277号(近鲁迅公园)"},{"poiid":"B2094757D169A1FF479B","title":"鲁迅公园湖中央","lon":"121.4821434","lat":"31.268464681","category":"196","category_name":"公园","address":"上海鲁迅公园"},{"poiid":"B2094655D26AA0F4469C","title":"虹口足球场壁球馆","lon":"121.48194","lat":"31.26912","category":"247","category_name":"餐饮美食","address":"虹口区东江湾路444号虹口足球场21号看台5楼(近四川路)"},{"poiid":"B2094757D068A2F5459E","title":"豪享来上海东江湾店","lon":"121.4814","lat":"31.2663","category":"247","category_name":"餐饮美食","address":"上海市虹口区东江湾路10号"},{"poiid":"B2094753DA69A7F84299","title":"表叔茶餐厅（虹口龙之梦店）","lon":"121.482292","lat":"31.268997","category":"500","category_name":"未知分类","address":"上海市 上海市虹口区西江湾路388号凯德龙之梦B1层19号铺"},{"poiid":"B2094655D26CA0F9449A","title":"青岛啤酒吧","lon":"121.47999","lat":"31.2693","category":"260","category_name":"其他","address":"虹口区四川北路2365号(近东江湾路)"},{"poiid":"B2094454D26EA1F5419E","title":"虹口龙之梦鱼非鱼","lon":"121.480056","lat":"31.267036","category":"247","category_name":"餐饮美食","address":"上海市 江湾路"},{"poiid":"B2094752D66CA1FB449F","title":"Costa鲁迅公园店","lon":"121.482819","lat":"31.269187","category":"247","category_name":"餐饮美食","address":"上海市虹口区四川北路鲁迅公园边门"},{"poiid":"B2094654DB6AA6FE459F","title":"麦当劳(虹口公园店)","lon":"121.48333","lat":"31.26839","category":"68","category_name":"快餐厅","address":"虹口区甜爱支路22-50号"},{"poiid":"B209475CD56CA2FD469D","title":"四川香天下火锅（虹口店）","lon":"121.482283","lat":"31.268065","category":"247","category_name":"餐饮美食","address":"四川北路2211号天鹅宾馆3楼"},{"poiid":"B2094655D26AA0FF489D","title":"恒毅室内攀岩馆","lon":"121.48194","lat":"31.26912","category":"247","category_name":"餐饮美食","address":"虹口区东江湾路444号虹口足球场21看台上楼(近四川路)"},{"poiid":"B2094757D06FA3FE4193","title":"696LIVE","lon":"121.48015058","lat":"31.268119063","category":"260","category_name":"其他","address":"虹口区东江湾路188号A栋115(近虹口足球场)"},{"poiid":"B2094757D06FA5F5469A","title":"中村家","lon":"121.48013","lat":"31.2679","category":"95","category_name":"日本料理","address":"虹口区东江湾路198号(近虹口足球场)"},{"poiid":"B2094757D068A4FC429D","title":"天鹅宾馆","lon":"121.481954491","lat":"31.2682752047","category":"215","category_name":"三星级宾馆","address":"虹口区四川北路2211号(近鲁迅公园)"},{"poiid":"B2094757D56DAAFD459A","title":"品宴轩大酒店","lon":"121.48306","lat":"31.26831","category":"76","category_name":"上海菜","address":"虹口区甜爱支路50号(近鲁迅公园)"},{"poiid":"B2094757D06FA7FE489E","title":"九牛一品(四川北路店)","lon":"121.482284228","lat":"31.2684988232","category":"68","category_name":"快餐厅","address":"虹口区四川北路2318号(近鲁迅公园)"},{"poiid":"B2094655D26CA1F4419F","title":"虹口体育场(四号门)","lon":"121.48019","lat":"31.26957","category":"224","category_name":"综合体育馆","address":""},{"poiid":"B2094757D068A7FB4292","title":"呷哺呷哺天兴百货餐厅","lon":"121.4810505","lat":"31.266224434","category":"86","category_name":"火锅店","address":"虹口区四川北路2118号2楼C座"},{"poiid":"B2094757D168A0FB429E","title":"红玫瑰","lon":"121.4805621","lat":"31.267852368","category":"500","category_name":"未知分类","address":"上海市虹口区中山北一路"},{"poiid":"B2094757D16BAAFB499D","title":"汉庭海友客栈","lon":"121.4793721","lat":"31.268376379","category":"216","category_name":"经济型连锁酒店","address":"虹口区东江湾路199-221号(近虹口足球场)"},{"poiid":"B2094757D068A6FB489A","title":"肯德基 KFC (同心店)","lon":"121.479679","lat":"31.267153","category":"68","category_name":"快餐厅","address":"虹口区同心路1号华联吉买盛内(近东江湾路)"},{"poiid":"B2094757D069A6F5469D","title":"康美盲人保健按摩院","lon":"121.47955","lat":"31.26909","category":"149","category_name":"洗浴推拿场所","address":"虹口区东江湾路259号(花园路口)"},{"poiid":"B2094757D069A1F9429D","title":"上海411医院外科大楼14楼","lon":"121.4815991","lat":"31.26651534","category":"162","category_name":"医院","address":"上海市虹口区东江湾路15号"},{"poiid":"B2094654DB6AAAF9449D","title":"虹口足球场(南门)","lon":"121.4802","lat":"31.26956","category":"230","category_name":"足球场","address":"东江湾路444号"},{"poiid":"B2094753D064A6F5429D","title":"麦当劳(鲁迅公园店)","lon":"121.48222","lat":"31.26833","category":"68","category_name":"快餐厅","address":"虹口区四川北路2398号(近鲁迅公园)"},{"poiid":"B2094654DB6AAAF94593","title":"城市之家酒店(上海鲁迅公园店)","lon":"121.48181","lat":"31.26627","category":"250","category_name":"公园户外","address":"虹口区四川北路2131号(近东江湾路)"},{"poiid":"B2094655D26EA5F84292","title":"如家快捷酒店(上海鲁迅公园店)","lon":"121.48258","lat":"31.26624","category":"216","category_name":"经济型连锁酒店","address":"上海市虹口区四川北路2146号(近鲁迅公园)"},{"poiid":"B2094757D069A6F94893","title":"机场四线鲁迅公园终点站","lon":"121.4818278","lat":"31.268149554","category":"38","category_name":"公交车站","address":"上海四川北路(近黄渡路)"},{"poiid":"B2094655D26AA7FB449D","title":"虹口少体校羽毛球馆","lon":"121.48194","lat":"31.26912","category":"247","category_name":"餐饮美食","address":"虹口区东江湾路444号虹口足球场8号看台对面6楼(近四川路)"},{"poiid":"B2094757D06FA7F94992","title":"彩虹献血屋","lon":"121.482173995","lat":"31.2686655496","category":"162","category_name":"医院","address":"虹口区四川北路2388号(近西江湾路)"},{"poiid":"B2094757D06FA5FF4399","title":"快乐柠檬(虹口店)","lon":"121.48266577","lat":"31.268470385","category":"113","category_name":"冷饮店","address":"虹口区四川北路2298号(近鲁迅公园)"},{"poiid":"B2094757D06FABF9409D","title":"竹家庄避风塘(四川北路店)","lon":"121.4809763","lat":"31.266190033","category":"111","category_name":"休闲餐饮场所","address":"虹口区四川北路1885号(近多伦路)"},{"poiid":"B2094757D66CA5FB479B","title":"虹兆糕团店(甜爱店)","lon":"121.48081","lat":"31.26887","category":"257","category_name":"中餐厅","address":"上海虹口区四川北路(近139路终点站)  "},{"poiid":"B209475CD669A5FD4298","title":"四川香天下火鍋","lon":"121.481636","lat":"31.268674","category":"247","category_name":"餐饮美食","address":"上海市 四川北路2211号天鹅宾馆3楼(近虹口体育场站)"},{"poiid":"B2094757D66EAAFE499C","title":"虹口公园游乐场","lon":"121.481001103","lat":"31.2694094011","category":"500","category_name":"未知分类","address":"上海市虹口区内环高架路"},{"poiid":"B2094753D46CA4FC449B","title":"金逸国际影城","lon":"121.482185","lat":"31.267364","category":"178","category_name":"电影院","address":"上海市 虹口龙之梦"},{"poiid":"B2094757D66AA0FE419D","title":"InJoy Space","lon":"121.479828054","lat":"31.267933793","category":"111","category_name":"休闲餐饮场所","address":"东江湾路188号G1栋近四川北路"},{"poiid":"B2094454D365A3FB499A","title":"泰谷泰国休闲餐厅","lon":"121.482215","lat":"31.268922","category":"247","category_name":"餐饮美食","address":"上海市 虹口龙之梦B1"}]