[{"poiid":"B2094757D06FA3FE4993","title":"同济大学南校区","lon":"121.500104","lat":"31.2804","category":"52","category_name":"高等院校","address":"上海杨浦区赤峰路67号"},{"poiid":"B2094654DB65A6FD499C","title":"同济大学(南二门)","lon":"121.49676","lat":"31.28203","category":"52","category_name":"高等院校","address":"杨浦区赤峰路200"},{"poiid":"B2094757D06FA4FA449A","title":"同济大学第一教学楼","lon":"121.498786867","lat":"31.2787655687","category":"253","category_name":"校园生活","address":"上海赤峰路67号"},{"poiid":"B2094757D06FA2FC4992","title":"Salabim意式餐厅(赤峰路店)","lon":"121.50036","lat":"31.28033","category":"94","category_name":"西餐厅","address":"上海杨浦区赤峰路70号(近同济大学)"},{"poiid":"B2094757D068A3FE499D","title":"同济大学校医院","lon":"121.50079","lat":"31.28029","category":"162","category_name":"医院","address":"上海杨浦区赤峰路50号(近四平路)  "},{"poiid":"B2094757D06FA6FF4792","title":"同济大学土木工程学院","lon":"121.49913415","lat":"31.281220153","category":"253","category_name":"校园生活","address":"上海杨浦区四平路1239号内"},{"poiid":"B2094757D06FA2F5499E","title":"玉田新村","lon":"121.494806","lat":"31.277934","category":"47","category_name":"住宅区","address":"上海虹口区大连西路96号,玉田路311弄"},{"poiid":"B2094655D26CA1FD499B","title":"同济大学(南一门)","lon":"121.5004","lat":"31.2807","category":"52","category_name":"高等院校","address":"赤峰路50"},{"poiid":"B2094757D06BA7FF4693","title":"同济大学第三教学楼","lon":"121.4954971","lat":"31.280194715","category":"52","category_name":"高等院校","address":"上海赤峰路67号"},{"poiid":"B2094757D06BABFF439C","title":"同济大学中德学院","lon":"121.500404","lat":"31.280711","category":"253","category_name":"校园生活","address":"上海杨浦区四平路1239号同济大学四平路校区"},{"poiid":"B2094655D265A2FC469B","title":"同济大学电影学院实验剧场","lon":"121.49946","lat":"31.27884","category":"180","category_name":"剧场","address":""},{"poiid":"B2094757D069A2FC4093","title":"同济大学南校区体育馆","lon":"121.49941","lat":"31.27931","category":"224","category_name":"综合体育馆","address":"虹口区赤峰路65号同济大学南校区内(近四平路)"},{"poiid":"B2094757D064A6F84098","title":"宝莲大厦","lon":"121.498","lat":"31.2779","category":"46","category_name":"楼宇","address":"珠江新城华穗路与华利路交汇处"},{"poiid":"B2094753D26DA5FB459D","title":"地铁站","lon":"121.497302","lat":"31.277283","category":"36","category_name":"地铁站","address":"上海市 10号线"},{"poiid":"B2094757D16FA1FA459F","title":"大连西路","lon":"121.4972828","lat":"31.276329028","category":"500","category_name":"未知分类","address":"上海大连西路"},{"poiid":"B2094757D06BA4F94098","title":"交行上分培训中心","lon":"121.498069","lat":"31.281133","category":"253","category_name":"校园生活","address":"上海赤峰路89弄"},{"poiid":"B2094654DB6AAAF84298","title":"密云小区","lon":"121.49776","lat":"31.277435","category":"47","category_name":"住宅区","address":"上海市虹口区赤峰路３１７弄"},{"poiid":"B2094757D065A0F9479C","title":"晨兴食府","lon":"121.49651013","lat":"31.278420289","category":"76","category_name":"上海菜","address":"虹口区密云路420号(近玉田路)"},{"poiid":"B2094757D069AAF9469B","title":"罗记川味麻辣烫(密云店)","lon":"121.49667","lat":"31.27828","category":"68","category_name":"快餐厅","address":"虹口区密云路351号(玉田路口)"},{"poiid":"B2094757D664A3FA4099","title":"老刘家 密云路店","lon":"121.49637842741","lat":"31.277647825369","category":"257","category_name":"中餐厅","address":"虹口区密云路475号2楼(近赤峰路)"},{"poiid":"B2094757D168A5F84892","title":"光头湘菜 密云路店","lon":"121.496925054","lat":"31.277058793","category":"77","category_name":"湖南菜","address":"虹口区密云路356号(大连西路口)"},{"poiid":"B2094757D06AA2F5479B","title":"63号设计创意工场","lon":"121.50099945","lat":"31.279600143","category":"190","category_name":"培训机构","address":"虹口区赤峰路63号(近密云路)"},{"poiid":"B2094757D068A2F5429B","title":"振鼎鸡(玉田路店)","lon":"121.49364","lat":"31.27837","category":"68","category_name":"快餐厅","address":"虹口区玉田路260号(近曲阳路)"},{"poiid":"B2094654DB6AAAF8429F","title":"密云小区(西一门)","lon":"121.4966","lat":"31.27913","category":"47","category_name":"住宅区","address":"密云路444弄"},{"poiid":"B2094757D06AA7F54992","title":"老顺昌苏州汤包馆","lon":"121.494729136","lat":"31.2780579315","category":"68","category_name":"快餐厅","address":"虹口区玉田路226号"},{"poiid":"B2094757D16EA2FB499A","title":"同济大学经济与管理学院云通楼","lon":"121.4998186","lat":"31.281060744","category":"500","category_name":"未知分类","address":"上海赤峰路50号"},{"poiid":"B2094757D06BA1FE459F","title":"曲阳第二中学","lon":"121.49568","lat":"31.27895","category":"55","category_name":"中学","address":"上海虹口区玉田路180号(近密云路)"},{"poiid":"B2094654D56CA1FA4798","title":"东北人家饺子王","lon":"121.49623","lat":"31.27874","category":"82","category_name":"东北菜","address":"虹口区密云路353号(近玉田路)"},{"poiid":"B2094757D16FA0F5449A","title":"沪东双语幼儿园","lon":"121.497484","lat":"31.277604","category":"57","category_name":"幼儿园","address":"上海大连西路30弄13号"},{"poiid":"B2094655D26AA3FA4098","title":"婚姻登记处虹口区登记处","lon":"121.4943","lat":"31.27896","category":"247","category_name":"餐饮美食","address":"虹口区玉田路195号(近密云路)"},{"poiid":"B2094654D56CA1F44899","title":"杨浦高级中学游泳池","lon":"121.4991","lat":"31.27673","category":"231","category_name":"游泳馆","address":"杨浦区四平路999号(近大连路)"},{"poiid":"B2094757D06AA6FB439D","title":"同济大学黑暗料理街","lon":"121.50228","lat":"31.28364","category":"68","category_name":"快餐厅","address":"杨浦区四平路1239号同济大学南门外(近同济大学中德学院)"},{"poiid":"B2094757D16CA4F54693","title":"同济大学音乐广场","lon":"121.498366","lat":"31.281004","category":"500","category_name":"未知分类","address":"上海市赤峰路"},{"poiid":"B2094757D46AA7FE4393","title":"宋氏龙虾","lon":"121.49633","lat":"31.28002","category":"68","category_name":"快餐厅","address":"虹口区广灵四路240-1号(近水电路)"},{"poiid":"B2094757D06BA4FA459B","title":"苹果园 大连西路店 Apple Garden","lon":"121.496806054","lat":"31.276330793","category":"112","category_name":"糕饼店","address":"虹口区大连西路50号(密云路口)"},{"poiid":"B2094757D064A3F4429E","title":"854路","lon":"121.49680272","lat":"31.277354667","category":"38","category_name":"公交车站","address":"上海溧阳路到工农新村"},{"poiid":"B2094750DA69A4F9459F","title":"安寿司","lon":"121.498481","lat":"31.277725","category":"95","category_name":"日本料理","address":"虹口区大连西路21号(天宝路口)"},{"poiid":"B2094654D56CA1F44898","title":"二师附小","lon":"121.49959","lat":"31.2766","category":"56","category_name":"小学","address":"大连西路16"},{"poiid":"B2094757D66CA6F4429E","title":"仙霞别墅","lon":"121.496230603","lat":"31.2784245895","category":"47","category_name":"住宅区","address":"上海仙霞路，娄山关路口。"},{"poiid":"B2094654D56CA1FA4799","title":"美国西海岸大学","lon":"121.49609","lat":"31.27933","category":"52","category_name":"高等院校","address":"虹口区密云路375-377"},{"poiid":"B2094757D169A2F8429D","title":"同济大学音乐系(南校区实训楼)","lon":"121.49966683","lat":"31.277998501","category":"52","category_name":"高等院校","address":"上海赤峰路67号，同济大学南校区，实训楼即建筑结构实验室楼、高等技术学院楼"},{"poiid":"B2094654D56CA1F54093","title":"可的(密云路)","lon":"121.49665","lat":"31.27723","category":"117","category_name":"便民商店/便利店","address":"密云路362"},{"poiid":"B2094654DB65A6FD4798","title":"同济大学高等技术学院","lon":"121.49943","lat":"31.27834","category":"52","category_name":"高等院校","address":""},{"poiid":"B2094654DB65A5F9479C","title":"美国西海岸大学(东门)","lon":"121.4962","lat":"31.27929","category":"52","category_name":"高等院校","address":"密云路375-377"},{"poiid":"B2094757D165A5FA4592","title":"猫姬殿","lon":"121.496682","lat":"31.278278","category":"500","category_name":"未知分类","address":null},{"poiid":"B2094757D16AA4FB419C","title":"华翔路沪青平公路","lon":"121.4965993","lat":"31.278317087","category":"500","category_name":"未知分类","address":"上海华翔路沪青平公路口"},{"poiid":"B2094757D16FA0F9479C","title":"黄记烤鸭","lon":"121.49384","lat":"31.27901","category":"68","category_name":"快餐厅","address":"虹口区玉田路260号(近曲阳路)"},{"poiid":"B2094757D16DABF44899","title":"银谷食府","lon":"121.49677","lat":"31.27682","category":"247","category_name":"餐饮美食","address":"上海虹口区密云路374－376号(近玉田路)"},{"poiid":"B2094654D56CA1F5409C","title":"京昌酒店大连店","lon":"121.4967","lat":"31.277","category":"250","category_name":"公园户外","address":"虹口区密云路358号(大连西路密云路)"},{"poiid":"B2094654D56CA1FB489C","title":"交通银行上海分行培训中心","lon":"121.49796","lat":"31.28072","category":"190","category_name":"培训机构","address":"杨浦区赤峰路89号(近同济大学)"},{"poiid":"B2094757D06FA3FE4993","title":"同济大学南校区","lon":"121.500104","lat":"31.2804","category":"52","category_name":"高等院校","address":"上海杨浦区赤峰路67号"},{"poiid":"B2094654DB65A6FD499C","title":"同济大学(南二门)","lon":"121.49676","lat":"31.28203","category":"52","category_name":"高等院校","address":"杨浦区赤峰路200"},{"poiid":"B2094757D06FA4FA449A","title":"同济大学第一教学楼","lon":"121.498786867","lat":"31.2787655687","category":"253","category_name":"校园生活","address":"上海赤峰路67号"},{"poiid":"B2094757D06FA2FC4992","title":"Salabim意式餐厅(赤峰路店)","lon":"121.50036","lat":"31.28033","category":"94","category_name":"西餐厅","address":"上海杨浦区赤峰路70号(近同济大学)"},{"poiid":"B2094757D068A3FE499D","title":"同济大学校医院","lon":"121.50079","lat":"31.28029","category":"162","category_name":"医院","address":"上海杨浦区赤峰路50号(近四平路)  "},{"poiid":"B2094757D06FA6FF4792","title":"同济大学土木工程学院","lon":"121.49913415","lat":"31.281220153","category":"253","category_name":"校园生活","address":"上海杨浦区四平路1239号内"},{"poiid":"B2094757D06FA2F5499E","title":"玉田新村","lon":"121.494806","lat":"31.277934","category":"47","category_name":"住宅区","address":"上海虹口区大连西路96号,玉田路311弄"},{"poiid":"B2094655D26CA1FD499B","title":"同济大学(南一门)","lon":"121.5004","lat":"31.2807","category":"52","category_name":"高等院校","address":"赤峰路50"},{"poiid":"B2094757D06BA7FF4693","title":"同济大学第三教学楼","lon":"121.4954971","lat":"31.280194715","category":"52","category_name":"高等院校","address":"上海赤峰路67号"},{"poiid":"B2094757D06BABFF439C","title":"同济大学中德学院","lon":"121.500404","lat":"31.280711","category":"253","category_name":"校园生活","address":"上海杨浦区四平路1239号同济大学四平路校区"},{"poiid":"B2094655D265A2FC469B","title":"同济大学电影学院实验剧场","lon":"121.49946","lat":"31.27884","category":"180","category_name":"剧场","address":""},{"poiid":"B2094757D069A2FC4093","title":"同济大学南校区体育馆","lon":"121.49941","lat":"31.27931","category":"224","category_name":"综合体育馆","address":"虹口区赤峰路65号同济大学南校区内(近四平路)"},{"poiid":"B2094757D064A6F84098","title":"宝莲大厦","lon":"121.498","lat":"31.2779","category":"46","category_name":"楼宇","address":"珠江新城华穗路与华利路交汇处"},{"poiid":"B2094753D26DA5FB459D","title":"地铁站","lon":"121.497302","lat":"31.277283","category":"36","category_name":"地铁站","address":"上海市 10号线"},{"poiid":"B2094757D16FA1FA459F","title":"大连西路","lon":"121.4972828","lat":"31.276329028","category":"500","category_name":"未知分类","address":"上海大连西路"},{"poiid":"B2094757D06BA4F94098","title":"交行上分培训中心","lon":"121.498069","lat":"31.281133","category":"253","category_name":"校园生活","address":"上海赤峰路89弄"},{"poiid":"B2094654DB6AAAF84298","title":"密云小区","lon":"121.49776","lat":"31.277435","category":"47","category_name":"住宅区","address":"上海市虹口区赤峰路３１７弄"},{"poiid":"B2094757D065A0F9479C","title":"晨兴食府","lon":"121.49651013","lat":"31.278420289","category":"76","category_name":"上海菜","address":"虹口区密云路420号(近玉田路)"},{"poiid":"B2094757D069AAF9469B","title":"罗记川味麻辣烫(密云店)","lon":"121.49667","lat":"31.27828","category":"68","category_name":"快餐厅","address":"虹口区密云路351号(玉田路口)"},{"poiid":"B2094757D664A3FA4099","title":"老刘家 密云路店","lon":"121.49637842741","lat":"31.277647825369","category":"257","category_name":"中餐厅","address":"虹口区密云路475号2楼(近赤峰路)"},{"poiid":"B2094757D168A5F84892","title":"光头湘菜 密云路店","lon":"121.496925054","lat":"31.277058793","category":"77","category_name":"湖南菜","address":"虹口区密云路356号(大连西路口)"},{"poiid":"B2094757D06AA2F5479B","title":"63号设计创意工场","lon":"121.50099945","lat":"31.279600143","category":"190","category_name":"培训机构","address":"虹口区赤峰路63号(近密云路)"},{"poiid":"B2094757D068A2F5429B","title":"振鼎鸡(玉田路店)","lon":"121.49364","lat":"31.27837","category":"68","category_name":"快餐厅","address":"虹口区玉田路260号(近曲阳路)"},{"poiid":"B2094654DB6AAAF8429F","title":"密云小区(西一门)","lon":"121.4966","lat":"31.27913","category":"47","category_name":"住宅区","address":"密云路444弄"},{"poiid":"B2094757D06AA7F54992","title":"老顺昌苏州汤包馆","lon":"121.494729136","lat":"31.2780579315","category":"68","category_name":"快餐厅","address":"虹口区玉田路226号"},{"poiid":"B2094757D16EA2FB499A","title":"同济大学经济与管理学院云通楼","lon":"121.4998186","lat":"31.281060744","category":"500","category_name":"未知分类","address":"上海赤峰路50号"},{"poiid":"B2094757D06BA1FE459F","title":"曲阳第二中学","lon":"121.49568","lat":"31.27895","category":"55","category_name":"中学","address":"上海虹口区玉田路180号(近密云路)"},{"poiid":"B2094654D56CA1FA4798","title":"东北人家饺子王","lon":"121.49623","lat":"31.27874","category":"82","category_name":"东北菜","address":"虹口区密云路353号(近玉田路)"},{"poiid":"B2094757D16FA0F5449A","title":"沪东双语幼儿园","lon":"121.497484","lat":"31.277604","category":"57","category_name":"幼儿园","address":"上海大连西路30弄13号"},{"poiid":"B2094655D26AA3FA4098","title":"婚姻登记处虹口区登记处","lon":"121.4943","lat":"31.27896","category":"247","category_name":"餐饮美食","address":"虹口区玉田路195号(近密云路)"},{"poiid":"B2094654D56CA1F44899","title":"杨浦高级中学游泳池","lon":"121.4991","lat":"31.27673","category":"231","category_name":"游泳馆","address":"杨浦区四平路999号(近大连路)"},{"poiid":"B2094757D06AA6FB439D","title":"同济大学黑暗料理街","lon":"121.50228","lat":"31.28364","category":"68","category_name":"快餐厅","address":"杨浦区四平路1239号同济大学南门外(近同济大学中德学院)"},{"poiid":"B2094757D16CA4F54693","title":"同济大学音乐广场","lon":"121.498366","lat":"31.281004","category":"500","category_name":"未知分类","address":"上海市赤峰路"},{"poiid":"B2094757D46AA7FE4393","title":"宋氏龙虾","lon":"121.49633","lat":"31.28002","category":"68","category_name":"快餐厅","address":"虹口区广灵四路240-1号(近水电路)"},{"poiid":"B2094757D06BA4FA459B","title":"苹果园 大连西路店 Apple Garden","lon":"121.496806054","lat":"31.276330793","category":"112","category_name":"糕饼店","address":"虹口区大连西路50号(密云路口)"},{"poiid":"B2094757D064A3F4429E","title":"854路","lon":"121.49680272","lat":"31.277354667","category":"38","category_name":"公交车站","address":"上海溧阳路到工农新村"},{"poiid":"B2094750DA69A4F9459F","title":"安寿司","lon":"121.498481","lat":"31.277725","category":"95","category_name":"日本料理","address":"虹口区大连西路21号(天宝路口)"},{"poiid":"B2094654D56CA1F44898","title":"二师附小","lon":"121.49959","lat":"31.2766","category":"56","category_name":"小学","address":"大连西路16"},{"poiid":"B2094757D66CA6F4429E","title":"仙霞别墅","lon":"121.496230603","lat":"31.2784245895","category":"47","category_name":"住宅区","address":"上海仙霞路，娄山关路口。"},{"poiid":"B2094654D56CA1FA4799","title":"美国西海岸大学","lon":"121.49609","lat":"31.27933","category":"52","category_name":"高等院校","address":"虹口区密云路375-377"},{"poiid":"B2094757D169A2F8429D","title":"同济大学音乐系(南校区实训楼)","lon":"121.49966683","lat":"31.277998501","category":"52","category_name":"高等院校","address":"上海赤峰路67号，同济大学南校区，实训楼即建筑结构实验室楼、高等技术学院楼"},{"poiid":"B2094654D56CA1F54093","title":"可的(密云路)","lon":"121.49665","lat":"31.27723","category":"117","category_name":"便民商店/便利店","address":"密云路362"},{"poiid":"B2094654DB65A6FD4798","title":"同济大学高等技术学院","lon":"121.49943","lat":"31.27834","category":"52","category_name":"高等院校","address":""},{"poiid":"B2094654DB65A5F9479C","title":"美国西海岸大学(东门)","lon":"121.4962","lat":"31.27929","category":"52","category_name":"高等院校","address":"密云路375-377"},{"poiid":"B2094757D165A5FA4592","title":"猫姬殿","lon":"121.496682","lat":"31.278278","category":"500","category_name":"未知分类","address":null},{"poiid":"B2094757D16AA4FB419C","title":"华翔路沪青平公路","lon":"121.4965993","lat":"31.278317087","category":"500","category_name":"未知分类","address":"上海华翔路沪青平公路口"},{"poiid":"B2094757D16FA0F9479C","title":"黄记烤鸭","lon":"121.49384","lat":"31.27901","category":"68","category_name":"快餐厅","address":"虹口区玉田路260号(近曲阳路)"},{"poiid":"B2094757D16DABF44899","title":"银谷食府","lon":"121.49677","lat":"31.27682","category":"247","category_name":"餐饮美食","address":"上海虹口区密云路374－376号(近玉田路)"},{"poiid":"B2094654D56CA1F5409C","title":"京昌酒店大连店","lon":"121.4967","lat":"31.277","category":"250","category_name":"公园户外","address":"虹口区密云路358号(大连西路密云路)"},{"poiid":"B2094654D56CA1FB489C","title":"交通银行上海分行培训中心","lon":"121.49796","lat":"31.28072","category":"190","category_name":"培训机构","address":"杨浦区赤峰路89号(近同济大学)"},{"poiid":"B2094757D06FA3FE4993","title":"同济大学南校区","lon":"121.500104","lat":"31.2804","category":"52","category_name":"高等院校","address":"上海杨浦区赤峰路67号"},{"poiid":"B2094654DB65A6FD499C","title":"同济大学(南二门)","lon":"121.49676","lat":"31.28203","category":"52","category_name":"高等院校","address":"杨浦区赤峰路200"},{"poiid":"B2094757D06FA4FA449A","title":"同济大学第一教学楼","lon":"121.498786867","lat":"31.2787655687","category":"253","category_name":"校园生活","address":"上海赤峰路67号"},{"poiid":"B2094757D06FA2FC4992","title":"Salabim意式餐厅(赤峰路店)","lon":"121.50036","lat":"31.28033","category":"94","category_name":"西餐厅","address":"上海杨浦区赤峰路70号(近同济大学)"},{"poiid":"B2094757D068A3FE499D","title":"同济大学校医院","lon":"121.50079","lat":"31.28029","category":"162","category_name":"医院","address":"上海杨浦区赤峰路50号(近四平路)  "},{"poiid":"B2094757D06FA6FF4792","title":"同济大学土木工程学院","lon":"121.49913415","lat":"31.281220153","category":"253","category_name":"校园生活","address":"上海杨浦区四平路1239号内"},{"poiid":"B2094757D06FA2F5499E","title":"玉田新村","lon":"121.494806","lat":"31.277934","category":"47","category_name":"住宅区","address":"上海虹口区大连西路96号,玉田路311弄"},{"poiid":"B2094655D26CA1FD499B","title":"同济大学(南一门)","lon":"121.5004","lat":"31.2807","category":"52","category_name":"高等院校","address":"赤峰路50"},{"poiid":"B2094757D06BA7FF4693","title":"同济大学第三教学楼","lon":"121.4954971","lat":"31.280194715","category":"52","category_name":"高等院校","address":"上海赤峰路67号"},{"poiid":"B2094757D06BABFF439C","title":"同济大学中德学院","lon":"121.500404","lat":"31.280711","category":"253","category_name":"校园生活","address":"上海杨浦区四平路1239号同济大学四平路校区"},{"poiid":"B2094655D265A2FC469B","title":"同济大学电影学院实验剧场","lon":"121.49946","lat":"31.27884","category":"180","category_name":"剧场","address":""},{"poiid":"B2094757D069A2FC4093","title":"同济大学南校区体育馆","lon":"121.49941","lat":"31.27931","category":"224","category_name":"综合体育馆","address":"虹口区赤峰路65号同济大学南校区内(近四平路)"},{"poiid":"B2094757D064A6F84098","title":"宝莲大厦","lon":"121.498","lat":"31.2779","category":"46","category_name":"楼宇","address":"珠江新城华穗路与华利路交汇处"},{"poiid":"B2094753D26DA5FB459D","title":"地铁站","lon":"121.497302","lat":"31.277283","category":"36","category_name":"地铁站","address":"上海市 10号线"},{"poiid":"B2094757D16FA1FA459F","title":"大连西路","lon":"121.4972828","lat":"31.276329028","category":"500","category_name":"未知分类","address":"上海大连西路"},{"poiid":"B2094757D06BA4F94098","title":"交行上分培训中心","lon":"121.498069","lat":"31.281133","category":"253","category_name":"校园生活","address":"上海赤峰路89弄"},{"poiid":"B2094654DB6AAAF84298","title":"密云小区","lon":"121.49776","lat":"31.277435","category":"47","category_name":"住宅区","address":"上海市虹口区赤峰路３１７弄"},{"poiid":"B2094757D065A0F9479C","title":"晨兴食府","lon":"121.49651013","lat":"31.278420289","category":"76","category_name":"上海菜","address":"虹口区密云路420号(近玉田路)"},{"poiid":"B2094757D069AAF9469B","title":"罗记川味麻辣烫(密云店)","lon":"121.49667","lat":"31.27828","category":"68","category_name":"快餐厅","address":"虹口区密云路351号(玉田路口)"},{"poiid":"B2094757D664A3FA4099","title":"老刘家 密云路店","lon":"121.49637842741","lat":"31.277647825369","category":"257","category_name":"中餐厅","address":"虹口区密云路475号2楼(近赤峰路)"},{"poiid":"B2094757D168A5F84892","title":"光头湘菜 密云路店","lon":"121.496925054","lat":"31.277058793","category":"77","category_name":"湖南菜","address":"虹口区密云路356号(大连西路口)"},{"poiid":"B2094757D06AA2F5479B","title":"63号设计创意工场","lon":"121.50099945","lat":"31.279600143","category":"190","category_name":"培训机构","address":"虹口区赤峰路63号(近密云路)"},{"poiid":"B2094757D068A2F5429B","title":"振鼎鸡(玉田路店)","lon":"121.49364","lat":"31.27837","category":"68","category_name":"快餐厅","address":"虹口区玉田路260号(近曲阳路)"},{"poiid":"B2094654DB6AAAF8429F","title":"密云小区(西一门)","lon":"121.4966","lat":"31.27913","category":"47","category_name":"住宅区","address":"密云路444弄"},{"poiid":"B2094757D06AA7F54992","title":"老顺昌苏州汤包馆","lon":"121.494729136","lat":"31.2780579315","category":"68","category_name":"快餐厅","address":"虹口区玉田路226号"},{"poiid":"B2094757D16EA2FB499A","title":"同济大学经济与管理学院云通楼","lon":"121.4998186","lat":"31.281060744","category":"500","category_name":"未知分类","address":"上海赤峰路50号"},{"poiid":"B2094757D06BA1FE459F","title":"曲阳第二中学","lon":"121.49568","lat":"31.27895","category":"55","category_name":"中学","address":"上海虹口区玉田路180号(近密云路)"},{"poiid":"B2094654D56CA1FA4798","title":"东北人家饺子王","lon":"121.49623","lat":"31.27874","category":"82","category_name":"东北菜","address":"虹口区密云路353号(近玉田路)"},{"poiid":"B2094757D16FA0F5449A","title":"沪东双语幼儿园","lon":"121.497484","lat":"31.277604","category":"57","category_name":"幼儿园","address":"上海大连西路30弄13号"},{"poiid":"B2094655D26AA3FA4098","title":"婚姻登记处虹口区登记处","lon":"121.4943","lat":"31.27896","category":"247","category_name":"餐饮美食","address":"虹口区玉田路195号(近密云路)"},{"poiid":"B2094654D56CA1F44899","title":"杨浦高级中学游泳池","lon":"121.4991","lat":"31.27673","category":"231","category_name":"游泳馆","address":"杨浦区四平路999号(近大连路)"},{"poiid":"B2094757D06AA6FB439D","title":"同济大学黑暗料理街","lon":"121.50228","lat":"31.28364","category":"68","category_name":"快餐厅","address":"杨浦区四平路1239号同济大学南门外(近同济大学中德学院)"},{"poiid":"B2094757D16CA4F54693","title":"同济大学音乐广场","lon":"121.498366","lat":"31.281004","category":"500","category_name":"未知分类","address":"上海市赤峰路"},{"poiid":"B2094757D46AA7FE4393","title":"宋氏龙虾","lon":"121.49633","lat":"31.28002","category":"68","category_name":"快餐厅","address":"虹口区广灵四路240-1号(近水电路)"},{"poiid":"B2094757D06BA4FA459B","title":"苹果园 大连西路店 Apple Garden","lon":"121.496806054","lat":"31.276330793","category":"112","category_name":"糕饼店","address":"虹口区大连西路50号(密云路口)"},{"poiid":"B2094757D064A3F4429E","title":"854路","lon":"121.49680272","lat":"31.277354667","category":"38","category_name":"公交车站","address":"上海溧阳路到工农新村"},{"poiid":"B2094750DA69A4F9459F","title":"安寿司","lon":"121.498481","lat":"31.277725","category":"95","category_name":"日本料理","address":"虹口区大连西路21号(天宝路口)"},{"poiid":"B2094654D56CA1F44898","title":"二师附小","lon":"121.49959","lat":"31.2766","category":"56","category_name":"小学","address":"大连西路16"},{"poiid":"B2094757D66CA6F4429E","title":"仙霞别墅","lon":"121.496230603","lat":"31.2784245895","category":"47","category_name":"住宅区","address":"上海仙霞路，娄山关路口。"},{"poiid":"B2094654D56CA1FA4799","title":"美国西海岸大学","lon":"121.49609","lat":"31.27933","category":"52","category_name":"高等院校","address":"虹口区密云路375-377"},{"poiid":"B2094757D169A2F8429D","title":"同济大学音乐系(南校区实训楼)","lon":"121.49966683","lat":"31.277998501","category":"52","category_name":"高等院校","address":"上海赤峰路67号，同济大学南校区，实训楼即建筑结构实验室楼、高等技术学院楼"},{"poiid":"B2094654D56CA1F54093","title":"可的(密云路)","lon":"121.49665","lat":"31.27723","category":"117","category_name":"便民商店/便利店","address":"密云路362"},{"poiid":"B2094654DB65A6FD4798","title":"同济大学高等技术学院","lon":"121.49943","lat":"31.27834","category":"52","category_name":"高等院校","address":""},{"poiid":"B2094654DB65A5F9479C","title":"美国西海岸大学(东门)","lon":"121.4962","lat":"31.27929","category":"52","category_name":"高等院校","address":"密云路375-377"},{"poiid":"B2094757D165A5FA4592","title":"猫姬殿","lon":"121.496682","lat":"31.278278","category":"500","category_name":"未知分类","address":null},{"poiid":"B2094757D16AA4FB419C","title":"华翔路沪青平公路","lon":"121.4965993","lat":"31.278317087","category":"500","category_name":"未知分类","address":"上海华翔路沪青平公路口"},{"poiid":"B2094757D16FA0F9479C","title":"黄记烤鸭","lon":"121.49384","lat":"31.27901","category":"68","category_name":"快餐厅","address":"虹口区玉田路260号(近曲阳路)"},{"poiid":"B2094757D16DABF44899","title":"银谷食府","lon":"121.49677","lat":"31.27682","category":"247","category_name":"餐饮美食","address":"上海虹口区密云路374－376号(近玉田路)"},{"poiid":"B2094654D56CA1F5409C","title":"京昌酒店大连店","lon":"121.4967","lat":"31.277","category":"250","category_name":"公园户外","address":"虹口区密云路358号(大连西路密云路)"},{"poiid":"B2094654D56CA1FB489C","title":"交通银行上海分行培训中心","lon":"121.49796","lat":"31.28072","category":"190","category_name":"培训机构","address":"杨浦区赤峰路89号(近同济大学)"},{"poiid":"B2094757D06FA3FE4993","title":"同济大学南校区","lon":"121.500104","lat":"31.2804","category":"52","category_name":"高等院校","address":"上海杨浦区赤峰路67号"},{"poiid":"B2094654DB65A6FD499C","title":"同济大学(南二门)","lon":"121.49676","lat":"31.28203","category":"52","category_name":"高等院校","address":"杨浦区赤峰路200"},{"poiid":"B2094757D06FA4FA449A","title":"同济大学第一教学楼","lon":"121.498786867","lat":"31.2787655687","category":"253","category_name":"校园生活","address":"上海赤峰路67号"},{"poiid":"B2094757D06FA2FC4992","title":"Salabim意式餐厅(赤峰路店)","lon":"121.50036","lat":"31.28033","category":"94","category_name":"西餐厅","address":"上海杨浦区赤峰路70号(近同济大学)"},{"poiid":"B2094757D068A3FE499D","title":"同济大学校医院","lon":"121.50079","lat":"31.28029","category":"162","category_name":"医院","address":"上海杨浦区赤峰路50号(近四平路)  "},{"poiid":"B2094757D06FA6FF4792","title":"同济大学土木工程学院","lon":"121.49913415","lat":"31.281220153","category":"253","category_name":"校园生活","address":"上海杨浦区四平路1239号内"},{"poiid":"B2094757D06FA2F5499E","title":"玉田新村","lon":"121.494806","lat":"31.277934","category":"47","category_name":"住宅区","address":"上海虹口区大连西路96号,玉田路311弄"},{"poiid":"B2094655D26CA1FD499B","title":"同济大学(南一门)","lon":"121.5004","lat":"31.2807","category":"52","category_name":"高等院校","address":"赤峰路50"},{"poiid":"B2094757D06BA7FF4693","title":"同济大学第三教学楼","lon":"121.4954971","lat":"31.280194715","category":"52","category_name":"高等院校","address":"上海赤峰路67号"},{"poiid":"B2094757D06BABFF439C","title":"同济大学中德学院","lon":"121.500404","lat":"31.280711","category":"253","category_name":"校园生活","address":"上海杨浦区四平路1239号同济大学四平路校区"},{"poiid":"B2094655D265A2FC469B","title":"同济大学电影学院实验剧场","lon":"121.49946","lat":"31.27884","category":"180","category_name":"剧场","address":""},{"poiid":"B2094757D069A2FC4093","title":"同济大学南校区体育馆","lon":"121.49941","lat":"31.27931","category":"224","category_name":"综合体育馆","address":"虹口区赤峰路65号同济大学南校区内(近四平路)"},{"poiid":"B2094757D064A6F84098","title":"宝莲大厦","lon":"121.498","lat":"31.2779","category":"46","category_name":"楼宇","address":"珠江新城华穗路与华利路交汇处"},{"poiid":"B2094753D26DA5FB459D","title":"地铁站","lon":"121.497302","lat":"31.277283","category":"36","category_name":"地铁站","address":"上海市 10号线"},{"poiid":"B2094757D16FA1FA459F","title":"大连西路","lon":"121.4972828","lat":"31.276329028","category":"500","category_name":"未知分类","address":"上海大连西路"},{"poiid":"B2094757D06BA4F94098","title":"交行上分培训中心","lon":"121.498069","lat":"31.281133","category":"253","category_name":"校园生活","address":"上海赤峰路89弄"},{"poiid":"B2094654DB6AAAF84298","title":"密云小区","lon":"121.49776","lat":"31.277435","category":"47","category_name":"住宅区","address":"上海市虹口区赤峰路３１７弄"},{"poiid":"B2094757D065A0F9479C","title":"晨兴食府","lon":"121.49651013","lat":"31.278420289","category":"76","category_name":"上海菜","address":"虹口区密云路420号(近玉田路)"},{"poiid":"B2094757D069AAF9469B","title":"罗记川味麻辣烫(密云店)","lon":"121.49667","lat":"31.27828","category":"68","category_name":"快餐厅","address":"虹口区密云路351号(玉田路口)"},{"poiid":"B2094757D664A3FA4099","title":"老刘家 密云路店","lon":"121.49637842741","lat":"31.277647825369","category":"257","category_name":"中餐厅","address":"虹口区密云路475号2楼(近赤峰路)"},{"poiid":"B2094757D168A5F84892","title":"光头湘菜 密云路店","lon":"121.496925054","lat":"31.277058793","category":"77","category_name":"湖南菜","address":"虹口区密云路356号(大连西路口)"},{"poiid":"B2094757D06AA2F5479B","title":"63号设计创意工场","lon":"121.50099945","lat":"31.279600143","category":"190","category_name":"培训机构","address":"虹口区赤峰路63号(近密云路)"},{"poiid":"B2094757D068A2F5429B","title":"振鼎鸡(玉田路店)","lon":"121.49364","lat":"31.27837","category":"68","category_name":"快餐厅","address":"虹口区玉田路260号(近曲阳路)"},{"poiid":"B2094654DB6AAAF8429F","title":"密云小区(西一门)","lon":"121.4966","lat":"31.27913","category":"47","category_name":"住宅区","address":"密云路444弄"},{"poiid":"B2094757D06AA7F54992","title":"老顺昌苏州汤包馆","lon":"121.494729136","lat":"31.2780579315","category":"68","category_name":"快餐厅","address":"虹口区玉田路226号"},{"poiid":"B2094757D16EA2FB499A","title":"同济大学经济与管理学院云通楼","lon":"121.4998186","lat":"31.281060744","category":"500","category_name":"未知分类","address":"上海赤峰路50号"},{"poiid":"B2094757D06BA1FE459F","title":"曲阳第二中学","lon":"121.49568","lat":"31.27895","category":"55","category_name":"中学","address":"上海虹口区玉田路180号(近密云路)"},{"poiid":"B2094654D56CA1FA4798","title":"东北人家饺子王","lon":"121.49623","lat":"31.27874","category":"82","category_name":"东北菜","address":"虹口区密云路353号(近玉田路)"},{"poiid":"B2094757D16FA0F5449A","title":"沪东双语幼儿园","lon":"121.497484","lat":"31.277604","category":"57","category_name":"幼儿园","address":"上海大连西路30弄13号"},{"poiid":"B2094655D26AA3FA4098","title":"婚姻登记处虹口区登记处","lon":"121.4943","lat":"31.27896","category":"247","category_name":"餐饮美食","address":"虹口区玉田路195号(近密云路)"},{"poiid":"B2094654D56CA1F44899","title":"杨浦高级中学游泳池","lon":"121.4991","lat":"31.27673","category":"231","category_name":"游泳馆","address":"杨浦区四平路999号(近大连路)"},{"poiid":"B2094757D06AA6FB439D","title":"同济大学黑暗料理街","lon":"121.50228","lat":"31.28364","category":"68","category_name":"快餐厅","address":"杨浦区四平路1239号同济大学南门外(近同济大学中德学院)"},{"poiid":"B2094757D16CA4F54693","title":"同济大学音乐广场","lon":"121.498366","lat":"31.281004","category":"500","category_name":"未知分类","address":"上海市赤峰路"},{"poiid":"B2094757D46AA7FE4393","title":"宋氏龙虾","lon":"121.49633","lat":"31.28002","category":"68","category_name":"快餐厅","address":"虹口区广灵四路240-1号(近水电路)"},{"poiid":"B2094757D06BA4FA459B","title":"苹果园 大连西路店 Apple Garden","lon":"121.496806054","lat":"31.276330793","category":"112","category_name":"糕饼店","address":"虹口区大连西路50号(密云路口)"},{"poiid":"B2094757D064A3F4429E","title":"854路","lon":"121.49680272","lat":"31.277354667","category":"38","category_name":"公交车站","address":"上海溧阳路到工农新村"},{"poiid":"B2094750DA69A4F9459F","title":"安寿司","lon":"121.498481","lat":"31.277725","category":"95","category_name":"日本料理","address":"虹口区大连西路21号(天宝路口)"},{"poiid":"B2094654D56CA1F44898","title":"二师附小","lon":"121.49959","lat":"31.2766","category":"56","category_name":"小学","address":"大连西路16"},{"poiid":"B2094757D66CA6F4429E","title":"仙霞别墅","lon":"121.496230603","lat":"31.2784245895","category":"47","category_name":"住宅区","address":"上海仙霞路，娄山关路口。"},{"poiid":"B2094654D56CA1FA4799","title":"美国西海岸大学","lon":"121.49609","lat":"31.27933","category":"52","category_name":"高等院校","address":"虹口区密云路375-377"},{"poiid":"B2094757D169A2F8429D","title":"同济大学音乐系(南校区实训楼)","lon":"121.49966683","lat":"31.277998501","category":"52","category_name":"高等院校","address":"上海赤峰路67号，同济大学南校区，实训楼即建筑结构实验室楼、高等技术学院楼"},{"poiid":"B2094654D56CA1F54093","title":"可的(密云路)","lon":"121.49665","lat":"31.27723","category":"117","category_name":"便民商店/便利店","address":"密云路362"},{"poiid":"B2094654DB65A6FD4798","title":"同济大学高等技术学院","lon":"121.49943","lat":"31.27834","category":"52","category_name":"高等院校","address":""},{"poiid":"B2094654DB65A5F9479C","title":"美国西海岸大学(东门)","lon":"121.4962","lat":"31.27929","category":"52","category_name":"高等院校","address":"密云路375-377"},{"poiid":"B2094757D165A5FA4592","title":"猫姬殿","lon":"121.496682","lat":"31.278278","category":"500","category_name":"未知分类","address":null},{"poiid":"B2094757D16AA4FB419C","title":"华翔路沪青平公路","lon":"121.4965993","lat":"31.278317087","category":"500","category_name":"未知分类","address":"上海华翔路沪青平公路口"},{"poiid":"B2094757D16FA0F9479C","title":"黄记烤鸭","lon":"121.49384","lat":"31.27901","category":"68","category_name":"快餐厅","address":"虹口区玉田路260号(近曲阳路)"},{"poiid":"B2094757D16DABF44899","title":"银谷食府","lon":"121.49677","lat":"31.27682","category":"247","category_name":"餐饮美食","address":"上海虹口区密云路374－376号(近玉田路)"},{"poiid":"B2094654D56CA1F5409C","title":"京昌酒店大连店","lon":"121.4967","lat":"31.277","category":"250","category_name":"公园户外","address":"虹口区密云路358号(大连西路密云路)"},{"poiid":"B2094654D56CA1FB489C","title":"交通银行上海分行培训中心","lon":"121.49796","lat":"31.28072","category":"190","category_name":"培训机构","address":"杨浦区赤峰路89号(近同济大学)"}]