[{"poiid":"B2094654DA6FA5F8429A","title":"宏伊国际广场","lon":"121.491","lat":"31.2427","category":"46","category_name":"楼宇","address":"张杨路560号,张杨路620号"},{"poiid":"B2094757D66DA7F4469B","title":"外滩","lon":"121.490535738","lat":"31.2383514732","category":"240","category_name":"国家级景点","address":"上海市中心区黄浦江畔"},{"poiid":"B2094654DA6FA7FD4993","title":"上海国际会议中心(Shanghai International Conference Center)","lon":"121.49694","lat":"31.23946","category":"185","category_name":"会展中心","address":"浦东新区滨江大道2727号(近丰和路)"},{"poiid":"B209475CD564A7F84292","title":"上海滩新天地店","lon":"121.47463","lat":"31.22164","category":"119","category_name":"商场","address":"\"太仓路181弄新天地北里15号\r\n\""},{"poiid":"B209475CD564A7F84392","title":"上海滩浦东香格里拉店","lon":"121.50058","lat":"31.23634","category":"119","category_name":"商场","address":"浦东富成路33号香格里拉酒店内大堂层"},{"poiid":"B2094654DA6FAAF84098","title":"外滩中心","lon":"121.494","lat":"31.238","category":"46","category_name":"楼宇","address":"上海黄浦区延安东路222号"},{"poiid":"B2094654DB65A2FF469A","title":"外白渡桥","lon":"121.49018","lat":"31.24281","category":"250","category_name":"公园户外","address":"上海黄浦区大名路(苏州河上)"},{"poiid":"B2094757D06EAAFB419B","title":"罗斯福会所 The House of Roosevelt","lon":"121.49012383","lat":"31.240403643","category":"94","category_name":"西餐厅","address":"黄浦区中山东一路27号罗斯福8楼"},{"poiid":"B2094757D06FA2FF4893","title":"海鸥舫","lon":"121.49586","lat":"31.23816","category":"76","category_name":"上海菜","address":"浦东新区滨江大道2852号(滨江花园内)"},{"poiid":"B2094757D064A5FD4593","title":"外灘","lon":"121.49375073","lat":"31.240939528","category":"500","category_name":"未知分类","address":"上海市黄浦区南苏州路"},{"poiid":"B2094757D06FA2FA419C","title":"非常时髦酒吧","lon":"121.49312","lat":"31.24427","category":"260","category_name":"其他","address":"虹口区黄浦路199号上海外滩茂悦大酒店西楼32楼(近武昌路)"},{"poiid":"B2094757D06FA7F5479A","title":"海鸥饭店","lon":"121.49201","lat":"31.24348","category":"217","category_name":"旅馆招待所","address":"上海市虹口区黄浦路60号(外滩地区,近北苏州路)"},{"poiid":"B2094757D06FA1FD439B","title":"COSTA COFFEE(新外滩店)","lon":"121.490879","lat":"31.240587","category":"65","category_name":"咖啡厅","address":"黄浦区中山东一路388号(北京东路口)"},{"poiid":"B2094757D06FA1FC439D","title":"Bar Rouge","lon":"121.49011","lat":"31.2386","category":"260","category_name":"其他","address":"黄浦区中山东一路18号外滩18号7楼(近南京东路)"},{"poiid":"B2094757D06FA4FA429D","title":"小南国(国际会议中心店)","lon":"121.496985714","lat":"31.2393948139","category":"76","category_name":"上海菜","address":"浦东新区滨江大道2727号国际会议中心7楼(近东方明珠电视塔)"},{"poiid":"B2094750D464A6F94792","title":"星巴克","lon":"121.490264","lat":"31.240295","category":"247","category_name":"餐饮美食","address":"黄浦区中山东一路363号(近北京东路)"},{"poiid":"B2094654DB6AA0FF409B","title":"海鸥滨江观景餐厅","lon":"121.49178","lat":"31.24379","category":"91","category_name":"台湾菜","address":"虹口区黄浦路60号海鸥饭店外防汛墙上(近苏州路)"},{"poiid":"B2094757D06FA2F5489C","title":"中国银行(上海市分行营业部)","lon":"121.489781","lat":"31.239521","category":"150","category_name":"银行","address":"上海市黄浦区中山东一路23号"},{"poiid":"B2094757D06BABFB449A","title":"Shook！上海","lon":"121.49010773","lat":"31.238661479","category":"94","category_name":"西餐厅","address":"黄浦区南京东路23号5-6楼(外滩19号)"},{"poiid":"B2094655D26DA3FF489B","title":"外滩12号大楼","lon":"121.497","lat":"31.2418","category":"46","category_name":"楼宇","address":"黄浦区中山东一路12号"},{"poiid":"B2094757D069A2FA419B","title":"哈根达斯(外滩店)","lon":"121.49029","lat":"31.23784","category":"113","category_name":"冷饮店","address":"黄浦区中山东一路365号(近九江路)"},{"poiid":"B2094757D468A4FC4598","title":"艾利爵士餐厅 Sir Elly's Restaurant & Bar","lon":"121.490123054","lat":"31.240919793","category":"97","category_name":"法式菜品餐厅","address":"黄浦区中山东一路32号半岛酒店13楼(近北京东路)"},{"poiid":"B2094757D16CA4FE469A","title":"罗斯福9楼露天酒吧","lon":"121.49195883","lat":"31.237938814","category":"172","category_name":"酒吧","address":"上海外滩27号"},{"poiid":"B2094757D169ABFF409D","title":"枫雅日本料理","lon":"121.495364738","lat":"31.2381594691","category":"95","category_name":"日本料理","address":"浦东新区陆家嘴西路2967号北滨江B座(近滨江大道)"},{"poiid":"B2094757D16AA6FE4393","title":"海鸥坊","lon":"121.493078738","lat":"31.2429645715","category":"500","category_name":"未知分类","address":"上海陆家嘴滨江大道"},{"poiid":"B2094757DB6FA2FF419C","title":"避風塘","lon":"121.4943869958333","lat":"31.23857748583332","category":"500","category_name":"未知分类","address":"正大廣場"},{"poiid":"B2094654DA6FA7FD499F","title":"东方明珠游船码头","lon":"121.49693","lat":"31.24078","category":"34","category_name":"港口码头","address":"滨江大道2852号"},{"poiid":"B2094757D06FA3F9419B","title":"外滩70号","lon":"121.491915686","lat":"31.2439247339","category":"47","category_name":"住宅区","address":"虹口区黄浦路70号(海鸥饭店旁)"},{"poiid":"B2094757D06FA2FD4298","title":"上海陈毅广场","lon":"121.490514434","lat":"31.2389924275","category":"250","category_name":"公园户外","address":"黄浦区中山东一路外滩(近南京东路)"},{"poiid":"B2094752DA6DA0F8499D","title":"星期五餐厅Friday","lon":"121.493575","lat":"31.238085","category":"247","category_name":"餐饮美食","address":"上海浦东陆家嘴富城路16号"},{"poiid":"B2094655D26EAAF4479C","title":"仙踪林(滨江店)","lon":"121.4957","lat":"31.23923","category":"247","category_name":"餐饮美食","address":"浦东新区陆家嘴西路2967号北滨江大道A座(丰和路陆家嘴西路)"},{"poiid":"B2094757DA6AAAF54598","title":"Matto","lon":"121.4938641230534","lat":"31.23920718760844","category":"247","category_name":"餐饮美食","address":"浦东正大广场1楼"},{"poiid":"B2094655D26BA4FD489D","title":"中行大楼","lon":"121.48978","lat":"31.23953","category":"46","category_name":"楼宇","address":"重庆北部新区金渝大道89号(北部新区管委会对面)"},{"poiid":"B2094654DA6FA5FA4499","title":"解放日报大厦","lon":"121.491","lat":"31.2418","category":"46","category_name":"楼宇","address":"铁西兴华南街与十马路交汇处"},{"poiid":"B2094757D069A3F8409A","title":"中央大厦","lon":"121.49451437013","lat":"31.24349460374","category":"46","category_name":"楼宇","address":"上海市四川中路321号"},{"poiid":"B2094751D268A4FC4798","title":"罗斯福八楼色戒餐厅酒吧","lon":"121.489883","lat":"31.240287","category":"247","category_name":"餐饮美食","address":"黄浦区中山东一路27号"},{"poiid":"B2094757D068A4FB4692","title":"外滩观光隧道","lon":"121.49087","lat":"31.23984","category":"260","category_name":"其他","address":"黄浦区外滩中山东一路300号(外滩与陆家嘴间)"},{"poiid":"B2094750DB69AAFF4398","title":"全景会所","lon":"121.493553","lat":"31.244453","category":"248","category_name":"生活娱乐","address":"黄埔路108号"},{"poiid":"B2094757D76AA1F8469A","title":"半岛茶座","lon":"121.490114054","lat":"31.240935793","category":"99","category_name":"泰国／越南菜品餐厅","address":"黄浦区中山东一路32号半岛酒店2楼(近北京东路)"},{"poiid":"B2094757D068A5F54292","title":"人民英雄纪念塔","lon":"121.49044","lat":"31.24202","category":"260","category_name":"其他","address":"黄浦区中山东一路500号黄浦公园(近黄浦公园)"},{"poiid":"B2094757D06BA3FD4499","title":"俄罗斯驻上海总领事馆","lon":"121.49113","lat":"31.24361","category":"179","category_name":"音乐厅","address":"虹口区黄浦路20号(黄浦路金山路)"},{"poiid":"B2094654DA6FA4F8429B","title":"中国工商银行上海市分行营业部","lon":"121.48982","lat":"31.23983","category":"150","category_name":"银行","address":"中山东一路24"},{"poiid":"B2094757D16CA3FE469A","title":"外滩18号十八空间Space18","lon":"121.490429722","lat":"31.240429529","category":"184","category_name":"美术馆","address":"中山东一路18号外滩18号(近南京东路)"},{"poiid":"B2094752D364A4FE4298","title":"家有好面(南京东路店)","lon":"121.49277","lat":"31.2376","category":"68","category_name":"快餐厅","address":"黄浦区南京东路720号第一食品3楼(近贵州路)"},{"poiid":"B2094753D26EA7FB439D","title":"信不信由你博物馆","lon":"121.493258","lat":"31.240333","category":"500","category_name":"未知分类","address":"上海市 上海市浦东新区滨江大道2789号外滩观光隧道B2楼"},{"poiid":"B209475DD664A2F4499C","title":"paris rouge","lon":"121.492179","lat":"31.240259","category":"247","category_name":"餐饮美食","address":"上海市 圆明园路133号1楼"},{"poiid":"B2094750DB6EA6F8429A","title":"上海苏荷国际青年旅舍外滩店","lon":"121.494377","lat":"31.244222","category":"251","category_name":"出行住宿","address":"虹口区大名路239号(近南浔路)"},{"poiid":"B2094654DA6FABFB409B","title":"福州大楼","lon":"121.494","lat":"31.2407","category":"46","category_name":"楼宇","address":"上海黄浦区江西中路170号(福州路口)"},{"poiid":"B2094751D56AA2FD419E","title":"广州焦叶","lon":"121.4931247","lat":"31.2409539","category":"500","category_name":"未知分类","address":"正大广场"},{"poiid":"B2094757D069A6FE4593","title":"Lounge 18","lon":"121.48999","lat":"31.23888","category":"184","category_name":"美术馆","address":"黄浦区中山东一路18号外滩18号4楼(近南京东路)"},{"poiid":"B2094654DA6FA5F8429A","title":"宏伊国际广场","lon":"121.491","lat":"31.2427","category":"46","category_name":"楼宇","address":"张杨路560号,张杨路620号"},{"poiid":"B2094757D66DA7F4469B","title":"外滩","lon":"121.490535738","lat":"31.2383514732","category":"240","category_name":"国家级景点","address":"上海市中心区黄浦江畔"},{"poiid":"B2094654DA6FA7FD4993","title":"上海国际会议中心(Shanghai International Conference Center)","lon":"121.49694","lat":"31.23946","category":"185","category_name":"会展中心","address":"浦东新区滨江大道2727号(近丰和路)"},{"poiid":"B209475CD564A7F84292","title":"上海滩新天地店","lon":"121.47463","lat":"31.22164","category":"119","category_name":"商场","address":"\"太仓路181弄新天地北里15号\r\n\""},{"poiid":"B209475CD564A7F84392","title":"上海滩浦东香格里拉店","lon":"121.50058","lat":"31.23634","category":"119","category_name":"商场","address":"浦东富成路33号香格里拉酒店内大堂层"},{"poiid":"B2094654DA6FAAF84098","title":"外滩中心","lon":"121.494","lat":"31.238","category":"46","category_name":"楼宇","address":"上海黄浦区延安东路222号"},{"poiid":"B2094654DB65A2FF469A","title":"外白渡桥","lon":"121.49018","lat":"31.24281","category":"250","category_name":"公园户外","address":"上海黄浦区大名路(苏州河上)"},{"poiid":"B2094757D06EAAFB419B","title":"罗斯福会所 The House of Roosevelt","lon":"121.49012383","lat":"31.240403643","category":"94","category_name":"西餐厅","address":"黄浦区中山东一路27号罗斯福8楼"},{"poiid":"B2094757D06FA2FF4893","title":"海鸥舫","lon":"121.49586","lat":"31.23816","category":"76","category_name":"上海菜","address":"浦东新区滨江大道2852号(滨江花园内)"},{"poiid":"B2094757D064A5FD4593","title":"外灘","lon":"121.49375073","lat":"31.240939528","category":"500","category_name":"未知分类","address":"上海市黄浦区南苏州路"},{"poiid":"B2094757D06FA2FA419C","title":"非常时髦酒吧","lon":"121.49312","lat":"31.24427","category":"260","category_name":"其他","address":"虹口区黄浦路199号上海外滩茂悦大酒店西楼32楼(近武昌路)"},{"poiid":"B2094757D06FA7F5479A","title":"海鸥饭店","lon":"121.49201","lat":"31.24348","category":"217","category_name":"旅馆招待所","address":"上海市虹口区黄浦路60号(外滩地区,近北苏州路)"},{"poiid":"B2094757D06FA1FD439B","title":"COSTA COFFEE(新外滩店)","lon":"121.490879","lat":"31.240587","category":"65","category_name":"咖啡厅","address":"黄浦区中山东一路388号(北京东路口)"},{"poiid":"B2094757D06FA1FC439D","title":"Bar Rouge","lon":"121.49011","lat":"31.2386","category":"260","category_name":"其他","address":"黄浦区中山东一路18号外滩18号7楼(近南京东路)"},{"poiid":"B2094757D06FA4FA429D","title":"小南国(国际会议中心店)","lon":"121.496985714","lat":"31.2393948139","category":"76","category_name":"上海菜","address":"浦东新区滨江大道2727号国际会议中心7楼(近东方明珠电视塔)"},{"poiid":"B2094750D464A6F94792","title":"星巴克","lon":"121.490264","lat":"31.240295","category":"247","category_name":"餐饮美食","address":"黄浦区中山东一路363号(近北京东路)"},{"poiid":"B2094654DB6AA0FF409B","title":"海鸥滨江观景餐厅","lon":"121.49178","lat":"31.24379","category":"91","category_name":"台湾菜","address":"虹口区黄浦路60号海鸥饭店外防汛墙上(近苏州路)"},{"poiid":"B2094757D06FA2F5489C","title":"中国银行(上海市分行营业部)","lon":"121.489781","lat":"31.239521","category":"150","category_name":"银行","address":"上海市黄浦区中山东一路23号"},{"poiid":"B2094757D06BABFB449A","title":"Shook！上海","lon":"121.49010773","lat":"31.238661479","category":"94","category_name":"西餐厅","address":"黄浦区南京东路23号5-6楼(外滩19号)"},{"poiid":"B2094655D26DA3FF489B","title":"外滩12号大楼","lon":"121.497","lat":"31.2418","category":"46","category_name":"楼宇","address":"黄浦区中山东一路12号"},{"poiid":"B2094757D069A2FA419B","title":"哈根达斯(外滩店)","lon":"121.49029","lat":"31.23784","category":"113","category_name":"冷饮店","address":"黄浦区中山东一路365号(近九江路)"},{"poiid":"B2094757D468A4FC4598","title":"艾利爵士餐厅 Sir Elly's Restaurant & Bar","lon":"121.490123054","lat":"31.240919793","category":"97","category_name":"法式菜品餐厅","address":"黄浦区中山东一路32号半岛酒店13楼(近北京东路)"},{"poiid":"B2094757D16CA4FE469A","title":"罗斯福9楼露天酒吧","lon":"121.49195883","lat":"31.237938814","category":"172","category_name":"酒吧","address":"上海外滩27号"},{"poiid":"B2094757D169ABFF409D","title":"枫雅日本料理","lon":"121.495364738","lat":"31.2381594691","category":"95","category_name":"日本料理","address":"浦东新区陆家嘴西路2967号北滨江B座(近滨江大道)"},{"poiid":"B2094757D16AA6FE4393","title":"海鸥坊","lon":"121.493078738","lat":"31.2429645715","category":"500","category_name":"未知分类","address":"上海陆家嘴滨江大道"},{"poiid":"B2094757DB6FA2FF419C","title":"避風塘","lon":"121.4943869958333","lat":"31.23857748583332","category":"500","category_name":"未知分类","address":"正大廣場"},{"poiid":"B2094654DA6FA7FD499F","title":"东方明珠游船码头","lon":"121.49693","lat":"31.24078","category":"34","category_name":"港口码头","address":"滨江大道2852号"},{"poiid":"B2094757D06FA3F9419B","title":"外滩70号","lon":"121.491915686","lat":"31.2439247339","category":"47","category_name":"住宅区","address":"虹口区黄浦路70号(海鸥饭店旁)"},{"poiid":"B2094757D06FA2FD4298","title":"上海陈毅广场","lon":"121.490514434","lat":"31.2389924275","category":"250","category_name":"公园户外","address":"黄浦区中山东一路外滩(近南京东路)"},{"poiid":"B2094752DA6DA0F8499D","title":"星期五餐厅Friday","lon":"121.493575","lat":"31.238085","category":"247","category_name":"餐饮美食","address":"上海浦东陆家嘴富城路16号"},{"poiid":"B2094655D26EAAF4479C","title":"仙踪林(滨江店)","lon":"121.4957","lat":"31.23923","category":"247","category_name":"餐饮美食","address":"浦东新区陆家嘴西路2967号北滨江大道A座(丰和路陆家嘴西路)"},{"poiid":"B2094757DA6AAAF54598","title":"Matto","lon":"121.4938641230534","lat":"31.23920718760844","category":"247","category_name":"餐饮美食","address":"浦东正大广场1楼"},{"poiid":"B2094655D26BA4FD489D","title":"中行大楼","lon":"121.48978","lat":"31.23953","category":"46","category_name":"楼宇","address":"重庆北部新区金渝大道89号(北部新区管委会对面)"},{"poiid":"B2094654DA6FA5FA4499","title":"解放日报大厦","lon":"121.491","lat":"31.2418","category":"46","category_name":"楼宇","address":"铁西兴华南街与十马路交汇处"},{"poiid":"B2094757D069A3F8409A","title":"中央大厦","lon":"121.49451437013","lat":"31.24349460374","category":"46","category_name":"楼宇","address":"上海市四川中路321号"},{"poiid":"B2094751D268A4FC4798","title":"罗斯福八楼色戒餐厅酒吧","lon":"121.489883","lat":"31.240287","category":"247","category_name":"餐饮美食","address":"黄浦区中山东一路27号"},{"poiid":"B2094757D068A4FB4692","title":"外滩观光隧道","lon":"121.49087","lat":"31.23984","category":"260","category_name":"其他","address":"黄浦区外滩中山东一路300号(外滩与陆家嘴间)"},{"poiid":"B2094750DB69AAFF4398","title":"全景会所","lon":"121.493553","lat":"31.244453","category":"248","category_name":"生活娱乐","address":"黄埔路108号"},{"poiid":"B2094757D76AA1F8469A","title":"半岛茶座","lon":"121.490114054","lat":"31.240935793","category":"99","category_name":"泰国／越南菜品餐厅","address":"黄浦区中山东一路32号半岛酒店2楼(近北京东路)"},{"poiid":"B2094757D068A5F54292","title":"人民英雄纪念塔","lon":"121.49044","lat":"31.24202","category":"260","category_name":"其他","address":"黄浦区中山东一路500号黄浦公园(近黄浦公园)"},{"poiid":"B2094757D06BA3FD4499","title":"俄罗斯驻上海总领事馆","lon":"121.49113","lat":"31.24361","category":"179","category_name":"音乐厅","address":"虹口区黄浦路20号(黄浦路金山路)"},{"poiid":"B2094654DA6FA4F8429B","title":"中国工商银行上海市分行营业部","lon":"121.48982","lat":"31.23983","category":"150","category_name":"银行","address":"中山东一路24"},{"poiid":"B2094757D16CA3FE469A","title":"外滩18号十八空间Space18","lon":"121.490429722","lat":"31.240429529","category":"184","category_name":"美术馆","address":"中山东一路18号外滩18号(近南京东路)"},{"poiid":"B2094752D364A4FE4298","title":"家有好面(南京东路店)","lon":"121.49277","lat":"31.2376","category":"68","category_name":"快餐厅","address":"黄浦区南京东路720号第一食品3楼(近贵州路)"},{"poiid":"B2094753D26EA7FB439D","title":"信不信由你博物馆","lon":"121.493258","lat":"31.240333","category":"500","category_name":"未知分类","address":"上海市 上海市浦东新区滨江大道2789号外滩观光隧道B2楼"},{"poiid":"B209475DD664A2F4499C","title":"paris rouge","lon":"121.492179","lat":"31.240259","category":"247","category_name":"餐饮美食","address":"上海市 圆明园路133号1楼"},{"poiid":"B2094750DB6EA6F8429A","title":"上海苏荷国际青年旅舍外滩店","lon":"121.494377","lat":"31.244222","category":"251","category_name":"出行住宿","address":"虹口区大名路239号(近南浔路)"},{"poiid":"B2094654DA6FABFB409B","title":"福州大楼","lon":"121.494","lat":"31.2407","category":"46","category_name":"楼宇","address":"上海黄浦区江西中路170号(福州路口)"},{"poiid":"B2094751D56AA2FD419E","title":"广州焦叶","lon":"121.4931247","lat":"31.2409539","category":"500","category_name":"未知分类","address":"正大广场"},{"poiid":"B2094757D069A6FE4593","title":"Lounge 18","lon":"121.48999","lat":"31.23888","category":"184","category_name":"美术馆","address":"黄浦区中山东一路18号外滩18号4楼(近南京东路)"},{"poiid":"B2094654DA6FA5F8429A","title":"宏伊国际广场","lon":"121.491","lat":"31.2427","category":"46","category_name":"楼宇","address":"张杨路560号,张杨路620号"},{"poiid":"B2094757D66DA7F4469B","title":"外滩","lon":"121.490535738","lat":"31.2383514732","category":"240","category_name":"国家级景点","address":"上海市中心区黄浦江畔"},{"poiid":"B2094654DA6FA7FD4993","title":"上海国际会议中心(Shanghai International Conference Center)","lon":"121.49694","lat":"31.23946","category":"185","category_name":"会展中心","address":"浦东新区滨江大道2727号(近丰和路)"},{"poiid":"B209475CD564A7F84292","title":"上海滩新天地店","lon":"121.47463","lat":"31.22164","category":"119","category_name":"商场","address":"\"太仓路181弄新天地北里15号\r\n\""},{"poiid":"B209475CD564A7F84392","title":"上海滩浦东香格里拉店","lon":"121.50058","lat":"31.23634","category":"119","category_name":"商场","address":"浦东富成路33号香格里拉酒店内大堂层"},{"poiid":"B2094654DA6FAAF84098","title":"外滩中心","lon":"121.494","lat":"31.238","category":"46","category_name":"楼宇","address":"上海黄浦区延安东路222号"},{"poiid":"B2094654DB65A2FF469A","title":"外白渡桥","lon":"121.49018","lat":"31.24281","category":"250","category_name":"公园户外","address":"上海黄浦区大名路(苏州河上)"},{"poiid":"B2094757D06EAAFB419B","title":"罗斯福会所 The House of Roosevelt","lon":"121.49012383","lat":"31.240403643","category":"94","category_name":"西餐厅","address":"黄浦区中山东一路27号罗斯福8楼"},{"poiid":"B2094757D06FA2FF4893","title":"海鸥舫","lon":"121.49586","lat":"31.23816","category":"76","category_name":"上海菜","address":"浦东新区滨江大道2852号(滨江花园内)"},{"poiid":"B2094757D064A5FD4593","title":"外灘","lon":"121.49375073","lat":"31.240939528","category":"500","category_name":"未知分类","address":"上海市黄浦区南苏州路"},{"poiid":"B2094757D06FA2FA419C","title":"非常时髦酒吧","lon":"121.49312","lat":"31.24427","category":"260","category_name":"其他","address":"虹口区黄浦路199号上海外滩茂悦大酒店西楼32楼(近武昌路)"},{"poiid":"B2094757D06FA7F5479A","title":"海鸥饭店","lon":"121.49201","lat":"31.24348","category":"217","category_name":"旅馆招待所","address":"上海市虹口区黄浦路60号(外滩地区,近北苏州路)"},{"poiid":"B2094757D06FA1FD439B","title":"COSTA COFFEE(新外滩店)","lon":"121.490879","lat":"31.240587","category":"65","category_name":"咖啡厅","address":"黄浦区中山东一路388号(北京东路口)"},{"poiid":"B2094757D06FA1FC439D","title":"Bar Rouge","lon":"121.49011","lat":"31.2386","category":"260","category_name":"其他","address":"黄浦区中山东一路18号外滩18号7楼(近南京东路)"},{"poiid":"B2094757D06FA4FA429D","title":"小南国(国际会议中心店)","lon":"121.496985714","lat":"31.2393948139","category":"76","category_name":"上海菜","address":"浦东新区滨江大道2727号国际会议中心7楼(近东方明珠电视塔)"},{"poiid":"B2094750D464A6F94792","title":"星巴克","lon":"121.490264","lat":"31.240295","category":"247","category_name":"餐饮美食","address":"黄浦区中山东一路363号(近北京东路)"},{"poiid":"B2094654DB6AA0FF409B","title":"海鸥滨江观景餐厅","lon":"121.49178","lat":"31.24379","category":"91","category_name":"台湾菜","address":"虹口区黄浦路60号海鸥饭店外防汛墙上(近苏州路)"},{"poiid":"B2094757D06FA2F5489C","title":"中国银行(上海市分行营业部)","lon":"121.489781","lat":"31.239521","category":"150","category_name":"银行","address":"上海市黄浦区中山东一路23号"},{"poiid":"B2094757D06BABFB449A","title":"Shook！上海","lon":"121.49010773","lat":"31.238661479","category":"94","category_name":"西餐厅","address":"黄浦区南京东路23号5-6楼(外滩19号)"},{"poiid":"B2094655D26DA3FF489B","title":"外滩12号大楼","lon":"121.497","lat":"31.2418","category":"46","category_name":"楼宇","address":"黄浦区中山东一路12号"},{"poiid":"B2094757D069A2FA419B","title":"哈根达斯(外滩店)","lon":"121.49029","lat":"31.23784","category":"113","category_name":"冷饮店","address":"黄浦区中山东一路365号(近九江路)"},{"poiid":"B2094757D468A4FC4598","title":"艾利爵士餐厅 Sir Elly's Restaurant & Bar","lon":"121.490123054","lat":"31.240919793","category":"97","category_name":"法式菜品餐厅","address":"黄浦区中山东一路32号半岛酒店13楼(近北京东路)"},{"poiid":"B2094757D16CA4FE469A","title":"罗斯福9楼露天酒吧","lon":"121.49195883","lat":"31.237938814","category":"172","category_name":"酒吧","address":"上海外滩27号"},{"poiid":"B2094757D169ABFF409D","title":"枫雅日本料理","lon":"121.495364738","lat":"31.2381594691","category":"95","category_name":"日本料理","address":"浦东新区陆家嘴西路2967号北滨江B座(近滨江大道)"},{"poiid":"B2094757D16AA6FE4393","title":"海鸥坊","lon":"121.493078738","lat":"31.2429645715","category":"500","category_name":"未知分类","address":"上海陆家嘴滨江大道"},{"poiid":"B2094757DB6FA2FF419C","title":"避風塘","lon":"121.4943869958333","lat":"31.23857748583332","category":"500","category_name":"未知分类","address":"正大廣場"},{"poiid":"B2094654DA6FA7FD499F","title":"东方明珠游船码头","lon":"121.49693","lat":"31.24078","category":"34","category_name":"港口码头","address":"滨江大道2852号"},{"poiid":"B2094757D06FA3F9419B","title":"外滩70号","lon":"121.491915686","lat":"31.2439247339","category":"47","category_name":"住宅区","address":"虹口区黄浦路70号(海鸥饭店旁)"},{"poiid":"B2094757D06FA2FD4298","title":"上海陈毅广场","lon":"121.490514434","lat":"31.2389924275","category":"250","category_name":"公园户外","address":"黄浦区中山东一路外滩(近南京东路)"},{"poiid":"B2094752DA6DA0F8499D","title":"星期五餐厅Friday","lon":"121.493575","lat":"31.238085","category":"247","category_name":"餐饮美食","address":"上海浦东陆家嘴富城路16号"},{"poiid":"B2094655D26EAAF4479C","title":"仙踪林(滨江店)","lon":"121.4957","lat":"31.23923","category":"247","category_name":"餐饮美食","address":"浦东新区陆家嘴西路2967号北滨江大道A座(丰和路陆家嘴西路)"},{"poiid":"B2094757DA6AAAF54598","title":"Matto","lon":"121.4938641230534","lat":"31.23920718760844","category":"247","category_name":"餐饮美食","address":"浦东正大广场1楼"},{"poiid":"B2094655D26BA4FD489D","title":"中行大楼","lon":"121.48978","lat":"31.23953","category":"46","category_name":"楼宇","address":"重庆北部新区金渝大道89号(北部新区管委会对面)"},{"poiid":"B2094654DA6FA5FA4499","title":"解放日报大厦","lon":"121.491","lat":"31.2418","category":"46","category_name":"楼宇","address":"铁西兴华南街与十马路交汇处"},{"poiid":"B2094757D069A3F8409A","title":"中央大厦","lon":"121.49451437013","lat":"31.24349460374","category":"46","category_name":"楼宇","address":"上海市四川中路321号"},{"poiid":"B2094751D268A4FC4798","title":"罗斯福八楼色戒餐厅酒吧","lon":"121.489883","lat":"31.240287","category":"247","category_name":"餐饮美食","address":"黄浦区中山东一路27号"},{"poiid":"B2094757D068A4FB4692","title":"外滩观光隧道","lon":"121.49087","lat":"31.23984","category":"260","category_name":"其他","address":"黄浦区外滩中山东一路300号(外滩与陆家嘴间)"},{"poiid":"B2094750DB69AAFF4398","title":"全景会所","lon":"121.493553","lat":"31.244453","category":"248","category_name":"生活娱乐","address":"黄埔路108号"},{"poiid":"B2094757D76AA1F8469A","title":"半岛茶座","lon":"121.490114054","lat":"31.240935793","category":"99","category_name":"泰国／越南菜品餐厅","address":"黄浦区中山东一路32号半岛酒店2楼(近北京东路)"},{"poiid":"B2094757D068A5F54292","title":"人民英雄纪念塔","lon":"121.49044","lat":"31.24202","category":"260","category_name":"其他","address":"黄浦区中山东一路500号黄浦公园(近黄浦公园)"},{"poiid":"B2094757D06BA3FD4499","title":"俄罗斯驻上海总领事馆","lon":"121.49113","lat":"31.24361","category":"179","category_name":"音乐厅","address":"虹口区黄浦路20号(黄浦路金山路)"},{"poiid":"B2094654DA6FA4F8429B","title":"中国工商银行上海市分行营业部","lon":"121.48982","lat":"31.23983","category":"150","category_name":"银行","address":"中山东一路24"},{"poiid":"B2094757D16CA3FE469A","title":"外滩18号十八空间Space18","lon":"121.490429722","lat":"31.240429529","category":"184","category_name":"美术馆","address":"中山东一路18号外滩18号(近南京东路)"},{"poiid":"B2094752D364A4FE4298","title":"家有好面(南京东路店)","lon":"121.49277","lat":"31.2376","category":"68","category_name":"快餐厅","address":"黄浦区南京东路720号第一食品3楼(近贵州路)"},{"poiid":"B2094753D26EA7FB439D","title":"信不信由你博物馆","lon":"121.493258","lat":"31.240333","category":"500","category_name":"未知分类","address":"上海市 上海市浦东新区滨江大道2789号外滩观光隧道B2楼"},{"poiid":"B209475DD664A2F4499C","title":"paris rouge","lon":"121.492179","lat":"31.240259","category":"247","category_name":"餐饮美食","address":"上海市 圆明园路133号1楼"},{"poiid":"B2094750DB6EA6F8429A","title":"上海苏荷国际青年旅舍外滩店","lon":"121.494377","lat":"31.244222","category":"251","category_name":"出行住宿","address":"虹口区大名路239号(近南浔路)"},{"poiid":"B2094654DA6FABFB409B","title":"福州大楼","lon":"121.494","lat":"31.2407","category":"46","category_name":"楼宇","address":"上海黄浦区江西中路170号(福州路口)"},{"poiid":"B2094751D56AA2FD419E","title":"广州焦叶","lon":"121.4931247","lat":"31.2409539","category":"500","category_name":"未知分类","address":"正大广场"},{"poiid":"B2094757D069A6FE4593","title":"Lounge 18","lon":"121.48999","lat":"31.23888","category":"184","category_name":"美术馆","address":"黄浦区中山东一路18号外滩18号4楼(近南京东路)"},{"poiid":"B2094654DA6FA5F8429A","title":"宏伊国际广场","lon":"121.491","lat":"31.2427","category":"46","category_name":"楼宇","address":"张杨路560号,张杨路620号"},{"poiid":"B2094757D66DA7F4469B","title":"外滩","lon":"121.490535738","lat":"31.2383514732","category":"240","category_name":"国家级景点","address":"上海市中心区黄浦江畔"},{"poiid":"B2094654DA6FA7FD4993","title":"上海国际会议中心(Shanghai International Conference Center)","lon":"121.49694","lat":"31.23946","category":"185","category_name":"会展中心","address":"浦东新区滨江大道2727号(近丰和路)"},{"poiid":"B209475CD564A7F84292","title":"上海滩新天地店","lon":"121.47463","lat":"31.22164","category":"119","category_name":"商场","address":"\"太仓路181弄新天地北里15号\r\n\""},{"poiid":"B209475CD564A7F84392","title":"上海滩浦东香格里拉店","lon":"121.50058","lat":"31.23634","category":"119","category_name":"商场","address":"浦东富成路33号香格里拉酒店内大堂层"},{"poiid":"B2094654DA6FAAF84098","title":"外滩中心","lon":"121.494","lat":"31.238","category":"46","category_name":"楼宇","address":"上海黄浦区延安东路222号"},{"poiid":"B2094654DB65A2FF469A","title":"外白渡桥","lon":"121.49018","lat":"31.24281","category":"250","category_name":"公园户外","address":"上海黄浦区大名路(苏州河上)"},{"poiid":"B2094757D06EAAFB419B","title":"罗斯福会所 The House of Roosevelt","lon":"121.49012383","lat":"31.240403643","category":"94","category_name":"西餐厅","address":"黄浦区中山东一路27号罗斯福8楼"},{"poiid":"B2094757D06FA2FF4893","title":"海鸥舫","lon":"121.49586","lat":"31.23816","category":"76","category_name":"上海菜","address":"浦东新区滨江大道2852号(滨江花园内)"},{"poiid":"B2094757D064A5FD4593","title":"外灘","lon":"121.49375073","lat":"31.240939528","category":"500","category_name":"未知分类","address":"上海市黄浦区南苏州路"},{"poiid":"B2094757D06FA2FA419C","title":"非常时髦酒吧","lon":"121.49312","lat":"31.24427","category":"260","category_name":"其他","address":"虹口区黄浦路199号上海外滩茂悦大酒店西楼32楼(近武昌路)"},{"poiid":"B2094757D06FA7F5479A","title":"海鸥饭店","lon":"121.49201","lat":"31.24348","category":"217","category_name":"旅馆招待所","address":"上海市虹口区黄浦路60号(外滩地区,近北苏州路)"},{"poiid":"B2094757D06FA1FD439B","title":"COSTA COFFEE(新外滩店)","lon":"121.490879","lat":"31.240587","category":"65","category_name":"咖啡厅","address":"黄浦区中山东一路388号(北京东路口)"},{"poiid":"B2094757D06FA1FC439D","title":"Bar Rouge","lon":"121.49011","lat":"31.2386","category":"260","category_name":"其他","address":"黄浦区中山东一路18号外滩18号7楼(近南京东路)"},{"poiid":"B2094757D06FA4FA429D","title":"小南国(国际会议中心店)","lon":"121.496985714","lat":"31.2393948139","category":"76","category_name":"上海菜","address":"浦东新区滨江大道2727号国际会议中心7楼(近东方明珠电视塔)"},{"poiid":"B2094750D464A6F94792","title":"星巴克","lon":"121.490264","lat":"31.240295","category":"247","category_name":"餐饮美食","address":"黄浦区中山东一路363号(近北京东路)"},{"poiid":"B2094654DB6AA0FF409B","title":"海鸥滨江观景餐厅","lon":"121.49178","lat":"31.24379","category":"91","category_name":"台湾菜","address":"虹口区黄浦路60号海鸥饭店外防汛墙上(近苏州路)"},{"poiid":"B2094757D06FA2F5489C","title":"中国银行(上海市分行营业部)","lon":"121.489781","lat":"31.239521","category":"150","category_name":"银行","address":"上海市黄浦区中山东一路23号"},{"poiid":"B2094757D06BABFB449A","title":"Shook！上海","lon":"121.49010773","lat":"31.238661479","category":"94","category_name":"西餐厅","address":"黄浦区南京东路23号5-6楼(外滩19号)"},{"poiid":"B2094655D26DA3FF489B","title":"外滩12号大楼","lon":"121.497","lat":"31.2418","category":"46","category_name":"楼宇","address":"黄浦区中山东一路12号"},{"poiid":"B2094757D069A2FA419B","title":"哈根达斯(外滩店)","lon":"121.49029","lat":"31.23784","category":"113","category_name":"冷饮店","address":"黄浦区中山东一路365号(近九江路)"},{"poiid":"B2094757D468A4FC4598","title":"艾利爵士餐厅 Sir Elly's Restaurant & Bar","lon":"121.490123054","lat":"31.240919793","category":"97","category_name":"法式菜品餐厅","address":"黄浦区中山东一路32号半岛酒店13楼(近北京东路)"},{"poiid":"B2094757D16CA4FE469A","title":"罗斯福9楼露天酒吧","lon":"121.49195883","lat":"31.237938814","category":"172","category_name":"酒吧","address":"上海外滩27号"},{"poiid":"B2094757D169ABFF409D","title":"枫雅日本料理","lon":"121.495364738","lat":"31.2381594691","category":"95","category_name":"日本料理","address":"浦东新区陆家嘴西路2967号北滨江B座(近滨江大道)"},{"poiid":"B2094757D16AA6FE4393","title":"海鸥坊","lon":"121.493078738","lat":"31.2429645715","category":"500","category_name":"未知分类","address":"上海陆家嘴滨江大道"},{"poiid":"B2094757DB6FA2FF419C","title":"避風塘","lon":"121.4943869958333","lat":"31.23857748583332","category":"500","category_name":"未知分类","address":"正大廣場"},{"poiid":"B2094654DA6FA7FD499F","title":"东方明珠游船码头","lon":"121.49693","lat":"31.24078","category":"34","category_name":"港口码头","address":"滨江大道2852号"},{"poiid":"B2094757D06FA3F9419B","title":"外滩70号","lon":"121.491915686","lat":"31.2439247339","category":"47","category_name":"住宅区","address":"虹口区黄浦路70号(海鸥饭店旁)"},{"poiid":"B2094757D06FA2FD4298","title":"上海陈毅广场","lon":"121.490514434","lat":"31.2389924275","category":"250","category_name":"公园户外","address":"黄浦区中山东一路外滩(近南京东路)"},{"poiid":"B2094752DA6DA0F8499D","title":"星期五餐厅Friday","lon":"121.493575","lat":"31.238085","category":"247","category_name":"餐饮美食","address":"上海浦东陆家嘴富城路16号"},{"poiid":"B2094655D26EAAF4479C","title":"仙踪林(滨江店)","lon":"121.4957","lat":"31.23923","category":"247","category_name":"餐饮美食","address":"浦东新区陆家嘴西路2967号北滨江大道A座(丰和路陆家嘴西路)"},{"poiid":"B2094757DA6AAAF54598","title":"Matto","lon":"121.4938641230534","lat":"31.23920718760844","category":"247","category_name":"餐饮美食","address":"浦东正大广场1楼"},{"poiid":"B2094655D26BA4FD489D","title":"中行大楼","lon":"121.48978","lat":"31.23953","category":"46","category_name":"楼宇","address":"重庆北部新区金渝大道89号(北部新区管委会对面)"},{"poiid":"B2094654DA6FA5FA4499","title":"解放日报大厦","lon":"121.491","lat":"31.2418","category":"46","category_name":"楼宇","address":"铁西兴华南街与十马路交汇处"},{"poiid":"B2094757D069A3F8409A","title":"中央大厦","lon":"121.49451437013","lat":"31.24349460374","category":"46","category_name":"楼宇","address":"上海市四川中路321号"},{"poiid":"B2094751D268A4FC4798","title":"罗斯福八楼色戒餐厅酒吧","lon":"121.489883","lat":"31.240287","category":"247","category_name":"餐饮美食","address":"黄浦区中山东一路27号"},{"poiid":"B2094757D068A4FB4692","title":"外滩观光隧道","lon":"121.49087","lat":"31.23984","category":"260","category_name":"其他","address":"黄浦区外滩中山东一路300号(外滩与陆家嘴间)"},{"poiid":"B2094750DB69AAFF4398","title":"全景会所","lon":"121.493553","lat":"31.244453","category":"248","category_name":"生活娱乐","address":"黄埔路108号"},{"poiid":"B2094757D76AA1F8469A","title":"半岛茶座","lon":"121.490114054","lat":"31.240935793","category":"99","category_name":"泰国／越南菜品餐厅","address":"黄浦区中山东一路32号半岛酒店2楼(近北京东路)"},{"poiid":"B2094757D068A5F54292","title":"人民英雄纪念塔","lon":"121.49044","lat":"31.24202","category":"260","category_name":"其他","address":"黄浦区中山东一路500号黄浦公园(近黄浦公园)"},{"poiid":"B2094757D06BA3FD4499","title":"俄罗斯驻上海总领事馆","lon":"121.49113","lat":"31.24361","category":"179","category_name":"音乐厅","address":"虹口区黄浦路20号(黄浦路金山路)"},{"poiid":"B2094654DA6FA4F8429B","title":"中国工商银行上海市分行营业部","lon":"121.48982","lat":"31.23983","category":"150","category_name":"银行","address":"中山东一路24"},{"poiid":"B2094757D16CA3FE469A","title":"外滩18号十八空间Space18","lon":"121.490429722","lat":"31.240429529","category":"184","category_name":"美术馆","address":"中山东一路18号外滩18号(近南京东路)"},{"poiid":"B2094752D364A4FE4298","title":"家有好面(南京东路店)","lon":"121.49277","lat":"31.2376","category":"68","category_name":"快餐厅","address":"黄浦区南京东路720号第一食品3楼(近贵州路)"},{"poiid":"B2094753D26EA7FB439D","title":"信不信由你博物馆","lon":"121.493258","lat":"31.240333","category":"500","category_name":"未知分类","address":"上海市 上海市浦东新区滨江大道2789号外滩观光隧道B2楼"},{"poiid":"B209475DD664A2F4499C","title":"paris rouge","lon":"121.492179","lat":"31.240259","category":"247","category_name":"餐饮美食","address":"上海市 圆明园路133号1楼"},{"poiid":"B2094750DB6EA6F8429A","title":"上海苏荷国际青年旅舍外滩店","lon":"121.494377","lat":"31.244222","category":"251","category_name":"出行住宿","address":"虹口区大名路239号(近南浔路)"},{"poiid":"B2094654DA6FABFB409B","title":"福州大楼","lon":"121.494","lat":"31.2407","category":"46","category_name":"楼宇","address":"上海黄浦区江西中路170号(福州路口)"},{"poiid":"B2094751D56AA2FD419E","title":"广州焦叶","lon":"121.4931247","lat":"31.2409539","category":"500","category_name":"未知分类","address":"正大广场"},{"poiid":"B2094757D069A6FE4593","title":"Lounge 18","lon":"121.48999","lat":"31.23888","category":"184","category_name":"美术馆","address":"黄浦区中山东一路18号外滩18号4楼(近南京东路)"},{"poiid":"B2094654DA6FA5F8429A","title":"宏伊国际广场","lon":"121.491","lat":"31.2427","category":"46","category_name":"楼宇","address":"张杨路560号,张杨路620号"},{"poiid":"B2094757D66DA7F4469B","title":"外滩","lon":"121.490535738","lat":"31.2383514732","category":"240","category_name":"国家级景点","address":"上海市中心区黄浦江畔"},{"poiid":"B2094654DA6FA7FD4993","title":"上海国际会议中心(Shanghai International Conference Center)","lon":"121.49694","lat":"31.23946","category":"185","category_name":"会展中心","address":"浦东新区滨江大道2727号(近丰和路)"},{"poiid":"B209475CD564A7F84292","title":"上海滩新天地店","lon":"121.47463","lat":"31.22164","category":"119","category_name":"商场","address":"\"太仓路181弄新天地北里15号\r\n\""},{"poiid":"B209475CD564A7F84392","title":"上海滩浦东香格里拉店","lon":"121.50058","lat":"31.23634","category":"119","category_name":"商场","address":"浦东富成路33号香格里拉酒店内大堂层"},{"poiid":"B2094654DA6FAAF84098","title":"外滩中心","lon":"121.494","lat":"31.238","category":"46","category_name":"楼宇","address":"上海黄浦区延安东路222号"},{"poiid":"B2094654DB65A2FF469A","title":"外白渡桥","lon":"121.49018","lat":"31.24281","category":"250","category_name":"公园户外","address":"上海黄浦区大名路(苏州河上)"},{"poiid":"B2094757D06EAAFB419B","title":"罗斯福会所 The House of Roosevelt","lon":"121.49012383","lat":"31.240403643","category":"94","category_name":"西餐厅","address":"黄浦区中山东一路27号罗斯福8楼"},{"poiid":"B2094757D06FA2FF4893","title":"海鸥舫","lon":"121.49586","lat":"31.23816","category":"76","category_name":"上海菜","address":"浦东新区滨江大道2852号(滨江花园内)"},{"poiid":"B2094757D064A5FD4593","title":"外灘","lon":"121.49375073","lat":"31.240939528","category":"500","category_name":"未知分类","address":"上海市黄浦区南苏州路"},{"poiid":"B2094757D06FA2FA419C","title":"非常时髦酒吧","lon":"121.49312","lat":"31.24427","category":"260","category_name":"其他","address":"虹口区黄浦路199号上海外滩茂悦大酒店西楼32楼(近武昌路)"},{"poiid":"B2094757D06FA7F5479A","title":"海鸥饭店","lon":"121.49201","lat":"31.24348","category":"217","category_name":"旅馆招待所","address":"上海市虹口区黄浦路60号(外滩地区,近北苏州路)"},{"poiid":"B2094757D06FA1FD439B","title":"COSTA COFFEE(新外滩店)","lon":"121.490879","lat":"31.240587","category":"65","category_name":"咖啡厅","address":"黄浦区中山东一路388号(北京东路口)"},{"poiid":"B2094757D06FA1FC439D","title":"Bar Rouge","lon":"121.49011","lat":"31.2386","category":"260","category_name":"其他","address":"黄浦区中山东一路18号外滩18号7楼(近南京东路)"},{"poiid":"B2094757D06FA4FA429D","title":"小南国(国际会议中心店)","lon":"121.496985714","lat":"31.2393948139","category":"76","category_name":"上海菜","address":"浦东新区滨江大道2727号国际会议中心7楼(近东方明珠电视塔)"},{"poiid":"B2094750D464A6F94792","title":"星巴克","lon":"121.490264","lat":"31.240295","category":"247","category_name":"餐饮美食","address":"黄浦区中山东一路363号(近北京东路)"},{"poiid":"B2094654DB6AA0FF409B","title":"海鸥滨江观景餐厅","lon":"121.49178","lat":"31.24379","category":"91","category_name":"台湾菜","address":"虹口区黄浦路60号海鸥饭店外防汛墙上(近苏州路)"},{"poiid":"B2094757D06FA2F5489C","title":"中国银行(上海市分行营业部)","lon":"121.489781","lat":"31.239521","category":"150","category_name":"银行","address":"上海市黄浦区中山东一路23号"},{"poiid":"B2094757D06BABFB449A","title":"Shook！上海","lon":"121.49010773","lat":"31.238661479","category":"94","category_name":"西餐厅","address":"黄浦区南京东路23号5-6楼(外滩19号)"},{"poiid":"B2094655D26DA3FF489B","title":"外滩12号大楼","lon":"121.497","lat":"31.2418","category":"46","category_name":"楼宇","address":"黄浦区中山东一路12号"},{"poiid":"B2094757D069A2FA419B","title":"哈根达斯(外滩店)","lon":"121.49029","lat":"31.23784","category":"113","category_name":"冷饮店","address":"黄浦区中山东一路365号(近九江路)"},{"poiid":"B2094757D468A4FC4598","title":"艾利爵士餐厅 Sir Elly's Restaurant & Bar","lon":"121.490123054","lat":"31.240919793","category":"97","category_name":"法式菜品餐厅","address":"黄浦区中山东一路32号半岛酒店13楼(近北京东路)"},{"poiid":"B2094757D16CA4FE469A","title":"罗斯福9楼露天酒吧","lon":"121.49195883","lat":"31.237938814","category":"172","category_name":"酒吧","address":"上海外滩27号"},{"poiid":"B2094757D169ABFF409D","title":"枫雅日本料理","lon":"121.495364738","lat":"31.2381594691","category":"95","category_name":"日本料理","address":"浦东新区陆家嘴西路2967号北滨江B座(近滨江大道)"},{"poiid":"B2094757D16AA6FE4393","title":"海鸥坊","lon":"121.493078738","lat":"31.2429645715","category":"500","category_name":"未知分类","address":"上海陆家嘴滨江大道"},{"poiid":"B2094757DB6FA2FF419C","title":"避風塘","lon":"121.4943869958333","lat":"31.23857748583332","category":"500","category_name":"未知分类","address":"正大廣場"},{"poiid":"B2094654DA6FA7FD499F","title":"东方明珠游船码头","lon":"121.49693","lat":"31.24078","category":"34","category_name":"港口码头","address":"滨江大道2852号"},{"poiid":"B2094757D06FA3F9419B","title":"外滩70号","lon":"121.491915686","lat":"31.2439247339","category":"47","category_name":"住宅区","address":"虹口区黄浦路70号(海鸥饭店旁)"},{"poiid":"B2094757D06FA2FD4298","title":"上海陈毅广场","lon":"121.490514434","lat":"31.2389924275","category":"250","category_name":"公园户外","address":"黄浦区中山东一路外滩(近南京东路)"},{"poiid":"B2094752DA6DA0F8499D","title":"星期五餐厅Friday","lon":"121.493575","lat":"31.238085","category":"247","category_name":"餐饮美食","address":"上海浦东陆家嘴富城路16号"},{"poiid":"B2094655D26EAAF4479C","title":"仙踪林(滨江店)","lon":"121.4957","lat":"31.23923","category":"247","category_name":"餐饮美食","address":"浦东新区陆家嘴西路2967号北滨江大道A座(丰和路陆家嘴西路)"},{"poiid":"B2094757DA6AAAF54598","title":"Matto","lon":"121.4938641230534","lat":"31.23920718760844","category":"247","category_name":"餐饮美食","address":"浦东正大广场1楼"},{"poiid":"B2094655D26BA4FD489D","title":"中行大楼","lon":"121.48978","lat":"31.23953","category":"46","category_name":"楼宇","address":"重庆北部新区金渝大道89号(北部新区管委会对面)"},{"poiid":"B2094654DA6FA5FA4499","title":"解放日报大厦","lon":"121.491","lat":"31.2418","category":"46","category_name":"楼宇","address":"铁西兴华南街与十马路交汇处"},{"poiid":"B2094757D069A3F8409A","title":"中央大厦","lon":"121.49451437013","lat":"31.24349460374","category":"46","category_name":"楼宇","address":"上海市四川中路321号"},{"poiid":"B2094751D268A4FC4798","title":"罗斯福八楼色戒餐厅酒吧","lon":"121.489883","lat":"31.240287","category":"247","category_name":"餐饮美食","address":"黄浦区中山东一路27号"},{"poiid":"B2094757D068A4FB4692","title":"外滩观光隧道","lon":"121.49087","lat":"31.23984","category":"260","category_name":"其他","address":"黄浦区外滩中山东一路300号(外滩与陆家嘴间)"},{"poiid":"B2094750DB69AAFF4398","title":"全景会所","lon":"121.493553","lat":"31.244453","category":"248","category_name":"生活娱乐","address":"黄埔路108号"},{"poiid":"B2094757D76AA1F8469A","title":"半岛茶座","lon":"121.490114054","lat":"31.240935793","category":"99","category_name":"泰国／越南菜品餐厅","address":"黄浦区中山东一路32号半岛酒店2楼(近北京东路)"},{"poiid":"B2094757D068A5F54292","title":"人民英雄纪念塔","lon":"121.49044","lat":"31.24202","category":"260","category_name":"其他","address":"黄浦区中山东一路500号黄浦公园(近黄浦公园)"},{"poiid":"B2094757D06BA3FD4499","title":"俄罗斯驻上海总领事馆","lon":"121.49113","lat":"31.24361","category":"179","category_name":"音乐厅","address":"虹口区黄浦路20号(黄浦路金山路)"},{"poiid":"B2094654DA6FA4F8429B","title":"中国工商银行上海市分行营业部","lon":"121.48982","lat":"31.23983","category":"150","category_name":"银行","address":"中山东一路24"},{"poiid":"B2094757D16CA3FE469A","title":"外滩18号十八空间Space18","lon":"121.490429722","lat":"31.240429529","category":"184","category_name":"美术馆","address":"中山东一路18号外滩18号(近南京东路)"},{"poiid":"B2094752D364A4FE4298","title":"家有好面(南京东路店)","lon":"121.49277","lat":"31.2376","category":"68","category_name":"快餐厅","address":"黄浦区南京东路720号第一食品3楼(近贵州路)"},{"poiid":"B2094753D26EA7FB439D","title":"信不信由你博物馆","lon":"121.493258","lat":"31.240333","category":"500","category_name":"未知分类","address":"上海市 上海市浦东新区滨江大道2789号外滩观光隧道B2楼"},{"poiid":"B209475DD664A2F4499C","title":"paris rouge","lon":"121.492179","lat":"31.240259","category":"247","category_name":"餐饮美食","address":"上海市 圆明园路133号1楼"},{"poiid":"B2094750DB6EA6F8429A","title":"上海苏荷国际青年旅舍外滩店","lon":"121.494377","lat":"31.244222","category":"251","category_name":"出行住宿","address":"虹口区大名路239号(近南浔路)"},{"poiid":"B2094654DA6FABFB409B","title":"福州大楼","lon":"121.494","lat":"31.2407","category":"46","category_name":"楼宇","address":"上海黄浦区江西中路170号(福州路口)"},{"poiid":"B2094751D56AA2FD419E","title":"广州焦叶","lon":"121.4931247","lat":"31.2409539","category":"500","category_name":"未知分类","address":"正大广场"},{"poiid":"B2094757D069A6FE4593","title":"Lounge 18","lon":"121.48999","lat":"31.23888","category":"184","category_name":"美术馆","address":"黄浦区中山东一路18号外滩18号4楼(近南京东路)"}]