[{"poiid":"B2094655D26AA1FB479F","title":"静安区中心医院","lon":"121.44982","lat":"31.23057","category":"162","category_name":"医院","address":"静安区西康路259号(近新闸路)"},{"poiid":"B2094757D065A5FE419C","title":"海底捞","lon":"121.45183758","lat":"31.228558398","category":"500","category_name":"未知分类","address":"上海市静安区北京西路1089号"},{"poiid":"B2094655D26DA2F8409F","title":"恒隆广场2号楼","lon":"121.45288","lat":"31.22806","category":"46","category_name":"楼宇","address":""},{"poiid":"B2094753D76FAAFA449C","title":"上海滩国泰旗舰店","lon":"121.466011","lat":"31.216125","category":"249","category_name":"购物服务","address":"淮海中路868号"},{"poiid":"B209475CD564A7F84292","title":"上海滩新天地店","lon":"121.47463","lat":"31.22164","category":"119","category_name":"商场","address":"\"太仓路181弄新天地北里15号\r\n\""},{"poiid":"B209475CD564A7F8439E","title":"上海滩中信泰富店","lon":"121.45602","lat":"31.22851","category":"119","category_name":"商场","address":"\"南京西路1168号中信泰富广场，店铺号221.\r\n\""},{"poiid":"B2094757D06FA2F5439D","title":"Big Bamboo(南阳路店)","lon":"121.4513302","lat":"31.228315506","category":"260","category_name":"其他","address":"静安区南阳路132号波特曼后门(近西康路)"},{"poiid":"B2094757D06FA2F4479F","title":"静安体育馆","lon":"121.4516","lat":"31.22764","category":"224","category_name":"综合体育馆","address":"静安区西康路99-1号静安体育馆内"},{"poiid":"B2094757D06FA5FF4392","title":"上海国宾医疗中心","lon":"121.45115","lat":"31.22959","category":"162","category_name":"医院","address":"上海静安区西康路252号(近北京西路)"},{"poiid":"B2094757D06FA7F8469B","title":"海之幸(恒隆店)","lon":"121.45181","lat":"31.22766","category":"95","category_name":"日本料理","address":"静安区南阳路123号(近静安体育馆)"},{"poiid":"B2094757D06FA7F5489C","title":"静安中华大厦","lon":"121.45067142182","lat":"31.231695206825","category":"46","category_name":"楼宇","address":"北京西路1701号"},{"poiid":"B2094655D26DABFD489C","title":"齐民有机中国火锅","lon":"121.45285","lat":"31.23011","category":"86","category_name":"火锅店","address":"静安区陕西北路407号(近北京西路)"},{"poiid":"B2094654DA6CA7FE489A","title":"怀恩堂","lon":"121.45317","lat":"31.22922","category":"245","category_name":"教堂","address":"静安区陕西北路375号(近南阳路)"},{"poiid":"B2094757D068A6F54099","title":"黑土地农家院","lon":"121.45222958","lat":"31.228801403","category":"82","category_name":"东北菜","address":"静安区北京西路1213号(西康路陕西北路间)"},{"poiid":"B2094757D069A3F44598","title":"Bella Napoli","lon":"121.45193","lat":"31.2285","category":"94","category_name":"西餐厅","address":"静安区西康路140号(近南京西路)"},{"poiid":"B2094757D06FA4F9449F","title":"永和大王(西康路店)","lon":"121.4515","lat":"31.22782","category":"68","category_name":"快餐厅","address":"上海静安区西康路101-3号(近南阳路)  "},{"poiid":"B2094757D06FAAFF489C","title":"静安体育馆羽毛球场","lon":"121.451642446","lat":"31.2276017464","category":"220","category_name":"运动场所","address":"静安区西康路99-1号静安体育馆内"},{"poiid":"B2094654DA6CA3F4499F","title":"本本大厦","lon":"121.4504","lat":"31.23115","category":"46","category_name":"楼宇","address":"越秀区广州沿江中路298号"},{"poiid":"B2094752D16FA2FA4699","title":"点点心港式茶餐","lon":"121.450125","lat":"31.231313","category":"247","category_name":"餐饮美食","address":"南京西路889号"},{"poiid":"B2094753D065A0F8449B","title":"平成屋日式料理店(西康路店)","lon":"121.45201","lat":"31.22773","category":"95","category_name":"日本料理","address":"静安区西康路101号(近南京西路)"},{"poiid":"B2094757D064A1FC419A","title":"南阳路粢饭团","lon":"121.45226","lat":"31.22807","category":"68","category_name":"快餐厅","address":"静安区南阳路100号(西康路口)"},{"poiid":"B2094757D06FA6FE429A","title":"宝寿司(南阳店)","lon":"121.45218868","lat":"31.228390181","category":"95","category_name":"日本料理","address":"静安区南阳路94号(近西康路)"},{"poiid":"B2094757D068A0FE419F","title":"玲珑鱼坊","lon":"121.44886533669","lat":"31.231894470951","category":"71","category_name":"四川菜","address":"静安区西康路326号(近新闸路)"},{"poiid":"B2094757D06AAAFE4292","title":"贝轩大公馆","lon":"121.450637817","lat":"31.2279224396","category":"500","category_name":"未知分类","address":"静安区南阳路170号(近静安体育馆)"},{"poiid":"B2094757D06FA4F94592","title":"中华企业大厦","lon":"121.450565","lat":"31.22942","category":"46","category_name":"楼宇","address":"华山路2号"},{"poiid":"B2094757D06BA3FE419F","title":"The Rabbit Hole","lon":"121.45319029","lat":"31.229673726","category":"216","category_name":"经济型连锁酒店","address":"静安区陕西北路408号2楼(近北京西路)"},{"poiid":"B2094757D06FA7F5459E","title":"85度C(陕北店)","lon":"121.45369","lat":"31.22953","category":"112","category_name":"糕饼店","address":"静安区陕西北路408号(近北京西路)"},{"poiid":"B2094654DB6BA6F4409E","title":"同济大学附属七一中学","lon":"121.45207","lat":"31.231","category":"55","category_name":"中学","address":"陕西北路461"},{"poiid":"B2094654DB69A0F9489D","title":"泰煌鸡 静安店","lon":"121.450220054","lat":"31.231140793","category":"68","category_name":"快餐厅","address":"静安区新闸路1333号(近西康路)"},{"poiid":"B2094654DA6CA0FB4993","title":"金航大厦","lon":"121.45","lat":"31.231","category":"46","category_name":"楼宇","address":"卫清西路139_149号等"},{"poiid":"B2094757D06BA6F5499F","title":"Egghead Bagels","lon":"121.453457","lat":"31.229931","category":"94","category_name":"西餐厅","address":"静安区陕西北路455号(近北京西路)"},{"poiid":"B2094757D06AA0FF4392","title":"Bros Wasabi 日本料理和佐美","lon":"121.45182","lat":"31.22815","category":"95","category_name":"日本料理","address":"上海市静安区西康路101号(近南阳路)"},{"poiid":"B2094752D669A5FF429F","title":"阿宝家海鲜料理","lon":"121.453439","lat":"31.230462","category":"247","category_name":"餐饮美食","address":"威海路641号近茂名北路"},{"poiid":"B2094654DA6CA3FF419A","title":"上海市语言文字水平测试中心","lon":"121.45272","lat":"31.23152","category":"250","category_name":"公园户外","address":"静安区陕西北路500号"},{"poiid":"B2094757D068A5FC449C","title":"红宝石(新闸店)","lon":"121.45051","lat":"31.23133","category":"67","category_name":"甜品店","address":"静安区新闸路1384号(近西康路)"},{"poiid":"B2094757D165A1F44293","title":"型人坊","lon":"121.45324158","lat":"31.229881424","category":"500","category_name":"未知分类","address":"上海静安区北京西路1124号"},{"poiid":"B2094654DB64A4FD4299","title":"爱康国宾上海西康路分院","lon":"121.45088","lat":"31.22988","category":"162","category_name":"医院","address":"西康路252号"},{"poiid":"B2094757D065A7F5439D","title":"普通话测试中心","lon":"121.452602","lat":"31.231316","category":"500","category_name":"未知分类","address":"上海陕西北路500号6号楼101室"},{"poiid":"B2094757D168A3FA4799","title":"海底捞火锅","lon":"121.453200586","lat":"31.2316024579","category":"247","category_name":"餐饮美食","address":"上海市江宁路食博汇"},{"poiid":"B2094750D768A3F9429F","title":"煲格阁","lon":"121.452","lat":"31.2292","category":"72","category_name":"广东菜","address":"静安区北京西路1225号(近西康路)"},{"poiid":"B2094750DB69AAFB499A","title":"泰盟金阁","lon":"121.453246","lat":"31.230032","category":"247","category_name":"餐饮美食","address":"静安区陕西北路408号(近北京西路路口)"},{"poiid":"B2094757DB6EABF9449B","title":"Costa中信泰富店","lon":"121.45105117","lat":"31.229963384999998","category":"65","category_name":"咖啡厅","address":"中信泰富广场5楼501A单元"},{"poiid":"B2094654DA6CA0FB479A","title":"胶州大楼","lon":"121.451","lat":"31.232","category":"46","category_name":"楼宇","address":"胶州路58号"},{"poiid":"B2094654DA6CA7FE439A","title":"宝隆居家酒店","lon":"121.45134","lat":"31.22777","category":"257","category_name":"中餐厅","address":"上海市静安区南阳路125号(近西康路)"},{"poiid":"B2094757D06FAAF4469F","title":"HERMES(恒隆店)","lon":"121.453051086","lat":"31.2314859556","category":"141","category_name":"服装鞋帽皮具店","address":"静安区南京西路1266号恒隆广场3楼(近陕西北路)"},{"poiid":"B2094655D26DA1FC4892","title":"村夫烤鱼(后门)","lon":"121.45175","lat":"31.22861","category":"68","category_name":"快餐厅","address":"静安区西康路112号(近南京西路)"},{"poiid":"B2094757D065A4FF469E","title":"静安区中心医院体检中心","lon":"121.45069","lat":"31.23048","category":"162","category_name":"医院","address":"上海静安区西康路266号(近新闸路)  "},{"poiid":"B2094654DA6CA2FC4892","title":"东隆友邦大厦","lon":"121.45056","lat":"31.22995","category":"46","category_name":"楼宇","address":"崇文区夕照寺大街"},{"poiid":"B2094751D56BA3F8429C","title":"5戈比diy烘焙乐园","lon":"121.452616","lat":"31.228782","category":"247","category_name":"餐饮美食","address":"静安区南京西路1129弄75号"},{"poiid":"B2094655D36CA5F5419B","title":"北京西路陕西北路","lon":"121.45243","lat":"31.22933","category":"38","category_name":"公交车站","address":"上海北京西路陕西北路"},{"poiid":"B2094655D26AA1FB479F","title":"静安区中心医院","lon":"121.44982","lat":"31.23057","category":"162","category_name":"医院","address":"静安区西康路259号(近新闸路)"},{"poiid":"B2094757D065A5FE419C","title":"海底捞","lon":"121.45183758","lat":"31.228558398","category":"500","category_name":"未知分类","address":"上海市静安区北京西路1089号"},{"poiid":"B2094655D26DA2F8409F","title":"恒隆广场2号楼","lon":"121.45288","lat":"31.22806","category":"46","category_name":"楼宇","address":""},{"poiid":"B2094753D76FAAFA449C","title":"上海滩国泰旗舰店","lon":"121.466011","lat":"31.216125","category":"249","category_name":"购物服务","address":"淮海中路868号"},{"poiid":"B209475CD564A7F84292","title":"上海滩新天地店","lon":"121.47463","lat":"31.22164","category":"119","category_name":"商场","address":"\"太仓路181弄新天地北里15号\r\n\""},{"poiid":"B209475CD564A7F8439E","title":"上海滩中信泰富店","lon":"121.45602","lat":"31.22851","category":"119","category_name":"商场","address":"\"南京西路1168号中信泰富广场，店铺号221.\r\n\""},{"poiid":"B2094757D06FA2F5439D","title":"Big Bamboo(南阳路店)","lon":"121.4513302","lat":"31.228315506","category":"260","category_name":"其他","address":"静安区南阳路132号波特曼后门(近西康路)"},{"poiid":"B2094757D06FA2F4479F","title":"静安体育馆","lon":"121.4516","lat":"31.22764","category":"224","category_name":"综合体育馆","address":"静安区西康路99-1号静安体育馆内"},{"poiid":"B2094757D06FA5FF4392","title":"上海国宾医疗中心","lon":"121.45115","lat":"31.22959","category":"162","category_name":"医院","address":"上海静安区西康路252号(近北京西路)"},{"poiid":"B2094757D06FA7F8469B","title":"海之幸(恒隆店)","lon":"121.45181","lat":"31.22766","category":"95","category_name":"日本料理","address":"静安区南阳路123号(近静安体育馆)"},{"poiid":"B2094757D06FA7F5489C","title":"静安中华大厦","lon":"121.45067142182","lat":"31.231695206825","category":"46","category_name":"楼宇","address":"北京西路1701号"},{"poiid":"B2094655D26DABFD489C","title":"齐民有机中国火锅","lon":"121.45285","lat":"31.23011","category":"86","category_name":"火锅店","address":"静安区陕西北路407号(近北京西路)"},{"poiid":"B2094654DA6CA7FE489A","title":"怀恩堂","lon":"121.45317","lat":"31.22922","category":"245","category_name":"教堂","address":"静安区陕西北路375号(近南阳路)"},{"poiid":"B2094757D068A6F54099","title":"黑土地农家院","lon":"121.45222958","lat":"31.228801403","category":"82","category_name":"东北菜","address":"静安区北京西路1213号(西康路陕西北路间)"},{"poiid":"B2094757D069A3F44598","title":"Bella Napoli","lon":"121.45193","lat":"31.2285","category":"94","category_name":"西餐厅","address":"静安区西康路140号(近南京西路)"},{"poiid":"B2094757D06FA4F9449F","title":"永和大王(西康路店)","lon":"121.4515","lat":"31.22782","category":"68","category_name":"快餐厅","address":"上海静安区西康路101-3号(近南阳路)  "},{"poiid":"B2094757D06FAAFF489C","title":"静安体育馆羽毛球场","lon":"121.451642446","lat":"31.2276017464","category":"220","category_name":"运动场所","address":"静安区西康路99-1号静安体育馆内"},{"poiid":"B2094654DA6CA3F4499F","title":"本本大厦","lon":"121.4504","lat":"31.23115","category":"46","category_name":"楼宇","address":"越秀区广州沿江中路298号"},{"poiid":"B2094752D16FA2FA4699","title":"点点心港式茶餐","lon":"121.450125","lat":"31.231313","category":"247","category_name":"餐饮美食","address":"南京西路889号"},{"poiid":"B2094753D065A0F8449B","title":"平成屋日式料理店(西康路店)","lon":"121.45201","lat":"31.22773","category":"95","category_name":"日本料理","address":"静安区西康路101号(近南京西路)"},{"poiid":"B2094757D064A1FC419A","title":"南阳路粢饭团","lon":"121.45226","lat":"31.22807","category":"68","category_name":"快餐厅","address":"静安区南阳路100号(西康路口)"},{"poiid":"B2094757D06FA6FE429A","title":"宝寿司(南阳店)","lon":"121.45218868","lat":"31.228390181","category":"95","category_name":"日本料理","address":"静安区南阳路94号(近西康路)"},{"poiid":"B2094757D068A0FE419F","title":"玲珑鱼坊","lon":"121.44886533669","lat":"31.231894470951","category":"71","category_name":"四川菜","address":"静安区西康路326号(近新闸路)"},{"poiid":"B2094757D06AAAFE4292","title":"贝轩大公馆","lon":"121.450637817","lat":"31.2279224396","category":"500","category_name":"未知分类","address":"静安区南阳路170号(近静安体育馆)"},{"poiid":"B2094757D06FA4F94592","title":"中华企业大厦","lon":"121.450565","lat":"31.22942","category":"46","category_name":"楼宇","address":"华山路2号"},{"poiid":"B2094757D06BA3FE419F","title":"The Rabbit Hole","lon":"121.45319029","lat":"31.229673726","category":"216","category_name":"经济型连锁酒店","address":"静安区陕西北路408号2楼(近北京西路)"},{"poiid":"B2094757D06FA7F5459E","title":"85度C(陕北店)","lon":"121.45369","lat":"31.22953","category":"112","category_name":"糕饼店","address":"静安区陕西北路408号(近北京西路)"},{"poiid":"B2094654DB6BA6F4409E","title":"同济大学附属七一中学","lon":"121.45207","lat":"31.231","category":"55","category_name":"中学","address":"陕西北路461"},{"poiid":"B2094654DB69A0F9489D","title":"泰煌鸡 静安店","lon":"121.450220054","lat":"31.231140793","category":"68","category_name":"快餐厅","address":"静安区新闸路1333号(近西康路)"},{"poiid":"B2094654DA6CA0FB4993","title":"金航大厦","lon":"121.45","lat":"31.231","category":"46","category_name":"楼宇","address":"卫清西路139_149号等"},{"poiid":"B2094757D06BA6F5499F","title":"Egghead Bagels","lon":"121.453457","lat":"31.229931","category":"94","category_name":"西餐厅","address":"静安区陕西北路455号(近北京西路)"},{"poiid":"B2094757D06AA0FF4392","title":"Bros Wasabi 日本料理和佐美","lon":"121.45182","lat":"31.22815","category":"95","category_name":"日本料理","address":"上海市静安区西康路101号(近南阳路)"},{"poiid":"B2094752D669A5FF429F","title":"阿宝家海鲜料理","lon":"121.453439","lat":"31.230462","category":"247","category_name":"餐饮美食","address":"威海路641号近茂名北路"},{"poiid":"B2094654DA6CA3FF419A","title":"上海市语言文字水平测试中心","lon":"121.45272","lat":"31.23152","category":"250","category_name":"公园户外","address":"静安区陕西北路500号"},{"poiid":"B2094757D068A5FC449C","title":"红宝石(新闸店)","lon":"121.45051","lat":"31.23133","category":"67","category_name":"甜品店","address":"静安区新闸路1384号(近西康路)"},{"poiid":"B2094757D165A1F44293","title":"型人坊","lon":"121.45324158","lat":"31.229881424","category":"500","category_name":"未知分类","address":"上海静安区北京西路1124号"},{"poiid":"B2094654DB64A4FD4299","title":"爱康国宾上海西康路分院","lon":"121.45088","lat":"31.22988","category":"162","category_name":"医院","address":"西康路252号"},{"poiid":"B2094757D065A7F5439D","title":"普通话测试中心","lon":"121.452602","lat":"31.231316","category":"500","category_name":"未知分类","address":"上海陕西北路500号6号楼101室"},{"poiid":"B2094757D168A3FA4799","title":"海底捞火锅","lon":"121.453200586","lat":"31.2316024579","category":"247","category_name":"餐饮美食","address":"上海市江宁路食博汇"},{"poiid":"B2094750D768A3F9429F","title":"煲格阁","lon":"121.452","lat":"31.2292","category":"72","category_name":"广东菜","address":"静安区北京西路1225号(近西康路)"},{"poiid":"B2094750DB69AAFB499A","title":"泰盟金阁","lon":"121.453246","lat":"31.230032","category":"247","category_name":"餐饮美食","address":"静安区陕西北路408号(近北京西路路口)"},{"poiid":"B2094757DB6EABF9449B","title":"Costa中信泰富店","lon":"121.45105117","lat":"31.229963384999998","category":"65","category_name":"咖啡厅","address":"中信泰富广场5楼501A单元"},{"poiid":"B2094654DA6CA0FB479A","title":"胶州大楼","lon":"121.451","lat":"31.232","category":"46","category_name":"楼宇","address":"胶州路58号"},{"poiid":"B2094654DA6CA7FE439A","title":"宝隆居家酒店","lon":"121.45134","lat":"31.22777","category":"257","category_name":"中餐厅","address":"上海市静安区南阳路125号(近西康路)"},{"poiid":"B2094757D06FAAF4469F","title":"HERMES(恒隆店)","lon":"121.453051086","lat":"31.2314859556","category":"141","category_name":"服装鞋帽皮具店","address":"静安区南京西路1266号恒隆广场3楼(近陕西北路)"},{"poiid":"B2094655D26DA1FC4892","title":"村夫烤鱼(后门)","lon":"121.45175","lat":"31.22861","category":"68","category_name":"快餐厅","address":"静安区西康路112号(近南京西路)"},{"poiid":"B2094757D065A4FF469E","title":"静安区中心医院体检中心","lon":"121.45069","lat":"31.23048","category":"162","category_name":"医院","address":"上海静安区西康路266号(近新闸路)  "},{"poiid":"B2094654DA6CA2FC4892","title":"东隆友邦大厦","lon":"121.45056","lat":"31.22995","category":"46","category_name":"楼宇","address":"崇文区夕照寺大街"},{"poiid":"B2094751D56BA3F8429C","title":"5戈比diy烘焙乐园","lon":"121.452616","lat":"31.228782","category":"247","category_name":"餐饮美食","address":"静安区南京西路1129弄75号"},{"poiid":"B2094655D36CA5F5419B","title":"北京西路陕西北路","lon":"121.45243","lat":"31.22933","category":"38","category_name":"公交车站","address":"上海北京西路陕西北路"},{"poiid":"B2094655D26AA1FB479F","title":"静安区中心医院","lon":"121.44982","lat":"31.23057","category":"162","category_name":"医院","address":"静安区西康路259号(近新闸路)"},{"poiid":"B2094757D065A5FE419C","title":"海底捞","lon":"121.45183758","lat":"31.228558398","category":"500","category_name":"未知分类","address":"上海市静安区北京西路1089号"},{"poiid":"B2094655D26DA2F8409F","title":"恒隆广场2号楼","lon":"121.45288","lat":"31.22806","category":"46","category_name":"楼宇","address":""},{"poiid":"B2094753D76FAAFA449C","title":"上海滩国泰旗舰店","lon":"121.466011","lat":"31.216125","category":"249","category_name":"购物服务","address":"淮海中路868号"},{"poiid":"B209475CD564A7F84292","title":"上海滩新天地店","lon":"121.47463","lat":"31.22164","category":"119","category_name":"商场","address":"\"太仓路181弄新天地北里15号\r\n\""},{"poiid":"B209475CD564A7F8439E","title":"上海滩中信泰富店","lon":"121.45602","lat":"31.22851","category":"119","category_name":"商场","address":"\"南京西路1168号中信泰富广场，店铺号221.\r\n\""},{"poiid":"B2094757D06FA2F5439D","title":"Big Bamboo(南阳路店)","lon":"121.4513302","lat":"31.228315506","category":"260","category_name":"其他","address":"静安区南阳路132号波特曼后门(近西康路)"},{"poiid":"B2094757D06FA2F4479F","title":"静安体育馆","lon":"121.4516","lat":"31.22764","category":"224","category_name":"综合体育馆","address":"静安区西康路99-1号静安体育馆内"},{"poiid":"B2094757D06FA5FF4392","title":"上海国宾医疗中心","lon":"121.45115","lat":"31.22959","category":"162","category_name":"医院","address":"上海静安区西康路252号(近北京西路)"},{"poiid":"B2094757D06FA7F8469B","title":"海之幸(恒隆店)","lon":"121.45181","lat":"31.22766","category":"95","category_name":"日本料理","address":"静安区南阳路123号(近静安体育馆)"},{"poiid":"B2094757D06FA7F5489C","title":"静安中华大厦","lon":"121.45067142182","lat":"31.231695206825","category":"46","category_name":"楼宇","address":"北京西路1701号"},{"poiid":"B2094655D26DABFD489C","title":"齐民有机中国火锅","lon":"121.45285","lat":"31.23011","category":"86","category_name":"火锅店","address":"静安区陕西北路407号(近北京西路)"},{"poiid":"B2094654DA6CA7FE489A","title":"怀恩堂","lon":"121.45317","lat":"31.22922","category":"245","category_name":"教堂","address":"静安区陕西北路375号(近南阳路)"},{"poiid":"B2094757D068A6F54099","title":"黑土地农家院","lon":"121.45222958","lat":"31.228801403","category":"82","category_name":"东北菜","address":"静安区北京西路1213号(西康路陕西北路间)"},{"poiid":"B2094757D069A3F44598","title":"Bella Napoli","lon":"121.45193","lat":"31.2285","category":"94","category_name":"西餐厅","address":"静安区西康路140号(近南京西路)"},{"poiid":"B2094757D06FA4F9449F","title":"永和大王(西康路店)","lon":"121.4515","lat":"31.22782","category":"68","category_name":"快餐厅","address":"上海静安区西康路101-3号(近南阳路)  "},{"poiid":"B2094757D06FAAFF489C","title":"静安体育馆羽毛球场","lon":"121.451642446","lat":"31.2276017464","category":"220","category_name":"运动场所","address":"静安区西康路99-1号静安体育馆内"},{"poiid":"B2094654DA6CA3F4499F","title":"本本大厦","lon":"121.4504","lat":"31.23115","category":"46","category_name":"楼宇","address":"越秀区广州沿江中路298号"},{"poiid":"B2094752D16FA2FA4699","title":"点点心港式茶餐","lon":"121.450125","lat":"31.231313","category":"247","category_name":"餐饮美食","address":"南京西路889号"},{"poiid":"B2094753D065A0F8449B","title":"平成屋日式料理店(西康路店)","lon":"121.45201","lat":"31.22773","category":"95","category_name":"日本料理","address":"静安区西康路101号(近南京西路)"},{"poiid":"B2094757D064A1FC419A","title":"南阳路粢饭团","lon":"121.45226","lat":"31.22807","category":"68","category_name":"快餐厅","address":"静安区南阳路100号(西康路口)"},{"poiid":"B2094757D06FA6FE429A","title":"宝寿司(南阳店)","lon":"121.45218868","lat":"31.228390181","category":"95","category_name":"日本料理","address":"静安区南阳路94号(近西康路)"},{"poiid":"B2094757D068A0FE419F","title":"玲珑鱼坊","lon":"121.44886533669","lat":"31.231894470951","category":"71","category_name":"四川菜","address":"静安区西康路326号(近新闸路)"},{"poiid":"B2094757D06AAAFE4292","title":"贝轩大公馆","lon":"121.450637817","lat":"31.2279224396","category":"500","category_name":"未知分类","address":"静安区南阳路170号(近静安体育馆)"},{"poiid":"B2094757D06FA4F94592","title":"中华企业大厦","lon":"121.450565","lat":"31.22942","category":"46","category_name":"楼宇","address":"华山路2号"},{"poiid":"B2094757D06BA3FE419F","title":"The Rabbit Hole","lon":"121.45319029","lat":"31.229673726","category":"216","category_name":"经济型连锁酒店","address":"静安区陕西北路408号2楼(近北京西路)"},{"poiid":"B2094757D06FA7F5459E","title":"85度C(陕北店)","lon":"121.45369","lat":"31.22953","category":"112","category_name":"糕饼店","address":"静安区陕西北路408号(近北京西路)"},{"poiid":"B2094654DB6BA6F4409E","title":"同济大学附属七一中学","lon":"121.45207","lat":"31.231","category":"55","category_name":"中学","address":"陕西北路461"},{"poiid":"B2094654DB69A0F9489D","title":"泰煌鸡 静安店","lon":"121.450220054","lat":"31.231140793","category":"68","category_name":"快餐厅","address":"静安区新闸路1333号(近西康路)"},{"poiid":"B2094654DA6CA0FB4993","title":"金航大厦","lon":"121.45","lat":"31.231","category":"46","category_name":"楼宇","address":"卫清西路139_149号等"},{"poiid":"B2094757D06BA6F5499F","title":"Egghead Bagels","lon":"121.453457","lat":"31.229931","category":"94","category_name":"西餐厅","address":"静安区陕西北路455号(近北京西路)"},{"poiid":"B2094757D06AA0FF4392","title":"Bros Wasabi 日本料理和佐美","lon":"121.45182","lat":"31.22815","category":"95","category_name":"日本料理","address":"上海市静安区西康路101号(近南阳路)"},{"poiid":"B2094752D669A5FF429F","title":"阿宝家海鲜料理","lon":"121.453439","lat":"31.230462","category":"247","category_name":"餐饮美食","address":"威海路641号近茂名北路"},{"poiid":"B2094654DA6CA3FF419A","title":"上海市语言文字水平测试中心","lon":"121.45272","lat":"31.23152","category":"250","category_name":"公园户外","address":"静安区陕西北路500号"},{"poiid":"B2094757D068A5FC449C","title":"红宝石(新闸店)","lon":"121.45051","lat":"31.23133","category":"67","category_name":"甜品店","address":"静安区新闸路1384号(近西康路)"},{"poiid":"B2094757D165A1F44293","title":"型人坊","lon":"121.45324158","lat":"31.229881424","category":"500","category_name":"未知分类","address":"上海静安区北京西路1124号"},{"poiid":"B2094654DB64A4FD4299","title":"爱康国宾上海西康路分院","lon":"121.45088","lat":"31.22988","category":"162","category_name":"医院","address":"西康路252号"},{"poiid":"B2094757D065A7F5439D","title":"普通话测试中心","lon":"121.452602","lat":"31.231316","category":"500","category_name":"未知分类","address":"上海陕西北路500号6号楼101室"},{"poiid":"B2094757D168A3FA4799","title":"海底捞火锅","lon":"121.453200586","lat":"31.2316024579","category":"247","category_name":"餐饮美食","address":"上海市江宁路食博汇"},{"poiid":"B2094750D768A3F9429F","title":"煲格阁","lon":"121.452","lat":"31.2292","category":"72","category_name":"广东菜","address":"静安区北京西路1225号(近西康路)"},{"poiid":"B2094750DB69AAFB499A","title":"泰盟金阁","lon":"121.453246","lat":"31.230032","category":"247","category_name":"餐饮美食","address":"静安区陕西北路408号(近北京西路路口)"},{"poiid":"B2094757DB6EABF9449B","title":"Costa中信泰富店","lon":"121.45105117","lat":"31.229963384999998","category":"65","category_name":"咖啡厅","address":"中信泰富广场5楼501A单元"},{"poiid":"B2094654DA6CA0FB479A","title":"胶州大楼","lon":"121.451","lat":"31.232","category":"46","category_name":"楼宇","address":"胶州路58号"},{"poiid":"B2094654DA6CA7FE439A","title":"宝隆居家酒店","lon":"121.45134","lat":"31.22777","category":"257","category_name":"中餐厅","address":"上海市静安区南阳路125号(近西康路)"},{"poiid":"B2094757D06FAAF4469F","title":"HERMES(恒隆店)","lon":"121.453051086","lat":"31.2314859556","category":"141","category_name":"服装鞋帽皮具店","address":"静安区南京西路1266号恒隆广场3楼(近陕西北路)"},{"poiid":"B2094655D26DA1FC4892","title":"村夫烤鱼(后门)","lon":"121.45175","lat":"31.22861","category":"68","category_name":"快餐厅","address":"静安区西康路112号(近南京西路)"},{"poiid":"B2094757D065A4FF469E","title":"静安区中心医院体检中心","lon":"121.45069","lat":"31.23048","category":"162","category_name":"医院","address":"上海静安区西康路266号(近新闸路)  "},{"poiid":"B2094654DA6CA2FC4892","title":"东隆友邦大厦","lon":"121.45056","lat":"31.22995","category":"46","category_name":"楼宇","address":"崇文区夕照寺大街"},{"poiid":"B2094751D56BA3F8429C","title":"5戈比diy烘焙乐园","lon":"121.452616","lat":"31.228782","category":"247","category_name":"餐饮美食","address":"静安区南京西路1129弄75号"},{"poiid":"B2094655D36CA5F5419B","title":"北京西路陕西北路","lon":"121.45243","lat":"31.22933","category":"38","category_name":"公交车站","address":"上海北京西路陕西北路"},{"poiid":"B2094655D26AA1FB479F","title":"静安区中心医院","lon":"121.44982","lat":"31.23057","category":"162","category_name":"医院","address":"静安区西康路259号(近新闸路)"},{"poiid":"B2094757D065A5FE419C","title":"海底捞","lon":"121.45183758","lat":"31.228558398","category":"500","category_name":"未知分类","address":"上海市静安区北京西路1089号"},{"poiid":"B2094655D26DA2F8409F","title":"恒隆广场2号楼","lon":"121.45288","lat":"31.22806","category":"46","category_name":"楼宇","address":""},{"poiid":"B2094753D76FAAFA449C","title":"上海滩国泰旗舰店","lon":"121.466011","lat":"31.216125","category":"249","category_name":"购物服务","address":"淮海中路868号"},{"poiid":"B209475CD564A7F84292","title":"上海滩新天地店","lon":"121.47463","lat":"31.22164","category":"119","category_name":"商场","address":"\"太仓路181弄新天地北里15号\r\n\""},{"poiid":"B209475CD564A7F8439E","title":"上海滩中信泰富店","lon":"121.45602","lat":"31.22851","category":"119","category_name":"商场","address":"\"南京西路1168号中信泰富广场，店铺号221.\r\n\""},{"poiid":"B2094757D06FA2F5439D","title":"Big Bamboo(南阳路店)","lon":"121.4513302","lat":"31.228315506","category":"260","category_name":"其他","address":"静安区南阳路132号波特曼后门(近西康路)"},{"poiid":"B2094757D06FA2F4479F","title":"静安体育馆","lon":"121.4516","lat":"31.22764","category":"224","category_name":"综合体育馆","address":"静安区西康路99-1号静安体育馆内"},{"poiid":"B2094757D06FA5FF4392","title":"上海国宾医疗中心","lon":"121.45115","lat":"31.22959","category":"162","category_name":"医院","address":"上海静安区西康路252号(近北京西路)"},{"poiid":"B2094757D06FA7F8469B","title":"海之幸(恒隆店)","lon":"121.45181","lat":"31.22766","category":"95","category_name":"日本料理","address":"静安区南阳路123号(近静安体育馆)"},{"poiid":"B2094757D06FA7F5489C","title":"静安中华大厦","lon":"121.45067142182","lat":"31.231695206825","category":"46","category_name":"楼宇","address":"北京西路1701号"},{"poiid":"B2094655D26DABFD489C","title":"齐民有机中国火锅","lon":"121.45285","lat":"31.23011","category":"86","category_name":"火锅店","address":"静安区陕西北路407号(近北京西路)"},{"poiid":"B2094654DA6CA7FE489A","title":"怀恩堂","lon":"121.45317","lat":"31.22922","category":"245","category_name":"教堂","address":"静安区陕西北路375号(近南阳路)"},{"poiid":"B2094757D068A6F54099","title":"黑土地农家院","lon":"121.45222958","lat":"31.228801403","category":"82","category_name":"东北菜","address":"静安区北京西路1213号(西康路陕西北路间)"},{"poiid":"B2094757D069A3F44598","title":"Bella Napoli","lon":"121.45193","lat":"31.2285","category":"94","category_name":"西餐厅","address":"静安区西康路140号(近南京西路)"},{"poiid":"B2094757D06FA4F9449F","title":"永和大王(西康路店)","lon":"121.4515","lat":"31.22782","category":"68","category_name":"快餐厅","address":"上海静安区西康路101-3号(近南阳路)  "},{"poiid":"B2094757D06FAAFF489C","title":"静安体育馆羽毛球场","lon":"121.451642446","lat":"31.2276017464","category":"220","category_name":"运动场所","address":"静安区西康路99-1号静安体育馆内"},{"poiid":"B2094654DA6CA3F4499F","title":"本本大厦","lon":"121.4504","lat":"31.23115","category":"46","category_name":"楼宇","address":"越秀区广州沿江中路298号"},{"poiid":"B2094752D16FA2FA4699","title":"点点心港式茶餐","lon":"121.450125","lat":"31.231313","category":"247","category_name":"餐饮美食","address":"南京西路889号"},{"poiid":"B2094753D065A0F8449B","title":"平成屋日式料理店(西康路店)","lon":"121.45201","lat":"31.22773","category":"95","category_name":"日本料理","address":"静安区西康路101号(近南京西路)"},{"poiid":"B2094757D064A1FC419A","title":"南阳路粢饭团","lon":"121.45226","lat":"31.22807","category":"68","category_name":"快餐厅","address":"静安区南阳路100号(西康路口)"},{"poiid":"B2094757D06FA6FE429A","title":"宝寿司(南阳店)","lon":"121.45218868","lat":"31.228390181","category":"95","category_name":"日本料理","address":"静安区南阳路94号(近西康路)"},{"poiid":"B2094757D068A0FE419F","title":"玲珑鱼坊","lon":"121.44886533669","lat":"31.231894470951","category":"71","category_name":"四川菜","address":"静安区西康路326号(近新闸路)"},{"poiid":"B2094757D06AAAFE4292","title":"贝轩大公馆","lon":"121.450637817","lat":"31.2279224396","category":"500","category_name":"未知分类","address":"静安区南阳路170号(近静安体育馆)"},{"poiid":"B2094757D06FA4F94592","title":"中华企业大厦","lon":"121.450565","lat":"31.22942","category":"46","category_name":"楼宇","address":"华山路2号"},{"poiid":"B2094757D06BA3FE419F","title":"The Rabbit Hole","lon":"121.45319029","lat":"31.229673726","category":"216","category_name":"经济型连锁酒店","address":"静安区陕西北路408号2楼(近北京西路)"},{"poiid":"B2094757D06FA7F5459E","title":"85度C(陕北店)","lon":"121.45369","lat":"31.22953","category":"112","category_name":"糕饼店","address":"静安区陕西北路408号(近北京西路)"},{"poiid":"B2094654DB6BA6F4409E","title":"同济大学附属七一中学","lon":"121.45207","lat":"31.231","category":"55","category_name":"中学","address":"陕西北路461"},{"poiid":"B2094654DB69A0F9489D","title":"泰煌鸡 静安店","lon":"121.450220054","lat":"31.231140793","category":"68","category_name":"快餐厅","address":"静安区新闸路1333号(近西康路)"},{"poiid":"B2094654DA6CA0FB4993","title":"金航大厦","lon":"121.45","lat":"31.231","category":"46","category_name":"楼宇","address":"卫清西路139_149号等"},{"poiid":"B2094757D06BA6F5499F","title":"Egghead Bagels","lon":"121.453457","lat":"31.229931","category":"94","category_name":"西餐厅","address":"静安区陕西北路455号(近北京西路)"},{"poiid":"B2094757D06AA0FF4392","title":"Bros Wasabi 日本料理和佐美","lon":"121.45182","lat":"31.22815","category":"95","category_name":"日本料理","address":"上海市静安区西康路101号(近南阳路)"},{"poiid":"B2094752D669A5FF429F","title":"阿宝家海鲜料理","lon":"121.453439","lat":"31.230462","category":"247","category_name":"餐饮美食","address":"威海路641号近茂名北路"},{"poiid":"B2094654DA6CA3FF419A","title":"上海市语言文字水平测试中心","lon":"121.45272","lat":"31.23152","category":"250","category_name":"公园户外","address":"静安区陕西北路500号"},{"poiid":"B2094757D068A5FC449C","title":"红宝石(新闸店)","lon":"121.45051","lat":"31.23133","category":"67","category_name":"甜品店","address":"静安区新闸路1384号(近西康路)"},{"poiid":"B2094757D165A1F44293","title":"型人坊","lon":"121.45324158","lat":"31.229881424","category":"500","category_name":"未知分类","address":"上海静安区北京西路1124号"},{"poiid":"B2094654DB64A4FD4299","title":"爱康国宾上海西康路分院","lon":"121.45088","lat":"31.22988","category":"162","category_name":"医院","address":"西康路252号"},{"poiid":"B2094757D065A7F5439D","title":"普通话测试中心","lon":"121.452602","lat":"31.231316","category":"500","category_name":"未知分类","address":"上海陕西北路500号6号楼101室"},{"poiid":"B2094757D168A3FA4799","title":"海底捞火锅","lon":"121.453200586","lat":"31.2316024579","category":"247","category_name":"餐饮美食","address":"上海市江宁路食博汇"},{"poiid":"B2094750D768A3F9429F","title":"煲格阁","lon":"121.452","lat":"31.2292","category":"72","category_name":"广东菜","address":"静安区北京西路1225号(近西康路)"},{"poiid":"B2094750DB69AAFB499A","title":"泰盟金阁","lon":"121.453246","lat":"31.230032","category":"247","category_name":"餐饮美食","address":"静安区陕西北路408号(近北京西路路口)"},{"poiid":"B2094757DB6EABF9449B","title":"Costa中信泰富店","lon":"121.45105117","lat":"31.229963384999998","category":"65","category_name":"咖啡厅","address":"中信泰富广场5楼501A单元"},{"poiid":"B2094654DA6CA0FB479A","title":"胶州大楼","lon":"121.451","lat":"31.232","category":"46","category_name":"楼宇","address":"胶州路58号"},{"poiid":"B2094654DA6CA7FE439A","title":"宝隆居家酒店","lon":"121.45134","lat":"31.22777","category":"257","category_name":"中餐厅","address":"上海市静安区南阳路125号(近西康路)"},{"poiid":"B2094757D06FAAF4469F","title":"HERMES(恒隆店)","lon":"121.453051086","lat":"31.2314859556","category":"141","category_name":"服装鞋帽皮具店","address":"静安区南京西路1266号恒隆广场3楼(近陕西北路)"},{"poiid":"B2094655D26DA1FC4892","title":"村夫烤鱼(后门)","lon":"121.45175","lat":"31.22861","category":"68","category_name":"快餐厅","address":"静安区西康路112号(近南京西路)"},{"poiid":"B2094757D065A4FF469E","title":"静安区中心医院体检中心","lon":"121.45069","lat":"31.23048","category":"162","category_name":"医院","address":"上海静安区西康路266号(近新闸路)  "},{"poiid":"B2094654DA6CA2FC4892","title":"东隆友邦大厦","lon":"121.45056","lat":"31.22995","category":"46","category_name":"楼宇","address":"崇文区夕照寺大街"},{"poiid":"B2094751D56BA3F8429C","title":"5戈比diy烘焙乐园","lon":"121.452616","lat":"31.228782","category":"247","category_name":"餐饮美食","address":"静安区南京西路1129弄75号"},{"poiid":"B2094655D36CA5F5419B","title":"北京西路陕西北路","lon":"121.45243","lat":"31.22933","category":"38","category_name":"公交车站","address":"上海北京西路陕西北路"},{"poiid":"B2094655D26AA1FB479F","title":"静安区中心医院","lon":"121.44982","lat":"31.23057","category":"162","category_name":"医院","address":"静安区西康路259号(近新闸路)"},{"poiid":"B2094757D065A5FE419C","title":"海底捞","lon":"121.45183758","lat":"31.228558398","category":"500","category_name":"未知分类","address":"上海市静安区北京西路1089号"},{"poiid":"B2094655D26DA2F8409F","title":"恒隆广场2号楼","lon":"121.45288","lat":"31.22806","category":"46","category_name":"楼宇","address":""},{"poiid":"B2094753D76FAAFA449C","title":"上海滩国泰旗舰店","lon":"121.466011","lat":"31.216125","category":"249","category_name":"购物服务","address":"淮海中路868号"},{"poiid":"B209475CD564A7F84292","title":"上海滩新天地店","lon":"121.47463","lat":"31.22164","category":"119","category_name":"商场","address":"\"太仓路181弄新天地北里15号\r\n\""},{"poiid":"B209475CD564A7F8439E","title":"上海滩中信泰富店","lon":"121.45602","lat":"31.22851","category":"119","category_name":"商场","address":"\"南京西路1168号中信泰富广场，店铺号221.\r\n\""},{"poiid":"B2094757D06FA2F5439D","title":"Big Bamboo(南阳路店)","lon":"121.4513302","lat":"31.228315506","category":"260","category_name":"其他","address":"静安区南阳路132号波特曼后门(近西康路)"},{"poiid":"B2094757D06FA2F4479F","title":"静安体育馆","lon":"121.4516","lat":"31.22764","category":"224","category_name":"综合体育馆","address":"静安区西康路99-1号静安体育馆内"},{"poiid":"B2094757D06FA5FF4392","title":"上海国宾医疗中心","lon":"121.45115","lat":"31.22959","category":"162","category_name":"医院","address":"上海静安区西康路252号(近北京西路)"},{"poiid":"B2094757D06FA7F8469B","title":"海之幸(恒隆店)","lon":"121.45181","lat":"31.22766","category":"95","category_name":"日本料理","address":"静安区南阳路123号(近静安体育馆)"},{"poiid":"B2094757D06FA7F5489C","title":"静安中华大厦","lon":"121.45067142182","lat":"31.231695206825","category":"46","category_name":"楼宇","address":"北京西路1701号"},{"poiid":"B2094655D26DABFD489C","title":"齐民有机中国火锅","lon":"121.45285","lat":"31.23011","category":"86","category_name":"火锅店","address":"静安区陕西北路407号(近北京西路)"},{"poiid":"B2094654DA6CA7FE489A","title":"怀恩堂","lon":"121.45317","lat":"31.22922","category":"245","category_name":"教堂","address":"静安区陕西北路375号(近南阳路)"},{"poiid":"B2094757D068A6F54099","title":"黑土地农家院","lon":"121.45222958","lat":"31.228801403","category":"82","category_name":"东北菜","address":"静安区北京西路1213号(西康路陕西北路间)"},{"poiid":"B2094757D069A3F44598","title":"Bella Napoli","lon":"121.45193","lat":"31.2285","category":"94","category_name":"西餐厅","address":"静安区西康路140号(近南京西路)"},{"poiid":"B2094757D06FA4F9449F","title":"永和大王(西康路店)","lon":"121.4515","lat":"31.22782","category":"68","category_name":"快餐厅","address":"上海静安区西康路101-3号(近南阳路)  "},{"poiid":"B2094757D06FAAFF489C","title":"静安体育馆羽毛球场","lon":"121.451642446","lat":"31.2276017464","category":"220","category_name":"运动场所","address":"静安区西康路99-1号静安体育馆内"},{"poiid":"B2094654DA6CA3F4499F","title":"本本大厦","lon":"121.4504","lat":"31.23115","category":"46","category_name":"楼宇","address":"越秀区广州沿江中路298号"},{"poiid":"B2094752D16FA2FA4699","title":"点点心港式茶餐","lon":"121.450125","lat":"31.231313","category":"247","category_name":"餐饮美食","address":"南京西路889号"},{"poiid":"B2094753D065A0F8449B","title":"平成屋日式料理店(西康路店)","lon":"121.45201","lat":"31.22773","category":"95","category_name":"日本料理","address":"静安区西康路101号(近南京西路)"},{"poiid":"B2094757D064A1FC419A","title":"南阳路粢饭团","lon":"121.45226","lat":"31.22807","category":"68","category_name":"快餐厅","address":"静安区南阳路100号(西康路口)"},{"poiid":"B2094757D06FA6FE429A","title":"宝寿司(南阳店)","lon":"121.45218868","lat":"31.228390181","category":"95","category_name":"日本料理","address":"静安区南阳路94号(近西康路)"},{"poiid":"B2094757D068A0FE419F","title":"玲珑鱼坊","lon":"121.44886533669","lat":"31.231894470951","category":"71","category_name":"四川菜","address":"静安区西康路326号(近新闸路)"},{"poiid":"B2094757D06AAAFE4292","title":"贝轩大公馆","lon":"121.450637817","lat":"31.2279224396","category":"500","category_name":"未知分类","address":"静安区南阳路170号(近静安体育馆)"},{"poiid":"B2094757D06FA4F94592","title":"中华企业大厦","lon":"121.450565","lat":"31.22942","category":"46","category_name":"楼宇","address":"华山路2号"},{"poiid":"B2094757D06BA3FE419F","title":"The Rabbit Hole","lon":"121.45319029","lat":"31.229673726","category":"216","category_name":"经济型连锁酒店","address":"静安区陕西北路408号2楼(近北京西路)"},{"poiid":"B2094757D06FA7F5459E","title":"85度C(陕北店)","lon":"121.45369","lat":"31.22953","category":"112","category_name":"糕饼店","address":"静安区陕西北路408号(近北京西路)"},{"poiid":"B2094654DB6BA6F4409E","title":"同济大学附属七一中学","lon":"121.45207","lat":"31.231","category":"55","category_name":"中学","address":"陕西北路461"},{"poiid":"B2094654DB69A0F9489D","title":"泰煌鸡 静安店","lon":"121.450220054","lat":"31.231140793","category":"68","category_name":"快餐厅","address":"静安区新闸路1333号(近西康路)"},{"poiid":"B2094654DA6CA0FB4993","title":"金航大厦","lon":"121.45","lat":"31.231","category":"46","category_name":"楼宇","address":"卫清西路139_149号等"},{"poiid":"B2094757D06BA6F5499F","title":"Egghead Bagels","lon":"121.453457","lat":"31.229931","category":"94","category_name":"西餐厅","address":"静安区陕西北路455号(近北京西路)"},{"poiid":"B2094757D06AA0FF4392","title":"Bros Wasabi 日本料理和佐美","lon":"121.45182","lat":"31.22815","category":"95","category_name":"日本料理","address":"上海市静安区西康路101号(近南阳路)"},{"poiid":"B2094752D669A5FF429F","title":"阿宝家海鲜料理","lon":"121.453439","lat":"31.230462","category":"247","category_name":"餐饮美食","address":"威海路641号近茂名北路"},{"poiid":"B2094654DA6CA3FF419A","title":"上海市语言文字水平测试中心","lon":"121.45272","lat":"31.23152","category":"250","category_name":"公园户外","address":"静安区陕西北路500号"},{"poiid":"B2094757D068A5FC449C","title":"红宝石(新闸店)","lon":"121.45051","lat":"31.23133","category":"67","category_name":"甜品店","address":"静安区新闸路1384号(近西康路)"},{"poiid":"B2094757D165A1F44293","title":"型人坊","lon":"121.45324158","lat":"31.229881424","category":"500","category_name":"未知分类","address":"上海静安区北京西路1124号"},{"poiid":"B2094654DB64A4FD4299","title":"爱康国宾上海西康路分院","lon":"121.45088","lat":"31.22988","category":"162","category_name":"医院","address":"西康路252号"},{"poiid":"B2094757D065A7F5439D","title":"普通话测试中心","lon":"121.452602","lat":"31.231316","category":"500","category_name":"未知分类","address":"上海陕西北路500号6号楼101室"},{"poiid":"B2094757D168A3FA4799","title":"海底捞火锅","lon":"121.453200586","lat":"31.2316024579","category":"247","category_name":"餐饮美食","address":"上海市江宁路食博汇"},{"poiid":"B2094750D768A3F9429F","title":"煲格阁","lon":"121.452","lat":"31.2292","category":"72","category_name":"广东菜","address":"静安区北京西路1225号(近西康路)"},{"poiid":"B2094750DB69AAFB499A","title":"泰盟金阁","lon":"121.453246","lat":"31.230032","category":"247","category_name":"餐饮美食","address":"静安区陕西北路408号(近北京西路路口)"},{"poiid":"B2094757DB6EABF9449B","title":"Costa中信泰富店","lon":"121.45105117","lat":"31.229963384999998","category":"65","category_name":"咖啡厅","address":"中信泰富广场5楼501A单元"},{"poiid":"B2094654DA6CA0FB479A","title":"胶州大楼","lon":"121.451","lat":"31.232","category":"46","category_name":"楼宇","address":"胶州路58号"},{"poiid":"B2094654DA6CA7FE439A","title":"宝隆居家酒店","lon":"121.45134","lat":"31.22777","category":"257","category_name":"中餐厅","address":"上海市静安区南阳路125号(近西康路)"},{"poiid":"B2094757D06FAAF4469F","title":"HERMES(恒隆店)","lon":"121.453051086","lat":"31.2314859556","category":"141","category_name":"服装鞋帽皮具店","address":"静安区南京西路1266号恒隆广场3楼(近陕西北路)"},{"poiid":"B2094655D26DA1FC4892","title":"村夫烤鱼(后门)","lon":"121.45175","lat":"31.22861","category":"68","category_name":"快餐厅","address":"静安区西康路112号(近南京西路)"},{"poiid":"B2094757D065A4FF469E","title":"静安区中心医院体检中心","lon":"121.45069","lat":"31.23048","category":"162","category_name":"医院","address":"上海静安区西康路266号(近新闸路)  "},{"poiid":"B2094654DA6CA2FC4892","title":"东隆友邦大厦","lon":"121.45056","lat":"31.22995","category":"46","category_name":"楼宇","address":"崇文区夕照寺大街"},{"poiid":"B2094751D56BA3F8429C","title":"5戈比diy烘焙乐园","lon":"121.452616","lat":"31.228782","category":"247","category_name":"餐饮美食","address":"静安区南京西路1129弄75号"},{"poiid":"B2094655D36CA5F5419B","title":"北京西路陕西北路","lon":"121.45243","lat":"31.22933","category":"38","category_name":"公交车站","address":"上海北京西路陕西北路"}]