[{"poiid":"B2094757D06EAAFB4398","title":"邮电新村地铁站","lon":"121.49450107","lat":"31.268612797","category":"36","category_name":"地铁站","address":"上海轨道交通 十号线 轨交邮电新村站 10"},{"poiid":"B2094757D06FA0FE469E","title":"邮电新村","lon":"121.49442895","lat":"31.270637995","category":"47","category_name":"住宅区","address":"上海四平路621弄〔近密云路〕"},{"poiid":"B2094654D56CA7FF499C","title":"红城阁","lon":"121.49215","lat":"31.27108","category":"76","category_name":"上海菜","address":"虹口区曲阳路239号(近四平路)"},{"poiid":"B2094757D06FA5FE449E","title":"四平路曲阳路口","lon":"121.495693","lat":"31.269823","category":"500","category_name":"未知分类","address":"上海四平路曲阳路"},{"poiid":"B2094654D56CA0FB499A","title":"金陵国际大厦","lon":"121.496","lat":"31.2713","category":"46","category_name":"楼宇","address":"海淀区城府路,中关村东路交叉处西北方向"},{"poiid":"B2094757D06FA3FB469C","title":"欧阳花苑","lon":"121.49108","lat":"31.272671","category":"47","category_name":"住宅区","address":"上海虹口区曲阳路385弄"},{"poiid":"B2094757D068A7FD4193","title":"上海市社会保险基金管理中心","lon":"121.492274","lat":"31.270805","category":"500","category_name":"未知分类","address":"上海曲阳路179号"},{"poiid":"B2094757D06FABFC4498","title":"祥德路欧阳路","lon":"121.491545","lat":"31.271189","category":"47","category_name":"住宅区","address":"上海祥德路欧阳路"},{"poiid":"B2094655D36CA2F94098","title":"曲阳路祥德路","lon":"121.49199","lat":"31.2722","category":"38","category_name":"公交车站","address":""},{"poiid":"B2094654DB6AAAF8459C","title":"上岛咖啡(曲阳店)","lon":"121.49298","lat":"31.27155","category":"260","category_name":"其他","address":"虹口区曲阳路118弄28号3楼(近祥德路)"},{"poiid":"B2094757D06FA5F4409E","title":"JEANS108SALON(京世曲阳店)","lon":"121.49333","lat":"31.27012","category":"148","category_name":"美容美发店","address":"上海虹口区曲阳路108号(近四平路)"},{"poiid":"B2094750D768A2FC489A","title":"群龙无首小菜","lon":"121.493","lat":"31.2719","category":"76","category_name":"上海菜","address":"虹口区曲阳路158号瑞峰商务楼105-106室(近祥德路)"},{"poiid":"B2094751DB64A0FD4398","title":"东吴一品大酒楼","lon":"121.49286","lat":"31.27156","category":"72","category_name":"广东菜","address":"虹口区曲阳路158号(近祥德路)"},{"poiid":"B2094655D26FA0F84799","title":"飘鹰东方花园","lon":"121.49414","lat":"31.271051","category":"47","category_name":"住宅区","address":"上海曲阳路118弄"},{"poiid":"B2094654D56CA0F84799","title":"永琪美容美发(曲阳路)","lon":"121.49231","lat":"31.27206","category":"148","category_name":"美容美发店","address":"曲阳路258"},{"poiid":"B2094757D065A0FF439D","title":"四平路密云路","lon":"121.4962091","lat":"31.271177438","category":"500","category_name":"未知分类","address":"上海市虹口区曲阳路"},{"poiid":"B2094757D66BA5FA4593","title":"美基饺子馆","lon":"121.49200877277","lat":"31.271969204655","category":"68","category_name":"快餐厅","address":"虹口区曲阳路296号(近祥德路)"},{"poiid":"B2094654DB6AAAF84399","title":"祥东小区","lon":"121.49424","lat":"31.27349","category":"47","category_name":"住宅区","address":"天宝西路242弄1-41号、4弄1-13号、268号"},{"poiid":"B2094750D664A5FD489D","title":"老顺昌汤包馆","lon":"121.493","lat":"31.2719","category":"68","category_name":"快餐厅","address":"虹口区曲阳路158号(近祥德路)"},{"poiid":"B2094757D16BA5FB449C","title":"德阳花苑","lon":"121.491952103","lat":"31.271464444","category":"47","category_name":"住宅区","address":"德阳花苑位于虹口曲阳路269弄"},{"poiid":"B2094654DB6AAAF84398","title":"大连新村小区","lon":"121.49335","lat":"31.27489","category":"47","category_name":"住宅区","address":"大连西路201弄7-54号、215弄1-17号、221弄1-8"},{"poiid":"B2094654D56CA0F8459F","title":"瑞峰商务","lon":"121.49339","lat":"31.27214","category":"46","category_name":"楼宇","address":"曲阳路158号"},{"poiid":"B2094654D56CA0F8459B","title":"好德便利No.986","lon":"121.49294","lat":"31.27145","category":"117","category_name":"便民商店/便利店","address":"曲阳路"},{"poiid":"B2094751D364A5F84899","title":"彭浦夜市","lon":"121.493859","lat":"31.270961","category":"247","category_name":"餐饮美食","address":"闻喜路"},{"poiid":"B2094757D06BA4FD479B","title":"上海市公积金管理中心","lon":"121.491546631","lat":"31.2721328735","category":"500","category_name":"未知分类","address":"上海曲阳路299号"},{"poiid":"B2094654D56CA0F84598","title":"农工商超市No.130","lon":"121.49295","lat":"31.27152","category":"118","category_name":"超级市场","address":"曲阳路"},{"poiid":"B2094655D265A1F4449B","title":"京世造型·美容","lon":"121.49326","lat":"31.27054","category":"148","category_name":"美容美发店","address":""},{"poiid":"B2094655D26CA1F94298","title":"祥德路480弄小区","lon":"121.49295","lat":"31.27252","category":"47","category_name":"住宅区","address":"祥德路480弄1-3号"},{"poiid":"B2094654D56CA7F84492","title":"磊博商务楼","lon":"121.49166","lat":"31.271","category":"46","category_name":"楼宇","address":"祥德路383"},{"poiid":"B2094757D66DA5FB4393","title":"虹口区劳动仲裁","lon":"121.493047","lat":"31.272383","category":"500","category_name":"未知分类","address":"上海祥德路468号"},{"poiid":"B2094757D06BA3F84292","title":"鑫旺府","lon":"121.49156","lat":"31.27253","category":"247","category_name":"餐饮美食","address":"上海虹口区曲阳路379号(近详德路)  "},{"poiid":"B2094655D26DABF5499D","title":"祥德路480弄小区(东门)","lon":"121.49322","lat":"31.27266","category":"47","category_name":"住宅区","address":"祥德路480弄1-3号"},{"poiid":"B2094757D06AA0F8479F","title":"上海职业介绍虹口分中心","lon":"121.492242","lat":"31.270854","category":"500","category_name":"未知分类","address":"上海曲阳路191号"},{"poiid":"B2094655D26EA2F9489F","title":"祥德路500弄小区","lon":"121.49285","lat":"31.27312","category":"47","category_name":"住宅区","address":"祥德路500弄1-5号"},{"poiid":"B2094654D56CA0FC4799","title":"大西小区","lon":"121.49454","lat":"31.275146","category":"47","category_name":"住宅区","address":"大连西路195弄1-12号,165弄1-29号"},{"poiid":"B2094655D26CA1F8489E","title":"上海市虹口区幸福四平实验小学","lon":"121.49421","lat":"31.27166","category":"56","category_name":"小学","address":"虹口区四平路621弄100号"},{"poiid":"B2094655D26FA0F4419F","title":"大二小区(东门)","lon":"121.49337","lat":"31.27316","category":"47","category_name":"住宅区","address":"天宝西路248弄1-5号"},{"poiid":"B2094655D26CA1FA429D","title":"祥德路500弄小区(东门)","lon":"121.49327","lat":"31.2729","category":"47","category_name":"住宅区","address":"祥德路500弄1-5号"},{"poiid":"B2094757D169A1F54092","title":"13CC's 屋企","lon":"121.494161103","lat":"31.2720664566","category":"247","category_name":"餐饮美食","address":"上海市虹口区曲阳路祥德路"},{"poiid":"B2094654DB69A5FC4792","title":"福奈特洗衣(曲阳路店)","lon":"121.49219","lat":"31.27226","category":"249","category_name":"购物服务","address":"虹口区曲阳路268-272号(近四平路)"},{"poiid":"B2094752DB6BA2FF409E","title":"麻辣诱惑","lon":"121.492536","lat":"31.273477","category":"247","category_name":"餐饮美食","address":"上海市 虹口龙之梦"},{"poiid":"B2094654D56CA0F8469B","title":"大二小区","lon":"121.4929","lat":"31.27334","category":"47","category_name":"住宅区","address":"天宝西路248弄1-5号"},{"poiid":"B2094654D56CA7FF4998","title":"宏城公寓","lon":"121.49235","lat":"31.270332","category":"47","category_name":"住宅区","address":"曲阳路163-167"},{"poiid":"B2094757D76CA3F84298","title":"卧云茶敘","lon":"121.493871","lat":"31.268995","category":"66","category_name":"茶艺馆","address":"虹口区曲阳路26号(近四平路)"},{"poiid":"B2094654D56CA7FF4993","title":"金钵桌球俱乐部","lon":"121.49213","lat":"31.27113","category":"171","category_name":"台球厅","address":"虹口区曲阳路239号3楼(近祥德路)"},{"poiid":"B2094655D26FA0FA4898","title":"宏祥花苑","lon":"121.49262","lat":"31.26956","category":"47","category_name":"住宅区","address":"宏祥花苑位于虹口曲阳路69弄"},{"poiid":"B2094757D168A5F8419B","title":"卧雲茶叙","lon":"121.494169103","lat":"31.2695124032","category":"247","category_name":"餐饮美食","address":"上海市虹口区曲阳路"},{"poiid":"B2094655D26BA4FA439D","title":"曲阳住宅楼","lon":"121.49179","lat":"31.27357","category":"47","category_name":"住宅区","address":"曲阳住宅楼位于虹口曲阳路428弄"},{"poiid":"B2094654DB6AAAF8459E","title":"德恩士齿科连锁机构(上海02)","lon":"121.49362","lat":"31.27029","category":"162","category_name":"医院","address":"曲阳路104号甲"},{"poiid":"B2094757D16EA2F9499B","title":"文峰美容美发(曲阳店)","lon":"121.4915426","lat":"31.272355062","category":"148","category_name":"美容美发店","address":"上海曲阳路267号"},{"poiid":"B2094757D06EAAFB4398","title":"邮电新村地铁站","lon":"121.49450107","lat":"31.268612797","category":"36","category_name":"地铁站","address":"上海轨道交通 十号线 轨交邮电新村站 10"},{"poiid":"B2094757D06FA0FE469E","title":"邮电新村","lon":"121.49442895","lat":"31.270637995","category":"47","category_name":"住宅区","address":"上海四平路621弄〔近密云路〕"},{"poiid":"B2094654D56CA7FF499C","title":"红城阁","lon":"121.49215","lat":"31.27108","category":"76","category_name":"上海菜","address":"虹口区曲阳路239号(近四平路)"},{"poiid":"B2094757D06FA5FE449E","title":"四平路曲阳路口","lon":"121.495693","lat":"31.269823","category":"500","category_name":"未知分类","address":"上海四平路曲阳路"},{"poiid":"B2094654D56CA0FB499A","title":"金陵国际大厦","lon":"121.496","lat":"31.2713","category":"46","category_name":"楼宇","address":"海淀区城府路,中关村东路交叉处西北方向"},{"poiid":"B2094757D06FA3FB469C","title":"欧阳花苑","lon":"121.49108","lat":"31.272671","category":"47","category_name":"住宅区","address":"上海虹口区曲阳路385弄"},{"poiid":"B2094757D068A7FD4193","title":"上海市社会保险基金管理中心","lon":"121.492274","lat":"31.270805","category":"500","category_name":"未知分类","address":"上海曲阳路179号"},{"poiid":"B2094757D06FABFC4498","title":"祥德路欧阳路","lon":"121.491545","lat":"31.271189","category":"47","category_name":"住宅区","address":"上海祥德路欧阳路"},{"poiid":"B2094655D36CA2F94098","title":"曲阳路祥德路","lon":"121.49199","lat":"31.2722","category":"38","category_name":"公交车站","address":""},{"poiid":"B2094654DB6AAAF8459C","title":"上岛咖啡(曲阳店)","lon":"121.49298","lat":"31.27155","category":"260","category_name":"其他","address":"虹口区曲阳路118弄28号3楼(近祥德路)"},{"poiid":"B2094757D06FA5F4409E","title":"JEANS108SALON(京世曲阳店)","lon":"121.49333","lat":"31.27012","category":"148","category_name":"美容美发店","address":"上海虹口区曲阳路108号(近四平路)"},{"poiid":"B2094750D768A2FC489A","title":"群龙无首小菜","lon":"121.493","lat":"31.2719","category":"76","category_name":"上海菜","address":"虹口区曲阳路158号瑞峰商务楼105-106室(近祥德路)"},{"poiid":"B2094751DB64A0FD4398","title":"东吴一品大酒楼","lon":"121.49286","lat":"31.27156","category":"72","category_name":"广东菜","address":"虹口区曲阳路158号(近祥德路)"},{"poiid":"B2094655D26FA0F84799","title":"飘鹰东方花园","lon":"121.49414","lat":"31.271051","category":"47","category_name":"住宅区","address":"上海曲阳路118弄"},{"poiid":"B2094654D56CA0F84799","title":"永琪美容美发(曲阳路)","lon":"121.49231","lat":"31.27206","category":"148","category_name":"美容美发店","address":"曲阳路258"},{"poiid":"B2094757D065A0FF439D","title":"四平路密云路","lon":"121.4962091","lat":"31.271177438","category":"500","category_name":"未知分类","address":"上海市虹口区曲阳路"},{"poiid":"B2094757D66BA5FA4593","title":"美基饺子馆","lon":"121.49200877277","lat":"31.271969204655","category":"68","category_name":"快餐厅","address":"虹口区曲阳路296号(近祥德路)"},{"poiid":"B2094654DB6AAAF84399","title":"祥东小区","lon":"121.49424","lat":"31.27349","category":"47","category_name":"住宅区","address":"天宝西路242弄1-41号、4弄1-13号、268号"},{"poiid":"B2094750D664A5FD489D","title":"老顺昌汤包馆","lon":"121.493","lat":"31.2719","category":"68","category_name":"快餐厅","address":"虹口区曲阳路158号(近祥德路)"},{"poiid":"B2094757D16BA5FB449C","title":"德阳花苑","lon":"121.491952103","lat":"31.271464444","category":"47","category_name":"住宅区","address":"德阳花苑位于虹口曲阳路269弄"},{"poiid":"B2094654DB6AAAF84398","title":"大连新村小区","lon":"121.49335","lat":"31.27489","category":"47","category_name":"住宅区","address":"大连西路201弄7-54号、215弄1-17号、221弄1-8"},{"poiid":"B2094654D56CA0F8459F","title":"瑞峰商务","lon":"121.49339","lat":"31.27214","category":"46","category_name":"楼宇","address":"曲阳路158号"},{"poiid":"B2094654D56CA0F8459B","title":"好德便利No.986","lon":"121.49294","lat":"31.27145","category":"117","category_name":"便民商店/便利店","address":"曲阳路"},{"poiid":"B2094751D364A5F84899","title":"彭浦夜市","lon":"121.493859","lat":"31.270961","category":"247","category_name":"餐饮美食","address":"闻喜路"},{"poiid":"B2094757D06BA4FD479B","title":"上海市公积金管理中心","lon":"121.491546631","lat":"31.2721328735","category":"500","category_name":"未知分类","address":"上海曲阳路299号"},{"poiid":"B2094654D56CA0F84598","title":"农工商超市No.130","lon":"121.49295","lat":"31.27152","category":"118","category_name":"超级市场","address":"曲阳路"},{"poiid":"B2094655D265A1F4449B","title":"京世造型·美容","lon":"121.49326","lat":"31.27054","category":"148","category_name":"美容美发店","address":""},{"poiid":"B2094655D26CA1F94298","title":"祥德路480弄小区","lon":"121.49295","lat":"31.27252","category":"47","category_name":"住宅区","address":"祥德路480弄1-3号"},{"poiid":"B2094654D56CA7F84492","title":"磊博商务楼","lon":"121.49166","lat":"31.271","category":"46","category_name":"楼宇","address":"祥德路383"},{"poiid":"B2094757D66DA5FB4393","title":"虹口区劳动仲裁","lon":"121.493047","lat":"31.272383","category":"500","category_name":"未知分类","address":"上海祥德路468号"},{"poiid":"B2094757D06BA3F84292","title":"鑫旺府","lon":"121.49156","lat":"31.27253","category":"247","category_name":"餐饮美食","address":"上海虹口区曲阳路379号(近详德路)  "},{"poiid":"B2094655D26DABF5499D","title":"祥德路480弄小区(东门)","lon":"121.49322","lat":"31.27266","category":"47","category_name":"住宅区","address":"祥德路480弄1-3号"},{"poiid":"B2094757D06AA0F8479F","title":"上海职业介绍虹口分中心","lon":"121.492242","lat":"31.270854","category":"500","category_name":"未知分类","address":"上海曲阳路191号"},{"poiid":"B2094655D26EA2F9489F","title":"祥德路500弄小区","lon":"121.49285","lat":"31.27312","category":"47","category_name":"住宅区","address":"祥德路500弄1-5号"},{"poiid":"B2094654D56CA0FC4799","title":"大西小区","lon":"121.49454","lat":"31.275146","category":"47","category_name":"住宅区","address":"大连西路195弄1-12号,165弄1-29号"},{"poiid":"B2094655D26CA1F8489E","title":"上海市虹口区幸福四平实验小学","lon":"121.49421","lat":"31.27166","category":"56","category_name":"小学","address":"虹口区四平路621弄100号"},{"poiid":"B2094655D26FA0F4419F","title":"大二小区(东门)","lon":"121.49337","lat":"31.27316","category":"47","category_name":"住宅区","address":"天宝西路248弄1-5号"},{"poiid":"B2094655D26CA1FA429D","title":"祥德路500弄小区(东门)","lon":"121.49327","lat":"31.2729","category":"47","category_name":"住宅区","address":"祥德路500弄1-5号"},{"poiid":"B2094757D169A1F54092","title":"13CC's 屋企","lon":"121.494161103","lat":"31.2720664566","category":"247","category_name":"餐饮美食","address":"上海市虹口区曲阳路祥德路"},{"poiid":"B2094654DB69A5FC4792","title":"福奈特洗衣(曲阳路店)","lon":"121.49219","lat":"31.27226","category":"249","category_name":"购物服务","address":"虹口区曲阳路268-272号(近四平路)"},{"poiid":"B2094752DB6BA2FF409E","title":"麻辣诱惑","lon":"121.492536","lat":"31.273477","category":"247","category_name":"餐饮美食","address":"上海市 虹口龙之梦"},{"poiid":"B2094654D56CA0F8469B","title":"大二小区","lon":"121.4929","lat":"31.27334","category":"47","category_name":"住宅区","address":"天宝西路248弄1-5号"},{"poiid":"B2094654D56CA7FF4998","title":"宏城公寓","lon":"121.49235","lat":"31.270332","category":"47","category_name":"住宅区","address":"曲阳路163-167"},{"poiid":"B2094757D76CA3F84298","title":"卧云茶敘","lon":"121.493871","lat":"31.268995","category":"66","category_name":"茶艺馆","address":"虹口区曲阳路26号(近四平路)"},{"poiid":"B2094654D56CA7FF4993","title":"金钵桌球俱乐部","lon":"121.49213","lat":"31.27113","category":"171","category_name":"台球厅","address":"虹口区曲阳路239号3楼(近祥德路)"},{"poiid":"B2094655D26FA0FA4898","title":"宏祥花苑","lon":"121.49262","lat":"31.26956","category":"47","category_name":"住宅区","address":"宏祥花苑位于虹口曲阳路69弄"},{"poiid":"B2094757D168A5F8419B","title":"卧雲茶叙","lon":"121.494169103","lat":"31.2695124032","category":"247","category_name":"餐饮美食","address":"上海市虹口区曲阳路"},{"poiid":"B2094655D26BA4FA439D","title":"曲阳住宅楼","lon":"121.49179","lat":"31.27357","category":"47","category_name":"住宅区","address":"曲阳住宅楼位于虹口曲阳路428弄"},{"poiid":"B2094654DB6AAAF8459E","title":"德恩士齿科连锁机构(上海02)","lon":"121.49362","lat":"31.27029","category":"162","category_name":"医院","address":"曲阳路104号甲"},{"poiid":"B2094757D16EA2F9499B","title":"文峰美容美发(曲阳店)","lon":"121.4915426","lat":"31.272355062","category":"148","category_name":"美容美发店","address":"上海曲阳路267号"},{"poiid":"B2094757D06EAAFB4398","title":"邮电新村地铁站","lon":"121.49450107","lat":"31.268612797","category":"36","category_name":"地铁站","address":"上海轨道交通 十号线 轨交邮电新村站 10"},{"poiid":"B2094757D06FA0FE469E","title":"邮电新村","lon":"121.49442895","lat":"31.270637995","category":"47","category_name":"住宅区","address":"上海四平路621弄〔近密云路〕"},{"poiid":"B2094654D56CA7FF499C","title":"红城阁","lon":"121.49215","lat":"31.27108","category":"76","category_name":"上海菜","address":"虹口区曲阳路239号(近四平路)"},{"poiid":"B2094757D06FA5FE449E","title":"四平路曲阳路口","lon":"121.495693","lat":"31.269823","category":"500","category_name":"未知分类","address":"上海四平路曲阳路"},{"poiid":"B2094654D56CA0FB499A","title":"金陵国际大厦","lon":"121.496","lat":"31.2713","category":"46","category_name":"楼宇","address":"海淀区城府路,中关村东路交叉处西北方向"},{"poiid":"B2094757D06FA3FB469C","title":"欧阳花苑","lon":"121.49108","lat":"31.272671","category":"47","category_name":"住宅区","address":"上海虹口区曲阳路385弄"},{"poiid":"B2094757D068A7FD4193","title":"上海市社会保险基金管理中心","lon":"121.492274","lat":"31.270805","category":"500","category_name":"未知分类","address":"上海曲阳路179号"},{"poiid":"B2094757D06FABFC4498","title":"祥德路欧阳路","lon":"121.491545","lat":"31.271189","category":"47","category_name":"住宅区","address":"上海祥德路欧阳路"},{"poiid":"B2094655D36CA2F94098","title":"曲阳路祥德路","lon":"121.49199","lat":"31.2722","category":"38","category_name":"公交车站","address":""},{"poiid":"B2094654DB6AAAF8459C","title":"上岛咖啡(曲阳店)","lon":"121.49298","lat":"31.27155","category":"260","category_name":"其他","address":"虹口区曲阳路118弄28号3楼(近祥德路)"},{"poiid":"B2094757D06FA5F4409E","title":"JEANS108SALON(京世曲阳店)","lon":"121.49333","lat":"31.27012","category":"148","category_name":"美容美发店","address":"上海虹口区曲阳路108号(近四平路)"},{"poiid":"B2094750D768A2FC489A","title":"群龙无首小菜","lon":"121.493","lat":"31.2719","category":"76","category_name":"上海菜","address":"虹口区曲阳路158号瑞峰商务楼105-106室(近祥德路)"},{"poiid":"B2094751DB64A0FD4398","title":"东吴一品大酒楼","lon":"121.49286","lat":"31.27156","category":"72","category_name":"广东菜","address":"虹口区曲阳路158号(近祥德路)"},{"poiid":"B2094655D26FA0F84799","title":"飘鹰东方花园","lon":"121.49414","lat":"31.271051","category":"47","category_name":"住宅区","address":"上海曲阳路118弄"},{"poiid":"B2094654D56CA0F84799","title":"永琪美容美发(曲阳路)","lon":"121.49231","lat":"31.27206","category":"148","category_name":"美容美发店","address":"曲阳路258"},{"poiid":"B2094757D065A0FF439D","title":"四平路密云路","lon":"121.4962091","lat":"31.271177438","category":"500","category_name":"未知分类","address":"上海市虹口区曲阳路"},{"poiid":"B2094757D66BA5FA4593","title":"美基饺子馆","lon":"121.49200877277","lat":"31.271969204655","category":"68","category_name":"快餐厅","address":"虹口区曲阳路296号(近祥德路)"},{"poiid":"B2094654DB6AAAF84399","title":"祥东小区","lon":"121.49424","lat":"31.27349","category":"47","category_name":"住宅区","address":"天宝西路242弄1-41号、4弄1-13号、268号"},{"poiid":"B2094750D664A5FD489D","title":"老顺昌汤包馆","lon":"121.493","lat":"31.2719","category":"68","category_name":"快餐厅","address":"虹口区曲阳路158号(近祥德路)"},{"poiid":"B2094757D16BA5FB449C","title":"德阳花苑","lon":"121.491952103","lat":"31.271464444","category":"47","category_name":"住宅区","address":"德阳花苑位于虹口曲阳路269弄"},{"poiid":"B2094654DB6AAAF84398","title":"大连新村小区","lon":"121.49335","lat":"31.27489","category":"47","category_name":"住宅区","address":"大连西路201弄7-54号、215弄1-17号、221弄1-8"},{"poiid":"B2094654D56CA0F8459F","title":"瑞峰商务","lon":"121.49339","lat":"31.27214","category":"46","category_name":"楼宇","address":"曲阳路158号"},{"poiid":"B2094654D56CA0F8459B","title":"好德便利No.986","lon":"121.49294","lat":"31.27145","category":"117","category_name":"便民商店/便利店","address":"曲阳路"},{"poiid":"B2094751D364A5F84899","title":"彭浦夜市","lon":"121.493859","lat":"31.270961","category":"247","category_name":"餐饮美食","address":"闻喜路"},{"poiid":"B2094757D06BA4FD479B","title":"上海市公积金管理中心","lon":"121.491546631","lat":"31.2721328735","category":"500","category_name":"未知分类","address":"上海曲阳路299号"},{"poiid":"B2094654D56CA0F84598","title":"农工商超市No.130","lon":"121.49295","lat":"31.27152","category":"118","category_name":"超级市场","address":"曲阳路"},{"poiid":"B2094655D265A1F4449B","title":"京世造型·美容","lon":"121.49326","lat":"31.27054","category":"148","category_name":"美容美发店","address":""},{"poiid":"B2094655D26CA1F94298","title":"祥德路480弄小区","lon":"121.49295","lat":"31.27252","category":"47","category_name":"住宅区","address":"祥德路480弄1-3号"},{"poiid":"B2094654D56CA7F84492","title":"磊博商务楼","lon":"121.49166","lat":"31.271","category":"46","category_name":"楼宇","address":"祥德路383"},{"poiid":"B2094757D66DA5FB4393","title":"虹口区劳动仲裁","lon":"121.493047","lat":"31.272383","category":"500","category_name":"未知分类","address":"上海祥德路468号"},{"poiid":"B2094757D06BA3F84292","title":"鑫旺府","lon":"121.49156","lat":"31.27253","category":"247","category_name":"餐饮美食","address":"上海虹口区曲阳路379号(近详德路)  "},{"poiid":"B2094655D26DABF5499D","title":"祥德路480弄小区(东门)","lon":"121.49322","lat":"31.27266","category":"47","category_name":"住宅区","address":"祥德路480弄1-3号"},{"poiid":"B2094757D06AA0F8479F","title":"上海职业介绍虹口分中心","lon":"121.492242","lat":"31.270854","category":"500","category_name":"未知分类","address":"上海曲阳路191号"},{"poiid":"B2094655D26EA2F9489F","title":"祥德路500弄小区","lon":"121.49285","lat":"31.27312","category":"47","category_name":"住宅区","address":"祥德路500弄1-5号"},{"poiid":"B2094654D56CA0FC4799","title":"大西小区","lon":"121.49454","lat":"31.275146","category":"47","category_name":"住宅区","address":"大连西路195弄1-12号,165弄1-29号"},{"poiid":"B2094655D26CA1F8489E","title":"上海市虹口区幸福四平实验小学","lon":"121.49421","lat":"31.27166","category":"56","category_name":"小学","address":"虹口区四平路621弄100号"},{"poiid":"B2094655D26FA0F4419F","title":"大二小区(东门)","lon":"121.49337","lat":"31.27316","category":"47","category_name":"住宅区","address":"天宝西路248弄1-5号"},{"poiid":"B2094655D26CA1FA429D","title":"祥德路500弄小区(东门)","lon":"121.49327","lat":"31.2729","category":"47","category_name":"住宅区","address":"祥德路500弄1-5号"},{"poiid":"B2094757D169A1F54092","title":"13CC's 屋企","lon":"121.494161103","lat":"31.2720664566","category":"247","category_name":"餐饮美食","address":"上海市虹口区曲阳路祥德路"},{"poiid":"B2094654DB69A5FC4792","title":"福奈特洗衣(曲阳路店)","lon":"121.49219","lat":"31.27226","category":"249","category_name":"购物服务","address":"虹口区曲阳路268-272号(近四平路)"},{"poiid":"B2094752DB6BA2FF409E","title":"麻辣诱惑","lon":"121.492536","lat":"31.273477","category":"247","category_name":"餐饮美食","address":"上海市 虹口龙之梦"},{"poiid":"B2094654D56CA0F8469B","title":"大二小区","lon":"121.4929","lat":"31.27334","category":"47","category_name":"住宅区","address":"天宝西路248弄1-5号"},{"poiid":"B2094654D56CA7FF4998","title":"宏城公寓","lon":"121.49235","lat":"31.270332","category":"47","category_name":"住宅区","address":"曲阳路163-167"},{"poiid":"B2094757D76CA3F84298","title":"卧云茶敘","lon":"121.493871","lat":"31.268995","category":"66","category_name":"茶艺馆","address":"虹口区曲阳路26号(近四平路)"},{"poiid":"B2094654D56CA7FF4993","title":"金钵桌球俱乐部","lon":"121.49213","lat":"31.27113","category":"171","category_name":"台球厅","address":"虹口区曲阳路239号3楼(近祥德路)"},{"poiid":"B2094655D26FA0FA4898","title":"宏祥花苑","lon":"121.49262","lat":"31.26956","category":"47","category_name":"住宅区","address":"宏祥花苑位于虹口曲阳路69弄"},{"poiid":"B2094757D168A5F8419B","title":"卧雲茶叙","lon":"121.494169103","lat":"31.2695124032","category":"247","category_name":"餐饮美食","address":"上海市虹口区曲阳路"},{"poiid":"B2094655D26BA4FA439D","title":"曲阳住宅楼","lon":"121.49179","lat":"31.27357","category":"47","category_name":"住宅区","address":"曲阳住宅楼位于虹口曲阳路428弄"},{"poiid":"B2094654DB6AAAF8459E","title":"德恩士齿科连锁机构(上海02)","lon":"121.49362","lat":"31.27029","category":"162","category_name":"医院","address":"曲阳路104号甲"},{"poiid":"B2094757D16EA2F9499B","title":"文峰美容美发(曲阳店)","lon":"121.4915426","lat":"31.272355062","category":"148","category_name":"美容美发店","address":"上海曲阳路267号"},{"poiid":"B2094757D06EAAFB4398","title":"邮电新村地铁站","lon":"121.49450107","lat":"31.268612797","category":"36","category_name":"地铁站","address":"上海轨道交通 十号线 轨交邮电新村站 10"},{"poiid":"B2094757D06FA0FE469E","title":"邮电新村","lon":"121.49442895","lat":"31.270637995","category":"47","category_name":"住宅区","address":"上海四平路621弄〔近密云路〕"},{"poiid":"B2094654D56CA7FF499C","title":"红城阁","lon":"121.49215","lat":"31.27108","category":"76","category_name":"上海菜","address":"虹口区曲阳路239号(近四平路)"},{"poiid":"B2094757D06FA5FE449E","title":"四平路曲阳路口","lon":"121.495693","lat":"31.269823","category":"500","category_name":"未知分类","address":"上海四平路曲阳路"},{"poiid":"B2094654D56CA0FB499A","title":"金陵国际大厦","lon":"121.496","lat":"31.2713","category":"46","category_name":"楼宇","address":"海淀区城府路,中关村东路交叉处西北方向"},{"poiid":"B2094757D06FA3FB469C","title":"欧阳花苑","lon":"121.49108","lat":"31.272671","category":"47","category_name":"住宅区","address":"上海虹口区曲阳路385弄"},{"poiid":"B2094757D068A7FD4193","title":"上海市社会保险基金管理中心","lon":"121.492274","lat":"31.270805","category":"500","category_name":"未知分类","address":"上海曲阳路179号"},{"poiid":"B2094757D06FABFC4498","title":"祥德路欧阳路","lon":"121.491545","lat":"31.271189","category":"47","category_name":"住宅区","address":"上海祥德路欧阳路"},{"poiid":"B2094655D36CA2F94098","title":"曲阳路祥德路","lon":"121.49199","lat":"31.2722","category":"38","category_name":"公交车站","address":""},{"poiid":"B2094654DB6AAAF8459C","title":"上岛咖啡(曲阳店)","lon":"121.49298","lat":"31.27155","category":"260","category_name":"其他","address":"虹口区曲阳路118弄28号3楼(近祥德路)"},{"poiid":"B2094757D06FA5F4409E","title":"JEANS108SALON(京世曲阳店)","lon":"121.49333","lat":"31.27012","category":"148","category_name":"美容美发店","address":"上海虹口区曲阳路108号(近四平路)"},{"poiid":"B2094750D768A2FC489A","title":"群龙无首小菜","lon":"121.493","lat":"31.2719","category":"76","category_name":"上海菜","address":"虹口区曲阳路158号瑞峰商务楼105-106室(近祥德路)"},{"poiid":"B2094751DB64A0FD4398","title":"东吴一品大酒楼","lon":"121.49286","lat":"31.27156","category":"72","category_name":"广东菜","address":"虹口区曲阳路158号(近祥德路)"},{"poiid":"B2094655D26FA0F84799","title":"飘鹰东方花园","lon":"121.49414","lat":"31.271051","category":"47","category_name":"住宅区","address":"上海曲阳路118弄"},{"poiid":"B2094654D56CA0F84799","title":"永琪美容美发(曲阳路)","lon":"121.49231","lat":"31.27206","category":"148","category_name":"美容美发店","address":"曲阳路258"},{"poiid":"B2094757D065A0FF439D","title":"四平路密云路","lon":"121.4962091","lat":"31.271177438","category":"500","category_name":"未知分类","address":"上海市虹口区曲阳路"},{"poiid":"B2094757D66BA5FA4593","title":"美基饺子馆","lon":"121.49200877277","lat":"31.271969204655","category":"68","category_name":"快餐厅","address":"虹口区曲阳路296号(近祥德路)"},{"poiid":"B2094654DB6AAAF84399","title":"祥东小区","lon":"121.49424","lat":"31.27349","category":"47","category_name":"住宅区","address":"天宝西路242弄1-41号、4弄1-13号、268号"},{"poiid":"B2094750D664A5FD489D","title":"老顺昌汤包馆","lon":"121.493","lat":"31.2719","category":"68","category_name":"快餐厅","address":"虹口区曲阳路158号(近祥德路)"},{"poiid":"B2094757D16BA5FB449C","title":"德阳花苑","lon":"121.491952103","lat":"31.271464444","category":"47","category_name":"住宅区","address":"德阳花苑位于虹口曲阳路269弄"},{"poiid":"B2094654DB6AAAF84398","title":"大连新村小区","lon":"121.49335","lat":"31.27489","category":"47","category_name":"住宅区","address":"大连西路201弄7-54号、215弄1-17号、221弄1-8"},{"poiid":"B2094654D56CA0F8459F","title":"瑞峰商务","lon":"121.49339","lat":"31.27214","category":"46","category_name":"楼宇","address":"曲阳路158号"},{"poiid":"B2094654D56CA0F8459B","title":"好德便利No.986","lon":"121.49294","lat":"31.27145","category":"117","category_name":"便民商店/便利店","address":"曲阳路"},{"poiid":"B2094751D364A5F84899","title":"彭浦夜市","lon":"121.493859","lat":"31.270961","category":"247","category_name":"餐饮美食","address":"闻喜路"},{"poiid":"B2094757D06BA4FD479B","title":"上海市公积金管理中心","lon":"121.491546631","lat":"31.2721328735","category":"500","category_name":"未知分类","address":"上海曲阳路299号"},{"poiid":"B2094654D56CA0F84598","title":"农工商超市No.130","lon":"121.49295","lat":"31.27152","category":"118","category_name":"超级市场","address":"曲阳路"},{"poiid":"B2094655D265A1F4449B","title":"京世造型·美容","lon":"121.49326","lat":"31.27054","category":"148","category_name":"美容美发店","address":""},{"poiid":"B2094655D26CA1F94298","title":"祥德路480弄小区","lon":"121.49295","lat":"31.27252","category":"47","category_name":"住宅区","address":"祥德路480弄1-3号"},{"poiid":"B2094654D56CA7F84492","title":"磊博商务楼","lon":"121.49166","lat":"31.271","category":"46","category_name":"楼宇","address":"祥德路383"},{"poiid":"B2094757D66DA5FB4393","title":"虹口区劳动仲裁","lon":"121.493047","lat":"31.272383","category":"500","category_name":"未知分类","address":"上海祥德路468号"},{"poiid":"B2094757D06BA3F84292","title":"鑫旺府","lon":"121.49156","lat":"31.27253","category":"247","category_name":"餐饮美食","address":"上海虹口区曲阳路379号(近详德路)  "},{"poiid":"B2094655D26DABF5499D","title":"祥德路480弄小区(东门)","lon":"121.49322","lat":"31.27266","category":"47","category_name":"住宅区","address":"祥德路480弄1-3号"},{"poiid":"B2094757D06AA0F8479F","title":"上海职业介绍虹口分中心","lon":"121.492242","lat":"31.270854","category":"500","category_name":"未知分类","address":"上海曲阳路191号"},{"poiid":"B2094655D26EA2F9489F","title":"祥德路500弄小区","lon":"121.49285","lat":"31.27312","category":"47","category_name":"住宅区","address":"祥德路500弄1-5号"},{"poiid":"B2094654D56CA0FC4799","title":"大西小区","lon":"121.49454","lat":"31.275146","category":"47","category_name":"住宅区","address":"大连西路195弄1-12号,165弄1-29号"},{"poiid":"B2094655D26CA1F8489E","title":"上海市虹口区幸福四平实验小学","lon":"121.49421","lat":"31.27166","category":"56","category_name":"小学","address":"虹口区四平路621弄100号"},{"poiid":"B2094655D26FA0F4419F","title":"大二小区(东门)","lon":"121.49337","lat":"31.27316","category":"47","category_name":"住宅区","address":"天宝西路248弄1-5号"},{"poiid":"B2094655D26CA1FA429D","title":"祥德路500弄小区(东门)","lon":"121.49327","lat":"31.2729","category":"47","category_name":"住宅区","address":"祥德路500弄1-5号"},{"poiid":"B2094757D169A1F54092","title":"13CC's 屋企","lon":"121.494161103","lat":"31.2720664566","category":"247","category_name":"餐饮美食","address":"上海市虹口区曲阳路祥德路"},{"poiid":"B2094654DB69A5FC4792","title":"福奈特洗衣(曲阳路店)","lon":"121.49219","lat":"31.27226","category":"249","category_name":"购物服务","address":"虹口区曲阳路268-272号(近四平路)"},{"poiid":"B2094752DB6BA2FF409E","title":"麻辣诱惑","lon":"121.492536","lat":"31.273477","category":"247","category_name":"餐饮美食","address":"上海市 虹口龙之梦"},{"poiid":"B2094654D56CA0F8469B","title":"大二小区","lon":"121.4929","lat":"31.27334","category":"47","category_name":"住宅区","address":"天宝西路248弄1-5号"},{"poiid":"B2094654D56CA7FF4998","title":"宏城公寓","lon":"121.49235","lat":"31.270332","category":"47","category_name":"住宅区","address":"曲阳路163-167"},{"poiid":"B2094757D76CA3F84298","title":"卧云茶敘","lon":"121.493871","lat":"31.268995","category":"66","category_name":"茶艺馆","address":"虹口区曲阳路26号(近四平路)"},{"poiid":"B2094654D56CA7FF4993","title":"金钵桌球俱乐部","lon":"121.49213","lat":"31.27113","category":"171","category_name":"台球厅","address":"虹口区曲阳路239号3楼(近祥德路)"},{"poiid":"B2094655D26FA0FA4898","title":"宏祥花苑","lon":"121.49262","lat":"31.26956","category":"47","category_name":"住宅区","address":"宏祥花苑位于虹口曲阳路69弄"},{"poiid":"B2094757D168A5F8419B","title":"卧雲茶叙","lon":"121.494169103","lat":"31.2695124032","category":"247","category_name":"餐饮美食","address":"上海市虹口区曲阳路"},{"poiid":"B2094655D26BA4FA439D","title":"曲阳住宅楼","lon":"121.49179","lat":"31.27357","category":"47","category_name":"住宅区","address":"曲阳住宅楼位于虹口曲阳路428弄"},{"poiid":"B2094654DB6AAAF8459E","title":"德恩士齿科连锁机构(上海02)","lon":"121.49362","lat":"31.27029","category":"162","category_name":"医院","address":"曲阳路104号甲"},{"poiid":"B2094757D16EA2F9499B","title":"文峰美容美发(曲阳店)","lon":"121.4915426","lat":"31.272355062","category":"148","category_name":"美容美发店","address":"上海曲阳路267号"}]