[{"poiid":"B2094654DB6CA1F8489F","title":"上海植物园","lon":"121.44504","lat":"31.14669","category":"198","category_name":"植物园","address":"徐汇区龙吴路1111号"},{"poiid":"B2094654DB6CA1F54193","title":"上海中学国际部","lon":"121.43785","lat":"31.14148","category":"55","category_name":"中学","address":""},{"poiid":"B2094654DB6CA1F8449E","title":"上海植物园(3号门)","lon":"121.43963","lat":"31.14271","category":"680","category_name":"楼宇机构","address":"百色路"},{"poiid":"B2094757D06FA7FA429F","title":"金牛苑","lon":"121.43311","lat":"31.150234","category":"47","category_name":"住宅区","address":"金牛苑位于徐汇老沪闵路420弄"},{"poiid":"B2094655D36CA0FB4893","title":"汇成新村","lon":"121.43393","lat":"31.14323","category":"38","category_name":"公交车站","address":""},{"poiid":"B2094757D06AA7F94292","title":"德林酸菜鱼(罗城路店)","lon":"121.435704","lat":"31.152392","category":"86","category_name":"火锅店","address":"上海市徐汇区罗城路429号"},{"poiid":"B2094654DB64A2F94793","title":"华东花苑","lon":"121.43641","lat":"31.149044","category":"47","category_name":"住宅区","address":"地铁明珠苑位于闵行莘建东路198弄"},{"poiid":"B2094757D169AAFA4199","title":"龙川北路罗城路","lon":"121.43387658","lat":"31.149576855","category":"500","category_name":"未知分类","address":"上海龙川北路罗城路"},{"poiid":"B2094654DB6CA1F44399","title":"上海市西南模范中学","lon":"121.43412","lat":"31.14635","category":"55","category_name":"中学","address":"上海徐汇区百色路汇成一村67号"},{"poiid":"B2094757D068ABFC4898","title":"汇成四村","lon":"121.43607","lat":"31.143908","category":"47","category_name":"住宅区","address":"上海市徐汇区百色路"},{"poiid":"B2094757D068A2FE439C","title":"贡品轩无锡小笼馆","lon":"121.43488","lat":"31.14263","category":"68","category_name":"快餐厅","address":"徐汇区百色路1097号(嘉陵路龙川北路间)"},{"poiid":"B2094654DB6CA1F5439E","title":"汇成苑五村","lon":"121.43677","lat":"31.14194","category":"47","category_name":"住宅区","address":"长桥"},{"poiid":"B2094757D068A3F84693","title":"书香逸居","lon":"121.441","lat":"31.1418","category":"47","category_name":"住宅区","address":"上海徐汇区上中路51弄"},{"poiid":"B2094654DB6CA1FB499B","title":"云南过桥米线(百色路店)","lon":"121.4375","lat":"31.14248","category":"257","category_name":"中餐厅","address":"徐汇区百色路1008号(近龙川北路)"},{"poiid":"B2094757D06FABF8429A","title":"汇成一村","lon":"121.43316","lat":"31.146074","category":"47","category_name":"住宅区","address":"上海市徐汇区百色路"},{"poiid":"B2094757D16FA2F5499A","title":"新疆喀什烤肉王","lon":"121.438118586","lat":"31.1503038692","category":"90","category_name":"清真餐馆","address":"徐汇区罗城路403号(近龙川路)"},{"poiid":"B2094655D265A2FC4193","title":"碧绿","lon":"121.43812","lat":"31.14622","category":"47","category_name":"住宅区","address":"碧绿春舍位于徐汇龙川北路"},{"poiid":"B2094654DB6CA1FB489A","title":"海波金桂苑","lon":"121.43745","lat":"31.146456","category":"47","category_name":"住宅区","address":"上海市徐汇区龙川北路420路"},{"poiid":"B2094655D36DA7FC409D","title":"园南二村","lon":"121.44369","lat":"31.14297","category":"38","category_name":"公交车站","address":"上海徐汇区百色路平福路"},{"poiid":"B2094454D268A7FD459A","title":"龙猫咖啡1号店","lon":"121.439781","lat":"31.151071","category":"247","category_name":"餐饮美食","address":"上海市 上海市石龙路581号"},{"poiid":"B2094757D06AA1FE419C","title":"罗城路700弄","lon":"121.435179617","lat":"31.1499577837","category":"500","category_name":"未知分类","address":"上海罗城路700弄"},{"poiid":"B2094757D16AABFB4199","title":"龙腾大道","lon":"121.43878058","lat":"31.150743877","category":"500","category_name":"未知分类","address":"上海市徐汇区龙腾大道"},{"poiid":"B2094757D069A3F94692","title":"陈良震烧烤","lon":"121.43331","lat":"31.14263","category":"68","category_name":"快餐厅","address":"徐汇区百色路1221号(近嘉川路)"},{"poiid":"B2094757D168A0FE4092","title":"莘庄中学","lon":"121.43853225","lat":"31.147802644","category":"55","category_name":"中学","address":"上海市闵行区莘中路35号"},{"poiid":"B2094753D669A6F9439E","title":"华东理工大学","lon":"121.437461","lat":"31.146121","category":"500","category_name":"未知分类","address":"上海市 梅陇路130号"},{"poiid":"B2094757D06AA0F44393","title":"新亚大包 百色店","lon":"121.434387054","lat":"31.143231793","category":"68","category_name":"快餐厅","address":"徐汇区百色路1100-1108号(近老沪闵路)"},{"poiid":"B2094757D06AABFD449C","title":"长桥花鸟市场","lon":"121.438987","lat":"31.150205","category":"249","category_name":"购物服务","address":"上海徐汇区罗城路389号"},{"poiid":"B2094757D06BAAF94692","title":"吉祥馄饨汇城店","lon":"121.437157","lat":"31.142233","category":"68","category_name":"快餐厅","address":"徐汇区百色路1023号(近龙川北路)"},{"poiid":"B2094655D26EA5FC429B","title":"小三元酒家","lon":"121.43824479883","lat":"31.142336733261","category":"76","category_name":"上海菜","address":"徐汇区百色路1000号(百色路龙川北路)"},{"poiid":"B2094654DB6CA1F8449C","title":"天然居","lon":"121.44463","lat":"31.143415","category":"76","category_name":"上海菜","address":"徐汇区百色路218-222天然居商务宾馆内(近百色支路)"},{"poiid":"B2094655D26EA7F84193","title":"贵竺保健按摩","lon":"121.43789","lat":"31.14657","category":"149","category_name":"洗浴推拿场所","address":""},{"poiid":"B2094757D065A5FB449F","title":"快乐柠檬(吴江路店)","lon":"121.43678285","lat":"31.147369311","category":"247","category_name":"餐饮美食","address":"上海吴江路150-1"},{"poiid":"B2094753D56DABF8439C","title":"上海南站龙川路","lon":"121.437126","lat":"31.145586","category":"500","category_name":"未知分类","address":"上海市 上海南站"},{"poiid":"B2094654DB64A2F9489C","title":"汇达苑","lon":"121.4381","lat":"31.149321","category":"47","category_name":"住宅区","address":"汇达苑位于徐汇龙川北路681弄"},{"poiid":"B2094655D36CA1F84699","title":"龙川北路上海植物园","lon":"121.43824","lat":"31.14334","category":"38","category_name":"公交车站","address":""},{"poiid":"B2094655D36CA1F84692","title":"龙川北路百色路","lon":"121.43816","lat":"31.14364","category":"38","category_name":"公交车站","address":""},{"poiid":"B2094757D465A6FA479D","title":"云南特色米线","lon":"121.437360054","lat":"31.142382793","category":"68","category_name":"快餐厅","address":"徐汇区百色路1018号建设银行旁(龙川路口)"},{"poiid":"B2094654DA65A6FF4299","title":"向阳育才小学","lon":"121.43804","lat":"31.149","category":"56","category_name":"小学","address":"徐汇区龙川北路625弄1号(龙川北路罗城路)"},{"poiid":"B2094655D36CA1F8469E","title":"龙川北路上中路","lon":"121.43998","lat":"31.13952","category":"38","category_name":"公交车站","address":""},{"poiid":"B2094757D06AAAF5409C","title":"汇成二村","lon":"121.43526","lat":"31.146408","category":"252","category_name":"楼宇机构","address":"上海汇成二村"},{"poiid":"B2094654DB6CA1FB4792","title":"上海虹天汽车用品有限公司","lon":"121.43785","lat":"31.14632","category":"248","category_name":"生活娱乐","address":"徐汇区龙川北路426弄"},{"poiid":"B2094757D464A6F8499B","title":"西北夏部拉面店","lon":"121.438188054","lat":"31.142263793","category":"68","category_name":"快餐厅","address":"徐汇区百色路1001号(近龙川北路)"},{"poiid":"B2094655D26EA0FE449F","title":"海波金桂苑(南门)","lon":"121.4375","lat":"31.14617","category":"48","category_name":"楼宇大门","address":"龙川北路418弄1-8"},{"poiid":"B2094757D66DA0FD4193","title":"友情家常饭","lon":"121.43539285","lat":"31.14284022","category":"76","category_name":"上海菜","address":"徐汇区百色路1096号"},{"poiid":"B2094757D06BA7FF479E","title":"重庆鸡公煲 百色路店","lon":"121.434092054","lat":"31.143249793","category":"71","category_name":"四川菜","address":"徐汇区百色路1054号(嘉陵路龙川北路间)"},{"poiid":"B2094753D569A4FA4199","title":"上海金山城市沙滩","lon":"121.438003","lat":"31.148401","category":"500","category_name":"未知分类","address":"上海市 上海市金山区石化镇海滨"},{"poiid":"B2094757D16FA5FB469A","title":"园南三村","lon":"121.435749","lat":"31.148348","category":"500","category_name":"未知分类","address":"上海徐汇区长桥街道园南三村上中路平福路(上中路隧道北面)"},{"poiid":"B2094757D16DA2F5439B","title":"131路终点站","lon":"121.43909","lat":"31.142594","category":"38","category_name":"公交车站","address":"徐汇区园南新村(上海中学旁边)"},{"poiid":"B2094454D26DAAFA4199","title":"龙猫咖啡","lon":"121.439735","lat":"31.151138","category":"247","category_name":"餐饮美食","address":"上海市 上海南站"},{"poiid":"B2094757D065A3F44699","title":"汾阳中学","lon":"121.43661","lat":"31.1504","category":"55","category_name":"中学","address":"徐汇区龙川北路788号(近石龙路)"},{"poiid":"B2094654DB64A2F9479C","title":"华东花苑(北2号门)","lon":"121.43376","lat":"31.14842","category":"47","category_name":"住宅区","address":"罗城路799弄"},{"poiid":"B2094757D16BA0FE4792","title":"上海中学大礼堂","lon":"121.43807","lat":"31.139298","category":"500","category_name":"未知分类","address":"上海上中路400号"},{"poiid":"B2094654DB6CA1F4439E","title":"汇成二村(2号门)","lon":"121.43425","lat":"31.14605","category":"47","category_name":"住宅区","address":""},{"poiid":"B2094753D66AA3FF439C","title":"新天地","lon":"121.439453","lat":"31.149948","category":"500","category_name":"未知分类","address":"上海市 淮海路"},{"poiid":"B2094654DB64A2F94792","title":"罗城路小区(罗城路)","lon":"121.43495","lat":"31.14921","category":"47","category_name":"住宅区","address":"罗城路700弄1-95号"},{"poiid":"B2094654DB6CA1F8439D","title":"可的(百色路)","lon":"121.43893","lat":"31.14257","category":"117","category_name":"便民商店/便利店","address":"徐汇区百色路956号(百色路龙川北路)"},{"poiid":"B2094654DB64A1FC4792","title":"上中路100弄小区","lon":"121.44","lat":"31.143","category":"47","category_name":"住宅区","address":"上中路100弄"},{"poiid":"B2094750D56EAAF5419B","title":"上海中学","lon":"121.438796","lat":"31.139642","category":"55","category_name":"中学","address":"百色路989号"},{"poiid":"B2094654DB64A2F9489D","title":"中国电信","lon":"121.43821","lat":"31.14996","category":"151","category_name":"电讯营业厅","address":"徐汇区罗城路413号(龙川北路)"},{"poiid":"B2094654DB6CA1F84498","title":"玛萨专业SPA美容会所百色店","lon":"121.43933","lat":"31.14261","category":"148","category_name":"美容美发店","address":"百色路946"},{"poiid":"B2094655D268A4F5489D","title":"恒龙苑(侧门)","lon":"121.43799","lat":"31.15027","category":"47","category_name":"住宅区","address":"罗城路570弄1-32号"},{"poiid":"B2094654DA65A6FE449D","title":"华联超市罗成店","lon":"121.43618","lat":"31.14927","category":"118","category_name":"超级市场","address":"罗城路667号"},{"poiid":"B2094655D26EABFA409A","title":"新疆大盘鸡(百色路)","lon":"121.43918","lat":"31.1426","category":"257","category_name":"中餐厅","address":"百色路950-1识别"},{"poiid":"B2094757D469A7FC4298","title":"静安面包房 百色路店 JING AN BAKERY","lon":"121.433940054","lat":"31.142960793","category":"112","category_name":"糕饼店","address":"徐汇区百色路(百色路嘉陵路)"},{"poiid":"B2094757D164A7FA4198","title":"豪味道大鸡排百色路","lon":"121.437272","lat":"31.142212","category":"68","category_name":"快餐厅","address":"上海百色路1017号"},{"poiid":"B2094655D26EA5F9499E","title":"珍珠奶茶(百色路)","lon":"121.43774","lat":"31.14254","category":"113","category_name":"冷饮店","address":"百色路996"},{"poiid":"B2094757D66EA1F5419B","title":"丰裕生煎(百色路店)","lon":"121.43842","lat":"31.14217","category":"247","category_name":"餐饮美食","address":"上海徐汇区百色路976号(近龙川北路)  "},{"poiid":"B2094655D36CA0FB499B","title":"汇城新村","lon":"121.43521","lat":"31.14293","category":"47","category_name":"住宅区","address":""},{"poiid":"B2094654DB64A1FC4699","title":"中老年健康服务中心","lon":"121.43486","lat":"31.14388","category":"162","category_name":"医院","address":"汇成社区卫生服务站东北"},{"poiid":"B2094654DB64A2F9499A","title":"快客(罗城路)","lon":"121.43814","lat":"31.15033","category":"117","category_name":"便民商店/便利店","address":""},{"poiid":"B2094654DB6CA1F5439C","title":"可的(汇成苑五村西)","lon":"121.43682","lat":"31.14232","category":"117","category_name":"便民商店/便利店","address":"徐汇区百色路1037-1043号"},{"poiid":"B2094757D06AA0FA479F","title":"中国建设银行(长桥支行)","lon":"121.43759","lat":"31.14211","category":"150","category_name":"银行","address":"徐汇区百色路1018-1028号(百色路龙川北路)"},{"poiid":"B2094757D06BA0F44793","title":"汇成三村","lon":"121.441","lat":"31.1509","category":"252","category_name":"楼宇机构","address":"上海百色路"},{"poiid":"B2094654DB64A2F94893","title":"住大商务楼(罗城路)","lon":"121.43865","lat":"31.15109","category":"46","category_name":"楼宇","address":"罗城路530"},{"poiid":"B2094655D26FA4FB479A","title":"汇成四村(西门)","lon":"121.43491","lat":"31.14372","category":"47","category_name":"住宅区","address":""},{"poiid":"B2094654DB6CA1F4439D","title":"中老年健康家园服务点","lon":"121.43431","lat":"31.14447","category":"162","category_name":"医院","address":"汇成苑中心街24号"},{"poiid":"B2094655D268A0FF4798","title":"汇达苑小区(侧门)","lon":"121.43805","lat":"31.14991","category":"47","category_name":"住宅区","address":""},{"poiid":"B2094654DB6CA1F5469A","title":"好德便利No.343","lon":"121.43549","lat":"31.14271","category":"117","category_name":"便民商店/便利店","address":"徐汇区百色路1103号"},{"poiid":"B2094655D26FA4FB469F","title":"上海中学住宅区(北门)","lon":"121.43785","lat":"31.1421","category":"47","category_name":"住宅区","address":"百色路987弄"},{"poiid":"B2094654DB6CA1FB489E","title":"四季水果店(百色路)","lon":"121.43812","lat":"31.14244","category":"117","category_name":"便民商店/便利店","address":"百色路978"},{"poiid":"B2094757D164ABF8459E","title":"小紅帽拉麵","lon":"121.434534857","lat":"31.1430842251","category":"247","category_name":"餐饮美食","address":"上海市徐汇区百色路"},{"poiid":"B2094757D16BA1FF4693","title":"957路龙川北路百色路站","lon":"121.438582238","lat":"31.1416937978","category":"38","category_name":"公交车站","address":"上海市徐汇区龙川北路近百色路南侧"},{"poiid":"B2094654DB6CA1F54493","title":"华氏大药房汇成分店","lon":"121.43612","lat":"31.14251","category":"162","category_name":"医院","address":"徐汇区百色路1067-1071号"},{"poiid":"B2094654DB6CA1F44193","title":"汇成苑一二三四村","lon":"121.43498","lat":"31.14314","category":"47","category_name":"住宅区","address":"长桥"},{"poiid":"B2094655D26FA4FB469E","title":"汇成苑三村(东门)","lon":"121.43438","lat":"31.1443","category":"47","category_name":"住宅区","address":""},{"poiid":"B209475CD16EAAF94292","title":"徐汇滨江","lon":"121.437988","lat":"31.150661","category":"47","category_name":"住宅区","address":"上海市 龙腾大道"},{"poiid":"B2094655D26DA7F5469D","title":"汇成苑五村(1号门)","lon":"121.43704","lat":"31.14222","category":"47","category_name":"住宅区","address":""},{"poiid":"B2094654DB6CA1F54698","title":"汇成苑五村(2号门)","lon":"121.43523","lat":"31.14272","category":"47","category_name":"住宅区","address":"长桥"},{"poiid":"B2094757D16DA0FB4993","title":"恒龙苑","lon":"121.43777","lat":"31.150768","category":"500","category_name":"未知分类","address":"上海罗城路570弄"},{"poiid":"B2094654DB6CA1F84399","title":"三佳商店","lon":"121.43875","lat":"31.14258","category":"141","category_name":"服装鞋帽皮具店","address":""},{"poiid":"B2094655D268A3F8489A","title":"迪亚天天No.5917","lon":"121.4403","lat":"31.14245","category":"117","category_name":"便民商店/便利店","address":""},{"poiid":"B2094654DB6CA1F8449F","title":"园南新村(4号门)","lon":"121.44293","lat":"31.14266","category":"47","category_name":"住宅区","address":"百色路451弄"},{"poiid":"B2094655D268A7FE449D","title":"上海中学住宅区","lon":"121.43757","lat":"31.14192","category":"47","category_name":"住宅区","address":"百色路987弄"},{"poiid":"B2094757D165ABFE479F","title":"百色路1221号村夫烤鱼","lon":"121.44264385","lat":"31.147190907","category":"500","category_name":"未知分类","address":"上海百色路1221号"},{"poiid":"B2094654DA65A6FE479C","title":"上海银行罗城路支行","lon":"121.43682","lat":"31.14981","category":"150","category_name":"银行","address":"罗城路670"},{"poiid":"B2094655D268A6FE489C","title":"光华园(西门)","lon":"121.43402","lat":"31.14154","category":"47","category_name":"住宅区","address":""},{"poiid":"B2094757D064A5FA4698","title":"龙川北路百色路车站","lon":"121.439712524","lat":"31.1424827576","category":"500","category_name":"未知分类","address":"上海龙川北路百色路"},{"poiid":"B2094757D16FAAF84593","title":"上海邮政商函公司","lon":"121.432857","lat":"31.143309","category":"500","category_name":"未知分类","address":"上海百色路1218号"},{"poiid":"B2094757D169A5F54599","title":"824公交上海植物园站","lon":"121.43517685","lat":"31.14334323","category":"500","category_name":"未知分类","address":"上海市徐汇区龙吴路"},{"poiid":"B2094654DB64A1FC469D","title":"农工商超市","lon":"121.4341","lat":"31.14334","category":"118","category_name":"超级市场","address":"徐汇区百色路1150-1172号(近嘉陵路)"},{"poiid":"B2094654DA65A6FF499A","title":"恒龙苑(边门)","lon":"121.43778","lat":"31.15077","category":"47","category_name":"住宅区","address":"罗城路570弄1-32号"},{"poiid":"B2094757D16BA4F94792","title":"马里亚那海沟","lon":"121.43685288","lat":"31.149441452","category":"500","category_name":"未知分类","address":"马里亚那海沟"},{"poiid":"B2094750DB6CA0F94798","title":"中山公园龙之梦","lon":"121.435264","lat":"31.141265","category":"500","category_name":"未知分类","address":null},{"poiid":"B2094654DB65A6F9439D","title":"华联超市(百色店)","lon":"121.43438","lat":"31.14293","category":"118","category_name":"超级市场","address":"徐汇区百色路1169号(近嘉陵路)"},{"poiid":"B2094753D36FA7F54193","title":"西南影城","lon":"121.432869","lat":"31.14369","category":"178","category_name":"电影院","address":"上海市 罗香路"},{"poiid":"B2094655D265A3F4439B","title":"上海震旦职业学院实训基地","lon":"121.44312","lat":"31.14183","category":"52","category_name":"高等院校","address":"百色路451弄33"},{"poiid":"B2094654DB6CA1FB4998","title":"中国建设银行上海长桥支行","lon":"121.43728","lat":"31.1425","category":"150","category_name":"银行","address":"百色路1018"},{"poiid":"B2094654DA65A6FF469A","title":"上海玛萨美容美发有限公司","lon":"121.43865","lat":"31.15109","category":"148","category_name":"美容美发店","address":"罗城路530号住大商务楼4层"},{"poiid":"B2094654DB64A1FC469E","title":"汇成苑三村(2号门)","lon":"121.43381","lat":"31.14342","category":"47","category_name":"住宅区","address":""},{"poiid":"B2094654DB6CA1F94199","title":"快客(百色路)","lon":"121.44303","lat":"31.14233","category":"117","category_name":"便民商店/便利店","address":"百色路451弄1号"},{"poiid":"B2094654DB6CA1F94392","title":"园南幼儿园","lon":"121.43996","lat":"31.14077","category":"57","category_name":"幼儿园","address":"徐汇区龙川北路园南一村27号(近上中路)"},{"poiid":"B2094757D16EA5FC4192","title":"罗城小区","lon":"121.434948","lat":"31.14913","category":"252","category_name":"楼宇机构","address":"上海罗城路700弄"},{"poiid":"B2094654DB6CA1F9429F","title":"五指山足浴No.003","lon":"121.44021","lat":"31.14244","category":"149","category_name":"洗浴推拿场所","address":"百色路845-847"},{"poiid":"B2094655D36CA1F8469A","title":"龙川北路石龙路","lon":"121.43572","lat":"31.15244","category":"38","category_name":"公交车站","address":""},{"poiid":"B2094757D16AA2FB4798","title":"瑜窩","lon":"121.434171857","lat":"31.1445062536","category":"500","category_name":"未知分类","address":"上海百色路"},{"poiid":"B2094751D26CA7FE4998","title":"南站南广场","lon":"121.434944","lat":"31.145895","category":"251","category_name":"出行住宿","address":null},{"poiid":"B2094757D06BA5FD489B","title":"百色路","lon":"121.436047","lat":"31.142354","category":"500","category_name":"未知分类","address":"上海汇城五村75号汇城苑幼稚园"},{"poiid":"B2094757D064A7F8409C","title":"爱雅美容美发(百色路店)","lon":"121.4334","lat":"31.14288","category":"148","category_name":"美容美发店","address":"徐汇区百色路1223号"},{"poiid":"B2094654DB6CA1F9449D","title":"良友(龙川北路)","lon":"121.43968","lat":"31.14055","category":"117","category_name":"便民商店/便利店","address":"龙川北路153-5"},{"poiid":"B2094655D268A2F4449F","title":"天等路214弄小区","lon":"121.43479375228","lat":"31.141965879328","category":"47","category_name":"住宅区","address":"天等路214弄1-4号"},{"poiid":"B2094655D26DA7F54692","title":"华东花苑(北门)","lon":"121.4365","lat":"31.14937","category":"656","category_name":"大门","address":"罗城路651弄1-66号"},{"poiid":"B2094655D264A7FC4492","title":"天然居一期","lon":"121.44462","lat":"31.14342","category":"47","category_name":"住宅区","address":"上海市徐汇区百色路228号"},{"poiid":"B2094654DB6CA1F8439E","title":"晨佳房产(百色路)","lon":"121.4388","lat":"31.14256","category":"248","category_name":"生活娱乐","address":"百色路962"},{"poiid":"B2094655D268A7FB4998","title":"梅陇路394弄小区","lon":"121.432","lat":"31.1467","category":"47","category_name":"住宅区","address":"梅陇路394弄"},{"poiid":"B2094752D368A0FC419E","title":"西南影城","lon":"121.432678","lat":"31.146894","category":"178","category_name":"电影院","address":"罗香路237号"},{"poiid":"B2094757D06AA7FD409D","title":"瑷莉诺家","lon":"121.43456985","lat":"31.142057204","category":"47","category_name":"住宅区","address":"上海市徐汇区百色路汇成五村2甲号"},{"poiid":"B2094655D268A3F84898","title":"南苑别墅","lon":"121.44134","lat":"31.1407","category":"47","category_name":"住宅区","address":"园南二村27号-38号"},{"poiid":"B2094655D26BABFE429B","title":"百色路小商品综合市场","lon":"121.43304","lat":"31.14254","category":"120","category_name":"小商品市场","address":""},{"poiid":"B2094757D16BA2F5419E","title":"A4上海浙江收费站","lon":"121.439084857","lat":"31.1416971973","category":"267","category_name":"收费站","address":"A4上海浙江收费站"},{"poiid":"B2094757D16CABFC4599","title":"青浦监狱","lon":"121.436798413","lat":"31.1419627582","category":"608","category_name":"法院","address":"上海市青浦外青松公路7405号"},{"poiid":"B2094655D36DA7FC4092","title":"园南新村","lon":"121.44301","lat":"31.141191","category":"38","category_name":"公交车站","address":"百色路451弄"},{"poiid":"B2094752DB65A2F44192","title":"华东理工大学","lon":"121.432722","lat":"31.148169","category":"500","category_name":"未知分类","address":"上海市 梅陇路130号"},{"poiid":"B2094655D268A3F8489B","title":"南苑别墅(侧门)","lon":"121.44121","lat":"31.14102","category":"47","category_name":"住宅区","address":"园南二村27号-38号"},{"poiid":"B2094757D06AA7FE4099","title":"永琪美容美发(百色路店)","lon":"121.43382","lat":"31.143094","category":"148","category_name":"美容美发店","address":"上海百色路嘉陵路路口"},{"poiid":"B2094654DB6CA1F54793","title":"中国工商银行汇成新村支行","lon":"121.43378","lat":"31.14291","category":"150","category_name":"银行","address":"百色路1199号"},{"poiid":"B2094654DB6CA1F4499D","title":"艾雅专业女子美容SPA会所百色店","lon":"121.43289","lat":"31.14294","category":"148","category_name":"美容美发店","address":""},{"poiid":"B2094654DB6CA1F44993","title":"嘉陵路菜市场","lon":"121.43335","lat":"31.14245","category":"117","category_name":"便民商店/便利店","address":""},{"poiid":"B2094757D16FA3FC459A","title":"長桥水廠","lon":"121.442934857","lat":"31.1438932413","category":"263","category_name":"公司","address":"上海上中路411號"},{"poiid":"B2094654DB6CA1F9429D","title":"华氏大药房中医药店","lon":"121.43986","lat":"31.14239","category":"669","category_name":"药店","address":"徐汇区百色路867号(百色路龙川北路)"},{"poiid":"B2094753D66CA3FA4998","title":"徐汇区","lon":"121.438217","lat":"31.151657","category":"500","category_name":"未知分类","address":"上海市 徐汇区徐家汇"},{"poiid":"B2094654DB6CA1F54592","title":"我爱我家汇成店(百色路)","lon":"121.43556","lat":"31.14268","category":"248","category_name":"生活娱乐","address":"徐汇区百色路1095号"},{"poiid":"B2094757D568AAF5499C","title":"中国元素","lon":"121.4386589","lat":"31.1511","category":"255","category_name":"专卖店","address":"罗城路530号"},{"poiid":"B2094757D168A4FC489F","title":"悸动烧仙草(百色路店)","lon":"121.43917985","lat":"31.139890161","category":"247","category_name":"餐饮美食","address":"上海百色路1036号"},{"poiid":"B2094757D065A3FC489A","title":"街盟斗秀场","lon":"121.43740081","lat":"31.151147842","category":"148","category_name":"美容美发店","address":"徐汇区龙川北路739弄5号(汾阳中学正对面)"},{"poiid":"B2094757D16DA7FC4999","title":"中国石化石龙路加油站","lon":"121.4391908","lat":"31.152008801","category":"500","category_name":"未知分类","address":"上海徐汇区石龙路577号"},{"poiid":"B2094757D069A1FF4593","title":"Purple's home","lon":"121.44249185","lat":"31.142213207","category":"500","category_name":"未知分类","address":"上海市上中路"},{"poiid":"B2094757D06BA2FA4898","title":"耐克360°(上海南站店)","lon":"121.43337","lat":"31.15052","category":"140","category_name":"体育用品店","address":"徐汇区沪闵路9001-3号银泰购物中心南商场B1楼(近上海南站)"},{"poiid":"B2094757D569A1FF419B","title":"罗城棋牌","lon":"121.434165","lat":"31.148916","category":"175","category_name":"棋牌室","address":"中国上海市徐汇区罗城路"},{"poiid":"B2094655D268A7FE4492","title":"汇成一村(东门)","lon":"121.43397","lat":"31.1461","category":"656","category_name":"大门","address":""},{"poiid":"B2094757D165A6FA479A","title":"中山北二路四平路","lon":"121.43426715","lat":"31.141303856","category":"500","category_name":"未知分类","address":"上海中山北二路四平路"},{"poiid":"B2094654DB6CA1F44493","title":"上海邮政商函制作中心","lon":"121.43247","lat":"31.14339","category":"248","category_name":"生活娱乐","address":"百色路1218识别"},{"poiid":"B2094655D26BA5FC4892","title":"汇成一村(南门)","lon":"121.43318","lat":"31.14488","category":"656","category_name":"大门","address":"汇成苑一村1-92号"},{"poiid":"B2094757D66CA0F44598","title":"园南二村77号","lon":"121.44353005","lat":"31.142187807","category":"252","category_name":"楼宇机构","address":"上海平福路园南二村77号"},{"poiid":"B2094757D66DA5F8479E","title":"龙川菜市场","lon":"121.43860685","lat":"31.13984716","category":"249","category_name":"购物服务","address":"徐汇区龙川北路880号(近百色路)"},{"poiid":"B2094757DA69A2F94992","title":"Verawom上海","lon":"121.44304","lat":"31.1424","category":"633","category_name":"商务服务类公司","address":"田林路140号"},{"poiid":"B2094655D26FABFE469A","title":"园南二村(东二门)","lon":"121.44278","lat":"31.1427","category":"656","category_name":"大门","address":""},{"poiid":"B2094654DB64A1FC439F","title":"园南新村(西门)","lon":"121.43961","lat":"31.14056","category":"656","category_name":"大门","address":""},{"poiid":"B2094654DB64A1FC439E","title":"园南二村(东一门)","lon":"121.44282","lat":"31.1422","category":"656","category_name":"大门","address":""},{"poiid":"B2094655D26FABFE4698","title":"天然居(南二门)","lon":"121.4438","lat":"31.14311","category":"656","category_name":"大门","address":""},{"poiid":"B2094654DA65A6FE419E","title":"康佳苑(南门)","lon":"121.43227","lat":"31.14818","category":"656","category_name":"大门","address":""}]