[{"poiid":"B2094757D66FA6FA459B","title":"平成屋日式料理店","lon":"121.47791","lat":"31.23313","category":"95","category_name":"日本料理","address":"黄浦区广西北路245号1楼2楼(近汉口路)"},{"poiid":"B2094757D06FA3FB4792","title":"上海天蟾逸夫舞台","lon":"121.47752052644876","lat":"31.2319475704317","category":"179","category_name":"音乐厅","address":"上海黄浦区福州路701号(近云南中路)"},{"poiid":"B2094751D36CA0FE4892","title":"米斯特比萨(福州路店)","lon":"121.47723","lat":"31.23269","category":"94","category_name":"西餐厅","address":"黄浦区福州路666号金陵海欣大厦1楼(近来福士广场)"},{"poiid":"B2094753D76FAAFA449C","title":"上海滩国泰旗舰店","lon":"121.466011","lat":"31.216125","category":"249","category_name":"购物服务","address":"淮海中路868号"},{"poiid":"B209475CD564A7F84292","title":"上海滩新天地店","lon":"121.47463","lat":"31.22164","category":"119","category_name":"商场","address":"\"太仓路181弄新天地北里15号\r\n\""},{"poiid":"B209475CD564A7F8439E","title":"上海滩中信泰富店","lon":"121.45602","lat":"31.22851","category":"119","category_name":"商场","address":"\"南京西路1168号中信泰富广场，店铺号221.\r\n\""},{"poiid":"B209475CD564A7F84392","title":"上海滩浦东香格里拉店","lon":"121.50058","lat":"31.23634","category":"119","category_name":"商场","address":"浦东富成路33号香格里拉酒店内大堂层"},{"poiid":"B2094654DB65A4FE499E","title":"百米香榭商业街","lon":"121.47898","lat":"31.23359","category":"116","category_name":"特色商业街","address":"浙江中路229"},{"poiid":"B2094654DB6BA4F5479D","title":"盛贺美(黄浦店)","lon":"121.47801","lat":"31.23244","category":"95","category_name":"日本料理","address":"上海黄浦区福州路666号金陵海欣大厦1楼(近云南中路)"},{"poiid":"B2094655D268ABFE4092","title":"上海市黄浦区图书馆","lon":"121.47858","lat":"31.23227","category":"181","category_name":"图书馆","address":"黄浦区福州路655号(近浙江中路)"},{"poiid":"B2094757D068A5FF4299","title":"汇佳桌游","lon":"121.477889738","lat":"31.2328683563","category":"248","category_name":"生活娱乐","address":"黄浦区浙江中路229号3楼365商铺黄浦区广西北路250号百米香榭商业街2-3楼浦东南路855号世界广场B1楼黄浦区湖北路209号黄浦区汉口路547号黄浦区淮海东路99号新尚数码广场2楼218商铺黄浦区浙江中路229号2楼264商铺黄浦区广西北路262号2楼徐汇区零陵路751弄11号徐汇区斜土路2899号长宁区长宁路988号花园大厦6楼长宁区天山路900号汇金百货6楼"},{"poiid":"B2094757DB6AA3F44499","title":"卡乐星（来福士广场店）","lon":"121.477","lat":"31.2329","category":"94","category_name":"西餐厅","address":"黄浦区西藏中路268号来福士广场B1楼15号(近福州路)"},{"poiid":"B2094654DB69AAFE449A","title":"香啡缤(福州店)","lon":"121.47786","lat":"31.23237","category":"260","category_name":"其他","address":"黄浦区福州路666号金陵海欣大厦1楼B座(近云南中路)"},{"poiid":"B2094750D76FA1FB459C","title":"曼泰泰国料理","lon":"121.479","lat":"31.2325","category":"99","category_name":"泰国／越南菜品餐厅","address":"黄浦区福州路平望街46号(近来福士广场)"},{"poiid":"B2094757D06FA1FE4992","title":"金陵海欣大厦","lon":"121.477780373","lat":"31.2326710868","category":"46","category_name":"楼宇","address":"铁西建设东路57号"},{"poiid":"B2094757D06FA1F94092","title":"禾绿回转寿司(福州路店)","lon":"121.47806","lat":"31.23211","category":"95","category_name":"日本料理","address":"黄浦区福州路666号金陵海欣大厦2楼AB12号铺(近云南中路)"},{"poiid":"B2094757D06FA7FA4299","title":"黄记煌三汁焖锅(浙江中路店)","lon":"121.47927","lat":"31.23329","category":"86","category_name":"火锅店","address":"上海黄浦区浙江中路215弄1号百米香榭内(近福州路)"},{"poiid":"B2094750D36BA2FA429A","title":"3Q脆皮鸡排","lon":"121.47808","lat":"31.23214","category":"68","category_name":"快餐厅","address":"黄浦区福州路675号(近云南路)"},{"poiid":"B2094757D06FAAF9489F","title":"京世造型福州路店","lon":"121.47947513","lat":"31.23307286","category":"500","category_name":"未知分类","address":"上海福州路"},{"poiid":"B2094757D068A0F4409E","title":"花吉(汉口路店)","lon":"121.47874","lat":"31.23354","category":"95","category_name":"日本料理","address":"黄浦区汉口路633号(近浙江中路)"},{"poiid":"B2094750D56FA7F94793","title":"京都屋日本料理","lon":"121.47783937434383","lat":"31.233289057576","category":"95","category_name":"日本料理","address":"黄浦区广西北路256号(近汉口路)"},{"poiid":"B2094654DB64A6F44392","title":"just in花式撞球俱乐部","lon":"121.47893","lat":"31.23359","category":"171","category_name":"台球厅","address":"浙江中路229号百米香榭3楼"},{"poiid":"B2094757D06BA4F4499B","title":"俪晶酒店","lon":"121.47701208","lat":"31.233035539","category":"217","category_name":"旅馆招待所","address":"黄浦区汉口路678号(近广西北路)"},{"poiid":"B2094751D46AA1F4479C","title":"香港荣哥火锅","lon":"121.47763","lat":"31.233074","category":"86","category_name":"火锅店","address":"上海黄浦区广西北路237号"},{"poiid":"B2094757D16CA4FF499B","title":"漫佳动漫城 Toy man Jia(福州路店)","lon":"121.477346238","lat":"31.2331657627","category":"128","category_name":"儿童用品店","address":"黄浦区福州路620号(近广西北路)"},{"poiid":"B2094757D06FA5FA479B","title":"红宝石(汉口店)","lon":"121.47908","lat":"31.23362","category":"67","category_name":"甜品店","address":"黄浦区汉口路613号(近浙江中路)"},{"poiid":"B209475DD468ABFD4392","title":"锦逸","lon":"121.479331","lat":"31.232456","category":"247","category_name":"餐饮美食","address":"上海市 黄浦区南京东路819号百联世贸国际广场6楼"},{"poiid":"B2094751D36AA6F5489A","title":"原汁焖锅","lon":"121.47905","lat":"31.23339","category":"86","category_name":"火锅店","address":"黄浦区浙江中路215弄1号(近福州路)"},{"poiid":"B209475CD26EA1FB449B","title":"Mr.Pizza","lon":"121.477928","lat":"31.232315","category":"500","category_name":"未知分类","address":"上海市 福州路"},{"poiid":"B2094757D06FA5F8459F","title":"金太子形象设计(福州路店)","lon":"121.47812","lat":"31.23199","category":"149","category_name":"洗浴推拿场所","address":"黄浦区福州路737号(近西藏中路)"},{"poiid":"B2094757D064A6F94598","title":"美联社","lon":"121.47826773","lat":"31.233382367","category":"500","category_name":"未知分类","address":"黄浦区广西北路228弄中福城3楼(近百米香榭)"},{"poiid":"B2094757D568A5F44093","title":"黄浦区图书馆大厦","lon":"121.4785894","lat":"31.23227259","category":"46","category_name":"楼宇","address":"福州路655号"},{"poiid":"B2094757D06FA5F54992","title":"EF英孚教育英语培训中心(人民广场中心)","lon":"121.47758223","lat":"31.232655851","category":"190","category_name":"培训机构","address":"上海市黄浦区福州路666号金陵海欣大厦3-4楼(近云南中路，1、2、8号线人民广场路站15号口)"},{"poiid":"B2094757D069A2FD4299","title":"非常手机(人民广场店)","lon":"121.47816","lat":"31.233","category":"138","category_name":"家电电子卖场","address":"黄浦区广西北路246号(近福州路)"},{"poiid":"B2094750D365ABFB4399","title":"康骏养生会馆","lon":"121.478164","lat":"31.233959","category":"248","category_name":"生活娱乐","address":"南京东路丝绸大厦4楼"},{"poiid":"B2094757D068A4F4449A","title":"韩一拌饭","lon":"121.47824","lat":"31.2334","category":"96","category_name":"韩国料理","address":"黄浦区汉口路663号(广西北路口)"},{"poiid":"B2094757D068ABFF449F","title":"君安桌球","lon":"121.47822973","lat":"31.233336366","category":"171","category_name":"台球厅","address":"黄浦区广西北路246号百米香榭(近汉口路)"},{"poiid":"B2094750DA69A2FD489F","title":"李记冰室","lon":"121.47943292324828","lat":"31.232910281419063","category":"113","category_name":"冷饮店","address":"上海市黄浦区浙江中路167号(近福州路)"},{"poiid":"B2094655D26AA1FB449D","title":"樱花国际日语人民广场总部","lon":"121.47782","lat":"31.23236","category":"247","category_name":"餐饮美食","address":"黄浦区福州路666号金陵海欣大厦17楼(近云南中路)"},{"poiid":"B2094757D06BA1FE439A","title":"百米香榭桌游吧","lon":"121.47819973","lat":"31.233304365","category":"175","category_name":"棋牌室","address":"上海黄浦区浙江中路229号302室(近汉口路)"},{"poiid":"B2094654DB6BA4F54793","title":"Tea","lon":"121.481052054","lat":"31.233223793","category":"65","category_name":"咖啡厅","address":"湖北路163号近福州路"},{"poiid":"B2094757D66FA6FD4698","title":"百米香谢","lon":"121.47789773","lat":"31.232812355","category":"500","category_name":"未知分类","address":"上海市黄浦区浙江路229号"},{"poiid":"B2094750DB6BA6FC469F","title":"囍旺咖啡（浙江中路店）","lon":"121.47858","lat":"31.23325","category":"260","category_name":"其他","address":"黄浦区浙江中路215弄1号中福城内(近福州路)"},{"poiid":"B2094757D068A2FB4893","title":"招商银行(福州路支行)","lon":"121.47833142","lat":"31.232459342","category":"150","category_name":"银行","address":"黄浦区福州路646号(广西路口)"},{"poiid":"B2094757D66CA4FC429F","title":"王宝和","lon":"121.47927209","lat":"31.232653484","category":"500","category_name":"未知分类","address":"上海福州路603号"},{"poiid":"B2094750D76FA2FE4498","title":"小马哥起司马铃薯(福州路店)","lon":"121.478","lat":"31.2321","category":"68","category_name":"快餐厅","address":"黄浦区福州路681号(匡威旁)"},{"poiid":"B2094654DB65AAFB489E","title":"上海市金陵东路地段医院","lon":"121.47819","lat":"31.23316","category":"162","category_name":"医院","address":"黄浦区松下路30号(近金陵东路)"},{"poiid":"B2094750D768A7FF4398","title":"爱过桥米线","lon":"121.478","lat":"31.2336","category":"68","category_name":"快餐厅","address":"黄浦区汉口路659号(近广西北路)"},{"poiid":"B2094757D068A5F5429E","title":"品上品海鲜粥","lon":"121.47818","lat":"31.23313","category":"68","category_name":"快餐厅","address":"黄浦区广西北路256号(近汉口路)"},{"poiid":"B2094454D26AA0F8469E","title":"镰仓Pasta","lon":"121.477256","lat":"31.232212","category":"247","category_name":"餐饮美食","address":"上海市 静安区南京西路新世界城B1楼"},{"poiid":"B2094757D66FA6FA459B","title":"平成屋日式料理店","lon":"121.47791","lat":"31.23313","category":"95","category_name":"日本料理","address":"黄浦区广西北路245号1楼2楼(近汉口路)"},{"poiid":"B2094757D06FA3FB4792","title":"上海天蟾逸夫舞台","lon":"121.47752052644876","lat":"31.2319475704317","category":"179","category_name":"音乐厅","address":"上海黄浦区福州路701号(近云南中路)"},{"poiid":"B2094751D36CA0FE4892","title":"米斯特比萨(福州路店)","lon":"121.47723","lat":"31.23269","category":"94","category_name":"西餐厅","address":"黄浦区福州路666号金陵海欣大厦1楼(近来福士广场)"},{"poiid":"B2094753D76FAAFA449C","title":"上海滩国泰旗舰店","lon":"121.466011","lat":"31.216125","category":"249","category_name":"购物服务","address":"淮海中路868号"},{"poiid":"B209475CD564A7F84292","title":"上海滩新天地店","lon":"121.47463","lat":"31.22164","category":"119","category_name":"商场","address":"\"太仓路181弄新天地北里15号\r\n\""},{"poiid":"B209475CD564A7F8439E","title":"上海滩中信泰富店","lon":"121.45602","lat":"31.22851","category":"119","category_name":"商场","address":"\"南京西路1168号中信泰富广场，店铺号221.\r\n\""},{"poiid":"B209475CD564A7F84392","title":"上海滩浦东香格里拉店","lon":"121.50058","lat":"31.23634","category":"119","category_name":"商场","address":"浦东富成路33号香格里拉酒店内大堂层"},{"poiid":"B2094654DB65A4FE499E","title":"百米香榭商业街","lon":"121.47898","lat":"31.23359","category":"116","category_name":"特色商业街","address":"浙江中路229"},{"poiid":"B2094654DB6BA4F5479D","title":"盛贺美(黄浦店)","lon":"121.47801","lat":"31.23244","category":"95","category_name":"日本料理","address":"上海黄浦区福州路666号金陵海欣大厦1楼(近云南中路)"},{"poiid":"B2094655D268ABFE4092","title":"上海市黄浦区图书馆","lon":"121.47858","lat":"31.23227","category":"181","category_name":"图书馆","address":"黄浦区福州路655号(近浙江中路)"},{"poiid":"B2094757D068A5FF4299","title":"汇佳桌游","lon":"121.477889738","lat":"31.2328683563","category":"248","category_name":"生活娱乐","address":"黄浦区浙江中路229号3楼365商铺黄浦区广西北路250号百米香榭商业街2-3楼浦东南路855号世界广场B1楼黄浦区湖北路209号黄浦区汉口路547号黄浦区淮海东路99号新尚数码广场2楼218商铺黄浦区浙江中路229号2楼264商铺黄浦区广西北路262号2楼徐汇区零陵路751弄11号徐汇区斜土路2899号长宁区长宁路988号花园大厦6楼长宁区天山路900号汇金百货6楼"},{"poiid":"B2094757DB6AA3F44499","title":"卡乐星（来福士广场店）","lon":"121.477","lat":"31.2329","category":"94","category_name":"西餐厅","address":"黄浦区西藏中路268号来福士广场B1楼15号(近福州路)"},{"poiid":"B2094654DB69AAFE449A","title":"香啡缤(福州店)","lon":"121.47786","lat":"31.23237","category":"260","category_name":"其他","address":"黄浦区福州路666号金陵海欣大厦1楼B座(近云南中路)"},{"poiid":"B2094750D76FA1FB459C","title":"曼泰泰国料理","lon":"121.479","lat":"31.2325","category":"99","category_name":"泰国／越南菜品餐厅","address":"黄浦区福州路平望街46号(近来福士广场)"},{"poiid":"B2094757D06FA1FE4992","title":"金陵海欣大厦","lon":"121.477780373","lat":"31.2326710868","category":"46","category_name":"楼宇","address":"铁西建设东路57号"},{"poiid":"B2094757D06FA1F94092","title":"禾绿回转寿司(福州路店)","lon":"121.47806","lat":"31.23211","category":"95","category_name":"日本料理","address":"黄浦区福州路666号金陵海欣大厦2楼AB12号铺(近云南中路)"},{"poiid":"B2094757D06FA7FA4299","title":"黄记煌三汁焖锅(浙江中路店)","lon":"121.47927","lat":"31.23329","category":"86","category_name":"火锅店","address":"上海黄浦区浙江中路215弄1号百米香榭内(近福州路)"},{"poiid":"B2094750D36BA2FA429A","title":"3Q脆皮鸡排","lon":"121.47808","lat":"31.23214","category":"68","category_name":"快餐厅","address":"黄浦区福州路675号(近云南路)"},{"poiid":"B2094757D06FAAF9489F","title":"京世造型福州路店","lon":"121.47947513","lat":"31.23307286","category":"500","category_name":"未知分类","address":"上海福州路"},{"poiid":"B2094757D068A0F4409E","title":"花吉(汉口路店)","lon":"121.47874","lat":"31.23354","category":"95","category_name":"日本料理","address":"黄浦区汉口路633号(近浙江中路)"},{"poiid":"B2094750D56FA7F94793","title":"京都屋日本料理","lon":"121.47783937434383","lat":"31.233289057576","category":"95","category_name":"日本料理","address":"黄浦区广西北路256号(近汉口路)"},{"poiid":"B2094654DB64A6F44392","title":"just in花式撞球俱乐部","lon":"121.47893","lat":"31.23359","category":"171","category_name":"台球厅","address":"浙江中路229号百米香榭3楼"},{"poiid":"B2094757D06BA4F4499B","title":"俪晶酒店","lon":"121.47701208","lat":"31.233035539","category":"217","category_name":"旅馆招待所","address":"黄浦区汉口路678号(近广西北路)"},{"poiid":"B2094751D46AA1F4479C","title":"香港荣哥火锅","lon":"121.47763","lat":"31.233074","category":"86","category_name":"火锅店","address":"上海黄浦区广西北路237号"},{"poiid":"B2094757D16CA4FF499B","title":"漫佳动漫城 Toy man Jia(福州路店)","lon":"121.477346238","lat":"31.2331657627","category":"128","category_name":"儿童用品店","address":"黄浦区福州路620号(近广西北路)"},{"poiid":"B2094757D06FA5FA479B","title":"红宝石(汉口店)","lon":"121.47908","lat":"31.23362","category":"67","category_name":"甜品店","address":"黄浦区汉口路613号(近浙江中路)"},{"poiid":"B209475DD468ABFD4392","title":"锦逸","lon":"121.479331","lat":"31.232456","category":"247","category_name":"餐饮美食","address":"上海市 黄浦区南京东路819号百联世贸国际广场6楼"},{"poiid":"B2094751D36AA6F5489A","title":"原汁焖锅","lon":"121.47905","lat":"31.23339","category":"86","category_name":"火锅店","address":"黄浦区浙江中路215弄1号(近福州路)"},{"poiid":"B209475CD26EA1FB449B","title":"Mr.Pizza","lon":"121.477928","lat":"31.232315","category":"500","category_name":"未知分类","address":"上海市 福州路"},{"poiid":"B2094757D06FA5F8459F","title":"金太子形象设计(福州路店)","lon":"121.47812","lat":"31.23199","category":"149","category_name":"洗浴推拿场所","address":"黄浦区福州路737号(近西藏中路)"},{"poiid":"B2094757D064A6F94598","title":"美联社","lon":"121.47826773","lat":"31.233382367","category":"500","category_name":"未知分类","address":"黄浦区广西北路228弄中福城3楼(近百米香榭)"},{"poiid":"B2094757D568A5F44093","title":"黄浦区图书馆大厦","lon":"121.4785894","lat":"31.23227259","category":"46","category_name":"楼宇","address":"福州路655号"},{"poiid":"B2094757D06FA5F54992","title":"EF英孚教育英语培训中心(人民广场中心)","lon":"121.47758223","lat":"31.232655851","category":"190","category_name":"培训机构","address":"上海市黄浦区福州路666号金陵海欣大厦3-4楼(近云南中路，1、2、8号线人民广场路站15号口)"},{"poiid":"B2094757D069A2FD4299","title":"非常手机(人民广场店)","lon":"121.47816","lat":"31.233","category":"138","category_name":"家电电子卖场","address":"黄浦区广西北路246号(近福州路)"},{"poiid":"B2094750D365ABFB4399","title":"康骏养生会馆","lon":"121.478164","lat":"31.233959","category":"248","category_name":"生活娱乐","address":"南京东路丝绸大厦4楼"},{"poiid":"B2094757D068A4F4449A","title":"韩一拌饭","lon":"121.47824","lat":"31.2334","category":"96","category_name":"韩国料理","address":"黄浦区汉口路663号(广西北路口)"},{"poiid":"B2094757D068ABFF449F","title":"君安桌球","lon":"121.47822973","lat":"31.233336366","category":"171","category_name":"台球厅","address":"黄浦区广西北路246号百米香榭(近汉口路)"},{"poiid":"B2094750DA69A2FD489F","title":"李记冰室","lon":"121.47943292324828","lat":"31.232910281419063","category":"113","category_name":"冷饮店","address":"上海市黄浦区浙江中路167号(近福州路)"},{"poiid":"B2094655D26AA1FB449D","title":"樱花国际日语人民广场总部","lon":"121.47782","lat":"31.23236","category":"247","category_name":"餐饮美食","address":"黄浦区福州路666号金陵海欣大厦17楼(近云南中路)"},{"poiid":"B2094757D06BA1FE439A","title":"百米香榭桌游吧","lon":"121.47819973","lat":"31.233304365","category":"175","category_name":"棋牌室","address":"上海黄浦区浙江中路229号302室(近汉口路)"},{"poiid":"B2094654DB6BA4F54793","title":"Tea","lon":"121.481052054","lat":"31.233223793","category":"65","category_name":"咖啡厅","address":"湖北路163号近福州路"},{"poiid":"B2094757D66FA6FD4698","title":"百米香谢","lon":"121.47789773","lat":"31.232812355","category":"500","category_name":"未知分类","address":"上海市黄浦区浙江路229号"},{"poiid":"B2094750DB6BA6FC469F","title":"囍旺咖啡（浙江中路店）","lon":"121.47858","lat":"31.23325","category":"260","category_name":"其他","address":"黄浦区浙江中路215弄1号中福城内(近福州路)"},{"poiid":"B2094757D068A2FB4893","title":"招商银行(福州路支行)","lon":"121.47833142","lat":"31.232459342","category":"150","category_name":"银行","address":"黄浦区福州路646号(广西路口)"},{"poiid":"B2094757D66CA4FC429F","title":"王宝和","lon":"121.47927209","lat":"31.232653484","category":"500","category_name":"未知分类","address":"上海福州路603号"},{"poiid":"B2094750D76FA2FE4498","title":"小马哥起司马铃薯(福州路店)","lon":"121.478","lat":"31.2321","category":"68","category_name":"快餐厅","address":"黄浦区福州路681号(匡威旁)"},{"poiid":"B2094654DB65AAFB489E","title":"上海市金陵东路地段医院","lon":"121.47819","lat":"31.23316","category":"162","category_name":"医院","address":"黄浦区松下路30号(近金陵东路)"},{"poiid":"B2094750D768A7FF4398","title":"爱过桥米线","lon":"121.478","lat":"31.2336","category":"68","category_name":"快餐厅","address":"黄浦区汉口路659号(近广西北路)"},{"poiid":"B2094757D068A5F5429E","title":"品上品海鲜粥","lon":"121.47818","lat":"31.23313","category":"68","category_name":"快餐厅","address":"黄浦区广西北路256号(近汉口路)"},{"poiid":"B2094454D26AA0F8469E","title":"镰仓Pasta","lon":"121.477256","lat":"31.232212","category":"247","category_name":"餐饮美食","address":"上海市 静安区南京西路新世界城B1楼"},{"poiid":"B2094757D66FA6FA459B","title":"平成屋日式料理店","lon":"121.47791","lat":"31.23313","category":"95","category_name":"日本料理","address":"黄浦区广西北路245号1楼2楼(近汉口路)"},{"poiid":"B2094757D06FA3FB4792","title":"上海天蟾逸夫舞台","lon":"121.47752052644876","lat":"31.2319475704317","category":"179","category_name":"音乐厅","address":"上海黄浦区福州路701号(近云南中路)"},{"poiid":"B2094751D36CA0FE4892","title":"米斯特比萨(福州路店)","lon":"121.47723","lat":"31.23269","category":"94","category_name":"西餐厅","address":"黄浦区福州路666号金陵海欣大厦1楼(近来福士广场)"},{"poiid":"B2094753D76FAAFA449C","title":"上海滩国泰旗舰店","lon":"121.466011","lat":"31.216125","category":"249","category_name":"购物服务","address":"淮海中路868号"},{"poiid":"B209475CD564A7F84292","title":"上海滩新天地店","lon":"121.47463","lat":"31.22164","category":"119","category_name":"商场","address":"\"太仓路181弄新天地北里15号\r\n\""},{"poiid":"B209475CD564A7F8439E","title":"上海滩中信泰富店","lon":"121.45602","lat":"31.22851","category":"119","category_name":"商场","address":"\"南京西路1168号中信泰富广场，店铺号221.\r\n\""},{"poiid":"B209475CD564A7F84392","title":"上海滩浦东香格里拉店","lon":"121.50058","lat":"31.23634","category":"119","category_name":"商场","address":"浦东富成路33号香格里拉酒店内大堂层"},{"poiid":"B2094654DB65A4FE499E","title":"百米香榭商业街","lon":"121.47898","lat":"31.23359","category":"116","category_name":"特色商业街","address":"浙江中路229"},{"poiid":"B2094654DB6BA4F5479D","title":"盛贺美(黄浦店)","lon":"121.47801","lat":"31.23244","category":"95","category_name":"日本料理","address":"上海黄浦区福州路666号金陵海欣大厦1楼(近云南中路)"},{"poiid":"B2094655D268ABFE4092","title":"上海市黄浦区图书馆","lon":"121.47858","lat":"31.23227","category":"181","category_name":"图书馆","address":"黄浦区福州路655号(近浙江中路)"},{"poiid":"B2094757D068A5FF4299","title":"汇佳桌游","lon":"121.477889738","lat":"31.2328683563","category":"248","category_name":"生活娱乐","address":"黄浦区浙江中路229号3楼365商铺黄浦区广西北路250号百米香榭商业街2-3楼浦东南路855号世界广场B1楼黄浦区湖北路209号黄浦区汉口路547号黄浦区淮海东路99号新尚数码广场2楼218商铺黄浦区浙江中路229号2楼264商铺黄浦区广西北路262号2楼徐汇区零陵路751弄11号徐汇区斜土路2899号长宁区长宁路988号花园大厦6楼长宁区天山路900号汇金百货6楼"},{"poiid":"B2094757DB6AA3F44499","title":"卡乐星（来福士广场店）","lon":"121.477","lat":"31.2329","category":"94","category_name":"西餐厅","address":"黄浦区西藏中路268号来福士广场B1楼15号(近福州路)"},{"poiid":"B2094654DB69AAFE449A","title":"香啡缤(福州店)","lon":"121.47786","lat":"31.23237","category":"260","category_name":"其他","address":"黄浦区福州路666号金陵海欣大厦1楼B座(近云南中路)"},{"poiid":"B2094750D76FA1FB459C","title":"曼泰泰国料理","lon":"121.479","lat":"31.2325","category":"99","category_name":"泰国／越南菜品餐厅","address":"黄浦区福州路平望街46号(近来福士广场)"},{"poiid":"B2094757D06FA1FE4992","title":"金陵海欣大厦","lon":"121.477780373","lat":"31.2326710868","category":"46","category_name":"楼宇","address":"铁西建设东路57号"},{"poiid":"B2094757D06FA1F94092","title":"禾绿回转寿司(福州路店)","lon":"121.47806","lat":"31.23211","category":"95","category_name":"日本料理","address":"黄浦区福州路666号金陵海欣大厦2楼AB12号铺(近云南中路)"},{"poiid":"B2094757D06FA7FA4299","title":"黄记煌三汁焖锅(浙江中路店)","lon":"121.47927","lat":"31.23329","category":"86","category_name":"火锅店","address":"上海黄浦区浙江中路215弄1号百米香榭内(近福州路)"},{"poiid":"B2094750D36BA2FA429A","title":"3Q脆皮鸡排","lon":"121.47808","lat":"31.23214","category":"68","category_name":"快餐厅","address":"黄浦区福州路675号(近云南路)"},{"poiid":"B2094757D06FAAF9489F","title":"京世造型福州路店","lon":"121.47947513","lat":"31.23307286","category":"500","category_name":"未知分类","address":"上海福州路"},{"poiid":"B2094757D068A0F4409E","title":"花吉(汉口路店)","lon":"121.47874","lat":"31.23354","category":"95","category_name":"日本料理","address":"黄浦区汉口路633号(近浙江中路)"},{"poiid":"B2094750D56FA7F94793","title":"京都屋日本料理","lon":"121.47783937434383","lat":"31.233289057576","category":"95","category_name":"日本料理","address":"黄浦区广西北路256号(近汉口路)"},{"poiid":"B2094654DB64A6F44392","title":"just in花式撞球俱乐部","lon":"121.47893","lat":"31.23359","category":"171","category_name":"台球厅","address":"浙江中路229号百米香榭3楼"},{"poiid":"B2094757D06BA4F4499B","title":"俪晶酒店","lon":"121.47701208","lat":"31.233035539","category":"217","category_name":"旅馆招待所","address":"黄浦区汉口路678号(近广西北路)"},{"poiid":"B2094751D46AA1F4479C","title":"香港荣哥火锅","lon":"121.47763","lat":"31.233074","category":"86","category_name":"火锅店","address":"上海黄浦区广西北路237号"},{"poiid":"B2094757D16CA4FF499B","title":"漫佳动漫城 Toy man Jia(福州路店)","lon":"121.477346238","lat":"31.2331657627","category":"128","category_name":"儿童用品店","address":"黄浦区福州路620号(近广西北路)"},{"poiid":"B2094757D06FA5FA479B","title":"红宝石(汉口店)","lon":"121.47908","lat":"31.23362","category":"67","category_name":"甜品店","address":"黄浦区汉口路613号(近浙江中路)"},{"poiid":"B209475DD468ABFD4392","title":"锦逸","lon":"121.479331","lat":"31.232456","category":"247","category_name":"餐饮美食","address":"上海市 黄浦区南京东路819号百联世贸国际广场6楼"},{"poiid":"B2094751D36AA6F5489A","title":"原汁焖锅","lon":"121.47905","lat":"31.23339","category":"86","category_name":"火锅店","address":"黄浦区浙江中路215弄1号(近福州路)"},{"poiid":"B209475CD26EA1FB449B","title":"Mr.Pizza","lon":"121.477928","lat":"31.232315","category":"500","category_name":"未知分类","address":"上海市 福州路"},{"poiid":"B2094757D06FA5F8459F","title":"金太子形象设计(福州路店)","lon":"121.47812","lat":"31.23199","category":"149","category_name":"洗浴推拿场所","address":"黄浦区福州路737号(近西藏中路)"},{"poiid":"B2094757D064A6F94598","title":"美联社","lon":"121.47826773","lat":"31.233382367","category":"500","category_name":"未知分类","address":"黄浦区广西北路228弄中福城3楼(近百米香榭)"},{"poiid":"B2094757D568A5F44093","title":"黄浦区图书馆大厦","lon":"121.4785894","lat":"31.23227259","category":"46","category_name":"楼宇","address":"福州路655号"},{"poiid":"B2094757D06FA5F54992","title":"EF英孚教育英语培训中心(人民广场中心)","lon":"121.47758223","lat":"31.232655851","category":"190","category_name":"培训机构","address":"上海市黄浦区福州路666号金陵海欣大厦3-4楼(近云南中路，1、2、8号线人民广场路站15号口)"},{"poiid":"B2094757D069A2FD4299","title":"非常手机(人民广场店)","lon":"121.47816","lat":"31.233","category":"138","category_name":"家电电子卖场","address":"黄浦区广西北路246号(近福州路)"},{"poiid":"B2094750D365ABFB4399","title":"康骏养生会馆","lon":"121.478164","lat":"31.233959","category":"248","category_name":"生活娱乐","address":"南京东路丝绸大厦4楼"},{"poiid":"B2094757D068A4F4449A","title":"韩一拌饭","lon":"121.47824","lat":"31.2334","category":"96","category_name":"韩国料理","address":"黄浦区汉口路663号(广西北路口)"},{"poiid":"B2094757D068ABFF449F","title":"君安桌球","lon":"121.47822973","lat":"31.233336366","category":"171","category_name":"台球厅","address":"黄浦区广西北路246号百米香榭(近汉口路)"},{"poiid":"B2094750DA69A2FD489F","title":"李记冰室","lon":"121.47943292324828","lat":"31.232910281419063","category":"113","category_name":"冷饮店","address":"上海市黄浦区浙江中路167号(近福州路)"},{"poiid":"B2094655D26AA1FB449D","title":"樱花国际日语人民广场总部","lon":"121.47782","lat":"31.23236","category":"247","category_name":"餐饮美食","address":"黄浦区福州路666号金陵海欣大厦17楼(近云南中路)"},{"poiid":"B2094757D06BA1FE439A","title":"百米香榭桌游吧","lon":"121.47819973","lat":"31.233304365","category":"175","category_name":"棋牌室","address":"上海黄浦区浙江中路229号302室(近汉口路)"},{"poiid":"B2094654DB6BA4F54793","title":"Tea","lon":"121.481052054","lat":"31.233223793","category":"65","category_name":"咖啡厅","address":"湖北路163号近福州路"},{"poiid":"B2094757D66FA6FD4698","title":"百米香谢","lon":"121.47789773","lat":"31.232812355","category":"500","category_name":"未知分类","address":"上海市黄浦区浙江路229号"},{"poiid":"B2094750DB6BA6FC469F","title":"囍旺咖啡（浙江中路店）","lon":"121.47858","lat":"31.23325","category":"260","category_name":"其他","address":"黄浦区浙江中路215弄1号中福城内(近福州路)"},{"poiid":"B2094757D068A2FB4893","title":"招商银行(福州路支行)","lon":"121.47833142","lat":"31.232459342","category":"150","category_name":"银行","address":"黄浦区福州路646号(广西路口)"},{"poiid":"B2094757D66CA4FC429F","title":"王宝和","lon":"121.47927209","lat":"31.232653484","category":"500","category_name":"未知分类","address":"上海福州路603号"},{"poiid":"B2094750D76FA2FE4498","title":"小马哥起司马铃薯(福州路店)","lon":"121.478","lat":"31.2321","category":"68","category_name":"快餐厅","address":"黄浦区福州路681号(匡威旁)"},{"poiid":"B2094654DB65AAFB489E","title":"上海市金陵东路地段医院","lon":"121.47819","lat":"31.23316","category":"162","category_name":"医院","address":"黄浦区松下路30号(近金陵东路)"},{"poiid":"B2094750D768A7FF4398","title":"爱过桥米线","lon":"121.478","lat":"31.2336","category":"68","category_name":"快餐厅","address":"黄浦区汉口路659号(近广西北路)"},{"poiid":"B2094757D068A5F5429E","title":"品上品海鲜粥","lon":"121.47818","lat":"31.23313","category":"68","category_name":"快餐厅","address":"黄浦区广西北路256号(近汉口路)"},{"poiid":"B2094454D26AA0F8469E","title":"镰仓Pasta","lon":"121.477256","lat":"31.232212","category":"247","category_name":"餐饮美食","address":"上海市 静安区南京西路新世界城B1楼"},{"poiid":"B2094757D66FA6FA459B","title":"平成屋日式料理店","lon":"121.47791","lat":"31.23313","category":"95","category_name":"日本料理","address":"黄浦区广西北路245号1楼2楼(近汉口路)"},{"poiid":"B2094757D06FA3FB4792","title":"上海天蟾逸夫舞台","lon":"121.47752052644876","lat":"31.2319475704317","category":"179","category_name":"音乐厅","address":"上海黄浦区福州路701号(近云南中路)"},{"poiid":"B2094751D36CA0FE4892","title":"米斯特比萨(福州路店)","lon":"121.47723","lat":"31.23269","category":"94","category_name":"西餐厅","address":"黄浦区福州路666号金陵海欣大厦1楼(近来福士广场)"},{"poiid":"B2094753D76FAAFA449C","title":"上海滩国泰旗舰店","lon":"121.466011","lat":"31.216125","category":"249","category_name":"购物服务","address":"淮海中路868号"},{"poiid":"B209475CD564A7F84292","title":"上海滩新天地店","lon":"121.47463","lat":"31.22164","category":"119","category_name":"商场","address":"\"太仓路181弄新天地北里15号\r\n\""},{"poiid":"B209475CD564A7F8439E","title":"上海滩中信泰富店","lon":"121.45602","lat":"31.22851","category":"119","category_name":"商场","address":"\"南京西路1168号中信泰富广场，店铺号221.\r\n\""},{"poiid":"B209475CD564A7F84392","title":"上海滩浦东香格里拉店","lon":"121.50058","lat":"31.23634","category":"119","category_name":"商场","address":"浦东富成路33号香格里拉酒店内大堂层"},{"poiid":"B2094654DB65A4FE499E","title":"百米香榭商业街","lon":"121.47898","lat":"31.23359","category":"116","category_name":"特色商业街","address":"浙江中路229"},{"poiid":"B2094654DB6BA4F5479D","title":"盛贺美(黄浦店)","lon":"121.47801","lat":"31.23244","category":"95","category_name":"日本料理","address":"上海黄浦区福州路666号金陵海欣大厦1楼(近云南中路)"},{"poiid":"B2094655D268ABFE4092","title":"上海市黄浦区图书馆","lon":"121.47858","lat":"31.23227","category":"181","category_name":"图书馆","address":"黄浦区福州路655号(近浙江中路)"},{"poiid":"B2094757D068A5FF4299","title":"汇佳桌游","lon":"121.477889738","lat":"31.2328683563","category":"248","category_name":"生活娱乐","address":"黄浦区浙江中路229号3楼365商铺黄浦区广西北路250号百米香榭商业街2-3楼浦东南路855号世界广场B1楼黄浦区湖北路209号黄浦区汉口路547号黄浦区淮海东路99号新尚数码广场2楼218商铺黄浦区浙江中路229号2楼264商铺黄浦区广西北路262号2楼徐汇区零陵路751弄11号徐汇区斜土路2899号长宁区长宁路988号花园大厦6楼长宁区天山路900号汇金百货6楼"},{"poiid":"B2094757DB6AA3F44499","title":"卡乐星（来福士广场店）","lon":"121.477","lat":"31.2329","category":"94","category_name":"西餐厅","address":"黄浦区西藏中路268号来福士广场B1楼15号(近福州路)"},{"poiid":"B2094654DB69AAFE449A","title":"香啡缤(福州店)","lon":"121.47786","lat":"31.23237","category":"260","category_name":"其他","address":"黄浦区福州路666号金陵海欣大厦1楼B座(近云南中路)"},{"poiid":"B2094750D76FA1FB459C","title":"曼泰泰国料理","lon":"121.479","lat":"31.2325","category":"99","category_name":"泰国／越南菜品餐厅","address":"黄浦区福州路平望街46号(近来福士广场)"},{"poiid":"B2094757D06FA1FE4992","title":"金陵海欣大厦","lon":"121.477780373","lat":"31.2326710868","category":"46","category_name":"楼宇","address":"铁西建设东路57号"},{"poiid":"B2094757D06FA1F94092","title":"禾绿回转寿司(福州路店)","lon":"121.47806","lat":"31.23211","category":"95","category_name":"日本料理","address":"黄浦区福州路666号金陵海欣大厦2楼AB12号铺(近云南中路)"},{"poiid":"B2094757D06FA7FA4299","title":"黄记煌三汁焖锅(浙江中路店)","lon":"121.47927","lat":"31.23329","category":"86","category_name":"火锅店","address":"上海黄浦区浙江中路215弄1号百米香榭内(近福州路)"},{"poiid":"B2094750D36BA2FA429A","title":"3Q脆皮鸡排","lon":"121.47808","lat":"31.23214","category":"68","category_name":"快餐厅","address":"黄浦区福州路675号(近云南路)"},{"poiid":"B2094757D06FAAF9489F","title":"京世造型福州路店","lon":"121.47947513","lat":"31.23307286","category":"500","category_name":"未知分类","address":"上海福州路"},{"poiid":"B2094757D068A0F4409E","title":"花吉(汉口路店)","lon":"121.47874","lat":"31.23354","category":"95","category_name":"日本料理","address":"黄浦区汉口路633号(近浙江中路)"},{"poiid":"B2094750D56FA7F94793","title":"京都屋日本料理","lon":"121.47783937434383","lat":"31.233289057576","category":"95","category_name":"日本料理","address":"黄浦区广西北路256号(近汉口路)"},{"poiid":"B2094654DB64A6F44392","title":"just in花式撞球俱乐部","lon":"121.47893","lat":"31.23359","category":"171","category_name":"台球厅","address":"浙江中路229号百米香榭3楼"},{"poiid":"B2094757D06BA4F4499B","title":"俪晶酒店","lon":"121.47701208","lat":"31.233035539","category":"217","category_name":"旅馆招待所","address":"黄浦区汉口路678号(近广西北路)"},{"poiid":"B2094751D46AA1F4479C","title":"香港荣哥火锅","lon":"121.47763","lat":"31.233074","category":"86","category_name":"火锅店","address":"上海黄浦区广西北路237号"},{"poiid":"B2094757D16CA4FF499B","title":"漫佳动漫城 Toy man Jia(福州路店)","lon":"121.477346238","lat":"31.2331657627","category":"128","category_name":"儿童用品店","address":"黄浦区福州路620号(近广西北路)"},{"poiid":"B2094757D06FA5FA479B","title":"红宝石(汉口店)","lon":"121.47908","lat":"31.23362","category":"67","category_name":"甜品店","address":"黄浦区汉口路613号(近浙江中路)"},{"poiid":"B209475DD468ABFD4392","title":"锦逸","lon":"121.479331","lat":"31.232456","category":"247","category_name":"餐饮美食","address":"上海市 黄浦区南京东路819号百联世贸国际广场6楼"},{"poiid":"B2094751D36AA6F5489A","title":"原汁焖锅","lon":"121.47905","lat":"31.23339","category":"86","category_name":"火锅店","address":"黄浦区浙江中路215弄1号(近福州路)"},{"poiid":"B209475CD26EA1FB449B","title":"Mr.Pizza","lon":"121.477928","lat":"31.232315","category":"500","category_name":"未知分类","address":"上海市 福州路"},{"poiid":"B2094757D06FA5F8459F","title":"金太子形象设计(福州路店)","lon":"121.47812","lat":"31.23199","category":"149","category_name":"洗浴推拿场所","address":"黄浦区福州路737号(近西藏中路)"},{"poiid":"B2094757D064A6F94598","title":"美联社","lon":"121.47826773","lat":"31.233382367","category":"500","category_name":"未知分类","address":"黄浦区广西北路228弄中福城3楼(近百米香榭)"},{"poiid":"B2094757D568A5F44093","title":"黄浦区图书馆大厦","lon":"121.4785894","lat":"31.23227259","category":"46","category_name":"楼宇","address":"福州路655号"},{"poiid":"B2094757D06FA5F54992","title":"EF英孚教育英语培训中心(人民广场中心)","lon":"121.47758223","lat":"31.232655851","category":"190","category_name":"培训机构","address":"上海市黄浦区福州路666号金陵海欣大厦3-4楼(近云南中路，1、2、8号线人民广场路站15号口)"},{"poiid":"B2094757D069A2FD4299","title":"非常手机(人民广场店)","lon":"121.47816","lat":"31.233","category":"138","category_name":"家电电子卖场","address":"黄浦区广西北路246号(近福州路)"},{"poiid":"B2094750D365ABFB4399","title":"康骏养生会馆","lon":"121.478164","lat":"31.233959","category":"248","category_name":"生活娱乐","address":"南京东路丝绸大厦4楼"},{"poiid":"B2094757D068A4F4449A","title":"韩一拌饭","lon":"121.47824","lat":"31.2334","category":"96","category_name":"韩国料理","address":"黄浦区汉口路663号(广西北路口)"},{"poiid":"B2094757D068ABFF449F","title":"君安桌球","lon":"121.47822973","lat":"31.233336366","category":"171","category_name":"台球厅","address":"黄浦区广西北路246号百米香榭(近汉口路)"},{"poiid":"B2094750DA69A2FD489F","title":"李记冰室","lon":"121.47943292324828","lat":"31.232910281419063","category":"113","category_name":"冷饮店","address":"上海市黄浦区浙江中路167号(近福州路)"},{"poiid":"B2094655D26AA1FB449D","title":"樱花国际日语人民广场总部","lon":"121.47782","lat":"31.23236","category":"247","category_name":"餐饮美食","address":"黄浦区福州路666号金陵海欣大厦17楼(近云南中路)"},{"poiid":"B2094757D06BA1FE439A","title":"百米香榭桌游吧","lon":"121.47819973","lat":"31.233304365","category":"175","category_name":"棋牌室","address":"上海黄浦区浙江中路229号302室(近汉口路)"},{"poiid":"B2094654DB6BA4F54793","title":"Tea","lon":"121.481052054","lat":"31.233223793","category":"65","category_name":"咖啡厅","address":"湖北路163号近福州路"},{"poiid":"B2094757D66FA6FD4698","title":"百米香谢","lon":"121.47789773","lat":"31.232812355","category":"500","category_name":"未知分类","address":"上海市黄浦区浙江路229号"},{"poiid":"B2094750DB6BA6FC469F","title":"囍旺咖啡（浙江中路店）","lon":"121.47858","lat":"31.23325","category":"260","category_name":"其他","address":"黄浦区浙江中路215弄1号中福城内(近福州路)"},{"poiid":"B2094757D068A2FB4893","title":"招商银行(福州路支行)","lon":"121.47833142","lat":"31.232459342","category":"150","category_name":"银行","address":"黄浦区福州路646号(广西路口)"},{"poiid":"B2094757D66CA4FC429F","title":"王宝和","lon":"121.47927209","lat":"31.232653484","category":"500","category_name":"未知分类","address":"上海福州路603号"},{"poiid":"B2094750D76FA2FE4498","title":"小马哥起司马铃薯(福州路店)","lon":"121.478","lat":"31.2321","category":"68","category_name":"快餐厅","address":"黄浦区福州路681号(匡威旁)"},{"poiid":"B2094654DB65AAFB489E","title":"上海市金陵东路地段医院","lon":"121.47819","lat":"31.23316","category":"162","category_name":"医院","address":"黄浦区松下路30号(近金陵东路)"},{"poiid":"B2094750D768A7FF4398","title":"爱过桥米线","lon":"121.478","lat":"31.2336","category":"68","category_name":"快餐厅","address":"黄浦区汉口路659号(近广西北路)"},{"poiid":"B2094757D068A5F5429E","title":"品上品海鲜粥","lon":"121.47818","lat":"31.23313","category":"68","category_name":"快餐厅","address":"黄浦区广西北路256号(近汉口路)"},{"poiid":"B2094454D26AA0F8469E","title":"镰仓Pasta","lon":"121.477256","lat":"31.232212","category":"247","category_name":"餐饮美食","address":"上海市 静安区南京西路新世界城B1楼"},{"poiid":"B2094757D66FA6FA459B","title":"平成屋日式料理店","lon":"121.47791","lat":"31.23313","category":"95","category_name":"日本料理","address":"黄浦区广西北路245号1楼2楼(近汉口路)"},{"poiid":"B2094757D06FA3FB4792","title":"上海天蟾逸夫舞台","lon":"121.47752052644876","lat":"31.2319475704317","category":"179","category_name":"音乐厅","address":"上海黄浦区福州路701号(近云南中路)"},{"poiid":"B2094751D36CA0FE4892","title":"米斯特比萨(福州路店)","lon":"121.47723","lat":"31.23269","category":"94","category_name":"西餐厅","address":"黄浦区福州路666号金陵海欣大厦1楼(近来福士广场)"},{"poiid":"B2094753D76FAAFA449C","title":"上海滩国泰旗舰店","lon":"121.466011","lat":"31.216125","category":"249","category_name":"购物服务","address":"淮海中路868号"},{"poiid":"B209475CD564A7F84292","title":"上海滩新天地店","lon":"121.47463","lat":"31.22164","category":"119","category_name":"商场","address":"\"太仓路181弄新天地北里15号\r\n\""},{"poiid":"B209475CD564A7F8439E","title":"上海滩中信泰富店","lon":"121.45602","lat":"31.22851","category":"119","category_name":"商场","address":"\"南京西路1168号中信泰富广场，店铺号221.\r\n\""},{"poiid":"B209475CD564A7F84392","title":"上海滩浦东香格里拉店","lon":"121.50058","lat":"31.23634","category":"119","category_name":"商场","address":"浦东富成路33号香格里拉酒店内大堂层"},{"poiid":"B2094654DB65A4FE499E","title":"百米香榭商业街","lon":"121.47898","lat":"31.23359","category":"116","category_name":"特色商业街","address":"浙江中路229"},{"poiid":"B2094654DB6BA4F5479D","title":"盛贺美(黄浦店)","lon":"121.47801","lat":"31.23244","category":"95","category_name":"日本料理","address":"上海黄浦区福州路666号金陵海欣大厦1楼(近云南中路)"},{"poiid":"B2094655D268ABFE4092","title":"上海市黄浦区图书馆","lon":"121.47858","lat":"31.23227","category":"181","category_name":"图书馆","address":"黄浦区福州路655号(近浙江中路)"},{"poiid":"B2094757D068A5FF4299","title":"汇佳桌游","lon":"121.477889738","lat":"31.2328683563","category":"248","category_name":"生活娱乐","address":"黄浦区浙江中路229号3楼365商铺黄浦区广西北路250号百米香榭商业街2-3楼浦东南路855号世界广场B1楼黄浦区湖北路209号黄浦区汉口路547号黄浦区淮海东路99号新尚数码广场2楼218商铺黄浦区浙江中路229号2楼264商铺黄浦区广西北路262号2楼徐汇区零陵路751弄11号徐汇区斜土路2899号长宁区长宁路988号花园大厦6楼长宁区天山路900号汇金百货6楼"},{"poiid":"B2094757DB6AA3F44499","title":"卡乐星（来福士广场店）","lon":"121.477","lat":"31.2329","category":"94","category_name":"西餐厅","address":"黄浦区西藏中路268号来福士广场B1楼15号(近福州路)"},{"poiid":"B2094654DB69AAFE449A","title":"香啡缤(福州店)","lon":"121.47786","lat":"31.23237","category":"260","category_name":"其他","address":"黄浦区福州路666号金陵海欣大厦1楼B座(近云南中路)"},{"poiid":"B2094750D76FA1FB459C","title":"曼泰泰国料理","lon":"121.479","lat":"31.2325","category":"99","category_name":"泰国／越南菜品餐厅","address":"黄浦区福州路平望街46号(近来福士广场)"},{"poiid":"B2094757D06FA1FE4992","title":"金陵海欣大厦","lon":"121.477780373","lat":"31.2326710868","category":"46","category_name":"楼宇","address":"铁西建设东路57号"},{"poiid":"B2094757D06FA1F94092","title":"禾绿回转寿司(福州路店)","lon":"121.47806","lat":"31.23211","category":"95","category_name":"日本料理","address":"黄浦区福州路666号金陵海欣大厦2楼AB12号铺(近云南中路)"},{"poiid":"B2094757D06FA7FA4299","title":"黄记煌三汁焖锅(浙江中路店)","lon":"121.47927","lat":"31.23329","category":"86","category_name":"火锅店","address":"上海黄浦区浙江中路215弄1号百米香榭内(近福州路)"},{"poiid":"B2094750D36BA2FA429A","title":"3Q脆皮鸡排","lon":"121.47808","lat":"31.23214","category":"68","category_name":"快餐厅","address":"黄浦区福州路675号(近云南路)"},{"poiid":"B2094757D06FAAF9489F","title":"京世造型福州路店","lon":"121.47947513","lat":"31.23307286","category":"500","category_name":"未知分类","address":"上海福州路"},{"poiid":"B2094757D068A0F4409E","title":"花吉(汉口路店)","lon":"121.47874","lat":"31.23354","category":"95","category_name":"日本料理","address":"黄浦区汉口路633号(近浙江中路)"},{"poiid":"B2094750D56FA7F94793","title":"京都屋日本料理","lon":"121.47783937434383","lat":"31.233289057576","category":"95","category_name":"日本料理","address":"黄浦区广西北路256号(近汉口路)"},{"poiid":"B2094654DB64A6F44392","title":"just in花式撞球俱乐部","lon":"121.47893","lat":"31.23359","category":"171","category_name":"台球厅","address":"浙江中路229号百米香榭3楼"},{"poiid":"B2094757D06BA4F4499B","title":"俪晶酒店","lon":"121.47701208","lat":"31.233035539","category":"217","category_name":"旅馆招待所","address":"黄浦区汉口路678号(近广西北路)"},{"poiid":"B2094751D46AA1F4479C","title":"香港荣哥火锅","lon":"121.47763","lat":"31.233074","category":"86","category_name":"火锅店","address":"上海黄浦区广西北路237号"},{"poiid":"B2094757D16CA4FF499B","title":"漫佳动漫城 Toy man Jia(福州路店)","lon":"121.477346238","lat":"31.2331657627","category":"128","category_name":"儿童用品店","address":"黄浦区福州路620号(近广西北路)"},{"poiid":"B2094757D06FA5FA479B","title":"红宝石(汉口店)","lon":"121.47908","lat":"31.23362","category":"67","category_name":"甜品店","address":"黄浦区汉口路613号(近浙江中路)"},{"poiid":"B209475DD468ABFD4392","title":"锦逸","lon":"121.479331","lat":"31.232456","category":"247","category_name":"餐饮美食","address":"上海市 黄浦区南京东路819号百联世贸国际广场6楼"},{"poiid":"B2094751D36AA6F5489A","title":"原汁焖锅","lon":"121.47905","lat":"31.23339","category":"86","category_name":"火锅店","address":"黄浦区浙江中路215弄1号(近福州路)"},{"poiid":"B209475CD26EA1FB449B","title":"Mr.Pizza","lon":"121.477928","lat":"31.232315","category":"500","category_name":"未知分类","address":"上海市 福州路"},{"poiid":"B2094757D06FA5F8459F","title":"金太子形象设计(福州路店)","lon":"121.47812","lat":"31.23199","category":"149","category_name":"洗浴推拿场所","address":"黄浦区福州路737号(近西藏中路)"},{"poiid":"B2094757D064A6F94598","title":"美联社","lon":"121.47826773","lat":"31.233382367","category":"500","category_name":"未知分类","address":"黄浦区广西北路228弄中福城3楼(近百米香榭)"},{"poiid":"B2094757D568A5F44093","title":"黄浦区图书馆大厦","lon":"121.4785894","lat":"31.23227259","category":"46","category_name":"楼宇","address":"福州路655号"},{"poiid":"B2094757D06FA5F54992","title":"EF英孚教育英语培训中心(人民广场中心)","lon":"121.47758223","lat":"31.232655851","category":"190","category_name":"培训机构","address":"上海市黄浦区福州路666号金陵海欣大厦3-4楼(近云南中路，1、2、8号线人民广场路站15号口)"},{"poiid":"B2094757D069A2FD4299","title":"非常手机(人民广场店)","lon":"121.47816","lat":"31.233","category":"138","category_name":"家电电子卖场","address":"黄浦区广西北路246号(近福州路)"},{"poiid":"B2094750D365ABFB4399","title":"康骏养生会馆","lon":"121.478164","lat":"31.233959","category":"248","category_name":"生活娱乐","address":"南京东路丝绸大厦4楼"},{"poiid":"B2094757D068A4F4449A","title":"韩一拌饭","lon":"121.47824","lat":"31.2334","category":"96","category_name":"韩国料理","address":"黄浦区汉口路663号(广西北路口)"},{"poiid":"B2094757D068ABFF449F","title":"君安桌球","lon":"121.47822973","lat":"31.233336366","category":"171","category_name":"台球厅","address":"黄浦区广西北路246号百米香榭(近汉口路)"},{"poiid":"B2094750DA69A2FD489F","title":"李记冰室","lon":"121.47943292324828","lat":"31.232910281419063","category":"113","category_name":"冷饮店","address":"上海市黄浦区浙江中路167号(近福州路)"},{"poiid":"B2094655D26AA1FB449D","title":"樱花国际日语人民广场总部","lon":"121.47782","lat":"31.23236","category":"247","category_name":"餐饮美食","address":"黄浦区福州路666号金陵海欣大厦17楼(近云南中路)"},{"poiid":"B2094757D06BA1FE439A","title":"百米香榭桌游吧","lon":"121.47819973","lat":"31.233304365","category":"175","category_name":"棋牌室","address":"上海黄浦区浙江中路229号302室(近汉口路)"},{"poiid":"B2094654DB6BA4F54793","title":"Tea","lon":"121.481052054","lat":"31.233223793","category":"65","category_name":"咖啡厅","address":"湖北路163号近福州路"},{"poiid":"B2094757D66FA6FD4698","title":"百米香谢","lon":"121.47789773","lat":"31.232812355","category":"500","category_name":"未知分类","address":"上海市黄浦区浙江路229号"},{"poiid":"B2094750DB6BA6FC469F","title":"囍旺咖啡（浙江中路店）","lon":"121.47858","lat":"31.23325","category":"260","category_name":"其他","address":"黄浦区浙江中路215弄1号中福城内(近福州路)"},{"poiid":"B2094757D068A2FB4893","title":"招商银行(福州路支行)","lon":"121.47833142","lat":"31.232459342","category":"150","category_name":"银行","address":"黄浦区福州路646号(广西路口)"},{"poiid":"B2094757D66CA4FC429F","title":"王宝和","lon":"121.47927209","lat":"31.232653484","category":"500","category_name":"未知分类","address":"上海福州路603号"},{"poiid":"B2094750D76FA2FE4498","title":"小马哥起司马铃薯(福州路店)","lon":"121.478","lat":"31.2321","category":"68","category_name":"快餐厅","address":"黄浦区福州路681号(匡威旁)"},{"poiid":"B2094654DB65AAFB489E","title":"上海市金陵东路地段医院","lon":"121.47819","lat":"31.23316","category":"162","category_name":"医院","address":"黄浦区松下路30号(近金陵东路)"},{"poiid":"B2094750D768A7FF4398","title":"爱过桥米线","lon":"121.478","lat":"31.2336","category":"68","category_name":"快餐厅","address":"黄浦区汉口路659号(近广西北路)"},{"poiid":"B2094757D068A5F5429E","title":"品上品海鲜粥","lon":"121.47818","lat":"31.23313","category":"68","category_name":"快餐厅","address":"黄浦区广西北路256号(近汉口路)"},{"poiid":"B2094454D26AA0F8469E","title":"镰仓Pasta","lon":"121.477256","lat":"31.232212","category":"247","category_name":"餐饮美食","address":"上海市 静安区南京西路新世界城B1楼"}]