[{"poiid":"B2094757D06FA7FF429D","title":"松江区中心医院","lon":"121.220992514","lat":"31.0076125814","category":"162","category_name":"医院","address":"松江区中山中路746号(近华亭老街)"},{"poiid":"B2094757D068A5FF4893","title":"上海农林职业技术学校","lon":"121.222092","lat":"31.009827","category":"54","category_name":"职业技术学校","address":"上海松江区中山二路658号"},{"poiid":"B2094757D065ABFC4898","title":"华亭老街","lon":"121.22531202","lat":"31.006368324","category":"260","category_name":"其他","address":"上海市松江區中山中路"},{"poiid":"B2094757D065A1FE4998","title":"西林禅寺","lon":"121.224357","lat":"31.00692","category":"244","category_name":"寺庙道观","address":"上海松江区中山中路666号"},{"poiid":"B2094757D06AA1F9409D","title":"老盛昌汤包馆(松江店)","lon":"121.228561367","lat":"31.0104561697","category":"68","category_name":"快餐厅","address":"松江区人民北路175号(近中山二路)"},{"poiid":"B2094757D064A2FA4898","title":"彩蝶坊 西林北路店","lon":"121.221155054","lat":"31.010558793","category":"76","category_name":"上海菜","address":"松江区西林北路333号(近中山二路)"},{"poiid":"B2094757D065A3F84592","title":"上海电视大学松江校区","lon":"121.222620267","lat":"31.0085255273","category":"500","category_name":"未知分类","address":"上海松江区中山二路621号"},{"poiid":"B2094757D068A3FB499D","title":"85度C(人民北店)","lon":"121.22847","lat":"31.01101","category":"67","category_name":"甜品店","address":"松江区人民北路100号(近招商银行)"},{"poiid":"B2094757D66CA2F5489D","title":"人乐小区","lon":"121.22643246","lat":"31.011346089","category":"47","category_name":"住宅区","address":"上海人民北路"},{"poiid":"B2094757D06AA4FB489B","title":"庙前街","lon":"121.22470646","lat":"31.007497004","category":"249","category_name":"购物服务","address":"松江区松江镇中山中路"},{"poiid":"B2094654DB6DABFD4298","title":"云南过桥米线馆(中山二路)","lon":"121.22366","lat":"31.01","category":"68","category_name":"快餐厅","address":"松江区中山二路558号"},{"poiid":"B2094654DB6DABFE4398","title":"松石苑","lon":"121.22671","lat":"31.008522","category":"47","category_name":"住宅区","address":"人民北路71弄"},{"poiid":"B2094757D66CA7FC409C","title":"松江区实验小学","lon":"121.2239277","lat":"31.010840245","category":"56","category_name":"小学","address":"上海松江区人乐二村60号"},{"poiid":"B2094654DB6DABF9489E","title":"松江区成人教师进修学校","lon":"121.22288","lat":"31.01215","category":"53","category_name":"成人教育","address":"西林北路420"},{"poiid":"B2094655D268A3F94292","title":"顺子烧烤","lon":"121.22258","lat":"31.00585","category":"68","category_name":"快餐厅","address":"松江区西林南路99弄59号(近中心医院)"},{"poiid":"B2094654DB6DABFB4692","title":"草庐酒家","lon":"121.22834","lat":"31.01036","category":"76","category_name":"上海菜","address":"松江区人民北路58号(近乐都路)"},{"poiid":"B2094757D569A6FC4198","title":"四海遊龙锅贴专卖店(中山二路店)","lon":"121.22334988","lat":"31.01001112","category":"257","category_name":"中餐厅","address":"松江区中山二路586号101室(近松江电视大学)"},{"poiid":"B2094654DB6DABFD429A","title":"福建千里香馄饨馆","lon":"121.22377","lat":"31.01001","category":"87","category_name":"特色／地方风味餐厅","address":"中山二路550号"},{"poiid":"B2094654DB6EA1F44792","title":"上海电视大学松江分校","lon":"121.22171","lat":"31.00947","category":"52","category_name":"高等院校","address":"松江区中山二路621号"},{"poiid":"B2094654DB6EA3FE429B","title":"仓城六村","lon":"121.222","lat":"31.0097","category":"47","category_name":"住宅区","address":"松汇西路1181弄"},{"poiid":"B2094654DB6DABFE429C","title":"雷哲发型设计","lon":"121.22608","lat":"31.00695","category":"148","category_name":"美容美发店","address":"中山中路546号2层"},{"poiid":"B2094654DB6DABFD449F","title":"好德便利NO.615","lon":"121.2224","lat":"31.00962","category":"117","category_name":"便民商店/便利店","address":"松江镇"},{"poiid":"B2094655D265A6FD409D","title":"新雅粤菜馆 松江店","lon":"121.223043","lat":"31.010023","category":"72","category_name":"广东菜","address":"中山二路492号近西林北路"},{"poiid":"B2094654DB6DABFD4398","title":"上海市松江区教育考试中心","lon":"121.2229","lat":"31.01019","category":"250","category_name":"公园户外","address":"中山二路590号"},{"poiid":"B2094655D268A4F9449E","title":"上海电视大学松江分校(北门)","lon":"121.22183","lat":"31.00969","category":"52","category_name":"高等院校","address":"中山二路621"},{"poiid":"B2094654DB6DABFD439F","title":"天姿","lon":"121.22288","lat":"31.01","category":"148","category_name":"美容美发店","address":"中山二路600-2识别"},{"poiid":"B2094654DB65A6F5419B","title":"荣乐小区(松江·人民北路)","lon":"121.22355","lat":"31.01528","category":"47","category_name":"住宅区","address":"荣乐一村67-70号"},{"poiid":"B2094654DB6DABF9479C","title":"上海市农业广播电视学校松江分校","lon":"121.22287","lat":"31.01215","category":"52","category_name":"高等院校","address":"松江区西林北路420"},{"poiid":"B2094750D164A4F4429E","title":"上海松江城区星程美司豪酒店","lon":"121.221563115939","lat":"31.0112520904167","category":"216","category_name":"经济型连锁酒店","address":"松江区西林北路355号(近松江大学城)"},{"poiid":"B2094654DB6DABFD409D","title":"豪享蜜饯","lon":"121.22445","lat":"31.01002","category":"117","category_name":"便民商店/便利店","address":"中山二路518"},{"poiid":"B2094654DB6EA1F4489D","title":"上海交通大学附属第一人民医院松江分院","lon":"121.22098","lat":"31.00762","category":"162","category_name":"医院","address":""},{"poiid":"B2094654DB6EA1F4459E","title":"上海茸城女子医院","lon":"121.22163","lat":"31.01105","category":"162","category_name":"医院","address":"松江区西林北路351号"},{"poiid":"B2094751DA6CA7FF4593","title":"沁韵渔火","lon":"121.224259","lat":"31.006569","category":"247","category_name":"餐饮美食","address":"华亭老街西林禅寺对面"},{"poiid":"B2094757D568AAF8469F","title":"新雅食品(松江中山二路)","lon":"121.22501465","lat":"31.01005398","category":"255","category_name":"专卖店","address":"中山二路492"},{"poiid":"B2094757D164A2F44893","title":"西林北路","lon":"121.222282","lat":"31.010007","category":"500","category_name":"未知分类","address":"上海西林北路"},{"poiid":"B2094654DB6DABF94792","title":"上海松江区新城进修学校","lon":"121.22287","lat":"31.01215","category":"53","category_name":"成人教育","address":"上海松江区西林北路420号"},{"poiid":"B2094655D268A5F4469B","title":"上海电视大学松江分校校区(西门)","lon":"121.22179","lat":"31.01258","category":"52","category_name":"高等院校","address":"西林北路420"},{"poiid":"B2094757D064A5FD419F","title":"招商银行(松江支行)","lon":"121.227870313","lat":"31.0121534678","category":"150","category_name":"银行","address":"松江区人民北路92-98号(近乐都路)"},{"poiid":"B2094655D26BABFC459E","title":"泰晤士小镇商业","lon":"121.2281","lat":"31.01332","category":"252","category_name":"楼宇机构","address":"乐都路339号"},{"poiid":"B2094655D26BABF8469A","title":"台南风味馆","lon":"121.22338","lat":"31.00625","category":"91","category_name":"台湾菜","address":"松江区岳阳街道缸甏巷254号(中心医院斜对面)"},{"poiid":"B2094654DB6EA1F4479B","title":"福鑫岛","lon":"121.22119","lat":"31.00995","category":"88","category_name":"海鲜酒楼","address":""},{"poiid":"B2094654DB6DABFC499E","title":"人乐水果店","lon":"121.22515","lat":"31.01004","category":"117","category_name":"便民商店/便利店","address":"中山二路486"},{"poiid":"B2094757D068A0FF4598","title":"好乐迪量贩式KTV(松江店)","lon":"121.22612","lat":"31.00617","category":"170","category_name":"KTV","address":"上海松江区中山中路320-228号3F"},{"poiid":"B2094757D065A1F5419A","title":"西林小区","lon":"121.22022","lat":"31.012518","category":"47","category_name":"住宅区","address":"上海乐都路411弄"},{"poiid":"B2094750DB6BABF54198","title":"元隆甜品店","lon":"121.223686","lat":"31.008228","category":"67","category_name":"甜品店","address":"松江区中山中路523号(近西林北路)"},{"poiid":"B2094655D268A5F9449C","title":"塔湾新村","lon":"121.22308","lat":"31.009005","category":"47","category_name":"住宅区","address":"青松路479弄"},{"poiid":"B2094655D268A5F94492","title":"木鱼弄小区","lon":"121.22423","lat":"31.00862","category":"47","category_name":"住宅区","address":"木鱼弄5-16号"},{"poiid":"B2094655D36DA7F8459E","title":"中山二路人民北路","lon":"121.22681","lat":"31.00993","category":"38","category_name":"公交车站","address":""},{"poiid":"B2094757D065A5F84393","title":"松江卫生人材培训中心","lon":"121.222188","lat":"31.010464","category":"500","category_name":"未知分类","address":"上海松江文诚路801号四号楼211室"},{"poiid":"B2094654DB6DABFA4398","title":"西林幼儿园","lon":"121.22251","lat":"31.0088","category":"57","category_name":"幼儿园","address":"松江区西林北路66路"},{"poiid":"B2094757D06FA7FF429D","title":"松江区中心医院","lon":"121.220992514","lat":"31.0076125814","category":"162","category_name":"医院","address":"松江区中山中路746号(近华亭老街)"},{"poiid":"B2094757D068A5FF4893","title":"上海农林职业技术学校","lon":"121.222092","lat":"31.009827","category":"54","category_name":"职业技术学校","address":"上海松江区中山二路658号"},{"poiid":"B2094757D065ABFC4898","title":"华亭老街","lon":"121.22531202","lat":"31.006368324","category":"260","category_name":"其他","address":"上海市松江區中山中路"},{"poiid":"B2094757D065A1FE4998","title":"西林禅寺","lon":"121.224357","lat":"31.00692","category":"244","category_name":"寺庙道观","address":"上海松江区中山中路666号"},{"poiid":"B2094757D06AA1F9409D","title":"老盛昌汤包馆(松江店)","lon":"121.228561367","lat":"31.0104561697","category":"68","category_name":"快餐厅","address":"松江区人民北路175号(近中山二路)"},{"poiid":"B2094757D064A2FA4898","title":"彩蝶坊 西林北路店","lon":"121.221155054","lat":"31.010558793","category":"76","category_name":"上海菜","address":"松江区西林北路333号(近中山二路)"},{"poiid":"B2094757D065A3F84592","title":"上海电视大学松江校区","lon":"121.222620267","lat":"31.0085255273","category":"500","category_name":"未知分类","address":"上海松江区中山二路621号"},{"poiid":"B2094757D068A3FB499D","title":"85度C(人民北店)","lon":"121.22847","lat":"31.01101","category":"67","category_name":"甜品店","address":"松江区人民北路100号(近招商银行)"},{"poiid":"B2094757D66CA2F5489D","title":"人乐小区","lon":"121.22643246","lat":"31.011346089","category":"47","category_name":"住宅区","address":"上海人民北路"},{"poiid":"B2094757D06AA4FB489B","title":"庙前街","lon":"121.22470646","lat":"31.007497004","category":"249","category_name":"购物服务","address":"松江区松江镇中山中路"},{"poiid":"B2094654DB6DABFD4298","title":"云南过桥米线馆(中山二路)","lon":"121.22366","lat":"31.01","category":"68","category_name":"快餐厅","address":"松江区中山二路558号"},{"poiid":"B2094654DB6DABFE4398","title":"松石苑","lon":"121.22671","lat":"31.008522","category":"47","category_name":"住宅区","address":"人民北路71弄"},{"poiid":"B2094757D66CA7FC409C","title":"松江区实验小学","lon":"121.2239277","lat":"31.010840245","category":"56","category_name":"小学","address":"上海松江区人乐二村60号"},{"poiid":"B2094654DB6DABF9489E","title":"松江区成人教师进修学校","lon":"121.22288","lat":"31.01215","category":"53","category_name":"成人教育","address":"西林北路420"},{"poiid":"B2094655D268A3F94292","title":"顺子烧烤","lon":"121.22258","lat":"31.00585","category":"68","category_name":"快餐厅","address":"松江区西林南路99弄59号(近中心医院)"},{"poiid":"B2094654DB6DABFB4692","title":"草庐酒家","lon":"121.22834","lat":"31.01036","category":"76","category_name":"上海菜","address":"松江区人民北路58号(近乐都路)"},{"poiid":"B2094757D569A6FC4198","title":"四海遊龙锅贴专卖店(中山二路店)","lon":"121.22334988","lat":"31.01001112","category":"257","category_name":"中餐厅","address":"松江区中山二路586号101室(近松江电视大学)"},{"poiid":"B2094654DB6DABFD429A","title":"福建千里香馄饨馆","lon":"121.22377","lat":"31.01001","category":"87","category_name":"特色／地方风味餐厅","address":"中山二路550号"},{"poiid":"B2094654DB6EA1F44792","title":"上海电视大学松江分校","lon":"121.22171","lat":"31.00947","category":"52","category_name":"高等院校","address":"松江区中山二路621号"},{"poiid":"B2094654DB6EA3FE429B","title":"仓城六村","lon":"121.222","lat":"31.0097","category":"47","category_name":"住宅区","address":"松汇西路1181弄"},{"poiid":"B2094654DB6DABFE429C","title":"雷哲发型设计","lon":"121.22608","lat":"31.00695","category":"148","category_name":"美容美发店","address":"中山中路546号2层"},{"poiid":"B2094654DB6DABFD449F","title":"好德便利NO.615","lon":"121.2224","lat":"31.00962","category":"117","category_name":"便民商店/便利店","address":"松江镇"},{"poiid":"B2094655D265A6FD409D","title":"新雅粤菜馆 松江店","lon":"121.223043","lat":"31.010023","category":"72","category_name":"广东菜","address":"中山二路492号近西林北路"},{"poiid":"B2094654DB6DABFD4398","title":"上海市松江区教育考试中心","lon":"121.2229","lat":"31.01019","category":"250","category_name":"公园户外","address":"中山二路590号"},{"poiid":"B2094655D268A4F9449E","title":"上海电视大学松江分校(北门)","lon":"121.22183","lat":"31.00969","category":"52","category_name":"高等院校","address":"中山二路621"},{"poiid":"B2094654DB6DABFD439F","title":"天姿","lon":"121.22288","lat":"31.01","category":"148","category_name":"美容美发店","address":"中山二路600-2识别"},{"poiid":"B2094654DB65A6F5419B","title":"荣乐小区(松江·人民北路)","lon":"121.22355","lat":"31.01528","category":"47","category_name":"住宅区","address":"荣乐一村67-70号"},{"poiid":"B2094654DB6DABF9479C","title":"上海市农业广播电视学校松江分校","lon":"121.22287","lat":"31.01215","category":"52","category_name":"高等院校","address":"松江区西林北路420"},{"poiid":"B2094750D164A4F4429E","title":"上海松江城区星程美司豪酒店","lon":"121.221563115939","lat":"31.0112520904167","category":"216","category_name":"经济型连锁酒店","address":"松江区西林北路355号(近松江大学城)"},{"poiid":"B2094654DB6DABFD409D","title":"豪享蜜饯","lon":"121.22445","lat":"31.01002","category":"117","category_name":"便民商店/便利店","address":"中山二路518"},{"poiid":"B2094654DB6EA1F4489D","title":"上海交通大学附属第一人民医院松江分院","lon":"121.22098","lat":"31.00762","category":"162","category_name":"医院","address":""},{"poiid":"B2094654DB6EA1F4459E","title":"上海茸城女子医院","lon":"121.22163","lat":"31.01105","category":"162","category_name":"医院","address":"松江区西林北路351号"},{"poiid":"B2094751DA6CA7FF4593","title":"沁韵渔火","lon":"121.224259","lat":"31.006569","category":"247","category_name":"餐饮美食","address":"华亭老街西林禅寺对面"},{"poiid":"B2094757D568AAF8469F","title":"新雅食品(松江中山二路)","lon":"121.22501465","lat":"31.01005398","category":"255","category_name":"专卖店","address":"中山二路492"},{"poiid":"B2094757D164A2F44893","title":"西林北路","lon":"121.222282","lat":"31.010007","category":"500","category_name":"未知分类","address":"上海西林北路"},{"poiid":"B2094654DB6DABF94792","title":"上海松江区新城进修学校","lon":"121.22287","lat":"31.01215","category":"53","category_name":"成人教育","address":"上海松江区西林北路420号"},{"poiid":"B2094655D268A5F4469B","title":"上海电视大学松江分校校区(西门)","lon":"121.22179","lat":"31.01258","category":"52","category_name":"高等院校","address":"西林北路420"},{"poiid":"B2094757D064A5FD419F","title":"招商银行(松江支行)","lon":"121.227870313","lat":"31.0121534678","category":"150","category_name":"银行","address":"松江区人民北路92-98号(近乐都路)"},{"poiid":"B2094655D26BABFC459E","title":"泰晤士小镇商业","lon":"121.2281","lat":"31.01332","category":"252","category_name":"楼宇机构","address":"乐都路339号"},{"poiid":"B2094655D26BABF8469A","title":"台南风味馆","lon":"121.22338","lat":"31.00625","category":"91","category_name":"台湾菜","address":"松江区岳阳街道缸甏巷254号(中心医院斜对面)"},{"poiid":"B2094654DB6EA1F4479B","title":"福鑫岛","lon":"121.22119","lat":"31.00995","category":"88","category_name":"海鲜酒楼","address":""},{"poiid":"B2094654DB6DABFC499E","title":"人乐水果店","lon":"121.22515","lat":"31.01004","category":"117","category_name":"便民商店/便利店","address":"中山二路486"},{"poiid":"B2094757D068A0FF4598","title":"好乐迪量贩式KTV(松江店)","lon":"121.22612","lat":"31.00617","category":"170","category_name":"KTV","address":"上海松江区中山中路320-228号3F"},{"poiid":"B2094757D065A1F5419A","title":"西林小区","lon":"121.22022","lat":"31.012518","category":"47","category_name":"住宅区","address":"上海乐都路411弄"},{"poiid":"B2094750DB6BABF54198","title":"元隆甜品店","lon":"121.223686","lat":"31.008228","category":"67","category_name":"甜品店","address":"松江区中山中路523号(近西林北路)"},{"poiid":"B2094655D268A5F9449C","title":"塔湾新村","lon":"121.22308","lat":"31.009005","category":"47","category_name":"住宅区","address":"青松路479弄"},{"poiid":"B2094655D268A5F94492","title":"木鱼弄小区","lon":"121.22423","lat":"31.00862","category":"47","category_name":"住宅区","address":"木鱼弄5-16号"},{"poiid":"B2094655D36DA7F8459E","title":"中山二路人民北路","lon":"121.22681","lat":"31.00993","category":"38","category_name":"公交车站","address":""},{"poiid":"B2094757D065A5F84393","title":"松江卫生人材培训中心","lon":"121.222188","lat":"31.010464","category":"500","category_name":"未知分类","address":"上海松江文诚路801号四号楼211室"},{"poiid":"B2094654DB6DABFA4398","title":"西林幼儿园","lon":"121.22251","lat":"31.0088","category":"57","category_name":"幼儿园","address":"松江区西林北路66路"},{"poiid":"B2094757D06FA7FF429D","title":"松江区中心医院","lon":"121.220992514","lat":"31.0076125814","category":"162","category_name":"医院","address":"松江区中山中路746号(近华亭老街)"},{"poiid":"B2094757D068A5FF4893","title":"上海农林职业技术学校","lon":"121.222092","lat":"31.009827","category":"54","category_name":"职业技术学校","address":"上海松江区中山二路658号"},{"poiid":"B2094757D065ABFC4898","title":"华亭老街","lon":"121.22531202","lat":"31.006368324","category":"260","category_name":"其他","address":"上海市松江區中山中路"},{"poiid":"B2094757D065A1FE4998","title":"西林禅寺","lon":"121.224357","lat":"31.00692","category":"244","category_name":"寺庙道观","address":"上海松江区中山中路666号"},{"poiid":"B2094757D06AA1F9409D","title":"老盛昌汤包馆(松江店)","lon":"121.228561367","lat":"31.0104561697","category":"68","category_name":"快餐厅","address":"松江区人民北路175号(近中山二路)"},{"poiid":"B2094757D064A2FA4898","title":"彩蝶坊 西林北路店","lon":"121.221155054","lat":"31.010558793","category":"76","category_name":"上海菜","address":"松江区西林北路333号(近中山二路)"},{"poiid":"B2094757D065A3F84592","title":"上海电视大学松江校区","lon":"121.222620267","lat":"31.0085255273","category":"500","category_name":"未知分类","address":"上海松江区中山二路621号"},{"poiid":"B2094757D068A3FB499D","title":"85度C(人民北店)","lon":"121.22847","lat":"31.01101","category":"67","category_name":"甜品店","address":"松江区人民北路100号(近招商银行)"},{"poiid":"B2094757D66CA2F5489D","title":"人乐小区","lon":"121.22643246","lat":"31.011346089","category":"47","category_name":"住宅区","address":"上海人民北路"},{"poiid":"B2094757D06AA4FB489B","title":"庙前街","lon":"121.22470646","lat":"31.007497004","category":"249","category_name":"购物服务","address":"松江区松江镇中山中路"},{"poiid":"B2094654DB6DABFD4298","title":"云南过桥米线馆(中山二路)","lon":"121.22366","lat":"31.01","category":"68","category_name":"快餐厅","address":"松江区中山二路558号"},{"poiid":"B2094654DB6DABFE4398","title":"松石苑","lon":"121.22671","lat":"31.008522","category":"47","category_name":"住宅区","address":"人民北路71弄"},{"poiid":"B2094757D66CA7FC409C","title":"松江区实验小学","lon":"121.2239277","lat":"31.010840245","category":"56","category_name":"小学","address":"上海松江区人乐二村60号"},{"poiid":"B2094654DB6DABF9489E","title":"松江区成人教师进修学校","lon":"121.22288","lat":"31.01215","category":"53","category_name":"成人教育","address":"西林北路420"},{"poiid":"B2094655D268A3F94292","title":"顺子烧烤","lon":"121.22258","lat":"31.00585","category":"68","category_name":"快餐厅","address":"松江区西林南路99弄59号(近中心医院)"},{"poiid":"B2094654DB6DABFB4692","title":"草庐酒家","lon":"121.22834","lat":"31.01036","category":"76","category_name":"上海菜","address":"松江区人民北路58号(近乐都路)"},{"poiid":"B2094757D569A6FC4198","title":"四海遊龙锅贴专卖店(中山二路店)","lon":"121.22334988","lat":"31.01001112","category":"257","category_name":"中餐厅","address":"松江区中山二路586号101室(近松江电视大学)"},{"poiid":"B2094654DB6DABFD429A","title":"福建千里香馄饨馆","lon":"121.22377","lat":"31.01001","category":"87","category_name":"特色／地方风味餐厅","address":"中山二路550号"},{"poiid":"B2094654DB6EA1F44792","title":"上海电视大学松江分校","lon":"121.22171","lat":"31.00947","category":"52","category_name":"高等院校","address":"松江区中山二路621号"},{"poiid":"B2094654DB6EA3FE429B","title":"仓城六村","lon":"121.222","lat":"31.0097","category":"47","category_name":"住宅区","address":"松汇西路1181弄"},{"poiid":"B2094654DB6DABFE429C","title":"雷哲发型设计","lon":"121.22608","lat":"31.00695","category":"148","category_name":"美容美发店","address":"中山中路546号2层"},{"poiid":"B2094654DB6DABFD449F","title":"好德便利NO.615","lon":"121.2224","lat":"31.00962","category":"117","category_name":"便民商店/便利店","address":"松江镇"},{"poiid":"B2094655D265A6FD409D","title":"新雅粤菜馆 松江店","lon":"121.223043","lat":"31.010023","category":"72","category_name":"广东菜","address":"中山二路492号近西林北路"},{"poiid":"B2094654DB6DABFD4398","title":"上海市松江区教育考试中心","lon":"121.2229","lat":"31.01019","category":"250","category_name":"公园户外","address":"中山二路590号"},{"poiid":"B2094655D268A4F9449E","title":"上海电视大学松江分校(北门)","lon":"121.22183","lat":"31.00969","category":"52","category_name":"高等院校","address":"中山二路621"},{"poiid":"B2094654DB6DABFD439F","title":"天姿","lon":"121.22288","lat":"31.01","category":"148","category_name":"美容美发店","address":"中山二路600-2识别"},{"poiid":"B2094654DB65A6F5419B","title":"荣乐小区(松江·人民北路)","lon":"121.22355","lat":"31.01528","category":"47","category_name":"住宅区","address":"荣乐一村67-70号"},{"poiid":"B2094654DB6DABF9479C","title":"上海市农业广播电视学校松江分校","lon":"121.22287","lat":"31.01215","category":"52","category_name":"高等院校","address":"松江区西林北路420"},{"poiid":"B2094750D164A4F4429E","title":"上海松江城区星程美司豪酒店","lon":"121.221563115939","lat":"31.0112520904167","category":"216","category_name":"经济型连锁酒店","address":"松江区西林北路355号(近松江大学城)"},{"poiid":"B2094654DB6DABFD409D","title":"豪享蜜饯","lon":"121.22445","lat":"31.01002","category":"117","category_name":"便民商店/便利店","address":"中山二路518"},{"poiid":"B2094654DB6EA1F4489D","title":"上海交通大学附属第一人民医院松江分院","lon":"121.22098","lat":"31.00762","category":"162","category_name":"医院","address":""},{"poiid":"B2094654DB6EA1F4459E","title":"上海茸城女子医院","lon":"121.22163","lat":"31.01105","category":"162","category_name":"医院","address":"松江区西林北路351号"},{"poiid":"B2094751DA6CA7FF4593","title":"沁韵渔火","lon":"121.224259","lat":"31.006569","category":"247","category_name":"餐饮美食","address":"华亭老街西林禅寺对面"},{"poiid":"B2094757D568AAF8469F","title":"新雅食品(松江中山二路)","lon":"121.22501465","lat":"31.01005398","category":"255","category_name":"专卖店","address":"中山二路492"},{"poiid":"B2094757D164A2F44893","title":"西林北路","lon":"121.222282","lat":"31.010007","category":"500","category_name":"未知分类","address":"上海西林北路"},{"poiid":"B2094654DB6DABF94792","title":"上海松江区新城进修学校","lon":"121.22287","lat":"31.01215","category":"53","category_name":"成人教育","address":"上海松江区西林北路420号"},{"poiid":"B2094655D268A5F4469B","title":"上海电视大学松江分校校区(西门)","lon":"121.22179","lat":"31.01258","category":"52","category_name":"高等院校","address":"西林北路420"},{"poiid":"B2094757D064A5FD419F","title":"招商银行(松江支行)","lon":"121.227870313","lat":"31.0121534678","category":"150","category_name":"银行","address":"松江区人民北路92-98号(近乐都路)"},{"poiid":"B2094655D26BABFC459E","title":"泰晤士小镇商业","lon":"121.2281","lat":"31.01332","category":"252","category_name":"楼宇机构","address":"乐都路339号"},{"poiid":"B2094655D26BABF8469A","title":"台南风味馆","lon":"121.22338","lat":"31.00625","category":"91","category_name":"台湾菜","address":"松江区岳阳街道缸甏巷254号(中心医院斜对面)"},{"poiid":"B2094654DB6EA1F4479B","title":"福鑫岛","lon":"121.22119","lat":"31.00995","category":"88","category_name":"海鲜酒楼","address":""},{"poiid":"B2094654DB6DABFC499E","title":"人乐水果店","lon":"121.22515","lat":"31.01004","category":"117","category_name":"便民商店/便利店","address":"中山二路486"},{"poiid":"B2094757D068A0FF4598","title":"好乐迪量贩式KTV(松江店)","lon":"121.22612","lat":"31.00617","category":"170","category_name":"KTV","address":"上海松江区中山中路320-228号3F"},{"poiid":"B2094757D065A1F5419A","title":"西林小区","lon":"121.22022","lat":"31.012518","category":"47","category_name":"住宅区","address":"上海乐都路411弄"},{"poiid":"B2094750DB6BABF54198","title":"元隆甜品店","lon":"121.223686","lat":"31.008228","category":"67","category_name":"甜品店","address":"松江区中山中路523号(近西林北路)"},{"poiid":"B2094655D268A5F9449C","title":"塔湾新村","lon":"121.22308","lat":"31.009005","category":"47","category_name":"住宅区","address":"青松路479弄"},{"poiid":"B2094655D268A5F94492","title":"木鱼弄小区","lon":"121.22423","lat":"31.00862","category":"47","category_name":"住宅区","address":"木鱼弄5-16号"},{"poiid":"B2094655D36DA7F8459E","title":"中山二路人民北路","lon":"121.22681","lat":"31.00993","category":"38","category_name":"公交车站","address":""},{"poiid":"B2094757D065A5F84393","title":"松江卫生人材培训中心","lon":"121.222188","lat":"31.010464","category":"500","category_name":"未知分类","address":"上海松江文诚路801号四号楼211室"},{"poiid":"B2094654DB6DABFA4398","title":"西林幼儿园","lon":"121.22251","lat":"31.0088","category":"57","category_name":"幼儿园","address":"松江区西林北路66路"},{"poiid":"B2094757D06FA7FF429D","title":"松江区中心医院","lon":"121.220992514","lat":"31.0076125814","category":"162","category_name":"医院","address":"松江区中山中路746号(近华亭老街)"},{"poiid":"B2094757D068A5FF4893","title":"上海农林职业技术学校","lon":"121.222092","lat":"31.009827","category":"54","category_name":"职业技术学校","address":"上海松江区中山二路658号"},{"poiid":"B2094757D065ABFC4898","title":"华亭老街","lon":"121.22531202","lat":"31.006368324","category":"260","category_name":"其他","address":"上海市松江區中山中路"},{"poiid":"B2094757D065A1FE4998","title":"西林禅寺","lon":"121.224357","lat":"31.00692","category":"244","category_name":"寺庙道观","address":"上海松江区中山中路666号"},{"poiid":"B2094757D06AA1F9409D","title":"老盛昌汤包馆(松江店)","lon":"121.228561367","lat":"31.0104561697","category":"68","category_name":"快餐厅","address":"松江区人民北路175号(近中山二路)"},{"poiid":"B2094757D064A2FA4898","title":"彩蝶坊 西林北路店","lon":"121.221155054","lat":"31.010558793","category":"76","category_name":"上海菜","address":"松江区西林北路333号(近中山二路)"},{"poiid":"B2094757D065A3F84592","title":"上海电视大学松江校区","lon":"121.222620267","lat":"31.0085255273","category":"500","category_name":"未知分类","address":"上海松江区中山二路621号"},{"poiid":"B2094757D068A3FB499D","title":"85度C(人民北店)","lon":"121.22847","lat":"31.01101","category":"67","category_name":"甜品店","address":"松江区人民北路100号(近招商银行)"},{"poiid":"B2094757D66CA2F5489D","title":"人乐小区","lon":"121.22643246","lat":"31.011346089","category":"47","category_name":"住宅区","address":"上海人民北路"},{"poiid":"B2094757D06AA4FB489B","title":"庙前街","lon":"121.22470646","lat":"31.007497004","category":"249","category_name":"购物服务","address":"松江区松江镇中山中路"},{"poiid":"B2094654DB6DABFD4298","title":"云南过桥米线馆(中山二路)","lon":"121.22366","lat":"31.01","category":"68","category_name":"快餐厅","address":"松江区中山二路558号"},{"poiid":"B2094654DB6DABFE4398","title":"松石苑","lon":"121.22671","lat":"31.008522","category":"47","category_name":"住宅区","address":"人民北路71弄"},{"poiid":"B2094757D66CA7FC409C","title":"松江区实验小学","lon":"121.2239277","lat":"31.010840245","category":"56","category_name":"小学","address":"上海松江区人乐二村60号"},{"poiid":"B2094654DB6DABF9489E","title":"松江区成人教师进修学校","lon":"121.22288","lat":"31.01215","category":"53","category_name":"成人教育","address":"西林北路420"},{"poiid":"B2094655D268A3F94292","title":"顺子烧烤","lon":"121.22258","lat":"31.00585","category":"68","category_name":"快餐厅","address":"松江区西林南路99弄59号(近中心医院)"},{"poiid":"B2094654DB6DABFB4692","title":"草庐酒家","lon":"121.22834","lat":"31.01036","category":"76","category_name":"上海菜","address":"松江区人民北路58号(近乐都路)"},{"poiid":"B2094757D569A6FC4198","title":"四海遊龙锅贴专卖店(中山二路店)","lon":"121.22334988","lat":"31.01001112","category":"257","category_name":"中餐厅","address":"松江区中山二路586号101室(近松江电视大学)"},{"poiid":"B2094654DB6DABFD429A","title":"福建千里香馄饨馆","lon":"121.22377","lat":"31.01001","category":"87","category_name":"特色／地方风味餐厅","address":"中山二路550号"},{"poiid":"B2094654DB6EA1F44792","title":"上海电视大学松江分校","lon":"121.22171","lat":"31.00947","category":"52","category_name":"高等院校","address":"松江区中山二路621号"},{"poiid":"B2094654DB6EA3FE429B","title":"仓城六村","lon":"121.222","lat":"31.0097","category":"47","category_name":"住宅区","address":"松汇西路1181弄"},{"poiid":"B2094654DB6DABFE429C","title":"雷哲发型设计","lon":"121.22608","lat":"31.00695","category":"148","category_name":"美容美发店","address":"中山中路546号2层"},{"poiid":"B2094654DB6DABFD449F","title":"好德便利NO.615","lon":"121.2224","lat":"31.00962","category":"117","category_name":"便民商店/便利店","address":"松江镇"},{"poiid":"B2094655D265A6FD409D","title":"新雅粤菜馆 松江店","lon":"121.223043","lat":"31.010023","category":"72","category_name":"广东菜","address":"中山二路492号近西林北路"},{"poiid":"B2094654DB6DABFD4398","title":"上海市松江区教育考试中心","lon":"121.2229","lat":"31.01019","category":"250","category_name":"公园户外","address":"中山二路590号"},{"poiid":"B2094655D268A4F9449E","title":"上海电视大学松江分校(北门)","lon":"121.22183","lat":"31.00969","category":"52","category_name":"高等院校","address":"中山二路621"},{"poiid":"B2094654DB6DABFD439F","title":"天姿","lon":"121.22288","lat":"31.01","category":"148","category_name":"美容美发店","address":"中山二路600-2识别"},{"poiid":"B2094654DB65A6F5419B","title":"荣乐小区(松江·人民北路)","lon":"121.22355","lat":"31.01528","category":"47","category_name":"住宅区","address":"荣乐一村67-70号"},{"poiid":"B2094654DB6DABF9479C","title":"上海市农业广播电视学校松江分校","lon":"121.22287","lat":"31.01215","category":"52","category_name":"高等院校","address":"松江区西林北路420"},{"poiid":"B2094750D164A4F4429E","title":"上海松江城区星程美司豪酒店","lon":"121.221563115939","lat":"31.0112520904167","category":"216","category_name":"经济型连锁酒店","address":"松江区西林北路355号(近松江大学城)"},{"poiid":"B2094654DB6DABFD409D","title":"豪享蜜饯","lon":"121.22445","lat":"31.01002","category":"117","category_name":"便民商店/便利店","address":"中山二路518"},{"poiid":"B2094654DB6EA1F4489D","title":"上海交通大学附属第一人民医院松江分院","lon":"121.22098","lat":"31.00762","category":"162","category_name":"医院","address":""},{"poiid":"B2094654DB6EA1F4459E","title":"上海茸城女子医院","lon":"121.22163","lat":"31.01105","category":"162","category_name":"医院","address":"松江区西林北路351号"},{"poiid":"B2094751DA6CA7FF4593","title":"沁韵渔火","lon":"121.224259","lat":"31.006569","category":"247","category_name":"餐饮美食","address":"华亭老街西林禅寺对面"},{"poiid":"B2094757D568AAF8469F","title":"新雅食品(松江中山二路)","lon":"121.22501465","lat":"31.01005398","category":"255","category_name":"专卖店","address":"中山二路492"},{"poiid":"B2094757D164A2F44893","title":"西林北路","lon":"121.222282","lat":"31.010007","category":"500","category_name":"未知分类","address":"上海西林北路"},{"poiid":"B2094654DB6DABF94792","title":"上海松江区新城进修学校","lon":"121.22287","lat":"31.01215","category":"53","category_name":"成人教育","address":"上海松江区西林北路420号"},{"poiid":"B2094655D268A5F4469B","title":"上海电视大学松江分校校区(西门)","lon":"121.22179","lat":"31.01258","category":"52","category_name":"高等院校","address":"西林北路420"},{"poiid":"B2094757D064A5FD419F","title":"招商银行(松江支行)","lon":"121.227870313","lat":"31.0121534678","category":"150","category_name":"银行","address":"松江区人民北路92-98号(近乐都路)"},{"poiid":"B2094655D26BABFC459E","title":"泰晤士小镇商业","lon":"121.2281","lat":"31.01332","category":"252","category_name":"楼宇机构","address":"乐都路339号"},{"poiid":"B2094655D26BABF8469A","title":"台南风味馆","lon":"121.22338","lat":"31.00625","category":"91","category_name":"台湾菜","address":"松江区岳阳街道缸甏巷254号(中心医院斜对面)"},{"poiid":"B2094654DB6EA1F4479B","title":"福鑫岛","lon":"121.22119","lat":"31.00995","category":"88","category_name":"海鲜酒楼","address":""},{"poiid":"B2094654DB6DABFC499E","title":"人乐水果店","lon":"121.22515","lat":"31.01004","category":"117","category_name":"便民商店/便利店","address":"中山二路486"},{"poiid":"B2094757D068A0FF4598","title":"好乐迪量贩式KTV(松江店)","lon":"121.22612","lat":"31.00617","category":"170","category_name":"KTV","address":"上海松江区中山中路320-228号3F"},{"poiid":"B2094757D065A1F5419A","title":"西林小区","lon":"121.22022","lat":"31.012518","category":"47","category_name":"住宅区","address":"上海乐都路411弄"},{"poiid":"B2094750DB6BABF54198","title":"元隆甜品店","lon":"121.223686","lat":"31.008228","category":"67","category_name":"甜品店","address":"松江区中山中路523号(近西林北路)"},{"poiid":"B2094655D268A5F9449C","title":"塔湾新村","lon":"121.22308","lat":"31.009005","category":"47","category_name":"住宅区","address":"青松路479弄"},{"poiid":"B2094655D268A5F94492","title":"木鱼弄小区","lon":"121.22423","lat":"31.00862","category":"47","category_name":"住宅区","address":"木鱼弄5-16号"},{"poiid":"B2094655D36DA7F8459E","title":"中山二路人民北路","lon":"121.22681","lat":"31.00993","category":"38","category_name":"公交车站","address":""},{"poiid":"B2094757D065A5F84393","title":"松江卫生人材培训中心","lon":"121.222188","lat":"31.010464","category":"500","category_name":"未知分类","address":"上海松江文诚路801号四号楼211室"},{"poiid":"B2094654DB6DABFA4398","title":"西林幼儿园","lon":"121.22251","lat":"31.0088","category":"57","category_name":"幼儿园","address":"松江区西林北路66路"}]