[{"poiid":"B2094757D06FA5FC409E","title":"浦东新区中医医院(川沙总院)","lon":"121.69538398","lat":"31.181028254","category":"162","category_name":"医院","address":"浦东新区绣川路340号(近妙境路)"},{"poiid":"B2094757D06FA0F4409B","title":"家乐福(川沙店)","lon":"121.69251728","lat":"31.181137462","category":"118","category_name":"超级市场","address":"上海浦东新区川沙镇妙境路1118号(近川沙长途汽车站)"},{"poiid":"B2094757D06FABFD469B","title":"光头烧烤(川沙店)","lon":"121.68615","lat":"31.18797","category":"247","category_name":"餐饮美食","address":"上海浦东新区川沙华夏二路(新川路口)  "},{"poiid":"B2094757D068A2F4409F","title":"汤豪仕汤馆（川沙店）","lon":"121.69877026","lat":"31.183654507","category":"76","category_name":"上海菜","address":"浦东新区川沙路5558号绿地东海岸国际广场1号118室(近绣川路)"},{"poiid":"B2094757D064A4FE4492","title":"川流不息(川沙店)","lon":"121.69369","lat":"31.1824","category":"500","category_name":"未知分类","address":"浦东新区川沙镇妙境路701号(近南桥路)"},{"poiid":"B2094757D068A6FA429A","title":"紫来轩(东海岸店)","lon":"121.70043","lat":"31.18328","category":"76","category_name":"上海菜","address":"浦东新区川沙路5558号绿地东海岸国际广场内(近绣川路)"},{"poiid":"B2094655D26BA1FF429B","title":"南桥路妙镜路","lon":"121.69165","lat":"31.18826","category":"38","category_name":"公交车站","address":""},{"poiid":"B2094655D26BA1F9459D","title":"妙境路新川路","lon":"121.69095","lat":"31.19105","category":"38","category_name":"公交车站","address":""},{"poiid":"B2094751D56BA1F9499B","title":"泰味阁","lon":"121.698608","lat":"31.181992","category":"247","category_name":"餐饮美食","address":"浦东新区川沙路5558弄绿地东海岸国际广场3号楼112-117室"},{"poiid":"B2094757D06BA6F5499E","title":"土灶王农家菜","lon":"121.69056","lat":"31.18378","category":"87","category_name":"特色／地方风味餐厅","address":"浦东新区川沙镇川环南路1187号(近妙境路)"},{"poiid":"B2094757D06AA4F44993","title":"江南茶人(川沙店)","lon":"121.68651199","lat":"31.185816931","category":"260","category_name":"其他","address":"浦东新区川沙华夏二路717号(近南桥路)"},{"poiid":"B2094757D665A2F4429E","title":"小四川水煮鱼 川沙店","lon":"121.692601","lat":"31.185813","category":"71","category_name":"四川菜","address":"浦东新区妙境路859号(近川环南路)"},{"poiid":"B2094757D169A7FB4692","title":"绿地豪生酒店","lon":"121.699080085","lat":"31.1841170692","category":"500","category_name":"未知分类","address":"上海绿地东海岸"},{"poiid":"B2094757D068A4FE429F","title":"倪记餐厅","lon":"121.69853423","lat":"31.184150152","category":"72","category_name":"广东菜","address":"浦东新区川沙路5558号绿地东海岸国际广场1号楼2楼(近绣川路)"},{"poiid":"B2094757D064A7F44692","title":"东方城市绿洲","lon":"121.68076","lat":"31.186369","category":"47","category_name":"住宅区","address":"浦东新区城丰路577号(近华夏三路)"},{"poiid":"B2094757D06AABFC489C","title":"韩林炭烤（浦东川沙店）","lon":"121.70042","lat":"31.1833","category":"96","category_name":"韩国料理","address":"浦东新区川沙路5558号绿地东海岸国际广场2号1楼(翔川路)"},{"poiid":"B2094757D06AA2F54793","title":"壹号码头海鲜大酒楼","lon":"121.69418","lat":"31.18598","category":"260","category_name":"其他","address":"浦东新区川沙镇川环南路958号"},{"poiid":"B2094757D06AA3FB419E","title":"清风人家(川沙路店)","lon":"121.69684","lat":"31.18908","category":"260","category_name":"其他","address":"浦东新区川沙镇南桥路723号(近川沙路)"},{"poiid":"B2094757D165A2FE449D","title":"呷哺呷哺(川沙绿地店)","lon":"121.699332085","lat":"31.1837330608","category":"247","category_name":"餐饮美食","address":"上海川沙绿地"},{"poiid":"B2094757DA6FA3FC469B","title":"肯德基(川沙家乐福店)","lon":"121.693449099998","lat":"31.1814072000002","category":"68","category_name":"快餐厅","address":"浦东新区妙境路1118号家乐福1楼(近川沙长途汽车站)"},{"poiid":"B2094757D068A7FE439D","title":"新新潘晓婷撞球俱乐部(川沙店)","lon":"121.69455635","lat":"31.1844656357","category":"171","category_name":"台球厅","address":"浦东新区川沙路5558号绿地东海岸国际广场地下室2-8号(近绣川路)"},{"poiid":"B2094757DB6CA4FD489B","title":"川流不息","lon":"121.695801","lat":"31.18448","category":"500","category_name":"未知分类","address":"川沙绿地东海岸"},{"poiid":"B2094757D06AA7F9449D","title":"重庆德庄火锅(川沙店)","lon":"121.70043","lat":"31.18328","category":"86","category_name":"火锅店","address":"浦东新区川沙路5558号绿地东海岸国际广场2号楼3楼(近绣川路)"},{"poiid":"B2094655D36CA5FD4592","title":"川沙中医院","lon":"121.69594","lat":"31.18122","category":"162","category_name":"医院","address":""},{"poiid":"B2094757D064A1FE499C","title":"恒记甜品(绿地东海岸店)","lon":"121.70049","lat":"31.18301","category":"67","category_name":"甜品店","address":"川沙路5558号绿地东海岸国际广场近绣川路"},{"poiid":"B2094757D569A2FF4198","title":"贝越水岸名邸","lon":"121.69653","lat":"31.178165","category":"47","category_name":"住宅区","address":"上海市浦东新区秒境路1139弄"},{"poiid":"B2094757D16DA4FA499D","title":"听香茶楼","lon":"121.6930561","lat":"31.180629271","category":"260","category_name":"其他","address":"浦东新区妙境路1136弄1号(近川沙家乐福)"},{"poiid":"B2094655D36CA5FE469B","title":"川环南路华夏二路","lon":"121.6875","lat":"31.18347","category":"38","category_name":"公交车站","address":""},{"poiid":"B2094757D16BA4FF419F","title":"维也纳国际酒店(迪士尼店)","lon":"121.69257166","lat":"31.180442886","category":"217","category_name":"旅馆招待所","address":"浦东新区华夏东路1478号川沙"},{"poiid":"B2094655D36CA0F84099","title":"界龙村","lon":"121.68535","lat":"31.17548","category":"38","category_name":"公交车站","address":""},{"poiid":"B2094750D364A4FF4393","title":"上海秀麦","lon":"121.69345156618","lat":"31.180610219311","category":"172","category_name":"酒吧","address":"川沙镇妙境路1136弄2号4楼"},{"poiid":"B2094655D36CA5FE4093","title":"川沙(绣川路)","lon":"121.69235","lat":"31.17978","category":"38","category_name":"公交车站","address":""},{"poiid":"B2094757D06AA1F9439F","title":"粥道坊","lon":"121.69402","lat":"31.18962","category":"68","category_name":"快餐厅","address":"浦东新区川沙镇进贤路10号(川沙城南路川沙进贤路)"},{"poiid":"B2094757D465A5FA489B","title":"百世德咖啡 华夏二路店","lon":"121.68547","lat":"31.18926","category":"260","category_name":"其他","address":"浦东新区华夏二路488号(城丰路口)"},{"poiid":"B2094751D16BA2F44399","title":"绿地东海岸麦当劳","lon":"121.6925824","lat":"31.1812539","category":"500","category_name":"未知分类","address":null},{"poiid":"B2094757D16AAAFF489B","title":"界龙村体育文化中心","lon":"121.68466898","lat":"31.176619104","category":"500","category_name":"未知分类","address":"上海界龙大道界龙一路交界处"},{"poiid":"B2094757D16AA6FA459A","title":"川沙客运站","lon":"121.69281","lat":"31.182966","category":"35","category_name":"长途汽车站","address":"上海浦东新区川沙镇妙境路1000号"},{"poiid":"B2094757D16BA6F94992","title":"御仙足道会馆","lon":"121.693655085","lat":"31.1805639912","category":"148","category_name":"美容美发店","address":"上海市浦东新区界龙一路"},{"poiid":"B2094750D664A3F44198","title":"棒约翰比萨(绿地东海岸店)","lon":"121.697","lat":"31.1856","category":"94","category_name":"西餐厅","address":"浦东新区川沙路5558号绿地东海岸国际广场内(近翔川路)"},{"poiid":"B2094655D26BA1F94599","title":"妙境路绣川路","lon":"121.69398","lat":"31.17962","category":"38","category_name":"公交车站","address":""},{"poiid":"B2094654DA6AABFD4793","title":"佳洲欣苑","lon":"121.68719","lat":"31.188461","category":"47","category_name":"住宅区","address":"佳洲欣苑位于浦东新川路969号"},{"poiid":"B2094654DA6AABFB449D","title":"界龙村文化体育中心","lon":"121.6839","lat":"31.17468","category":"248","category_name":"生活娱乐","address":"川沙镇"},{"poiid":"B2094655D26BA2F5439A","title":"浦东中医院","lon":"121.69483","lat":"31.17678","category":"162","category_name":"医院","address":""},{"poiid":"B2094757D064A4F9479C","title":"浦东新区人民医院输液室","lon":"121.688545885","lat":"31.1882260594","category":"162","category_name":"医院","address":"上海急诊二楼"},{"poiid":"B2094757D16DA2FC489E","title":"翔川家园","lon":"121.69607908","lat":"31.181769017","category":"47","category_name":"住宅区","address":"上海市浦东新区翔川路458弄"},{"poiid":"B2094757D16FA3FF4698","title":"憬森茶餐厅","lon":"121.689851085","lat":"31.1898751957","category":"72","category_name":"广东菜","address":"浦东新区新川路855号(近川沙路)"},{"poiid":"B2094751D26BA7FE479E","title":"碧海雲天","lon":"121.686733","lat":"31.186725","category":"248","category_name":"生活娱乐","address":"浦東新區川環南路"},{"poiid":"B2094750D164A5F9439F","title":"上海鸿锦国际酒店","lon":"121.693367958069","lat":"31.1811212203861","category":"215","category_name":"三星级宾馆","address":"浦东新区川沙镇妙境路1136弄58号"},{"poiid":"B2094757D66BA3F5469A","title":"中华聚满楼","lon":"121.6916859","lat":"31.1874396","category":"71","category_name":"四川菜","address":"浦东新区妙境路688号(近南桥路)"},{"poiid":"B2094751D26DA0FC449E","title":"心圆西苑","lon":"121.688842","lat":"31.169088","category":"47","category_name":"住宅区","address":"浦东新区华夏二路1500弄"},{"poiid":"B2094757D06FA5FC409E","title":"浦东新区中医医院(川沙总院)","lon":"121.69538398","lat":"31.181028254","category":"162","category_name":"医院","address":"浦东新区绣川路340号(近妙境路)"},{"poiid":"B2094757D06FA0F4409B","title":"家乐福(川沙店)","lon":"121.69251728","lat":"31.181137462","category":"118","category_name":"超级市场","address":"上海浦东新区川沙镇妙境路1118号(近川沙长途汽车站)"},{"poiid":"B2094757D06FABFD469B","title":"光头烧烤(川沙店)","lon":"121.68615","lat":"31.18797","category":"247","category_name":"餐饮美食","address":"上海浦东新区川沙华夏二路(新川路口)  "},{"poiid":"B2094757D068A2F4409F","title":"汤豪仕汤馆（川沙店）","lon":"121.69877026","lat":"31.183654507","category":"76","category_name":"上海菜","address":"浦东新区川沙路5558号绿地东海岸国际广场1号118室(近绣川路)"},{"poiid":"B2094757D064A4FE4492","title":"川流不息(川沙店)","lon":"121.69369","lat":"31.1824","category":"500","category_name":"未知分类","address":"浦东新区川沙镇妙境路701号(近南桥路)"},{"poiid":"B2094757D068A6FA429A","title":"紫来轩(东海岸店)","lon":"121.70043","lat":"31.18328","category":"76","category_name":"上海菜","address":"浦东新区川沙路5558号绿地东海岸国际广场内(近绣川路)"},{"poiid":"B2094655D26BA1FF429B","title":"南桥路妙镜路","lon":"121.69165","lat":"31.18826","category":"38","category_name":"公交车站","address":""},{"poiid":"B2094655D26BA1F9459D","title":"妙境路新川路","lon":"121.69095","lat":"31.19105","category":"38","category_name":"公交车站","address":""},{"poiid":"B2094751D56BA1F9499B","title":"泰味阁","lon":"121.698608","lat":"31.181992","category":"247","category_name":"餐饮美食","address":"浦东新区川沙路5558弄绿地东海岸国际广场3号楼112-117室"},{"poiid":"B2094757D06BA6F5499E","title":"土灶王农家菜","lon":"121.69056","lat":"31.18378","category":"87","category_name":"特色／地方风味餐厅","address":"浦东新区川沙镇川环南路1187号(近妙境路)"},{"poiid":"B2094757D06AA4F44993","title":"江南茶人(川沙店)","lon":"121.68651199","lat":"31.185816931","category":"260","category_name":"其他","address":"浦东新区川沙华夏二路717号(近南桥路)"},{"poiid":"B2094757D665A2F4429E","title":"小四川水煮鱼 川沙店","lon":"121.692601","lat":"31.185813","category":"71","category_name":"四川菜","address":"浦东新区妙境路859号(近川环南路)"},{"poiid":"B2094757D169A7FB4692","title":"绿地豪生酒店","lon":"121.699080085","lat":"31.1841170692","category":"500","category_name":"未知分类","address":"上海绿地东海岸"},{"poiid":"B2094757D068A4FE429F","title":"倪记餐厅","lon":"121.69853423","lat":"31.184150152","category":"72","category_name":"广东菜","address":"浦东新区川沙路5558号绿地东海岸国际广场1号楼2楼(近绣川路)"},{"poiid":"B2094757D064A7F44692","title":"东方城市绿洲","lon":"121.68076","lat":"31.186369","category":"47","category_name":"住宅区","address":"浦东新区城丰路577号(近华夏三路)"},{"poiid":"B2094757D06AABFC489C","title":"韩林炭烤（浦东川沙店）","lon":"121.70042","lat":"31.1833","category":"96","category_name":"韩国料理","address":"浦东新区川沙路5558号绿地东海岸国际广场2号1楼(翔川路)"},{"poiid":"B2094757D06AA2F54793","title":"壹号码头海鲜大酒楼","lon":"121.69418","lat":"31.18598","category":"260","category_name":"其他","address":"浦东新区川沙镇川环南路958号"},{"poiid":"B2094757D06AA3FB419E","title":"清风人家(川沙路店)","lon":"121.69684","lat":"31.18908","category":"260","category_name":"其他","address":"浦东新区川沙镇南桥路723号(近川沙路)"},{"poiid":"B2094757D165A2FE449D","title":"呷哺呷哺(川沙绿地店)","lon":"121.699332085","lat":"31.1837330608","category":"247","category_name":"餐饮美食","address":"上海川沙绿地"},{"poiid":"B2094757DA6FA3FC469B","title":"肯德基(川沙家乐福店)","lon":"121.693449099998","lat":"31.1814072000002","category":"68","category_name":"快餐厅","address":"浦东新区妙境路1118号家乐福1楼(近川沙长途汽车站)"},{"poiid":"B2094757D068A7FE439D","title":"新新潘晓婷撞球俱乐部(川沙店)","lon":"121.69455635","lat":"31.1844656357","category":"171","category_name":"台球厅","address":"浦东新区川沙路5558号绿地东海岸国际广场地下室2-8号(近绣川路)"},{"poiid":"B2094757DB6CA4FD489B","title":"川流不息","lon":"121.695801","lat":"31.18448","category":"500","category_name":"未知分类","address":"川沙绿地东海岸"},{"poiid":"B2094757D06AA7F9449D","title":"重庆德庄火锅(川沙店)","lon":"121.70043","lat":"31.18328","category":"86","category_name":"火锅店","address":"浦东新区川沙路5558号绿地东海岸国际广场2号楼3楼(近绣川路)"},{"poiid":"B2094655D36CA5FD4592","title":"川沙中医院","lon":"121.69594","lat":"31.18122","category":"162","category_name":"医院","address":""},{"poiid":"B2094757D064A1FE499C","title":"恒记甜品(绿地东海岸店)","lon":"121.70049","lat":"31.18301","category":"67","category_name":"甜品店","address":"川沙路5558号绿地东海岸国际广场近绣川路"},{"poiid":"B2094757D569A2FF4198","title":"贝越水岸名邸","lon":"121.69653","lat":"31.178165","category":"47","category_name":"住宅区","address":"上海市浦东新区秒境路1139弄"},{"poiid":"B2094757D16DA4FA499D","title":"听香茶楼","lon":"121.6930561","lat":"31.180629271","category":"260","category_name":"其他","address":"浦东新区妙境路1136弄1号(近川沙家乐福)"},{"poiid":"B2094655D36CA5FE469B","title":"川环南路华夏二路","lon":"121.6875","lat":"31.18347","category":"38","category_name":"公交车站","address":""},{"poiid":"B2094757D16BA4FF419F","title":"维也纳国际酒店(迪士尼店)","lon":"121.69257166","lat":"31.180442886","category":"217","category_name":"旅馆招待所","address":"浦东新区华夏东路1478号川沙"},{"poiid":"B2094655D36CA0F84099","title":"界龙村","lon":"121.68535","lat":"31.17548","category":"38","category_name":"公交车站","address":""},{"poiid":"B2094750D364A4FF4393","title":"上海秀麦","lon":"121.69345156618","lat":"31.180610219311","category":"172","category_name":"酒吧","address":"川沙镇妙境路1136弄2号4楼"},{"poiid":"B2094655D36CA5FE4093","title":"川沙(绣川路)","lon":"121.69235","lat":"31.17978","category":"38","category_name":"公交车站","address":""},{"poiid":"B2094757D06AA1F9439F","title":"粥道坊","lon":"121.69402","lat":"31.18962","category":"68","category_name":"快餐厅","address":"浦东新区川沙镇进贤路10号(川沙城南路川沙进贤路)"},{"poiid":"B2094757D465A5FA489B","title":"百世德咖啡 华夏二路店","lon":"121.68547","lat":"31.18926","category":"260","category_name":"其他","address":"浦东新区华夏二路488号(城丰路口)"},{"poiid":"B2094751D16BA2F44399","title":"绿地东海岸麦当劳","lon":"121.6925824","lat":"31.1812539","category":"500","category_name":"未知分类","address":null},{"poiid":"B2094757D16AAAFF489B","title":"界龙村体育文化中心","lon":"121.68466898","lat":"31.176619104","category":"500","category_name":"未知分类","address":"上海界龙大道界龙一路交界处"},{"poiid":"B2094757D16AA6FA459A","title":"川沙客运站","lon":"121.69281","lat":"31.182966","category":"35","category_name":"长途汽车站","address":"上海浦东新区川沙镇妙境路1000号"},{"poiid":"B2094757D16BA6F94992","title":"御仙足道会馆","lon":"121.693655085","lat":"31.1805639912","category":"148","category_name":"美容美发店","address":"上海市浦东新区界龙一路"},{"poiid":"B2094750D664A3F44198","title":"棒约翰比萨(绿地东海岸店)","lon":"121.697","lat":"31.1856","category":"94","category_name":"西餐厅","address":"浦东新区川沙路5558号绿地东海岸国际广场内(近翔川路)"},{"poiid":"B2094655D26BA1F94599","title":"妙境路绣川路","lon":"121.69398","lat":"31.17962","category":"38","category_name":"公交车站","address":""},{"poiid":"B2094654DA6AABFD4793","title":"佳洲欣苑","lon":"121.68719","lat":"31.188461","category":"47","category_name":"住宅区","address":"佳洲欣苑位于浦东新川路969号"},{"poiid":"B2094654DA6AABFB449D","title":"界龙村文化体育中心","lon":"121.6839","lat":"31.17468","category":"248","category_name":"生活娱乐","address":"川沙镇"},{"poiid":"B2094655D26BA2F5439A","title":"浦东中医院","lon":"121.69483","lat":"31.17678","category":"162","category_name":"医院","address":""},{"poiid":"B2094757D064A4F9479C","title":"浦东新区人民医院输液室","lon":"121.688545885","lat":"31.1882260594","category":"162","category_name":"医院","address":"上海急诊二楼"},{"poiid":"B2094757D16DA2FC489E","title":"翔川家园","lon":"121.69607908","lat":"31.181769017","category":"47","category_name":"住宅区","address":"上海市浦东新区翔川路458弄"},{"poiid":"B2094757D16FA3FF4698","title":"憬森茶餐厅","lon":"121.689851085","lat":"31.1898751957","category":"72","category_name":"广东菜","address":"浦东新区新川路855号(近川沙路)"},{"poiid":"B2094751D26BA7FE479E","title":"碧海雲天","lon":"121.686733","lat":"31.186725","category":"248","category_name":"生活娱乐","address":"浦東新區川環南路"},{"poiid":"B2094750D164A5F9439F","title":"上海鸿锦国际酒店","lon":"121.693367958069","lat":"31.1811212203861","category":"215","category_name":"三星级宾馆","address":"浦东新区川沙镇妙境路1136弄58号"},{"poiid":"B2094757D66BA3F5469A","title":"中华聚满楼","lon":"121.6916859","lat":"31.1874396","category":"71","category_name":"四川菜","address":"浦东新区妙境路688号(近南桥路)"},{"poiid":"B2094751D26DA0FC449E","title":"心圆西苑","lon":"121.688842","lat":"31.169088","category":"47","category_name":"住宅区","address":"浦东新区华夏二路1500弄"},{"poiid":"B2094757D06FA5FC409E","title":"浦东新区中医医院(川沙总院)","lon":"121.69538398","lat":"31.181028254","category":"162","category_name":"医院","address":"浦东新区绣川路340号(近妙境路)"},{"poiid":"B2094757D06FA0F4409B","title":"家乐福(川沙店)","lon":"121.69251728","lat":"31.181137462","category":"118","category_name":"超级市场","address":"上海浦东新区川沙镇妙境路1118号(近川沙长途汽车站)"},{"poiid":"B2094757D06FABFD469B","title":"光头烧烤(川沙店)","lon":"121.68615","lat":"31.18797","category":"247","category_name":"餐饮美食","address":"上海浦东新区川沙华夏二路(新川路口)  "},{"poiid":"B2094757D068A2F4409F","title":"汤豪仕汤馆（川沙店）","lon":"121.69877026","lat":"31.183654507","category":"76","category_name":"上海菜","address":"浦东新区川沙路5558号绿地东海岸国际广场1号118室(近绣川路)"},{"poiid":"B2094757D064A4FE4492","title":"川流不息(川沙店)","lon":"121.69369","lat":"31.1824","category":"500","category_name":"未知分类","address":"浦东新区川沙镇妙境路701号(近南桥路)"},{"poiid":"B2094757D068A6FA429A","title":"紫来轩(东海岸店)","lon":"121.70043","lat":"31.18328","category":"76","category_name":"上海菜","address":"浦东新区川沙路5558号绿地东海岸国际广场内(近绣川路)"},{"poiid":"B2094655D26BA1FF429B","title":"南桥路妙镜路","lon":"121.69165","lat":"31.18826","category":"38","category_name":"公交车站","address":""},{"poiid":"B2094655D26BA1F9459D","title":"妙境路新川路","lon":"121.69095","lat":"31.19105","category":"38","category_name":"公交车站","address":""},{"poiid":"B2094751D56BA1F9499B","title":"泰味阁","lon":"121.698608","lat":"31.181992","category":"247","category_name":"餐饮美食","address":"浦东新区川沙路5558弄绿地东海岸国际广场3号楼112-117室"},{"poiid":"B2094757D06BA6F5499E","title":"土灶王农家菜","lon":"121.69056","lat":"31.18378","category":"87","category_name":"特色／地方风味餐厅","address":"浦东新区川沙镇川环南路1187号(近妙境路)"},{"poiid":"B2094757D06AA4F44993","title":"江南茶人(川沙店)","lon":"121.68651199","lat":"31.185816931","category":"260","category_name":"其他","address":"浦东新区川沙华夏二路717号(近南桥路)"},{"poiid":"B2094757D665A2F4429E","title":"小四川水煮鱼 川沙店","lon":"121.692601","lat":"31.185813","category":"71","category_name":"四川菜","address":"浦东新区妙境路859号(近川环南路)"},{"poiid":"B2094757D169A7FB4692","title":"绿地豪生酒店","lon":"121.699080085","lat":"31.1841170692","category":"500","category_name":"未知分类","address":"上海绿地东海岸"},{"poiid":"B2094757D068A4FE429F","title":"倪记餐厅","lon":"121.69853423","lat":"31.184150152","category":"72","category_name":"广东菜","address":"浦东新区川沙路5558号绿地东海岸国际广场1号楼2楼(近绣川路)"},{"poiid":"B2094757D064A7F44692","title":"东方城市绿洲","lon":"121.68076","lat":"31.186369","category":"47","category_name":"住宅区","address":"浦东新区城丰路577号(近华夏三路)"},{"poiid":"B2094757D06AABFC489C","title":"韩林炭烤（浦东川沙店）","lon":"121.70042","lat":"31.1833","category":"96","category_name":"韩国料理","address":"浦东新区川沙路5558号绿地东海岸国际广场2号1楼(翔川路)"},{"poiid":"B2094757D06AA2F54793","title":"壹号码头海鲜大酒楼","lon":"121.69418","lat":"31.18598","category":"260","category_name":"其他","address":"浦东新区川沙镇川环南路958号"},{"poiid":"B2094757D06AA3FB419E","title":"清风人家(川沙路店)","lon":"121.69684","lat":"31.18908","category":"260","category_name":"其他","address":"浦东新区川沙镇南桥路723号(近川沙路)"},{"poiid":"B2094757D165A2FE449D","title":"呷哺呷哺(川沙绿地店)","lon":"121.699332085","lat":"31.1837330608","category":"247","category_name":"餐饮美食","address":"上海川沙绿地"},{"poiid":"B2094757DA6FA3FC469B","title":"肯德基(川沙家乐福店)","lon":"121.693449099998","lat":"31.1814072000002","category":"68","category_name":"快餐厅","address":"浦东新区妙境路1118号家乐福1楼(近川沙长途汽车站)"},{"poiid":"B2094757D068A7FE439D","title":"新新潘晓婷撞球俱乐部(川沙店)","lon":"121.69455635","lat":"31.1844656357","category":"171","category_name":"台球厅","address":"浦东新区川沙路5558号绿地东海岸国际广场地下室2-8号(近绣川路)"},{"poiid":"B2094757DB6CA4FD489B","title":"川流不息","lon":"121.695801","lat":"31.18448","category":"500","category_name":"未知分类","address":"川沙绿地东海岸"},{"poiid":"B2094757D06AA7F9449D","title":"重庆德庄火锅(川沙店)","lon":"121.70043","lat":"31.18328","category":"86","category_name":"火锅店","address":"浦东新区川沙路5558号绿地东海岸国际广场2号楼3楼(近绣川路)"},{"poiid":"B2094655D36CA5FD4592","title":"川沙中医院","lon":"121.69594","lat":"31.18122","category":"162","category_name":"医院","address":""},{"poiid":"B2094757D064A1FE499C","title":"恒记甜品(绿地东海岸店)","lon":"121.70049","lat":"31.18301","category":"67","category_name":"甜品店","address":"川沙路5558号绿地东海岸国际广场近绣川路"},{"poiid":"B2094757D569A2FF4198","title":"贝越水岸名邸","lon":"121.69653","lat":"31.178165","category":"47","category_name":"住宅区","address":"上海市浦东新区秒境路1139弄"},{"poiid":"B2094757D16DA4FA499D","title":"听香茶楼","lon":"121.6930561","lat":"31.180629271","category":"260","category_name":"其他","address":"浦东新区妙境路1136弄1号(近川沙家乐福)"},{"poiid":"B2094655D36CA5FE469B","title":"川环南路华夏二路","lon":"121.6875","lat":"31.18347","category":"38","category_name":"公交车站","address":""},{"poiid":"B2094757D16BA4FF419F","title":"维也纳国际酒店(迪士尼店)","lon":"121.69257166","lat":"31.180442886","category":"217","category_name":"旅馆招待所","address":"浦东新区华夏东路1478号川沙"},{"poiid":"B2094655D36CA0F84099","title":"界龙村","lon":"121.68535","lat":"31.17548","category":"38","category_name":"公交车站","address":""},{"poiid":"B2094750D364A4FF4393","title":"上海秀麦","lon":"121.69345156618","lat":"31.180610219311","category":"172","category_name":"酒吧","address":"川沙镇妙境路1136弄2号4楼"},{"poiid":"B2094655D36CA5FE4093","title":"川沙(绣川路)","lon":"121.69235","lat":"31.17978","category":"38","category_name":"公交车站","address":""},{"poiid":"B2094757D06AA1F9439F","title":"粥道坊","lon":"121.69402","lat":"31.18962","category":"68","category_name":"快餐厅","address":"浦东新区川沙镇进贤路10号(川沙城南路川沙进贤路)"},{"poiid":"B2094757D465A5FA489B","title":"百世德咖啡 华夏二路店","lon":"121.68547","lat":"31.18926","category":"260","category_name":"其他","address":"浦东新区华夏二路488号(城丰路口)"},{"poiid":"B2094751D16BA2F44399","title":"绿地东海岸麦当劳","lon":"121.6925824","lat":"31.1812539","category":"500","category_name":"未知分类","address":null},{"poiid":"B2094757D16AAAFF489B","title":"界龙村体育文化中心","lon":"121.68466898","lat":"31.176619104","category":"500","category_name":"未知分类","address":"上海界龙大道界龙一路交界处"},{"poiid":"B2094757D16AA6FA459A","title":"川沙客运站","lon":"121.69281","lat":"31.182966","category":"35","category_name":"长途汽车站","address":"上海浦东新区川沙镇妙境路1000号"},{"poiid":"B2094757D16BA6F94992","title":"御仙足道会馆","lon":"121.693655085","lat":"31.1805639912","category":"148","category_name":"美容美发店","address":"上海市浦东新区界龙一路"},{"poiid":"B2094750D664A3F44198","title":"棒约翰比萨(绿地东海岸店)","lon":"121.697","lat":"31.1856","category":"94","category_name":"西餐厅","address":"浦东新区川沙路5558号绿地东海岸国际广场内(近翔川路)"},{"poiid":"B2094655D26BA1F94599","title":"妙境路绣川路","lon":"121.69398","lat":"31.17962","category":"38","category_name":"公交车站","address":""},{"poiid":"B2094654DA6AABFD4793","title":"佳洲欣苑","lon":"121.68719","lat":"31.188461","category":"47","category_name":"住宅区","address":"佳洲欣苑位于浦东新川路969号"},{"poiid":"B2094654DA6AABFB449D","title":"界龙村文化体育中心","lon":"121.6839","lat":"31.17468","category":"248","category_name":"生活娱乐","address":"川沙镇"},{"poiid":"B2094655D26BA2F5439A","title":"浦东中医院","lon":"121.69483","lat":"31.17678","category":"162","category_name":"医院","address":""},{"poiid":"B2094757D064A4F9479C","title":"浦东新区人民医院输液室","lon":"121.688545885","lat":"31.1882260594","category":"162","category_name":"医院","address":"上海急诊二楼"},{"poiid":"B2094757D16DA2FC489E","title":"翔川家园","lon":"121.69607908","lat":"31.181769017","category":"47","category_name":"住宅区","address":"上海市浦东新区翔川路458弄"},{"poiid":"B2094757D16FA3FF4698","title":"憬森茶餐厅","lon":"121.689851085","lat":"31.1898751957","category":"72","category_name":"广东菜","address":"浦东新区新川路855号(近川沙路)"},{"poiid":"B2094751D26BA7FE479E","title":"碧海雲天","lon":"121.686733","lat":"31.186725","category":"248","category_name":"生活娱乐","address":"浦東新區川環南路"},{"poiid":"B2094750D164A5F9439F","title":"上海鸿锦国际酒店","lon":"121.693367958069","lat":"31.1811212203861","category":"215","category_name":"三星级宾馆","address":"浦东新区川沙镇妙境路1136弄58号"},{"poiid":"B2094757D66BA3F5469A","title":"中华聚满楼","lon":"121.6916859","lat":"31.1874396","category":"71","category_name":"四川菜","address":"浦东新区妙境路688号(近南桥路)"},{"poiid":"B2094751D26DA0FC449E","title":"心圆西苑","lon":"121.688842","lat":"31.169088","category":"47","category_name":"住宅区","address":"浦东新区华夏二路1500弄"},{"poiid":"B2094757D06FA5FC409E","title":"浦东新区中医医院(川沙总院)","lon":"121.69538398","lat":"31.181028254","category":"162","category_name":"医院","address":"浦东新区绣川路340号(近妙境路)"},{"poiid":"B2094757D06FA0F4409B","title":"家乐福(川沙店)","lon":"121.69251728","lat":"31.181137462","category":"118","category_name":"超级市场","address":"上海浦东新区川沙镇妙境路1118号(近川沙长途汽车站)"},{"poiid":"B2094757D06FABFD469B","title":"光头烧烤(川沙店)","lon":"121.68615","lat":"31.18797","category":"247","category_name":"餐饮美食","address":"上海浦东新区川沙华夏二路(新川路口)  "},{"poiid":"B2094757D068A2F4409F","title":"汤豪仕汤馆（川沙店）","lon":"121.69877026","lat":"31.183654507","category":"76","category_name":"上海菜","address":"浦东新区川沙路5558号绿地东海岸国际广场1号118室(近绣川路)"},{"poiid":"B2094757D064A4FE4492","title":"川流不息(川沙店)","lon":"121.69369","lat":"31.1824","category":"500","category_name":"未知分类","address":"浦东新区川沙镇妙境路701号(近南桥路)"},{"poiid":"B2094757D068A6FA429A","title":"紫来轩(东海岸店)","lon":"121.70043","lat":"31.18328","category":"76","category_name":"上海菜","address":"浦东新区川沙路5558号绿地东海岸国际广场内(近绣川路)"},{"poiid":"B2094655D26BA1FF429B","title":"南桥路妙镜路","lon":"121.69165","lat":"31.18826","category":"38","category_name":"公交车站","address":""},{"poiid":"B2094655D26BA1F9459D","title":"妙境路新川路","lon":"121.69095","lat":"31.19105","category":"38","category_name":"公交车站","address":""},{"poiid":"B2094751D56BA1F9499B","title":"泰味阁","lon":"121.698608","lat":"31.181992","category":"247","category_name":"餐饮美食","address":"浦东新区川沙路5558弄绿地东海岸国际广场3号楼112-117室"},{"poiid":"B2094757D06BA6F5499E","title":"土灶王农家菜","lon":"121.69056","lat":"31.18378","category":"87","category_name":"特色／地方风味餐厅","address":"浦东新区川沙镇川环南路1187号(近妙境路)"},{"poiid":"B2094757D06AA4F44993","title":"江南茶人(川沙店)","lon":"121.68651199","lat":"31.185816931","category":"260","category_name":"其他","address":"浦东新区川沙华夏二路717号(近南桥路)"},{"poiid":"B2094757D665A2F4429E","title":"小四川水煮鱼 川沙店","lon":"121.692601","lat":"31.185813","category":"71","category_name":"四川菜","address":"浦东新区妙境路859号(近川环南路)"},{"poiid":"B2094757D169A7FB4692","title":"绿地豪生酒店","lon":"121.699080085","lat":"31.1841170692","category":"500","category_name":"未知分类","address":"上海绿地东海岸"},{"poiid":"B2094757D068A4FE429F","title":"倪记餐厅","lon":"121.69853423","lat":"31.184150152","category":"72","category_name":"广东菜","address":"浦东新区川沙路5558号绿地东海岸国际广场1号楼2楼(近绣川路)"},{"poiid":"B2094757D064A7F44692","title":"东方城市绿洲","lon":"121.68076","lat":"31.186369","category":"47","category_name":"住宅区","address":"浦东新区城丰路577号(近华夏三路)"},{"poiid":"B2094757D06AABFC489C","title":"韩林炭烤（浦东川沙店）","lon":"121.70042","lat":"31.1833","category":"96","category_name":"韩国料理","address":"浦东新区川沙路5558号绿地东海岸国际广场2号1楼(翔川路)"},{"poiid":"B2094757D06AA2F54793","title":"壹号码头海鲜大酒楼","lon":"121.69418","lat":"31.18598","category":"260","category_name":"其他","address":"浦东新区川沙镇川环南路958号"},{"poiid":"B2094757D06AA3FB419E","title":"清风人家(川沙路店)","lon":"121.69684","lat":"31.18908","category":"260","category_name":"其他","address":"浦东新区川沙镇南桥路723号(近川沙路)"},{"poiid":"B2094757D165A2FE449D","title":"呷哺呷哺(川沙绿地店)","lon":"121.699332085","lat":"31.1837330608","category":"247","category_name":"餐饮美食","address":"上海川沙绿地"},{"poiid":"B2094757DA6FA3FC469B","title":"肯德基(川沙家乐福店)","lon":"121.693449099998","lat":"31.1814072000002","category":"68","category_name":"快餐厅","address":"浦东新区妙境路1118号家乐福1楼(近川沙长途汽车站)"},{"poiid":"B2094757D068A7FE439D","title":"新新潘晓婷撞球俱乐部(川沙店)","lon":"121.69455635","lat":"31.1844656357","category":"171","category_name":"台球厅","address":"浦东新区川沙路5558号绿地东海岸国际广场地下室2-8号(近绣川路)"},{"poiid":"B2094757DB6CA4FD489B","title":"川流不息","lon":"121.695801","lat":"31.18448","category":"500","category_name":"未知分类","address":"川沙绿地东海岸"},{"poiid":"B2094757D06AA7F9449D","title":"重庆德庄火锅(川沙店)","lon":"121.70043","lat":"31.18328","category":"86","category_name":"火锅店","address":"浦东新区川沙路5558号绿地东海岸国际广场2号楼3楼(近绣川路)"},{"poiid":"B2094655D36CA5FD4592","title":"川沙中医院","lon":"121.69594","lat":"31.18122","category":"162","category_name":"医院","address":""},{"poiid":"B2094757D064A1FE499C","title":"恒记甜品(绿地东海岸店)","lon":"121.70049","lat":"31.18301","category":"67","category_name":"甜品店","address":"川沙路5558号绿地东海岸国际广场近绣川路"},{"poiid":"B2094757D569A2FF4198","title":"贝越水岸名邸","lon":"121.69653","lat":"31.178165","category":"47","category_name":"住宅区","address":"上海市浦东新区秒境路1139弄"},{"poiid":"B2094757D16DA4FA499D","title":"听香茶楼","lon":"121.6930561","lat":"31.180629271","category":"260","category_name":"其他","address":"浦东新区妙境路1136弄1号(近川沙家乐福)"},{"poiid":"B2094655D36CA5FE469B","title":"川环南路华夏二路","lon":"121.6875","lat":"31.18347","category":"38","category_name":"公交车站","address":""},{"poiid":"B2094757D16BA4FF419F","title":"维也纳国际酒店(迪士尼店)","lon":"121.69257166","lat":"31.180442886","category":"217","category_name":"旅馆招待所","address":"浦东新区华夏东路1478号川沙"},{"poiid":"B2094655D36CA0F84099","title":"界龙村","lon":"121.68535","lat":"31.17548","category":"38","category_name":"公交车站","address":""},{"poiid":"B2094750D364A4FF4393","title":"上海秀麦","lon":"121.69345156618","lat":"31.180610219311","category":"172","category_name":"酒吧","address":"川沙镇妙境路1136弄2号4楼"},{"poiid":"B2094655D36CA5FE4093","title":"川沙(绣川路)","lon":"121.69235","lat":"31.17978","category":"38","category_name":"公交车站","address":""},{"poiid":"B2094757D06AA1F9439F","title":"粥道坊","lon":"121.69402","lat":"31.18962","category":"68","category_name":"快餐厅","address":"浦东新区川沙镇进贤路10号(川沙城南路川沙进贤路)"},{"poiid":"B2094757D465A5FA489B","title":"百世德咖啡 华夏二路店","lon":"121.68547","lat":"31.18926","category":"260","category_name":"其他","address":"浦东新区华夏二路488号(城丰路口)"},{"poiid":"B2094751D16BA2F44399","title":"绿地东海岸麦当劳","lon":"121.6925824","lat":"31.1812539","category":"500","category_name":"未知分类","address":null},{"poiid":"B2094757D16AAAFF489B","title":"界龙村体育文化中心","lon":"121.68466898","lat":"31.176619104","category":"500","category_name":"未知分类","address":"上海界龙大道界龙一路交界处"},{"poiid":"B2094757D16AA6FA459A","title":"川沙客运站","lon":"121.69281","lat":"31.182966","category":"35","category_name":"长途汽车站","address":"上海浦东新区川沙镇妙境路1000号"},{"poiid":"B2094757D16BA6F94992","title":"御仙足道会馆","lon":"121.693655085","lat":"31.1805639912","category":"148","category_name":"美容美发店","address":"上海市浦东新区界龙一路"},{"poiid":"B2094750D664A3F44198","title":"棒约翰比萨(绿地东海岸店)","lon":"121.697","lat":"31.1856","category":"94","category_name":"西餐厅","address":"浦东新区川沙路5558号绿地东海岸国际广场内(近翔川路)"},{"poiid":"B2094655D26BA1F94599","title":"妙境路绣川路","lon":"121.69398","lat":"31.17962","category":"38","category_name":"公交车站","address":""},{"poiid":"B2094654DA6AABFD4793","title":"佳洲欣苑","lon":"121.68719","lat":"31.188461","category":"47","category_name":"住宅区","address":"佳洲欣苑位于浦东新川路969号"},{"poiid":"B2094654DA6AABFB449D","title":"界龙村文化体育中心","lon":"121.6839","lat":"31.17468","category":"248","category_name":"生活娱乐","address":"川沙镇"},{"poiid":"B2094655D26BA2F5439A","title":"浦东中医院","lon":"121.69483","lat":"31.17678","category":"162","category_name":"医院","address":""},{"poiid":"B2094757D064A4F9479C","title":"浦东新区人民医院输液室","lon":"121.688545885","lat":"31.1882260594","category":"162","category_name":"医院","address":"上海急诊二楼"},{"poiid":"B2094757D16DA2FC489E","title":"翔川家园","lon":"121.69607908","lat":"31.181769017","category":"47","category_name":"住宅区","address":"上海市浦东新区翔川路458弄"},{"poiid":"B2094757D16FA3FF4698","title":"憬森茶餐厅","lon":"121.689851085","lat":"31.1898751957","category":"72","category_name":"广东菜","address":"浦东新区新川路855号(近川沙路)"},{"poiid":"B2094751D26BA7FE479E","title":"碧海雲天","lon":"121.686733","lat":"31.186725","category":"248","category_name":"生活娱乐","address":"浦東新區川環南路"},{"poiid":"B2094750D164A5F9439F","title":"上海鸿锦国际酒店","lon":"121.693367958069","lat":"31.1811212203861","category":"215","category_name":"三星级宾馆","address":"浦东新区川沙镇妙境路1136弄58号"},{"poiid":"B2094757D66BA3F5469A","title":"中华聚满楼","lon":"121.6916859","lat":"31.1874396","category":"71","category_name":"四川菜","address":"浦东新区妙境路688号(近南桥路)"},{"poiid":"B2094751D26DA0FC449E","title":"心圆西苑","lon":"121.688842","lat":"31.169088","category":"47","category_name":"住宅区","address":"浦东新区华夏二路1500弄"}]