[{"poiid":"B2094757D068A2FE499F","title":"恒大建材市场","lon":"121.51861373","lat":"31.167549965","category":"123","category_name":"家具建材市场","address":"浦东新区杨高南路3298号(近板泉路)"},{"poiid":"B2094654DB6DA0F9429B","title":"家乐福(新里城店)","lon":"121.52409","lat":"31.16079","category":"118","category_name":"超级市场","address":"浦东新区高青路2671号(近杨高南路)"},{"poiid":"B2094757D068A3FD469B","title":"南江苑","lon":"121.5181","lat":"31.16831","category":"252","category_name":"楼宇机构","address":"上海浦东杨高南路3288弄"},{"poiid":"B2094757D06FA7FC4998","title":"高青路地铁站","lon":"121.516038","lat":"31.15964","category":"36","category_name":"地铁站","address":"上海轨道交通 六号线 轨交高青路站 6"},{"poiid":"B2094757D06FA0FF419A","title":"浦东商场(成山店)","lon":"121.510218","lat":"31.170567","category":"119","category_name":"商场","address":"浦东新区成山路500号(近云台路)"},{"poiid":"B2094757D06FA0FC459C","title":"杨高南路成山路","lon":"121.51868041","lat":"31.174205869","category":"500","category_name":"未知分类","address":"上海杨高南路成山路"},{"poiid":"B2094757D06FA2FF499A","title":"东明路地铁站","lon":"121.51076256","lat":"31.172632523","category":"36","category_name":"地铁站","address":"上海轨道交通 六号线 轨交东明路站 6"},{"poiid":"B2094757D06FA0FA479D","title":"一兆韦德(尚东国际)","lon":"121.51389","lat":"31.16322","category":"221","category_name":"健身中心","address":"上海浦东新区东明路1800弄16号尚东国际名园(近板泉路)"},{"poiid":"B2094757D06FA4F9479D","title":"阿明小菜","lon":"121.517","lat":"31.17739","category":"76","category_name":"上海菜","address":"浦东新区南码头路1510号(近昌里东路)"},{"poiid":"B2094757D064A2F44699","title":"大华锦绣华城4街区(中原地产)","lon":"121.52063807","lat":"31.177469176","category":"47","category_name":"住宅区","address":"上海北艾路1765弄"},{"poiid":"B2094757D06FABF54792","title":"尚东国际名苑一期","lon":"121.510328552","lat":"31.1636018774","category":"47","category_name":"住宅区","address":"上海市浦东新区板泉路1555弄"},{"poiid":"B2094655D269A4FB459E","title":"东明家具广场浦东店","lon":"121.52601","lat":"31.16448","category":"247","category_name":"餐饮美食","address":"浦东新区杨高南路4099号(近成山路)"},{"poiid":"B2094655D26DABFA4492","title":"上海浦东华美达花廷酒店","lon":"121.51438","lat":"31.17331","category":"250","category_name":"公园户外","address":"浦东新区成山路833号(近杨高南路)"},{"poiid":"B2094655D268A5F8439D","title":"南江苑小区(东门)","lon":"121.5197","lat":"31.16764","category":"47","category_name":"住宅区","address":"杨高南路3340弄1-60号"},{"poiid":"B2094757D16FAAFA4693","title":"一兆韦德(新里程店)","lon":"121.52433","lat":"31.15892","category":"148","category_name":"美容美发店","address":"上海浦东新区高清路2671号家乐福  "},{"poiid":"B2094655D26AA3F44492","title":"同福易家丽","lon":"121.52771","lat":"31.16783","category":"47","category_name":"住宅区","address":"浦东新区浦三路1515号(近板泉路)"},{"poiid":"B2094757D06FAAFF4699","title":"香樟苑","lon":"121.51399806067","lat":"31.163260737185","category":"47","category_name":"住宅区","address":"上海浦东新区海阳路1080弄"},{"poiid":"B2094757D069A6F5429E","title":"广灵阁八仙海鲜城","lon":"121.51892745","lat":"31.176472474","category":"72","category_name":"广东菜","address":"浦东新区杨高南路2828号(成山路口)(成山路口)"},{"poiid":"B2094757D66EA3FF4792","title":"村夫烤魚","lon":"121.517260738","lat":"31.1672239586","category":"247","category_name":"餐饮美食","address":"上海板泉路991號"},{"poiid":"B2094757D068ABFA439F","title":"亿家门(南码头店)","lon":"121.51664","lat":"31.17704","category":"76","category_name":"上海菜","address":"浦东新区南码头路1444号(近昌里东路)"},{"poiid":"B2094757D16DA5F4489B","title":"杨高南路板泉路","lon":"121.52093254","lat":"31.166054089","category":"500","category_name":"未知分类","address":"上海杨高南路板泉路"},{"poiid":"B2094757D069A2FA4398","title":"味千拉面(高青路店)","lon":"121.52402489","lat":"31.160210469","category":"68","category_name":"快餐厅","address":"浦东新区高青路2671号家乐福1楼(近杨高南路)"},{"poiid":"B2094655D269ABFE4098","title":"同福易家丽石材交易中心","lon":"121.52046","lat":"31.16879","category":"247","category_name":"餐饮美食","address":"浦东新区杨高南路3251号(近同福村)"},{"poiid":"B2094654DA68A4F9429F","title":"快客No.6378","lon":"121.52066","lat":"31.16804","category":"117","category_name":"便民商店/便利店","address":"杨高南路3251号"},{"poiid":"B2094757D465A4F5489F","title":"肯德基 新里程店 KFC","lon":"121.523146054","lat":"31.161558793","category":"247","category_name":"餐饮美食","address":"浦东新区高青路2671号(近杨高南路)"},{"poiid":"B2094757D66DABF54599","title":"兰丽家居","lon":"121.519253138","lat":"31.1671615573","category":"249","category_name":"购物服务","address":"上海思南路88号"},{"poiid":"B2094750DA64ABFF429C","title":"博宽羽毛球--杨思分部","lon":"121.51007","lat":"31.164768","category":"248","category_name":"生活娱乐","address":"浦东新区杨思路1371号(近东明路)"},{"poiid":"B2094757D66FA0FF499D","title":"尊爵台球","lon":"121.517385738","lat":"31.1671819577","category":"248","category_name":"生活娱乐","address":"上海市浦东新区东明路"},{"poiid":"B2094757D06BA2FF4093","title":"杨高南路高青路","lon":"121.5238785","lat":"31.159734019","category":"500","category_name":"未知分类","address":"上海杨高南路高青路"},{"poiid":"B2094757D06BA7F9439C","title":"悦豪斯（中原地产）","lon":"121.524718338","lat":"31.1744254062","category":"47","category_name":"住宅区","address":"上海市浦东新区华鹏路300弄"},{"poiid":"B2094655D268A4FB459E","title":"世纪华联东明店","lon":"121.52159","lat":"31.16638","category":"117","category_name":"便民商店/便利店","address":""},{"poiid":"B2094654DB65A0FE4599","title":"杨思医院恒大社区卫生服务站","lon":"121.5157","lat":"31.16815","category":"162","category_name":"医院","address":""},{"poiid":"B2094654DA68AAFB4893","title":"南江苑(东门)","lon":"121.5194","lat":"31.16878","category":"656","category_name":"大门","address":"杨高南路3288"},{"poiid":"B2094757D068A2F54193","title":"新浪微博","lon":"121.51908094","lat":"31.168002937","category":"260","category_name":"其他","address":"淮安新浪微博"},{"poiid":"B2094654DA68A4F9449A","title":"陈记海鲜大排档","lon":"121.5218","lat":"31.16902","category":"88","category_name":"海鲜酒楼","address":"浦东新区杨高南路3251号同福石材市场内"},{"poiid":"B209475CD164A0FD4593","title":"虹桥火车站","lon":"121.520141","lat":"31.16542","category":"500","category_name":"未知分类","address":"上海市 虹桥"},{"poiid":"B2094757D66EA6FA4293","title":"武警浦东医院","lon":"121.51909863","lat":"31.163975589","category":"162","category_name":"医院","address":"浦东新区云台路265号(近成山路)"},{"poiid":"B2094654DB64A1FB4298","title":"尚东国际名园Ⅱ","lon":"121.51292","lat":"31.16119","category":"47","category_name":"住宅区","address":""},{"poiid":"B2094654DA68AAF54498","title":"恒大陶瓷展厅","lon":"121.5183","lat":"31.16508","category":"123","category_name":"家具建材市场","address":""},{"poiid":"B2094751D469A3FB4698","title":"欢歌量贩ktv","lon":"121.523066","lat":"31.16951","category":"170","category_name":"KTV","address":"三林板泉路2055号(近浦三路)"},{"poiid":"B2094757D465A3FD489D","title":"邵记传菜 成山店","lon":"121.516528","lat":"31.174158","category":"247","category_name":"餐饮美食","address":"浦东新区成山路861号(近邹平路)"},{"poiid":"B2094757D069A5F44398","title":"争鲜回转寿司 新里程店","lon":"121.523134054","lat":"31.161110793","category":"95","category_name":"日本料理","address":"浦东新区高青路2671号(近杨高南路)"},{"poiid":"B2094654DA69A3FA429D","title":"成山路公交停车场办公大楼","lon":"121.51777","lat":"31.17348","category":"46","category_name":"楼宇","address":""},{"poiid":"B2094654DA68A4F9499D","title":"世纪华联超市No.1898","lon":"121.52233","lat":"31.1694","category":"117","category_name":"便民商店/便利店","address":""},{"poiid":"B2094757D66DA6FA4099","title":"虹中路紫乐路","lon":"121.515809","lat":"31.167653","category":"500","category_name":"未知分类","address":"上海韩国小店"},{"poiid":"B2094655D26AA4F4419E","title":"卓力高级轿车修理厂","lon":"121.51955","lat":"31.17107","category":"247","category_name":"餐饮美食","address":"浦东新区杨高南路3205号(近板泉路)"},{"poiid":"B2094655D36CA4FC479E","title":"板泉路东明路","lon":"121.51492","lat":"31.16313","category":"38","category_name":"公交车站","address":""},{"poiid":"B2094752D36CABFE469E","title":"地铁站","lon":"121.522789","lat":"31.158052","category":"36","category_name":"地铁站","address":"6号线民生路站"},{"poiid":"B2094654DB6DA7FC449C","title":"宜家乐地板批发","lon":"121.51818","lat":"31.16359","category":"123","category_name":"家具建材市场","address":"恒大市场板泉路2947"},{"poiid":"B2094757D064A1FB4293","title":"上南路成山路","lon":"121.51630523","lat":"31.164725405","category":"500","category_name":"未知分类","address":"上海上南路成山路"},{"poiid":"B2094757D068A2FE499F","title":"恒大建材市场","lon":"121.51861373","lat":"31.167549965","category":"123","category_name":"家具建材市场","address":"浦东新区杨高南路3298号(近板泉路)"},{"poiid":"B2094654DB6DA0F9429B","title":"家乐福(新里城店)","lon":"121.52409","lat":"31.16079","category":"118","category_name":"超级市场","address":"浦东新区高青路2671号(近杨高南路)"},{"poiid":"B2094757D068A3FD469B","title":"南江苑","lon":"121.5181","lat":"31.16831","category":"252","category_name":"楼宇机构","address":"上海浦东杨高南路3288弄"},{"poiid":"B2094757D06FA7FC4998","title":"高青路地铁站","lon":"121.516038","lat":"31.15964","category":"36","category_name":"地铁站","address":"上海轨道交通 六号线 轨交高青路站 6"},{"poiid":"B2094757D06FA0FF419A","title":"浦东商场(成山店)","lon":"121.510218","lat":"31.170567","category":"119","category_name":"商场","address":"浦东新区成山路500号(近云台路)"},{"poiid":"B2094757D06FA0FC459C","title":"杨高南路成山路","lon":"121.51868041","lat":"31.174205869","category":"500","category_name":"未知分类","address":"上海杨高南路成山路"},{"poiid":"B2094757D06FA2FF499A","title":"东明路地铁站","lon":"121.51076256","lat":"31.172632523","category":"36","category_name":"地铁站","address":"上海轨道交通 六号线 轨交东明路站 6"},{"poiid":"B2094757D06FA0FA479D","title":"一兆韦德(尚东国际)","lon":"121.51389","lat":"31.16322","category":"221","category_name":"健身中心","address":"上海浦东新区东明路1800弄16号尚东国际名园(近板泉路)"},{"poiid":"B2094757D06FA4F9479D","title":"阿明小菜","lon":"121.517","lat":"31.17739","category":"76","category_name":"上海菜","address":"浦东新区南码头路1510号(近昌里东路)"},{"poiid":"B2094757D064A2F44699","title":"大华锦绣华城4街区(中原地产)","lon":"121.52063807","lat":"31.177469176","category":"47","category_name":"住宅区","address":"上海北艾路1765弄"},{"poiid":"B2094757D06FABF54792","title":"尚东国际名苑一期","lon":"121.510328552","lat":"31.1636018774","category":"47","category_name":"住宅区","address":"上海市浦东新区板泉路1555弄"},{"poiid":"B2094655D269A4FB459E","title":"东明家具广场浦东店","lon":"121.52601","lat":"31.16448","category":"247","category_name":"餐饮美食","address":"浦东新区杨高南路4099号(近成山路)"},{"poiid":"B2094655D26DABFA4492","title":"上海浦东华美达花廷酒店","lon":"121.51438","lat":"31.17331","category":"250","category_name":"公园户外","address":"浦东新区成山路833号(近杨高南路)"},{"poiid":"B2094655D268A5F8439D","title":"南江苑小区(东门)","lon":"121.5197","lat":"31.16764","category":"47","category_name":"住宅区","address":"杨高南路3340弄1-60号"},{"poiid":"B2094757D16FAAFA4693","title":"一兆韦德(新里程店)","lon":"121.52433","lat":"31.15892","category":"148","category_name":"美容美发店","address":"上海浦东新区高清路2671号家乐福  "},{"poiid":"B2094655D26AA3F44492","title":"同福易家丽","lon":"121.52771","lat":"31.16783","category":"47","category_name":"住宅区","address":"浦东新区浦三路1515号(近板泉路)"},{"poiid":"B2094757D06FAAFF4699","title":"香樟苑","lon":"121.51399806067","lat":"31.163260737185","category":"47","category_name":"住宅区","address":"上海浦东新区海阳路1080弄"},{"poiid":"B2094757D069A6F5429E","title":"广灵阁八仙海鲜城","lon":"121.51892745","lat":"31.176472474","category":"72","category_name":"广东菜","address":"浦东新区杨高南路2828号(成山路口)(成山路口)"},{"poiid":"B2094757D66EA3FF4792","title":"村夫烤魚","lon":"121.517260738","lat":"31.1672239586","category":"247","category_name":"餐饮美食","address":"上海板泉路991號"},{"poiid":"B2094757D068ABFA439F","title":"亿家门(南码头店)","lon":"121.51664","lat":"31.17704","category":"76","category_name":"上海菜","address":"浦东新区南码头路1444号(近昌里东路)"},{"poiid":"B2094757D16DA5F4489B","title":"杨高南路板泉路","lon":"121.52093254","lat":"31.166054089","category":"500","category_name":"未知分类","address":"上海杨高南路板泉路"},{"poiid":"B2094757D069A2FA4398","title":"味千拉面(高青路店)","lon":"121.52402489","lat":"31.160210469","category":"68","category_name":"快餐厅","address":"浦东新区高青路2671号家乐福1楼(近杨高南路)"},{"poiid":"B2094655D269ABFE4098","title":"同福易家丽石材交易中心","lon":"121.52046","lat":"31.16879","category":"247","category_name":"餐饮美食","address":"浦东新区杨高南路3251号(近同福村)"},{"poiid":"B2094654DA68A4F9429F","title":"快客No.6378","lon":"121.52066","lat":"31.16804","category":"117","category_name":"便民商店/便利店","address":"杨高南路3251号"},{"poiid":"B2094757D465A4F5489F","title":"肯德基 新里程店 KFC","lon":"121.523146054","lat":"31.161558793","category":"247","category_name":"餐饮美食","address":"浦东新区高青路2671号(近杨高南路)"},{"poiid":"B2094757D66DABF54599","title":"兰丽家居","lon":"121.519253138","lat":"31.1671615573","category":"249","category_name":"购物服务","address":"上海思南路88号"},{"poiid":"B2094750DA64ABFF429C","title":"博宽羽毛球--杨思分部","lon":"121.51007","lat":"31.164768","category":"248","category_name":"生活娱乐","address":"浦东新区杨思路1371号(近东明路)"},{"poiid":"B2094757D66FA0FF499D","title":"尊爵台球","lon":"121.517385738","lat":"31.1671819577","category":"248","category_name":"生活娱乐","address":"上海市浦东新区东明路"},{"poiid":"B2094757D06BA2FF4093","title":"杨高南路高青路","lon":"121.5238785","lat":"31.159734019","category":"500","category_name":"未知分类","address":"上海杨高南路高青路"},{"poiid":"B2094757D06BA7F9439C","title":"悦豪斯（中原地产）","lon":"121.524718338","lat":"31.1744254062","category":"47","category_name":"住宅区","address":"上海市浦东新区华鹏路300弄"},{"poiid":"B2094655D268A4FB459E","title":"世纪华联东明店","lon":"121.52159","lat":"31.16638","category":"117","category_name":"便民商店/便利店","address":""},{"poiid":"B2094654DB65A0FE4599","title":"杨思医院恒大社区卫生服务站","lon":"121.5157","lat":"31.16815","category":"162","category_name":"医院","address":""},{"poiid":"B2094654DA68AAFB4893","title":"南江苑(东门)","lon":"121.5194","lat":"31.16878","category":"656","category_name":"大门","address":"杨高南路3288"},{"poiid":"B2094757D068A2F54193","title":"新浪微博","lon":"121.51908094","lat":"31.168002937","category":"260","category_name":"其他","address":"淮安新浪微博"},{"poiid":"B2094654DA68A4F9449A","title":"陈记海鲜大排档","lon":"121.5218","lat":"31.16902","category":"88","category_name":"海鲜酒楼","address":"浦东新区杨高南路3251号同福石材市场内"},{"poiid":"B209475CD164A0FD4593","title":"虹桥火车站","lon":"121.520141","lat":"31.16542","category":"500","category_name":"未知分类","address":"上海市 虹桥"},{"poiid":"B2094757D66EA6FA4293","title":"武警浦东医院","lon":"121.51909863","lat":"31.163975589","category":"162","category_name":"医院","address":"浦东新区云台路265号(近成山路)"},{"poiid":"B2094654DB64A1FB4298","title":"尚东国际名园Ⅱ","lon":"121.51292","lat":"31.16119","category":"47","category_name":"住宅区","address":""},{"poiid":"B2094654DA68AAF54498","title":"恒大陶瓷展厅","lon":"121.5183","lat":"31.16508","category":"123","category_name":"家具建材市场","address":""},{"poiid":"B2094751D469A3FB4698","title":"欢歌量贩ktv","lon":"121.523066","lat":"31.16951","category":"170","category_name":"KTV","address":"三林板泉路2055号(近浦三路)"},{"poiid":"B2094757D465A3FD489D","title":"邵记传菜 成山店","lon":"121.516528","lat":"31.174158","category":"247","category_name":"餐饮美食","address":"浦东新区成山路861号(近邹平路)"},{"poiid":"B2094757D069A5F44398","title":"争鲜回转寿司 新里程店","lon":"121.523134054","lat":"31.161110793","category":"95","category_name":"日本料理","address":"浦东新区高青路2671号(近杨高南路)"},{"poiid":"B2094654DA69A3FA429D","title":"成山路公交停车场办公大楼","lon":"121.51777","lat":"31.17348","category":"46","category_name":"楼宇","address":""},{"poiid":"B2094654DA68A4F9499D","title":"世纪华联超市No.1898","lon":"121.52233","lat":"31.1694","category":"117","category_name":"便民商店/便利店","address":""},{"poiid":"B2094757D66DA6FA4099","title":"虹中路紫乐路","lon":"121.515809","lat":"31.167653","category":"500","category_name":"未知分类","address":"上海韩国小店"},{"poiid":"B2094655D26AA4F4419E","title":"卓力高级轿车修理厂","lon":"121.51955","lat":"31.17107","category":"247","category_name":"餐饮美食","address":"浦东新区杨高南路3205号(近板泉路)"},{"poiid":"B2094655D36CA4FC479E","title":"板泉路东明路","lon":"121.51492","lat":"31.16313","category":"38","category_name":"公交车站","address":""},{"poiid":"B2094752D36CABFE469E","title":"地铁站","lon":"121.522789","lat":"31.158052","category":"36","category_name":"地铁站","address":"6号线民生路站"},{"poiid":"B2094654DB6DA7FC449C","title":"宜家乐地板批发","lon":"121.51818","lat":"31.16359","category":"123","category_name":"家具建材市场","address":"恒大市场板泉路2947"},{"poiid":"B2094757D064A1FB4293","title":"上南路成山路","lon":"121.51630523","lat":"31.164725405","category":"500","category_name":"未知分类","address":"上海上南路成山路"},{"poiid":"B2094757D068A2FE499F","title":"恒大建材市场","lon":"121.51861373","lat":"31.167549965","category":"123","category_name":"家具建材市场","address":"浦东新区杨高南路3298号(近板泉路)"},{"poiid":"B2094654DB6DA0F9429B","title":"家乐福(新里城店)","lon":"121.52409","lat":"31.16079","category":"118","category_name":"超级市场","address":"浦东新区高青路2671号(近杨高南路)"},{"poiid":"B2094757D068A3FD469B","title":"南江苑","lon":"121.5181","lat":"31.16831","category":"252","category_name":"楼宇机构","address":"上海浦东杨高南路3288弄"},{"poiid":"B2094757D06FA7FC4998","title":"高青路地铁站","lon":"121.516038","lat":"31.15964","category":"36","category_name":"地铁站","address":"上海轨道交通 六号线 轨交高青路站 6"},{"poiid":"B2094757D06FA0FF419A","title":"浦东商场(成山店)","lon":"121.510218","lat":"31.170567","category":"119","category_name":"商场","address":"浦东新区成山路500号(近云台路)"},{"poiid":"B2094757D06FA0FC459C","title":"杨高南路成山路","lon":"121.51868041","lat":"31.174205869","category":"500","category_name":"未知分类","address":"上海杨高南路成山路"},{"poiid":"B2094757D06FA2FF499A","title":"东明路地铁站","lon":"121.51076256","lat":"31.172632523","category":"36","category_name":"地铁站","address":"上海轨道交通 六号线 轨交东明路站 6"},{"poiid":"B2094757D06FA0FA479D","title":"一兆韦德(尚东国际)","lon":"121.51389","lat":"31.16322","category":"221","category_name":"健身中心","address":"上海浦东新区东明路1800弄16号尚东国际名园(近板泉路)"},{"poiid":"B2094757D06FA4F9479D","title":"阿明小菜","lon":"121.517","lat":"31.17739","category":"76","category_name":"上海菜","address":"浦东新区南码头路1510号(近昌里东路)"},{"poiid":"B2094757D064A2F44699","title":"大华锦绣华城4街区(中原地产)","lon":"121.52063807","lat":"31.177469176","category":"47","category_name":"住宅区","address":"上海北艾路1765弄"},{"poiid":"B2094757D06FABF54792","title":"尚东国际名苑一期","lon":"121.510328552","lat":"31.1636018774","category":"47","category_name":"住宅区","address":"上海市浦东新区板泉路1555弄"},{"poiid":"B2094655D269A4FB459E","title":"东明家具广场浦东店","lon":"121.52601","lat":"31.16448","category":"247","category_name":"餐饮美食","address":"浦东新区杨高南路4099号(近成山路)"},{"poiid":"B2094655D26DABFA4492","title":"上海浦东华美达花廷酒店","lon":"121.51438","lat":"31.17331","category":"250","category_name":"公园户外","address":"浦东新区成山路833号(近杨高南路)"},{"poiid":"B2094655D268A5F8439D","title":"南江苑小区(东门)","lon":"121.5197","lat":"31.16764","category":"47","category_name":"住宅区","address":"杨高南路3340弄1-60号"},{"poiid":"B2094757D16FAAFA4693","title":"一兆韦德(新里程店)","lon":"121.52433","lat":"31.15892","category":"148","category_name":"美容美发店","address":"上海浦东新区高清路2671号家乐福  "},{"poiid":"B2094655D26AA3F44492","title":"同福易家丽","lon":"121.52771","lat":"31.16783","category":"47","category_name":"住宅区","address":"浦东新区浦三路1515号(近板泉路)"},{"poiid":"B2094757D06FAAFF4699","title":"香樟苑","lon":"121.51399806067","lat":"31.163260737185","category":"47","category_name":"住宅区","address":"上海浦东新区海阳路1080弄"},{"poiid":"B2094757D069A6F5429E","title":"广灵阁八仙海鲜城","lon":"121.51892745","lat":"31.176472474","category":"72","category_name":"广东菜","address":"浦东新区杨高南路2828号(成山路口)(成山路口)"},{"poiid":"B2094757D66EA3FF4792","title":"村夫烤魚","lon":"121.517260738","lat":"31.1672239586","category":"247","category_name":"餐饮美食","address":"上海板泉路991號"},{"poiid":"B2094757D068ABFA439F","title":"亿家门(南码头店)","lon":"121.51664","lat":"31.17704","category":"76","category_name":"上海菜","address":"浦东新区南码头路1444号(近昌里东路)"},{"poiid":"B2094757D16DA5F4489B","title":"杨高南路板泉路","lon":"121.52093254","lat":"31.166054089","category":"500","category_name":"未知分类","address":"上海杨高南路板泉路"},{"poiid":"B2094757D069A2FA4398","title":"味千拉面(高青路店)","lon":"121.52402489","lat":"31.160210469","category":"68","category_name":"快餐厅","address":"浦东新区高青路2671号家乐福1楼(近杨高南路)"},{"poiid":"B2094655D269ABFE4098","title":"同福易家丽石材交易中心","lon":"121.52046","lat":"31.16879","category":"247","category_name":"餐饮美食","address":"浦东新区杨高南路3251号(近同福村)"},{"poiid":"B2094654DA68A4F9429F","title":"快客No.6378","lon":"121.52066","lat":"31.16804","category":"117","category_name":"便民商店/便利店","address":"杨高南路3251号"},{"poiid":"B2094757D465A4F5489F","title":"肯德基 新里程店 KFC","lon":"121.523146054","lat":"31.161558793","category":"247","category_name":"餐饮美食","address":"浦东新区高青路2671号(近杨高南路)"},{"poiid":"B2094757D66DABF54599","title":"兰丽家居","lon":"121.519253138","lat":"31.1671615573","category":"249","category_name":"购物服务","address":"上海思南路88号"},{"poiid":"B2094750DA64ABFF429C","title":"博宽羽毛球--杨思分部","lon":"121.51007","lat":"31.164768","category":"248","category_name":"生活娱乐","address":"浦东新区杨思路1371号(近东明路)"},{"poiid":"B2094757D66FA0FF499D","title":"尊爵台球","lon":"121.517385738","lat":"31.1671819577","category":"248","category_name":"生活娱乐","address":"上海市浦东新区东明路"},{"poiid":"B2094757D06BA2FF4093","title":"杨高南路高青路","lon":"121.5238785","lat":"31.159734019","category":"500","category_name":"未知分类","address":"上海杨高南路高青路"},{"poiid":"B2094757D06BA7F9439C","title":"悦豪斯（中原地产）","lon":"121.524718338","lat":"31.1744254062","category":"47","category_name":"住宅区","address":"上海市浦东新区华鹏路300弄"},{"poiid":"B2094655D268A4FB459E","title":"世纪华联东明店","lon":"121.52159","lat":"31.16638","category":"117","category_name":"便民商店/便利店","address":""},{"poiid":"B2094654DB65A0FE4599","title":"杨思医院恒大社区卫生服务站","lon":"121.5157","lat":"31.16815","category":"162","category_name":"医院","address":""},{"poiid":"B2094654DA68AAFB4893","title":"南江苑(东门)","lon":"121.5194","lat":"31.16878","category":"656","category_name":"大门","address":"杨高南路3288"},{"poiid":"B2094757D068A2F54193","title":"新浪微博","lon":"121.51908094","lat":"31.168002937","category":"260","category_name":"其他","address":"淮安新浪微博"},{"poiid":"B2094654DA68A4F9449A","title":"陈记海鲜大排档","lon":"121.5218","lat":"31.16902","category":"88","category_name":"海鲜酒楼","address":"浦东新区杨高南路3251号同福石材市场内"},{"poiid":"B209475CD164A0FD4593","title":"虹桥火车站","lon":"121.520141","lat":"31.16542","category":"500","category_name":"未知分类","address":"上海市 虹桥"},{"poiid":"B2094757D66EA6FA4293","title":"武警浦东医院","lon":"121.51909863","lat":"31.163975589","category":"162","category_name":"医院","address":"浦东新区云台路265号(近成山路)"},{"poiid":"B2094654DB64A1FB4298","title":"尚东国际名园Ⅱ","lon":"121.51292","lat":"31.16119","category":"47","category_name":"住宅区","address":""},{"poiid":"B2094654DA68AAF54498","title":"恒大陶瓷展厅","lon":"121.5183","lat":"31.16508","category":"123","category_name":"家具建材市场","address":""},{"poiid":"B2094751D469A3FB4698","title":"欢歌量贩ktv","lon":"121.523066","lat":"31.16951","category":"170","category_name":"KTV","address":"三林板泉路2055号(近浦三路)"},{"poiid":"B2094757D465A3FD489D","title":"邵记传菜 成山店","lon":"121.516528","lat":"31.174158","category":"247","category_name":"餐饮美食","address":"浦东新区成山路861号(近邹平路)"},{"poiid":"B2094757D069A5F44398","title":"争鲜回转寿司 新里程店","lon":"121.523134054","lat":"31.161110793","category":"95","category_name":"日本料理","address":"浦东新区高青路2671号(近杨高南路)"},{"poiid":"B2094654DA69A3FA429D","title":"成山路公交停车场办公大楼","lon":"121.51777","lat":"31.17348","category":"46","category_name":"楼宇","address":""},{"poiid":"B2094654DA68A4F9499D","title":"世纪华联超市No.1898","lon":"121.52233","lat":"31.1694","category":"117","category_name":"便民商店/便利店","address":""},{"poiid":"B2094757D66DA6FA4099","title":"虹中路紫乐路","lon":"121.515809","lat":"31.167653","category":"500","category_name":"未知分类","address":"上海韩国小店"},{"poiid":"B2094655D26AA4F4419E","title":"卓力高级轿车修理厂","lon":"121.51955","lat":"31.17107","category":"247","category_name":"餐饮美食","address":"浦东新区杨高南路3205号(近板泉路)"},{"poiid":"B2094655D36CA4FC479E","title":"板泉路东明路","lon":"121.51492","lat":"31.16313","category":"38","category_name":"公交车站","address":""},{"poiid":"B2094752D36CABFE469E","title":"地铁站","lon":"121.522789","lat":"31.158052","category":"36","category_name":"地铁站","address":"6号线民生路站"},{"poiid":"B2094654DB6DA7FC449C","title":"宜家乐地板批发","lon":"121.51818","lat":"31.16359","category":"123","category_name":"家具建材市场","address":"恒大市场板泉路2947"},{"poiid":"B2094757D064A1FB4293","title":"上南路成山路","lon":"121.51630523","lat":"31.164725405","category":"500","category_name":"未知分类","address":"上海上南路成山路"},{"poiid":"B2094757D068A2FE499F","title":"恒大建材市场","lon":"121.51861373","lat":"31.167549965","category":"123","category_name":"家具建材市场","address":"浦东新区杨高南路3298号(近板泉路)"},{"poiid":"B2094654DB6DA0F9429B","title":"家乐福(新里城店)","lon":"121.52409","lat":"31.16079","category":"118","category_name":"超级市场","address":"浦东新区高青路2671号(近杨高南路)"},{"poiid":"B2094757D068A3FD469B","title":"南江苑","lon":"121.5181","lat":"31.16831","category":"252","category_name":"楼宇机构","address":"上海浦东杨高南路3288弄"},{"poiid":"B2094757D06FA7FC4998","title":"高青路地铁站","lon":"121.516038","lat":"31.15964","category":"36","category_name":"地铁站","address":"上海轨道交通 六号线 轨交高青路站 6"},{"poiid":"B2094757D06FA0FF419A","title":"浦东商场(成山店)","lon":"121.510218","lat":"31.170567","category":"119","category_name":"商场","address":"浦东新区成山路500号(近云台路)"},{"poiid":"B2094757D06FA0FC459C","title":"杨高南路成山路","lon":"121.51868041","lat":"31.174205869","category":"500","category_name":"未知分类","address":"上海杨高南路成山路"},{"poiid":"B2094757D06FA2FF499A","title":"东明路地铁站","lon":"121.51076256","lat":"31.172632523","category":"36","category_name":"地铁站","address":"上海轨道交通 六号线 轨交东明路站 6"},{"poiid":"B2094757D06FA0FA479D","title":"一兆韦德(尚东国际)","lon":"121.51389","lat":"31.16322","category":"221","category_name":"健身中心","address":"上海浦东新区东明路1800弄16号尚东国际名园(近板泉路)"},{"poiid":"B2094757D06FA4F9479D","title":"阿明小菜","lon":"121.517","lat":"31.17739","category":"76","category_name":"上海菜","address":"浦东新区南码头路1510号(近昌里东路)"},{"poiid":"B2094757D064A2F44699","title":"大华锦绣华城4街区(中原地产)","lon":"121.52063807","lat":"31.177469176","category":"47","category_name":"住宅区","address":"上海北艾路1765弄"},{"poiid":"B2094757D06FABF54792","title":"尚东国际名苑一期","lon":"121.510328552","lat":"31.1636018774","category":"47","category_name":"住宅区","address":"上海市浦东新区板泉路1555弄"},{"poiid":"B2094655D269A4FB459E","title":"东明家具广场浦东店","lon":"121.52601","lat":"31.16448","category":"247","category_name":"餐饮美食","address":"浦东新区杨高南路4099号(近成山路)"},{"poiid":"B2094655D26DABFA4492","title":"上海浦东华美达花廷酒店","lon":"121.51438","lat":"31.17331","category":"250","category_name":"公园户外","address":"浦东新区成山路833号(近杨高南路)"},{"poiid":"B2094655D268A5F8439D","title":"南江苑小区(东门)","lon":"121.5197","lat":"31.16764","category":"47","category_name":"住宅区","address":"杨高南路3340弄1-60号"},{"poiid":"B2094757D16FAAFA4693","title":"一兆韦德(新里程店)","lon":"121.52433","lat":"31.15892","category":"148","category_name":"美容美发店","address":"上海浦东新区高清路2671号家乐福  "},{"poiid":"B2094655D26AA3F44492","title":"同福易家丽","lon":"121.52771","lat":"31.16783","category":"47","category_name":"住宅区","address":"浦东新区浦三路1515号(近板泉路)"},{"poiid":"B2094757D06FAAFF4699","title":"香樟苑","lon":"121.51399806067","lat":"31.163260737185","category":"47","category_name":"住宅区","address":"上海浦东新区海阳路1080弄"},{"poiid":"B2094757D069A6F5429E","title":"广灵阁八仙海鲜城","lon":"121.51892745","lat":"31.176472474","category":"72","category_name":"广东菜","address":"浦东新区杨高南路2828号(成山路口)(成山路口)"},{"poiid":"B2094757D66EA3FF4792","title":"村夫烤魚","lon":"121.517260738","lat":"31.1672239586","category":"247","category_name":"餐饮美食","address":"上海板泉路991號"},{"poiid":"B2094757D068ABFA439F","title":"亿家门(南码头店)","lon":"121.51664","lat":"31.17704","category":"76","category_name":"上海菜","address":"浦东新区南码头路1444号(近昌里东路)"},{"poiid":"B2094757D16DA5F4489B","title":"杨高南路板泉路","lon":"121.52093254","lat":"31.166054089","category":"500","category_name":"未知分类","address":"上海杨高南路板泉路"},{"poiid":"B2094757D069A2FA4398","title":"味千拉面(高青路店)","lon":"121.52402489","lat":"31.160210469","category":"68","category_name":"快餐厅","address":"浦东新区高青路2671号家乐福1楼(近杨高南路)"},{"poiid":"B2094655D269ABFE4098","title":"同福易家丽石材交易中心","lon":"121.52046","lat":"31.16879","category":"247","category_name":"餐饮美食","address":"浦东新区杨高南路3251号(近同福村)"},{"poiid":"B2094654DA68A4F9429F","title":"快客No.6378","lon":"121.52066","lat":"31.16804","category":"117","category_name":"便民商店/便利店","address":"杨高南路3251号"},{"poiid":"B2094757D465A4F5489F","title":"肯德基 新里程店 KFC","lon":"121.523146054","lat":"31.161558793","category":"247","category_name":"餐饮美食","address":"浦东新区高青路2671号(近杨高南路)"},{"poiid":"B2094757D66DABF54599","title":"兰丽家居","lon":"121.519253138","lat":"31.1671615573","category":"249","category_name":"购物服务","address":"上海思南路88号"},{"poiid":"B2094750DA64ABFF429C","title":"博宽羽毛球--杨思分部","lon":"121.51007","lat":"31.164768","category":"248","category_name":"生活娱乐","address":"浦东新区杨思路1371号(近东明路)"},{"poiid":"B2094757D66FA0FF499D","title":"尊爵台球","lon":"121.517385738","lat":"31.1671819577","category":"248","category_name":"生活娱乐","address":"上海市浦东新区东明路"},{"poiid":"B2094757D06BA2FF4093","title":"杨高南路高青路","lon":"121.5238785","lat":"31.159734019","category":"500","category_name":"未知分类","address":"上海杨高南路高青路"},{"poiid":"B2094757D06BA7F9439C","title":"悦豪斯（中原地产）","lon":"121.524718338","lat":"31.1744254062","category":"47","category_name":"住宅区","address":"上海市浦东新区华鹏路300弄"},{"poiid":"B2094655D268A4FB459E","title":"世纪华联东明店","lon":"121.52159","lat":"31.16638","category":"117","category_name":"便民商店/便利店","address":""},{"poiid":"B2094654DB65A0FE4599","title":"杨思医院恒大社区卫生服务站","lon":"121.5157","lat":"31.16815","category":"162","category_name":"医院","address":""},{"poiid":"B2094654DA68AAFB4893","title":"南江苑(东门)","lon":"121.5194","lat":"31.16878","category":"656","category_name":"大门","address":"杨高南路3288"},{"poiid":"B2094757D068A2F54193","title":"新浪微博","lon":"121.51908094","lat":"31.168002937","category":"260","category_name":"其他","address":"淮安新浪微博"},{"poiid":"B2094654DA68A4F9449A","title":"陈记海鲜大排档","lon":"121.5218","lat":"31.16902","category":"88","category_name":"海鲜酒楼","address":"浦东新区杨高南路3251号同福石材市场内"},{"poiid":"B209475CD164A0FD4593","title":"虹桥火车站","lon":"121.520141","lat":"31.16542","category":"500","category_name":"未知分类","address":"上海市 虹桥"},{"poiid":"B2094757D66EA6FA4293","title":"武警浦东医院","lon":"121.51909863","lat":"31.163975589","category":"162","category_name":"医院","address":"浦东新区云台路265号(近成山路)"},{"poiid":"B2094654DB64A1FB4298","title":"尚东国际名园Ⅱ","lon":"121.51292","lat":"31.16119","category":"47","category_name":"住宅区","address":""},{"poiid":"B2094654DA68AAF54498","title":"恒大陶瓷展厅","lon":"121.5183","lat":"31.16508","category":"123","category_name":"家具建材市场","address":""},{"poiid":"B2094751D469A3FB4698","title":"欢歌量贩ktv","lon":"121.523066","lat":"31.16951","category":"170","category_name":"KTV","address":"三林板泉路2055号(近浦三路)"},{"poiid":"B2094757D465A3FD489D","title":"邵记传菜 成山店","lon":"121.516528","lat":"31.174158","category":"247","category_name":"餐饮美食","address":"浦东新区成山路861号(近邹平路)"},{"poiid":"B2094757D069A5F44398","title":"争鲜回转寿司 新里程店","lon":"121.523134054","lat":"31.161110793","category":"95","category_name":"日本料理","address":"浦东新区高青路2671号(近杨高南路)"},{"poiid":"B2094654DA69A3FA429D","title":"成山路公交停车场办公大楼","lon":"121.51777","lat":"31.17348","category":"46","category_name":"楼宇","address":""},{"poiid":"B2094654DA68A4F9499D","title":"世纪华联超市No.1898","lon":"121.52233","lat":"31.1694","category":"117","category_name":"便民商店/便利店","address":""},{"poiid":"B2094757D66DA6FA4099","title":"虹中路紫乐路","lon":"121.515809","lat":"31.167653","category":"500","category_name":"未知分类","address":"上海韩国小店"},{"poiid":"B2094655D26AA4F4419E","title":"卓力高级轿车修理厂","lon":"121.51955","lat":"31.17107","category":"247","category_name":"餐饮美食","address":"浦东新区杨高南路3205号(近板泉路)"},{"poiid":"B2094655D36CA4FC479E","title":"板泉路东明路","lon":"121.51492","lat":"31.16313","category":"38","category_name":"公交车站","address":""},{"poiid":"B2094752D36CABFE469E","title":"地铁站","lon":"121.522789","lat":"31.158052","category":"36","category_name":"地铁站","address":"6号线民生路站"},{"poiid":"B2094654DB6DA7FC449C","title":"宜家乐地板批发","lon":"121.51818","lat":"31.16359","category":"123","category_name":"家具建材市场","address":"恒大市场板泉路2947"},{"poiid":"B2094757D064A1FB4293","title":"上南路成山路","lon":"121.51630523","lat":"31.164725405","category":"500","category_name":"未知分类","address":"上海上南路成山路"}]