[{"poiid":"B2094655D265A6F8469F","title":"上海金海岸度假村","lon":"121.56421","lat":"30.85602","category":"214","category_name":"四星级宾馆","address":"近郊奉贤区星火开发区民乐路9号(近中心路)"},{"poiid":"B2094757D16AABFF489A","title":"世贸爱马尚郡","lon":"121.56173115","lat":"30.859614265","category":"500","category_name":"未知分类","address":"上海明城路588弄"},{"poiid":"B2094757D06BA1F84199","title":"星火农场","lon":"121.558595","lat":"30.857494","category":"500","category_name":"未知分类","address":"上海奉贤区海湾镇"},{"poiid":"B2094757D06FAAFB469D","title":"星火教练场","lon":"121.56797","lat":"30.855997","category":"260","category_name":"其他","address":"上海市奉贤区随塘河路星火教练场"},{"poiid":"B2094655D26BA0FE419D","title":"世茂爱马尚郡","lon":"121.55832","lat":"30.85744","category":"47","category_name":"住宅区","address":"奉贤民乐路28弄"},{"poiid":"B2094654DB64ABFB409B","title":"海滨二村","lon":"121.56913","lat":"30.85935","category":"47","category_name":"住宅区","address":"海滨二村"},{"poiid":"B2094655D36DA0FE4598","title":"星火场部","lon":"121.56669","lat":"30.85833","category":"38","category_name":"公交车站","address":""},{"poiid":"B2094655D36DA0FE459E","title":"星火开发区","lon":"121.56556","lat":"30.86139","category":"38","category_name":"公交车站","address":""},{"poiid":"B2094654DB64ABFA499C","title":"上海市星火开发区明城新村(纺织大楼东)","lon":"121.56114","lat":"30.85867","category":"47","category_name":"住宅区","address":"星火开发区民乐路88号"},{"poiid":"B2094654DB68ABFD4492","title":"光明乳业星火配送站","lon":"121.57036","lat":"30.86006","category":"117","category_name":"便民商店/便利店","address":""},{"poiid":"B2094757D164A2FF4793","title":"潮湖饭店","lon":"121.570295","lat":"30.859683","category":"247","category_name":"餐饮美食","address":"上海奉贤区海湾镇星火"},{"poiid":"B2094654DB64A5FC4793","title":"农工商超市(星火店)","lon":"121.56728","lat":"30.85996","category":"118","category_name":"超级市场","address":"奉贤区海湾镇星火农场农工商大道228号(原海滨影剧院)"},{"poiid":"B2094655D26EABFF4598","title":"中国电信(星火营业厅)","lon":"121.55855","lat":"30.85742","category":"151","category_name":"电讯营业厅","address":"奉贤区星火开发区民乐路101号"},{"poiid":"B2094757D165A0F54198","title":"上海中西三维药业有限公司星火基地","lon":"121.553241816","lat":"30.855004064","category":"46","category_name":"楼宇","address":"上海市奉贤区星火开发区白云路3号"},{"poiid":"B2094655D26DA5FC489E","title":"明城玫瑰园","lon":"121.55962","lat":"30.861191","category":"47","category_name":"住宅区","address":"上海市奉贤区明城路1166弄"},{"poiid":"B2094655D264A0FB4199","title":"上海都市菜园","lon":"121.56729","lat":"30.85997","category":"248","category_name":"生活娱乐","address":"海湾镇星火农场海振路999弄1号后门"},{"poiid":"B2094654DB64A7FE489B","title":"中国建设银行上海星火支行","lon":"121.56249","lat":"30.85906","category":"150","category_name":"银行","address":"星为农场"},{"poiid":"B2094654DB68A4F54698","title":"进纺工业(上海)有限公司生活园区","lon":"121.56163","lat":"30.86242","category":"47","category_name":"住宅区","address":""},{"poiid":"B2094655D264A2FE419E","title":"棕榈滩海景城","lon":"121.558448","lat":"30.829278","category":"47","category_name":"住宅区","address":"上海市奉贤区海湾旅游区金汇塘东路1799弄"},{"poiid":"B2094757D064A5F84692","title":"哆啦の小金屋","lon":"121.574179","lat":"30.863886","category":"500","category_name":"未知分类","address":null}]