[{"poiid":"B2094655D26AAAFD4899","title":"家乐福万里店","lon":"121.41079","lat":"31.26829","category":"118","category_name":"超级市场","address":"普陀区新村路1500号(近真华路)"},{"poiid":"B2094757D068A7FA459A","title":"哈根达斯(大华店)","lon":"121.4155148","lat":"31.2692846963","category":"113","category_name":"冷饮店","address":"宝山区大华一路198号虎城嘉年华1楼101商铺(近大华路)"},{"poiid":"B2094757D068A1FC419E","title":"大华虎城嘉年华","lon":"121.41429685","lat":"31.269314846","category":"500","category_name":"未知分类","address":"上海大华路大华三路"},{"poiid":"B2094757D06FA3FA469D","title":"满记甜品(宝山巴春店)","lon":"121.41096","lat":"31.27009","category":"67","category_name":"甜品店","address":"宝山区真华路888号巴黎春天B1楼100270A号铺(近大华一路)"},{"poiid":"B2094757D068A6FA469F","title":"中环家园","lon":"121.41286","lat":"31.265339","category":"47","category_name":"住宅区","address":"上海普陀区新村路1388弄"},{"poiid":"B2094757D16CA0FF439A","title":"CVG国际影城","lon":"121.41237195","lat":"31.2701640631","category":"248","category_name":"生活娱乐","address":"上海市宝山区富水路"},{"poiid":"B2094757D06FA0FE439D","title":"中浩云花园","lon":"121.41626","lat":"31.262239","category":"47","category_name":"住宅区","address":"普陀区交通路3107号"},{"poiid":"B2094757D06FA5FD489D","title":"卡通尼儿童乐园(虎城嘉年华店)","lon":"121.41346395","lat":"31.2701470628","category":"173","category_name":"游戏厅","address":"上海大华路520号虎城嘉年华b1楼(近大华一路)"},{"poiid":"B2094757D068A2F9449B","title":"一品全大酒店(万里店)","lon":"121.41300201","lat":"31.267900466","category":"76","category_name":"上海菜","address":"普陀区新村路1501号(近真华路)"},{"poiid":"B2094757D06FA7FC499D","title":"潘晓婷台球俱乐部(新村路店)","lon":"121.4126","lat":"31.26732","category":"171","category_name":"台球厅","address":"上海普陀区新村路1501号万里美食广场4楼(近真华路)"},{"poiid":"B2094654DB65A3F9419B","title":"争鲜回转寿司 万里店","lon":"121.410470054","lat":"31.268756793","category":"95","category_name":"日本料理","address":"普陀区新村路1500号家乐福1楼(近真华路)"},{"poiid":"B2094757D06FAAF8439C","title":"汤豪仕汤馆大华虎城店","lon":"121.41184385","lat":"31.27016255","category":"500","category_name":"未知分类","address":"上海大华路大华一路"},{"poiid":"B2094757D068AAF44899","title":"味千拉面(大华店)","lon":"121.41366695","lat":"31.269908058","category":"95","category_name":"日本料理","address":"宝山区华灵路1051-1067号九百购物中心1楼(华灵路新沪路)"},{"poiid":"B2094757D069A1FE4492","title":"棒约翰(嘉年华店)","lon":"121.41329095","lat":"31.270054061","category":"68","category_name":"快餐厅","address":"宝山区大华路520号虎城嘉年华内(近大华一路)"},{"poiid":"B2094752D364A1FC4898","title":"巴黎春天","lon":"121.4172","lat":"31.26569","category":"247","category_name":"餐饮美食","address":"宝山区新村路789弄"},{"poiid":"B2094757D06FA3FA4593","title":"中环花苑","lon":"121.41709","lat":"31.264887","category":"47","category_name":"住宅区","address":"上海新村路1288弄"},{"poiid":"B2094757D069A0FA4298","title":"泉记澳门粥面庄","lon":"121.41536793","lat":"31.269166104","category":"72","category_name":"广东菜","address":"宝山区大华路352号大华虎城嘉年华C208室(近巴黎春天)"},{"poiid":"B2094655D26CA0FE4198","title":"香泉小区","lon":"121.4121","lat":"31.263485","category":"47","category_name":"住宅区","address":"香泉路85弄1-109号"},{"poiid":"B2094757D065AAF4419C","title":"宝寿司(大华店)","lon":"121.41522655","lat":"31.2691151431","category":"95","category_name":"日本料理","address":"宝山区大华路311号(大华一路口)"},{"poiid":"B2094757D16EAAFB4699","title":"爱沙堡","lon":"121.41246895","lat":"31.2690930426","category":"500","category_name":"未知分类","address":"上海市普陀区新村路"},{"poiid":"B2094757D06FAAFE469B","title":"吞云小莳","lon":"121.41351895","lat":"31.269916058","category":"91","category_name":"台湾菜","address":"宝山区大华路352号110室(大华一路大华虎城)"},{"poiid":"B2094654D464AAFE4593","title":"进华中学","lon":"121.40894","lat":"31.26481","category":"55","category_name":"中学","address":"上海市普陀区富平路657弄91号"},{"poiid":"B2094757D06FA4F5429B","title":"一兆韦德(万里店)","lon":"121.41078","lat":"31.26631","category":"148","category_name":"美容美发店","address":"普陀区新村路1500号家乐福B1楼(近真华路)"},{"poiid":"B2094757D06FA2F8409E","title":"嘉华苑","lon":"121.417413","lat":"31.267056","category":"47","category_name":"住宅区","address":"上海市宝山区新村路789弄"},{"poiid":"B2094654D464AAFF4192","title":"曹杨五月天","lon":"121.408","lat":"31.26059","category":"47","category_name":"住宅区","address":"上海三源路41弄"},{"poiid":"B2094757D465A5FD419D","title":"味千拉面 万里店","lon":"121.409814054","lat":"31.268911793","category":"95","category_name":"日本料理","address":"普陀区新村路1500号家乐福内(近真华路)"},{"poiid":"B2094757D068A7FF4893","title":"肯德基 KFC (真华店)","lon":"121.410398","lat":"31.26787","category":"68","category_name":"快餐厅","address":"普陀区新村路1500号万里家乐福(近真华路)"},{"poiid":"B2094654D464AAFE459E","title":"巴黎之春","lon":"121.40643","lat":"31.265034","category":"47","category_name":"住宅区","address":"富平路737弄1-36号"},{"poiid":"B2094757DB6FA5FA469C","title":"海底捞","lon":"121.410346054","lat":"31.268644793","category":"500","category_name":"未知分类","address":"延长中路沪太路口"},{"poiid":"B2094655D26FA6FA409D","title":"莫泰168连锁旅店(新村路店)","lon":"121.41461","lat":"31.26635","category":"216","category_name":"经济型连锁酒店","address":"宝山区新村路873号(近万里家乐福)"},{"poiid":"B2094757D568A7FE499D","title":"中环家园二期","lon":"121.41336","lat":"31.26318","category":"47","category_name":"住宅区","address":"上海市普陀区新村路1388弄"},{"poiid":"B2094654D465A0FA429B","title":"中环锦园","lon":"121.41232","lat":"31.269276","category":"47","category_name":"住宅区","address":"上海真华路388弄"},{"poiid":"B2094655D26CA0FE429B","title":"乔家栅 万里店","lon":"121.412731054","lat":"31.266714793","category":"257","category_name":"中餐厅","address":"普陀区广泉路200号(近新村路)"},{"poiid":"B2094757D66DAAFB449A","title":"天汇广场","lon":"121.411052","lat":"31.263653","category":"500","category_name":"未知分类","address":"曹杨路2021号(靠近芝川路)"},{"poiid":"B2094654DB69AAFF4898","title":"永和大王 万里店","lon":"121.410346054","lat":"31.268644793","category":"68","category_name":"快餐厅","address":"普陀区新村路1500号(近真华路)"},{"poiid":"B2094655D26CA0FE419B","title":"中环家园北门(富平路)","lon":"121.4138","lat":"31.26403","category":"47","category_name":"住宅区","address":"富平路399弄1-36号"},{"poiid":"B2094655D26CA2FB489F","title":"万泉苑","lon":"121.41103","lat":"31.265005","category":"47","category_name":"住宅区","address":"香泉路85弄32-109号"},{"poiid":"B2094753D665ABF4469A","title":"Costa（万里店）","lon":"121.414909","lat":"31.265207","category":"500","category_name":"未知分类","address":"上海市 真华路新村路"},{"poiid":"B2094757D569A3FD4892","title":"曹杨苑二期","lon":"121.41013519533","lat":"31.265512391254","category":"47","category_name":"住宅区","address":"上海市普陀区三源路168弄"},{"poiid":"B2094757D76CA3FB4299","title":"中环国际酒店咖啡厅","lon":"121.41215","lat":"31.26463","category":"260","category_name":"其他","address":"普陀区富平路800号中环国际酒店1楼(近真金路)"},{"poiid":"B2094655D26FA7FD4698","title":"万泉苑(北门)","lon":"121.41123","lat":"31.26526","category":"47","category_name":"住宅区","address":"香泉路85弄32-109号"},{"poiid":"B2094654DB6AABFA479E","title":"中环家园南门(万泉苑东)","lon":"121.41152","lat":"31.26542","category":"47","category_name":"住宅区","address":""},{"poiid":"B2094753D769AAF4429D","title":"上海小南国(大华店)","lon":"121.413668","lat":"31.270103","category":"76","category_name":"上海菜","address":"上海市宝山区大华一路198号虎城嘉年华A栋3楼"},{"poiid":"B2094757D16FA3FD449B","title":"長征萬里社區文化活動中心","lon":"121.41182095","lat":"31.2649499635","category":"500","category_name":"未知分类","address":"上海市普陀区富平路518號"},{"poiid":"B2094757D069A2FF4193","title":"起跃台球俱乐部","lon":"121.4181228","lat":"31.2655422","category":"171","category_name":"台球厅","address":"宝山区新村路681号颐正大厦B1楼(新村路新沪路)"},{"poiid":"B2094757D16CA2F5429B","title":"華師大","lon":"121.4146892","lat":"31.263532936","category":"500","category_name":"未知分类","address":"上海華師大"},{"poiid":"B2094655D265A3FE429C","title":"长征万里社区文化活动中心","lon":"121.41218","lat":"31.2651","category":"252","category_name":"楼宇机构","address":"富平路518"},{"poiid":"B2094757DA6EA5FC439B","title":"铁板先生(新村路店)","lon":"121.411002999999","lat":"31.2678370000002","category":"269","category_name":"烧烤","address":"普陀区新村路1500号家乐福1楼(近真华路)"},{"poiid":"B2094757D069A3F54992","title":"大桶大足浴(广泉路店)","lon":"121.41599","lat":"31.26503","category":"149","category_name":"洗浴推拿场所","address":"上海普陀区广泉路220-224号(近新村路)"},{"poiid":"B2094757D06AA3F8469C","title":"永和豆浆(万里店)","lon":"121.410856","lat":"31.268207","category":"247","category_name":"餐饮美食","address":"上海市普陀区新村路1500号家乐福超市1楼"},{"poiid":"B2094655D26AAAFD4899","title":"家乐福万里店","lon":"121.41079","lat":"31.26829","category":"118","category_name":"超级市场","address":"普陀区新村路1500号(近真华路)"},{"poiid":"B2094757D068A7FA459A","title":"哈根达斯(大华店)","lon":"121.4155148","lat":"31.2692846963","category":"113","category_name":"冷饮店","address":"宝山区大华一路198号虎城嘉年华1楼101商铺(近大华路)"},{"poiid":"B2094757D068A1FC419E","title":"大华虎城嘉年华","lon":"121.41429685","lat":"31.269314846","category":"500","category_name":"未知分类","address":"上海大华路大华三路"},{"poiid":"B2094757D06FA3FA469D","title":"满记甜品(宝山巴春店)","lon":"121.41096","lat":"31.27009","category":"67","category_name":"甜品店","address":"宝山区真华路888号巴黎春天B1楼100270A号铺(近大华一路)"},{"poiid":"B2094757D068A6FA469F","title":"中环家园","lon":"121.41286","lat":"31.265339","category":"47","category_name":"住宅区","address":"上海普陀区新村路1388弄"},{"poiid":"B2094757D16CA0FF439A","title":"CVG国际影城","lon":"121.41237195","lat":"31.2701640631","category":"248","category_name":"生活娱乐","address":"上海市宝山区富水路"},{"poiid":"B2094757D06FA0FE439D","title":"中浩云花园","lon":"121.41626","lat":"31.262239","category":"47","category_name":"住宅区","address":"普陀区交通路3107号"},{"poiid":"B2094757D06FA5FD489D","title":"卡通尼儿童乐园(虎城嘉年华店)","lon":"121.41346395","lat":"31.2701470628","category":"173","category_name":"游戏厅","address":"上海大华路520号虎城嘉年华b1楼(近大华一路)"},{"poiid":"B2094757D068A2F9449B","title":"一品全大酒店(万里店)","lon":"121.41300201","lat":"31.267900466","category":"76","category_name":"上海菜","address":"普陀区新村路1501号(近真华路)"},{"poiid":"B2094757D06FA7FC499D","title":"潘晓婷台球俱乐部(新村路店)","lon":"121.4126","lat":"31.26732","category":"171","category_name":"台球厅","address":"上海普陀区新村路1501号万里美食广场4楼(近真华路)"},{"poiid":"B2094654DB65A3F9419B","title":"争鲜回转寿司 万里店","lon":"121.410470054","lat":"31.268756793","category":"95","category_name":"日本料理","address":"普陀区新村路1500号家乐福1楼(近真华路)"},{"poiid":"B2094757D06FAAF8439C","title":"汤豪仕汤馆大华虎城店","lon":"121.41184385","lat":"31.27016255","category":"500","category_name":"未知分类","address":"上海大华路大华一路"},{"poiid":"B2094757D068AAF44899","title":"味千拉面(大华店)","lon":"121.41366695","lat":"31.269908058","category":"95","category_name":"日本料理","address":"宝山区华灵路1051-1067号九百购物中心1楼(华灵路新沪路)"},{"poiid":"B2094757D069A1FE4492","title":"棒约翰(嘉年华店)","lon":"121.41329095","lat":"31.270054061","category":"68","category_name":"快餐厅","address":"宝山区大华路520号虎城嘉年华内(近大华一路)"},{"poiid":"B2094752D364A1FC4898","title":"巴黎春天","lon":"121.4172","lat":"31.26569","category":"247","category_name":"餐饮美食","address":"宝山区新村路789弄"},{"poiid":"B2094757D06FA3FA4593","title":"中环花苑","lon":"121.41709","lat":"31.264887","category":"47","category_name":"住宅区","address":"上海新村路1288弄"},{"poiid":"B2094757D069A0FA4298","title":"泉记澳门粥面庄","lon":"121.41536793","lat":"31.269166104","category":"72","category_name":"广东菜","address":"宝山区大华路352号大华虎城嘉年华C208室(近巴黎春天)"},{"poiid":"B2094655D26CA0FE4198","title":"香泉小区","lon":"121.4121","lat":"31.263485","category":"47","category_name":"住宅区","address":"香泉路85弄1-109号"},{"poiid":"B2094757D065AAF4419C","title":"宝寿司(大华店)","lon":"121.41522655","lat":"31.2691151431","category":"95","category_name":"日本料理","address":"宝山区大华路311号(大华一路口)"},{"poiid":"B2094757D16EAAFB4699","title":"爱沙堡","lon":"121.41246895","lat":"31.2690930426","category":"500","category_name":"未知分类","address":"上海市普陀区新村路"},{"poiid":"B2094757D06FAAFE469B","title":"吞云小莳","lon":"121.41351895","lat":"31.269916058","category":"91","category_name":"台湾菜","address":"宝山区大华路352号110室(大华一路大华虎城)"},{"poiid":"B2094654D464AAFE4593","title":"进华中学","lon":"121.40894","lat":"31.26481","category":"55","category_name":"中学","address":"上海市普陀区富平路657弄91号"},{"poiid":"B2094757D06FA4F5429B","title":"一兆韦德(万里店)","lon":"121.41078","lat":"31.26631","category":"148","category_name":"美容美发店","address":"普陀区新村路1500号家乐福B1楼(近真华路)"},{"poiid":"B2094757D06FA2F8409E","title":"嘉华苑","lon":"121.417413","lat":"31.267056","category":"47","category_name":"住宅区","address":"上海市宝山区新村路789弄"},{"poiid":"B2094654D464AAFF4192","title":"曹杨五月天","lon":"121.408","lat":"31.26059","category":"47","category_name":"住宅区","address":"上海三源路41弄"},{"poiid":"B2094757D465A5FD419D","title":"味千拉面 万里店","lon":"121.409814054","lat":"31.268911793","category":"95","category_name":"日本料理","address":"普陀区新村路1500号家乐福内(近真华路)"},{"poiid":"B2094757D068A7FF4893","title":"肯德基 KFC (真华店)","lon":"121.410398","lat":"31.26787","category":"68","category_name":"快餐厅","address":"普陀区新村路1500号万里家乐福(近真华路)"},{"poiid":"B2094654D464AAFE459E","title":"巴黎之春","lon":"121.40643","lat":"31.265034","category":"47","category_name":"住宅区","address":"富平路737弄1-36号"},{"poiid":"B2094757DB6FA5FA469C","title":"海底捞","lon":"121.410346054","lat":"31.268644793","category":"500","category_name":"未知分类","address":"延长中路沪太路口"},{"poiid":"B2094655D26FA6FA409D","title":"莫泰168连锁旅店(新村路店)","lon":"121.41461","lat":"31.26635","category":"216","category_name":"经济型连锁酒店","address":"宝山区新村路873号(近万里家乐福)"},{"poiid":"B2094757D568A7FE499D","title":"中环家园二期","lon":"121.41336","lat":"31.26318","category":"47","category_name":"住宅区","address":"上海市普陀区新村路1388弄"},{"poiid":"B2094654D465A0FA429B","title":"中环锦园","lon":"121.41232","lat":"31.269276","category":"47","category_name":"住宅区","address":"上海真华路388弄"},{"poiid":"B2094655D26CA0FE429B","title":"乔家栅 万里店","lon":"121.412731054","lat":"31.266714793","category":"257","category_name":"中餐厅","address":"普陀区广泉路200号(近新村路)"},{"poiid":"B2094757D66DAAFB449A","title":"天汇广场","lon":"121.411052","lat":"31.263653","category":"500","category_name":"未知分类","address":"曹杨路2021号(靠近芝川路)"},{"poiid":"B2094654DB69AAFF4898","title":"永和大王 万里店","lon":"121.410346054","lat":"31.268644793","category":"68","category_name":"快餐厅","address":"普陀区新村路1500号(近真华路)"},{"poiid":"B2094655D26CA0FE419B","title":"中环家园北门(富平路)","lon":"121.4138","lat":"31.26403","category":"47","category_name":"住宅区","address":"富平路399弄1-36号"},{"poiid":"B2094655D26CA2FB489F","title":"万泉苑","lon":"121.41103","lat":"31.265005","category":"47","category_name":"住宅区","address":"香泉路85弄32-109号"},{"poiid":"B2094753D665ABF4469A","title":"Costa（万里店）","lon":"121.414909","lat":"31.265207","category":"500","category_name":"未知分类","address":"上海市 真华路新村路"},{"poiid":"B2094757D569A3FD4892","title":"曹杨苑二期","lon":"121.41013519533","lat":"31.265512391254","category":"47","category_name":"住宅区","address":"上海市普陀区三源路168弄"},{"poiid":"B2094757D76CA3FB4299","title":"中环国际酒店咖啡厅","lon":"121.41215","lat":"31.26463","category":"260","category_name":"其他","address":"普陀区富平路800号中环国际酒店1楼(近真金路)"},{"poiid":"B2094655D26FA7FD4698","title":"万泉苑(北门)","lon":"121.41123","lat":"31.26526","category":"47","category_name":"住宅区","address":"香泉路85弄32-109号"},{"poiid":"B2094654DB6AABFA479E","title":"中环家园南门(万泉苑东)","lon":"121.41152","lat":"31.26542","category":"47","category_name":"住宅区","address":""},{"poiid":"B2094753D769AAF4429D","title":"上海小南国(大华店)","lon":"121.413668","lat":"31.270103","category":"76","category_name":"上海菜","address":"上海市宝山区大华一路198号虎城嘉年华A栋3楼"},{"poiid":"B2094757D16FA3FD449B","title":"長征萬里社區文化活動中心","lon":"121.41182095","lat":"31.2649499635","category":"500","category_name":"未知分类","address":"上海市普陀区富平路518號"},{"poiid":"B2094757D069A2FF4193","title":"起跃台球俱乐部","lon":"121.4181228","lat":"31.2655422","category":"171","category_name":"台球厅","address":"宝山区新村路681号颐正大厦B1楼(新村路新沪路)"},{"poiid":"B2094757D16CA2F5429B","title":"華師大","lon":"121.4146892","lat":"31.263532936","category":"500","category_name":"未知分类","address":"上海華師大"},{"poiid":"B2094655D265A3FE429C","title":"长征万里社区文化活动中心","lon":"121.41218","lat":"31.2651","category":"252","category_name":"楼宇机构","address":"富平路518"},{"poiid":"B2094757DA6EA5FC439B","title":"铁板先生(新村路店)","lon":"121.411002999999","lat":"31.2678370000002","category":"269","category_name":"烧烤","address":"普陀区新村路1500号家乐福1楼(近真华路)"},{"poiid":"B2094757D069A3F54992","title":"大桶大足浴(广泉路店)","lon":"121.41599","lat":"31.26503","category":"149","category_name":"洗浴推拿场所","address":"上海普陀区广泉路220-224号(近新村路)"},{"poiid":"B2094757D06AA3F8469C","title":"永和豆浆(万里店)","lon":"121.410856","lat":"31.268207","category":"247","category_name":"餐饮美食","address":"上海市普陀区新村路1500号家乐福超市1楼"},{"poiid":"B2094655D26AAAFD4899","title":"家乐福万里店","lon":"121.41079","lat":"31.26829","category":"118","category_name":"超级市场","address":"普陀区新村路1500号(近真华路)"},{"poiid":"B2094757D068A7FA459A","title":"哈根达斯(大华店)","lon":"121.4155148","lat":"31.2692846963","category":"113","category_name":"冷饮店","address":"宝山区大华一路198号虎城嘉年华1楼101商铺(近大华路)"},{"poiid":"B2094757D068A1FC419E","title":"大华虎城嘉年华","lon":"121.41429685","lat":"31.269314846","category":"500","category_name":"未知分类","address":"上海大华路大华三路"},{"poiid":"B2094757D06FA3FA469D","title":"满记甜品(宝山巴春店)","lon":"121.41096","lat":"31.27009","category":"67","category_name":"甜品店","address":"宝山区真华路888号巴黎春天B1楼100270A号铺(近大华一路)"},{"poiid":"B2094757D068A6FA469F","title":"中环家园","lon":"121.41286","lat":"31.265339","category":"47","category_name":"住宅区","address":"上海普陀区新村路1388弄"},{"poiid":"B2094757D16CA0FF439A","title":"CVG国际影城","lon":"121.41237195","lat":"31.2701640631","category":"248","category_name":"生活娱乐","address":"上海市宝山区富水路"},{"poiid":"B2094757D06FA0FE439D","title":"中浩云花园","lon":"121.41626","lat":"31.262239","category":"47","category_name":"住宅区","address":"普陀区交通路3107号"},{"poiid":"B2094757D06FA5FD489D","title":"卡通尼儿童乐园(虎城嘉年华店)","lon":"121.41346395","lat":"31.2701470628","category":"173","category_name":"游戏厅","address":"上海大华路520号虎城嘉年华b1楼(近大华一路)"},{"poiid":"B2094757D068A2F9449B","title":"一品全大酒店(万里店)","lon":"121.41300201","lat":"31.267900466","category":"76","category_name":"上海菜","address":"普陀区新村路1501号(近真华路)"},{"poiid":"B2094757D06FA7FC499D","title":"潘晓婷台球俱乐部(新村路店)","lon":"121.4126","lat":"31.26732","category":"171","category_name":"台球厅","address":"上海普陀区新村路1501号万里美食广场4楼(近真华路)"},{"poiid":"B2094654DB65A3F9419B","title":"争鲜回转寿司 万里店","lon":"121.410470054","lat":"31.268756793","category":"95","category_name":"日本料理","address":"普陀区新村路1500号家乐福1楼(近真华路)"},{"poiid":"B2094757D06FAAF8439C","title":"汤豪仕汤馆大华虎城店","lon":"121.41184385","lat":"31.27016255","category":"500","category_name":"未知分类","address":"上海大华路大华一路"},{"poiid":"B2094757D068AAF44899","title":"味千拉面(大华店)","lon":"121.41366695","lat":"31.269908058","category":"95","category_name":"日本料理","address":"宝山区华灵路1051-1067号九百购物中心1楼(华灵路新沪路)"},{"poiid":"B2094757D069A1FE4492","title":"棒约翰(嘉年华店)","lon":"121.41329095","lat":"31.270054061","category":"68","category_name":"快餐厅","address":"宝山区大华路520号虎城嘉年华内(近大华一路)"},{"poiid":"B2094752D364A1FC4898","title":"巴黎春天","lon":"121.4172","lat":"31.26569","category":"247","category_name":"餐饮美食","address":"宝山区新村路789弄"},{"poiid":"B2094757D06FA3FA4593","title":"中环花苑","lon":"121.41709","lat":"31.264887","category":"47","category_name":"住宅区","address":"上海新村路1288弄"},{"poiid":"B2094757D069A0FA4298","title":"泉记澳门粥面庄","lon":"121.41536793","lat":"31.269166104","category":"72","category_name":"广东菜","address":"宝山区大华路352号大华虎城嘉年华C208室(近巴黎春天)"},{"poiid":"B2094655D26CA0FE4198","title":"香泉小区","lon":"121.4121","lat":"31.263485","category":"47","category_name":"住宅区","address":"香泉路85弄1-109号"},{"poiid":"B2094757D065AAF4419C","title":"宝寿司(大华店)","lon":"121.41522655","lat":"31.2691151431","category":"95","category_name":"日本料理","address":"宝山区大华路311号(大华一路口)"},{"poiid":"B2094757D16EAAFB4699","title":"爱沙堡","lon":"121.41246895","lat":"31.2690930426","category":"500","category_name":"未知分类","address":"上海市普陀区新村路"},{"poiid":"B2094757D06FAAFE469B","title":"吞云小莳","lon":"121.41351895","lat":"31.269916058","category":"91","category_name":"台湾菜","address":"宝山区大华路352号110室(大华一路大华虎城)"},{"poiid":"B2094654D464AAFE4593","title":"进华中学","lon":"121.40894","lat":"31.26481","category":"55","category_name":"中学","address":"上海市普陀区富平路657弄91号"},{"poiid":"B2094757D06FA4F5429B","title":"一兆韦德(万里店)","lon":"121.41078","lat":"31.26631","category":"148","category_name":"美容美发店","address":"普陀区新村路1500号家乐福B1楼(近真华路)"},{"poiid":"B2094757D06FA2F8409E","title":"嘉华苑","lon":"121.417413","lat":"31.267056","category":"47","category_name":"住宅区","address":"上海市宝山区新村路789弄"},{"poiid":"B2094654D464AAFF4192","title":"曹杨五月天","lon":"121.408","lat":"31.26059","category":"47","category_name":"住宅区","address":"上海三源路41弄"},{"poiid":"B2094757D465A5FD419D","title":"味千拉面 万里店","lon":"121.409814054","lat":"31.268911793","category":"95","category_name":"日本料理","address":"普陀区新村路1500号家乐福内(近真华路)"},{"poiid":"B2094757D068A7FF4893","title":"肯德基 KFC (真华店)","lon":"121.410398","lat":"31.26787","category":"68","category_name":"快餐厅","address":"普陀区新村路1500号万里家乐福(近真华路)"},{"poiid":"B2094654D464AAFE459E","title":"巴黎之春","lon":"121.40643","lat":"31.265034","category":"47","category_name":"住宅区","address":"富平路737弄1-36号"},{"poiid":"B2094757DB6FA5FA469C","title":"海底捞","lon":"121.410346054","lat":"31.268644793","category":"500","category_name":"未知分类","address":"延长中路沪太路口"},{"poiid":"B2094655D26FA6FA409D","title":"莫泰168连锁旅店(新村路店)","lon":"121.41461","lat":"31.26635","category":"216","category_name":"经济型连锁酒店","address":"宝山区新村路873号(近万里家乐福)"},{"poiid":"B2094757D568A7FE499D","title":"中环家园二期","lon":"121.41336","lat":"31.26318","category":"47","category_name":"住宅区","address":"上海市普陀区新村路1388弄"},{"poiid":"B2094654D465A0FA429B","title":"中环锦园","lon":"121.41232","lat":"31.269276","category":"47","category_name":"住宅区","address":"上海真华路388弄"},{"poiid":"B2094655D26CA0FE429B","title":"乔家栅 万里店","lon":"121.412731054","lat":"31.266714793","category":"257","category_name":"中餐厅","address":"普陀区广泉路200号(近新村路)"},{"poiid":"B2094757D66DAAFB449A","title":"天汇广场","lon":"121.411052","lat":"31.263653","category":"500","category_name":"未知分类","address":"曹杨路2021号(靠近芝川路)"},{"poiid":"B2094654DB69AAFF4898","title":"永和大王 万里店","lon":"121.410346054","lat":"31.268644793","category":"68","category_name":"快餐厅","address":"普陀区新村路1500号(近真华路)"},{"poiid":"B2094655D26CA0FE419B","title":"中环家园北门(富平路)","lon":"121.4138","lat":"31.26403","category":"47","category_name":"住宅区","address":"富平路399弄1-36号"},{"poiid":"B2094655D26CA2FB489F","title":"万泉苑","lon":"121.41103","lat":"31.265005","category":"47","category_name":"住宅区","address":"香泉路85弄32-109号"},{"poiid":"B2094753D665ABF4469A","title":"Costa（万里店）","lon":"121.414909","lat":"31.265207","category":"500","category_name":"未知分类","address":"上海市 真华路新村路"},{"poiid":"B2094757D569A3FD4892","title":"曹杨苑二期","lon":"121.41013519533","lat":"31.265512391254","category":"47","category_name":"住宅区","address":"上海市普陀区三源路168弄"},{"poiid":"B2094757D76CA3FB4299","title":"中环国际酒店咖啡厅","lon":"121.41215","lat":"31.26463","category":"260","category_name":"其他","address":"普陀区富平路800号中环国际酒店1楼(近真金路)"},{"poiid":"B2094655D26FA7FD4698","title":"万泉苑(北门)","lon":"121.41123","lat":"31.26526","category":"47","category_name":"住宅区","address":"香泉路85弄32-109号"},{"poiid":"B2094654DB6AABFA479E","title":"中环家园南门(万泉苑东)","lon":"121.41152","lat":"31.26542","category":"47","category_name":"住宅区","address":""},{"poiid":"B2094753D769AAF4429D","title":"上海小南国(大华店)","lon":"121.413668","lat":"31.270103","category":"76","category_name":"上海菜","address":"上海市宝山区大华一路198号虎城嘉年华A栋3楼"},{"poiid":"B2094757D16FA3FD449B","title":"長征萬里社區文化活動中心","lon":"121.41182095","lat":"31.2649499635","category":"500","category_name":"未知分类","address":"上海市普陀区富平路518號"},{"poiid":"B2094757D069A2FF4193","title":"起跃台球俱乐部","lon":"121.4181228","lat":"31.2655422","category":"171","category_name":"台球厅","address":"宝山区新村路681号颐正大厦B1楼(新村路新沪路)"},{"poiid":"B2094757D16CA2F5429B","title":"華師大","lon":"121.4146892","lat":"31.263532936","category":"500","category_name":"未知分类","address":"上海華師大"},{"poiid":"B2094655D265A3FE429C","title":"长征万里社区文化活动中心","lon":"121.41218","lat":"31.2651","category":"252","category_name":"楼宇机构","address":"富平路518"},{"poiid":"B2094757DA6EA5FC439B","title":"铁板先生(新村路店)","lon":"121.411002999999","lat":"31.2678370000002","category":"269","category_name":"烧烤","address":"普陀区新村路1500号家乐福1楼(近真华路)"},{"poiid":"B2094757D069A3F54992","title":"大桶大足浴(广泉路店)","lon":"121.41599","lat":"31.26503","category":"149","category_name":"洗浴推拿场所","address":"上海普陀区广泉路220-224号(近新村路)"},{"poiid":"B2094757D06AA3F8469C","title":"永和豆浆(万里店)","lon":"121.410856","lat":"31.268207","category":"247","category_name":"餐饮美食","address":"上海市普陀区新村路1500号家乐福超市1楼"},{"poiid":"B2094655D26AAAFD4899","title":"家乐福万里店","lon":"121.41079","lat":"31.26829","category":"118","category_name":"超级市场","address":"普陀区新村路1500号(近真华路)"},{"poiid":"B2094757D068A7FA459A","title":"哈根达斯(大华店)","lon":"121.4155148","lat":"31.2692846963","category":"113","category_name":"冷饮店","address":"宝山区大华一路198号虎城嘉年华1楼101商铺(近大华路)"},{"poiid":"B2094757D068A1FC419E","title":"大华虎城嘉年华","lon":"121.41429685","lat":"31.269314846","category":"500","category_name":"未知分类","address":"上海大华路大华三路"},{"poiid":"B2094757D06FA3FA469D","title":"满记甜品(宝山巴春店)","lon":"121.41096","lat":"31.27009","category":"67","category_name":"甜品店","address":"宝山区真华路888号巴黎春天B1楼100270A号铺(近大华一路)"},{"poiid":"B2094757D068A6FA469F","title":"中环家园","lon":"121.41286","lat":"31.265339","category":"47","category_name":"住宅区","address":"上海普陀区新村路1388弄"},{"poiid":"B2094757D16CA0FF439A","title":"CVG国际影城","lon":"121.41237195","lat":"31.2701640631","category":"248","category_name":"生活娱乐","address":"上海市宝山区富水路"},{"poiid":"B2094757D06FA0FE439D","title":"中浩云花园","lon":"121.41626","lat":"31.262239","category":"47","category_name":"住宅区","address":"普陀区交通路3107号"},{"poiid":"B2094757D06FA5FD489D","title":"卡通尼儿童乐园(虎城嘉年华店)","lon":"121.41346395","lat":"31.2701470628","category":"173","category_name":"游戏厅","address":"上海大华路520号虎城嘉年华b1楼(近大华一路)"},{"poiid":"B2094757D068A2F9449B","title":"一品全大酒店(万里店)","lon":"121.41300201","lat":"31.267900466","category":"76","category_name":"上海菜","address":"普陀区新村路1501号(近真华路)"},{"poiid":"B2094757D06FA7FC499D","title":"潘晓婷台球俱乐部(新村路店)","lon":"121.4126","lat":"31.26732","category":"171","category_name":"台球厅","address":"上海普陀区新村路1501号万里美食广场4楼(近真华路)"},{"poiid":"B2094654DB65A3F9419B","title":"争鲜回转寿司 万里店","lon":"121.410470054","lat":"31.268756793","category":"95","category_name":"日本料理","address":"普陀区新村路1500号家乐福1楼(近真华路)"},{"poiid":"B2094757D06FAAF8439C","title":"汤豪仕汤馆大华虎城店","lon":"121.41184385","lat":"31.27016255","category":"500","category_name":"未知分类","address":"上海大华路大华一路"},{"poiid":"B2094757D068AAF44899","title":"味千拉面(大华店)","lon":"121.41366695","lat":"31.269908058","category":"95","category_name":"日本料理","address":"宝山区华灵路1051-1067号九百购物中心1楼(华灵路新沪路)"},{"poiid":"B2094757D069A1FE4492","title":"棒约翰(嘉年华店)","lon":"121.41329095","lat":"31.270054061","category":"68","category_name":"快餐厅","address":"宝山区大华路520号虎城嘉年华内(近大华一路)"},{"poiid":"B2094752D364A1FC4898","title":"巴黎春天","lon":"121.4172","lat":"31.26569","category":"247","category_name":"餐饮美食","address":"宝山区新村路789弄"},{"poiid":"B2094757D06FA3FA4593","title":"中环花苑","lon":"121.41709","lat":"31.264887","category":"47","category_name":"住宅区","address":"上海新村路1288弄"},{"poiid":"B2094757D069A0FA4298","title":"泉记澳门粥面庄","lon":"121.41536793","lat":"31.269166104","category":"72","category_name":"广东菜","address":"宝山区大华路352号大华虎城嘉年华C208室(近巴黎春天)"},{"poiid":"B2094655D26CA0FE4198","title":"香泉小区","lon":"121.4121","lat":"31.263485","category":"47","category_name":"住宅区","address":"香泉路85弄1-109号"},{"poiid":"B2094757D065AAF4419C","title":"宝寿司(大华店)","lon":"121.41522655","lat":"31.2691151431","category":"95","category_name":"日本料理","address":"宝山区大华路311号(大华一路口)"},{"poiid":"B2094757D16EAAFB4699","title":"爱沙堡","lon":"121.41246895","lat":"31.2690930426","category":"500","category_name":"未知分类","address":"上海市普陀区新村路"},{"poiid":"B2094757D06FAAFE469B","title":"吞云小莳","lon":"121.41351895","lat":"31.269916058","category":"91","category_name":"台湾菜","address":"宝山区大华路352号110室(大华一路大华虎城)"},{"poiid":"B2094654D464AAFE4593","title":"进华中学","lon":"121.40894","lat":"31.26481","category":"55","category_name":"中学","address":"上海市普陀区富平路657弄91号"},{"poiid":"B2094757D06FA4F5429B","title":"一兆韦德(万里店)","lon":"121.41078","lat":"31.26631","category":"148","category_name":"美容美发店","address":"普陀区新村路1500号家乐福B1楼(近真华路)"},{"poiid":"B2094757D06FA2F8409E","title":"嘉华苑","lon":"121.417413","lat":"31.267056","category":"47","category_name":"住宅区","address":"上海市宝山区新村路789弄"},{"poiid":"B2094654D464AAFF4192","title":"曹杨五月天","lon":"121.408","lat":"31.26059","category":"47","category_name":"住宅区","address":"上海三源路41弄"},{"poiid":"B2094757D465A5FD419D","title":"味千拉面 万里店","lon":"121.409814054","lat":"31.268911793","category":"95","category_name":"日本料理","address":"普陀区新村路1500号家乐福内(近真华路)"},{"poiid":"B2094757D068A7FF4893","title":"肯德基 KFC (真华店)","lon":"121.410398","lat":"31.26787","category":"68","category_name":"快餐厅","address":"普陀区新村路1500号万里家乐福(近真华路)"},{"poiid":"B2094654D464AAFE459E","title":"巴黎之春","lon":"121.40643","lat":"31.265034","category":"47","category_name":"住宅区","address":"富平路737弄1-36号"},{"poiid":"B2094757DB6FA5FA469C","title":"海底捞","lon":"121.410346054","lat":"31.268644793","category":"500","category_name":"未知分类","address":"延长中路沪太路口"},{"poiid":"B2094655D26FA6FA409D","title":"莫泰168连锁旅店(新村路店)","lon":"121.41461","lat":"31.26635","category":"216","category_name":"经济型连锁酒店","address":"宝山区新村路873号(近万里家乐福)"},{"poiid":"B2094757D568A7FE499D","title":"中环家园二期","lon":"121.41336","lat":"31.26318","category":"47","category_name":"住宅区","address":"上海市普陀区新村路1388弄"},{"poiid":"B2094654D465A0FA429B","title":"中环锦园","lon":"121.41232","lat":"31.269276","category":"47","category_name":"住宅区","address":"上海真华路388弄"},{"poiid":"B2094655D26CA0FE429B","title":"乔家栅 万里店","lon":"121.412731054","lat":"31.266714793","category":"257","category_name":"中餐厅","address":"普陀区广泉路200号(近新村路)"},{"poiid":"B2094757D66DAAFB449A","title":"天汇广场","lon":"121.411052","lat":"31.263653","category":"500","category_name":"未知分类","address":"曹杨路2021号(靠近芝川路)"},{"poiid":"B2094654DB69AAFF4898","title":"永和大王 万里店","lon":"121.410346054","lat":"31.268644793","category":"68","category_name":"快餐厅","address":"普陀区新村路1500号(近真华路)"},{"poiid":"B2094655D26CA0FE419B","title":"中环家园北门(富平路)","lon":"121.4138","lat":"31.26403","category":"47","category_name":"住宅区","address":"富平路399弄1-36号"},{"poiid":"B2094655D26CA2FB489F","title":"万泉苑","lon":"121.41103","lat":"31.265005","category":"47","category_name":"住宅区","address":"香泉路85弄32-109号"},{"poiid":"B2094753D665ABF4469A","title":"Costa（万里店）","lon":"121.414909","lat":"31.265207","category":"500","category_name":"未知分类","address":"上海市 真华路新村路"},{"poiid":"B2094757D569A3FD4892","title":"曹杨苑二期","lon":"121.41013519533","lat":"31.265512391254","category":"47","category_name":"住宅区","address":"上海市普陀区三源路168弄"},{"poiid":"B2094757D76CA3FB4299","title":"中环国际酒店咖啡厅","lon":"121.41215","lat":"31.26463","category":"260","category_name":"其他","address":"普陀区富平路800号中环国际酒店1楼(近真金路)"},{"poiid":"B2094655D26FA7FD4698","title":"万泉苑(北门)","lon":"121.41123","lat":"31.26526","category":"47","category_name":"住宅区","address":"香泉路85弄32-109号"},{"poiid":"B2094654DB6AABFA479E","title":"中环家园南门(万泉苑东)","lon":"121.41152","lat":"31.26542","category":"47","category_name":"住宅区","address":""},{"poiid":"B2094753D769AAF4429D","title":"上海小南国(大华店)","lon":"121.413668","lat":"31.270103","category":"76","category_name":"上海菜","address":"上海市宝山区大华一路198号虎城嘉年华A栋3楼"},{"poiid":"B2094757D16FA3FD449B","title":"長征萬里社區文化活動中心","lon":"121.41182095","lat":"31.2649499635","category":"500","category_name":"未知分类","address":"上海市普陀区富平路518號"},{"poiid":"B2094757D069A2FF4193","title":"起跃台球俱乐部","lon":"121.4181228","lat":"31.2655422","category":"171","category_name":"台球厅","address":"宝山区新村路681号颐正大厦B1楼(新村路新沪路)"},{"poiid":"B2094757D16CA2F5429B","title":"華師大","lon":"121.4146892","lat":"31.263532936","category":"500","category_name":"未知分类","address":"上海華師大"},{"poiid":"B2094655D265A3FE429C","title":"长征万里社区文化活动中心","lon":"121.41218","lat":"31.2651","category":"252","category_name":"楼宇机构","address":"富平路518"},{"poiid":"B2094757DA6EA5FC439B","title":"铁板先生(新村路店)","lon":"121.411002999999","lat":"31.2678370000002","category":"269","category_name":"烧烤","address":"普陀区新村路1500号家乐福1楼(近真华路)"},{"poiid":"B2094757D069A3F54992","title":"大桶大足浴(广泉路店)","lon":"121.41599","lat":"31.26503","category":"149","category_name":"洗浴推拿场所","address":"上海普陀区广泉路220-224号(近新村路)"},{"poiid":"B2094757D06AA3F8469C","title":"永和豆浆(万里店)","lon":"121.410856","lat":"31.268207","category":"247","category_name":"餐饮美食","address":"上海市普陀区新村路1500号家乐福超市1楼"}]