[{"poiid":"B2094750DA65A3FD4399","title":"辰山植物园","lon":"121.185836","lat":"31.075887","category":"196","category_name":"公园","address":"上海市松江区辰花路"},{"poiid":"B2094757D06BA2FF499F","title":"辰山植物园大草坪","lon":"121.180050196","lat":"31.0788457038","category":"197","category_name":"动物园","address":"上海市松江区辰塔路"},{"poiid":"B2094654DB64A2FC4293","title":"上海佘山国家森林公园","lon":"121.19633","lat":"31.09534","category":"240","category_name":"国家级景点","address":"松江区佘山镇外青松公路"},{"poiid":"B2094757D06FA6F8419A","title":"佘山天主教堂","lon":"121.19495357","lat":"31.092315826","category":"245","category_name":"教堂","address":"松江区松江佘山镇西佘山山顶"},{"poiid":"B2094654DB6DA4FF489C","title":"大众国际会议中心","lon":"121.189","lat":"31.08096","category":"214","category_name":"四星级宾馆","address":"松江区赵昆路1515号(近沈砖公路)"},{"poiid":"B2094757D16CABF54193","title":"辰山植物园月季园","lon":"121.181565196","lat":"31.072828575","category":"500","category_name":"未知分类","address":"上海辰山植物园"},{"poiid":"B2094750D56EA3FF4498","title":"辰山植物园秋季活动－辰山秋韵（签到惊喜）","lon":"121.181173","lat":"31.072418","category":"250","category_name":"公园户外","address":"松江区辰花公路3888号"},{"poiid":"B2094757D068ABFA459A","title":"佘山国家森林公园西佘山园","lon":"121.185321405","lat":"31.0939654865","category":"196","category_name":"公园","address":"上海近郊松江佘山镇塔弄"},{"poiid":"B2094757D06FA2F44098","title":"上海天文博物馆","lon":"121.1888551","lat":"31.0926714","category":"182","category_name":"博物馆","address":"松江区外青松公路西佘山北门"},{"poiid":"B2094655D26FA4FC4392","title":"上海佘山国家森林公园东佘山园","lon":"121.20191","lat":"31.09649","category":"250","category_name":"公园户外","address":"东佘山园位于市郊古城松江北部10.5公里，距市中心35公里处"},{"poiid":"B2094757D06BA5FA4993","title":"兰笋山庄","lon":"121.198113286","lat":"31.0950694059","category":"216","category_name":"经济型连锁酒店","address":"松江区佘山外青松公路9269号(东佘山麓索道旁)"},{"poiid":"B2094757D164A4FD489F","title":"佘山珑原别墅","lon":"121.19510019","lat":"31.076042643","category":"47","category_name":"住宅区","address":"上海市松江区辰花公路龙源路"},{"poiid":"B2094655D26FA5FB499B","title":"佘山国家旅游渡假区","lon":"121.20378","lat":"31.08669","category":"250","category_name":"公园户外","address":"松江区佘山"},{"poiid":"B2094757D068ABF8449D","title":"佘山森林宾馆","lon":"121.197178287","lat":"31.0952594087","category":"215","category_name":"三星级宾馆","address":"松江区外青松公路9259号"},{"poiid":"B2094654DB6EA0FE449D","title":"广富林遗址","lon":"121.19608","lat":"31.06449","category":"250","category_name":"公园户外","address":""},{"poiid":"B2094654DA6BABF94292","title":"中建三局中凯佘山别墅","lon":"121.19762","lat":"31.08419","category":"47","category_name":"住宅区","address":"沈砖公路4777"},{"poiid":"B2094757D065A6FA439C","title":"新陈家食堂","lon":"121.18435","lat":"31.06734","category":"76","category_name":"上海菜","address":"松江区新陈家村张家公路187号(近辰花路)"},{"poiid":"B2094654DA6BA4F4439A","title":"上海紫园","lon":"121.19228","lat":"31.08679","category":"47","category_name":"住宅区","address":"环山路9号"},{"poiid":"B2094654DA6BABFB419C","title":"国家森林公园(外青松公路)","lon":"121.20083","lat":"31.08971","category":"196","category_name":"公园","address":""},{"poiid":"B2094757D568A0F54892","title":"佘山天邻别墅","lon":"121.19902","lat":"31.085815","category":"47","category_name":"住宅区","address":"上海市松江区沈砖公路3899号"},{"poiid":"B2094757D569A3FC409A","title":"上海紫园二期","lon":"121.1922831","lat":"31.08679306","category":"47","category_name":"住宅区","address":"佘山镇佘天昆公路268弄"},{"poiid":"B2094757D06BA7FA4392","title":"月湖轩 Lake View","lon":"121.20537567139","lat":"31.095104217529","category":"72","category_name":"广东菜","address":"松江区佘山林荫新路1288号世茂佘山艾美酒店5楼"},{"poiid":"B2094655D36DA2F94498","title":"辰山塘桥","lon":"121.1843","lat":"31.08357","category":"250","category_name":"公园户外","address":""},{"poiid":"B2094654DA6BA4F4409D","title":"上海移动通信公司佘山培训中心","lon":"121.19319","lat":"31.09189","category":"190","category_name":"培训机构","address":"环山路"},{"poiid":"B2094655D36CA1FC439D","title":"沈砖公路龙源路","lon":"121.2026","lat":"31.08513","category":"38","category_name":"公交车站","address":""},{"poiid":"B2094757D665A0FB4992","title":"月湖珍","lon":"121.194574054","lat":"31.098654793","category":"257","category_name":"中餐厅","address":"松江区佘山国家旅游度假区林荫新路1158号(近月圆园雕塑公园)"},{"poiid":"B2094757D66CABF5469F","title":"上品轩","lon":"121.199079","lat":"31.08872","category":"247","category_name":"餐饮美食","address":"上海佘山旅游度假区林荫大道1358号"},{"poiid":"B2094655D36CA5F8429B","title":"辰花公路龙源路","lon":"121.20241","lat":"31.06944","category":"38","category_name":"公交车站","address":""},{"poiid":"B2094654DA6BA4F8449C","title":"中国天主教佘山修院","lon":"121.19111","lat":"31.09149","category":"250","category_name":"公园户外","address":"佘山镇"},{"poiid":"B2094655D36DA7FB469B","title":"佘山天文台","lon":"121.19643","lat":"31.09585","category":"38","category_name":"公交车站","address":""},{"poiid":"B2094757D66EA7FD4098","title":"Enovos Coffee","lon":"121.198757296","lat":"31.068253277","category":"500","category_name":"未知分类","address":"上海松江大学城三期工商银行楼上"},{"poiid":"B2094655D36DA7FB459E","title":"佘昆公路","lon":"121.19769","lat":"31.09138","category":"38","category_name":"公交车站","address":""},{"poiid":"B2094655D36DA7FD4592","title":"张朴","lon":"121.20508","lat":"31.08756","category":"38","category_name":"公交车站","address":""},{"poiid":"B2094655D36CA1FC4392","title":"沈砖公路人民北路","lon":"121.20565","lat":"31.08753","category":"38","category_name":"公交车站","address":""},{"poiid":"B2094757D569A2FB469A","title":"易捷便利店","lon":"121.20095676","lat":"31.06822266","category":"117","category_name":"便民商店/便利店","address":"中国上海市松江区"},{"poiid":"B2094655D26EA6F94299","title":"兰笋山庄餐厅","lon":"121.19814","lat":"31.09438","category":"257","category_name":"中餐厅","address":"外青松公路9269号近沪青平公路"},{"poiid":"B2094752D568A0FC449A","title":"上海辰山植物园","lon":"121.177192","lat":"31.074245","category":"250","category_name":"公园户外","address":null},{"poiid":"B2094654DA6BABFB489B","title":"上海天文台","lon":"121.19139","lat":"31.09378","category":"250","category_name":"公园户外","address":""},{"poiid":"B2094654DA6BABFB4292","title":"佘山森林宾馆壹号楼","lon":"121.19704","lat":"31.0975","category":"215","category_name":"三星级宾馆","address":"上海松江区佘山外青松公路9259号"},{"poiid":"B2094654DA6BABFF489A","title":"佘山人家","lon":"121.18841","lat":"31.09316","category":"76","category_name":"上海菜","address":"松江区环山路(近桃源路)"},{"poiid":"B2094757D065A3FA4499","title":"佘山森林宾馆阳光餐厅","lon":"121.19732","lat":"31.09713","category":"76","category_name":"上海菜","address":"松江区松江佘山塔路(近西佘山入山口)"},{"poiid":"B2094654DA6BA4F4409F","title":"上海地震科普馆","lon":"121.19564","lat":"31.09203","category":"252","category_name":"楼宇机构","address":"上海市松江区佘山镇西佘山环山路"},{"poiid":"B2094655D36DA2FF429A","title":"辰山河桥","lon":"121.17469","lat":"31.07859","category":"250","category_name":"公园户外","address":""},{"poiid":"B2094757D568A7FD459F","title":"佘山度假饭店","lon":"121.18166558","lat":"31.08534966","category":"251","category_name":"出行住宿","address":"佘山国家度假区"},{"poiid":"B2094757D56EA0F9459B","title":"比比馒头(松江店)","lon":"121.1961937","lat":"31.09544343","category":"247","category_name":"餐饮美食","address":"松江区文汇路800弄松江大学城三期"},{"poiid":"B2094654DA6BABFB489A","title":"中国科学院上海天文台佘山工作站","lon":"121.1856","lat":"31.09487","category":"187","category_name":"天文馆","address":""},{"poiid":"B2094757D16DAAFF4692","title":"松浦度假村","lon":"121.18942329","lat":"31.096562432","category":"217","category_name":"旅馆招待所","address":"松江区佘山环山路2号"},{"poiid":"B2094654DA6BA4F4409A","title":"佘山花苑","lon":"121.187","lat":"31.09557","category":"47","category_name":"住宅区","address":"佘山环山路18号"},{"poiid":"B2094654DA6BA4F44092","title":"上海市妇联(直属)上海市少年儿童佘山活动营地","lon":"121.18781","lat":"31.0936","category":"248","category_name":"生活娱乐","address":""},{"poiid":"B2094757D16DA5F9469E","title":"莘砖公路","lon":"121.20943844","lat":"31.087986032","category":"500","category_name":"未知分类","address":"上海莘砖公路"},{"poiid":"B2094750DA65A3FD4399","title":"辰山植物园","lon":"121.185836","lat":"31.075887","category":"196","category_name":"公园","address":"上海市松江区辰花路"},{"poiid":"B2094757D06BA2FF499F","title":"辰山植物园大草坪","lon":"121.180050196","lat":"31.0788457038","category":"197","category_name":"动物园","address":"上海市松江区辰塔路"},{"poiid":"B2094654DB64A2FC4293","title":"上海佘山国家森林公园","lon":"121.19633","lat":"31.09534","category":"240","category_name":"国家级景点","address":"松江区佘山镇外青松公路"},{"poiid":"B2094757D06FA6F8419A","title":"佘山天主教堂","lon":"121.19495357","lat":"31.092315826","category":"245","category_name":"教堂","address":"松江区松江佘山镇西佘山山顶"},{"poiid":"B2094654DB6DA4FF489C","title":"大众国际会议中心","lon":"121.189","lat":"31.08096","category":"214","category_name":"四星级宾馆","address":"松江区赵昆路1515号(近沈砖公路)"},{"poiid":"B2094757D16CABF54193","title":"辰山植物园月季园","lon":"121.181565196","lat":"31.072828575","category":"500","category_name":"未知分类","address":"上海辰山植物园"},{"poiid":"B2094750D56EA3FF4498","title":"辰山植物园秋季活动－辰山秋韵（签到惊喜）","lon":"121.181173","lat":"31.072418","category":"250","category_name":"公园户外","address":"松江区辰花公路3888号"},{"poiid":"B2094757D068ABFA459A","title":"佘山国家森林公园西佘山园","lon":"121.185321405","lat":"31.0939654865","category":"196","category_name":"公园","address":"上海近郊松江佘山镇塔弄"},{"poiid":"B2094757D06FA2F44098","title":"上海天文博物馆","lon":"121.1888551","lat":"31.0926714","category":"182","category_name":"博物馆","address":"松江区外青松公路西佘山北门"},{"poiid":"B2094655D26FA4FC4392","title":"上海佘山国家森林公园东佘山园","lon":"121.20191","lat":"31.09649","category":"250","category_name":"公园户外","address":"东佘山园位于市郊古城松江北部10.5公里，距市中心35公里处"},{"poiid":"B2094757D06BA5FA4993","title":"兰笋山庄","lon":"121.198113286","lat":"31.0950694059","category":"216","category_name":"经济型连锁酒店","address":"松江区佘山外青松公路9269号(东佘山麓索道旁)"},{"poiid":"B2094757D164A4FD489F","title":"佘山珑原别墅","lon":"121.19510019","lat":"31.076042643","category":"47","category_name":"住宅区","address":"上海市松江区辰花公路龙源路"},{"poiid":"B2094655D26FA5FB499B","title":"佘山国家旅游渡假区","lon":"121.20378","lat":"31.08669","category":"250","category_name":"公园户外","address":"松江区佘山"},{"poiid":"B2094757D068ABF8449D","title":"佘山森林宾馆","lon":"121.197178287","lat":"31.0952594087","category":"215","category_name":"三星级宾馆","address":"松江区外青松公路9259号"},{"poiid":"B2094654DB6EA0FE449D","title":"广富林遗址","lon":"121.19608","lat":"31.06449","category":"250","category_name":"公园户外","address":""},{"poiid":"B2094654DA6BABF94292","title":"中建三局中凯佘山别墅","lon":"121.19762","lat":"31.08419","category":"47","category_name":"住宅区","address":"沈砖公路4777"},{"poiid":"B2094757D065A6FA439C","title":"新陈家食堂","lon":"121.18435","lat":"31.06734","category":"76","category_name":"上海菜","address":"松江区新陈家村张家公路187号(近辰花路)"},{"poiid":"B2094654DA6BA4F4439A","title":"上海紫园","lon":"121.19228","lat":"31.08679","category":"47","category_name":"住宅区","address":"环山路9号"},{"poiid":"B2094654DA6BABFB419C","title":"国家森林公园(外青松公路)","lon":"121.20083","lat":"31.08971","category":"196","category_name":"公园","address":""},{"poiid":"B2094757D568A0F54892","title":"佘山天邻别墅","lon":"121.19902","lat":"31.085815","category":"47","category_name":"住宅区","address":"上海市松江区沈砖公路3899号"},{"poiid":"B2094757D569A3FC409A","title":"上海紫园二期","lon":"121.1922831","lat":"31.08679306","category":"47","category_name":"住宅区","address":"佘山镇佘天昆公路268弄"},{"poiid":"B2094757D06BA7FA4392","title":"月湖轩 Lake View","lon":"121.20537567139","lat":"31.095104217529","category":"72","category_name":"广东菜","address":"松江区佘山林荫新路1288号世茂佘山艾美酒店5楼"},{"poiid":"B2094655D36DA2F94498","title":"辰山塘桥","lon":"121.1843","lat":"31.08357","category":"250","category_name":"公园户外","address":""},{"poiid":"B2094654DA6BA4F4409D","title":"上海移动通信公司佘山培训中心","lon":"121.19319","lat":"31.09189","category":"190","category_name":"培训机构","address":"环山路"},{"poiid":"B2094655D36CA1FC439D","title":"沈砖公路龙源路","lon":"121.2026","lat":"31.08513","category":"38","category_name":"公交车站","address":""},{"poiid":"B2094757D665A0FB4992","title":"月湖珍","lon":"121.194574054","lat":"31.098654793","category":"257","category_name":"中餐厅","address":"松江区佘山国家旅游度假区林荫新路1158号(近月圆园雕塑公园)"},{"poiid":"B2094757D66CABF5469F","title":"上品轩","lon":"121.199079","lat":"31.08872","category":"247","category_name":"餐饮美食","address":"上海佘山旅游度假区林荫大道1358号"},{"poiid":"B2094655D36CA5F8429B","title":"辰花公路龙源路","lon":"121.20241","lat":"31.06944","category":"38","category_name":"公交车站","address":""},{"poiid":"B2094654DA6BA4F8449C","title":"中国天主教佘山修院","lon":"121.19111","lat":"31.09149","category":"250","category_name":"公园户外","address":"佘山镇"},{"poiid":"B2094655D36DA7FB469B","title":"佘山天文台","lon":"121.19643","lat":"31.09585","category":"38","category_name":"公交车站","address":""},{"poiid":"B2094757D66EA7FD4098","title":"Enovos Coffee","lon":"121.198757296","lat":"31.068253277","category":"500","category_name":"未知分类","address":"上海松江大学城三期工商银行楼上"},{"poiid":"B2094655D36DA7FB459E","title":"佘昆公路","lon":"121.19769","lat":"31.09138","category":"38","category_name":"公交车站","address":""},{"poiid":"B2094655D36DA7FD4592","title":"张朴","lon":"121.20508","lat":"31.08756","category":"38","category_name":"公交车站","address":""},{"poiid":"B2094655D36CA1FC4392","title":"沈砖公路人民北路","lon":"121.20565","lat":"31.08753","category":"38","category_name":"公交车站","address":""},{"poiid":"B2094757D569A2FB469A","title":"易捷便利店","lon":"121.20095676","lat":"31.06822266","category":"117","category_name":"便民商店/便利店","address":"中国上海市松江区"},{"poiid":"B2094655D26EA6F94299","title":"兰笋山庄餐厅","lon":"121.19814","lat":"31.09438","category":"257","category_name":"中餐厅","address":"外青松公路9269号近沪青平公路"},{"poiid":"B2094752D568A0FC449A","title":"上海辰山植物园","lon":"121.177192","lat":"31.074245","category":"250","category_name":"公园户外","address":null},{"poiid":"B2094654DA6BABFB489B","title":"上海天文台","lon":"121.19139","lat":"31.09378","category":"250","category_name":"公园户外","address":""},{"poiid":"B2094654DA6BABFB4292","title":"佘山森林宾馆壹号楼","lon":"121.19704","lat":"31.0975","category":"215","category_name":"三星级宾馆","address":"上海松江区佘山外青松公路9259号"},{"poiid":"B2094654DA6BABFF489A","title":"佘山人家","lon":"121.18841","lat":"31.09316","category":"76","category_name":"上海菜","address":"松江区环山路(近桃源路)"},{"poiid":"B2094757D065A3FA4499","title":"佘山森林宾馆阳光餐厅","lon":"121.19732","lat":"31.09713","category":"76","category_name":"上海菜","address":"松江区松江佘山塔路(近西佘山入山口)"},{"poiid":"B2094654DA6BA4F4409F","title":"上海地震科普馆","lon":"121.19564","lat":"31.09203","category":"252","category_name":"楼宇机构","address":"上海市松江区佘山镇西佘山环山路"},{"poiid":"B2094655D36DA2FF429A","title":"辰山河桥","lon":"121.17469","lat":"31.07859","category":"250","category_name":"公园户外","address":""},{"poiid":"B2094757D568A7FD459F","title":"佘山度假饭店","lon":"121.18166558","lat":"31.08534966","category":"251","category_name":"出行住宿","address":"佘山国家度假区"},{"poiid":"B2094757D56EA0F9459B","title":"比比馒头(松江店)","lon":"121.1961937","lat":"31.09544343","category":"247","category_name":"餐饮美食","address":"松江区文汇路800弄松江大学城三期"},{"poiid":"B2094654DA6BABFB489A","title":"中国科学院上海天文台佘山工作站","lon":"121.1856","lat":"31.09487","category":"187","category_name":"天文馆","address":""},{"poiid":"B2094757D16DAAFF4692","title":"松浦度假村","lon":"121.18942329","lat":"31.096562432","category":"217","category_name":"旅馆招待所","address":"松江区佘山环山路2号"},{"poiid":"B2094654DA6BA4F4409A","title":"佘山花苑","lon":"121.187","lat":"31.09557","category":"47","category_name":"住宅区","address":"佘山环山路18号"},{"poiid":"B2094654DA6BA4F44092","title":"上海市妇联(直属)上海市少年儿童佘山活动营地","lon":"121.18781","lat":"31.0936","category":"248","category_name":"生活娱乐","address":""},{"poiid":"B2094757D16DA5F9469E","title":"莘砖公路","lon":"121.20943844","lat":"31.087986032","category":"500","category_name":"未知分类","address":"上海莘砖公路"}]