[{"poiid":"B2094757D06FA1F9489B","title":"上海影视乐园","lon":"121.310383","lat":"31.012271","category":"260","category_name":"其他","address":"北松公路4915号"},{"poiid":"B2094757D069A2FE439B","title":"新桥镇","lon":"121.306996042","lat":"31.0137610793","category":"260","category_name":"其他","address":"上海松江"},{"poiid":"B2094757D068A5FC489C","title":"广达上海制造城","lon":"121.3050003","lat":"31.022720336","category":"45","category_name":"产业园区","address":"上海市松江出口加工区"},{"poiid":"B2094757D568A0F44693","title":"同润十里洋坊","lon":"121.31464","lat":"31.01130667","category":"47","category_name":"住宅区","address":"松江区车墩镇影佳路123弄(近影维路)"},{"poiid":"B2094757D16CA3FD469E","title":"西上海高尔夫乡村俱乐部","lon":"121.310582","lat":"31.005635","category":"500","category_name":"未知分类","address":"上海松江车墩车亭公路128号"},{"poiid":"B2094757D66AA6FF4098","title":"旗山大酒店餐厅","lon":"121.31181","lat":"31.01857","category":"76","category_name":"上海菜","address":"松江区车墩镇南姚路129号方林大厦旗山大酒店内(近新车公路)"},{"poiid":"B209475DD76EA4FA4199","title":"车墩影视乐园","lon":"121.31043","lat":"31.01223","category":"196","category_name":"公园","address":"?上海市松江区车墩镇"},{"poiid":"B2094655D265A0F4419B","title":"御金香私房菜","lon":"121.31514","lat":"31.01237","category":"75","category_name":"浙江菜","address":"松江区松江车墩镇影视路21-23号"},{"poiid":"B2094654DB6EA5F5439C","title":"上海电影制片厂特技队","lon":"121.31609","lat":"31.00847","category":"263","category_name":"公司","address":"北松公路四671弄200"},{"poiid":"B2094655D265AAFB419D","title":"财富兴园","lon":"121.3077492401","lat":"31.003352305746","category":"45","category_name":"产业园区","address":"泖亭路188弄"},{"poiid":"B2094654DB6EA5FF4298","title":"祥东餐厅","lon":"121.32009","lat":"31.01115","category":"257","category_name":"中餐厅","address":""},{"poiid":"B2094757D46AA6FE499D","title":"多晴岛","lon":"121.31037","lat":"31.01226","category":"65","category_name":"咖啡厅","address":"松江区车墩北松公路4915号上海影视乐园内"},{"poiid":"B2094751D36CABF8499B","title":"上海阿婆私房菜(车墩店)","lon":"121.31118","lat":"31.01229","category":"76","category_name":"上海菜","address":"松江区车墩镇影视路111号"},{"poiid":"B2094654DB6EA5F5439D","title":"上海影视乐园演出部","lon":"121.31607","lat":"31.00847","category":"248","category_name":"生活娱乐","address":"北松公路四671弄200"},{"poiid":"B2094757D06BA3FB449D","title":"松江出口加工区","lon":"121.314914","lat":"31.015077","category":"500","category_name":"未知分类","address":"上海松江区车墩镇"},{"poiid":"B2094654DB6EA5FF429F","title":"快客便利店(华联超市NO.554东北)","lon":"121.32056","lat":"31.01075","category":"117","category_name":"便民商店/便利店","address":""},{"poiid":"B2094654DB6EA5FF429C","title":"华联超市NO.554","lon":"121.32052","lat":"31.01041","category":"118","category_name":"超级市场","address":"车墩镇"},{"poiid":"B2094757D66EA3FC4693","title":"松江区人民法院车墩法庭","lon":"121.31552634","lat":"31.013466964","category":"500","category_name":"未知分类","address":"上海北松公路4688号对面"},{"poiid":"B2094654DB6EA5FE479E","title":"西上海高尔夫乡村俱乐部B区别墅","lon":"121.31224","lat":"31.00378","category":"47","category_name":"住宅区","address":"车亭公路128号"},{"poiid":"B2094654DB6EA5F5449B","title":"杨家浜家常菜","lon":"121.3186","lat":"31.01471","category":"257","category_name":"中餐厅","address":"北松公路"},{"poiid":"B2094654DB6EA5F44799","title":"茗星小阁楼","lon":"121.31059","lat":"31.0131","category":"257","category_name":"中餐厅","address":""},{"poiid":"B209475DD46EAAF9459C","title":"上海车墩影视基地","lon":"121.317459","lat":"31.013418","category":"627","category_name":"一般地点标志","address":"上海市 上海市松江区车墩镇"},{"poiid":"B2094654DB6EA5F9499B","title":"忘不了家常菜","lon":"121.30966","lat":"31.01822","category":"76","category_name":"上海菜","address":"松江区车墩镇振兴路"},{"poiid":"B2094655D26FA1FD409D","title":"影都公寓","lon":"121.30931","lat":"31.01354","category":"47","category_name":"住宅区","address":""},{"poiid":"B2094654DB6EA5FA429D","title":"快客NO.6540","lon":"121.31228","lat":"31.01545","category":"117","category_name":"便民商店/便利店","address":"车墩镇"},{"poiid":"B2094654DB6EA5F4479C","title":"车墩镇图书馆","lon":"121.31059","lat":"31.01338","category":"181","category_name":"图书馆","address":""},{"poiid":"B2094654DB6EA5F4449A","title":"影都小区","lon":"121.30916","lat":"31.01343","category":"47","category_name":"住宅区","address":"北松公路4999弄"},{"poiid":"B2094654DB6EA5F4489A","title":"银都酒店","lon":"121.31057","lat":"31.01385","category":"70","category_name":"综合酒楼","address":"车墩镇"},{"poiid":"B2094654DB6EA5FA4492","title":"车墩镇卫生院","lon":"121.31046","lat":"31.01532","category":"162","category_name":"医院","address":"虬长路168号"},{"poiid":"B2094654DB6EA5FA479A","title":"松江区车墩学校(虬长路)","lon":"121.30805","lat":"31.01529","category":"55","category_name":"中学","address":"松江区虬长路276号(虬长路松江振兴路)"},{"poiid":"B2094655D26AABFA4299","title":"上海西上海高尔夫明哲大酒店","lon":"121.31058","lat":"31.00563","category":"250","category_name":"公园户外","address":"上海市松江区车墩镇车亭公路128号"},{"poiid":"B209475CD66EABFE4098","title":"车墩影视城","lon":"121.310974","lat":"31.014377","category":"500","category_name":"未知分类","address":"上海市 上海市松江区车墩影视城"},{"poiid":"B2094654DB6EA5FB4093","title":"好又多商场","lon":"121.30796","lat":"31.01478","category":"118","category_name":"超级市场","address":""},{"poiid":"B2094654DB6EA5FE449A","title":"好又多商场车墩店","lon":"121.30799","lat":"31.01429","category":"118","category_name":"超级市场","address":""},{"poiid":"B2094757D169A1F5499C","title":"上海交大施奈德联合实验室","lon":"121.316184","lat":"31.014972","category":"253","category_name":"校园生活","address":"上海电信4号楼　3楼"},{"poiid":"B2094757DB6EABFC439C","title":"上海旗山大酒店","lon":"121.30783","lat":"31.018426","category":"214","category_name":"四星级宾馆","address":"上海松江区车墩镇南姚路129号"},{"poiid":"B2094757D16FA2F5449A","title":"松江三路","lon":"121.310373","lat":"31.012261","category":"500","category_name":"未知分类","address":"上海松江大学城专线"},{"poiid":"B2094654DB6EA5FA459A","title":"松江区车墩镇社区卫生服务中心(虬长路)","lon":"121.31041","lat":"31.01532","category":"162","category_name":"医院","address":""},{"poiid":"B2094757D66CA5FC439B","title":"车墩长途客运站","lon":"121.30712","lat":"31.01177","category":"35","category_name":"长途汽车站","address":"松江区车亭公路39号(近北松公路)"},{"poiid":"B2094654DB6EA5FE4392","title":"农工商超市NO.171","lon":"121.31015","lat":"31.01453","category":"118","category_name":"超级市场","address":"车墩镇"},{"poiid":"B2094654DB6EA5FA459E","title":"鑫鑫百货(虬长路)","lon":"121.30992","lat":"31.01531","category":"119","category_name":"商场","address":""},{"poiid":"B2094654DB6EA5FB489E","title":"南姚小区","lon":"121.31203","lat":"31.017471","category":"47","category_name":"住宅区","address":"车墩镇联营路"},{"poiid":"B2094654DB6EA5FE4092","title":"大胡子麻辣王","lon":"121.31148","lat":"31.0166","category":"257","category_name":"中餐厅","address":"车墩联营路71号"},{"poiid":"B2094654DB6EA5F44192","title":"南联小区","lon":"121.31036","lat":"31.01677","category":"47","category_name":"住宅区","address":""},{"poiid":"B2094654DB6EA5F4419C","title":"好又多车墩店","lon":"121.30894","lat":"31.01755","category":"118","category_name":"超级市场","address":""},{"poiid":"B2094654DB65AAF9409F","title":"松江区教育局车墩中学","lon":"121.30807","lat":"31.01497","category":"55","category_name":"中学","address":"松江区车墩镇"},{"poiid":"B2094654DB6EA6FE4893","title":"中国农业银行(车墩镇)","lon":"121.31014","lat":"31.0141","category":"150","category_name":"银行","address":""},{"poiid":"B2094654DB6EA5FE4792","title":"西上海高尔夫乡村俱乐部高尔夫练习场","lon":"121.31147","lat":"31.00279","category":"206","category_name":"高尔夫相关","address":"松江区车墩镇车亭公路128号"},{"poiid":"B2094654DB6EA5F94799","title":"萍水相逢","lon":"121.30936","lat":"31.01749","category":"257","category_name":"中餐厅","address":"车墩镇政新路111号-115号"},{"poiid":"B2094654DB6EA5FA4098","title":"上海农村商业银行车墩支行","lon":"121.30995","lat":"31.01491","category":"150","category_name":"银行","address":"车墩镇"},{"poiid":"B2094757D06FA1F9489B","title":"上海影视乐园","lon":"121.310383","lat":"31.012271","category":"260","category_name":"其他","address":"北松公路4915号"},{"poiid":"B2094757D069A2FE439B","title":"新桥镇","lon":"121.306996042","lat":"31.0137610793","category":"260","category_name":"其他","address":"上海松江"},{"poiid":"B2094757D068A5FC489C","title":"广达上海制造城","lon":"121.3050003","lat":"31.022720336","category":"45","category_name":"产业园区","address":"上海市松江出口加工区"},{"poiid":"B2094757D568A0F44693","title":"同润十里洋坊","lon":"121.31464","lat":"31.01130667","category":"47","category_name":"住宅区","address":"松江区车墩镇影佳路123弄(近影维路)"},{"poiid":"B2094757D16CA3FD469E","title":"西上海高尔夫乡村俱乐部","lon":"121.310582","lat":"31.005635","category":"500","category_name":"未知分类","address":"上海松江车墩车亭公路128号"},{"poiid":"B2094757D66AA6FF4098","title":"旗山大酒店餐厅","lon":"121.31181","lat":"31.01857","category":"76","category_name":"上海菜","address":"松江区车墩镇南姚路129号方林大厦旗山大酒店内(近新车公路)"},{"poiid":"B209475DD76EA4FA4199","title":"车墩影视乐园","lon":"121.31043","lat":"31.01223","category":"196","category_name":"公园","address":"?上海市松江区车墩镇"},{"poiid":"B2094655D265A0F4419B","title":"御金香私房菜","lon":"121.31514","lat":"31.01237","category":"75","category_name":"浙江菜","address":"松江区松江车墩镇影视路21-23号"},{"poiid":"B2094654DB6EA5F5439C","title":"上海电影制片厂特技队","lon":"121.31609","lat":"31.00847","category":"263","category_name":"公司","address":"北松公路四671弄200"},{"poiid":"B2094655D265AAFB419D","title":"财富兴园","lon":"121.3077492401","lat":"31.003352305746","category":"45","category_name":"产业园区","address":"泖亭路188弄"},{"poiid":"B2094654DB6EA5FF4298","title":"祥东餐厅","lon":"121.32009","lat":"31.01115","category":"257","category_name":"中餐厅","address":""},{"poiid":"B2094757D46AA6FE499D","title":"多晴岛","lon":"121.31037","lat":"31.01226","category":"65","category_name":"咖啡厅","address":"松江区车墩北松公路4915号上海影视乐园内"},{"poiid":"B2094751D36CABF8499B","title":"上海阿婆私房菜(车墩店)","lon":"121.31118","lat":"31.01229","category":"76","category_name":"上海菜","address":"松江区车墩镇影视路111号"},{"poiid":"B2094654DB6EA5F5439D","title":"上海影视乐园演出部","lon":"121.31607","lat":"31.00847","category":"248","category_name":"生活娱乐","address":"北松公路四671弄200"},{"poiid":"B2094757D06BA3FB449D","title":"松江出口加工区","lon":"121.314914","lat":"31.015077","category":"500","category_name":"未知分类","address":"上海松江区车墩镇"},{"poiid":"B2094654DB6EA5FF429F","title":"快客便利店(华联超市NO.554东北)","lon":"121.32056","lat":"31.01075","category":"117","category_name":"便民商店/便利店","address":""},{"poiid":"B2094654DB6EA5FF429C","title":"华联超市NO.554","lon":"121.32052","lat":"31.01041","category":"118","category_name":"超级市场","address":"车墩镇"},{"poiid":"B2094757D66EA3FC4693","title":"松江区人民法院车墩法庭","lon":"121.31552634","lat":"31.013466964","category":"500","category_name":"未知分类","address":"上海北松公路4688号对面"},{"poiid":"B2094654DB6EA5FE479E","title":"西上海高尔夫乡村俱乐部B区别墅","lon":"121.31224","lat":"31.00378","category":"47","category_name":"住宅区","address":"车亭公路128号"},{"poiid":"B2094654DB6EA5F5449B","title":"杨家浜家常菜","lon":"121.3186","lat":"31.01471","category":"257","category_name":"中餐厅","address":"北松公路"},{"poiid":"B2094654DB6EA5F44799","title":"茗星小阁楼","lon":"121.31059","lat":"31.0131","category":"257","category_name":"中餐厅","address":""},{"poiid":"B209475DD46EAAF9459C","title":"上海车墩影视基地","lon":"121.317459","lat":"31.013418","category":"627","category_name":"一般地点标志","address":"上海市 上海市松江区车墩镇"},{"poiid":"B2094654DB6EA5F9499B","title":"忘不了家常菜","lon":"121.30966","lat":"31.01822","category":"76","category_name":"上海菜","address":"松江区车墩镇振兴路"},{"poiid":"B2094655D26FA1FD409D","title":"影都公寓","lon":"121.30931","lat":"31.01354","category":"47","category_name":"住宅区","address":""},{"poiid":"B2094654DB6EA5FA429D","title":"快客NO.6540","lon":"121.31228","lat":"31.01545","category":"117","category_name":"便民商店/便利店","address":"车墩镇"},{"poiid":"B2094654DB6EA5F4479C","title":"车墩镇图书馆","lon":"121.31059","lat":"31.01338","category":"181","category_name":"图书馆","address":""},{"poiid":"B2094654DB6EA5F4449A","title":"影都小区","lon":"121.30916","lat":"31.01343","category":"47","category_name":"住宅区","address":"北松公路4999弄"},{"poiid":"B2094654DB6EA5F4489A","title":"银都酒店","lon":"121.31057","lat":"31.01385","category":"70","category_name":"综合酒楼","address":"车墩镇"},{"poiid":"B2094654DB6EA5FA4492","title":"车墩镇卫生院","lon":"121.31046","lat":"31.01532","category":"162","category_name":"医院","address":"虬长路168号"},{"poiid":"B2094654DB6EA5FA479A","title":"松江区车墩学校(虬长路)","lon":"121.30805","lat":"31.01529","category":"55","category_name":"中学","address":"松江区虬长路276号(虬长路松江振兴路)"},{"poiid":"B2094655D26AABFA4299","title":"上海西上海高尔夫明哲大酒店","lon":"121.31058","lat":"31.00563","category":"250","category_name":"公园户外","address":"上海市松江区车墩镇车亭公路128号"},{"poiid":"B209475CD66EABFE4098","title":"车墩影视城","lon":"121.310974","lat":"31.014377","category":"500","category_name":"未知分类","address":"上海市 上海市松江区车墩影视城"},{"poiid":"B2094654DB6EA5FB4093","title":"好又多商场","lon":"121.30796","lat":"31.01478","category":"118","category_name":"超级市场","address":""},{"poiid":"B2094654DB6EA5FE449A","title":"好又多商场车墩店","lon":"121.30799","lat":"31.01429","category":"118","category_name":"超级市场","address":""},{"poiid":"B2094757D169A1F5499C","title":"上海交大施奈德联合实验室","lon":"121.316184","lat":"31.014972","category":"253","category_name":"校园生活","address":"上海电信4号楼　3楼"},{"poiid":"B2094757DB6EABFC439C","title":"上海旗山大酒店","lon":"121.30783","lat":"31.018426","category":"214","category_name":"四星级宾馆","address":"上海松江区车墩镇南姚路129号"},{"poiid":"B2094757D16FA2F5449A","title":"松江三路","lon":"121.310373","lat":"31.012261","category":"500","category_name":"未知分类","address":"上海松江大学城专线"},{"poiid":"B2094654DB6EA5FA459A","title":"松江区车墩镇社区卫生服务中心(虬长路)","lon":"121.31041","lat":"31.01532","category":"162","category_name":"医院","address":""},{"poiid":"B2094757D66CA5FC439B","title":"车墩长途客运站","lon":"121.30712","lat":"31.01177","category":"35","category_name":"长途汽车站","address":"松江区车亭公路39号(近北松公路)"},{"poiid":"B2094654DB6EA5FE4392","title":"农工商超市NO.171","lon":"121.31015","lat":"31.01453","category":"118","category_name":"超级市场","address":"车墩镇"},{"poiid":"B2094654DB6EA5FA459E","title":"鑫鑫百货(虬长路)","lon":"121.30992","lat":"31.01531","category":"119","category_name":"商场","address":""},{"poiid":"B2094654DB6EA5FB489E","title":"南姚小区","lon":"121.31203","lat":"31.017471","category":"47","category_name":"住宅区","address":"车墩镇联营路"},{"poiid":"B2094654DB6EA5FE4092","title":"大胡子麻辣王","lon":"121.31148","lat":"31.0166","category":"257","category_name":"中餐厅","address":"车墩联营路71号"},{"poiid":"B2094654DB6EA5F44192","title":"南联小区","lon":"121.31036","lat":"31.01677","category":"47","category_name":"住宅区","address":""},{"poiid":"B2094654DB6EA5F4419C","title":"好又多车墩店","lon":"121.30894","lat":"31.01755","category":"118","category_name":"超级市场","address":""},{"poiid":"B2094654DB65AAF9409F","title":"松江区教育局车墩中学","lon":"121.30807","lat":"31.01497","category":"55","category_name":"中学","address":"松江区车墩镇"},{"poiid":"B2094654DB6EA6FE4893","title":"中国农业银行(车墩镇)","lon":"121.31014","lat":"31.0141","category":"150","category_name":"银行","address":""},{"poiid":"B2094654DB6EA5FE4792","title":"西上海高尔夫乡村俱乐部高尔夫练习场","lon":"121.31147","lat":"31.00279","category":"206","category_name":"高尔夫相关","address":"松江区车墩镇车亭公路128号"},{"poiid":"B2094654DB6EA5F94799","title":"萍水相逢","lon":"121.30936","lat":"31.01749","category":"257","category_name":"中餐厅","address":"车墩镇政新路111号-115号"},{"poiid":"B2094654DB6EA5FA4098","title":"上海农村商业银行车墩支行","lon":"121.30995","lat":"31.01491","category":"150","category_name":"银行","address":"车墩镇"}]