[{"poiid":"B2094654DB64A0FD439D","title":"易初莲花购物中心","lon":"121.24114","lat":"31.01773","category":"118","category_name":"超级市场","address":"松江区松江荣乐中路8号"},{"poiid":"B2094757D068A7FD4099","title":"卜蜂莲花(松江岳阳店)","lon":"121.24351","lat":"31.01668","category":"118","category_name":"超级市场","address":"松江区荣乐中路8号"},{"poiid":"B2094655D268A2F8459E","title":"绿地伯顿广场","lon":"121.24660055340769","lat":"31.01704298003939","category":"46","category_name":"楼宇","address":"松江区荣乐东路2369弄"},{"poiid":"B2094757D06AA4FE469B","title":"肯德基 KFC (方舟店)","lon":"121.240858","lat":"31.017601","category":"500","category_name":"未知分类","address":"松江区荣乐中路8号"},{"poiid":"B2094757D16FA7FC4792","title":"松江佳网斯柯达","lon":"121.244108","lat":"31.021317","category":"500","category_name":"未知分类","address":"上海松江区美能达路800号"},{"poiid":"B2094654DB6EA2FD459D","title":"通波小区(荣乐中路)","lon":"121.23902","lat":"31.01689","category":"47","category_name":"住宅区","address":"荣乐中路32弄"},{"poiid":"B2094757D468A4FD439B","title":"富春江山里人家","lon":"121.2434284","lat":"31.0254068","category":"76","category_name":"上海菜","address":"松江区沪松路219号"},{"poiid":"B2094655D26FA2FA449B","title":"如家快捷酒店","lon":"121.23883","lat":"31.01902","category":"216","category_name":"经济型连锁酒店","address":"松江区荣乐中路12弄方中广场282号(近沪松路)"},{"poiid":"B2094655D26DA0FB419B","title":"东风日产松江专营店","lon":"121.24272","lat":"31.02215","category":"158","category_name":"汽车销售","address":"沪松路518号"},{"poiid":"B2094757D66DA7F44499","title":"新石器盘古烤肉","lon":"121.240959767","lat":"31.0177071289","category":"96","category_name":"韩国料理","address":"上海松江区荣乐中路"},{"poiid":"B2094654DB6EA1F8429A","title":"迪欧咖啡 松江店 DIO CAFE","lon":"121.24261775159","lat":"31.017687596121","category":"65","category_name":"咖啡厅","address":"松江区荣乐中路2弄110号(荣乐东路荣乐中路)"},{"poiid":"B2094757D16EA4F5479B","title":"呷哺呷哺(松江卜蜂莲花荣乐餐厅)","lon":"121.241108053","lat":"31.017171277","category":"86","category_name":"火锅店","address":"松江区荣乐中路8号卜蜂莲花2A-04室"},{"poiid":"B2094654DB69A4FB429C","title":"重庆鸡公煲(方舟店)","lon":"121.24043","lat":"31.01787","category":"71","category_name":"四川菜","address":"松江区荣乐中路12弄29号(近卜蜂莲花)"},{"poiid":"B2094654DB6EA1FA439D","title":"天堂人间大浴场","lon":"121.2485","lat":"31.01882","category":"149","category_name":"洗浴推拿场所","address":""},{"poiid":"B2094655D26DA6FD4498","title":"花园浜小区","lon":"121.243","lat":"31.0153","category":"47","category_name":"住宅区","address":"仓汇路400弄"},{"poiid":"B2094655D26FABF94099","title":"方舟园四村","lon":"121.23823","lat":"31.020174","category":"47","category_name":"住宅区","address":"谷阳北路526弄"},{"poiid":"B2094757D56CA0FC499C","title":"川流龙虾城","lon":"121.243001054","lat":"31.017556793","category":"71","category_name":"四川菜","address":"松江区荣乐中路12弄313号(近谷阳北路)"},{"poiid":"B2094655D26BA2FB4599","title":"松江北门","lon":"121.2437","lat":"31.01887","category":"38","category_name":"公交车站","address":""},{"poiid":"B2094757D464ABF94598","title":"棒约翰比萨 松江店 Papa John's Pizza","lon":"121.242432054","lat":"31.021952793","category":"101","category_name":"美式风味","address":"松江区松卫北路870弄794-796号"},{"poiid":"B2094655D36CA2FC419C","title":"皇骐爱丽舍","lon":"121.24425590281","lat":"31.020530421599","category":"47","category_name":"住宅区","address":"上海市松江区北翠路158弄"},{"poiid":"B2094757D06AA4F4499A","title":"祥和花苑","lon":"121.23698","lat":"31.026249","category":"47","category_name":"住宅区","address":"上海市松江区谷阳北路1066弄"},{"poiid":"B2094654DB64A0FD439C","title":"方舟园三村","lon":"121.23726","lat":"31.018473","category":"47","category_name":"住宅区","address":"上海市松江区荣乐中路30弄"},{"poiid":"B2094655D268A7FA4493","title":"谷水苑","lon":"121.24024","lat":"31.02047","category":"47","category_name":"住宅区","address":"荣乐中路28弄63"},{"poiid":"B2094655D36CA1F84092","title":"龙潭苑","lon":"121.239","lat":"31.0157","category":"38","category_name":"公交车站","address":"中山二路182弄"},{"poiid":"B2094654DB6EA1FF4993","title":"上岛咖啡方舟店","lon":"121.23876","lat":"31.01847","category":"65","category_name":"咖啡厅","address":"松江区荣乐中路30弄27-29号(近沪松路)"},{"poiid":"B2094752D46AA2F5479D","title":"乐都加油站","lon":"121.244104","lat":"31.01939","category":"153","category_name":"加油站","address":"上海市松江区松江镇乐都路143号(近谷阳北路)"},{"poiid":"B2094757D66BA5FF419C","title":"克莉丝汀 荣乐店","lon":"121.240086054","lat":"31.017999793","category":"112","category_name":"糕饼店","address":"松江区荣乐中路12弄方舟广场10号(近沪松路)"},{"poiid":"B2094654DB6EA1FF4099","title":"广州本田松江店","lon":"121.24338","lat":"31.02118","category":"158","category_name":"汽车销售","address":"近郊松江区沪松路228号(沪松路美能达路)"},{"poiid":"B2094757D664A1F8489E","title":"七欣天迷宗蟹 松江店","lon":"121.243638054","lat":"31.013775793","category":"86","category_name":"火锅店","address":"松江区环城东路980号(近沪松路)"},{"poiid":"B2094654DB6EA1FE489D","title":"北方饭庄","lon":"121.24452","lat":"31.021","category":"82","category_name":"东北菜","address":"美能达路611弄5号"},{"poiid":"B2094757D065A7FE499A","title":"肯德基 KFC (沪松(DT)店)","lon":"121.247194","lat":"31.017226","category":"500","category_name":"未知分类","address":"上海市松江荣乐东路605号2层"},{"poiid":"B2094654DB6EA3F54498","title":"月厦新天地","lon":"121.244","lat":"31.0161","category":"46","category_name":"楼宇","address":"松乐路128号"},{"poiid":"B2094654DB6EA2FE469A","title":"荣都公寓(东侧)","lon":"121.24581","lat":"31.01423","category":"47","category_name":"住宅区","address":"沪松路17弄1-8号"},{"poiid":"B2094757D465A6FB4193","title":"秦庄 荣乐中路店","lon":"121.239281054","lat":"31.017588793","category":"247","category_name":"餐饮美食","address":"松江区荣乐中路12弄方中广场37号(近沪松路)"},{"poiid":"B2094757D66FA1FB489F","title":"DQ(易初莲花)","lon":"121.240908467","lat":"31.0176772282","category":"247","category_name":"餐饮美食","address":"上海荣乐东路28号易初莲花一层"},{"poiid":"B2094757D065A1FC4393","title":"巴黎贝甜 荣乐中路店","lon":"121.23647896","lat":"31.021152294","category":"67","category_name":"甜品店","address":"松江区荣乐中路8号(近易初莲花)"},{"poiid":"B2094757D165AAFF4693","title":"乐都路","lon":"121.23887486","lat":"31.013645639","category":"500","category_name":"未知分类","address":"上海乐都路"},{"poiid":"B2094757D16FA2F44599","title":"大江苑","lon":"121.24307251","lat":"31.0285453796","category":"500","category_name":"未知分类","address":"上海市松江区茸龙路257弄"},{"poiid":"B2094757D168A6F9489D","title":"私はあなたを爱する","lon":"121.243486067","lat":"31.0175382252","category":"500","category_name":"未知分类","address":null},{"poiid":"B2094654DB6EA1FE479D","title":"松江区蓝天幼儿园","lon":"121.24585","lat":"31.02091","category":"57","category_name":"幼儿园","address":""},{"poiid":"B2094655D36CA6F94092","title":"方塔北路","lon":"121.24696","lat":"31.01732","category":"38","category_name":"公交车站","address":""},{"poiid":"B2094655D268A6FC4998","title":"谷水苑(南门)","lon":"121.24037","lat":"31.01993","category":"47","category_name":"住宅区","address":"荣乐中路28弄63"},{"poiid":"B2094654DB6EA1FA439F","title":"上海永达松江别克","lon":"121.24867","lat":"31.01989","category":"158","category_name":"汽车销售","address":"方塔北路588号"},{"poiid":"B2094757D66DABFB4899","title":"根爷老北京热气羊肉(松江方舟园店)","lon":"121.241921767","lat":"31.02368016","category":"247","category_name":"餐饮美食","address":"上海松江区荣乐中路12弄312号"},{"poiid":"B2094654DB6EA1F8479C","title":"小姑茶坊","lon":"121.24008","lat":"31.01863","category":"66","category_name":"茶艺馆","address":"荣乐中路12弄193"},{"poiid":"B2094654DB6EA1F8469A","title":"宁波象山海鲜","lon":"121.24004","lat":"31.01844","category":"88","category_name":"海鲜酒楼","address":"方塔北路557号"},{"poiid":"B2094655D26FABF5499F","title":"小忠羊肉庄","lon":"121.23796","lat":"31.01413","category":"86","category_name":"火锅店","address":"松江区乐都路102弄13号"},{"poiid":"B2094654DB6EA1FF4092","title":"上海松江工业总公司","lon":"121.24264","lat":"31.02025","category":"263","category_name":"公司","address":"沪松路23号"},{"poiid":"B2094655D268A6FB469E","title":"方舟休闲广场公寓(南门)","lon":"121.23947","lat":"31.01971","category":"47","category_name":"住宅区","address":"荣乐中路28弄"},{"poiid":"B2094757D465A6FF4898","title":"新招鲜本地鸡窝 松江店","lon":"121.254414054","lat":"31.005491793","category":"86","category_name":"火锅店","address":"松江区环城路976弄54号(近松东茶叶市场)"},{"poiid":"B2094654DB64A0FD439D","title":"易初莲花购物中心","lon":"121.24114","lat":"31.01773","category":"118","category_name":"超级市场","address":"松江区松江荣乐中路8号"},{"poiid":"B2094757D068A7FD4099","title":"卜蜂莲花(松江岳阳店)","lon":"121.24351","lat":"31.01668","category":"118","category_name":"超级市场","address":"松江区荣乐中路8号"},{"poiid":"B2094655D268A2F8459E","title":"绿地伯顿广场","lon":"121.24660055340769","lat":"31.01704298003939","category":"46","category_name":"楼宇","address":"松江区荣乐东路2369弄"},{"poiid":"B2094757D06AA4FE469B","title":"肯德基 KFC (方舟店)","lon":"121.240858","lat":"31.017601","category":"500","category_name":"未知分类","address":"松江区荣乐中路8号"},{"poiid":"B2094757D16FA7FC4792","title":"松江佳网斯柯达","lon":"121.244108","lat":"31.021317","category":"500","category_name":"未知分类","address":"上海松江区美能达路800号"},{"poiid":"B2094654DB6EA2FD459D","title":"通波小区(荣乐中路)","lon":"121.23902","lat":"31.01689","category":"47","category_name":"住宅区","address":"荣乐中路32弄"},{"poiid":"B2094757D468A4FD439B","title":"富春江山里人家","lon":"121.2434284","lat":"31.0254068","category":"76","category_name":"上海菜","address":"松江区沪松路219号"},{"poiid":"B2094655D26FA2FA449B","title":"如家快捷酒店","lon":"121.23883","lat":"31.01902","category":"216","category_name":"经济型连锁酒店","address":"松江区荣乐中路12弄方中广场282号(近沪松路)"},{"poiid":"B2094655D26DA0FB419B","title":"东风日产松江专营店","lon":"121.24272","lat":"31.02215","category":"158","category_name":"汽车销售","address":"沪松路518号"},{"poiid":"B2094757D66DA7F44499","title":"新石器盘古烤肉","lon":"121.240959767","lat":"31.0177071289","category":"96","category_name":"韩国料理","address":"上海松江区荣乐中路"},{"poiid":"B2094654DB6EA1F8429A","title":"迪欧咖啡 松江店 DIO CAFE","lon":"121.24261775159","lat":"31.017687596121","category":"65","category_name":"咖啡厅","address":"松江区荣乐中路2弄110号(荣乐东路荣乐中路)"},{"poiid":"B2094757D16EA4F5479B","title":"呷哺呷哺(松江卜蜂莲花荣乐餐厅)","lon":"121.241108053","lat":"31.017171277","category":"86","category_name":"火锅店","address":"松江区荣乐中路8号卜蜂莲花2A-04室"},{"poiid":"B2094654DB69A4FB429C","title":"重庆鸡公煲(方舟店)","lon":"121.24043","lat":"31.01787","category":"71","category_name":"四川菜","address":"松江区荣乐中路12弄29号(近卜蜂莲花)"},{"poiid":"B2094654DB6EA1FA439D","title":"天堂人间大浴场","lon":"121.2485","lat":"31.01882","category":"149","category_name":"洗浴推拿场所","address":""},{"poiid":"B2094655D26DA6FD4498","title":"花园浜小区","lon":"121.243","lat":"31.0153","category":"47","category_name":"住宅区","address":"仓汇路400弄"},{"poiid":"B2094655D26FABF94099","title":"方舟园四村","lon":"121.23823","lat":"31.020174","category":"47","category_name":"住宅区","address":"谷阳北路526弄"},{"poiid":"B2094757D56CA0FC499C","title":"川流龙虾城","lon":"121.243001054","lat":"31.017556793","category":"71","category_name":"四川菜","address":"松江区荣乐中路12弄313号(近谷阳北路)"},{"poiid":"B2094655D26BA2FB4599","title":"松江北门","lon":"121.2437","lat":"31.01887","category":"38","category_name":"公交车站","address":""},{"poiid":"B2094757D464ABF94598","title":"棒约翰比萨 松江店 Papa John's Pizza","lon":"121.242432054","lat":"31.021952793","category":"101","category_name":"美式风味","address":"松江区松卫北路870弄794-796号"},{"poiid":"B2094655D36CA2FC419C","title":"皇骐爱丽舍","lon":"121.24425590281","lat":"31.020530421599","category":"47","category_name":"住宅区","address":"上海市松江区北翠路158弄"},{"poiid":"B2094757D06AA4F4499A","title":"祥和花苑","lon":"121.23698","lat":"31.026249","category":"47","category_name":"住宅区","address":"上海市松江区谷阳北路1066弄"},{"poiid":"B2094654DB64A0FD439C","title":"方舟园三村","lon":"121.23726","lat":"31.018473","category":"47","category_name":"住宅区","address":"上海市松江区荣乐中路30弄"},{"poiid":"B2094655D268A7FA4493","title":"谷水苑","lon":"121.24024","lat":"31.02047","category":"47","category_name":"住宅区","address":"荣乐中路28弄63"},{"poiid":"B2094655D36CA1F84092","title":"龙潭苑","lon":"121.239","lat":"31.0157","category":"38","category_name":"公交车站","address":"中山二路182弄"},{"poiid":"B2094654DB6EA1FF4993","title":"上岛咖啡方舟店","lon":"121.23876","lat":"31.01847","category":"65","category_name":"咖啡厅","address":"松江区荣乐中路30弄27-29号(近沪松路)"},{"poiid":"B2094752D46AA2F5479D","title":"乐都加油站","lon":"121.244104","lat":"31.01939","category":"153","category_name":"加油站","address":"上海市松江区松江镇乐都路143号(近谷阳北路)"},{"poiid":"B2094757D66BA5FF419C","title":"克莉丝汀 荣乐店","lon":"121.240086054","lat":"31.017999793","category":"112","category_name":"糕饼店","address":"松江区荣乐中路12弄方舟广场10号(近沪松路)"},{"poiid":"B2094654DB6EA1FF4099","title":"广州本田松江店","lon":"121.24338","lat":"31.02118","category":"158","category_name":"汽车销售","address":"近郊松江区沪松路228号(沪松路美能达路)"},{"poiid":"B2094757D664A1F8489E","title":"七欣天迷宗蟹 松江店","lon":"121.243638054","lat":"31.013775793","category":"86","category_name":"火锅店","address":"松江区环城东路980号(近沪松路)"},{"poiid":"B2094654DB6EA1FE489D","title":"北方饭庄","lon":"121.24452","lat":"31.021","category":"82","category_name":"东北菜","address":"美能达路611弄5号"},{"poiid":"B2094757D065A7FE499A","title":"肯德基 KFC (沪松(DT)店)","lon":"121.247194","lat":"31.017226","category":"500","category_name":"未知分类","address":"上海市松江荣乐东路605号2层"},{"poiid":"B2094654DB6EA3F54498","title":"月厦新天地","lon":"121.244","lat":"31.0161","category":"46","category_name":"楼宇","address":"松乐路128号"},{"poiid":"B2094654DB6EA2FE469A","title":"荣都公寓(东侧)","lon":"121.24581","lat":"31.01423","category":"47","category_name":"住宅区","address":"沪松路17弄1-8号"},{"poiid":"B2094757D465A6FB4193","title":"秦庄 荣乐中路店","lon":"121.239281054","lat":"31.017588793","category":"247","category_name":"餐饮美食","address":"松江区荣乐中路12弄方中广场37号(近沪松路)"},{"poiid":"B2094757D66FA1FB489F","title":"DQ(易初莲花)","lon":"121.240908467","lat":"31.0176772282","category":"247","category_name":"餐饮美食","address":"上海荣乐东路28号易初莲花一层"},{"poiid":"B2094757D065A1FC4393","title":"巴黎贝甜 荣乐中路店","lon":"121.23647896","lat":"31.021152294","category":"67","category_name":"甜品店","address":"松江区荣乐中路8号(近易初莲花)"},{"poiid":"B2094757D165AAFF4693","title":"乐都路","lon":"121.23887486","lat":"31.013645639","category":"500","category_name":"未知分类","address":"上海乐都路"},{"poiid":"B2094757D16FA2F44599","title":"大江苑","lon":"121.24307251","lat":"31.0285453796","category":"500","category_name":"未知分类","address":"上海市松江区茸龙路257弄"},{"poiid":"B2094757D168A6F9489D","title":"私はあなたを爱する","lon":"121.243486067","lat":"31.0175382252","category":"500","category_name":"未知分类","address":null},{"poiid":"B2094654DB6EA1FE479D","title":"松江区蓝天幼儿园","lon":"121.24585","lat":"31.02091","category":"57","category_name":"幼儿园","address":""},{"poiid":"B2094655D36CA6F94092","title":"方塔北路","lon":"121.24696","lat":"31.01732","category":"38","category_name":"公交车站","address":""},{"poiid":"B2094655D268A6FC4998","title":"谷水苑(南门)","lon":"121.24037","lat":"31.01993","category":"47","category_name":"住宅区","address":"荣乐中路28弄63"},{"poiid":"B2094654DB6EA1FA439F","title":"上海永达松江别克","lon":"121.24867","lat":"31.01989","category":"158","category_name":"汽车销售","address":"方塔北路588号"},{"poiid":"B2094757D66DABFB4899","title":"根爷老北京热气羊肉(松江方舟园店)","lon":"121.241921767","lat":"31.02368016","category":"247","category_name":"餐饮美食","address":"上海松江区荣乐中路12弄312号"},{"poiid":"B2094654DB6EA1F8479C","title":"小姑茶坊","lon":"121.24008","lat":"31.01863","category":"66","category_name":"茶艺馆","address":"荣乐中路12弄193"},{"poiid":"B2094654DB6EA1F8469A","title":"宁波象山海鲜","lon":"121.24004","lat":"31.01844","category":"88","category_name":"海鲜酒楼","address":"方塔北路557号"},{"poiid":"B2094655D26FABF5499F","title":"小忠羊肉庄","lon":"121.23796","lat":"31.01413","category":"86","category_name":"火锅店","address":"松江区乐都路102弄13号"},{"poiid":"B2094654DB6EA1FF4092","title":"上海松江工业总公司","lon":"121.24264","lat":"31.02025","category":"263","category_name":"公司","address":"沪松路23号"},{"poiid":"B2094655D268A6FB469E","title":"方舟休闲广场公寓(南门)","lon":"121.23947","lat":"31.01971","category":"47","category_name":"住宅区","address":"荣乐中路28弄"},{"poiid":"B2094757D465A6FF4898","title":"新招鲜本地鸡窝 松江店","lon":"121.254414054","lat":"31.005491793","category":"86","category_name":"火锅店","address":"松江区环城路976弄54号(近松东茶叶市场)"},{"poiid":"B2094654DB64A0FD439D","title":"易初莲花购物中心","lon":"121.24114","lat":"31.01773","category":"118","category_name":"超级市场","address":"松江区松江荣乐中路8号"},{"poiid":"B2094757D068A7FD4099","title":"卜蜂莲花(松江岳阳店)","lon":"121.24351","lat":"31.01668","category":"118","category_name":"超级市场","address":"松江区荣乐中路8号"},{"poiid":"B2094655D268A2F8459E","title":"绿地伯顿广场","lon":"121.24660055340769","lat":"31.01704298003939","category":"46","category_name":"楼宇","address":"松江区荣乐东路2369弄"},{"poiid":"B2094757D06AA4FE469B","title":"肯德基 KFC (方舟店)","lon":"121.240858","lat":"31.017601","category":"500","category_name":"未知分类","address":"松江区荣乐中路8号"},{"poiid":"B2094757D16FA7FC4792","title":"松江佳网斯柯达","lon":"121.244108","lat":"31.021317","category":"500","category_name":"未知分类","address":"上海松江区美能达路800号"},{"poiid":"B2094654DB6EA2FD459D","title":"通波小区(荣乐中路)","lon":"121.23902","lat":"31.01689","category":"47","category_name":"住宅区","address":"荣乐中路32弄"},{"poiid":"B2094757D468A4FD439B","title":"富春江山里人家","lon":"121.2434284","lat":"31.0254068","category":"76","category_name":"上海菜","address":"松江区沪松路219号"},{"poiid":"B2094655D26FA2FA449B","title":"如家快捷酒店","lon":"121.23883","lat":"31.01902","category":"216","category_name":"经济型连锁酒店","address":"松江区荣乐中路12弄方中广场282号(近沪松路)"},{"poiid":"B2094655D26DA0FB419B","title":"东风日产松江专营店","lon":"121.24272","lat":"31.02215","category":"158","category_name":"汽车销售","address":"沪松路518号"},{"poiid":"B2094757D66DA7F44499","title":"新石器盘古烤肉","lon":"121.240959767","lat":"31.0177071289","category":"96","category_name":"韩国料理","address":"上海松江区荣乐中路"},{"poiid":"B2094654DB6EA1F8429A","title":"迪欧咖啡 松江店 DIO CAFE","lon":"121.24261775159","lat":"31.017687596121","category":"65","category_name":"咖啡厅","address":"松江区荣乐中路2弄110号(荣乐东路荣乐中路)"},{"poiid":"B2094757D16EA4F5479B","title":"呷哺呷哺(松江卜蜂莲花荣乐餐厅)","lon":"121.241108053","lat":"31.017171277","category":"86","category_name":"火锅店","address":"松江区荣乐中路8号卜蜂莲花2A-04室"},{"poiid":"B2094654DB69A4FB429C","title":"重庆鸡公煲(方舟店)","lon":"121.24043","lat":"31.01787","category":"71","category_name":"四川菜","address":"松江区荣乐中路12弄29号(近卜蜂莲花)"},{"poiid":"B2094654DB6EA1FA439D","title":"天堂人间大浴场","lon":"121.2485","lat":"31.01882","category":"149","category_name":"洗浴推拿场所","address":""},{"poiid":"B2094655D26DA6FD4498","title":"花园浜小区","lon":"121.243","lat":"31.0153","category":"47","category_name":"住宅区","address":"仓汇路400弄"},{"poiid":"B2094655D26FABF94099","title":"方舟园四村","lon":"121.23823","lat":"31.020174","category":"47","category_name":"住宅区","address":"谷阳北路526弄"},{"poiid":"B2094757D56CA0FC499C","title":"川流龙虾城","lon":"121.243001054","lat":"31.017556793","category":"71","category_name":"四川菜","address":"松江区荣乐中路12弄313号(近谷阳北路)"},{"poiid":"B2094655D26BA2FB4599","title":"松江北门","lon":"121.2437","lat":"31.01887","category":"38","category_name":"公交车站","address":""},{"poiid":"B2094757D464ABF94598","title":"棒约翰比萨 松江店 Papa John's Pizza","lon":"121.242432054","lat":"31.021952793","category":"101","category_name":"美式风味","address":"松江区松卫北路870弄794-796号"},{"poiid":"B2094655D36CA2FC419C","title":"皇骐爱丽舍","lon":"121.24425590281","lat":"31.020530421599","category":"47","category_name":"住宅区","address":"上海市松江区北翠路158弄"},{"poiid":"B2094757D06AA4F4499A","title":"祥和花苑","lon":"121.23698","lat":"31.026249","category":"47","category_name":"住宅区","address":"上海市松江区谷阳北路1066弄"},{"poiid":"B2094654DB64A0FD439C","title":"方舟园三村","lon":"121.23726","lat":"31.018473","category":"47","category_name":"住宅区","address":"上海市松江区荣乐中路30弄"},{"poiid":"B2094655D268A7FA4493","title":"谷水苑","lon":"121.24024","lat":"31.02047","category":"47","category_name":"住宅区","address":"荣乐中路28弄63"},{"poiid":"B2094655D36CA1F84092","title":"龙潭苑","lon":"121.239","lat":"31.0157","category":"38","category_name":"公交车站","address":"中山二路182弄"},{"poiid":"B2094654DB6EA1FF4993","title":"上岛咖啡方舟店","lon":"121.23876","lat":"31.01847","category":"65","category_name":"咖啡厅","address":"松江区荣乐中路30弄27-29号(近沪松路)"},{"poiid":"B2094752D46AA2F5479D","title":"乐都加油站","lon":"121.244104","lat":"31.01939","category":"153","category_name":"加油站","address":"上海市松江区松江镇乐都路143号(近谷阳北路)"},{"poiid":"B2094757D66BA5FF419C","title":"克莉丝汀 荣乐店","lon":"121.240086054","lat":"31.017999793","category":"112","category_name":"糕饼店","address":"松江区荣乐中路12弄方舟广场10号(近沪松路)"},{"poiid":"B2094654DB6EA1FF4099","title":"广州本田松江店","lon":"121.24338","lat":"31.02118","category":"158","category_name":"汽车销售","address":"近郊松江区沪松路228号(沪松路美能达路)"},{"poiid":"B2094757D664A1F8489E","title":"七欣天迷宗蟹 松江店","lon":"121.243638054","lat":"31.013775793","category":"86","category_name":"火锅店","address":"松江区环城东路980号(近沪松路)"},{"poiid":"B2094654DB6EA1FE489D","title":"北方饭庄","lon":"121.24452","lat":"31.021","category":"82","category_name":"东北菜","address":"美能达路611弄5号"},{"poiid":"B2094757D065A7FE499A","title":"肯德基 KFC (沪松(DT)店)","lon":"121.247194","lat":"31.017226","category":"500","category_name":"未知分类","address":"上海市松江荣乐东路605号2层"},{"poiid":"B2094654DB6EA3F54498","title":"月厦新天地","lon":"121.244","lat":"31.0161","category":"46","category_name":"楼宇","address":"松乐路128号"},{"poiid":"B2094654DB6EA2FE469A","title":"荣都公寓(东侧)","lon":"121.24581","lat":"31.01423","category":"47","category_name":"住宅区","address":"沪松路17弄1-8号"},{"poiid":"B2094757D465A6FB4193","title":"秦庄 荣乐中路店","lon":"121.239281054","lat":"31.017588793","category":"247","category_name":"餐饮美食","address":"松江区荣乐中路12弄方中广场37号(近沪松路)"},{"poiid":"B2094757D66FA1FB489F","title":"DQ(易初莲花)","lon":"121.240908467","lat":"31.0176772282","category":"247","category_name":"餐饮美食","address":"上海荣乐东路28号易初莲花一层"},{"poiid":"B2094757D065A1FC4393","title":"巴黎贝甜 荣乐中路店","lon":"121.23647896","lat":"31.021152294","category":"67","category_name":"甜品店","address":"松江区荣乐中路8号(近易初莲花)"},{"poiid":"B2094757D165AAFF4693","title":"乐都路","lon":"121.23887486","lat":"31.013645639","category":"500","category_name":"未知分类","address":"上海乐都路"},{"poiid":"B2094757D16FA2F44599","title":"大江苑","lon":"121.24307251","lat":"31.0285453796","category":"500","category_name":"未知分类","address":"上海市松江区茸龙路257弄"},{"poiid":"B2094757D168A6F9489D","title":"私はあなたを爱する","lon":"121.243486067","lat":"31.0175382252","category":"500","category_name":"未知分类","address":null},{"poiid":"B2094654DB6EA1FE479D","title":"松江区蓝天幼儿园","lon":"121.24585","lat":"31.02091","category":"57","category_name":"幼儿园","address":""},{"poiid":"B2094655D36CA6F94092","title":"方塔北路","lon":"121.24696","lat":"31.01732","category":"38","category_name":"公交车站","address":""},{"poiid":"B2094655D268A6FC4998","title":"谷水苑(南门)","lon":"121.24037","lat":"31.01993","category":"47","category_name":"住宅区","address":"荣乐中路28弄63"},{"poiid":"B2094654DB6EA1FA439F","title":"上海永达松江别克","lon":"121.24867","lat":"31.01989","category":"158","category_name":"汽车销售","address":"方塔北路588号"},{"poiid":"B2094757D66DABFB4899","title":"根爷老北京热气羊肉(松江方舟园店)","lon":"121.241921767","lat":"31.02368016","category":"247","category_name":"餐饮美食","address":"上海松江区荣乐中路12弄312号"},{"poiid":"B2094654DB6EA1F8479C","title":"小姑茶坊","lon":"121.24008","lat":"31.01863","category":"66","category_name":"茶艺馆","address":"荣乐中路12弄193"},{"poiid":"B2094654DB6EA1F8469A","title":"宁波象山海鲜","lon":"121.24004","lat":"31.01844","category":"88","category_name":"海鲜酒楼","address":"方塔北路557号"},{"poiid":"B2094655D26FABF5499F","title":"小忠羊肉庄","lon":"121.23796","lat":"31.01413","category":"86","category_name":"火锅店","address":"松江区乐都路102弄13号"},{"poiid":"B2094654DB6EA1FF4092","title":"上海松江工业总公司","lon":"121.24264","lat":"31.02025","category":"263","category_name":"公司","address":"沪松路23号"},{"poiid":"B2094655D268A6FB469E","title":"方舟休闲广场公寓(南门)","lon":"121.23947","lat":"31.01971","category":"47","category_name":"住宅区","address":"荣乐中路28弄"},{"poiid":"B2094757D465A6FF4898","title":"新招鲜本地鸡窝 松江店","lon":"121.254414054","lat":"31.005491793","category":"86","category_name":"火锅店","address":"松江区环城路976弄54号(近松东茶叶市场)"},{"poiid":"B2094654DB64A0FD439D","title":"易初莲花购物中心","lon":"121.24114","lat":"31.01773","category":"118","category_name":"超级市场","address":"松江区松江荣乐中路8号"},{"poiid":"B2094757D068A7FD4099","title":"卜蜂莲花(松江岳阳店)","lon":"121.24351","lat":"31.01668","category":"118","category_name":"超级市场","address":"松江区荣乐中路8号"},{"poiid":"B2094655D268A2F8459E","title":"绿地伯顿广场","lon":"121.24660055340769","lat":"31.01704298003939","category":"46","category_name":"楼宇","address":"松江区荣乐东路2369弄"},{"poiid":"B2094757D06AA4FE469B","title":"肯德基 KFC (方舟店)","lon":"121.240858","lat":"31.017601","category":"500","category_name":"未知分类","address":"松江区荣乐中路8号"},{"poiid":"B2094757D16FA7FC4792","title":"松江佳网斯柯达","lon":"121.244108","lat":"31.021317","category":"500","category_name":"未知分类","address":"上海松江区美能达路800号"},{"poiid":"B2094654DB6EA2FD459D","title":"通波小区(荣乐中路)","lon":"121.23902","lat":"31.01689","category":"47","category_name":"住宅区","address":"荣乐中路32弄"},{"poiid":"B2094757D468A4FD439B","title":"富春江山里人家","lon":"121.2434284","lat":"31.0254068","category":"76","category_name":"上海菜","address":"松江区沪松路219号"},{"poiid":"B2094655D26FA2FA449B","title":"如家快捷酒店","lon":"121.23883","lat":"31.01902","category":"216","category_name":"经济型连锁酒店","address":"松江区荣乐中路12弄方中广场282号(近沪松路)"},{"poiid":"B2094655D26DA0FB419B","title":"东风日产松江专营店","lon":"121.24272","lat":"31.02215","category":"158","category_name":"汽车销售","address":"沪松路518号"},{"poiid":"B2094757D66DA7F44499","title":"新石器盘古烤肉","lon":"121.240959767","lat":"31.0177071289","category":"96","category_name":"韩国料理","address":"上海松江区荣乐中路"},{"poiid":"B2094654DB6EA1F8429A","title":"迪欧咖啡 松江店 DIO CAFE","lon":"121.24261775159","lat":"31.017687596121","category":"65","category_name":"咖啡厅","address":"松江区荣乐中路2弄110号(荣乐东路荣乐中路)"},{"poiid":"B2094757D16EA4F5479B","title":"呷哺呷哺(松江卜蜂莲花荣乐餐厅)","lon":"121.241108053","lat":"31.017171277","category":"86","category_name":"火锅店","address":"松江区荣乐中路8号卜蜂莲花2A-04室"},{"poiid":"B2094654DB69A4FB429C","title":"重庆鸡公煲(方舟店)","lon":"121.24043","lat":"31.01787","category":"71","category_name":"四川菜","address":"松江区荣乐中路12弄29号(近卜蜂莲花)"},{"poiid":"B2094654DB6EA1FA439D","title":"天堂人间大浴场","lon":"121.2485","lat":"31.01882","category":"149","category_name":"洗浴推拿场所","address":""},{"poiid":"B2094655D26DA6FD4498","title":"花园浜小区","lon":"121.243","lat":"31.0153","category":"47","category_name":"住宅区","address":"仓汇路400弄"},{"poiid":"B2094655D26FABF94099","title":"方舟园四村","lon":"121.23823","lat":"31.020174","category":"47","category_name":"住宅区","address":"谷阳北路526弄"},{"poiid":"B2094757D56CA0FC499C","title":"川流龙虾城","lon":"121.243001054","lat":"31.017556793","category":"71","category_name":"四川菜","address":"松江区荣乐中路12弄313号(近谷阳北路)"},{"poiid":"B2094655D26BA2FB4599","title":"松江北门","lon":"121.2437","lat":"31.01887","category":"38","category_name":"公交车站","address":""},{"poiid":"B2094757D464ABF94598","title":"棒约翰比萨 松江店 Papa John's Pizza","lon":"121.242432054","lat":"31.021952793","category":"101","category_name":"美式风味","address":"松江区松卫北路870弄794-796号"},{"poiid":"B2094655D36CA2FC419C","title":"皇骐爱丽舍","lon":"121.24425590281","lat":"31.020530421599","category":"47","category_name":"住宅区","address":"上海市松江区北翠路158弄"},{"poiid":"B2094757D06AA4F4499A","title":"祥和花苑","lon":"121.23698","lat":"31.026249","category":"47","category_name":"住宅区","address":"上海市松江区谷阳北路1066弄"},{"poiid":"B2094654DB64A0FD439C","title":"方舟园三村","lon":"121.23726","lat":"31.018473","category":"47","category_name":"住宅区","address":"上海市松江区荣乐中路30弄"},{"poiid":"B2094655D268A7FA4493","title":"谷水苑","lon":"121.24024","lat":"31.02047","category":"47","category_name":"住宅区","address":"荣乐中路28弄63"},{"poiid":"B2094655D36CA1F84092","title":"龙潭苑","lon":"121.239","lat":"31.0157","category":"38","category_name":"公交车站","address":"中山二路182弄"},{"poiid":"B2094654DB6EA1FF4993","title":"上岛咖啡方舟店","lon":"121.23876","lat":"31.01847","category":"65","category_name":"咖啡厅","address":"松江区荣乐中路30弄27-29号(近沪松路)"},{"poiid":"B2094752D46AA2F5479D","title":"乐都加油站","lon":"121.244104","lat":"31.01939","category":"153","category_name":"加油站","address":"上海市松江区松江镇乐都路143号(近谷阳北路)"},{"poiid":"B2094757D66BA5FF419C","title":"克莉丝汀 荣乐店","lon":"121.240086054","lat":"31.017999793","category":"112","category_name":"糕饼店","address":"松江区荣乐中路12弄方舟广场10号(近沪松路)"},{"poiid":"B2094654DB6EA1FF4099","title":"广州本田松江店","lon":"121.24338","lat":"31.02118","category":"158","category_name":"汽车销售","address":"近郊松江区沪松路228号(沪松路美能达路)"},{"poiid":"B2094757D664A1F8489E","title":"七欣天迷宗蟹 松江店","lon":"121.243638054","lat":"31.013775793","category":"86","category_name":"火锅店","address":"松江区环城东路980号(近沪松路)"},{"poiid":"B2094654DB6EA1FE489D","title":"北方饭庄","lon":"121.24452","lat":"31.021","category":"82","category_name":"东北菜","address":"美能达路611弄5号"},{"poiid":"B2094757D065A7FE499A","title":"肯德基 KFC (沪松(DT)店)","lon":"121.247194","lat":"31.017226","category":"500","category_name":"未知分类","address":"上海市松江荣乐东路605号2层"},{"poiid":"B2094654DB6EA3F54498","title":"月厦新天地","lon":"121.244","lat":"31.0161","category":"46","category_name":"楼宇","address":"松乐路128号"},{"poiid":"B2094654DB6EA2FE469A","title":"荣都公寓(东侧)","lon":"121.24581","lat":"31.01423","category":"47","category_name":"住宅区","address":"沪松路17弄1-8号"},{"poiid":"B2094757D465A6FB4193","title":"秦庄 荣乐中路店","lon":"121.239281054","lat":"31.017588793","category":"247","category_name":"餐饮美食","address":"松江区荣乐中路12弄方中广场37号(近沪松路)"},{"poiid":"B2094757D66FA1FB489F","title":"DQ(易初莲花)","lon":"121.240908467","lat":"31.0176772282","category":"247","category_name":"餐饮美食","address":"上海荣乐东路28号易初莲花一层"},{"poiid":"B2094757D065A1FC4393","title":"巴黎贝甜 荣乐中路店","lon":"121.23647896","lat":"31.021152294","category":"67","category_name":"甜品店","address":"松江区荣乐中路8号(近易初莲花)"},{"poiid":"B2094757D165AAFF4693","title":"乐都路","lon":"121.23887486","lat":"31.013645639","category":"500","category_name":"未知分类","address":"上海乐都路"},{"poiid":"B2094757D16FA2F44599","title":"大江苑","lon":"121.24307251","lat":"31.0285453796","category":"500","category_name":"未知分类","address":"上海市松江区茸龙路257弄"},{"poiid":"B2094757D168A6F9489D","title":"私はあなたを爱する","lon":"121.243486067","lat":"31.0175382252","category":"500","category_name":"未知分类","address":null},{"poiid":"B2094654DB6EA1FE479D","title":"松江区蓝天幼儿园","lon":"121.24585","lat":"31.02091","category":"57","category_name":"幼儿园","address":""},{"poiid":"B2094655D36CA6F94092","title":"方塔北路","lon":"121.24696","lat":"31.01732","category":"38","category_name":"公交车站","address":""},{"poiid":"B2094655D268A6FC4998","title":"谷水苑(南门)","lon":"121.24037","lat":"31.01993","category":"47","category_name":"住宅区","address":"荣乐中路28弄63"},{"poiid":"B2094654DB6EA1FA439F","title":"上海永达松江别克","lon":"121.24867","lat":"31.01989","category":"158","category_name":"汽车销售","address":"方塔北路588号"},{"poiid":"B2094757D66DABFB4899","title":"根爷老北京热气羊肉(松江方舟园店)","lon":"121.241921767","lat":"31.02368016","category":"247","category_name":"餐饮美食","address":"上海松江区荣乐中路12弄312号"},{"poiid":"B2094654DB6EA1F8479C","title":"小姑茶坊","lon":"121.24008","lat":"31.01863","category":"66","category_name":"茶艺馆","address":"荣乐中路12弄193"},{"poiid":"B2094654DB6EA1F8469A","title":"宁波象山海鲜","lon":"121.24004","lat":"31.01844","category":"88","category_name":"海鲜酒楼","address":"方塔北路557号"},{"poiid":"B2094655D26FABF5499F","title":"小忠羊肉庄","lon":"121.23796","lat":"31.01413","category":"86","category_name":"火锅店","address":"松江区乐都路102弄13号"},{"poiid":"B2094654DB6EA1FF4092","title":"上海松江工业总公司","lon":"121.24264","lat":"31.02025","category":"263","category_name":"公司","address":"沪松路23号"},{"poiid":"B2094655D268A6FB469E","title":"方舟休闲广场公寓(南门)","lon":"121.23947","lat":"31.01971","category":"47","category_name":"住宅区","address":"荣乐中路28弄"},{"poiid":"B2094757D465A6FF4898","title":"新招鲜本地鸡窝 松江店","lon":"121.254414054","lat":"31.005491793","category":"86","category_name":"火锅店","address":"松江区环城路976弄54号(近松东茶叶市场)"}]