[{"poiid":"B2094654DB6AA7FC4999","title":"唐宫(维景店)","lon":"121.43456","lat":"31.21748","category":"72","category_name":"广东菜","address":"长宁区东诸安浜路103号维景酒店公寓1-2楼(近江苏路)"},{"poiid":"B2094757D06FA1FE479A","title":"大马可意大利餐厅(维景店)","lon":"121.4340661","lat":"31.2182812","category":"94","category_name":"西餐厅","address":"长宁区东诸安浜路103号维景酒店公寓1楼(近镇宁路)"},{"poiid":"B2094757D568A0FF409D","title":"上海日航饭店","lon":"121.43714247","lat":"31.21759304","category":"213","category_name":"五星级宾馆","address":"长宁区延安西路488号(近镇宁路)"},{"poiid":"B2094753D76FAAFA449C","title":"上海滩国泰旗舰店","lon":"121.466011","lat":"31.216125","category":"249","category_name":"购物服务","address":"淮海中路868号"},{"poiid":"B209475CD564A7F8439E","title":"上海滩中信泰富店","lon":"121.45602","lat":"31.22851","category":"119","category_name":"商场","address":"\"南京西路1168号中信泰富广场，店铺号221.\r\n\""},{"poiid":"B2094654DB6AA6F84099","title":"上海美丽园龙都大酒店","lon":"121.43815763806344","lat":"31.21838530295108","category":"214","category_name":"四星级宾馆","address":"上海市静安区延安西路396号(上海戏剧学院对面,圆明讲堂旁)"},{"poiid":"B2094757D06FA3FB469A","title":"同仁医院","lon":"121.434258778","lat":"31.2205877271","category":"162","category_name":"医院","address":"上海长宁区愚园路738号(近镇宁路)"},{"poiid":"B2094654D565A0FE4698","title":"三人行骨头王火锅(长宁店)","lon":"121.4337","lat":"31.21821","category":"86","category_name":"火锅店","address":"长宁区东诸安浜路141号(江苏路镇宁路间)"},{"poiid":"B2094655D36DA0F5409E","title":"愚园路镇宁路","lon":"121.43593","lat":"31.22084","category":"38","category_name":"公交车站","address":""},{"poiid":"B2094757D468A4FC4993","title":"FENNEL LOUNGE","lon":"121.4369483","lat":"31.2186778","category":"94","category_name":"西餐厅","address":"长宁区镇宁路(近番禺路)"},{"poiid":"B2094757D06FA5F84292","title":"九香牛蛙店(东诸安浜路店)","lon":"121.4339981","lat":"31.217899322","category":"71","category_name":"四川菜","address":"长宁区东诸安浜路127号(近镇宁路)"},{"poiid":"B2094757D06FAAFD4399","title":"小南国海之源日式温泉(美丽园店)","lon":"121.437987","lat":"31.218408","category":"149","category_name":"洗浴推拿场所","address":"上海静安区延安西路396号美丽园龙都大酒店3-4楼(镇宁路口)  "},{"poiid":"B2094757D068A0FA479B","title":"万宝国际广场","lon":"121.436314872","lat":"31.2171246785","category":"46","category_name":"楼宇","address":"其他区徐州铜山新区北京路,长江路口"},{"poiid":"B2094757D06FA3FA459E","title":"星巴克(协和店)","lon":"121.43694","lat":"31.21935","category":"260","category_name":"其他","address":"静安区南京西路2068号协和城01C铺(镇宁路口)"},{"poiid":"B2094757D06FA1F8439E","title":"威尔士健身会所(维景店)","lon":"121.433998108","lat":"31.2180995941","category":"221","category_name":"健身中心","address":"长宁区东诸安浜路103号维景酒店内(近江苏路)"},{"poiid":"B2094757D06FA1FE409D","title":"维景酒店公寓","lon":"121.43472","lat":"31.21783","category":"215","category_name":"三星级宾馆","address":"上海长宁区东诸安浜路103号（靠近江苏路、延安西路）"},{"poiid":"B2094654D564A6FC499E","title":"嘉利大厦","lon":"121.434","lat":"31.2162","category":"46","category_name":"楼宇","address":"上海市黄浦区南京东路409-459号"},{"poiid":"B2094757D069A3FF439E","title":"大众金融大厦","lon":"121.436","lat":"31.2189","category":"46","category_name":"楼宇","address":"延安西路1033号裙楼528"},{"poiid":"B2094757D06FA0FD419C","title":"乐购(镇宁店)","lon":"121.43677266","lat":"31.21965569","category":"118","category_name":"超级市场","address":"静安区南京西路2068号协和城B1-B2楼(镇宁路口)"},{"poiid":"B2094654D565A0FE439C","title":"半岛品珍舫 镇宁店","lon":"121.43635956924","lat":"31.219206349993","category":"76","category_name":"上海菜","address":"静安区镇宁路227号荣轩大厦B1楼(东诸安浜路口)"},{"poiid":"B2094757D568A0F84993","title":"吉惠日本料理","lon":"121.435005","lat":"31.216121","category":"95","category_name":"日本料理","address":"延安西路626号华敏世纪广场近江苏路"},{"poiid":"B2094751D36AA1FA4299","title":"洛克菲勒公馆","lon":"121.4344","lat":"31.22026","category":"76","category_name":"上海菜","address":"静安区愚园路753号(近镇宁路)"},{"poiid":"B2094757D16CA5FB409F","title":"The Fennel Lounge","lon":"121.436649586","lat":"31.2185482025","category":"500","category_name":"未知分类","address":"上海镇宁路217号"},{"poiid":"B2094750D26EA5FB449C","title":"高木日本料理（长宁店）","lon":"121.434562","lat":"31.218309","category":"95","category_name":"日本料理","address":"长宁区东诸安浜路103号(近江苏路)"},{"poiid":"B2094655D26FA0FA439C","title":"圆明讲堂(延安西路)","lon":"121.43772","lat":"31.21771","category":"250","category_name":"公园户外","address":"延安西路458"},{"poiid":"B2094757D065A6F9469A","title":"枫寿司","lon":"121.435411586","lat":"31.216269158","category":"95","category_name":"日本料理","address":"长宁区延安西路640号(近江苏路)"},{"poiid":"B2094757D068A5F4429D","title":"欣安大厦","lon":"121.43734216","lat":"31.218569001","category":"46","category_name":"楼宇","address":"内外联公寓位于静安长宁路江苏路"},{"poiid":"B2094757D469A7F4489E","title":"锦阁","lon":"121.436285","lat":"31.216973","category":"72","category_name":"广东菜","address":"静安区延安西路488号上海日航饭店3楼(镇宁路口)"},{"poiid":"B2094757DB6FA2F8469A","title":"小舍甜品","lon":"121.435634","lat":"31.216909","category":"247","category_name":"餐饮美食","address":"静安区长乐路1238-1号(近镇宁路)"},{"poiid":"B2094757D56DA4FC429E","title":"话剧中心","lon":"121.4340661","lat":"31.2182812","category":"500","category_name":"未知分类","address":"安福路"},{"poiid":"B2094750D66CAAF44698","title":"茴香餐厅酒吧","lon":"121.436538","lat":"31.218481","category":"94","category_name":"西餐厅","address":"静安区镇宁路217号(近永源路)"},{"poiid":"B2094751D26AAAF44292","title":"星巴克","lon":"121.436895","lat":"31.219013","category":"65","category_name":"咖啡厅","address":"静安区镇宁路200号欣安大厦"},{"poiid":"B2094750DB6DA4FD459D","title":"万岛日料","lon":"121.4351493896608","lat":"31.2183275580406","category":"247","category_name":"餐饮美食","address":"乌鲁木齐路480号"},{"poiid":"B2094757D064A2FA459C","title":"上面坊酥鸭面馆","lon":"121.433143","lat":"31.21838","category":"247","category_name":"餐饮美食","address":"上海东诸安浜路178号"},{"poiid":"B2094654D565A0FE409A","title":"华敏世纪广场","lon":"121.43464","lat":"31.216885","category":"47","category_name":"住宅区","address":"上海市长宁区延安西路688弄"},{"poiid":"B2094654DB6BA7F5499E","title":"金柏苑","lon":"121.436713","lat":"31.217554","category":"47","category_name":"住宅区","address":"静安延安西路433号"},{"poiid":"B2094751D56EA3FB419D","title":"崇明私房菜(延安西路店)","lon":"121.43684","lat":"31.2169","category":"76","category_name":"上海菜","address":"长宁区延安西路500号万宝国际广场3楼(近镇宁路)"},{"poiid":"B209475CD56AA7F84192","title":"青公馆","lon":"121.435211","lat":"31.21825","category":"247","category_name":"餐饮美食","address":"上海市 长宁区愚园路749号38弄"},{"poiid":"B209475CD36CA3F4489D","title":"唐宫海鲜舫 维景店","lon":"121.4363525599","lat":"31.218218725553","category":"72","category_name":"广东菜","address":"东诸安浜路103号维景酒店1-2楼近江苏路"},{"poiid":"B2094654D565A0FF4493","title":"发发雅萍酒家","lon":"121.43423471324","lat":"31.220125926429","category":"76","category_name":"上海菜","address":"长宁区愚园路792号(镇宁路江苏路间)"},{"poiid":"B2094757D165A3FF4799","title":"大鹤日本料理","lon":"121.44042","lat":"31.21982","category":"95","category_name":"日本料理","address":"静安区南京西路2068号协和城G108铺(镇宁路口)"},{"poiid":"B2094757D46FABFD4898","title":"酥鸭面","lon":"121.4342797","lat":"31.2182715","category":"68","category_name":"快餐厅","address":"长宁区东诸安浜路180弄2号104室(近江苏路)"},{"poiid":"B2094752DB6FA7FF479B","title":"和平影都","lon":"121.435413","lat":"31.218999","category":"178","category_name":"电影院","address":"上海市 西藏中路290号"},{"poiid":"B2094757D66DA2FA489C","title":"愚园路749弄老洋房","lon":"121.43549658","lat":"31.219194215","category":"500","category_name":"未知分类","address":"上海市长宁区愚园路镇宁路"},{"poiid":"B2094752D164A0F84793","title":"上海当代艺术馆","lon":"121.435013","lat":"31.21814","category":"500","category_name":"未知分类","address":"苗江路"},{"poiid":"B2094654D565A0FF429C","title":"荣轩大厦","lon":"121.43646","lat":"31.21907","category":"47","category_name":"住宅区","address":"长宁镇宁路233号"},{"poiid":"B2094757D66AA0F4499D","title":"嘉木堂","lon":"121.43632189094","lat":"31.218838985548","category":"172","category_name":"酒吧","address":"长宁区东诸安浜路57号(近镇宁路)"},{"poiid":"B2094654DB6BA6FF499A","title":"永兴商务楼","lon":"121.43759","lat":"31.21891","category":"46","category_name":"楼宇","address":"朝阳区北三环东路与京顺路交接处路口北侧"},{"poiid":"B2094751D56EA0F84492","title":"清迈府泰国料理(延安西路店)","lon":"121.43834","lat":"31.21885","category":"99","category_name":"泰国／越南菜品餐厅","address":"静安区延安西路358号美丽园大厦内(近镇宁路)"},{"poiid":"B2094655D26CABF84999","title":"金桥花园(二号门)","lon":"121.43463","lat":"31.21814","category":"47","category_name":"住宅区","address":"东诸安浜路103号"},{"poiid":"B2094654DB6AA7FC4999","title":"唐宫(维景店)","lon":"121.43456","lat":"31.21748","category":"72","category_name":"广东菜","address":"长宁区东诸安浜路103号维景酒店公寓1-2楼(近江苏路)"},{"poiid":"B2094757D06FA1FE479A","title":"大马可意大利餐厅(维景店)","lon":"121.4340661","lat":"31.2182812","category":"94","category_name":"西餐厅","address":"长宁区东诸安浜路103号维景酒店公寓1楼(近镇宁路)"},{"poiid":"B2094757D568A0FF409D","title":"上海日航饭店","lon":"121.43714247","lat":"31.21759304","category":"213","category_name":"五星级宾馆","address":"长宁区延安西路488号(近镇宁路)"},{"poiid":"B2094753D76FAAFA449C","title":"上海滩国泰旗舰店","lon":"121.466011","lat":"31.216125","category":"249","category_name":"购物服务","address":"淮海中路868号"},{"poiid":"B209475CD564A7F8439E","title":"上海滩中信泰富店","lon":"121.45602","lat":"31.22851","category":"119","category_name":"商场","address":"\"南京西路1168号中信泰富广场，店铺号221.\r\n\""},{"poiid":"B2094654DB6AA6F84099","title":"上海美丽园龙都大酒店","lon":"121.43815763806344","lat":"31.21838530295108","category":"214","category_name":"四星级宾馆","address":"上海市静安区延安西路396号(上海戏剧学院对面,圆明讲堂旁)"},{"poiid":"B2094757D06FA3FB469A","title":"同仁医院","lon":"121.434258778","lat":"31.2205877271","category":"162","category_name":"医院","address":"上海长宁区愚园路738号(近镇宁路)"},{"poiid":"B2094654D565A0FE4698","title":"三人行骨头王火锅(长宁店)","lon":"121.4337","lat":"31.21821","category":"86","category_name":"火锅店","address":"长宁区东诸安浜路141号(江苏路镇宁路间)"},{"poiid":"B2094655D36DA0F5409E","title":"愚园路镇宁路","lon":"121.43593","lat":"31.22084","category":"38","category_name":"公交车站","address":""},{"poiid":"B2094757D468A4FC4993","title":"FENNEL LOUNGE","lon":"121.4369483","lat":"31.2186778","category":"94","category_name":"西餐厅","address":"长宁区镇宁路(近番禺路)"},{"poiid":"B2094757D06FA5F84292","title":"九香牛蛙店(东诸安浜路店)","lon":"121.4339981","lat":"31.217899322","category":"71","category_name":"四川菜","address":"长宁区东诸安浜路127号(近镇宁路)"},{"poiid":"B2094757D06FAAFD4399","title":"小南国海之源日式温泉(美丽园店)","lon":"121.437987","lat":"31.218408","category":"149","category_name":"洗浴推拿场所","address":"上海静安区延安西路396号美丽园龙都大酒店3-4楼(镇宁路口)  "},{"poiid":"B2094757D068A0FA479B","title":"万宝国际广场","lon":"121.436314872","lat":"31.2171246785","category":"46","category_name":"楼宇","address":"其他区徐州铜山新区北京路,长江路口"},{"poiid":"B2094757D06FA3FA459E","title":"星巴克(协和店)","lon":"121.43694","lat":"31.21935","category":"260","category_name":"其他","address":"静安区南京西路2068号协和城01C铺(镇宁路口)"},{"poiid":"B2094757D06FA1F8439E","title":"威尔士健身会所(维景店)","lon":"121.433998108","lat":"31.2180995941","category":"221","category_name":"健身中心","address":"长宁区东诸安浜路103号维景酒店内(近江苏路)"},{"poiid":"B2094757D06FA1FE409D","title":"维景酒店公寓","lon":"121.43472","lat":"31.21783","category":"215","category_name":"三星级宾馆","address":"上海长宁区东诸安浜路103号（靠近江苏路、延安西路）"},{"poiid":"B2094654D564A6FC499E","title":"嘉利大厦","lon":"121.434","lat":"31.2162","category":"46","category_name":"楼宇","address":"上海市黄浦区南京东路409-459号"},{"poiid":"B2094757D069A3FF439E","title":"大众金融大厦","lon":"121.436","lat":"31.2189","category":"46","category_name":"楼宇","address":"延安西路1033号裙楼528"},{"poiid":"B2094757D06FA0FD419C","title":"乐购(镇宁店)","lon":"121.43677266","lat":"31.21965569","category":"118","category_name":"超级市场","address":"静安区南京西路2068号协和城B1-B2楼(镇宁路口)"},{"poiid":"B2094654D565A0FE439C","title":"半岛品珍舫 镇宁店","lon":"121.43635956924","lat":"31.219206349993","category":"76","category_name":"上海菜","address":"静安区镇宁路227号荣轩大厦B1楼(东诸安浜路口)"},{"poiid":"B2094757D568A0F84993","title":"吉惠日本料理","lon":"121.435005","lat":"31.216121","category":"95","category_name":"日本料理","address":"延安西路626号华敏世纪广场近江苏路"},{"poiid":"B2094751D36AA1FA4299","title":"洛克菲勒公馆","lon":"121.4344","lat":"31.22026","category":"76","category_name":"上海菜","address":"静安区愚园路753号(近镇宁路)"},{"poiid":"B2094757D16CA5FB409F","title":"The Fennel Lounge","lon":"121.436649586","lat":"31.2185482025","category":"500","category_name":"未知分类","address":"上海镇宁路217号"},{"poiid":"B2094750D26EA5FB449C","title":"高木日本料理（长宁店）","lon":"121.434562","lat":"31.218309","category":"95","category_name":"日本料理","address":"长宁区东诸安浜路103号(近江苏路)"},{"poiid":"B2094655D26FA0FA439C","title":"圆明讲堂(延安西路)","lon":"121.43772","lat":"31.21771","category":"250","category_name":"公园户外","address":"延安西路458"},{"poiid":"B2094757D065A6F9469A","title":"枫寿司","lon":"121.435411586","lat":"31.216269158","category":"95","category_name":"日本料理","address":"长宁区延安西路640号(近江苏路)"},{"poiid":"B2094757D068A5F4429D","title":"欣安大厦","lon":"121.43734216","lat":"31.218569001","category":"46","category_name":"楼宇","address":"内外联公寓位于静安长宁路江苏路"},{"poiid":"B2094757D469A7F4489E","title":"锦阁","lon":"121.436285","lat":"31.216973","category":"72","category_name":"广东菜","address":"静安区延安西路488号上海日航饭店3楼(镇宁路口)"},{"poiid":"B2094757DB6FA2F8469A","title":"小舍甜品","lon":"121.435634","lat":"31.216909","category":"247","category_name":"餐饮美食","address":"静安区长乐路1238-1号(近镇宁路)"},{"poiid":"B2094757D56DA4FC429E","title":"话剧中心","lon":"121.4340661","lat":"31.2182812","category":"500","category_name":"未知分类","address":"安福路"},{"poiid":"B2094750D66CAAF44698","title":"茴香餐厅酒吧","lon":"121.436538","lat":"31.218481","category":"94","category_name":"西餐厅","address":"静安区镇宁路217号(近永源路)"},{"poiid":"B2094751D26AAAF44292","title":"星巴克","lon":"121.436895","lat":"31.219013","category":"65","category_name":"咖啡厅","address":"静安区镇宁路200号欣安大厦"},{"poiid":"B2094750DB6DA4FD459D","title":"万岛日料","lon":"121.4351493896608","lat":"31.2183275580406","category":"247","category_name":"餐饮美食","address":"乌鲁木齐路480号"},{"poiid":"B2094757D064A2FA459C","title":"上面坊酥鸭面馆","lon":"121.433143","lat":"31.21838","category":"247","category_name":"餐饮美食","address":"上海东诸安浜路178号"},{"poiid":"B2094654D565A0FE409A","title":"华敏世纪广场","lon":"121.43464","lat":"31.216885","category":"47","category_name":"住宅区","address":"上海市长宁区延安西路688弄"},{"poiid":"B2094654DB6BA7F5499E","title":"金柏苑","lon":"121.436713","lat":"31.217554","category":"47","category_name":"住宅区","address":"静安延安西路433号"},{"poiid":"B2094751D56EA3FB419D","title":"崇明私房菜(延安西路店)","lon":"121.43684","lat":"31.2169","category":"76","category_name":"上海菜","address":"长宁区延安西路500号万宝国际广场3楼(近镇宁路)"},{"poiid":"B209475CD56AA7F84192","title":"青公馆","lon":"121.435211","lat":"31.21825","category":"247","category_name":"餐饮美食","address":"上海市 长宁区愚园路749号38弄"},{"poiid":"B209475CD36CA3F4489D","title":"唐宫海鲜舫 维景店","lon":"121.4363525599","lat":"31.218218725553","category":"72","category_name":"广东菜","address":"东诸安浜路103号维景酒店1-2楼近江苏路"},{"poiid":"B2094654D565A0FF4493","title":"发发雅萍酒家","lon":"121.43423471324","lat":"31.220125926429","category":"76","category_name":"上海菜","address":"长宁区愚园路792号(镇宁路江苏路间)"},{"poiid":"B2094757D165A3FF4799","title":"大鹤日本料理","lon":"121.44042","lat":"31.21982","category":"95","category_name":"日本料理","address":"静安区南京西路2068号协和城G108铺(镇宁路口)"},{"poiid":"B2094757D46FABFD4898","title":"酥鸭面","lon":"121.4342797","lat":"31.2182715","category":"68","category_name":"快餐厅","address":"长宁区东诸安浜路180弄2号104室(近江苏路)"},{"poiid":"B2094752DB6FA7FF479B","title":"和平影都","lon":"121.435413","lat":"31.218999","category":"178","category_name":"电影院","address":"上海市 西藏中路290号"},{"poiid":"B2094757D66DA2FA489C","title":"愚园路749弄老洋房","lon":"121.43549658","lat":"31.219194215","category":"500","category_name":"未知分类","address":"上海市长宁区愚园路镇宁路"},{"poiid":"B2094752D164A0F84793","title":"上海当代艺术馆","lon":"121.435013","lat":"31.21814","category":"500","category_name":"未知分类","address":"苗江路"},{"poiid":"B2094654D565A0FF429C","title":"荣轩大厦","lon":"121.43646","lat":"31.21907","category":"47","category_name":"住宅区","address":"长宁镇宁路233号"},{"poiid":"B2094757D66AA0F4499D","title":"嘉木堂","lon":"121.43632189094","lat":"31.218838985548","category":"172","category_name":"酒吧","address":"长宁区东诸安浜路57号(近镇宁路)"},{"poiid":"B2094654DB6BA6FF499A","title":"永兴商务楼","lon":"121.43759","lat":"31.21891","category":"46","category_name":"楼宇","address":"朝阳区北三环东路与京顺路交接处路口北侧"},{"poiid":"B2094751D56EA0F84492","title":"清迈府泰国料理(延安西路店)","lon":"121.43834","lat":"31.21885","category":"99","category_name":"泰国／越南菜品餐厅","address":"静安区延安西路358号美丽园大厦内(近镇宁路)"},{"poiid":"B2094655D26CABF84999","title":"金桥花园(二号门)","lon":"121.43463","lat":"31.21814","category":"47","category_name":"住宅区","address":"东诸安浜路103号"},{"poiid":"B2094654DB6AA7FC4999","title":"唐宫(维景店)","lon":"121.43456","lat":"31.21748","category":"72","category_name":"广东菜","address":"长宁区东诸安浜路103号维景酒店公寓1-2楼(近江苏路)"},{"poiid":"B2094757D06FA1FE479A","title":"大马可意大利餐厅(维景店)","lon":"121.4340661","lat":"31.2182812","category":"94","category_name":"西餐厅","address":"长宁区东诸安浜路103号维景酒店公寓1楼(近镇宁路)"},{"poiid":"B2094757D568A0FF409D","title":"上海日航饭店","lon":"121.43714247","lat":"31.21759304","category":"213","category_name":"五星级宾馆","address":"长宁区延安西路488号(近镇宁路)"},{"poiid":"B2094753D76FAAFA449C","title":"上海滩国泰旗舰店","lon":"121.466011","lat":"31.216125","category":"249","category_name":"购物服务","address":"淮海中路868号"},{"poiid":"B209475CD564A7F8439E","title":"上海滩中信泰富店","lon":"121.45602","lat":"31.22851","category":"119","category_name":"商场","address":"\"南京西路1168号中信泰富广场，店铺号221.\r\n\""},{"poiid":"B2094654DB6AA6F84099","title":"上海美丽园龙都大酒店","lon":"121.43815763806344","lat":"31.21838530295108","category":"214","category_name":"四星级宾馆","address":"上海市静安区延安西路396号(上海戏剧学院对面,圆明讲堂旁)"},{"poiid":"B2094757D06FA3FB469A","title":"同仁医院","lon":"121.434258778","lat":"31.2205877271","category":"162","category_name":"医院","address":"上海长宁区愚园路738号(近镇宁路)"},{"poiid":"B2094654D565A0FE4698","title":"三人行骨头王火锅(长宁店)","lon":"121.4337","lat":"31.21821","category":"86","category_name":"火锅店","address":"长宁区东诸安浜路141号(江苏路镇宁路间)"},{"poiid":"B2094655D36DA0F5409E","title":"愚园路镇宁路","lon":"121.43593","lat":"31.22084","category":"38","category_name":"公交车站","address":""},{"poiid":"B2094757D468A4FC4993","title":"FENNEL LOUNGE","lon":"121.4369483","lat":"31.2186778","category":"94","category_name":"西餐厅","address":"长宁区镇宁路(近番禺路)"},{"poiid":"B2094757D06FA5F84292","title":"九香牛蛙店(东诸安浜路店)","lon":"121.4339981","lat":"31.217899322","category":"71","category_name":"四川菜","address":"长宁区东诸安浜路127号(近镇宁路)"},{"poiid":"B2094757D06FAAFD4399","title":"小南国海之源日式温泉(美丽园店)","lon":"121.437987","lat":"31.218408","category":"149","category_name":"洗浴推拿场所","address":"上海静安区延安西路396号美丽园龙都大酒店3-4楼(镇宁路口)  "},{"poiid":"B2094757D068A0FA479B","title":"万宝国际广场","lon":"121.436314872","lat":"31.2171246785","category":"46","category_name":"楼宇","address":"其他区徐州铜山新区北京路,长江路口"},{"poiid":"B2094757D06FA3FA459E","title":"星巴克(协和店)","lon":"121.43694","lat":"31.21935","category":"260","category_name":"其他","address":"静安区南京西路2068号协和城01C铺(镇宁路口)"},{"poiid":"B2094757D06FA1F8439E","title":"威尔士健身会所(维景店)","lon":"121.433998108","lat":"31.2180995941","category":"221","category_name":"健身中心","address":"长宁区东诸安浜路103号维景酒店内(近江苏路)"},{"poiid":"B2094757D06FA1FE409D","title":"维景酒店公寓","lon":"121.43472","lat":"31.21783","category":"215","category_name":"三星级宾馆","address":"上海长宁区东诸安浜路103号（靠近江苏路、延安西路）"},{"poiid":"B2094654D564A6FC499E","title":"嘉利大厦","lon":"121.434","lat":"31.2162","category":"46","category_name":"楼宇","address":"上海市黄浦区南京东路409-459号"},{"poiid":"B2094757D069A3FF439E","title":"大众金融大厦","lon":"121.436","lat":"31.2189","category":"46","category_name":"楼宇","address":"延安西路1033号裙楼528"},{"poiid":"B2094757D06FA0FD419C","title":"乐购(镇宁店)","lon":"121.43677266","lat":"31.21965569","category":"118","category_name":"超级市场","address":"静安区南京西路2068号协和城B1-B2楼(镇宁路口)"},{"poiid":"B2094654D565A0FE439C","title":"半岛品珍舫 镇宁店","lon":"121.43635956924","lat":"31.219206349993","category":"76","category_name":"上海菜","address":"静安区镇宁路227号荣轩大厦B1楼(东诸安浜路口)"},{"poiid":"B2094757D568A0F84993","title":"吉惠日本料理","lon":"121.435005","lat":"31.216121","category":"95","category_name":"日本料理","address":"延安西路626号华敏世纪广场近江苏路"},{"poiid":"B2094751D36AA1FA4299","title":"洛克菲勒公馆","lon":"121.4344","lat":"31.22026","category":"76","category_name":"上海菜","address":"静安区愚园路753号(近镇宁路)"},{"poiid":"B2094757D16CA5FB409F","title":"The Fennel Lounge","lon":"121.436649586","lat":"31.2185482025","category":"500","category_name":"未知分类","address":"上海镇宁路217号"},{"poiid":"B2094750D26EA5FB449C","title":"高木日本料理（长宁店）","lon":"121.434562","lat":"31.218309","category":"95","category_name":"日本料理","address":"长宁区东诸安浜路103号(近江苏路)"},{"poiid":"B2094655D26FA0FA439C","title":"圆明讲堂(延安西路)","lon":"121.43772","lat":"31.21771","category":"250","category_name":"公园户外","address":"延安西路458"},{"poiid":"B2094757D065A6F9469A","title":"枫寿司","lon":"121.435411586","lat":"31.216269158","category":"95","category_name":"日本料理","address":"长宁区延安西路640号(近江苏路)"},{"poiid":"B2094757D068A5F4429D","title":"欣安大厦","lon":"121.43734216","lat":"31.218569001","category":"46","category_name":"楼宇","address":"内外联公寓位于静安长宁路江苏路"},{"poiid":"B2094757D469A7F4489E","title":"锦阁","lon":"121.436285","lat":"31.216973","category":"72","category_name":"广东菜","address":"静安区延安西路488号上海日航饭店3楼(镇宁路口)"},{"poiid":"B2094757DB6FA2F8469A","title":"小舍甜品","lon":"121.435634","lat":"31.216909","category":"247","category_name":"餐饮美食","address":"静安区长乐路1238-1号(近镇宁路)"},{"poiid":"B2094757D56DA4FC429E","title":"话剧中心","lon":"121.4340661","lat":"31.2182812","category":"500","category_name":"未知分类","address":"安福路"},{"poiid":"B2094750D66CAAF44698","title":"茴香餐厅酒吧","lon":"121.436538","lat":"31.218481","category":"94","category_name":"西餐厅","address":"静安区镇宁路217号(近永源路)"},{"poiid":"B2094751D26AAAF44292","title":"星巴克","lon":"121.436895","lat":"31.219013","category":"65","category_name":"咖啡厅","address":"静安区镇宁路200号欣安大厦"},{"poiid":"B2094750DB6DA4FD459D","title":"万岛日料","lon":"121.4351493896608","lat":"31.2183275580406","category":"247","category_name":"餐饮美食","address":"乌鲁木齐路480号"},{"poiid":"B2094757D064A2FA459C","title":"上面坊酥鸭面馆","lon":"121.433143","lat":"31.21838","category":"247","category_name":"餐饮美食","address":"上海东诸安浜路178号"},{"poiid":"B2094654D565A0FE409A","title":"华敏世纪广场","lon":"121.43464","lat":"31.216885","category":"47","category_name":"住宅区","address":"上海市长宁区延安西路688弄"},{"poiid":"B2094654DB6BA7F5499E","title":"金柏苑","lon":"121.436713","lat":"31.217554","category":"47","category_name":"住宅区","address":"静安延安西路433号"},{"poiid":"B2094751D56EA3FB419D","title":"崇明私房菜(延安西路店)","lon":"121.43684","lat":"31.2169","category":"76","category_name":"上海菜","address":"长宁区延安西路500号万宝国际广场3楼(近镇宁路)"},{"poiid":"B209475CD56AA7F84192","title":"青公馆","lon":"121.435211","lat":"31.21825","category":"247","category_name":"餐饮美食","address":"上海市 长宁区愚园路749号38弄"},{"poiid":"B209475CD36CA3F4489D","title":"唐宫海鲜舫 维景店","lon":"121.4363525599","lat":"31.218218725553","category":"72","category_name":"广东菜","address":"东诸安浜路103号维景酒店1-2楼近江苏路"},{"poiid":"B2094654D565A0FF4493","title":"发发雅萍酒家","lon":"121.43423471324","lat":"31.220125926429","category":"76","category_name":"上海菜","address":"长宁区愚园路792号(镇宁路江苏路间)"},{"poiid":"B2094757D165A3FF4799","title":"大鹤日本料理","lon":"121.44042","lat":"31.21982","category":"95","category_name":"日本料理","address":"静安区南京西路2068号协和城G108铺(镇宁路口)"},{"poiid":"B2094757D46FABFD4898","title":"酥鸭面","lon":"121.4342797","lat":"31.2182715","category":"68","category_name":"快餐厅","address":"长宁区东诸安浜路180弄2号104室(近江苏路)"},{"poiid":"B2094752DB6FA7FF479B","title":"和平影都","lon":"121.435413","lat":"31.218999","category":"178","category_name":"电影院","address":"上海市 西藏中路290号"},{"poiid":"B2094757D66DA2FA489C","title":"愚园路749弄老洋房","lon":"121.43549658","lat":"31.219194215","category":"500","category_name":"未知分类","address":"上海市长宁区愚园路镇宁路"},{"poiid":"B2094752D164A0F84793","title":"上海当代艺术馆","lon":"121.435013","lat":"31.21814","category":"500","category_name":"未知分类","address":"苗江路"},{"poiid":"B2094654D565A0FF429C","title":"荣轩大厦","lon":"121.43646","lat":"31.21907","category":"47","category_name":"住宅区","address":"长宁镇宁路233号"},{"poiid":"B2094757D66AA0F4499D","title":"嘉木堂","lon":"121.43632189094","lat":"31.218838985548","category":"172","category_name":"酒吧","address":"长宁区东诸安浜路57号(近镇宁路)"},{"poiid":"B2094654DB6BA6FF499A","title":"永兴商务楼","lon":"121.43759","lat":"31.21891","category":"46","category_name":"楼宇","address":"朝阳区北三环东路与京顺路交接处路口北侧"},{"poiid":"B2094751D56EA0F84492","title":"清迈府泰国料理(延安西路店)","lon":"121.43834","lat":"31.21885","category":"99","category_name":"泰国／越南菜品餐厅","address":"静安区延安西路358号美丽园大厦内(近镇宁路)"},{"poiid":"B2094655D26CABF84999","title":"金桥花园(二号门)","lon":"121.43463","lat":"31.21814","category":"47","category_name":"住宅区","address":"东诸安浜路103号"},{"poiid":"B2094654DB6AA7FC4999","title":"唐宫(维景店)","lon":"121.43456","lat":"31.21748","category":"72","category_name":"广东菜","address":"长宁区东诸安浜路103号维景酒店公寓1-2楼(近江苏路)"},{"poiid":"B2094757D06FA1FE479A","title":"大马可意大利餐厅(维景店)","lon":"121.4340661","lat":"31.2182812","category":"94","category_name":"西餐厅","address":"长宁区东诸安浜路103号维景酒店公寓1楼(近镇宁路)"},{"poiid":"B2094757D568A0FF409D","title":"上海日航饭店","lon":"121.43714247","lat":"31.21759304","category":"213","category_name":"五星级宾馆","address":"长宁区延安西路488号(近镇宁路)"},{"poiid":"B2094753D76FAAFA449C","title":"上海滩国泰旗舰店","lon":"121.466011","lat":"31.216125","category":"249","category_name":"购物服务","address":"淮海中路868号"},{"poiid":"B209475CD564A7F8439E","title":"上海滩中信泰富店","lon":"121.45602","lat":"31.22851","category":"119","category_name":"商场","address":"\"南京西路1168号中信泰富广场，店铺号221.\r\n\""},{"poiid":"B2094654DB6AA6F84099","title":"上海美丽园龙都大酒店","lon":"121.43815763806344","lat":"31.21838530295108","category":"214","category_name":"四星级宾馆","address":"上海市静安区延安西路396号(上海戏剧学院对面,圆明讲堂旁)"},{"poiid":"B2094757D06FA3FB469A","title":"同仁医院","lon":"121.434258778","lat":"31.2205877271","category":"162","category_name":"医院","address":"上海长宁区愚园路738号(近镇宁路)"},{"poiid":"B2094654D565A0FE4698","title":"三人行骨头王火锅(长宁店)","lon":"121.4337","lat":"31.21821","category":"86","category_name":"火锅店","address":"长宁区东诸安浜路141号(江苏路镇宁路间)"},{"poiid":"B2094655D36DA0F5409E","title":"愚园路镇宁路","lon":"121.43593","lat":"31.22084","category":"38","category_name":"公交车站","address":""},{"poiid":"B2094757D468A4FC4993","title":"FENNEL LOUNGE","lon":"121.4369483","lat":"31.2186778","category":"94","category_name":"西餐厅","address":"长宁区镇宁路(近番禺路)"},{"poiid":"B2094757D06FA5F84292","title":"九香牛蛙店(东诸安浜路店)","lon":"121.4339981","lat":"31.217899322","category":"71","category_name":"四川菜","address":"长宁区东诸安浜路127号(近镇宁路)"},{"poiid":"B2094757D06FAAFD4399","title":"小南国海之源日式温泉(美丽园店)","lon":"121.437987","lat":"31.218408","category":"149","category_name":"洗浴推拿场所","address":"上海静安区延安西路396号美丽园龙都大酒店3-4楼(镇宁路口)  "},{"poiid":"B2094757D068A0FA479B","title":"万宝国际广场","lon":"121.436314872","lat":"31.2171246785","category":"46","category_name":"楼宇","address":"其他区徐州铜山新区北京路,长江路口"},{"poiid":"B2094757D06FA3FA459E","title":"星巴克(协和店)","lon":"121.43694","lat":"31.21935","category":"260","category_name":"其他","address":"静安区南京西路2068号协和城01C铺(镇宁路口)"},{"poiid":"B2094757D06FA1F8439E","title":"威尔士健身会所(维景店)","lon":"121.433998108","lat":"31.2180995941","category":"221","category_name":"健身中心","address":"长宁区东诸安浜路103号维景酒店内(近江苏路)"},{"poiid":"B2094757D06FA1FE409D","title":"维景酒店公寓","lon":"121.43472","lat":"31.21783","category":"215","category_name":"三星级宾馆","address":"上海长宁区东诸安浜路103号（靠近江苏路、延安西路）"},{"poiid":"B2094654D564A6FC499E","title":"嘉利大厦","lon":"121.434","lat":"31.2162","category":"46","category_name":"楼宇","address":"上海市黄浦区南京东路409-459号"},{"poiid":"B2094757D069A3FF439E","title":"大众金融大厦","lon":"121.436","lat":"31.2189","category":"46","category_name":"楼宇","address":"延安西路1033号裙楼528"},{"poiid":"B2094757D06FA0FD419C","title":"乐购(镇宁店)","lon":"121.43677266","lat":"31.21965569","category":"118","category_name":"超级市场","address":"静安区南京西路2068号协和城B1-B2楼(镇宁路口)"},{"poiid":"B2094654D565A0FE439C","title":"半岛品珍舫 镇宁店","lon":"121.43635956924","lat":"31.219206349993","category":"76","category_name":"上海菜","address":"静安区镇宁路227号荣轩大厦B1楼(东诸安浜路口)"},{"poiid":"B2094757D568A0F84993","title":"吉惠日本料理","lon":"121.435005","lat":"31.216121","category":"95","category_name":"日本料理","address":"延安西路626号华敏世纪广场近江苏路"},{"poiid":"B2094751D36AA1FA4299","title":"洛克菲勒公馆","lon":"121.4344","lat":"31.22026","category":"76","category_name":"上海菜","address":"静安区愚园路753号(近镇宁路)"},{"poiid":"B2094757D16CA5FB409F","title":"The Fennel Lounge","lon":"121.436649586","lat":"31.2185482025","category":"500","category_name":"未知分类","address":"上海镇宁路217号"},{"poiid":"B2094750D26EA5FB449C","title":"高木日本料理（长宁店）","lon":"121.434562","lat":"31.218309","category":"95","category_name":"日本料理","address":"长宁区东诸安浜路103号(近江苏路)"},{"poiid":"B2094655D26FA0FA439C","title":"圆明讲堂(延安西路)","lon":"121.43772","lat":"31.21771","category":"250","category_name":"公园户外","address":"延安西路458"},{"poiid":"B2094757D065A6F9469A","title":"枫寿司","lon":"121.435411586","lat":"31.216269158","category":"95","category_name":"日本料理","address":"长宁区延安西路640号(近江苏路)"},{"poiid":"B2094757D068A5F4429D","title":"欣安大厦","lon":"121.43734216","lat":"31.218569001","category":"46","category_name":"楼宇","address":"内外联公寓位于静安长宁路江苏路"},{"poiid":"B2094757D469A7F4489E","title":"锦阁","lon":"121.436285","lat":"31.216973","category":"72","category_name":"广东菜","address":"静安区延安西路488号上海日航饭店3楼(镇宁路口)"},{"poiid":"B2094757DB6FA2F8469A","title":"小舍甜品","lon":"121.435634","lat":"31.216909","category":"247","category_name":"餐饮美食","address":"静安区长乐路1238-1号(近镇宁路)"},{"poiid":"B2094757D56DA4FC429E","title":"话剧中心","lon":"121.4340661","lat":"31.2182812","category":"500","category_name":"未知分类","address":"安福路"},{"poiid":"B2094750D66CAAF44698","title":"茴香餐厅酒吧","lon":"121.436538","lat":"31.218481","category":"94","category_name":"西餐厅","address":"静安区镇宁路217号(近永源路)"},{"poiid":"B2094751D26AAAF44292","title":"星巴克","lon":"121.436895","lat":"31.219013","category":"65","category_name":"咖啡厅","address":"静安区镇宁路200号欣安大厦"},{"poiid":"B2094750DB6DA4FD459D","title":"万岛日料","lon":"121.4351493896608","lat":"31.2183275580406","category":"247","category_name":"餐饮美食","address":"乌鲁木齐路480号"},{"poiid":"B2094757D064A2FA459C","title":"上面坊酥鸭面馆","lon":"121.433143","lat":"31.21838","category":"247","category_name":"餐饮美食","address":"上海东诸安浜路178号"},{"poiid":"B2094654D565A0FE409A","title":"华敏世纪广场","lon":"121.43464","lat":"31.216885","category":"47","category_name":"住宅区","address":"上海市长宁区延安西路688弄"},{"poiid":"B2094654DB6BA7F5499E","title":"金柏苑","lon":"121.436713","lat":"31.217554","category":"47","category_name":"住宅区","address":"静安延安西路433号"},{"poiid":"B2094751D56EA3FB419D","title":"崇明私房菜(延安西路店)","lon":"121.43684","lat":"31.2169","category":"76","category_name":"上海菜","address":"长宁区延安西路500号万宝国际广场3楼(近镇宁路)"},{"poiid":"B209475CD56AA7F84192","title":"青公馆","lon":"121.435211","lat":"31.21825","category":"247","category_name":"餐饮美食","address":"上海市 长宁区愚园路749号38弄"},{"poiid":"B209475CD36CA3F4489D","title":"唐宫海鲜舫 维景店","lon":"121.4363525599","lat":"31.218218725553","category":"72","category_name":"广东菜","address":"东诸安浜路103号维景酒店1-2楼近江苏路"},{"poiid":"B2094654D565A0FF4493","title":"发发雅萍酒家","lon":"121.43423471324","lat":"31.220125926429","category":"76","category_name":"上海菜","address":"长宁区愚园路792号(镇宁路江苏路间)"},{"poiid":"B2094757D165A3FF4799","title":"大鹤日本料理","lon":"121.44042","lat":"31.21982","category":"95","category_name":"日本料理","address":"静安区南京西路2068号协和城G108铺(镇宁路口)"},{"poiid":"B2094757D46FABFD4898","title":"酥鸭面","lon":"121.4342797","lat":"31.2182715","category":"68","category_name":"快餐厅","address":"长宁区东诸安浜路180弄2号104室(近江苏路)"},{"poiid":"B2094752DB6FA7FF479B","title":"和平影都","lon":"121.435413","lat":"31.218999","category":"178","category_name":"电影院","address":"上海市 西藏中路290号"},{"poiid":"B2094757D66DA2FA489C","title":"愚园路749弄老洋房","lon":"121.43549658","lat":"31.219194215","category":"500","category_name":"未知分类","address":"上海市长宁区愚园路镇宁路"},{"poiid":"B2094752D164A0F84793","title":"上海当代艺术馆","lon":"121.435013","lat":"31.21814","category":"500","category_name":"未知分类","address":"苗江路"},{"poiid":"B2094654D565A0FF429C","title":"荣轩大厦","lon":"121.43646","lat":"31.21907","category":"47","category_name":"住宅区","address":"长宁镇宁路233号"},{"poiid":"B2094757D66AA0F4499D","title":"嘉木堂","lon":"121.43632189094","lat":"31.218838985548","category":"172","category_name":"酒吧","address":"长宁区东诸安浜路57号(近镇宁路)"},{"poiid":"B2094654DB6BA6FF499A","title":"永兴商务楼","lon":"121.43759","lat":"31.21891","category":"46","category_name":"楼宇","address":"朝阳区北三环东路与京顺路交接处路口北侧"},{"poiid":"B2094751D56EA0F84492","title":"清迈府泰国料理(延安西路店)","lon":"121.43834","lat":"31.21885","category":"99","category_name":"泰国／越南菜品餐厅","address":"静安区延安西路358号美丽园大厦内(近镇宁路)"},{"poiid":"B2094655D26CABF84999","title":"金桥花园(二号门)","lon":"121.43463","lat":"31.21814","category":"47","category_name":"住宅区","address":"东诸安浜路103号"}]