[{"poiid":"B2094757D069A4F9479B","title":"黄兴路","lon":"121.52361638","lat":"31.283861113","category":"500","category_name":"未知分类","address":"上海黄兴路"},{"poiid":"B2094757D069A5F9409A","title":"地铁八号线黄兴路站","lon":"121.526857003","lat":"31.2830076853","category":"500","category_name":"未知分类","address":"上海市控江路靖宇南路"},{"poiid":"B2094654D56EABFE429A","title":"新凤城","lon":"121.52696007347","lat":"31.282740012388","category":"47","category_name":"住宅区","address":"杨浦区控江路1500号(近江浦路)"},{"poiid":"B2094757D068AAF54799","title":"新招鲜本地鸡窝(靖宇中路店)","lon":"121.52742","lat":"31.284466","category":"86","category_name":"火锅店","address":"杨浦区靖宇中路120号(近沧州路)"},{"poiid":"B2094757D168A4FF439C","title":"沪碟 汇味馆","lon":"121.526538","lat":"31.281765","category":"76","category_name":"上海菜","address":"上海杨浦区延吉中路423号(近靖宇南路)  "},{"poiid":"B2094750D665A3FA459B","title":"鼎中鼎澳门豆捞(黄兴路店)","lon":"121.524","lat":"31.2818","category":"86","category_name":"火锅店","address":"杨浦区黄兴路1100号(近延吉中路)"},{"poiid":"B2094757D065A6F44598","title":"大润发","lon":"121.52683823","lat":"31.287860914","category":"500","category_name":"未知分类","address":"上海黄兴路"},{"poiid":"B2094757D068A3F9439F","title":"东方名园","lon":"121.52525","lat":"31.280867","category":"47","category_name":"住宅区","address":"上海市虹口区新市南路780号"},{"poiid":"B2094757D06BAAF84599","title":"COCO都可茶饮","lon":"121.523417503","lat":"31.2827491799","category":"113","category_name":"冷饮店","address":"杨浦区延吉中路338号(近黄兴路)"},{"poiid":"B2094654D56FA5F8419C","title":"金宇名邸","lon":"121.52449","lat":"31.282879","category":"47","category_name":"住宅区","address":"上海市杨浦区靖宇南路近延吉中路101号"},{"poiid":"B2094757D06FA6FE4499","title":"凤城二村","lon":"121.5279102904","lat":"31.283746053398","category":"47","category_name":"住宅区","address":"上海江浦路凤城路"},{"poiid":"B2094654D56EABFE439B","title":"豪享来上海本溪店","lon":"121.523","lat":"31.282","category":"247","category_name":"餐饮美食","address":"上海市杨浦区本溪路49-51.53-55号"},{"poiid":"B2094757D068AAF8429D","title":"90路终点站","lon":"121.52612304","lat":"31.284069061","category":"38","category_name":"公交车站","address":"上海靖宇南路控江路"},{"poiid":"B2094757D06BA1FB449A","title":"新亚大包 新宾店","lon":"121.528045054","lat":"31.284137793","category":"68","category_name":"快餐厅","address":"杨浦区沧州路138号(靖宇中路口)"},{"poiid":"B2094655D26CA6F54592","title":"控江四村小区南二门(杨浦区控江路街道居委会分校西南)","lon":"121.52612","lat":"31.28406","category":"47","category_name":"住宅区","address":""},{"poiid":"B2094654D56FA5FE4898","title":"望春都市家园","lon":"121.52888","lat":"31.28392","category":"47","category_name":"住宅区","address":"望春都市家园位于杨浦延吉中路118号"},{"poiid":"B2094757D06BA5F94892","title":"soso 星尚","lon":"121.5285791","lat":"31.282902683","category":"148","category_name":"美容美发店","address":"上海市杨浦区延吉中路"},{"poiid":"B2094655D26CA4FA499B","title":"控江四村小区南二门靖宇南路","lon":"121.52505","lat":"31.28367","category":"47","category_name":"住宅区","address":""},{"poiid":"B2094654DB6BA2F94093","title":"上海市黄兴学校","lon":"121.52445","lat":"31.2851","category":"55","category_name":"中学","address":"松花江路977临"},{"poiid":"B2094757D068A6FA4892","title":"K8桌球","lon":"121.52479","lat":"31.28035","category":"171","category_name":"台球厅","address":"杨浦区黄兴路888号2楼(近延吉路)"},{"poiid":"B2094654D56EA4F54499","title":"长岭路60弄小区","lon":"121.526","lat":"31.2855","category":"47","category_name":"住宅区","address":"长岭路60弄"},{"poiid":"B2094654D56FA5FF4899","title":"联华超市(靖宇中路)","lon":"121.52648","lat":"31.2842","category":"117","category_name":"便民商店/便利店","address":"杨浦区靖宇中路136号(近沧州路)"},{"poiid":"B2094654D56FA5F8419E","title":"九州花苑(西门)","lon":"121.52538","lat":"31.28325","category":"47","category_name":"住宅区","address":"靖宇南路99弄1-12、15、18号"},{"poiid":"B2094654DB65A2FD4899","title":"梦溪大酒店","lon":"121.52692","lat":"31.28435","category":"88","category_name":"海鲜酒楼","address":"靖宇中路120号"},{"poiid":"B2094757D16CA0FD4093","title":"大唐人家老北京火锅","lon":"121.524585363","lat":"31.2803214692","category":"247","category_name":"餐饮美食","address":"上海杨浦区凤城路"},{"poiid":"B2094654D56FA5FE4592","title":"控江二村107弄小区","lon":"121.52688","lat":"31.28323","category":"47","category_name":"住宅区","address":"延吉中路"},{"poiid":"B2094654D56FA5FF4799","title":"良友金伴No.473","lon":"121.5272","lat":"31.28446","category":"117","category_name":"便民商店/便利店","address":"靖宇中路108"},{"poiid":"B2094655D265AAFE429D","title":"上海名屋美容美发店","lon":"121.52522","lat":"31.28271","category":"148","category_name":"美容美发店","address":"靖宇南路116"},{"poiid":"B2094757D06BA2F54998","title":"九州花苑","lon":"121.52592","lat":"31.283064","category":"252","category_name":"楼宇机构","address":"上海杨浦区靖宇南路99弄"},{"poiid":"B2094752D66DA3F84793","title":"翠华餐厅","lon":"121.52771","lat":"31.284285","category":"247","category_name":"餐饮美食","address":"邯郸路600号万达商业广场一楼"},{"poiid":"B2094654D56FA5FB479F","title":"永琪美容美发(延吉中路)","lon":"121.52642","lat":"31.28174","category":"148","category_name":"美容美发店","address":"杨浦区延吉中路427号"},{"poiid":"B2094654D56FA5FE4999","title":"二联小学","lon":"121.52742","lat":"31.28282","category":"56","category_name":"小学","address":"杨浦区延吉中路224号(近沧州路)"},{"poiid":"B2094655D26CA6FE419D","title":"好德No.735","lon":"121.52719","lat":"31.28492","category":"117","category_name":"便民商店/便利店","address":"沧州路165"},{"poiid":"B2094750D76DA1F5479E","title":"阿三生煎馆(黄兴路店)","lon":"121.524","lat":"31.2811","category":"68","category_name":"快餐厅","address":"杨浦区黄兴路1019弄13号(延吉东路口)"},{"poiid":"B2094757D16AABFE459D","title":"沧州路","lon":"121.5265121","lat":"31.286037748","category":"500","category_name":"未知分类","address":"上海沧州路180弄"},{"poiid":"B2094750D769A3FD479A","title":"平佑宁波小海鲜","lon":"121.523","lat":"31.2829","category":"71","category_name":"四川菜","address":"杨浦区黄兴路1439号(近抚顺路)"},{"poiid":"B2094757D66FA2FF459E","title":"黄兴路抚顺路","lon":"121.523848103","lat":"31.2837687012","category":"500","category_name":"未知分类","address":"上海黄兴路抚顺路"},{"poiid":"B2094654D56FA5FB489A","title":"紫罗兰家苑(西门)","lon":"121.52626","lat":"31.28109","category":"656","category_name":"大门","address":""},{"poiid":"B2094655D26CA5F9499F","title":"上海市海浦进修学院","lon":"121.52445","lat":"31.28511","category":"53","category_name":"成人教育","address":"控江四村107"},{"poiid":"B2094655D26CA5FD4092","title":"沧州路160弄小区(西门)","lon":"121.52735","lat":"31.28521","category":"47","category_name":"住宅区","address":"沧州路160弄1-4号"},{"poiid":"B209475CD468A4F5489B","title":"上海当代艺术馆","lon":"121.527023","lat":"31.284229","category":"500","category_name":"未知分类","address":"上海市 上海南京西路231号人民公园7号门"},{"poiid":"B2094655D26CA5FB449A","title":"裕骋国际","lon":"121.52794","lat":"31.28489","category":"46","category_name":"楼宇","address":"靖宇中路90"},{"poiid":"B2094655D36CA0F44298","title":"黄兴路控江新村","lon":"121.52336","lat":"31.28335","category":"38","category_name":"公交车站","address":""},{"poiid":"B2094655D26FA0FE419F","title":"凤城三村小区(东门)","lon":"121.52319","lat":"31.28261","category":"656","category_name":"大门","address":"黄兴路1413弄"},{"poiid":"B209475CDA6CA4FF4293","title":"上海大饭堂","lon":"121.523925","lat":"31.286359","category":"500","category_name":"未知分类","address":"上海市 上海市杨浦区黄兴路东方蓝海国际广场"},{"poiid":"B2094655D36DA0F84599","title":"延吉中路黄兴路","lon":"121.52613","lat":"31.28185","category":"38","category_name":"公交车站","address":""},{"poiid":"B2094757D16BA1F5409D","title":"美豪阁大碗面","lon":"121.52642","lat":"31.28165","category":"68","category_name":"快餐厅","address":"杨浦区延吉中路280号(靖宇南路延吉中路)"},{"poiid":"B2094654D56EA4F4419D","title":"沁怡西点面包房","lon":"121.52241","lat":"31.28336","category":"112","category_name":"糕饼店","address":"杨浦区抚顺路3号(近黄兴路)"},{"poiid":"B2094757D069A1FF4699","title":"朱鸿兴苏州汤包馆 延吉中路店","lon":"121.524896054","lat":"31.281663793","category":"76","category_name":"上海菜","address":"杨浦区延吉中路401号(近靖宇南路)"},{"poiid":"B2094654D56FA5FF4993","title":"控江四村小区(南门)","lon":"121.52565","lat":"31.28389","category":"656","category_name":"大门","address":""},{"poiid":"B2094757D069A4F9479B","title":"黄兴路","lon":"121.52361638","lat":"31.283861113","category":"500","category_name":"未知分类","address":"上海黄兴路"},{"poiid":"B2094757D069A5F9409A","title":"地铁八号线黄兴路站","lon":"121.526857003","lat":"31.2830076853","category":"500","category_name":"未知分类","address":"上海市控江路靖宇南路"},{"poiid":"B2094654D56EABFE429A","title":"新凤城","lon":"121.52696007347","lat":"31.282740012388","category":"47","category_name":"住宅区","address":"杨浦区控江路1500号(近江浦路)"},{"poiid":"B2094757D068AAF54799","title":"新招鲜本地鸡窝(靖宇中路店)","lon":"121.52742","lat":"31.284466","category":"86","category_name":"火锅店","address":"杨浦区靖宇中路120号(近沧州路)"},{"poiid":"B2094757D168A4FF439C","title":"沪碟 汇味馆","lon":"121.526538","lat":"31.281765","category":"76","category_name":"上海菜","address":"上海杨浦区延吉中路423号(近靖宇南路)  "},{"poiid":"B2094750D665A3FA459B","title":"鼎中鼎澳门豆捞(黄兴路店)","lon":"121.524","lat":"31.2818","category":"86","category_name":"火锅店","address":"杨浦区黄兴路1100号(近延吉中路)"},{"poiid":"B2094757D065A6F44598","title":"大润发","lon":"121.52683823","lat":"31.287860914","category":"500","category_name":"未知分类","address":"上海黄兴路"},{"poiid":"B2094757D068A3F9439F","title":"东方名园","lon":"121.52525","lat":"31.280867","category":"47","category_name":"住宅区","address":"上海市虹口区新市南路780号"},{"poiid":"B2094757D06BAAF84599","title":"COCO都可茶饮","lon":"121.523417503","lat":"31.2827491799","category":"113","category_name":"冷饮店","address":"杨浦区延吉中路338号(近黄兴路)"},{"poiid":"B2094654D56FA5F8419C","title":"金宇名邸","lon":"121.52449","lat":"31.282879","category":"47","category_name":"住宅区","address":"上海市杨浦区靖宇南路近延吉中路101号"},{"poiid":"B2094757D06FA6FE4499","title":"凤城二村","lon":"121.5279102904","lat":"31.283746053398","category":"47","category_name":"住宅区","address":"上海江浦路凤城路"},{"poiid":"B2094654D56EABFE439B","title":"豪享来上海本溪店","lon":"121.523","lat":"31.282","category":"247","category_name":"餐饮美食","address":"上海市杨浦区本溪路49-51.53-55号"},{"poiid":"B2094757D068AAF8429D","title":"90路终点站","lon":"121.52612304","lat":"31.284069061","category":"38","category_name":"公交车站","address":"上海靖宇南路控江路"},{"poiid":"B2094757D06BA1FB449A","title":"新亚大包 新宾店","lon":"121.528045054","lat":"31.284137793","category":"68","category_name":"快餐厅","address":"杨浦区沧州路138号(靖宇中路口)"},{"poiid":"B2094655D26CA6F54592","title":"控江四村小区南二门(杨浦区控江路街道居委会分校西南)","lon":"121.52612","lat":"31.28406","category":"47","category_name":"住宅区","address":""},{"poiid":"B2094654D56FA5FE4898","title":"望春都市家园","lon":"121.52888","lat":"31.28392","category":"47","category_name":"住宅区","address":"望春都市家园位于杨浦延吉中路118号"},{"poiid":"B2094757D06BA5F94892","title":"soso 星尚","lon":"121.5285791","lat":"31.282902683","category":"148","category_name":"美容美发店","address":"上海市杨浦区延吉中路"},{"poiid":"B2094655D26CA4FA499B","title":"控江四村小区南二门靖宇南路","lon":"121.52505","lat":"31.28367","category":"47","category_name":"住宅区","address":""},{"poiid":"B2094654DB6BA2F94093","title":"上海市黄兴学校","lon":"121.52445","lat":"31.2851","category":"55","category_name":"中学","address":"松花江路977临"},{"poiid":"B2094757D068A6FA4892","title":"K8桌球","lon":"121.52479","lat":"31.28035","category":"171","category_name":"台球厅","address":"杨浦区黄兴路888号2楼(近延吉路)"},{"poiid":"B2094654D56EA4F54499","title":"长岭路60弄小区","lon":"121.526","lat":"31.2855","category":"47","category_name":"住宅区","address":"长岭路60弄"},{"poiid":"B2094654D56FA5FF4899","title":"联华超市(靖宇中路)","lon":"121.52648","lat":"31.2842","category":"117","category_name":"便民商店/便利店","address":"杨浦区靖宇中路136号(近沧州路)"},{"poiid":"B2094654D56FA5F8419E","title":"九州花苑(西门)","lon":"121.52538","lat":"31.28325","category":"47","category_name":"住宅区","address":"靖宇南路99弄1-12、15、18号"},{"poiid":"B2094654DB65A2FD4899","title":"梦溪大酒店","lon":"121.52692","lat":"31.28435","category":"88","category_name":"海鲜酒楼","address":"靖宇中路120号"},{"poiid":"B2094757D16CA0FD4093","title":"大唐人家老北京火锅","lon":"121.524585363","lat":"31.2803214692","category":"247","category_name":"餐饮美食","address":"上海杨浦区凤城路"},{"poiid":"B2094654D56FA5FE4592","title":"控江二村107弄小区","lon":"121.52688","lat":"31.28323","category":"47","category_name":"住宅区","address":"延吉中路"},{"poiid":"B2094654D56FA5FF4799","title":"良友金伴No.473","lon":"121.5272","lat":"31.28446","category":"117","category_name":"便民商店/便利店","address":"靖宇中路108"},{"poiid":"B2094655D265AAFE429D","title":"上海名屋美容美发店","lon":"121.52522","lat":"31.28271","category":"148","category_name":"美容美发店","address":"靖宇南路116"},{"poiid":"B2094757D06BA2F54998","title":"九州花苑","lon":"121.52592","lat":"31.283064","category":"252","category_name":"楼宇机构","address":"上海杨浦区靖宇南路99弄"},{"poiid":"B2094752D66DA3F84793","title":"翠华餐厅","lon":"121.52771","lat":"31.284285","category":"247","category_name":"餐饮美食","address":"邯郸路600号万达商业广场一楼"},{"poiid":"B2094654D56FA5FB479F","title":"永琪美容美发(延吉中路)","lon":"121.52642","lat":"31.28174","category":"148","category_name":"美容美发店","address":"杨浦区延吉中路427号"},{"poiid":"B2094654D56FA5FE4999","title":"二联小学","lon":"121.52742","lat":"31.28282","category":"56","category_name":"小学","address":"杨浦区延吉中路224号(近沧州路)"},{"poiid":"B2094655D26CA6FE419D","title":"好德No.735","lon":"121.52719","lat":"31.28492","category":"117","category_name":"便民商店/便利店","address":"沧州路165"},{"poiid":"B2094750D76DA1F5479E","title":"阿三生煎馆(黄兴路店)","lon":"121.524","lat":"31.2811","category":"68","category_name":"快餐厅","address":"杨浦区黄兴路1019弄13号(延吉东路口)"},{"poiid":"B2094757D16AABFE459D","title":"沧州路","lon":"121.5265121","lat":"31.286037748","category":"500","category_name":"未知分类","address":"上海沧州路180弄"},{"poiid":"B2094750D769A3FD479A","title":"平佑宁波小海鲜","lon":"121.523","lat":"31.2829","category":"71","category_name":"四川菜","address":"杨浦区黄兴路1439号(近抚顺路)"},{"poiid":"B2094757D66FA2FF459E","title":"黄兴路抚顺路","lon":"121.523848103","lat":"31.2837687012","category":"500","category_name":"未知分类","address":"上海黄兴路抚顺路"},{"poiid":"B2094654D56FA5FB489A","title":"紫罗兰家苑(西门)","lon":"121.52626","lat":"31.28109","category":"656","category_name":"大门","address":""},{"poiid":"B2094655D26CA5F9499F","title":"上海市海浦进修学院","lon":"121.52445","lat":"31.28511","category":"53","category_name":"成人教育","address":"控江四村107"},{"poiid":"B2094655D26CA5FD4092","title":"沧州路160弄小区(西门)","lon":"121.52735","lat":"31.28521","category":"47","category_name":"住宅区","address":"沧州路160弄1-4号"},{"poiid":"B209475CD468A4F5489B","title":"上海当代艺术馆","lon":"121.527023","lat":"31.284229","category":"500","category_name":"未知分类","address":"上海市 上海南京西路231号人民公园7号门"},{"poiid":"B2094655D26CA5FB449A","title":"裕骋国际","lon":"121.52794","lat":"31.28489","category":"46","category_name":"楼宇","address":"靖宇中路90"},{"poiid":"B2094655D36CA0F44298","title":"黄兴路控江新村","lon":"121.52336","lat":"31.28335","category":"38","category_name":"公交车站","address":""},{"poiid":"B2094655D26FA0FE419F","title":"凤城三村小区(东门)","lon":"121.52319","lat":"31.28261","category":"656","category_name":"大门","address":"黄兴路1413弄"},{"poiid":"B209475CDA6CA4FF4293","title":"上海大饭堂","lon":"121.523925","lat":"31.286359","category":"500","category_name":"未知分类","address":"上海市 上海市杨浦区黄兴路东方蓝海国际广场"},{"poiid":"B2094655D36DA0F84599","title":"延吉中路黄兴路","lon":"121.52613","lat":"31.28185","category":"38","category_name":"公交车站","address":""},{"poiid":"B2094757D16BA1F5409D","title":"美豪阁大碗面","lon":"121.52642","lat":"31.28165","category":"68","category_name":"快餐厅","address":"杨浦区延吉中路280号(靖宇南路延吉中路)"},{"poiid":"B2094654D56EA4F4419D","title":"沁怡西点面包房","lon":"121.52241","lat":"31.28336","category":"112","category_name":"糕饼店","address":"杨浦区抚顺路3号(近黄兴路)"},{"poiid":"B2094757D069A1FF4699","title":"朱鸿兴苏州汤包馆 延吉中路店","lon":"121.524896054","lat":"31.281663793","category":"76","category_name":"上海菜","address":"杨浦区延吉中路401号(近靖宇南路)"},{"poiid":"B2094654D56FA5FF4993","title":"控江四村小区(南门)","lon":"121.52565","lat":"31.28389","category":"656","category_name":"大门","address":""},{"poiid":"B2094757D069A4F9479B","title":"黄兴路","lon":"121.52361638","lat":"31.283861113","category":"500","category_name":"未知分类","address":"上海黄兴路"},{"poiid":"B2094757D069A5F9409A","title":"地铁八号线黄兴路站","lon":"121.526857003","lat":"31.2830076853","category":"500","category_name":"未知分类","address":"上海市控江路靖宇南路"},{"poiid":"B2094654D56EABFE429A","title":"新凤城","lon":"121.52696007347","lat":"31.282740012388","category":"47","category_name":"住宅区","address":"杨浦区控江路1500号(近江浦路)"},{"poiid":"B2094757D068AAF54799","title":"新招鲜本地鸡窝(靖宇中路店)","lon":"121.52742","lat":"31.284466","category":"86","category_name":"火锅店","address":"杨浦区靖宇中路120号(近沧州路)"},{"poiid":"B2094757D168A4FF439C","title":"沪碟 汇味馆","lon":"121.526538","lat":"31.281765","category":"76","category_name":"上海菜","address":"上海杨浦区延吉中路423号(近靖宇南路)  "},{"poiid":"B2094750D665A3FA459B","title":"鼎中鼎澳门豆捞(黄兴路店)","lon":"121.524","lat":"31.2818","category":"86","category_name":"火锅店","address":"杨浦区黄兴路1100号(近延吉中路)"},{"poiid":"B2094757D065A6F44598","title":"大润发","lon":"121.52683823","lat":"31.287860914","category":"500","category_name":"未知分类","address":"上海黄兴路"},{"poiid":"B2094757D068A3F9439F","title":"东方名园","lon":"121.52525","lat":"31.280867","category":"47","category_name":"住宅区","address":"上海市虹口区新市南路780号"},{"poiid":"B2094757D06BAAF84599","title":"COCO都可茶饮","lon":"121.523417503","lat":"31.2827491799","category":"113","category_name":"冷饮店","address":"杨浦区延吉中路338号(近黄兴路)"},{"poiid":"B2094654D56FA5F8419C","title":"金宇名邸","lon":"121.52449","lat":"31.282879","category":"47","category_name":"住宅区","address":"上海市杨浦区靖宇南路近延吉中路101号"},{"poiid":"B2094757D06FA6FE4499","title":"凤城二村","lon":"121.5279102904","lat":"31.283746053398","category":"47","category_name":"住宅区","address":"上海江浦路凤城路"},{"poiid":"B2094654D56EABFE439B","title":"豪享来上海本溪店","lon":"121.523","lat":"31.282","category":"247","category_name":"餐饮美食","address":"上海市杨浦区本溪路49-51.53-55号"},{"poiid":"B2094757D068AAF8429D","title":"90路终点站","lon":"121.52612304","lat":"31.284069061","category":"38","category_name":"公交车站","address":"上海靖宇南路控江路"},{"poiid":"B2094757D06BA1FB449A","title":"新亚大包 新宾店","lon":"121.528045054","lat":"31.284137793","category":"68","category_name":"快餐厅","address":"杨浦区沧州路138号(靖宇中路口)"},{"poiid":"B2094655D26CA6F54592","title":"控江四村小区南二门(杨浦区控江路街道居委会分校西南)","lon":"121.52612","lat":"31.28406","category":"47","category_name":"住宅区","address":""},{"poiid":"B2094654D56FA5FE4898","title":"望春都市家园","lon":"121.52888","lat":"31.28392","category":"47","category_name":"住宅区","address":"望春都市家园位于杨浦延吉中路118号"},{"poiid":"B2094757D06BA5F94892","title":"soso 星尚","lon":"121.5285791","lat":"31.282902683","category":"148","category_name":"美容美发店","address":"上海市杨浦区延吉中路"},{"poiid":"B2094655D26CA4FA499B","title":"控江四村小区南二门靖宇南路","lon":"121.52505","lat":"31.28367","category":"47","category_name":"住宅区","address":""},{"poiid":"B2094654DB6BA2F94093","title":"上海市黄兴学校","lon":"121.52445","lat":"31.2851","category":"55","category_name":"中学","address":"松花江路977临"},{"poiid":"B2094757D068A6FA4892","title":"K8桌球","lon":"121.52479","lat":"31.28035","category":"171","category_name":"台球厅","address":"杨浦区黄兴路888号2楼(近延吉路)"},{"poiid":"B2094654D56EA4F54499","title":"长岭路60弄小区","lon":"121.526","lat":"31.2855","category":"47","category_name":"住宅区","address":"长岭路60弄"},{"poiid":"B2094654D56FA5FF4899","title":"联华超市(靖宇中路)","lon":"121.52648","lat":"31.2842","category":"117","category_name":"便民商店/便利店","address":"杨浦区靖宇中路136号(近沧州路)"},{"poiid":"B2094654D56FA5F8419E","title":"九州花苑(西门)","lon":"121.52538","lat":"31.28325","category":"47","category_name":"住宅区","address":"靖宇南路99弄1-12、15、18号"},{"poiid":"B2094654DB65A2FD4899","title":"梦溪大酒店","lon":"121.52692","lat":"31.28435","category":"88","category_name":"海鲜酒楼","address":"靖宇中路120号"},{"poiid":"B2094757D16CA0FD4093","title":"大唐人家老北京火锅","lon":"121.524585363","lat":"31.2803214692","category":"247","category_name":"餐饮美食","address":"上海杨浦区凤城路"},{"poiid":"B2094654D56FA5FE4592","title":"控江二村107弄小区","lon":"121.52688","lat":"31.28323","category":"47","category_name":"住宅区","address":"延吉中路"},{"poiid":"B2094654D56FA5FF4799","title":"良友金伴No.473","lon":"121.5272","lat":"31.28446","category":"117","category_name":"便民商店/便利店","address":"靖宇中路108"},{"poiid":"B2094655D265AAFE429D","title":"上海名屋美容美发店","lon":"121.52522","lat":"31.28271","category":"148","category_name":"美容美发店","address":"靖宇南路116"},{"poiid":"B2094757D06BA2F54998","title":"九州花苑","lon":"121.52592","lat":"31.283064","category":"252","category_name":"楼宇机构","address":"上海杨浦区靖宇南路99弄"},{"poiid":"B2094752D66DA3F84793","title":"翠华餐厅","lon":"121.52771","lat":"31.284285","category":"247","category_name":"餐饮美食","address":"邯郸路600号万达商业广场一楼"},{"poiid":"B2094654D56FA5FB479F","title":"永琪美容美发(延吉中路)","lon":"121.52642","lat":"31.28174","category":"148","category_name":"美容美发店","address":"杨浦区延吉中路427号"},{"poiid":"B2094654D56FA5FE4999","title":"二联小学","lon":"121.52742","lat":"31.28282","category":"56","category_name":"小学","address":"杨浦区延吉中路224号(近沧州路)"},{"poiid":"B2094655D26CA6FE419D","title":"好德No.735","lon":"121.52719","lat":"31.28492","category":"117","category_name":"便民商店/便利店","address":"沧州路165"},{"poiid":"B2094750D76DA1F5479E","title":"阿三生煎馆(黄兴路店)","lon":"121.524","lat":"31.2811","category":"68","category_name":"快餐厅","address":"杨浦区黄兴路1019弄13号(延吉东路口)"},{"poiid":"B2094757D16AABFE459D","title":"沧州路","lon":"121.5265121","lat":"31.286037748","category":"500","category_name":"未知分类","address":"上海沧州路180弄"},{"poiid":"B2094750D769A3FD479A","title":"平佑宁波小海鲜","lon":"121.523","lat":"31.2829","category":"71","category_name":"四川菜","address":"杨浦区黄兴路1439号(近抚顺路)"},{"poiid":"B2094757D66FA2FF459E","title":"黄兴路抚顺路","lon":"121.523848103","lat":"31.2837687012","category":"500","category_name":"未知分类","address":"上海黄兴路抚顺路"},{"poiid":"B2094654D56FA5FB489A","title":"紫罗兰家苑(西门)","lon":"121.52626","lat":"31.28109","category":"656","category_name":"大门","address":""},{"poiid":"B2094655D26CA5F9499F","title":"上海市海浦进修学院","lon":"121.52445","lat":"31.28511","category":"53","category_name":"成人教育","address":"控江四村107"},{"poiid":"B2094655D26CA5FD4092","title":"沧州路160弄小区(西门)","lon":"121.52735","lat":"31.28521","category":"47","category_name":"住宅区","address":"沧州路160弄1-4号"},{"poiid":"B209475CD468A4F5489B","title":"上海当代艺术馆","lon":"121.527023","lat":"31.284229","category":"500","category_name":"未知分类","address":"上海市 上海南京西路231号人民公园7号门"},{"poiid":"B2094655D26CA5FB449A","title":"裕骋国际","lon":"121.52794","lat":"31.28489","category":"46","category_name":"楼宇","address":"靖宇中路90"},{"poiid":"B2094655D36CA0F44298","title":"黄兴路控江新村","lon":"121.52336","lat":"31.28335","category":"38","category_name":"公交车站","address":""},{"poiid":"B2094655D26FA0FE419F","title":"凤城三村小区(东门)","lon":"121.52319","lat":"31.28261","category":"656","category_name":"大门","address":"黄兴路1413弄"},{"poiid":"B209475CDA6CA4FF4293","title":"上海大饭堂","lon":"121.523925","lat":"31.286359","category":"500","category_name":"未知分类","address":"上海市 上海市杨浦区黄兴路东方蓝海国际广场"},{"poiid":"B2094655D36DA0F84599","title":"延吉中路黄兴路","lon":"121.52613","lat":"31.28185","category":"38","category_name":"公交车站","address":""},{"poiid":"B2094757D16BA1F5409D","title":"美豪阁大碗面","lon":"121.52642","lat":"31.28165","category":"68","category_name":"快餐厅","address":"杨浦区延吉中路280号(靖宇南路延吉中路)"},{"poiid":"B2094654D56EA4F4419D","title":"沁怡西点面包房","lon":"121.52241","lat":"31.28336","category":"112","category_name":"糕饼店","address":"杨浦区抚顺路3号(近黄兴路)"},{"poiid":"B2094757D069A1FF4699","title":"朱鸿兴苏州汤包馆 延吉中路店","lon":"121.524896054","lat":"31.281663793","category":"76","category_name":"上海菜","address":"杨浦区延吉中路401号(近靖宇南路)"},{"poiid":"B2094654D56FA5FF4993","title":"控江四村小区(南门)","lon":"121.52565","lat":"31.28389","category":"656","category_name":"大门","address":""},{"poiid":"B2094757D069A4F9479B","title":"黄兴路","lon":"121.52361638","lat":"31.283861113","category":"500","category_name":"未知分类","address":"上海黄兴路"},{"poiid":"B2094757D069A5F9409A","title":"地铁八号线黄兴路站","lon":"121.526857003","lat":"31.2830076853","category":"500","category_name":"未知分类","address":"上海市控江路靖宇南路"},{"poiid":"B2094654D56EABFE429A","title":"新凤城","lon":"121.52696007347","lat":"31.282740012388","category":"47","category_name":"住宅区","address":"杨浦区控江路1500号(近江浦路)"},{"poiid":"B2094757D068AAF54799","title":"新招鲜本地鸡窝(靖宇中路店)","lon":"121.52742","lat":"31.284466","category":"86","category_name":"火锅店","address":"杨浦区靖宇中路120号(近沧州路)"},{"poiid":"B2094757D168A4FF439C","title":"沪碟 汇味馆","lon":"121.526538","lat":"31.281765","category":"76","category_name":"上海菜","address":"上海杨浦区延吉中路423号(近靖宇南路)  "},{"poiid":"B2094750D665A3FA459B","title":"鼎中鼎澳门豆捞(黄兴路店)","lon":"121.524","lat":"31.2818","category":"86","category_name":"火锅店","address":"杨浦区黄兴路1100号(近延吉中路)"},{"poiid":"B2094757D065A6F44598","title":"大润发","lon":"121.52683823","lat":"31.287860914","category":"500","category_name":"未知分类","address":"上海黄兴路"},{"poiid":"B2094757D068A3F9439F","title":"东方名园","lon":"121.52525","lat":"31.280867","category":"47","category_name":"住宅区","address":"上海市虹口区新市南路780号"},{"poiid":"B2094757D06BAAF84599","title":"COCO都可茶饮","lon":"121.523417503","lat":"31.2827491799","category":"113","category_name":"冷饮店","address":"杨浦区延吉中路338号(近黄兴路)"},{"poiid":"B2094654D56FA5F8419C","title":"金宇名邸","lon":"121.52449","lat":"31.282879","category":"47","category_name":"住宅区","address":"上海市杨浦区靖宇南路近延吉中路101号"},{"poiid":"B2094757D06FA6FE4499","title":"凤城二村","lon":"121.5279102904","lat":"31.283746053398","category":"47","category_name":"住宅区","address":"上海江浦路凤城路"},{"poiid":"B2094654D56EABFE439B","title":"豪享来上海本溪店","lon":"121.523","lat":"31.282","category":"247","category_name":"餐饮美食","address":"上海市杨浦区本溪路49-51.53-55号"},{"poiid":"B2094757D068AAF8429D","title":"90路终点站","lon":"121.52612304","lat":"31.284069061","category":"38","category_name":"公交车站","address":"上海靖宇南路控江路"},{"poiid":"B2094757D06BA1FB449A","title":"新亚大包 新宾店","lon":"121.528045054","lat":"31.284137793","category":"68","category_name":"快餐厅","address":"杨浦区沧州路138号(靖宇中路口)"},{"poiid":"B2094655D26CA6F54592","title":"控江四村小区南二门(杨浦区控江路街道居委会分校西南)","lon":"121.52612","lat":"31.28406","category":"47","category_name":"住宅区","address":""},{"poiid":"B2094654D56FA5FE4898","title":"望春都市家园","lon":"121.52888","lat":"31.28392","category":"47","category_name":"住宅区","address":"望春都市家园位于杨浦延吉中路118号"},{"poiid":"B2094757D06BA5F94892","title":"soso 星尚","lon":"121.5285791","lat":"31.282902683","category":"148","category_name":"美容美发店","address":"上海市杨浦区延吉中路"},{"poiid":"B2094655D26CA4FA499B","title":"控江四村小区南二门靖宇南路","lon":"121.52505","lat":"31.28367","category":"47","category_name":"住宅区","address":""},{"poiid":"B2094654DB6BA2F94093","title":"上海市黄兴学校","lon":"121.52445","lat":"31.2851","category":"55","category_name":"中学","address":"松花江路977临"},{"poiid":"B2094757D068A6FA4892","title":"K8桌球","lon":"121.52479","lat":"31.28035","category":"171","category_name":"台球厅","address":"杨浦区黄兴路888号2楼(近延吉路)"},{"poiid":"B2094654D56EA4F54499","title":"长岭路60弄小区","lon":"121.526","lat":"31.2855","category":"47","category_name":"住宅区","address":"长岭路60弄"},{"poiid":"B2094654D56FA5FF4899","title":"联华超市(靖宇中路)","lon":"121.52648","lat":"31.2842","category":"117","category_name":"便民商店/便利店","address":"杨浦区靖宇中路136号(近沧州路)"},{"poiid":"B2094654D56FA5F8419E","title":"九州花苑(西门)","lon":"121.52538","lat":"31.28325","category":"47","category_name":"住宅区","address":"靖宇南路99弄1-12、15、18号"},{"poiid":"B2094654DB65A2FD4899","title":"梦溪大酒店","lon":"121.52692","lat":"31.28435","category":"88","category_name":"海鲜酒楼","address":"靖宇中路120号"},{"poiid":"B2094757D16CA0FD4093","title":"大唐人家老北京火锅","lon":"121.524585363","lat":"31.2803214692","category":"247","category_name":"餐饮美食","address":"上海杨浦区凤城路"},{"poiid":"B2094654D56FA5FE4592","title":"控江二村107弄小区","lon":"121.52688","lat":"31.28323","category":"47","category_name":"住宅区","address":"延吉中路"},{"poiid":"B2094654D56FA5FF4799","title":"良友金伴No.473","lon":"121.5272","lat":"31.28446","category":"117","category_name":"便民商店/便利店","address":"靖宇中路108"},{"poiid":"B2094655D265AAFE429D","title":"上海名屋美容美发店","lon":"121.52522","lat":"31.28271","category":"148","category_name":"美容美发店","address":"靖宇南路116"},{"poiid":"B2094757D06BA2F54998","title":"九州花苑","lon":"121.52592","lat":"31.283064","category":"252","category_name":"楼宇机构","address":"上海杨浦区靖宇南路99弄"},{"poiid":"B2094752D66DA3F84793","title":"翠华餐厅","lon":"121.52771","lat":"31.284285","category":"247","category_name":"餐饮美食","address":"邯郸路600号万达商业广场一楼"},{"poiid":"B2094654D56FA5FB479F","title":"永琪美容美发(延吉中路)","lon":"121.52642","lat":"31.28174","category":"148","category_name":"美容美发店","address":"杨浦区延吉中路427号"},{"poiid":"B2094654D56FA5FE4999","title":"二联小学","lon":"121.52742","lat":"31.28282","category":"56","category_name":"小学","address":"杨浦区延吉中路224号(近沧州路)"},{"poiid":"B2094655D26CA6FE419D","title":"好德No.735","lon":"121.52719","lat":"31.28492","category":"117","category_name":"便民商店/便利店","address":"沧州路165"},{"poiid":"B2094750D76DA1F5479E","title":"阿三生煎馆(黄兴路店)","lon":"121.524","lat":"31.2811","category":"68","category_name":"快餐厅","address":"杨浦区黄兴路1019弄13号(延吉东路口)"},{"poiid":"B2094757D16AABFE459D","title":"沧州路","lon":"121.5265121","lat":"31.286037748","category":"500","category_name":"未知分类","address":"上海沧州路180弄"},{"poiid":"B2094750D769A3FD479A","title":"平佑宁波小海鲜","lon":"121.523","lat":"31.2829","category":"71","category_name":"四川菜","address":"杨浦区黄兴路1439号(近抚顺路)"},{"poiid":"B2094757D66FA2FF459E","title":"黄兴路抚顺路","lon":"121.523848103","lat":"31.2837687012","category":"500","category_name":"未知分类","address":"上海黄兴路抚顺路"},{"poiid":"B2094654D56FA5FB489A","title":"紫罗兰家苑(西门)","lon":"121.52626","lat":"31.28109","category":"656","category_name":"大门","address":""},{"poiid":"B2094655D26CA5F9499F","title":"上海市海浦进修学院","lon":"121.52445","lat":"31.28511","category":"53","category_name":"成人教育","address":"控江四村107"},{"poiid":"B2094655D26CA5FD4092","title":"沧州路160弄小区(西门)","lon":"121.52735","lat":"31.28521","category":"47","category_name":"住宅区","address":"沧州路160弄1-4号"},{"poiid":"B209475CD468A4F5489B","title":"上海当代艺术馆","lon":"121.527023","lat":"31.284229","category":"500","category_name":"未知分类","address":"上海市 上海南京西路231号人民公园7号门"},{"poiid":"B2094655D26CA5FB449A","title":"裕骋国际","lon":"121.52794","lat":"31.28489","category":"46","category_name":"楼宇","address":"靖宇中路90"},{"poiid":"B2094655D36CA0F44298","title":"黄兴路控江新村","lon":"121.52336","lat":"31.28335","category":"38","category_name":"公交车站","address":""},{"poiid":"B2094655D26FA0FE419F","title":"凤城三村小区(东门)","lon":"121.52319","lat":"31.28261","category":"656","category_name":"大门","address":"黄兴路1413弄"},{"poiid":"B209475CDA6CA4FF4293","title":"上海大饭堂","lon":"121.523925","lat":"31.286359","category":"500","category_name":"未知分类","address":"上海市 上海市杨浦区黄兴路东方蓝海国际广场"},{"poiid":"B2094655D36DA0F84599","title":"延吉中路黄兴路","lon":"121.52613","lat":"31.28185","category":"38","category_name":"公交车站","address":""},{"poiid":"B2094757D16BA1F5409D","title":"美豪阁大碗面","lon":"121.52642","lat":"31.28165","category":"68","category_name":"快餐厅","address":"杨浦区延吉中路280号(靖宇南路延吉中路)"},{"poiid":"B2094654D56EA4F4419D","title":"沁怡西点面包房","lon":"121.52241","lat":"31.28336","category":"112","category_name":"糕饼店","address":"杨浦区抚顺路3号(近黄兴路)"},{"poiid":"B2094757D069A1FF4699","title":"朱鸿兴苏州汤包馆 延吉中路店","lon":"121.524896054","lat":"31.281663793","category":"76","category_name":"上海菜","address":"杨浦区延吉中路401号(近靖宇南路)"},{"poiid":"B2094654D56FA5FF4993","title":"控江四村小区(南门)","lon":"121.52565","lat":"31.28389","category":"656","category_name":"大门","address":""}]