[{"poiid":"B2094654D56BA4FA439C","title":"华东师范大学","lon":"121.40639","lat":"31.22835","category":"671","category_name":"高校中心点","address":"上海市普陀区中山北路3663号"},{"poiid":"B2094757D06FA4FC449A","title":"华师大烧烤摊","lon":"121.40256","lat":"31.2296","category":"68","category_name":"快餐厅","address":"普陀区枣阳路华东师范大学后门(近喜刷刷)"},{"poiid":"B2094757D06EAAF54199","title":"华东师范大学文史楼","lon":"121.40858247","lat":"31.228773742","category":"253","category_name":"校园生活","address":"普陀区中山北路3663号"},{"poiid":"B2094757D06FA3F9489B","title":"华师大田家炳教书院","lon":"121.40678233","lat":"31.230869543","category":"253","category_name":"校园生活","address":"上海中山北路3663号(近华师大边门)"},{"poiid":"B2094757D06FABF4479E","title":"华东师大后门","lon":"121.40237353","lat":"31.231088347","category":"500","category_name":"未知分类","address":"上海枣阳路"},{"poiid":"B2094757D06FA7FD409E","title":"迪士卡卡丁车赛车馆(Disckart Indoor Karting)","lon":"121.40163","lat":"31.22478","category":"220","category_name":"运动场所","address":"普陀区枣阳路809号长风公园附近(近华师大后门)"},{"poiid":"B2094655D26FA2FB459E","title":"华东师范大学(东门)","lon":"121.40985","lat":"31.22805","category":"52","category_name":"高等院校","address":"普陀区中山北路3663号"},{"poiid":"B2094757D06FA1FF409A","title":"华东师范大学文附楼","lon":"121.40841082","lat":"31.226570761","category":"253","category_name":"校园生活","address":"上海中山北路3663号/金沙江路145号/枣阳路460号"},{"poiid":"B2094757D06FA1F44192","title":"枣阳路夜宵摊","lon":"121.40223","lat":"31.22951","category":"68","category_name":"快餐厅","address":"普陀区枣阳路(华师大后门)"},{"poiid":"B2094654DB6BA7FF429F","title":"长风公园(东门)","lon":"121.40163","lat":"31.22848","category":"680","category_name":"楼宇机构","address":"枣阳路525"},{"poiid":"B2094757D06FA5F4419A","title":"华东师范大学体育馆(中山北路校区)","lon":"121.404566141","lat":"31.2291786115","category":"253","category_name":"校园生活","address":"普陀区中山北路3663号华东师范大学内(近金沙江路)"},{"poiid":"B2094757D06FA5F4469A","title":"华东师范大学理科大楼","lon":"121.40352825","lat":"31.227578924","category":"253","category_name":"校园生活","address":"上海普陀区中山北路3663号华东师范大学中山北路校区"},{"poiid":"B2094655D26CAAFD409F","title":"华东师大体育馆(东门)","lon":"121.40975","lat":"31.22749","category":"224","category_name":"综合体育馆","address":""},{"poiid":"B2094655D26DAAF44999","title":"华东师范大学逸夫楼","lon":"121.40685","lat":"31.22623","category":"52","category_name":"高等院校","address":"上海闵行区中山北路3663号华东师范大学中山北路校区"},{"poiid":"B2094757D168A0FA489A","title":"丽娃河畔","lon":"121.40530045","lat":"31.228856529","category":"500","category_name":"未知分类","address":"上海中山北路华师大内"},{"poiid":"B2094654DB65A4FE409E","title":"华东师范大学(西门)","lon":"121.40223","lat":"31.22978","category":"52","category_name":"高等院校","address":"枣阳路460号"},{"poiid":"B2094655D26AA7FA499C","title":"华师大足球场","lon":"121.40457","lat":"31.22918","category":"247","category_name":"餐饮美食","address":"普陀区中山北路3663号华东师范大学内(近金沙江路)"},{"poiid":"B2094655D26DA3F5479F","title":"华东师范大学图书馆","lon":"121.40673","lat":"31.22815","category":"181","category_name":"图书馆","address":"普陀区中山北路3663号华东师范大学内"},{"poiid":"B2094757D068A0FB4698","title":"华东师范大学河西食堂","lon":"121.40225219","lat":"31.229797363","category":"253","category_name":"校园生活","address":"上海普陀区中山北路3663号华东师范大学内"},{"poiid":"B2094757D068A7FD4999","title":"华东师范大学篮球场(中山北路校区)","lon":"121.4025","lat":"31.22909","category":"253","category_name":"校园生活","address":"上海普陀区中山北路3663号华东师范大学内(近金沙江路)"},{"poiid":"B2094757D16BA7FB4393","title":"长风第一家烧烤","lon":"121.402397586","lat":"31.2293974147","category":"68","category_name":"快餐厅","address":"普陀区枣阳路"},{"poiid":"B2094757D06AA3F5479E","title":"华师大 对外汉语学院","lon":"121.403979","lat":"31.222253","category":"253","category_name":"校园生活","address":"上海枣阳路896"},{"poiid":"B2094654D56BA4F54493","title":"学友餐厅","lon":"121.40175951886","lat":"31.228035368079","category":"257","category_name":"中餐厅","address":"普陀区枣阳路489号(近华师大后门)"},{"poiid":"B2094757D16EA4F94992","title":"华东师范大学物理楼","lon":"121.405059186","lat":"31.2258269449","category":"253","category_name":"校园生活","address":"上海闵行区中山北路3663号华东师范大学中山北路校区"},{"poiid":"B2094757D16CABFE4398","title":"华东师范大学 科学会堂","lon":"121.406528586","lat":"31.2266953619","category":"500","category_name":"未知分类","address":"上海市普陀区枣阳路"},{"poiid":"B2094757D068A2FA4899","title":"红腊餐饮","lon":"121.40179543697","lat":"31.228735765565","category":"76","category_name":"上海菜","address":"普陀区枣阳路477号(近华师大后门)"},{"poiid":"B2094757D065A5F9479B","title":"华师大大学生中心羽毛球馆","lon":"121.40617","lat":"31.23148","category":"220","category_name":"运动场所","address":"上海普陀区金沙江路145号(近中山北路)  "},{"poiid":"B2094757D069A6FC469A","title":"华东师范大学干训楼","lon":"121.40501669","lat":"31.229555785","category":"253","category_name":"校园生活","address":"上海闵行区中山北路3663号华东师范大学中山北路校区"},{"poiid":"B2094757D16CA6F94992","title":"华师大mba教育中心","lon":"121.40561468","lat":"31.227886585","category":"500","category_name":"未知分类","address":"上海中山北路3663号"},{"poiid":"B2094757D068A6FE4999","title":"华东师范大学地理馆","lon":"121.40394399","lat":"31.22660997","category":"500","category_name":"未知分类","address":"上海闵行区中山北路3663号华东师范大学中山北路校区"},{"poiid":"B2094757D16BA2FE4792","title":"华东师范大学艺体楼","lon":"121.404093086","lat":"31.2302740319","category":"500","category_name":"未知分类","address":"上海中山北路3663号,华东师范大学内"},{"poiid":"B2094757D569A3FE4292","title":"华师大东北烧烤","lon":"121.402195","lat":"31.22788694","category":"68","category_name":"快餐厅","address":"普陀区枣阳路586号小吃广场(近华师大后门)"},{"poiid":"B2094655D26DAAF9479C","title":"华东师范大学出版社","lon":"121.40782","lat":"31.2261","category":"63","category_name":"出版社","address":"上海普陀区中山北路3663号华东师范大学中山北路校区"},{"poiid":"B2094752D264A0F9449E","title":"鹿港小镇","lon":"121.409491","lat":"31.226715","category":"247","category_name":"餐饮美食","address":"龙之梦七楼黄中庭"},{"poiid":"B2094757D16BA6FE479B","title":"华东师范大学第五宿舍","lon":"121.40307958","lat":"31.229571418","category":"500","category_name":"未知分类","address":"上海市普陀区中山北路3663号"},{"poiid":"B2094757D568A0FF489E","title":"华师大留学生中心咖啡厅","lon":"121.4045789","lat":"31.22918806","category":"65","category_name":"咖啡厅","address":"普陀区中山北路3663号华东师范大学对外汉语学院内(近枣阳路)"},{"poiid":"B2094757D168AAFE409F","title":"华东师范大学公共管理学院","lon":"121.40697991","lat":"31.226781703","category":"500","category_name":"未知分类","address":"上海市普陀区金沙江路"},{"poiid":"B2094757D06BA7FE479C","title":"刘记大蚝门海鲜烧烤","lon":"121.40144858","lat":"31.228079389","category":"247","category_name":"餐饮美食","address":"普陀区枣阳路450号门口华师大后门附近(近金沙江路)"},{"poiid":"B2094757D16EA7F9479D","title":"华师大文史楼315","lon":"121.405853086","lat":"31.2277649828","category":"500","category_name":"未知分类","address":"上海中山北路"},{"poiid":"B2094757D464A7FC439C","title":"新疆买买提餐厅","lon":"121.40410692486","lat":"31.231780290088","category":"90","category_name":"清真餐馆","address":"普陀区金沙江路200号(近枣阳路)"},{"poiid":"B2094757DA69A3FA409E","title":"上海长风海洋世界","lon":"121.40177","lat":"31.22927","category":"196","category_name":"公园","address":"枣阳路路525号"},{"poiid":"B2094757D569A3FC469F","title":"生命科学学院","lon":"121.40389","lat":"31.226538","category":"52","category_name":"高等院校","address":"中国上海市普陀区"},{"poiid":"B2094757D065A1FA4193","title":"华东师范大学数学馆","lon":"121.40504616","lat":"31.22680922","category":"253","category_name":"校园生活","address":"上海闵行区中山北路3663号华东师范大学中山北路校区"},{"poiid":"B2094757D169A0F44898","title":"manna韩国料理","lon":"121.40461288","lat":"31.227520078","category":"247","category_name":"餐饮美食","address":"上海华东师范大学丽娃餐厅二楼"},{"poiid":"B2094655D26EA6F84798","title":"银湖轩酒家","lon":"121.401963054","lat":"31.226290793","category":"76","category_name":"上海菜","address":"普陀区枣阳路510号长风公园内(近华师大后门)"},{"poiid":"B2094654DB6BA7FF419E","title":"真火炭烤鱼枣阳路店","lon":"121.40203","lat":"31.23058","category":"71","category_name":"四川菜","address":"普陀区枣阳路418号(近华师大后门)"},{"poiid":"B2094757D06BAAF5479D","title":"华东师范大学六舍","lon":"121.40353958","lat":"31.228505397","category":"253","category_name":"校园生活","address":"上海市普陀区枣阳路"},{"poiid":"B2094757D164ABFF459D","title":"华师大逸夫楼报告厅","lon":"121.404065586","lat":"31.2254923384","category":"500","category_name":"未知分类","address":"上海市普陀区怒江路"},{"poiid":"B2094655D26AA0FF4699","title":"华师大羽毛球馆","lon":"121.40457","lat":"31.22918","category":"247","category_name":"餐饮美食","address":"普陀区中山北路3663号华东师范大学正门(近金沙江路)"},{"poiid":"B2094655D26AA2F54992","title":"河西食堂","lon":"121.40457","lat":"31.22918","category":"247","category_name":"餐饮美食","address":"普陀区中山北路3663号华东师范大学内(近金沙江路)"},{"poiid":"B2094654D56BA4FA439C","title":"华东师范大学","lon":"121.40639","lat":"31.22835","category":"671","category_name":"高校中心点","address":"上海市普陀区中山北路3663号"},{"poiid":"B2094757D06FA4FC449A","title":"华师大烧烤摊","lon":"121.40256","lat":"31.2296","category":"68","category_name":"快餐厅","address":"普陀区枣阳路华东师范大学后门(近喜刷刷)"},{"poiid":"B2094757D06EAAF54199","title":"华东师范大学文史楼","lon":"121.40858247","lat":"31.228773742","category":"253","category_name":"校园生活","address":"普陀区中山北路3663号"},{"poiid":"B2094757D06FA3F9489B","title":"华师大田家炳教书院","lon":"121.40678233","lat":"31.230869543","category":"253","category_name":"校园生活","address":"上海中山北路3663号(近华师大边门)"},{"poiid":"B2094757D06FABF4479E","title":"华东师大后门","lon":"121.40237353","lat":"31.231088347","category":"500","category_name":"未知分类","address":"上海枣阳路"},{"poiid":"B2094757D06FA7FD409E","title":"迪士卡卡丁车赛车馆(Disckart Indoor Karting)","lon":"121.40163","lat":"31.22478","category":"220","category_name":"运动场所","address":"普陀区枣阳路809号长风公园附近(近华师大后门)"},{"poiid":"B2094655D26FA2FB459E","title":"华东师范大学(东门)","lon":"121.40985","lat":"31.22805","category":"52","category_name":"高等院校","address":"普陀区中山北路3663号"},{"poiid":"B2094757D06FA1FF409A","title":"华东师范大学文附楼","lon":"121.40841082","lat":"31.226570761","category":"253","category_name":"校园生活","address":"上海中山北路3663号/金沙江路145号/枣阳路460号"},{"poiid":"B2094757D06FA1F44192","title":"枣阳路夜宵摊","lon":"121.40223","lat":"31.22951","category":"68","category_name":"快餐厅","address":"普陀区枣阳路(华师大后门)"},{"poiid":"B2094654DB6BA7FF429F","title":"长风公园(东门)","lon":"121.40163","lat":"31.22848","category":"680","category_name":"楼宇机构","address":"枣阳路525"},{"poiid":"B2094757D06FA5F4419A","title":"华东师范大学体育馆(中山北路校区)","lon":"121.404566141","lat":"31.2291786115","category":"253","category_name":"校园生活","address":"普陀区中山北路3663号华东师范大学内(近金沙江路)"},{"poiid":"B2094757D06FA5F4469A","title":"华东师范大学理科大楼","lon":"121.40352825","lat":"31.227578924","category":"253","category_name":"校园生活","address":"上海普陀区中山北路3663号华东师范大学中山北路校区"},{"poiid":"B2094655D26CAAFD409F","title":"华东师大体育馆(东门)","lon":"121.40975","lat":"31.22749","category":"224","category_name":"综合体育馆","address":""},{"poiid":"B2094655D26DAAF44999","title":"华东师范大学逸夫楼","lon":"121.40685","lat":"31.22623","category":"52","category_name":"高等院校","address":"上海闵行区中山北路3663号华东师范大学中山北路校区"},{"poiid":"B2094757D168A0FA489A","title":"丽娃河畔","lon":"121.40530045","lat":"31.228856529","category":"500","category_name":"未知分类","address":"上海中山北路华师大内"},{"poiid":"B2094654DB65A4FE409E","title":"华东师范大学(西门)","lon":"121.40223","lat":"31.22978","category":"52","category_name":"高等院校","address":"枣阳路460号"},{"poiid":"B2094655D26AA7FA499C","title":"华师大足球场","lon":"121.40457","lat":"31.22918","category":"247","category_name":"餐饮美食","address":"普陀区中山北路3663号华东师范大学内(近金沙江路)"},{"poiid":"B2094655D26DA3F5479F","title":"华东师范大学图书馆","lon":"121.40673","lat":"31.22815","category":"181","category_name":"图书馆","address":"普陀区中山北路3663号华东师范大学内"},{"poiid":"B2094757D068A0FB4698","title":"华东师范大学河西食堂","lon":"121.40225219","lat":"31.229797363","category":"253","category_name":"校园生活","address":"上海普陀区中山北路3663号华东师范大学内"},{"poiid":"B2094757D068A7FD4999","title":"华东师范大学篮球场(中山北路校区)","lon":"121.4025","lat":"31.22909","category":"253","category_name":"校园生活","address":"上海普陀区中山北路3663号华东师范大学内(近金沙江路)"},{"poiid":"B2094757D16BA7FB4393","title":"长风第一家烧烤","lon":"121.402397586","lat":"31.2293974147","category":"68","category_name":"快餐厅","address":"普陀区枣阳路"},{"poiid":"B2094757D06AA3F5479E","title":"华师大 对外汉语学院","lon":"121.403979","lat":"31.222253","category":"253","category_name":"校园生活","address":"上海枣阳路896"},{"poiid":"B2094654D56BA4F54493","title":"学友餐厅","lon":"121.40175951886","lat":"31.228035368079","category":"257","category_name":"中餐厅","address":"普陀区枣阳路489号(近华师大后门)"},{"poiid":"B2094757D16EA4F94992","title":"华东师范大学物理楼","lon":"121.405059186","lat":"31.2258269449","category":"253","category_name":"校园生活","address":"上海闵行区中山北路3663号华东师范大学中山北路校区"},{"poiid":"B2094757D16CABFE4398","title":"华东师范大学 科学会堂","lon":"121.406528586","lat":"31.2266953619","category":"500","category_name":"未知分类","address":"上海市普陀区枣阳路"},{"poiid":"B2094757D068A2FA4899","title":"红腊餐饮","lon":"121.40179543697","lat":"31.228735765565","category":"76","category_name":"上海菜","address":"普陀区枣阳路477号(近华师大后门)"},{"poiid":"B2094757D065A5F9479B","title":"华师大大学生中心羽毛球馆","lon":"121.40617","lat":"31.23148","category":"220","category_name":"运动场所","address":"上海普陀区金沙江路145号(近中山北路)  "},{"poiid":"B2094757D069A6FC469A","title":"华东师范大学干训楼","lon":"121.40501669","lat":"31.229555785","category":"253","category_name":"校园生活","address":"上海闵行区中山北路3663号华东师范大学中山北路校区"},{"poiid":"B2094757D16CA6F94992","title":"华师大mba教育中心","lon":"121.40561468","lat":"31.227886585","category":"500","category_name":"未知分类","address":"上海中山北路3663号"},{"poiid":"B2094757D068A6FE4999","title":"华东师范大学地理馆","lon":"121.40394399","lat":"31.22660997","category":"500","category_name":"未知分类","address":"上海闵行区中山北路3663号华东师范大学中山北路校区"},{"poiid":"B2094757D16BA2FE4792","title":"华东师范大学艺体楼","lon":"121.404093086","lat":"31.2302740319","category":"500","category_name":"未知分类","address":"上海中山北路3663号,华东师范大学内"},{"poiid":"B2094757D569A3FE4292","title":"华师大东北烧烤","lon":"121.402195","lat":"31.22788694","category":"68","category_name":"快餐厅","address":"普陀区枣阳路586号小吃广场(近华师大后门)"},{"poiid":"B2094655D26DAAF9479C","title":"华东师范大学出版社","lon":"121.40782","lat":"31.2261","category":"63","category_name":"出版社","address":"上海普陀区中山北路3663号华东师范大学中山北路校区"},{"poiid":"B2094752D264A0F9449E","title":"鹿港小镇","lon":"121.409491","lat":"31.226715","category":"247","category_name":"餐饮美食","address":"龙之梦七楼黄中庭"},{"poiid":"B2094757D16BA6FE479B","title":"华东师范大学第五宿舍","lon":"121.40307958","lat":"31.229571418","category":"500","category_name":"未知分类","address":"上海市普陀区中山北路3663号"},{"poiid":"B2094757D568A0FF489E","title":"华师大留学生中心咖啡厅","lon":"121.4045789","lat":"31.22918806","category":"65","category_name":"咖啡厅","address":"普陀区中山北路3663号华东师范大学对外汉语学院内(近枣阳路)"},{"poiid":"B2094757D168AAFE409F","title":"华东师范大学公共管理学院","lon":"121.40697991","lat":"31.226781703","category":"500","category_name":"未知分类","address":"上海市普陀区金沙江路"},{"poiid":"B2094757D06BA7FE479C","title":"刘记大蚝门海鲜烧烤","lon":"121.40144858","lat":"31.228079389","category":"247","category_name":"餐饮美食","address":"普陀区枣阳路450号门口华师大后门附近(近金沙江路)"},{"poiid":"B2094757D16EA7F9479D","title":"华师大文史楼315","lon":"121.405853086","lat":"31.2277649828","category":"500","category_name":"未知分类","address":"上海中山北路"},{"poiid":"B2094757D464A7FC439C","title":"新疆买买提餐厅","lon":"121.40410692486","lat":"31.231780290088","category":"90","category_name":"清真餐馆","address":"普陀区金沙江路200号(近枣阳路)"},{"poiid":"B2094757DA69A3FA409E","title":"上海长风海洋世界","lon":"121.40177","lat":"31.22927","category":"196","category_name":"公园","address":"枣阳路路525号"},{"poiid":"B2094757D569A3FC469F","title":"生命科学学院","lon":"121.40389","lat":"31.226538","category":"52","category_name":"高等院校","address":"中国上海市普陀区"},{"poiid":"B2094757D065A1FA4193","title":"华东师范大学数学馆","lon":"121.40504616","lat":"31.22680922","category":"253","category_name":"校园生活","address":"上海闵行区中山北路3663号华东师范大学中山北路校区"},{"poiid":"B2094757D169A0F44898","title":"manna韩国料理","lon":"121.40461288","lat":"31.227520078","category":"247","category_name":"餐饮美食","address":"上海华东师范大学丽娃餐厅二楼"},{"poiid":"B2094655D26EA6F84798","title":"银湖轩酒家","lon":"121.401963054","lat":"31.226290793","category":"76","category_name":"上海菜","address":"普陀区枣阳路510号长风公园内(近华师大后门)"},{"poiid":"B2094654DB6BA7FF419E","title":"真火炭烤鱼枣阳路店","lon":"121.40203","lat":"31.23058","category":"71","category_name":"四川菜","address":"普陀区枣阳路418号(近华师大后门)"},{"poiid":"B2094757D06BAAF5479D","title":"华东师范大学六舍","lon":"121.40353958","lat":"31.228505397","category":"253","category_name":"校园生活","address":"上海市普陀区枣阳路"},{"poiid":"B2094757D164ABFF459D","title":"华师大逸夫楼报告厅","lon":"121.404065586","lat":"31.2254923384","category":"500","category_name":"未知分类","address":"上海市普陀区怒江路"},{"poiid":"B2094655D26AA0FF4699","title":"华师大羽毛球馆","lon":"121.40457","lat":"31.22918","category":"247","category_name":"餐饮美食","address":"普陀区中山北路3663号华东师范大学正门(近金沙江路)"},{"poiid":"B2094655D26AA2F54992","title":"河西食堂","lon":"121.40457","lat":"31.22918","category":"247","category_name":"餐饮美食","address":"普陀区中山北路3663号华东师范大学内(近金沙江路)"},{"poiid":"B2094654D56BA4FA439C","title":"华东师范大学","lon":"121.40639","lat":"31.22835","category":"671","category_name":"高校中心点","address":"上海市普陀区中山北路3663号"},{"poiid":"B2094757D06FA4FC449A","title":"华师大烧烤摊","lon":"121.40256","lat":"31.2296","category":"68","category_name":"快餐厅","address":"普陀区枣阳路华东师范大学后门(近喜刷刷)"},{"poiid":"B2094757D06EAAF54199","title":"华东师范大学文史楼","lon":"121.40858247","lat":"31.228773742","category":"253","category_name":"校园生活","address":"普陀区中山北路3663号"},{"poiid":"B2094757D06FA3F9489B","title":"华师大田家炳教书院","lon":"121.40678233","lat":"31.230869543","category":"253","category_name":"校园生活","address":"上海中山北路3663号(近华师大边门)"},{"poiid":"B2094757D06FABF4479E","title":"华东师大后门","lon":"121.40237353","lat":"31.231088347","category":"500","category_name":"未知分类","address":"上海枣阳路"},{"poiid":"B2094757D06FA7FD409E","title":"迪士卡卡丁车赛车馆(Disckart Indoor Karting)","lon":"121.40163","lat":"31.22478","category":"220","category_name":"运动场所","address":"普陀区枣阳路809号长风公园附近(近华师大后门)"},{"poiid":"B2094655D26FA2FB459E","title":"华东师范大学(东门)","lon":"121.40985","lat":"31.22805","category":"52","category_name":"高等院校","address":"普陀区中山北路3663号"},{"poiid":"B2094757D06FA1FF409A","title":"华东师范大学文附楼","lon":"121.40841082","lat":"31.226570761","category":"253","category_name":"校园生活","address":"上海中山北路3663号/金沙江路145号/枣阳路460号"},{"poiid":"B2094757D06FA1F44192","title":"枣阳路夜宵摊","lon":"121.40223","lat":"31.22951","category":"68","category_name":"快餐厅","address":"普陀区枣阳路(华师大后门)"},{"poiid":"B2094654DB6BA7FF429F","title":"长风公园(东门)","lon":"121.40163","lat":"31.22848","category":"680","category_name":"楼宇机构","address":"枣阳路525"},{"poiid":"B2094757D06FA5F4419A","title":"华东师范大学体育馆(中山北路校区)","lon":"121.404566141","lat":"31.2291786115","category":"253","category_name":"校园生活","address":"普陀区中山北路3663号华东师范大学内(近金沙江路)"},{"poiid":"B2094757D06FA5F4469A","title":"华东师范大学理科大楼","lon":"121.40352825","lat":"31.227578924","category":"253","category_name":"校园生活","address":"上海普陀区中山北路3663号华东师范大学中山北路校区"},{"poiid":"B2094655D26CAAFD409F","title":"华东师大体育馆(东门)","lon":"121.40975","lat":"31.22749","category":"224","category_name":"综合体育馆","address":""},{"poiid":"B2094655D26DAAF44999","title":"华东师范大学逸夫楼","lon":"121.40685","lat":"31.22623","category":"52","category_name":"高等院校","address":"上海闵行区中山北路3663号华东师范大学中山北路校区"},{"poiid":"B2094757D168A0FA489A","title":"丽娃河畔","lon":"121.40530045","lat":"31.228856529","category":"500","category_name":"未知分类","address":"上海中山北路华师大内"},{"poiid":"B2094654DB65A4FE409E","title":"华东师范大学(西门)","lon":"121.40223","lat":"31.22978","category":"52","category_name":"高等院校","address":"枣阳路460号"},{"poiid":"B2094655D26AA7FA499C","title":"华师大足球场","lon":"121.40457","lat":"31.22918","category":"247","category_name":"餐饮美食","address":"普陀区中山北路3663号华东师范大学内(近金沙江路)"},{"poiid":"B2094655D26DA3F5479F","title":"华东师范大学图书馆","lon":"121.40673","lat":"31.22815","category":"181","category_name":"图书馆","address":"普陀区中山北路3663号华东师范大学内"},{"poiid":"B2094757D068A0FB4698","title":"华东师范大学河西食堂","lon":"121.40225219","lat":"31.229797363","category":"253","category_name":"校园生活","address":"上海普陀区中山北路3663号华东师范大学内"},{"poiid":"B2094757D068A7FD4999","title":"华东师范大学篮球场(中山北路校区)","lon":"121.4025","lat":"31.22909","category":"253","category_name":"校园生活","address":"上海普陀区中山北路3663号华东师范大学内(近金沙江路)"},{"poiid":"B2094757D16BA7FB4393","title":"长风第一家烧烤","lon":"121.402397586","lat":"31.2293974147","category":"68","category_name":"快餐厅","address":"普陀区枣阳路"},{"poiid":"B2094757D06AA3F5479E","title":"华师大 对外汉语学院","lon":"121.403979","lat":"31.222253","category":"253","category_name":"校园生活","address":"上海枣阳路896"},{"poiid":"B2094654D56BA4F54493","title":"学友餐厅","lon":"121.40175951886","lat":"31.228035368079","category":"257","category_name":"中餐厅","address":"普陀区枣阳路489号(近华师大后门)"},{"poiid":"B2094757D16EA4F94992","title":"华东师范大学物理楼","lon":"121.405059186","lat":"31.2258269449","category":"253","category_name":"校园生活","address":"上海闵行区中山北路3663号华东师范大学中山北路校区"},{"poiid":"B2094757D16CABFE4398","title":"华东师范大学 科学会堂","lon":"121.406528586","lat":"31.2266953619","category":"500","category_name":"未知分类","address":"上海市普陀区枣阳路"},{"poiid":"B2094757D068A2FA4899","title":"红腊餐饮","lon":"121.40179543697","lat":"31.228735765565","category":"76","category_name":"上海菜","address":"普陀区枣阳路477号(近华师大后门)"},{"poiid":"B2094757D065A5F9479B","title":"华师大大学生中心羽毛球馆","lon":"121.40617","lat":"31.23148","category":"220","category_name":"运动场所","address":"上海普陀区金沙江路145号(近中山北路)  "},{"poiid":"B2094757D069A6FC469A","title":"华东师范大学干训楼","lon":"121.40501669","lat":"31.229555785","category":"253","category_name":"校园生活","address":"上海闵行区中山北路3663号华东师范大学中山北路校区"},{"poiid":"B2094757D16CA6F94992","title":"华师大mba教育中心","lon":"121.40561468","lat":"31.227886585","category":"500","category_name":"未知分类","address":"上海中山北路3663号"},{"poiid":"B2094757D068A6FE4999","title":"华东师范大学地理馆","lon":"121.40394399","lat":"31.22660997","category":"500","category_name":"未知分类","address":"上海闵行区中山北路3663号华东师范大学中山北路校区"},{"poiid":"B2094757D16BA2FE4792","title":"华东师范大学艺体楼","lon":"121.404093086","lat":"31.2302740319","category":"500","category_name":"未知分类","address":"上海中山北路3663号,华东师范大学内"},{"poiid":"B2094757D569A3FE4292","title":"华师大东北烧烤","lon":"121.402195","lat":"31.22788694","category":"68","category_name":"快餐厅","address":"普陀区枣阳路586号小吃广场(近华师大后门)"},{"poiid":"B2094655D26DAAF9479C","title":"华东师范大学出版社","lon":"121.40782","lat":"31.2261","category":"63","category_name":"出版社","address":"上海普陀区中山北路3663号华东师范大学中山北路校区"},{"poiid":"B2094752D264A0F9449E","title":"鹿港小镇","lon":"121.409491","lat":"31.226715","category":"247","category_name":"餐饮美食","address":"龙之梦七楼黄中庭"},{"poiid":"B2094757D16BA6FE479B","title":"华东师范大学第五宿舍","lon":"121.40307958","lat":"31.229571418","category":"500","category_name":"未知分类","address":"上海市普陀区中山北路3663号"},{"poiid":"B2094757D568A0FF489E","title":"华师大留学生中心咖啡厅","lon":"121.4045789","lat":"31.22918806","category":"65","category_name":"咖啡厅","address":"普陀区中山北路3663号华东师范大学对外汉语学院内(近枣阳路)"},{"poiid":"B2094757D168AAFE409F","title":"华东师范大学公共管理学院","lon":"121.40697991","lat":"31.226781703","category":"500","category_name":"未知分类","address":"上海市普陀区金沙江路"},{"poiid":"B2094757D06BA7FE479C","title":"刘记大蚝门海鲜烧烤","lon":"121.40144858","lat":"31.228079389","category":"247","category_name":"餐饮美食","address":"普陀区枣阳路450号门口华师大后门附近(近金沙江路)"},{"poiid":"B2094757D16EA7F9479D","title":"华师大文史楼315","lon":"121.405853086","lat":"31.2277649828","category":"500","category_name":"未知分类","address":"上海中山北路"},{"poiid":"B2094757D464A7FC439C","title":"新疆买买提餐厅","lon":"121.40410692486","lat":"31.231780290088","category":"90","category_name":"清真餐馆","address":"普陀区金沙江路200号(近枣阳路)"},{"poiid":"B2094757DA69A3FA409E","title":"上海长风海洋世界","lon":"121.40177","lat":"31.22927","category":"196","category_name":"公园","address":"枣阳路路525号"},{"poiid":"B2094757D569A3FC469F","title":"生命科学学院","lon":"121.40389","lat":"31.226538","category":"52","category_name":"高等院校","address":"中国上海市普陀区"},{"poiid":"B2094757D065A1FA4193","title":"华东师范大学数学馆","lon":"121.40504616","lat":"31.22680922","category":"253","category_name":"校园生活","address":"上海闵行区中山北路3663号华东师范大学中山北路校区"},{"poiid":"B2094757D169A0F44898","title":"manna韩国料理","lon":"121.40461288","lat":"31.227520078","category":"247","category_name":"餐饮美食","address":"上海华东师范大学丽娃餐厅二楼"},{"poiid":"B2094655D26EA6F84798","title":"银湖轩酒家","lon":"121.401963054","lat":"31.226290793","category":"76","category_name":"上海菜","address":"普陀区枣阳路510号长风公园内(近华师大后门)"},{"poiid":"B2094654DB6BA7FF419E","title":"真火炭烤鱼枣阳路店","lon":"121.40203","lat":"31.23058","category":"71","category_name":"四川菜","address":"普陀区枣阳路418号(近华师大后门)"},{"poiid":"B2094757D06BAAF5479D","title":"华东师范大学六舍","lon":"121.40353958","lat":"31.228505397","category":"253","category_name":"校园生活","address":"上海市普陀区枣阳路"},{"poiid":"B2094757D164ABFF459D","title":"华师大逸夫楼报告厅","lon":"121.404065586","lat":"31.2254923384","category":"500","category_name":"未知分类","address":"上海市普陀区怒江路"},{"poiid":"B2094655D26AA0FF4699","title":"华师大羽毛球馆","lon":"121.40457","lat":"31.22918","category":"247","category_name":"餐饮美食","address":"普陀区中山北路3663号华东师范大学正门(近金沙江路)"},{"poiid":"B2094655D26AA2F54992","title":"河西食堂","lon":"121.40457","lat":"31.22918","category":"247","category_name":"餐饮美食","address":"普陀区中山北路3663号华东师范大学内(近金沙江路)"},{"poiid":"B2094654D56BA4FA439C","title":"华东师范大学","lon":"121.40639","lat":"31.22835","category":"671","category_name":"高校中心点","address":"上海市普陀区中山北路3663号"},{"poiid":"B2094757D06FA4FC449A","title":"华师大烧烤摊","lon":"121.40256","lat":"31.2296","category":"68","category_name":"快餐厅","address":"普陀区枣阳路华东师范大学后门(近喜刷刷)"},{"poiid":"B2094757D06EAAF54199","title":"华东师范大学文史楼","lon":"121.40858247","lat":"31.228773742","category":"253","category_name":"校园生活","address":"普陀区中山北路3663号"},{"poiid":"B2094757D06FA3F9489B","title":"华师大田家炳教书院","lon":"121.40678233","lat":"31.230869543","category":"253","category_name":"校园生活","address":"上海中山北路3663号(近华师大边门)"},{"poiid":"B2094757D06FABF4479E","title":"华东师大后门","lon":"121.40237353","lat":"31.231088347","category":"500","category_name":"未知分类","address":"上海枣阳路"},{"poiid":"B2094757D06FA7FD409E","title":"迪士卡卡丁车赛车馆(Disckart Indoor Karting)","lon":"121.40163","lat":"31.22478","category":"220","category_name":"运动场所","address":"普陀区枣阳路809号长风公园附近(近华师大后门)"},{"poiid":"B2094655D26FA2FB459E","title":"华东师范大学(东门)","lon":"121.40985","lat":"31.22805","category":"52","category_name":"高等院校","address":"普陀区中山北路3663号"},{"poiid":"B2094757D06FA1FF409A","title":"华东师范大学文附楼","lon":"121.40841082","lat":"31.226570761","category":"253","category_name":"校园生活","address":"上海中山北路3663号/金沙江路145号/枣阳路460号"},{"poiid":"B2094757D06FA1F44192","title":"枣阳路夜宵摊","lon":"121.40223","lat":"31.22951","category":"68","category_name":"快餐厅","address":"普陀区枣阳路(华师大后门)"},{"poiid":"B2094654DB6BA7FF429F","title":"长风公园(东门)","lon":"121.40163","lat":"31.22848","category":"680","category_name":"楼宇机构","address":"枣阳路525"},{"poiid":"B2094757D06FA5F4419A","title":"华东师范大学体育馆(中山北路校区)","lon":"121.404566141","lat":"31.2291786115","category":"253","category_name":"校园生活","address":"普陀区中山北路3663号华东师范大学内(近金沙江路)"},{"poiid":"B2094757D06FA5F4469A","title":"华东师范大学理科大楼","lon":"121.40352825","lat":"31.227578924","category":"253","category_name":"校园生活","address":"上海普陀区中山北路3663号华东师范大学中山北路校区"},{"poiid":"B2094655D26CAAFD409F","title":"华东师大体育馆(东门)","lon":"121.40975","lat":"31.22749","category":"224","category_name":"综合体育馆","address":""},{"poiid":"B2094655D26DAAF44999","title":"华东师范大学逸夫楼","lon":"121.40685","lat":"31.22623","category":"52","category_name":"高等院校","address":"上海闵行区中山北路3663号华东师范大学中山北路校区"},{"poiid":"B2094757D168A0FA489A","title":"丽娃河畔","lon":"121.40530045","lat":"31.228856529","category":"500","category_name":"未知分类","address":"上海中山北路华师大内"},{"poiid":"B2094654DB65A4FE409E","title":"华东师范大学(西门)","lon":"121.40223","lat":"31.22978","category":"52","category_name":"高等院校","address":"枣阳路460号"},{"poiid":"B2094655D26AA7FA499C","title":"华师大足球场","lon":"121.40457","lat":"31.22918","category":"247","category_name":"餐饮美食","address":"普陀区中山北路3663号华东师范大学内(近金沙江路)"},{"poiid":"B2094655D26DA3F5479F","title":"华东师范大学图书馆","lon":"121.40673","lat":"31.22815","category":"181","category_name":"图书馆","address":"普陀区中山北路3663号华东师范大学内"},{"poiid":"B2094757D068A0FB4698","title":"华东师范大学河西食堂","lon":"121.40225219","lat":"31.229797363","category":"253","category_name":"校园生活","address":"上海普陀区中山北路3663号华东师范大学内"},{"poiid":"B2094757D068A7FD4999","title":"华东师范大学篮球场(中山北路校区)","lon":"121.4025","lat":"31.22909","category":"253","category_name":"校园生活","address":"上海普陀区中山北路3663号华东师范大学内(近金沙江路)"},{"poiid":"B2094757D16BA7FB4393","title":"长风第一家烧烤","lon":"121.402397586","lat":"31.2293974147","category":"68","category_name":"快餐厅","address":"普陀区枣阳路"},{"poiid":"B2094757D06AA3F5479E","title":"华师大 对外汉语学院","lon":"121.403979","lat":"31.222253","category":"253","category_name":"校园生活","address":"上海枣阳路896"},{"poiid":"B2094654D56BA4F54493","title":"学友餐厅","lon":"121.40175951886","lat":"31.228035368079","category":"257","category_name":"中餐厅","address":"普陀区枣阳路489号(近华师大后门)"},{"poiid":"B2094757D16EA4F94992","title":"华东师范大学物理楼","lon":"121.405059186","lat":"31.2258269449","category":"253","category_name":"校园生活","address":"上海闵行区中山北路3663号华东师范大学中山北路校区"},{"poiid":"B2094757D16CABFE4398","title":"华东师范大学 科学会堂","lon":"121.406528586","lat":"31.2266953619","category":"500","category_name":"未知分类","address":"上海市普陀区枣阳路"},{"poiid":"B2094757D068A2FA4899","title":"红腊餐饮","lon":"121.40179543697","lat":"31.228735765565","category":"76","category_name":"上海菜","address":"普陀区枣阳路477号(近华师大后门)"},{"poiid":"B2094757D065A5F9479B","title":"华师大大学生中心羽毛球馆","lon":"121.40617","lat":"31.23148","category":"220","category_name":"运动场所","address":"上海普陀区金沙江路145号(近中山北路)  "},{"poiid":"B2094757D069A6FC469A","title":"华东师范大学干训楼","lon":"121.40501669","lat":"31.229555785","category":"253","category_name":"校园生活","address":"上海闵行区中山北路3663号华东师范大学中山北路校区"},{"poiid":"B2094757D16CA6F94992","title":"华师大mba教育中心","lon":"121.40561468","lat":"31.227886585","category":"500","category_name":"未知分类","address":"上海中山北路3663号"},{"poiid":"B2094757D068A6FE4999","title":"华东师范大学地理馆","lon":"121.40394399","lat":"31.22660997","category":"500","category_name":"未知分类","address":"上海闵行区中山北路3663号华东师范大学中山北路校区"},{"poiid":"B2094757D16BA2FE4792","title":"华东师范大学艺体楼","lon":"121.404093086","lat":"31.2302740319","category":"500","category_name":"未知分类","address":"上海中山北路3663号,华东师范大学内"},{"poiid":"B2094757D569A3FE4292","title":"华师大东北烧烤","lon":"121.402195","lat":"31.22788694","category":"68","category_name":"快餐厅","address":"普陀区枣阳路586号小吃广场(近华师大后门)"},{"poiid":"B2094655D26DAAF9479C","title":"华东师范大学出版社","lon":"121.40782","lat":"31.2261","category":"63","category_name":"出版社","address":"上海普陀区中山北路3663号华东师范大学中山北路校区"},{"poiid":"B2094752D264A0F9449E","title":"鹿港小镇","lon":"121.409491","lat":"31.226715","category":"247","category_name":"餐饮美食","address":"龙之梦七楼黄中庭"},{"poiid":"B2094757D16BA6FE479B","title":"华东师范大学第五宿舍","lon":"121.40307958","lat":"31.229571418","category":"500","category_name":"未知分类","address":"上海市普陀区中山北路3663号"},{"poiid":"B2094757D568A0FF489E","title":"华师大留学生中心咖啡厅","lon":"121.4045789","lat":"31.22918806","category":"65","category_name":"咖啡厅","address":"普陀区中山北路3663号华东师范大学对外汉语学院内(近枣阳路)"},{"poiid":"B2094757D168AAFE409F","title":"华东师范大学公共管理学院","lon":"121.40697991","lat":"31.226781703","category":"500","category_name":"未知分类","address":"上海市普陀区金沙江路"},{"poiid":"B2094757D06BA7FE479C","title":"刘记大蚝门海鲜烧烤","lon":"121.40144858","lat":"31.228079389","category":"247","category_name":"餐饮美食","address":"普陀区枣阳路450号门口华师大后门附近(近金沙江路)"},{"poiid":"B2094757D16EA7F9479D","title":"华师大文史楼315","lon":"121.405853086","lat":"31.2277649828","category":"500","category_name":"未知分类","address":"上海中山北路"},{"poiid":"B2094757D464A7FC439C","title":"新疆买买提餐厅","lon":"121.40410692486","lat":"31.231780290088","category":"90","category_name":"清真餐馆","address":"普陀区金沙江路200号(近枣阳路)"},{"poiid":"B2094757DA69A3FA409E","title":"上海长风海洋世界","lon":"121.40177","lat":"31.22927","category":"196","category_name":"公园","address":"枣阳路路525号"},{"poiid":"B2094757D569A3FC469F","title":"生命科学学院","lon":"121.40389","lat":"31.226538","category":"52","category_name":"高等院校","address":"中国上海市普陀区"},{"poiid":"B2094757D065A1FA4193","title":"华东师范大学数学馆","lon":"121.40504616","lat":"31.22680922","category":"253","category_name":"校园生活","address":"上海闵行区中山北路3663号华东师范大学中山北路校区"},{"poiid":"B2094757D169A0F44898","title":"manna韩国料理","lon":"121.40461288","lat":"31.227520078","category":"247","category_name":"餐饮美食","address":"上海华东师范大学丽娃餐厅二楼"},{"poiid":"B2094655D26EA6F84798","title":"银湖轩酒家","lon":"121.401963054","lat":"31.226290793","category":"76","category_name":"上海菜","address":"普陀区枣阳路510号长风公园内(近华师大后门)"},{"poiid":"B2094654DB6BA7FF419E","title":"真火炭烤鱼枣阳路店","lon":"121.40203","lat":"31.23058","category":"71","category_name":"四川菜","address":"普陀区枣阳路418号(近华师大后门)"},{"poiid":"B2094757D06BAAF5479D","title":"华东师范大学六舍","lon":"121.40353958","lat":"31.228505397","category":"253","category_name":"校园生活","address":"上海市普陀区枣阳路"},{"poiid":"B2094757D164ABFF459D","title":"华师大逸夫楼报告厅","lon":"121.404065586","lat":"31.2254923384","category":"500","category_name":"未知分类","address":"上海市普陀区怒江路"},{"poiid":"B2094655D26AA0FF4699","title":"华师大羽毛球馆","lon":"121.40457","lat":"31.22918","category":"247","category_name":"餐饮美食","address":"普陀区中山北路3663号华东师范大学正门(近金沙江路)"},{"poiid":"B2094655D26AA2F54992","title":"河西食堂","lon":"121.40457","lat":"31.22918","category":"247","category_name":"餐饮美食","address":"普陀区中山北路3663号华东师范大学内(近金沙江路)"}]