[{"poiid":"B2094757D06EAAF4499F","title":"柚子(陆家嘴店)","lon":"121.50722621","lat":"31.240286474","category":"95","category_name":"日本料理","address":"浦东新区陆家嘴环路1000号恒生大楼46楼(近银城中路)"},{"poiid":"B2094654DA69A7FB4599","title":"金茂大厦","lon":"121.5124569976","lat":"31.240872238236","category":"46","category_name":"楼宇","address":"浦东新区世纪大道88号金茂大厦内(近二号线陆家嘴站)"},{"poiid":"B2094654DA6FA7FF419A","title":"花旗集团大厦","lon":"121.507","lat":"31.2397","category":"46","category_name":"楼宇","address":"行宫位于沈河北站一路41号"},{"poiid":"B209475CD564A7F84392","title":"上海滩浦东香格里拉店","lon":"121.50058","lat":"31.23634","category":"119","category_name":"商场","address":"浦东富成路33号香格里拉酒店内大堂层"},{"poiid":"B2094757D06EAAFC429A","title":"恒生银行大厦","lon":"121.50714642","lat":"31.240029324","category":"46","category_name":"楼宇","address":"浦东新区金湘路225弄"},{"poiid":"B2094757D06FA1F9449F","title":"王朝大酒店(浦东店)","lon":"121.50810175","lat":"31.2391448509","category":"76","category_name":"上海菜","address":"浦东新区陆家嘴环路958号华能大厦3楼(近银城中路)"},{"poiid":"B2094654DA6FA7FE449F","title":"未来资产大厦","lon":"121.50676432182","lat":"31.240975297556","category":"46","category_name":"楼宇","address":"卫清西路139_149号等"},{"poiid":"B2094655D268A3FB439E","title":"东亚银行金融大厦","lon":"121.509","lat":"31.2399","category":"46","category_name":"楼宇","address":"陆家嘴花园石桥路66号"},{"poiid":"B2094757D06FABFD4792","title":"中融碧玉蓝天大厦","lon":"121.507242203","lat":"31.2415278323","category":"46","category_name":"楼宇","address":"上海市浦东新区银城中路8号"},{"poiid":"B2094757D068A2FC4593","title":"民生银行大厦(陆家嘴)","lon":"121.50841305","lat":"31.240807181","category":"46","category_name":"楼宇","address":"上海浦东新区浦东南路100号(浦东南路银城中路)"},{"poiid":"B2094655D268A4F9409E","title":"太平金融大厦","lon":"121.51","lat":"31.2396","category":"46","category_name":"楼宇","address":"上海市浦东新区陆家嘴环路、花园石桥路"},{"poiid":"B2094757D06FA4FA499A","title":"晶采轩(浦东店)","lon":"121.50676","lat":"31.24102","category":"72","category_name":"广东菜","address":"浦东新区银城中路68号时代金融中心2-3楼(金洲街银城中路)"},{"poiid":"B2094753D66DA6FD409B","title":"上海凯宾斯基大酒店","lon":"121.504465341568","lat":"31.2420219309263","category":"213","category_name":"五星级宾馆","address":"陆家嘴环路1288号"},{"poiid":"B2094757D06FA2F4419E","title":"新上海国际大厦","lon":"121.50929927","lat":"31.238815674","category":"46","category_name":"楼宇","address":"浦东南路360号，中国人民银行北侧"},{"poiid":"B2094757D06FA4FB4098","title":"中国民生银行上海总部","lon":"121.508242","lat":"31.240765","category":"260","category_name":"其他","address":"上海浦东新浦东南路100号"},{"poiid":"B2094751D36BA4F5469D","title":"上海浦东文华东方酒店","lon":"121.50686659720611","lat":"31.243665106676545","category":"251","category_name":"出行住宿","address":"浦东新区浦东南路111号"},{"poiid":"B2094757D06FA6FD479E","title":"工行上海分行","lon":"121.51130276","lat":"31.23914032","category":"500","category_name":"未知分类","address":"上海浦東大道9號"},{"poiid":"B2094757D06FA7F9449C","title":"瑞慈健康管理中心(华夏银行店)","lon":"121.50933","lat":"31.2392","category":"162","category_name":"医院","address":"浦东新区浦东南路256号华夏银行大厦3楼(近浦东大道)"},{"poiid":"B2094757D06FA2FF4092","title":"建设银行(陆家嘴分行)","lon":"121.50870513","lat":"31.238155365","category":"150","category_name":"银行","address":"上海浦东新区陆家嘴环路900号"},{"poiid":"B2094757D06FA7F54993","title":"老山东鲁菜馆","lon":"121.510469","lat":"31.239297","category":"73","category_name":"山东菜","address":"浦东新区浦东南路379号金穗大厦6楼(近浦东大道)"},{"poiid":"B2094757D068A4FE4098","title":"顺峰(浦东银城店)","lon":"121.50784301","lat":"31.24158287","category":"72","category_name":"广东菜","address":"浦东新区银城中路8号碧玉蓝天3-4楼(金洲街银城中路)"},{"poiid":"B2094757D06FA2FF419F","title":"星巴克(时代金融店)","lon":"121.506498","lat":"31.241296","category":"65","category_name":"咖啡厅","address":"浦东新区银城中路68号时代金融中心2楼(近汇丰大厦)"},{"poiid":"B2094757D06FAAFF439E","title":"中国船舶大厦","lon":"121.510881","lat":"31.238821","category":"46","category_name":"楼宇","address":"上海市宝山区牡丹江路1228号"},{"poiid":"B2094757D06FA2FC419C","title":"星巴克(森茂店)","lon":"121.507817","lat":"31.240365","category":"260","category_name":"其他","address":"浦东新区陆家嘴环路1000号恒生大厦1楼(金洲街银城中路)"},{"poiid":"B2094655D26DA1F8439E","title":"世界金融大厦","lon":"121.50865","lat":"31.23839","category":"46","category_name":"楼宇","address":"上海陆家嘴环路900号"},{"poiid":"B2094757D06FA3FA489F","title":"外汇管理局","lon":"121.509963989","lat":"31.2383117676","category":"500","category_name":"未知分类","address":"上海陆家嘴东路181号"},{"poiid":"B2094757D16DA6FD499B","title":"上海农商银行总行","lon":"121.50773373","lat":"31.241263535","category":"150","category_name":"银行","address":"上海中融碧玉蓝天大厦(银城中路8号)"},{"poiid":"B2094753DB68A4F84292","title":"上海浦东文华东方大酒店","lon":"121.507225","lat":"31.243402","category":"500","category_name":"未知分类","address":"上海市 浦东南路111号"},{"poiid":"B2094757D06FA6F5479E","title":"民生银行上海分行","lon":"121.50772374","lat":"31.240858936","category":"150","category_name":"银行","address":"上海浦东南路100号"},{"poiid":"B2094750D665A1FB499C","title":"天厨日式料理","lon":"121.507","lat":"31.2402","category":"95","category_name":"日本料理","address":"浦东新区陆家嘴环路1000号恒生银行大厦2楼(近银城中路)"},{"poiid":"B2094753D26FA4F8429E","title":"文華廚房","lon":"121.507316","lat":"31.243278","category":"249","category_name":"购物服务","address":"上海市 浦東南路111號"},{"poiid":"B2094757D06AA6FA4192","title":"泰东路渡口","lon":"121.50572636","lat":"31.2436887252","category":"34","category_name":"港口码头","address":"上海浦东新区滨江大道"},{"poiid":"B2094757D069A7FE499D","title":"伊藤家(汇亚店)","lon":"121.504283","lat":"31.241407","category":"95","category_name":"日本料理","address":"浦东新区陆家嘴环路1233号汇亚大厦M楼(近海族馆)"},{"poiid":"B2094655D268A4F4449A","title":"浦江双辉大厦","lon":"121.51042","lat":"31.24277","category":"46","category_name":"楼宇","address":"静安区南京西路555路"},{"poiid":"B2094753D56CA0F54798","title":"皇玺酒家","lon":"121.50669","lat":"31.243375","category":"247","category_name":"餐饮美食","address":"上海市 浦东南路27号"},{"poiid":"B209475CD069A3FA419D","title":"皇璽","lon":"121.50641","lat":"31.24304","category":"47","category_name":"住宅区","address":"浦东南路27号(近银城路)"},{"poiid":"B2094757D068A3FF4899","title":"华夏银行上海分行","lon":"121.508972168","lat":"31.2394714355","category":"125","category_name":"书店","address":"上海浦东南路256号 （近东城路）"},{"poiid":"B209475CD06EA3FF499E","title":"文华厨房","lon":"121.50745","lat":"31.24278","category":"268","category_name":"自助","address":"浦东南路111号文华东方酒店内(近泰公线渡口)"},{"poiid":"B2094757D76DA1FE459D","title":"果之满满（ 时代金融店）","lon":"121.50655","lat":"31.24118","category":"113","category_name":"冷饮店","address":"浦东新区银城中路68号时代金融中心1楼106单元(近花园石桥路)"},{"poiid":"B2094753D46AA5FE459F","title":"浦东新区陆家嘴滨江大道","lon":"121.508735","lat":"31.241422","category":"500","category_name":"未知分类","address":"上海市 浦东陆家嘴"},{"poiid":"B2094757D16EA0FC449F","title":"五芳面馆(恒生大厦店)","lon":"121.508184738","lat":"31.2404355176","category":"247","category_name":"餐饮美食","address":"上海市浦东陆家嘴环路1000号恒生银行大厦二楼"},{"poiid":"B209475CD764A1FE4098","title":"58 扒房  58°Grill","lon":"121.507403","lat":"31.2428164","category":"104","category_name":"牛扒店","address":"浦东南路111号浦东文华东方酒店"},{"poiid":"B2094655D26AA2FF419C","title":"汇丰银行食堂","lon":"121.50737","lat":"31.24024","category":"76","category_name":"上海菜","address":"浦东新区陆家嘴环路1000号汇丰大厦B1楼(近陆家嘴)"},{"poiid":"B2094757D065A5FF4598","title":"La Foret","lon":"121.510756","lat":"31.242361","category":"67","category_name":"甜品店","address":"浦东新区世纪大道8号国金中心LG2-C3室(近陆家嘴地铁站)"},{"poiid":"B2094757DB69A4FB4998","title":"獐子岛美食养生馆","lon":"121.507342","lat":"31.241627","category":"260","category_name":"其他","address":"浦东新区银城中路8号中融碧玉蓝天裙楼3-4楼(近浦东南路)"},{"poiid":"B209475CD365A5F9479F","title":"雍颐庭","lon":"121.50745","lat":"31.24278","category":"76","category_name":"上海菜","address":"浦东南路111号文华东方酒店内(近泰公线渡口)"},{"poiid":"B2094757D169A3F4439A","title":"獐子岛养生会馆","lon":"121.508397438","lat":"31.2410419305","category":"148","category_name":"美容美发店","address":"上海银城中路8号中融碧玉蓝天裙楼3楼"},{"poiid":"B2094655D26AA6FF449A","title":"VC1000水果吧","lon":"121.506995054","lat":"31.240630793","category":"113","category_name":"冷饮店","address":"浦东新区银城中路68号时代金融中心1楼106室(近陆家嘴环路)"},{"poiid":"B2094655D26BA2F5439D","title":"浦东南路银城中路","lon":"121.50916","lat":"31.24052","category":"38","category_name":"公交车站","address":""},{"poiid":"B2094757D168A5FD439E","title":"双辉停车场","lon":"121.50837438","lat":"31.241456826","category":"500","category_name":"未知分类","address":"上海浦东南路东城路(华夏银行对面)"},{"poiid":"B2094757D06EAAF4499F","title":"柚子(陆家嘴店)","lon":"121.50722621","lat":"31.240286474","category":"95","category_name":"日本料理","address":"浦东新区陆家嘴环路1000号恒生大楼46楼(近银城中路)"},{"poiid":"B2094654DA69A7FB4599","title":"金茂大厦","lon":"121.5124569976","lat":"31.240872238236","category":"46","category_name":"楼宇","address":"浦东新区世纪大道88号金茂大厦内(近二号线陆家嘴站)"},{"poiid":"B2094654DA6FA7FF419A","title":"花旗集团大厦","lon":"121.507","lat":"31.2397","category":"46","category_name":"楼宇","address":"行宫位于沈河北站一路41号"},{"poiid":"B209475CD564A7F84392","title":"上海滩浦东香格里拉店","lon":"121.50058","lat":"31.23634","category":"119","category_name":"商场","address":"浦东富成路33号香格里拉酒店内大堂层"},{"poiid":"B2094757D06EAAFC429A","title":"恒生银行大厦","lon":"121.50714642","lat":"31.240029324","category":"46","category_name":"楼宇","address":"浦东新区金湘路225弄"},{"poiid":"B2094757D06FA1F9449F","title":"王朝大酒店(浦东店)","lon":"121.50810175","lat":"31.2391448509","category":"76","category_name":"上海菜","address":"浦东新区陆家嘴环路958号华能大厦3楼(近银城中路)"},{"poiid":"B2094654DA6FA7FE449F","title":"未来资产大厦","lon":"121.50676432182","lat":"31.240975297556","category":"46","category_name":"楼宇","address":"卫清西路139_149号等"},{"poiid":"B2094655D268A3FB439E","title":"东亚银行金融大厦","lon":"121.509","lat":"31.2399","category":"46","category_name":"楼宇","address":"陆家嘴花园石桥路66号"},{"poiid":"B2094757D06FABFD4792","title":"中融碧玉蓝天大厦","lon":"121.507242203","lat":"31.2415278323","category":"46","category_name":"楼宇","address":"上海市浦东新区银城中路8号"},{"poiid":"B2094757D068A2FC4593","title":"民生银行大厦(陆家嘴)","lon":"121.50841305","lat":"31.240807181","category":"46","category_name":"楼宇","address":"上海浦东新区浦东南路100号(浦东南路银城中路)"},{"poiid":"B2094655D268A4F9409E","title":"太平金融大厦","lon":"121.51","lat":"31.2396","category":"46","category_name":"楼宇","address":"上海市浦东新区陆家嘴环路、花园石桥路"},{"poiid":"B2094757D06FA4FA499A","title":"晶采轩(浦东店)","lon":"121.50676","lat":"31.24102","category":"72","category_name":"广东菜","address":"浦东新区银城中路68号时代金融中心2-3楼(金洲街银城中路)"},{"poiid":"B2094753D66DA6FD409B","title":"上海凯宾斯基大酒店","lon":"121.504465341568","lat":"31.2420219309263","category":"213","category_name":"五星级宾馆","address":"陆家嘴环路1288号"},{"poiid":"B2094757D06FA2F4419E","title":"新上海国际大厦","lon":"121.50929927","lat":"31.238815674","category":"46","category_name":"楼宇","address":"浦东南路360号，中国人民银行北侧"},{"poiid":"B2094757D06FA4FB4098","title":"中国民生银行上海总部","lon":"121.508242","lat":"31.240765","category":"260","category_name":"其他","address":"上海浦东新浦东南路100号"},{"poiid":"B2094751D36BA4F5469D","title":"上海浦东文华东方酒店","lon":"121.50686659720611","lat":"31.243665106676545","category":"251","category_name":"出行住宿","address":"浦东新区浦东南路111号"},{"poiid":"B2094757D06FA6FD479E","title":"工行上海分行","lon":"121.51130276","lat":"31.23914032","category":"500","category_name":"未知分类","address":"上海浦東大道9號"},{"poiid":"B2094757D06FA7F9449C","title":"瑞慈健康管理中心(华夏银行店)","lon":"121.50933","lat":"31.2392","category":"162","category_name":"医院","address":"浦东新区浦东南路256号华夏银行大厦3楼(近浦东大道)"},{"poiid":"B2094757D06FA2FF4092","title":"建设银行(陆家嘴分行)","lon":"121.50870513","lat":"31.238155365","category":"150","category_name":"银行","address":"上海浦东新区陆家嘴环路900号"},{"poiid":"B2094757D06FA7F54993","title":"老山东鲁菜馆","lon":"121.510469","lat":"31.239297","category":"73","category_name":"山东菜","address":"浦东新区浦东南路379号金穗大厦6楼(近浦东大道)"},{"poiid":"B2094757D068A4FE4098","title":"顺峰(浦东银城店)","lon":"121.50784301","lat":"31.24158287","category":"72","category_name":"广东菜","address":"浦东新区银城中路8号碧玉蓝天3-4楼(金洲街银城中路)"},{"poiid":"B2094757D06FA2FF419F","title":"星巴克(时代金融店)","lon":"121.506498","lat":"31.241296","category":"65","category_name":"咖啡厅","address":"浦东新区银城中路68号时代金融中心2楼(近汇丰大厦)"},{"poiid":"B2094757D06FAAFF439E","title":"中国船舶大厦","lon":"121.510881","lat":"31.238821","category":"46","category_name":"楼宇","address":"上海市宝山区牡丹江路1228号"},{"poiid":"B2094757D06FA2FC419C","title":"星巴克(森茂店)","lon":"121.507817","lat":"31.240365","category":"260","category_name":"其他","address":"浦东新区陆家嘴环路1000号恒生大厦1楼(金洲街银城中路)"},{"poiid":"B2094655D26DA1F8439E","title":"世界金融大厦","lon":"121.50865","lat":"31.23839","category":"46","category_name":"楼宇","address":"上海陆家嘴环路900号"},{"poiid":"B2094757D06FA3FA489F","title":"外汇管理局","lon":"121.509963989","lat":"31.2383117676","category":"500","category_name":"未知分类","address":"上海陆家嘴东路181号"},{"poiid":"B2094757D16DA6FD499B","title":"上海农商银行总行","lon":"121.50773373","lat":"31.241263535","category":"150","category_name":"银行","address":"上海中融碧玉蓝天大厦(银城中路8号)"},{"poiid":"B2094753DB68A4F84292","title":"上海浦东文华东方大酒店","lon":"121.507225","lat":"31.243402","category":"500","category_name":"未知分类","address":"上海市 浦东南路111号"},{"poiid":"B2094757D06FA6F5479E","title":"民生银行上海分行","lon":"121.50772374","lat":"31.240858936","category":"150","category_name":"银行","address":"上海浦东南路100号"},{"poiid":"B2094750D665A1FB499C","title":"天厨日式料理","lon":"121.507","lat":"31.2402","category":"95","category_name":"日本料理","address":"浦东新区陆家嘴环路1000号恒生银行大厦2楼(近银城中路)"},{"poiid":"B2094753D26FA4F8429E","title":"文華廚房","lon":"121.507316","lat":"31.243278","category":"249","category_name":"购物服务","address":"上海市 浦東南路111號"},{"poiid":"B2094757D06AA6FA4192","title":"泰东路渡口","lon":"121.50572636","lat":"31.2436887252","category":"34","category_name":"港口码头","address":"上海浦东新区滨江大道"},{"poiid":"B2094757D069A7FE499D","title":"伊藤家(汇亚店)","lon":"121.504283","lat":"31.241407","category":"95","category_name":"日本料理","address":"浦东新区陆家嘴环路1233号汇亚大厦M楼(近海族馆)"},{"poiid":"B2094655D268A4F4449A","title":"浦江双辉大厦","lon":"121.51042","lat":"31.24277","category":"46","category_name":"楼宇","address":"静安区南京西路555路"},{"poiid":"B2094753D56CA0F54798","title":"皇玺酒家","lon":"121.50669","lat":"31.243375","category":"247","category_name":"餐饮美食","address":"上海市 浦东南路27号"},{"poiid":"B209475CD069A3FA419D","title":"皇璽","lon":"121.50641","lat":"31.24304","category":"47","category_name":"住宅区","address":"浦东南路27号(近银城路)"},{"poiid":"B2094757D068A3FF4899","title":"华夏银行上海分行","lon":"121.508972168","lat":"31.2394714355","category":"125","category_name":"书店","address":"上海浦东南路256号 （近东城路）"},{"poiid":"B209475CD06EA3FF499E","title":"文华厨房","lon":"121.50745","lat":"31.24278","category":"268","category_name":"自助","address":"浦东南路111号文华东方酒店内(近泰公线渡口)"},{"poiid":"B2094757D76DA1FE459D","title":"果之满满（ 时代金融店）","lon":"121.50655","lat":"31.24118","category":"113","category_name":"冷饮店","address":"浦东新区银城中路68号时代金融中心1楼106单元(近花园石桥路)"},{"poiid":"B2094753D46AA5FE459F","title":"浦东新区陆家嘴滨江大道","lon":"121.508735","lat":"31.241422","category":"500","category_name":"未知分类","address":"上海市 浦东陆家嘴"},{"poiid":"B2094757D16EA0FC449F","title":"五芳面馆(恒生大厦店)","lon":"121.508184738","lat":"31.2404355176","category":"247","category_name":"餐饮美食","address":"上海市浦东陆家嘴环路1000号恒生银行大厦二楼"},{"poiid":"B209475CD764A1FE4098","title":"58 扒房  58°Grill","lon":"121.507403","lat":"31.2428164","category":"104","category_name":"牛扒店","address":"浦东南路111号浦东文华东方酒店"},{"poiid":"B2094655D26AA2FF419C","title":"汇丰银行食堂","lon":"121.50737","lat":"31.24024","category":"76","category_name":"上海菜","address":"浦东新区陆家嘴环路1000号汇丰大厦B1楼(近陆家嘴)"},{"poiid":"B2094757D065A5FF4598","title":"La Foret","lon":"121.510756","lat":"31.242361","category":"67","category_name":"甜品店","address":"浦东新区世纪大道8号国金中心LG2-C3室(近陆家嘴地铁站)"},{"poiid":"B2094757DB69A4FB4998","title":"獐子岛美食养生馆","lon":"121.507342","lat":"31.241627","category":"260","category_name":"其他","address":"浦东新区银城中路8号中融碧玉蓝天裙楼3-4楼(近浦东南路)"},{"poiid":"B209475CD365A5F9479F","title":"雍颐庭","lon":"121.50745","lat":"31.24278","category":"76","category_name":"上海菜","address":"浦东南路111号文华东方酒店内(近泰公线渡口)"},{"poiid":"B2094757D169A3F4439A","title":"獐子岛养生会馆","lon":"121.508397438","lat":"31.2410419305","category":"148","category_name":"美容美发店","address":"上海银城中路8号中融碧玉蓝天裙楼3楼"},{"poiid":"B2094655D26AA6FF449A","title":"VC1000水果吧","lon":"121.506995054","lat":"31.240630793","category":"113","category_name":"冷饮店","address":"浦东新区银城中路68号时代金融中心1楼106室(近陆家嘴环路)"},{"poiid":"B2094655D26BA2F5439D","title":"浦东南路银城中路","lon":"121.50916","lat":"31.24052","category":"38","category_name":"公交车站","address":""},{"poiid":"B2094757D168A5FD439E","title":"双辉停车场","lon":"121.50837438","lat":"31.241456826","category":"500","category_name":"未知分类","address":"上海浦东南路东城路(华夏银行对面)"},{"poiid":"B2094757D06EAAF4499F","title":"柚子(陆家嘴店)","lon":"121.50722621","lat":"31.240286474","category":"95","category_name":"日本料理","address":"浦东新区陆家嘴环路1000号恒生大楼46楼(近银城中路)"},{"poiid":"B2094654DA69A7FB4599","title":"金茂大厦","lon":"121.5124569976","lat":"31.240872238236","category":"46","category_name":"楼宇","address":"浦东新区世纪大道88号金茂大厦内(近二号线陆家嘴站)"},{"poiid":"B2094654DA6FA7FF419A","title":"花旗集团大厦","lon":"121.507","lat":"31.2397","category":"46","category_name":"楼宇","address":"行宫位于沈河北站一路41号"},{"poiid":"B209475CD564A7F84392","title":"上海滩浦东香格里拉店","lon":"121.50058","lat":"31.23634","category":"119","category_name":"商场","address":"浦东富成路33号香格里拉酒店内大堂层"},{"poiid":"B2094757D06EAAFC429A","title":"恒生银行大厦","lon":"121.50714642","lat":"31.240029324","category":"46","category_name":"楼宇","address":"浦东新区金湘路225弄"},{"poiid":"B2094757D06FA1F9449F","title":"王朝大酒店(浦东店)","lon":"121.50810175","lat":"31.2391448509","category":"76","category_name":"上海菜","address":"浦东新区陆家嘴环路958号华能大厦3楼(近银城中路)"},{"poiid":"B2094654DA6FA7FE449F","title":"未来资产大厦","lon":"121.50676432182","lat":"31.240975297556","category":"46","category_name":"楼宇","address":"卫清西路139_149号等"},{"poiid":"B2094655D268A3FB439E","title":"东亚银行金融大厦","lon":"121.509","lat":"31.2399","category":"46","category_name":"楼宇","address":"陆家嘴花园石桥路66号"},{"poiid":"B2094757D06FABFD4792","title":"中融碧玉蓝天大厦","lon":"121.507242203","lat":"31.2415278323","category":"46","category_name":"楼宇","address":"上海市浦东新区银城中路8号"},{"poiid":"B2094757D068A2FC4593","title":"民生银行大厦(陆家嘴)","lon":"121.50841305","lat":"31.240807181","category":"46","category_name":"楼宇","address":"上海浦东新区浦东南路100号(浦东南路银城中路)"},{"poiid":"B2094655D268A4F9409E","title":"太平金融大厦","lon":"121.51","lat":"31.2396","category":"46","category_name":"楼宇","address":"上海市浦东新区陆家嘴环路、花园石桥路"},{"poiid":"B2094757D06FA4FA499A","title":"晶采轩(浦东店)","lon":"121.50676","lat":"31.24102","category":"72","category_name":"广东菜","address":"浦东新区银城中路68号时代金融中心2-3楼(金洲街银城中路)"},{"poiid":"B2094753D66DA6FD409B","title":"上海凯宾斯基大酒店","lon":"121.504465341568","lat":"31.2420219309263","category":"213","category_name":"五星级宾馆","address":"陆家嘴环路1288号"},{"poiid":"B2094757D06FA2F4419E","title":"新上海国际大厦","lon":"121.50929927","lat":"31.238815674","category":"46","category_name":"楼宇","address":"浦东南路360号，中国人民银行北侧"},{"poiid":"B2094757D06FA4FB4098","title":"中国民生银行上海总部","lon":"121.508242","lat":"31.240765","category":"260","category_name":"其他","address":"上海浦东新浦东南路100号"},{"poiid":"B2094751D36BA4F5469D","title":"上海浦东文华东方酒店","lon":"121.50686659720611","lat":"31.243665106676545","category":"251","category_name":"出行住宿","address":"浦东新区浦东南路111号"},{"poiid":"B2094757D06FA6FD479E","title":"工行上海分行","lon":"121.51130276","lat":"31.23914032","category":"500","category_name":"未知分类","address":"上海浦東大道9號"},{"poiid":"B2094757D06FA7F9449C","title":"瑞慈健康管理中心(华夏银行店)","lon":"121.50933","lat":"31.2392","category":"162","category_name":"医院","address":"浦东新区浦东南路256号华夏银行大厦3楼(近浦东大道)"},{"poiid":"B2094757D06FA2FF4092","title":"建设银行(陆家嘴分行)","lon":"121.50870513","lat":"31.238155365","category":"150","category_name":"银行","address":"上海浦东新区陆家嘴环路900号"},{"poiid":"B2094757D06FA7F54993","title":"老山东鲁菜馆","lon":"121.510469","lat":"31.239297","category":"73","category_name":"山东菜","address":"浦东新区浦东南路379号金穗大厦6楼(近浦东大道)"},{"poiid":"B2094757D068A4FE4098","title":"顺峰(浦东银城店)","lon":"121.50784301","lat":"31.24158287","category":"72","category_name":"广东菜","address":"浦东新区银城中路8号碧玉蓝天3-4楼(金洲街银城中路)"},{"poiid":"B2094757D06FA2FF419F","title":"星巴克(时代金融店)","lon":"121.506498","lat":"31.241296","category":"65","category_name":"咖啡厅","address":"浦东新区银城中路68号时代金融中心2楼(近汇丰大厦)"},{"poiid":"B2094757D06FAAFF439E","title":"中国船舶大厦","lon":"121.510881","lat":"31.238821","category":"46","category_name":"楼宇","address":"上海市宝山区牡丹江路1228号"},{"poiid":"B2094757D06FA2FC419C","title":"星巴克(森茂店)","lon":"121.507817","lat":"31.240365","category":"260","category_name":"其他","address":"浦东新区陆家嘴环路1000号恒生大厦1楼(金洲街银城中路)"},{"poiid":"B2094655D26DA1F8439E","title":"世界金融大厦","lon":"121.50865","lat":"31.23839","category":"46","category_name":"楼宇","address":"上海陆家嘴环路900号"},{"poiid":"B2094757D06FA3FA489F","title":"外汇管理局","lon":"121.509963989","lat":"31.2383117676","category":"500","category_name":"未知分类","address":"上海陆家嘴东路181号"},{"poiid":"B2094757D16DA6FD499B","title":"上海农商银行总行","lon":"121.50773373","lat":"31.241263535","category":"150","category_name":"银行","address":"上海中融碧玉蓝天大厦(银城中路8号)"},{"poiid":"B2094753DB68A4F84292","title":"上海浦东文华东方大酒店","lon":"121.507225","lat":"31.243402","category":"500","category_name":"未知分类","address":"上海市 浦东南路111号"},{"poiid":"B2094757D06FA6F5479E","title":"民生银行上海分行","lon":"121.50772374","lat":"31.240858936","category":"150","category_name":"银行","address":"上海浦东南路100号"},{"poiid":"B2094750D665A1FB499C","title":"天厨日式料理","lon":"121.507","lat":"31.2402","category":"95","category_name":"日本料理","address":"浦东新区陆家嘴环路1000号恒生银行大厦2楼(近银城中路)"},{"poiid":"B2094753D26FA4F8429E","title":"文華廚房","lon":"121.507316","lat":"31.243278","category":"249","category_name":"购物服务","address":"上海市 浦東南路111號"},{"poiid":"B2094757D06AA6FA4192","title":"泰东路渡口","lon":"121.50572636","lat":"31.2436887252","category":"34","category_name":"港口码头","address":"上海浦东新区滨江大道"},{"poiid":"B2094757D069A7FE499D","title":"伊藤家(汇亚店)","lon":"121.504283","lat":"31.241407","category":"95","category_name":"日本料理","address":"浦东新区陆家嘴环路1233号汇亚大厦M楼(近海族馆)"},{"poiid":"B2094655D268A4F4449A","title":"浦江双辉大厦","lon":"121.51042","lat":"31.24277","category":"46","category_name":"楼宇","address":"静安区南京西路555路"},{"poiid":"B2094753D56CA0F54798","title":"皇玺酒家","lon":"121.50669","lat":"31.243375","category":"247","category_name":"餐饮美食","address":"上海市 浦东南路27号"},{"poiid":"B209475CD069A3FA419D","title":"皇璽","lon":"121.50641","lat":"31.24304","category":"47","category_name":"住宅区","address":"浦东南路27号(近银城路)"},{"poiid":"B2094757D068A3FF4899","title":"华夏银行上海分行","lon":"121.508972168","lat":"31.2394714355","category":"125","category_name":"书店","address":"上海浦东南路256号 （近东城路）"},{"poiid":"B209475CD06EA3FF499E","title":"文华厨房","lon":"121.50745","lat":"31.24278","category":"268","category_name":"自助","address":"浦东南路111号文华东方酒店内(近泰公线渡口)"},{"poiid":"B2094757D76DA1FE459D","title":"果之满满（ 时代金融店）","lon":"121.50655","lat":"31.24118","category":"113","category_name":"冷饮店","address":"浦东新区银城中路68号时代金融中心1楼106单元(近花园石桥路)"},{"poiid":"B2094753D46AA5FE459F","title":"浦东新区陆家嘴滨江大道","lon":"121.508735","lat":"31.241422","category":"500","category_name":"未知分类","address":"上海市 浦东陆家嘴"},{"poiid":"B2094757D16EA0FC449F","title":"五芳面馆(恒生大厦店)","lon":"121.508184738","lat":"31.2404355176","category":"247","category_name":"餐饮美食","address":"上海市浦东陆家嘴环路1000号恒生银行大厦二楼"},{"poiid":"B209475CD764A1FE4098","title":"58 扒房  58°Grill","lon":"121.507403","lat":"31.2428164","category":"104","category_name":"牛扒店","address":"浦东南路111号浦东文华东方酒店"},{"poiid":"B2094655D26AA2FF419C","title":"汇丰银行食堂","lon":"121.50737","lat":"31.24024","category":"76","category_name":"上海菜","address":"浦东新区陆家嘴环路1000号汇丰大厦B1楼(近陆家嘴)"},{"poiid":"B2094757D065A5FF4598","title":"La Foret","lon":"121.510756","lat":"31.242361","category":"67","category_name":"甜品店","address":"浦东新区世纪大道8号国金中心LG2-C3室(近陆家嘴地铁站)"},{"poiid":"B2094757DB69A4FB4998","title":"獐子岛美食养生馆","lon":"121.507342","lat":"31.241627","category":"260","category_name":"其他","address":"浦东新区银城中路8号中融碧玉蓝天裙楼3-4楼(近浦东南路)"},{"poiid":"B209475CD365A5F9479F","title":"雍颐庭","lon":"121.50745","lat":"31.24278","category":"76","category_name":"上海菜","address":"浦东南路111号文华东方酒店内(近泰公线渡口)"},{"poiid":"B2094757D169A3F4439A","title":"獐子岛养生会馆","lon":"121.508397438","lat":"31.2410419305","category":"148","category_name":"美容美发店","address":"上海银城中路8号中融碧玉蓝天裙楼3楼"},{"poiid":"B2094655D26AA6FF449A","title":"VC1000水果吧","lon":"121.506995054","lat":"31.240630793","category":"113","category_name":"冷饮店","address":"浦东新区银城中路68号时代金融中心1楼106室(近陆家嘴环路)"},{"poiid":"B2094655D26BA2F5439D","title":"浦东南路银城中路","lon":"121.50916","lat":"31.24052","category":"38","category_name":"公交车站","address":""},{"poiid":"B2094757D168A5FD439E","title":"双辉停车场","lon":"121.50837438","lat":"31.241456826","category":"500","category_name":"未知分类","address":"上海浦东南路东城路(华夏银行对面)"},{"poiid":"B2094757D06EAAF4499F","title":"柚子(陆家嘴店)","lon":"121.50722621","lat":"31.240286474","category":"95","category_name":"日本料理","address":"浦东新区陆家嘴环路1000号恒生大楼46楼(近银城中路)"},{"poiid":"B2094654DA69A7FB4599","title":"金茂大厦","lon":"121.5124569976","lat":"31.240872238236","category":"46","category_name":"楼宇","address":"浦东新区世纪大道88号金茂大厦内(近二号线陆家嘴站)"},{"poiid":"B2094654DA6FA7FF419A","title":"花旗集团大厦","lon":"121.507","lat":"31.2397","category":"46","category_name":"楼宇","address":"行宫位于沈河北站一路41号"},{"poiid":"B209475CD564A7F84392","title":"上海滩浦东香格里拉店","lon":"121.50058","lat":"31.23634","category":"119","category_name":"商场","address":"浦东富成路33号香格里拉酒店内大堂层"},{"poiid":"B2094757D06EAAFC429A","title":"恒生银行大厦","lon":"121.50714642","lat":"31.240029324","category":"46","category_name":"楼宇","address":"浦东新区金湘路225弄"},{"poiid":"B2094757D06FA1F9449F","title":"王朝大酒店(浦东店)","lon":"121.50810175","lat":"31.2391448509","category":"76","category_name":"上海菜","address":"浦东新区陆家嘴环路958号华能大厦3楼(近银城中路)"},{"poiid":"B2094654DA6FA7FE449F","title":"未来资产大厦","lon":"121.50676432182","lat":"31.240975297556","category":"46","category_name":"楼宇","address":"卫清西路139_149号等"},{"poiid":"B2094655D268A3FB439E","title":"东亚银行金融大厦","lon":"121.509","lat":"31.2399","category":"46","category_name":"楼宇","address":"陆家嘴花园石桥路66号"},{"poiid":"B2094757D06FABFD4792","title":"中融碧玉蓝天大厦","lon":"121.507242203","lat":"31.2415278323","category":"46","category_name":"楼宇","address":"上海市浦东新区银城中路8号"},{"poiid":"B2094757D068A2FC4593","title":"民生银行大厦(陆家嘴)","lon":"121.50841305","lat":"31.240807181","category":"46","category_name":"楼宇","address":"上海浦东新区浦东南路100号(浦东南路银城中路)"},{"poiid":"B2094655D268A4F9409E","title":"太平金融大厦","lon":"121.51","lat":"31.2396","category":"46","category_name":"楼宇","address":"上海市浦东新区陆家嘴环路、花园石桥路"},{"poiid":"B2094757D06FA4FA499A","title":"晶采轩(浦东店)","lon":"121.50676","lat":"31.24102","category":"72","category_name":"广东菜","address":"浦东新区银城中路68号时代金融中心2-3楼(金洲街银城中路)"},{"poiid":"B2094753D66DA6FD409B","title":"上海凯宾斯基大酒店","lon":"121.504465341568","lat":"31.2420219309263","category":"213","category_name":"五星级宾馆","address":"陆家嘴环路1288号"},{"poiid":"B2094757D06FA2F4419E","title":"新上海国际大厦","lon":"121.50929927","lat":"31.238815674","category":"46","category_name":"楼宇","address":"浦东南路360号，中国人民银行北侧"},{"poiid":"B2094757D06FA4FB4098","title":"中国民生银行上海总部","lon":"121.508242","lat":"31.240765","category":"260","category_name":"其他","address":"上海浦东新浦东南路100号"},{"poiid":"B2094751D36BA4F5469D","title":"上海浦东文华东方酒店","lon":"121.50686659720611","lat":"31.243665106676545","category":"251","category_name":"出行住宿","address":"浦东新区浦东南路111号"},{"poiid":"B2094757D06FA6FD479E","title":"工行上海分行","lon":"121.51130276","lat":"31.23914032","category":"500","category_name":"未知分类","address":"上海浦東大道9號"},{"poiid":"B2094757D06FA7F9449C","title":"瑞慈健康管理中心(华夏银行店)","lon":"121.50933","lat":"31.2392","category":"162","category_name":"医院","address":"浦东新区浦东南路256号华夏银行大厦3楼(近浦东大道)"},{"poiid":"B2094757D06FA2FF4092","title":"建设银行(陆家嘴分行)","lon":"121.50870513","lat":"31.238155365","category":"150","category_name":"银行","address":"上海浦东新区陆家嘴环路900号"},{"poiid":"B2094757D06FA7F54993","title":"老山东鲁菜馆","lon":"121.510469","lat":"31.239297","category":"73","category_name":"山东菜","address":"浦东新区浦东南路379号金穗大厦6楼(近浦东大道)"},{"poiid":"B2094757D068A4FE4098","title":"顺峰(浦东银城店)","lon":"121.50784301","lat":"31.24158287","category":"72","category_name":"广东菜","address":"浦东新区银城中路8号碧玉蓝天3-4楼(金洲街银城中路)"},{"poiid":"B2094757D06FA2FF419F","title":"星巴克(时代金融店)","lon":"121.506498","lat":"31.241296","category":"65","category_name":"咖啡厅","address":"浦东新区银城中路68号时代金融中心2楼(近汇丰大厦)"},{"poiid":"B2094757D06FAAFF439E","title":"中国船舶大厦","lon":"121.510881","lat":"31.238821","category":"46","category_name":"楼宇","address":"上海市宝山区牡丹江路1228号"},{"poiid":"B2094757D06FA2FC419C","title":"星巴克(森茂店)","lon":"121.507817","lat":"31.240365","category":"260","category_name":"其他","address":"浦东新区陆家嘴环路1000号恒生大厦1楼(金洲街银城中路)"},{"poiid":"B2094655D26DA1F8439E","title":"世界金融大厦","lon":"121.50865","lat":"31.23839","category":"46","category_name":"楼宇","address":"上海陆家嘴环路900号"},{"poiid":"B2094757D06FA3FA489F","title":"外汇管理局","lon":"121.509963989","lat":"31.2383117676","category":"500","category_name":"未知分类","address":"上海陆家嘴东路181号"},{"poiid":"B2094757D16DA6FD499B","title":"上海农商银行总行","lon":"121.50773373","lat":"31.241263535","category":"150","category_name":"银行","address":"上海中融碧玉蓝天大厦(银城中路8号)"},{"poiid":"B2094753DB68A4F84292","title":"上海浦东文华东方大酒店","lon":"121.507225","lat":"31.243402","category":"500","category_name":"未知分类","address":"上海市 浦东南路111号"},{"poiid":"B2094757D06FA6F5479E","title":"民生银行上海分行","lon":"121.50772374","lat":"31.240858936","category":"150","category_name":"银行","address":"上海浦东南路100号"},{"poiid":"B2094750D665A1FB499C","title":"天厨日式料理","lon":"121.507","lat":"31.2402","category":"95","category_name":"日本料理","address":"浦东新区陆家嘴环路1000号恒生银行大厦2楼(近银城中路)"},{"poiid":"B2094753D26FA4F8429E","title":"文華廚房","lon":"121.507316","lat":"31.243278","category":"249","category_name":"购物服务","address":"上海市 浦東南路111號"},{"poiid":"B2094757D06AA6FA4192","title":"泰东路渡口","lon":"121.50572636","lat":"31.2436887252","category":"34","category_name":"港口码头","address":"上海浦东新区滨江大道"},{"poiid":"B2094757D069A7FE499D","title":"伊藤家(汇亚店)","lon":"121.504283","lat":"31.241407","category":"95","category_name":"日本料理","address":"浦东新区陆家嘴环路1233号汇亚大厦M楼(近海族馆)"},{"poiid":"B2094655D268A4F4449A","title":"浦江双辉大厦","lon":"121.51042","lat":"31.24277","category":"46","category_name":"楼宇","address":"静安区南京西路555路"},{"poiid":"B2094753D56CA0F54798","title":"皇玺酒家","lon":"121.50669","lat":"31.243375","category":"247","category_name":"餐饮美食","address":"上海市 浦东南路27号"},{"poiid":"B209475CD069A3FA419D","title":"皇璽","lon":"121.50641","lat":"31.24304","category":"47","category_name":"住宅区","address":"浦东南路27号(近银城路)"},{"poiid":"B2094757D068A3FF4899","title":"华夏银行上海分行","lon":"121.508972168","lat":"31.2394714355","category":"125","category_name":"书店","address":"上海浦东南路256号 （近东城路）"},{"poiid":"B209475CD06EA3FF499E","title":"文华厨房","lon":"121.50745","lat":"31.24278","category":"268","category_name":"自助","address":"浦东南路111号文华东方酒店内(近泰公线渡口)"},{"poiid":"B2094757D76DA1FE459D","title":"果之满满（ 时代金融店）","lon":"121.50655","lat":"31.24118","category":"113","category_name":"冷饮店","address":"浦东新区银城中路68号时代金融中心1楼106单元(近花园石桥路)"},{"poiid":"B2094753D46AA5FE459F","title":"浦东新区陆家嘴滨江大道","lon":"121.508735","lat":"31.241422","category":"500","category_name":"未知分类","address":"上海市 浦东陆家嘴"},{"poiid":"B2094757D16EA0FC449F","title":"五芳面馆(恒生大厦店)","lon":"121.508184738","lat":"31.2404355176","category":"247","category_name":"餐饮美食","address":"上海市浦东陆家嘴环路1000号恒生银行大厦二楼"},{"poiid":"B209475CD764A1FE4098","title":"58 扒房  58°Grill","lon":"121.507403","lat":"31.2428164","category":"104","category_name":"牛扒店","address":"浦东南路111号浦东文华东方酒店"},{"poiid":"B2094655D26AA2FF419C","title":"汇丰银行食堂","lon":"121.50737","lat":"31.24024","category":"76","category_name":"上海菜","address":"浦东新区陆家嘴环路1000号汇丰大厦B1楼(近陆家嘴)"},{"poiid":"B2094757D065A5FF4598","title":"La Foret","lon":"121.510756","lat":"31.242361","category":"67","category_name":"甜品店","address":"浦东新区世纪大道8号国金中心LG2-C3室(近陆家嘴地铁站)"},{"poiid":"B2094757DB69A4FB4998","title":"獐子岛美食养生馆","lon":"121.507342","lat":"31.241627","category":"260","category_name":"其他","address":"浦东新区银城中路8号中融碧玉蓝天裙楼3-4楼(近浦东南路)"},{"poiid":"B209475CD365A5F9479F","title":"雍颐庭","lon":"121.50745","lat":"31.24278","category":"76","category_name":"上海菜","address":"浦东南路111号文华东方酒店内(近泰公线渡口)"},{"poiid":"B2094757D169A3F4439A","title":"獐子岛养生会馆","lon":"121.508397438","lat":"31.2410419305","category":"148","category_name":"美容美发店","address":"上海银城中路8号中融碧玉蓝天裙楼3楼"},{"poiid":"B2094655D26AA6FF449A","title":"VC1000水果吧","lon":"121.506995054","lat":"31.240630793","category":"113","category_name":"冷饮店","address":"浦东新区银城中路68号时代金融中心1楼106室(近陆家嘴环路)"},{"poiid":"B2094655D26BA2F5439D","title":"浦东南路银城中路","lon":"121.50916","lat":"31.24052","category":"38","category_name":"公交车站","address":""},{"poiid":"B2094757D168A5FD439E","title":"双辉停车场","lon":"121.50837438","lat":"31.241456826","category":"500","category_name":"未知分类","address":"上海浦东南路东城路(华夏银行对面)"}]