[{"poiid":"B2094654DB68A1FA489D","title":"枫泾古镇旅游区","lon":"121.01859","lat":"30.89056","category":"250","category_name":"公园户外","address":"金山区枫泾镇区和中洪村"},{"poiid":"B2094757D06FA3FA429A","title":"G60沪昆高速枫泾服务区","lon":"121.040802","lat":"30.889434814","category":"260","category_name":"其他","address":"上海G60沪昆高速枫泾服务区"},{"poiid":"B2094655D268ABFF459C","title":"枫泾收费站","lon":"121.03628","lat":"30.89162","category":"267","category_name":"收费站","address":""},{"poiid":"B2094757D069AAF54098","title":"唔呶喔哩酒家(生产街店)","lon":"121.01715","lat":"30.88747","category":"76","category_name":"上海菜","address":"近郊金山区枫泾镇生产街65号(枫丽路枫泾新泾路)"},{"poiid":"B2094757D069A6F44393","title":"新长岭大酒店","lon":"121.013876913","lat":"30.8982504983","category":"76","category_name":"上海菜","address":"上海近郊金山区枫泾镇枫湾路798号"},{"poiid":"B2094757D168A7F94693","title":"古镇印象","lon":"121.016436664","lat":"30.887484951","category":"76","category_name":"上海菜","address":"近郊金山枫泾镇中大街238号"},{"poiid":"B2094654DB68A1FA499B","title":"上海市金山区中心医院枫泾分院","lon":"121.02247","lat":"30.89181","category":"162","category_name":"医院","address":"近郊金山区白牛路219号(近枫杰路)"},{"poiid":"B2094654DB68A1F9419C","title":"枫泾汽车站","lon":"121.02232","lat":"30.8931","category":"35","category_name":"长途汽车站","address":"新车站路181号"},{"poiid":"B2094655D36CA6F84293","title":"枫泾牌楼","lon":"121.01543","lat":"30.88391","category":"38","category_name":"公交车站","address":""},{"poiid":"B2094757D064A6FB469A","title":"枫径公墓","lon":"121.010329","lat":"30.888312","category":"620","category_name":"丧葬","address":"上海金山区枫径朱枫公路"},{"poiid":"B2094757D168A3FD4399","title":"阿六烧卖店","lon":"121.01745745","lat":"30.8819679528","category":"257","category_name":"中餐厅","address":"上海近郊金山区枫泾镇文中路52号  "},{"poiid":"B2094757D16AA6FD4092","title":"枫泾中学","lon":"121.02272","lat":"30.88978","category":"55","category_name":"中学","address":"近郊金山区枫泾镇白牛路188号(近枫泾汽车站)"},{"poiid":"B2094757D66CA3FB4798","title":"长廊饭店","lon":"121.01947115","lat":"30.8872914761","category":"247","category_name":"餐饮美食","address":"近郊金山区枫泾镇生产街54号(小桥流水古街)"},{"poiid":"B2094757D168A3FE479B","title":"人民公社旧址","lon":"121.017094","lat":"30.887033","category":"500","category_name":"未知分类","address":"上海枫泾古镇"},{"poiid":"B2094654DB68A1FE499C","title":"枫溪公园","lon":"121.01783","lat":"30.88629","category":"196","category_name":"公园","address":"近郊金山区枫泾镇新枫路45号(枫丽路新枫路)"},{"poiid":"B2094655D36DA0FE439D","title":"新泾路","lon":"121.01786","lat":"30.88458","category":"38","category_name":"公交车站","address":""},{"poiid":"B2094654DB68A1FA429C","title":"枫泾状元糕","lon":"121.01596","lat":"30.88634","category":"112","category_name":"糕饼店","address":"近郊金山枫泾镇芙蓉村5幢502号"},{"poiid":"B2094757D569A1FF449D","title":"金山谷国际社区","lon":"121.0183528","lat":"30.88543194","category":"47","category_name":"住宅区","address":"钟村飞鹅岭(金山大道祈福新村附近)"},{"poiid":"B2094655D264A4FA439E","title":"枫泾烧麦店","lon":"121.0171","lat":"30.88704","category":"257","category_name":"中餐厅","address":"枫泾古镇枫溪长廊1号"},{"poiid":"B2094757D16CAAF44299","title":"金皇朝大酒店","lon":"121.014549","lat":"30.891193","category":"217","category_name":"旅馆招待所","address":"近郊金山区枫泾镇泾波路128号"},{"poiid":"B2094654DB68A1FA4999","title":"白牛小区","lon":"121.02102","lat":"30.88918","category":"47","category_name":"住宅区","address":""},{"poiid":"B2094654DB68A1FB4193","title":"白牛二村","lon":"121.02132","lat":"30.8887","category":"47","category_name":"住宅区","address":"枫阳路242弄"},{"poiid":"B2094654DB68A1FF4493","title":"凯乐(枫泾·新泾路)","lon":"121.01753","lat":"30.88687","category":"112","category_name":"糕饼店","address":"近郊金山区枫泾镇新泾路68号"},{"poiid":"B2094654DB68A1FF4492","title":"五芳斋嘉兴粽子","lon":"121.01761","lat":"30.88684","category":"257","category_name":"中餐厅","address":""},{"poiid":"B2094654DB64A0F5469F","title":"中国移动枫泾营业厅","lon":"121.01724","lat":"30.88701","category":"151","category_name":"电讯营业厅","address":"枫泾镇新泾路92号"},{"poiid":"B2094654DB68A1FF429F","title":"乐平熟食专卖店","lon":"121.01739","lat":"30.8865","category":"247","category_name":"餐饮美食","address":""},{"poiid":"B2094655D264A0F94392","title":"桥英花苑","lon":"121.02461","lat":"30.8943","category":"47","category_name":"住宅区","address":"上海市金山区枫泾镇白牛路338弄30号"},{"poiid":"B2094757D568A4F8499F","title":"G60沪昆高速枫泾收费站","lon":"121.036288","lat":"30.891621","category":"267","category_name":"收费站","address":"中国上海市金山区A8"},{"poiid":"B2094654DB68A1FA4992","title":"重庆烧鸡公(枫丽路)","lon":"121.01727","lat":"30.88717","category":"71","category_name":"四川菜","address":""},{"poiid":"B2094654DB68A1FA449D","title":"农兴苑","lon":"121.02611","lat":"30.890118","category":"47","category_name":"住宅区","address":"环城东路100弄"},{"poiid":"B2094757D468A4F94492","title":"引宝农家饭店","lon":"121.0198385","lat":"30.8913565","category":"87","category_name":"特色／地方风味餐厅","address":"近郊金山区枫泾镇北大街"},{"poiid":"B2094655D36CA6F8439A","title":"枫泾牌楼(下客站)","lon":"121.01567","lat":"30.88407","category":"38","category_name":"公交车站","address":""},{"poiid":"B2094654DB68A1FA4698","title":"上海市金山区枫泾镇中心幼儿园","lon":"121.01637","lat":"30.88577","category":"57","category_name":"幼儿园","address":"近郊金山区枫泾镇枫溪路64号(枫丽路新枫路)"},{"poiid":"B2094654DB64A0F5469B","title":"工商行政管理(枫泾·新泾路)","lon":"121.01745","lat":"30.88691","category":"250","category_name":"公园户外","address":""},{"poiid":"B2094654DB64A5FD439A","title":"吉利海鲜楼","lon":"121.02653","lat":"30.89246","category":"76","category_name":"上海菜","address":"近郊金山区枫泾枫阳路180号"},{"poiid":"B2094654DB68A1FF4099","title":"梅园酒家","lon":"121.01542","lat":"30.88528","category":"257","category_name":"中餐厅","address":""},{"poiid":"B2094654DB68A1FA4092","title":"枫泾天纯小吃世界","lon":"121.01473","lat":"30.88802","category":"257","category_name":"中餐厅","address":"近郊金山区新泾路207号(近联华超市)"},{"poiid":"B2094654DB68A1FA4592","title":"新华书店(枫溪公园西北)","lon":"121.01699","lat":"30.88737","category":"125","category_name":"书店","address":""},{"poiid":"B2094654DB68A1FA449F","title":"性觉禅寺","lon":"121.0241","lat":"30.89614","category":"244","category_name":"寺庙道观","address":"枫泾镇北"},{"poiid":"B2094654DB68A1FA439F","title":"齐心阁川味馆","lon":"121.01492","lat":"30.88514","category":"71","category_name":"四川菜","address":"枫泾镇"},{"poiid":"B2094654DB68A1FE489D","title":"枫泾小学","lon":"121.01874","lat":"30.89066","category":"56","category_name":"小学","address":""},{"poiid":"B2094654DB69A7F94998","title":"金山枫泾税务所","lon":"121.01429","lat":"30.88594","category":"250","category_name":"公园户外","address":"金山区枫泾镇新枫路62号"},{"poiid":"B209475CD668A1FF409F","title":"枫泾古镇","lon":"121.017333","lat":"30.888137","category":"500","category_name":"未知分类","address":"上海市 金山区"},{"poiid":"B2094655D26FA5FD499E","title":"枫岸华庭","lon":"121.0295","lat":"30.896118","category":"47","category_name":"住宅区","address":"金山区枫泾镇青风路500弄"},{"poiid":"B2094654DB68A1FB4098","title":"朱学范生平陈列馆","lon":"121.01521","lat":"30.88823","category":"183","category_name":"展览馆","address":""},{"poiid":"B2094654DB68A1FA429A","title":"来伊份NO.267","lon":"121.01602","lat":"30.88726","category":"117","category_name":"便民商店/便利店","address":""},{"poiid":"B2094654DB68A1FF469A","title":"锅仔王","lon":"121.01573","lat":"30.8879","category":"257","category_name":"中餐厅","address":""},{"poiid":"B2094757D169A6FC469D","title":"清风阁茶楼","lon":"121.01669245","lat":"30.8886461075","category":"260","category_name":"其他","address":"近郊金山区枫泾三桥附近(近清风桥)"},{"poiid":"B2094655D36CA4FD4298","title":"白牛新村","lon":"121.025","lat":"30.8913","category":"38","category_name":"公交车站","address":"白牛新村"},{"poiid":"B2094654DB68A1F9419E","title":"川府火锅","lon":"121.02265","lat":"30.89314","category":"86","category_name":"火锅店","address":"近郊金山区枫阳路155号(近白牛路)"},{"poiid":"B2094654DB68A1FA489D","title":"枫泾古镇旅游区","lon":"121.01859","lat":"30.89056","category":"250","category_name":"公园户外","address":"金山区枫泾镇区和中洪村"},{"poiid":"B2094757D06FA3FA429A","title":"G60沪昆高速枫泾服务区","lon":"121.040802","lat":"30.889434814","category":"260","category_name":"其他","address":"上海G60沪昆高速枫泾服务区"},{"poiid":"B2094655D268ABFF459C","title":"枫泾收费站","lon":"121.03628","lat":"30.89162","category":"267","category_name":"收费站","address":""},{"poiid":"B2094757D069AAF54098","title":"唔呶喔哩酒家(生产街店)","lon":"121.01715","lat":"30.88747","category":"76","category_name":"上海菜","address":"近郊金山区枫泾镇生产街65号(枫丽路枫泾新泾路)"},{"poiid":"B2094757D069A6F44393","title":"新长岭大酒店","lon":"121.013876913","lat":"30.8982504983","category":"76","category_name":"上海菜","address":"上海近郊金山区枫泾镇枫湾路798号"},{"poiid":"B2094757D168A7F94693","title":"古镇印象","lon":"121.016436664","lat":"30.887484951","category":"76","category_name":"上海菜","address":"近郊金山枫泾镇中大街238号"},{"poiid":"B2094654DB68A1FA499B","title":"上海市金山区中心医院枫泾分院","lon":"121.02247","lat":"30.89181","category":"162","category_name":"医院","address":"近郊金山区白牛路219号(近枫杰路)"},{"poiid":"B2094654DB68A1F9419C","title":"枫泾汽车站","lon":"121.02232","lat":"30.8931","category":"35","category_name":"长途汽车站","address":"新车站路181号"},{"poiid":"B2094655D36CA6F84293","title":"枫泾牌楼","lon":"121.01543","lat":"30.88391","category":"38","category_name":"公交车站","address":""},{"poiid":"B2094757D064A6FB469A","title":"枫径公墓","lon":"121.010329","lat":"30.888312","category":"620","category_name":"丧葬","address":"上海金山区枫径朱枫公路"},{"poiid":"B2094757D168A3FD4399","title":"阿六烧卖店","lon":"121.01745745","lat":"30.8819679528","category":"257","category_name":"中餐厅","address":"上海近郊金山区枫泾镇文中路52号  "},{"poiid":"B2094757D16AA6FD4092","title":"枫泾中学","lon":"121.02272","lat":"30.88978","category":"55","category_name":"中学","address":"近郊金山区枫泾镇白牛路188号(近枫泾汽车站)"},{"poiid":"B2094757D66CA3FB4798","title":"长廊饭店","lon":"121.01947115","lat":"30.8872914761","category":"247","category_name":"餐饮美食","address":"近郊金山区枫泾镇生产街54号(小桥流水古街)"},{"poiid":"B2094757D168A3FE479B","title":"人民公社旧址","lon":"121.017094","lat":"30.887033","category":"500","category_name":"未知分类","address":"上海枫泾古镇"},{"poiid":"B2094654DB68A1FE499C","title":"枫溪公园","lon":"121.01783","lat":"30.88629","category":"196","category_name":"公园","address":"近郊金山区枫泾镇新枫路45号(枫丽路新枫路)"},{"poiid":"B2094655D36DA0FE439D","title":"新泾路","lon":"121.01786","lat":"30.88458","category":"38","category_name":"公交车站","address":""},{"poiid":"B2094654DB68A1FA429C","title":"枫泾状元糕","lon":"121.01596","lat":"30.88634","category":"112","category_name":"糕饼店","address":"近郊金山枫泾镇芙蓉村5幢502号"},{"poiid":"B2094757D569A1FF449D","title":"金山谷国际社区","lon":"121.0183528","lat":"30.88543194","category":"47","category_name":"住宅区","address":"钟村飞鹅岭(金山大道祈福新村附近)"},{"poiid":"B2094655D264A4FA439E","title":"枫泾烧麦店","lon":"121.0171","lat":"30.88704","category":"257","category_name":"中餐厅","address":"枫泾古镇枫溪长廊1号"},{"poiid":"B2094757D16CAAF44299","title":"金皇朝大酒店","lon":"121.014549","lat":"30.891193","category":"217","category_name":"旅馆招待所","address":"近郊金山区枫泾镇泾波路128号"},{"poiid":"B2094654DB68A1FA4999","title":"白牛小区","lon":"121.02102","lat":"30.88918","category":"47","category_name":"住宅区","address":""},{"poiid":"B2094654DB68A1FB4193","title":"白牛二村","lon":"121.02132","lat":"30.8887","category":"47","category_name":"住宅区","address":"枫阳路242弄"},{"poiid":"B2094654DB68A1FF4493","title":"凯乐(枫泾·新泾路)","lon":"121.01753","lat":"30.88687","category":"112","category_name":"糕饼店","address":"近郊金山区枫泾镇新泾路68号"},{"poiid":"B2094654DB68A1FF4492","title":"五芳斋嘉兴粽子","lon":"121.01761","lat":"30.88684","category":"257","category_name":"中餐厅","address":""},{"poiid":"B2094654DB64A0F5469F","title":"中国移动枫泾营业厅","lon":"121.01724","lat":"30.88701","category":"151","category_name":"电讯营业厅","address":"枫泾镇新泾路92号"},{"poiid":"B2094654DB68A1FF429F","title":"乐平熟食专卖店","lon":"121.01739","lat":"30.8865","category":"247","category_name":"餐饮美食","address":""},{"poiid":"B2094655D264A0F94392","title":"桥英花苑","lon":"121.02461","lat":"30.8943","category":"47","category_name":"住宅区","address":"上海市金山区枫泾镇白牛路338弄30号"},{"poiid":"B2094757D568A4F8499F","title":"G60沪昆高速枫泾收费站","lon":"121.036288","lat":"30.891621","category":"267","category_name":"收费站","address":"中国上海市金山区A8"},{"poiid":"B2094654DB68A1FA4992","title":"重庆烧鸡公(枫丽路)","lon":"121.01727","lat":"30.88717","category":"71","category_name":"四川菜","address":""},{"poiid":"B2094654DB68A1FA449D","title":"农兴苑","lon":"121.02611","lat":"30.890118","category":"47","category_name":"住宅区","address":"环城东路100弄"},{"poiid":"B2094757D468A4F94492","title":"引宝农家饭店","lon":"121.0198385","lat":"30.8913565","category":"87","category_name":"特色／地方风味餐厅","address":"近郊金山区枫泾镇北大街"},{"poiid":"B2094655D36CA6F8439A","title":"枫泾牌楼(下客站)","lon":"121.01567","lat":"30.88407","category":"38","category_name":"公交车站","address":""},{"poiid":"B2094654DB68A1FA4698","title":"上海市金山区枫泾镇中心幼儿园","lon":"121.01637","lat":"30.88577","category":"57","category_name":"幼儿园","address":"近郊金山区枫泾镇枫溪路64号(枫丽路新枫路)"},{"poiid":"B2094654DB64A0F5469B","title":"工商行政管理(枫泾·新泾路)","lon":"121.01745","lat":"30.88691","category":"250","category_name":"公园户外","address":""},{"poiid":"B2094654DB64A5FD439A","title":"吉利海鲜楼","lon":"121.02653","lat":"30.89246","category":"76","category_name":"上海菜","address":"近郊金山区枫泾枫阳路180号"},{"poiid":"B2094654DB68A1FF4099","title":"梅园酒家","lon":"121.01542","lat":"30.88528","category":"257","category_name":"中餐厅","address":""},{"poiid":"B2094654DB68A1FA4092","title":"枫泾天纯小吃世界","lon":"121.01473","lat":"30.88802","category":"257","category_name":"中餐厅","address":"近郊金山区新泾路207号(近联华超市)"},{"poiid":"B2094654DB68A1FA4592","title":"新华书店(枫溪公园西北)","lon":"121.01699","lat":"30.88737","category":"125","category_name":"书店","address":""},{"poiid":"B2094654DB68A1FA449F","title":"性觉禅寺","lon":"121.0241","lat":"30.89614","category":"244","category_name":"寺庙道观","address":"枫泾镇北"},{"poiid":"B2094654DB68A1FA439F","title":"齐心阁川味馆","lon":"121.01492","lat":"30.88514","category":"71","category_name":"四川菜","address":"枫泾镇"},{"poiid":"B2094654DB68A1FE489D","title":"枫泾小学","lon":"121.01874","lat":"30.89066","category":"56","category_name":"小学","address":""},{"poiid":"B2094654DB69A7F94998","title":"金山枫泾税务所","lon":"121.01429","lat":"30.88594","category":"250","category_name":"公园户外","address":"金山区枫泾镇新枫路62号"},{"poiid":"B209475CD668A1FF409F","title":"枫泾古镇","lon":"121.017333","lat":"30.888137","category":"500","category_name":"未知分类","address":"上海市 金山区"},{"poiid":"B2094655D26FA5FD499E","title":"枫岸华庭","lon":"121.0295","lat":"30.896118","category":"47","category_name":"住宅区","address":"金山区枫泾镇青风路500弄"},{"poiid":"B2094654DB68A1FB4098","title":"朱学范生平陈列馆","lon":"121.01521","lat":"30.88823","category":"183","category_name":"展览馆","address":""},{"poiid":"B2094654DB68A1FA429A","title":"来伊份NO.267","lon":"121.01602","lat":"30.88726","category":"117","category_name":"便民商店/便利店","address":""},{"poiid":"B2094654DB68A1FF469A","title":"锅仔王","lon":"121.01573","lat":"30.8879","category":"257","category_name":"中餐厅","address":""},{"poiid":"B2094757D169A6FC469D","title":"清风阁茶楼","lon":"121.01669245","lat":"30.8886461075","category":"260","category_name":"其他","address":"近郊金山区枫泾三桥附近(近清风桥)"},{"poiid":"B2094655D36CA4FD4298","title":"白牛新村","lon":"121.025","lat":"30.8913","category":"38","category_name":"公交车站","address":"白牛新村"},{"poiid":"B2094654DB68A1F9419E","title":"川府火锅","lon":"121.02265","lat":"30.89314","category":"86","category_name":"火锅店","address":"近郊金山区枫阳路155号(近白牛路)"},{"poiid":"B2094654DB68A1FA489D","title":"枫泾古镇旅游区","lon":"121.01859","lat":"30.89056","category":"250","category_name":"公园户外","address":"金山区枫泾镇区和中洪村"},{"poiid":"B2094757D06FA3FA429A","title":"G60沪昆高速枫泾服务区","lon":"121.040802","lat":"30.889434814","category":"260","category_name":"其他","address":"上海G60沪昆高速枫泾服务区"},{"poiid":"B2094655D268ABFF459C","title":"枫泾收费站","lon":"121.03628","lat":"30.89162","category":"267","category_name":"收费站","address":""},{"poiid":"B2094757D069AAF54098","title":"唔呶喔哩酒家(生产街店)","lon":"121.01715","lat":"30.88747","category":"76","category_name":"上海菜","address":"近郊金山区枫泾镇生产街65号(枫丽路枫泾新泾路)"},{"poiid":"B2094757D069A6F44393","title":"新长岭大酒店","lon":"121.013876913","lat":"30.8982504983","category":"76","category_name":"上海菜","address":"上海近郊金山区枫泾镇枫湾路798号"},{"poiid":"B2094757D168A7F94693","title":"古镇印象","lon":"121.016436664","lat":"30.887484951","category":"76","category_name":"上海菜","address":"近郊金山枫泾镇中大街238号"},{"poiid":"B2094654DB68A1FA499B","title":"上海市金山区中心医院枫泾分院","lon":"121.02247","lat":"30.89181","category":"162","category_name":"医院","address":"近郊金山区白牛路219号(近枫杰路)"},{"poiid":"B2094654DB68A1F9419C","title":"枫泾汽车站","lon":"121.02232","lat":"30.8931","category":"35","category_name":"长途汽车站","address":"新车站路181号"},{"poiid":"B2094655D36CA6F84293","title":"枫泾牌楼","lon":"121.01543","lat":"30.88391","category":"38","category_name":"公交车站","address":""},{"poiid":"B2094757D064A6FB469A","title":"枫径公墓","lon":"121.010329","lat":"30.888312","category":"620","category_name":"丧葬","address":"上海金山区枫径朱枫公路"},{"poiid":"B2094757D168A3FD4399","title":"阿六烧卖店","lon":"121.01745745","lat":"30.8819679528","category":"257","category_name":"中餐厅","address":"上海近郊金山区枫泾镇文中路52号  "},{"poiid":"B2094757D16AA6FD4092","title":"枫泾中学","lon":"121.02272","lat":"30.88978","category":"55","category_name":"中学","address":"近郊金山区枫泾镇白牛路188号(近枫泾汽车站)"},{"poiid":"B2094757D66CA3FB4798","title":"长廊饭店","lon":"121.01947115","lat":"30.8872914761","category":"247","category_name":"餐饮美食","address":"近郊金山区枫泾镇生产街54号(小桥流水古街)"},{"poiid":"B2094757D168A3FE479B","title":"人民公社旧址","lon":"121.017094","lat":"30.887033","category":"500","category_name":"未知分类","address":"上海枫泾古镇"},{"poiid":"B2094654DB68A1FE499C","title":"枫溪公园","lon":"121.01783","lat":"30.88629","category":"196","category_name":"公园","address":"近郊金山区枫泾镇新枫路45号(枫丽路新枫路)"},{"poiid":"B2094655D36DA0FE439D","title":"新泾路","lon":"121.01786","lat":"30.88458","category":"38","category_name":"公交车站","address":""},{"poiid":"B2094654DB68A1FA429C","title":"枫泾状元糕","lon":"121.01596","lat":"30.88634","category":"112","category_name":"糕饼店","address":"近郊金山枫泾镇芙蓉村5幢502号"},{"poiid":"B2094757D569A1FF449D","title":"金山谷国际社区","lon":"121.0183528","lat":"30.88543194","category":"47","category_name":"住宅区","address":"钟村飞鹅岭(金山大道祈福新村附近)"},{"poiid":"B2094655D264A4FA439E","title":"枫泾烧麦店","lon":"121.0171","lat":"30.88704","category":"257","category_name":"中餐厅","address":"枫泾古镇枫溪长廊1号"},{"poiid":"B2094757D16CAAF44299","title":"金皇朝大酒店","lon":"121.014549","lat":"30.891193","category":"217","category_name":"旅馆招待所","address":"近郊金山区枫泾镇泾波路128号"},{"poiid":"B2094654DB68A1FA4999","title":"白牛小区","lon":"121.02102","lat":"30.88918","category":"47","category_name":"住宅区","address":""},{"poiid":"B2094654DB68A1FB4193","title":"白牛二村","lon":"121.02132","lat":"30.8887","category":"47","category_name":"住宅区","address":"枫阳路242弄"},{"poiid":"B2094654DB68A1FF4493","title":"凯乐(枫泾·新泾路)","lon":"121.01753","lat":"30.88687","category":"112","category_name":"糕饼店","address":"近郊金山区枫泾镇新泾路68号"},{"poiid":"B2094654DB68A1FF4492","title":"五芳斋嘉兴粽子","lon":"121.01761","lat":"30.88684","category":"257","category_name":"中餐厅","address":""},{"poiid":"B2094654DB64A0F5469F","title":"中国移动枫泾营业厅","lon":"121.01724","lat":"30.88701","category":"151","category_name":"电讯营业厅","address":"枫泾镇新泾路92号"},{"poiid":"B2094654DB68A1FF429F","title":"乐平熟食专卖店","lon":"121.01739","lat":"30.8865","category":"247","category_name":"餐饮美食","address":""},{"poiid":"B2094655D264A0F94392","title":"桥英花苑","lon":"121.02461","lat":"30.8943","category":"47","category_name":"住宅区","address":"上海市金山区枫泾镇白牛路338弄30号"},{"poiid":"B2094757D568A4F8499F","title":"G60沪昆高速枫泾收费站","lon":"121.036288","lat":"30.891621","category":"267","category_name":"收费站","address":"中国上海市金山区A8"},{"poiid":"B2094654DB68A1FA4992","title":"重庆烧鸡公(枫丽路)","lon":"121.01727","lat":"30.88717","category":"71","category_name":"四川菜","address":""},{"poiid":"B2094654DB68A1FA449D","title":"农兴苑","lon":"121.02611","lat":"30.890118","category":"47","category_name":"住宅区","address":"环城东路100弄"},{"poiid":"B2094757D468A4F94492","title":"引宝农家饭店","lon":"121.0198385","lat":"30.8913565","category":"87","category_name":"特色／地方风味餐厅","address":"近郊金山区枫泾镇北大街"},{"poiid":"B2094655D36CA6F8439A","title":"枫泾牌楼(下客站)","lon":"121.01567","lat":"30.88407","category":"38","category_name":"公交车站","address":""},{"poiid":"B2094654DB68A1FA4698","title":"上海市金山区枫泾镇中心幼儿园","lon":"121.01637","lat":"30.88577","category":"57","category_name":"幼儿园","address":"近郊金山区枫泾镇枫溪路64号(枫丽路新枫路)"},{"poiid":"B2094654DB64A0F5469B","title":"工商行政管理(枫泾·新泾路)","lon":"121.01745","lat":"30.88691","category":"250","category_name":"公园户外","address":""},{"poiid":"B2094654DB64A5FD439A","title":"吉利海鲜楼","lon":"121.02653","lat":"30.89246","category":"76","category_name":"上海菜","address":"近郊金山区枫泾枫阳路180号"},{"poiid":"B2094654DB68A1FF4099","title":"梅园酒家","lon":"121.01542","lat":"30.88528","category":"257","category_name":"中餐厅","address":""},{"poiid":"B2094654DB68A1FA4092","title":"枫泾天纯小吃世界","lon":"121.01473","lat":"30.88802","category":"257","category_name":"中餐厅","address":"近郊金山区新泾路207号(近联华超市)"},{"poiid":"B2094654DB68A1FA4592","title":"新华书店(枫溪公园西北)","lon":"121.01699","lat":"30.88737","category":"125","category_name":"书店","address":""},{"poiid":"B2094654DB68A1FA449F","title":"性觉禅寺","lon":"121.0241","lat":"30.89614","category":"244","category_name":"寺庙道观","address":"枫泾镇北"},{"poiid":"B2094654DB68A1FA439F","title":"齐心阁川味馆","lon":"121.01492","lat":"30.88514","category":"71","category_name":"四川菜","address":"枫泾镇"},{"poiid":"B2094654DB68A1FE489D","title":"枫泾小学","lon":"121.01874","lat":"30.89066","category":"56","category_name":"小学","address":""},{"poiid":"B2094654DB69A7F94998","title":"金山枫泾税务所","lon":"121.01429","lat":"30.88594","category":"250","category_name":"公园户外","address":"金山区枫泾镇新枫路62号"},{"poiid":"B209475CD668A1FF409F","title":"枫泾古镇","lon":"121.017333","lat":"30.888137","category":"500","category_name":"未知分类","address":"上海市 金山区"},{"poiid":"B2094655D26FA5FD499E","title":"枫岸华庭","lon":"121.0295","lat":"30.896118","category":"47","category_name":"住宅区","address":"金山区枫泾镇青风路500弄"},{"poiid":"B2094654DB68A1FB4098","title":"朱学范生平陈列馆","lon":"121.01521","lat":"30.88823","category":"183","category_name":"展览馆","address":""},{"poiid":"B2094654DB68A1FA429A","title":"来伊份NO.267","lon":"121.01602","lat":"30.88726","category":"117","category_name":"便民商店/便利店","address":""},{"poiid":"B2094654DB68A1FF469A","title":"锅仔王","lon":"121.01573","lat":"30.8879","category":"257","category_name":"中餐厅","address":""},{"poiid":"B2094757D169A6FC469D","title":"清风阁茶楼","lon":"121.01669245","lat":"30.8886461075","category":"260","category_name":"其他","address":"近郊金山区枫泾三桥附近(近清风桥)"},{"poiid":"B2094655D36CA4FD4298","title":"白牛新村","lon":"121.025","lat":"30.8913","category":"38","category_name":"公交车站","address":"白牛新村"},{"poiid":"B2094654DB68A1F9419E","title":"川府火锅","lon":"121.02265","lat":"30.89314","category":"86","category_name":"火锅店","address":"近郊金山区枫阳路155号(近白牛路)"}]