[{"poiid":"B2094757D06FA3FB409C","title":"吴泾","lon":"121.468906","lat":"31.042429","category":"260","category_name":"其他","address":"上海闵行区吴泾镇"},{"poiid":"B2094757D06FA5FB469C","title":"闵浦大桥","lon":"121.48068237","lat":"31.052547454","category":"260","category_name":"其他","address":"上海闵行区S32申嘉湖高速-闵行区S32申嘉湖高速"},{"poiid":"B2094757D068A2F84893","title":"吴泾体育场","lon":"121.466128485","lat":"31.0488376885","category":"220","category_name":"运动场所","address":"闵行区龙吴路5347号(近放鹤路)"},{"poiid":"B2094654DB6EAAFF499B","title":"上海市建筑工程学校","lon":"121.46207","lat":"31.0624","category":"52","category_name":"高等院校","address":"龙吴路4989号"},{"poiid":"B2094757D06FAAFB4999","title":"肯德基 KFC (吴泾店)","lon":"121.463986","lat":"31.042662","category":"68","category_name":"快餐厅","address":"闵行区吴泾镇宝秀路667号(宝秀路永德路)"},{"poiid":"B2094757D069A6FC4198","title":"吴泾医院","lon":"121.46771812","lat":"31.041532597","category":"162","category_name":"医院","address":"上海闵行区剑川路155号"},{"poiid":"B2094757D16AA5FE4699","title":"虹梅景苑","lon":"121.46727029658","lat":"31.048140770919","category":"47","category_name":"住宅区","address":"上海市闵行区尚义路448弄"},{"poiid":"B2094757D06AA5F44899","title":"阿荣实业片场","lon":"121.462005435","lat":"31.045099269","category":"263","category_name":"公司","address":"上海宝秀路"},{"poiid":"B2094757D06FAAFA4493","title":"吴泾第二发电有限责任公司","lon":"121.46533203","lat":"31.057905197","category":"263","category_name":"公司","address":"上海龙吴路5100号"},{"poiid":"B2094757D66AA4F44892","title":"部落情 剑川店","lon":"121.46638","lat":"31.04184","category":"86","category_name":"火锅店","address":"闵行区剑川路167号(宝秀路剑川路)"},{"poiid":"B2094757D068A1F9409F","title":"龙吴路剑川路","lon":"121.4677658","lat":"31.043998718","category":"500","category_name":"未知分类","address":"上海龙吴路剑川路"},{"poiid":"B2094757D16AAAFA409B","title":"派之星量贩式KTV","lon":"121.466659645","lat":"31.0411515709","category":"248","category_name":"生活娱乐","address":"上海闵行区剑川路165号(锦江之星院内)"},{"poiid":"B2094757D069AAF4449D","title":"悦亭酒店","lon":"121.467812508","lat":"31.0427550772","category":"76","category_name":"上海菜","address":"闵行区吴泾镇龙吴路5555号(近剑川路)"},{"poiid":"B2094655D36CA1F8419A","title":"龙吴路北吴路","lon":"121.46372","lat":"31.05854","category":"38","category_name":"公交车站","address":""},{"poiid":"B2094757D068AAF44393","title":"吴泾热电厂","lon":"121.463588","lat":"31.058355098","category":"263","category_name":"公司","address":"上海龙吴路5000号"},{"poiid":"B2094655D36CA2F9419F","title":"热电厂","lon":"121.46281","lat":"31.06139","category":"38","category_name":"公交车站","address":""},{"poiid":"B2094654DB6EAAFF499E","title":"汇能宾馆","lon":"121.46305","lat":"31.05959","category":"250","category_name":"公园户外","address":"闵行区龙吴路5065号(近北吴路)"},{"poiid":"B2094757D16AA0FA459D","title":"上海东兴电力实业有限公司","lon":"121.464853","lat":"31.057961","category":"263","category_name":"公司","address":"上海市闵行区龙吴路5060"},{"poiid":"B2094654DB6EAAFF4998","title":"建峰学院闵行校区","lon":"121.46183","lat":"31.06221","category":"52","category_name":"高等院校","address":"闵行区龙吴路4989号"},{"poiid":"B2094757D068A4FD4293","title":"龙吴路","lon":"121.462890625","lat":"31.0592403412","category":"260","category_name":"其他","address":"上海徐汇区——闵行区"},{"poiid":"B2094654DB6EAAFA4492","title":"上海吴泾发电有限责任公司","lon":"121.46403","lat":"31.05818","category":"263","category_name":"公司","address":""},{"poiid":"B2094757D06AA1F4439E","title":"永德路步行衔","lon":"121.461725645","lat":"31.0425556022","category":"500","category_name":"未知分类","address":"上海市闵行区永德路"},{"poiid":"B2094757D66CA4FA479B","title":"957路(龙华站)","lon":"121.462891","lat":"31.05924","category":"500","category_name":"未知分类","address":"上海龙吴路"},{"poiid":"B2094757D76FA5F9409A","title":"世国烧烤","lon":"121.46617","lat":"31.04155","category":"68","category_name":"快餐厅","address":"闵行区剑川路150号(龙吴路宝秀路间)"},{"poiid":"B2094655D264A7FB4599","title":"双柏小区","lon":"121.47237","lat":"31.044006","category":"47","category_name":"住宅区","address":"上海闵行区剑川路100弄"},{"poiid":"B2094654DB6EAAF8469F","title":"枫桦景苑(永德路)","lon":"121.46235","lat":"31.04283","category":"47","category_name":"住宅区","address":"剑川路"},{"poiid":"B2094757D465A0FA4593","title":"田都大酒店餐厅","lon":"121.466626054","lat":"31.047723793","category":"76","category_name":"上海菜","address":"闵行区龙吴路5388号(近放鹤路)"},{"poiid":"B2094654DB6EAAFF489D","title":"上海师范大学中新科技管理学院(元江路)","lon":"121.4597","lat":"31.06427","category":"52","category_name":"高等院校","address":""},{"poiid":"B2094757D068AAF9419B","title":"八号线人民广场站","lon":"121.461657286","lat":"31.0500695314","category":"36","category_name":"地铁站","address":"上海人民广场"},{"poiid":"B2094654DB6EAAFA419F","title":"新兰华","lon":"121.46495","lat":"31.04986","category":"257","category_name":"中餐厅","address":"塘湾镇"},{"poiid":"B2094752D16FA3F4469D","title":"上海市交通大学闵行校区","lon":"121.460077","lat":"31.056695","category":"253","category_name":"校园生活","address":null},{"poiid":"B2094655D36CA0FA419F","title":"剑川路通海路","lon":"121.47386","lat":"31.04336","category":"38","category_name":"公交车站","address":""},{"poiid":"B2094655D36CA6F8489D","title":"放鹤路龙吴路","lon":"121.4648","lat":"31.04956","category":"38","category_name":"公交车站","address":""},{"poiid":"B2094655D26BA2FC4792","title":"吴泾渡口","lon":"121.47852","lat":"31.04586","category":"38","category_name":"公交车站","address":""},{"poiid":"B2094757D06AA1F44498","title":"怪兽家","lon":"121.467756576","lat":"31.0517997557","category":"500","category_name":"未知分类","address":null},{"poiid":"B2094752D46AA2F5459E","title":"闵行第一加油站(放鹤)","lon":"121.458072","lat":"31.053692","category":"153","category_name":"加油站","address":"上海市闵行区塘湾镇放鹤路999号(近虹梅南路)"},{"poiid":"B2094654DB6EAAF44092","title":"川味食府","lon":"121.46073","lat":"31.06628","category":"71","category_name":"四川菜","address":"浦北路"},{"poiid":"B2094655D26AA2FD449C","title":"盱眙虾趣龙虾城 龙吴路店","lon":"121.467589054","lat":"31.044706793","category":"87","category_name":"特色／地方风味餐厅","address":"闵行区龙吴路5496号(近剑川路)"},{"poiid":"B2094655D36CA6F84893","title":"放鹤路虹梅南路","lon":"121.45205","lat":"31.0477","category":"38","category_name":"公交车站","address":""},{"poiid":"B2094654DB6EAAF4409E","title":"福建沙县特色小吃(龙吴路)","lon":"121.46063","lat":"31.06661","category":"68","category_name":"快餐厅","address":""},{"poiid":"B2094752D56DAAFA479D","title":"格里芬汽车影城（闵行梦谷店）","lon":"121.457123","lat":"31.055588","category":"500","category_name":"未知分类","address":null},{"poiid":"B2094654DB65AAF84799","title":"吴泾第二小学","lon":"121.46618","lat":"31.04945","category":"56","category_name":"小学","address":"闵行区龙吴路5300弄20号"},{"poiid":"B2094654DB6FA3FD4999","title":"荣华挖土机配件","lon":"121.46594","lat":"31.05117","category":"255","category_name":"专卖店","address":"龙吴路5202号"},{"poiid":"B2094757D064ABFA479B","title":"家裡","lon":"121.475455345","lat":"31.0462056836","category":"500","category_name":"未知分类","address":"上海窩！"},{"poiid":"B2094654DB6EAAF44198","title":"上海细良金属材料有限公司","lon":"121.46095","lat":"31.06556","category":"123","category_name":"家具建材市场","address":"龙吴路4829号"},{"poiid":"B2094750DA6EA2FC4892","title":"中国梦谷南上海创意园","lon":"121.455871","lat":"31.053676","category":"263","category_name":"公司","address":"闵行区虹梅南路曲吴路"},{"poiid":"B2094654DB6FA3FD499E","title":"上海广粤汽车修理有限公司","lon":"121.46591","lat":"31.0513","category":"159","category_name":"汽车维修","address":"龙吴路5168号甲"},{"poiid":"B2094757D66DA7F8439F","title":"虹桥火车站28号站台","lon":"121.468683709","lat":"31.0483237801","category":"22","category_name":"火车站","address":"上海虹桥火车站28号站台"},{"poiid":"B2094757D16FA2FA4298","title":"海狮花园大酒店","lon":"121.452675857","lat":"31.0505423724","category":"76","category_name":"上海菜","address":"闵行区虹梅南路5209号(放鹤路虹梅南路)"},{"poiid":"B2094757D065A0FA479B","title":"178路","lon":"121.45674688","lat":"31.058684822","category":"500","category_name":"未知分类","address":"上海剑川路通海路——龙华"},{"poiid":"B2094757D06FA3FB409C","title":"吴泾","lon":"121.468906","lat":"31.042429","category":"260","category_name":"其他","address":"上海闵行区吴泾镇"},{"poiid":"B2094757D06FA5FB469C","title":"闵浦大桥","lon":"121.48068237","lat":"31.052547454","category":"260","category_name":"其他","address":"上海闵行区S32申嘉湖高速-闵行区S32申嘉湖高速"},{"poiid":"B2094757D068A2F84893","title":"吴泾体育场","lon":"121.466128485","lat":"31.0488376885","category":"220","category_name":"运动场所","address":"闵行区龙吴路5347号(近放鹤路)"},{"poiid":"B2094654DB6EAAFF499B","title":"上海市建筑工程学校","lon":"121.46207","lat":"31.0624","category":"52","category_name":"高等院校","address":"龙吴路4989号"},{"poiid":"B2094757D06FAAFB4999","title":"肯德基 KFC (吴泾店)","lon":"121.463986","lat":"31.042662","category":"68","category_name":"快餐厅","address":"闵行区吴泾镇宝秀路667号(宝秀路永德路)"},{"poiid":"B2094757D069A6FC4198","title":"吴泾医院","lon":"121.46771812","lat":"31.041532597","category":"162","category_name":"医院","address":"上海闵行区剑川路155号"},{"poiid":"B2094757D16AA5FE4699","title":"虹梅景苑","lon":"121.46727029658","lat":"31.048140770919","category":"47","category_name":"住宅区","address":"上海市闵行区尚义路448弄"},{"poiid":"B2094757D06AA5F44899","title":"阿荣实业片场","lon":"121.462005435","lat":"31.045099269","category":"263","category_name":"公司","address":"上海宝秀路"},{"poiid":"B2094757D06FAAFA4493","title":"吴泾第二发电有限责任公司","lon":"121.46533203","lat":"31.057905197","category":"263","category_name":"公司","address":"上海龙吴路5100号"},{"poiid":"B2094757D66AA4F44892","title":"部落情 剑川店","lon":"121.46638","lat":"31.04184","category":"86","category_name":"火锅店","address":"闵行区剑川路167号(宝秀路剑川路)"},{"poiid":"B2094757D068A1F9409F","title":"龙吴路剑川路","lon":"121.4677658","lat":"31.043998718","category":"500","category_name":"未知分类","address":"上海龙吴路剑川路"},{"poiid":"B2094757D16AAAFA409B","title":"派之星量贩式KTV","lon":"121.466659645","lat":"31.0411515709","category":"248","category_name":"生活娱乐","address":"上海闵行区剑川路165号(锦江之星院内)"},{"poiid":"B2094757D069AAF4449D","title":"悦亭酒店","lon":"121.467812508","lat":"31.0427550772","category":"76","category_name":"上海菜","address":"闵行区吴泾镇龙吴路5555号(近剑川路)"},{"poiid":"B2094655D36CA1F8419A","title":"龙吴路北吴路","lon":"121.46372","lat":"31.05854","category":"38","category_name":"公交车站","address":""},{"poiid":"B2094757D068AAF44393","title":"吴泾热电厂","lon":"121.463588","lat":"31.058355098","category":"263","category_name":"公司","address":"上海龙吴路5000号"},{"poiid":"B2094655D36CA2F9419F","title":"热电厂","lon":"121.46281","lat":"31.06139","category":"38","category_name":"公交车站","address":""},{"poiid":"B2094654DB6EAAFF499E","title":"汇能宾馆","lon":"121.46305","lat":"31.05959","category":"250","category_name":"公园户外","address":"闵行区龙吴路5065号(近北吴路)"},{"poiid":"B2094757D16AA0FA459D","title":"上海东兴电力实业有限公司","lon":"121.464853","lat":"31.057961","category":"263","category_name":"公司","address":"上海市闵行区龙吴路5060"},{"poiid":"B2094654DB6EAAFF4998","title":"建峰学院闵行校区","lon":"121.46183","lat":"31.06221","category":"52","category_name":"高等院校","address":"闵行区龙吴路4989号"},{"poiid":"B2094757D068A4FD4293","title":"龙吴路","lon":"121.462890625","lat":"31.0592403412","category":"260","category_name":"其他","address":"上海徐汇区——闵行区"},{"poiid":"B2094654DB6EAAFA4492","title":"上海吴泾发电有限责任公司","lon":"121.46403","lat":"31.05818","category":"263","category_name":"公司","address":""},{"poiid":"B2094757D06AA1F4439E","title":"永德路步行衔","lon":"121.461725645","lat":"31.0425556022","category":"500","category_name":"未知分类","address":"上海市闵行区永德路"},{"poiid":"B2094757D66CA4FA479B","title":"957路(龙华站)","lon":"121.462891","lat":"31.05924","category":"500","category_name":"未知分类","address":"上海龙吴路"},{"poiid":"B2094757D76FA5F9409A","title":"世国烧烤","lon":"121.46617","lat":"31.04155","category":"68","category_name":"快餐厅","address":"闵行区剑川路150号(龙吴路宝秀路间)"},{"poiid":"B2094655D264A7FB4599","title":"双柏小区","lon":"121.47237","lat":"31.044006","category":"47","category_name":"住宅区","address":"上海闵行区剑川路100弄"},{"poiid":"B2094654DB6EAAF8469F","title":"枫桦景苑(永德路)","lon":"121.46235","lat":"31.04283","category":"47","category_name":"住宅区","address":"剑川路"},{"poiid":"B2094757D465A0FA4593","title":"田都大酒店餐厅","lon":"121.466626054","lat":"31.047723793","category":"76","category_name":"上海菜","address":"闵行区龙吴路5388号(近放鹤路)"},{"poiid":"B2094654DB6EAAFF489D","title":"上海师范大学中新科技管理学院(元江路)","lon":"121.4597","lat":"31.06427","category":"52","category_name":"高等院校","address":""},{"poiid":"B2094757D068AAF9419B","title":"八号线人民广场站","lon":"121.461657286","lat":"31.0500695314","category":"36","category_name":"地铁站","address":"上海人民广场"},{"poiid":"B2094654DB6EAAFA419F","title":"新兰华","lon":"121.46495","lat":"31.04986","category":"257","category_name":"中餐厅","address":"塘湾镇"},{"poiid":"B2094752D16FA3F4469D","title":"上海市交通大学闵行校区","lon":"121.460077","lat":"31.056695","category":"253","category_name":"校园生活","address":null},{"poiid":"B2094655D36CA0FA419F","title":"剑川路通海路","lon":"121.47386","lat":"31.04336","category":"38","category_name":"公交车站","address":""},{"poiid":"B2094655D36CA6F8489D","title":"放鹤路龙吴路","lon":"121.4648","lat":"31.04956","category":"38","category_name":"公交车站","address":""},{"poiid":"B2094655D26BA2FC4792","title":"吴泾渡口","lon":"121.47852","lat":"31.04586","category":"38","category_name":"公交车站","address":""},{"poiid":"B2094757D06AA1F44498","title":"怪兽家","lon":"121.467756576","lat":"31.0517997557","category":"500","category_name":"未知分类","address":null},{"poiid":"B2094752D46AA2F5459E","title":"闵行第一加油站(放鹤)","lon":"121.458072","lat":"31.053692","category":"153","category_name":"加油站","address":"上海市闵行区塘湾镇放鹤路999号(近虹梅南路)"},{"poiid":"B2094654DB6EAAF44092","title":"川味食府","lon":"121.46073","lat":"31.06628","category":"71","category_name":"四川菜","address":"浦北路"},{"poiid":"B2094655D26AA2FD449C","title":"盱眙虾趣龙虾城 龙吴路店","lon":"121.467589054","lat":"31.044706793","category":"87","category_name":"特色／地方风味餐厅","address":"闵行区龙吴路5496号(近剑川路)"},{"poiid":"B2094655D36CA6F84893","title":"放鹤路虹梅南路","lon":"121.45205","lat":"31.0477","category":"38","category_name":"公交车站","address":""},{"poiid":"B2094654DB6EAAF4409E","title":"福建沙县特色小吃(龙吴路)","lon":"121.46063","lat":"31.06661","category":"68","category_name":"快餐厅","address":""},{"poiid":"B2094752D56DAAFA479D","title":"格里芬汽车影城（闵行梦谷店）","lon":"121.457123","lat":"31.055588","category":"500","category_name":"未知分类","address":null},{"poiid":"B2094654DB65AAF84799","title":"吴泾第二小学","lon":"121.46618","lat":"31.04945","category":"56","category_name":"小学","address":"闵行区龙吴路5300弄20号"},{"poiid":"B2094654DB6FA3FD4999","title":"荣华挖土机配件","lon":"121.46594","lat":"31.05117","category":"255","category_name":"专卖店","address":"龙吴路5202号"},{"poiid":"B2094757D064ABFA479B","title":"家裡","lon":"121.475455345","lat":"31.0462056836","category":"500","category_name":"未知分类","address":"上海窩！"},{"poiid":"B2094654DB6EAAF44198","title":"上海细良金属材料有限公司","lon":"121.46095","lat":"31.06556","category":"123","category_name":"家具建材市场","address":"龙吴路4829号"},{"poiid":"B2094750DA6EA2FC4892","title":"中国梦谷南上海创意园","lon":"121.455871","lat":"31.053676","category":"263","category_name":"公司","address":"闵行区虹梅南路曲吴路"},{"poiid":"B2094654DB6FA3FD499E","title":"上海广粤汽车修理有限公司","lon":"121.46591","lat":"31.0513","category":"159","category_name":"汽车维修","address":"龙吴路5168号甲"},{"poiid":"B2094757D66DA7F8439F","title":"虹桥火车站28号站台","lon":"121.468683709","lat":"31.0483237801","category":"22","category_name":"火车站","address":"上海虹桥火车站28号站台"},{"poiid":"B2094757D16FA2FA4298","title":"海狮花园大酒店","lon":"121.452675857","lat":"31.0505423724","category":"76","category_name":"上海菜","address":"闵行区虹梅南路5209号(放鹤路虹梅南路)"},{"poiid":"B2094757D065A0FA479B","title":"178路","lon":"121.45674688","lat":"31.058684822","category":"500","category_name":"未知分类","address":"上海剑川路通海路——龙华"},{"poiid":"B2094757D06FA3FB409C","title":"吴泾","lon":"121.468906","lat":"31.042429","category":"260","category_name":"其他","address":"上海闵行区吴泾镇"},{"poiid":"B2094757D06FA5FB469C","title":"闵浦大桥","lon":"121.48068237","lat":"31.052547454","category":"260","category_name":"其他","address":"上海闵行区S32申嘉湖高速-闵行区S32申嘉湖高速"},{"poiid":"B2094757D068A2F84893","title":"吴泾体育场","lon":"121.466128485","lat":"31.0488376885","category":"220","category_name":"运动场所","address":"闵行区龙吴路5347号(近放鹤路)"},{"poiid":"B2094654DB6EAAFF499B","title":"上海市建筑工程学校","lon":"121.46207","lat":"31.0624","category":"52","category_name":"高等院校","address":"龙吴路4989号"},{"poiid":"B2094757D06FAAFB4999","title":"肯德基 KFC (吴泾店)","lon":"121.463986","lat":"31.042662","category":"68","category_name":"快餐厅","address":"闵行区吴泾镇宝秀路667号(宝秀路永德路)"},{"poiid":"B2094757D069A6FC4198","title":"吴泾医院","lon":"121.46771812","lat":"31.041532597","category":"162","category_name":"医院","address":"上海闵行区剑川路155号"},{"poiid":"B2094757D16AA5FE4699","title":"虹梅景苑","lon":"121.46727029658","lat":"31.048140770919","category":"47","category_name":"住宅区","address":"上海市闵行区尚义路448弄"},{"poiid":"B2094757D06AA5F44899","title":"阿荣实业片场","lon":"121.462005435","lat":"31.045099269","category":"263","category_name":"公司","address":"上海宝秀路"},{"poiid":"B2094757D06FAAFA4493","title":"吴泾第二发电有限责任公司","lon":"121.46533203","lat":"31.057905197","category":"263","category_name":"公司","address":"上海龙吴路5100号"},{"poiid":"B2094757D66AA4F44892","title":"部落情 剑川店","lon":"121.46638","lat":"31.04184","category":"86","category_name":"火锅店","address":"闵行区剑川路167号(宝秀路剑川路)"},{"poiid":"B2094757D068A1F9409F","title":"龙吴路剑川路","lon":"121.4677658","lat":"31.043998718","category":"500","category_name":"未知分类","address":"上海龙吴路剑川路"},{"poiid":"B2094757D16AAAFA409B","title":"派之星量贩式KTV","lon":"121.466659645","lat":"31.0411515709","category":"248","category_name":"生活娱乐","address":"上海闵行区剑川路165号(锦江之星院内)"},{"poiid":"B2094757D069AAF4449D","title":"悦亭酒店","lon":"121.467812508","lat":"31.0427550772","category":"76","category_name":"上海菜","address":"闵行区吴泾镇龙吴路5555号(近剑川路)"},{"poiid":"B2094655D36CA1F8419A","title":"龙吴路北吴路","lon":"121.46372","lat":"31.05854","category":"38","category_name":"公交车站","address":""},{"poiid":"B2094757D068AAF44393","title":"吴泾热电厂","lon":"121.463588","lat":"31.058355098","category":"263","category_name":"公司","address":"上海龙吴路5000号"},{"poiid":"B2094655D36CA2F9419F","title":"热电厂","lon":"121.46281","lat":"31.06139","category":"38","category_name":"公交车站","address":""},{"poiid":"B2094654DB6EAAFF499E","title":"汇能宾馆","lon":"121.46305","lat":"31.05959","category":"250","category_name":"公园户外","address":"闵行区龙吴路5065号(近北吴路)"},{"poiid":"B2094757D16AA0FA459D","title":"上海东兴电力实业有限公司","lon":"121.464853","lat":"31.057961","category":"263","category_name":"公司","address":"上海市闵行区龙吴路5060"},{"poiid":"B2094654DB6EAAFF4998","title":"建峰学院闵行校区","lon":"121.46183","lat":"31.06221","category":"52","category_name":"高等院校","address":"闵行区龙吴路4989号"},{"poiid":"B2094757D068A4FD4293","title":"龙吴路","lon":"121.462890625","lat":"31.0592403412","category":"260","category_name":"其他","address":"上海徐汇区——闵行区"},{"poiid":"B2094654DB6EAAFA4492","title":"上海吴泾发电有限责任公司","lon":"121.46403","lat":"31.05818","category":"263","category_name":"公司","address":""},{"poiid":"B2094757D06AA1F4439E","title":"永德路步行衔","lon":"121.461725645","lat":"31.0425556022","category":"500","category_name":"未知分类","address":"上海市闵行区永德路"},{"poiid":"B2094757D66CA4FA479B","title":"957路(龙华站)","lon":"121.462891","lat":"31.05924","category":"500","category_name":"未知分类","address":"上海龙吴路"},{"poiid":"B2094757D76FA5F9409A","title":"世国烧烤","lon":"121.46617","lat":"31.04155","category":"68","category_name":"快餐厅","address":"闵行区剑川路150号(龙吴路宝秀路间)"},{"poiid":"B2094655D264A7FB4599","title":"双柏小区","lon":"121.47237","lat":"31.044006","category":"47","category_name":"住宅区","address":"上海闵行区剑川路100弄"},{"poiid":"B2094654DB6EAAF8469F","title":"枫桦景苑(永德路)","lon":"121.46235","lat":"31.04283","category":"47","category_name":"住宅区","address":"剑川路"},{"poiid":"B2094757D465A0FA4593","title":"田都大酒店餐厅","lon":"121.466626054","lat":"31.047723793","category":"76","category_name":"上海菜","address":"闵行区龙吴路5388号(近放鹤路)"},{"poiid":"B2094654DB6EAAFF489D","title":"上海师范大学中新科技管理学院(元江路)","lon":"121.4597","lat":"31.06427","category":"52","category_name":"高等院校","address":""},{"poiid":"B2094757D068AAF9419B","title":"八号线人民广场站","lon":"121.461657286","lat":"31.0500695314","category":"36","category_name":"地铁站","address":"上海人民广场"},{"poiid":"B2094654DB6EAAFA419F","title":"新兰华","lon":"121.46495","lat":"31.04986","category":"257","category_name":"中餐厅","address":"塘湾镇"},{"poiid":"B2094752D16FA3F4469D","title":"上海市交通大学闵行校区","lon":"121.460077","lat":"31.056695","category":"253","category_name":"校园生活","address":null},{"poiid":"B2094655D36CA0FA419F","title":"剑川路通海路","lon":"121.47386","lat":"31.04336","category":"38","category_name":"公交车站","address":""},{"poiid":"B2094655D36CA6F8489D","title":"放鹤路龙吴路","lon":"121.4648","lat":"31.04956","category":"38","category_name":"公交车站","address":""},{"poiid":"B2094655D26BA2FC4792","title":"吴泾渡口","lon":"121.47852","lat":"31.04586","category":"38","category_name":"公交车站","address":""},{"poiid":"B2094757D06AA1F44498","title":"怪兽家","lon":"121.467756576","lat":"31.0517997557","category":"500","category_name":"未知分类","address":null},{"poiid":"B2094752D46AA2F5459E","title":"闵行第一加油站(放鹤)","lon":"121.458072","lat":"31.053692","category":"153","category_name":"加油站","address":"上海市闵行区塘湾镇放鹤路999号(近虹梅南路)"},{"poiid":"B2094654DB6EAAF44092","title":"川味食府","lon":"121.46073","lat":"31.06628","category":"71","category_name":"四川菜","address":"浦北路"},{"poiid":"B2094655D26AA2FD449C","title":"盱眙虾趣龙虾城 龙吴路店","lon":"121.467589054","lat":"31.044706793","category":"87","category_name":"特色／地方风味餐厅","address":"闵行区龙吴路5496号(近剑川路)"},{"poiid":"B2094655D36CA6F84893","title":"放鹤路虹梅南路","lon":"121.45205","lat":"31.0477","category":"38","category_name":"公交车站","address":""},{"poiid":"B2094654DB6EAAF4409E","title":"福建沙县特色小吃(龙吴路)","lon":"121.46063","lat":"31.06661","category":"68","category_name":"快餐厅","address":""},{"poiid":"B2094752D56DAAFA479D","title":"格里芬汽车影城（闵行梦谷店）","lon":"121.457123","lat":"31.055588","category":"500","category_name":"未知分类","address":null},{"poiid":"B2094654DB65AAF84799","title":"吴泾第二小学","lon":"121.46618","lat":"31.04945","category":"56","category_name":"小学","address":"闵行区龙吴路5300弄20号"},{"poiid":"B2094654DB6FA3FD4999","title":"荣华挖土机配件","lon":"121.46594","lat":"31.05117","category":"255","category_name":"专卖店","address":"龙吴路5202号"},{"poiid":"B2094757D064ABFA479B","title":"家裡","lon":"121.475455345","lat":"31.0462056836","category":"500","category_name":"未知分类","address":"上海窩！"},{"poiid":"B2094654DB6EAAF44198","title":"上海细良金属材料有限公司","lon":"121.46095","lat":"31.06556","category":"123","category_name":"家具建材市场","address":"龙吴路4829号"},{"poiid":"B2094750DA6EA2FC4892","title":"中国梦谷南上海创意园","lon":"121.455871","lat":"31.053676","category":"263","category_name":"公司","address":"闵行区虹梅南路曲吴路"},{"poiid":"B2094654DB6FA3FD499E","title":"上海广粤汽车修理有限公司","lon":"121.46591","lat":"31.0513","category":"159","category_name":"汽车维修","address":"龙吴路5168号甲"},{"poiid":"B2094757D66DA7F8439F","title":"虹桥火车站28号站台","lon":"121.468683709","lat":"31.0483237801","category":"22","category_name":"火车站","address":"上海虹桥火车站28号站台"},{"poiid":"B2094757D16FA2FA4298","title":"海狮花园大酒店","lon":"121.452675857","lat":"31.0505423724","category":"76","category_name":"上海菜","address":"闵行区虹梅南路5209号(放鹤路虹梅南路)"},{"poiid":"B2094757D065A0FA479B","title":"178路","lon":"121.45674688","lat":"31.058684822","category":"500","category_name":"未知分类","address":"上海剑川路通海路——龙华"},{"poiid":"B2094757D06FA3FB409C","title":"吴泾","lon":"121.468906","lat":"31.042429","category":"260","category_name":"其他","address":"上海闵行区吴泾镇"},{"poiid":"B2094757D06FA5FB469C","title":"闵浦大桥","lon":"121.48068237","lat":"31.052547454","category":"260","category_name":"其他","address":"上海闵行区S32申嘉湖高速-闵行区S32申嘉湖高速"},{"poiid":"B2094757D068A2F84893","title":"吴泾体育场","lon":"121.466128485","lat":"31.0488376885","category":"220","category_name":"运动场所","address":"闵行区龙吴路5347号(近放鹤路)"},{"poiid":"B2094654DB6EAAFF499B","title":"上海市建筑工程学校","lon":"121.46207","lat":"31.0624","category":"52","category_name":"高等院校","address":"龙吴路4989号"},{"poiid":"B2094757D06FAAFB4999","title":"肯德基 KFC (吴泾店)","lon":"121.463986","lat":"31.042662","category":"68","category_name":"快餐厅","address":"闵行区吴泾镇宝秀路667号(宝秀路永德路)"},{"poiid":"B2094757D069A6FC4198","title":"吴泾医院","lon":"121.46771812","lat":"31.041532597","category":"162","category_name":"医院","address":"上海闵行区剑川路155号"},{"poiid":"B2094757D16AA5FE4699","title":"虹梅景苑","lon":"121.46727029658","lat":"31.048140770919","category":"47","category_name":"住宅区","address":"上海市闵行区尚义路448弄"},{"poiid":"B2094757D06AA5F44899","title":"阿荣实业片场","lon":"121.462005435","lat":"31.045099269","category":"263","category_name":"公司","address":"上海宝秀路"},{"poiid":"B2094757D06FAAFA4493","title":"吴泾第二发电有限责任公司","lon":"121.46533203","lat":"31.057905197","category":"263","category_name":"公司","address":"上海龙吴路5100号"},{"poiid":"B2094757D66AA4F44892","title":"部落情 剑川店","lon":"121.46638","lat":"31.04184","category":"86","category_name":"火锅店","address":"闵行区剑川路167号(宝秀路剑川路)"},{"poiid":"B2094757D068A1F9409F","title":"龙吴路剑川路","lon":"121.4677658","lat":"31.043998718","category":"500","category_name":"未知分类","address":"上海龙吴路剑川路"},{"poiid":"B2094757D16AAAFA409B","title":"派之星量贩式KTV","lon":"121.466659645","lat":"31.0411515709","category":"248","category_name":"生活娱乐","address":"上海闵行区剑川路165号(锦江之星院内)"},{"poiid":"B2094757D069AAF4449D","title":"悦亭酒店","lon":"121.467812508","lat":"31.0427550772","category":"76","category_name":"上海菜","address":"闵行区吴泾镇龙吴路5555号(近剑川路)"},{"poiid":"B2094655D36CA1F8419A","title":"龙吴路北吴路","lon":"121.46372","lat":"31.05854","category":"38","category_name":"公交车站","address":""},{"poiid":"B2094757D068AAF44393","title":"吴泾热电厂","lon":"121.463588","lat":"31.058355098","category":"263","category_name":"公司","address":"上海龙吴路5000号"},{"poiid":"B2094655D36CA2F9419F","title":"热电厂","lon":"121.46281","lat":"31.06139","category":"38","category_name":"公交车站","address":""},{"poiid":"B2094654DB6EAAFF499E","title":"汇能宾馆","lon":"121.46305","lat":"31.05959","category":"250","category_name":"公园户外","address":"闵行区龙吴路5065号(近北吴路)"},{"poiid":"B2094757D16AA0FA459D","title":"上海东兴电力实业有限公司","lon":"121.464853","lat":"31.057961","category":"263","category_name":"公司","address":"上海市闵行区龙吴路5060"},{"poiid":"B2094654DB6EAAFF4998","title":"建峰学院闵行校区","lon":"121.46183","lat":"31.06221","category":"52","category_name":"高等院校","address":"闵行区龙吴路4989号"},{"poiid":"B2094757D068A4FD4293","title":"龙吴路","lon":"121.462890625","lat":"31.0592403412","category":"260","category_name":"其他","address":"上海徐汇区——闵行区"},{"poiid":"B2094654DB6EAAFA4492","title":"上海吴泾发电有限责任公司","lon":"121.46403","lat":"31.05818","category":"263","category_name":"公司","address":""},{"poiid":"B2094757D06AA1F4439E","title":"永德路步行衔","lon":"121.461725645","lat":"31.0425556022","category":"500","category_name":"未知分类","address":"上海市闵行区永德路"},{"poiid":"B2094757D66CA4FA479B","title":"957路(龙华站)","lon":"121.462891","lat":"31.05924","category":"500","category_name":"未知分类","address":"上海龙吴路"},{"poiid":"B2094757D76FA5F9409A","title":"世国烧烤","lon":"121.46617","lat":"31.04155","category":"68","category_name":"快餐厅","address":"闵行区剑川路150号(龙吴路宝秀路间)"},{"poiid":"B2094655D264A7FB4599","title":"双柏小区","lon":"121.47237","lat":"31.044006","category":"47","category_name":"住宅区","address":"上海闵行区剑川路100弄"},{"poiid":"B2094654DB6EAAF8469F","title":"枫桦景苑(永德路)","lon":"121.46235","lat":"31.04283","category":"47","category_name":"住宅区","address":"剑川路"},{"poiid":"B2094757D465A0FA4593","title":"田都大酒店餐厅","lon":"121.466626054","lat":"31.047723793","category":"76","category_name":"上海菜","address":"闵行区龙吴路5388号(近放鹤路)"},{"poiid":"B2094654DB6EAAFF489D","title":"上海师范大学中新科技管理学院(元江路)","lon":"121.4597","lat":"31.06427","category":"52","category_name":"高等院校","address":""},{"poiid":"B2094757D068AAF9419B","title":"八号线人民广场站","lon":"121.461657286","lat":"31.0500695314","category":"36","category_name":"地铁站","address":"上海人民广场"},{"poiid":"B2094654DB6EAAFA419F","title":"新兰华","lon":"121.46495","lat":"31.04986","category":"257","category_name":"中餐厅","address":"塘湾镇"},{"poiid":"B2094752D16FA3F4469D","title":"上海市交通大学闵行校区","lon":"121.460077","lat":"31.056695","category":"253","category_name":"校园生活","address":null},{"poiid":"B2094655D36CA0FA419F","title":"剑川路通海路","lon":"121.47386","lat":"31.04336","category":"38","category_name":"公交车站","address":""},{"poiid":"B2094655D36CA6F8489D","title":"放鹤路龙吴路","lon":"121.4648","lat":"31.04956","category":"38","category_name":"公交车站","address":""},{"poiid":"B2094655D26BA2FC4792","title":"吴泾渡口","lon":"121.47852","lat":"31.04586","category":"38","category_name":"公交车站","address":""},{"poiid":"B2094757D06AA1F44498","title":"怪兽家","lon":"121.467756576","lat":"31.0517997557","category":"500","category_name":"未知分类","address":null},{"poiid":"B2094752D46AA2F5459E","title":"闵行第一加油站(放鹤)","lon":"121.458072","lat":"31.053692","category":"153","category_name":"加油站","address":"上海市闵行区塘湾镇放鹤路999号(近虹梅南路)"},{"poiid":"B2094654DB6EAAF44092","title":"川味食府","lon":"121.46073","lat":"31.06628","category":"71","category_name":"四川菜","address":"浦北路"},{"poiid":"B2094655D26AA2FD449C","title":"盱眙虾趣龙虾城 龙吴路店","lon":"121.467589054","lat":"31.044706793","category":"87","category_name":"特色／地方风味餐厅","address":"闵行区龙吴路5496号(近剑川路)"},{"poiid":"B2094655D36CA6F84893","title":"放鹤路虹梅南路","lon":"121.45205","lat":"31.0477","category":"38","category_name":"公交车站","address":""},{"poiid":"B2094654DB6EAAF4409E","title":"福建沙县特色小吃(龙吴路)","lon":"121.46063","lat":"31.06661","category":"68","category_name":"快餐厅","address":""},{"poiid":"B2094752D56DAAFA479D","title":"格里芬汽车影城（闵行梦谷店）","lon":"121.457123","lat":"31.055588","category":"500","category_name":"未知分类","address":null},{"poiid":"B2094654DB65AAF84799","title":"吴泾第二小学","lon":"121.46618","lat":"31.04945","category":"56","category_name":"小学","address":"闵行区龙吴路5300弄20号"},{"poiid":"B2094654DB6FA3FD4999","title":"荣华挖土机配件","lon":"121.46594","lat":"31.05117","category":"255","category_name":"专卖店","address":"龙吴路5202号"},{"poiid":"B2094757D064ABFA479B","title":"家裡","lon":"121.475455345","lat":"31.0462056836","category":"500","category_name":"未知分类","address":"上海窩！"},{"poiid":"B2094654DB6EAAF44198","title":"上海细良金属材料有限公司","lon":"121.46095","lat":"31.06556","category":"123","category_name":"家具建材市场","address":"龙吴路4829号"},{"poiid":"B2094750DA6EA2FC4892","title":"中国梦谷南上海创意园","lon":"121.455871","lat":"31.053676","category":"263","category_name":"公司","address":"闵行区虹梅南路曲吴路"},{"poiid":"B2094654DB6FA3FD499E","title":"上海广粤汽车修理有限公司","lon":"121.46591","lat":"31.0513","category":"159","category_name":"汽车维修","address":"龙吴路5168号甲"},{"poiid":"B2094757D66DA7F8439F","title":"虹桥火车站28号站台","lon":"121.468683709","lat":"31.0483237801","category":"22","category_name":"火车站","address":"上海虹桥火车站28号站台"},{"poiid":"B2094757D16FA2FA4298","title":"海狮花园大酒店","lon":"121.452675857","lat":"31.0505423724","category":"76","category_name":"上海菜","address":"闵行区虹梅南路5209号(放鹤路虹梅南路)"},{"poiid":"B2094757D065A0FA479B","title":"178路","lon":"121.45674688","lat":"31.058684822","category":"500","category_name":"未知分类","address":"上海剑川路通海路——龙华"}]