[{"poiid":"B2094757D06FA1FD4199","title":"桃浦七村","lon":"121.356126","lat":"31.294847","category":"47","category_name":"住宅区","address":"上海雪松路458弄"},{"poiid":"B2094757D068A7FE4493","title":"星瀚奔驰","lon":"121.360466","lat":"31.294511795","category":"263","category_name":"公司","address":"上海普陀区红柳路288号"},{"poiid":"B2094655D268ABF84092","title":"外环沪嘉立交桥","lon":"121.35855","lat":"31.28933","category":"250","category_name":"公园户外","address":""},{"poiid":"B2094757D06AA1FF4099","title":"宝弘宝马","lon":"121.35483449","lat":"31.292829136","category":"500","category_name":"未知分类","address":"上海红柳路233号"},{"poiid":"B2094757D06FA0F4439E","title":"肯德基 KFC (桃浦店)","lon":"121.353774","lat":"31.284607","category":"68","category_name":"快餐厅","address":"普陀区雪松路368号(近绿杨路)"},{"poiid":"B2094757D065A5FD489C","title":"古浪路","lon":"121.37608995","lat":"31.2849073447","category":"500","category_name":"未知分类","address":"上海市普陀区古浪路"},{"poiid":"B2094655D26BA2F94492","title":"桃浦五村","lon":"121.355","lat":"31.2914","category":"38","category_name":"公交车站","address":"红棉路351弄"},{"poiid":"B2094757D06FA5FA409E","title":"武威路地铁站","lon":"121.36533108","lat":"31.276572321","category":"36","category_name":"地铁站","address":"上海轨道交通 十一号线 轨交武威路站 11"},{"poiid":"B2094654D46BAAFB409D","title":"华东师范大学资源与环境科学学院","lon":"121.36418","lat":"31.28917","category":"52","category_name":"高等院校","address":""},{"poiid":"B2094654D46BA6F5419A","title":"桃浦六村绿春苑","lon":"121.362","lat":"31.2929","category":"47","category_name":"住宅区","address":"雪松路392弄"},{"poiid":"B2094654D46BAAFB409F","title":"桃苑村学校","lon":"121.36415","lat":"31.28918","category":"55","category_name":"中学","address":""},{"poiid":"B2094757D165A7F4439D","title":"绿杨桥","lon":"121.365897059","lat":"31.2845843173","category":"38","category_name":"公交车站","address":"上海普陀区古浪路与真南路交叉口"},{"poiid":"B2094654D46BAAFB409C","title":"人口生育文化小区","lon":"121.36525","lat":"31.28942","category":"47","category_name":"住宅区","address":""},{"poiid":"B2094757D068A6FD4898","title":"南大路","lon":"121.37060092","lat":"31.295675969","category":"500","category_name":"未知分类","address":"上海市宝山区环镇南路"},{"poiid":"B2094654D46BAAF9459C","title":"宗强小区","lon":"121.3658","lat":"31.29006","category":"47","category_name":"住宅区","address":""},{"poiid":"B2094654D46BA7FC4099","title":"上海都市型工业示范区","lon":"121.36299","lat":"31.28709","category":"45","category_name":"产业园区","address":"真南路2548"},{"poiid":"B2094757D068A1FD489E","title":"桃浦","lon":"121.362959","lat":"31.2796","category":"260","category_name":"其他","address":"上海桃浦"},{"poiid":"B2094757D068A3F5469B","title":"沃尔玛(桃浦店)","lon":"121.365709","lat":"31.284111","category":"118","category_name":"超级市场","address":"普陀区武威路1118号白丽生活广场内(近红棉路)"},{"poiid":"B2094757D068A0F8439C","title":"一品全大酒店(桃浦店)","lon":"121.35344","lat":"31.28059","category":"76","category_name":"上海菜","address":"普陀区雪松路281号(近武威路)"},{"poiid":"B2094654D46BAAF94593","title":"射阳大米驻沪办事处钱龙桥分销点","lon":"121.36792","lat":"31.29076","category":"117","category_name":"便民商店/便利店","address":"南大路701弄钱龙桥头"},{"poiid":"B2094757D065A1F94992","title":"东风悦达起亚绅起专营店","lon":"121.364862","lat":"31.282629","category":"500","category_name":"未知分类","address":"上海真南路2165号"},{"poiid":"B2094654D46BA7FC4599","title":"绿杨供销商业街","lon":"121.36537","lat":"31.28525","category":"116","category_name":"特色商业街","address":""},{"poiid":"B2094654D46BAAF94093","title":"阜润便利店","lon":"121.3647","lat":"31.2931","category":"117","category_name":"便民商店/便利店","address":"南大路799弄188号北场A楼17号"},{"poiid":"B2094757D569A2FE489B","title":"旭日之城","lon":"121.361029","lat":"31.286979","category":"47","category_name":"住宅区","address":"普陀雪松路武威路口"},{"poiid":"B2094757D068A0FC4998","title":"泰煌鸡(雪松路店)","lon":"121.35368","lat":"31.28307","category":"68","category_name":"快餐厅","address":"普陀区桃浦雪松路334号(近武威路)"},{"poiid":"B2094757D169A6F5459B","title":"南大路外环入口","lon":"121.364722","lat":"31.293262","category":"500","category_name":"未知分类","address":"上海南大路768号"},{"poiid":"B2094757D66CA6FE439A","title":"万事红","lon":"121.368049","lat":"31.289844","category":"500","category_name":"未知分类","address":"上海春和路588号"},{"poiid":"B2094757D16DA7F4469E","title":"上海众国宝泓","lon":"121.35481595","lat":"31.2957055511","category":"47","category_name":"住宅区","address":"普陀区红柳路233号(近南大路)"},{"poiid":"B2094654D46BAAFA489E","title":"蓝图物流","lon":"121.36821","lat":"31.2896","category":"248","category_name":"生活娱乐","address":"祁连山路1035弄555号"},{"poiid":"B2094654D46BAAF94999","title":"大场南大工业园","lon":"121.37016","lat":"31.29232","category":"45","category_name":"产业园区","address":"南大祁骆路18号"},{"poiid":"B2094654DB6AA4F94593","title":"泰煌火锅","lon":"121.3541","lat":"31.28344","category":"86","category_name":"火锅店","address":"普陀区雪松路338号(近武威路)"},{"poiid":"B2094654D46BA0FB489F","title":"绿杨新村","lon":"121.36641","lat":"31.28413","category":"47","category_name":"住宅区","address":"真南路2206-2208号"},{"poiid":"B2094654D46BA6F4479B","title":"锦翔大楼","lon":"121.35658","lat":"31.28754","category":"46","category_name":"楼宇","address":"真南路"},{"poiid":"B2094655D26FA1FB409D","title":"绿杨新村(西门)","lon":"121.36565","lat":"31.28411","category":"47","category_name":"住宅区","address":"真南路2206-2208号"},{"poiid":"B2094757D66CA1F84893","title":"南石饭店","lon":"121.35928745","lat":"31.2862719708","category":"247","category_name":"餐饮美食","address":"上海桃浦七村，838终点站旁"},{"poiid":"B2094654D46BAAF84292","title":"春光家园","lon":"121.35783","lat":"31.277744","category":"47","category_name":"住宅区","address":"武威路1019弄"},{"poiid":"B2094757D66CA4FD479E","title":"上海九州通医药公司","lon":"121.362832","lat":"31.283183","category":"500","category_name":"未知分类","address":"上海常和路666号"},{"poiid":"B2094757D168A5F84493","title":"远成集团","lon":"121.36337095","lat":"31.2847413416","category":"263","category_name":"公司","address":"上海真南路2339号"},{"poiid":"B2094654D46BA6F5419D","title":"桃浦三村红棉苑","lon":"121.357597","lat":"31.289053","category":"47","category_name":"住宅区","address":"西武威路301号"},{"poiid":"B2094757D065A6F8489A","title":"利群医院(桃浦分院)","lon":"121.35465","lat":"31.28151","category":"162","category_name":"医院","address":"普陀区雪松路302号(近武威路)"},{"poiid":"B2094655D268ABF84093","title":"一号桥","lon":"121.361","lat":"31.29464","category":"250","category_name":"公园户外","address":""},{"poiid":"B2094654D46BA7FD429E","title":"申润园","lon":"121.37098","lat":"31.285","category":"45","category_name":"产业园区","address":"古浪路1570弄"},{"poiid":"B2094654D46BA0F5499D","title":"上海公路桥梁工程有限公司","lon":"121.36157","lat":"31.28577","category":"263","category_name":"公司","address":"真南路2557号"},{"poiid":"B2094654D46BA0F5479E","title":"浦浪浴场","lon":"121.36742","lat":"31.28474","category":"149","category_name":"洗浴推拿场所","address":"普陀区古浪路1681号第1区1-10号"},{"poiid":"B2094654D46BAAF9499B","title":"复星大药房祁骆店","lon":"121.37171","lat":"31.29265","category":"162","category_name":"医院","address":"大场镇"},{"poiid":"B2094757D069A4F4439E","title":"桃浦四村","lon":"121.352","lat":"31.2902","category":"252","category_name":"楼宇机构","address":"上海市普陀区绿杨路51弄"},{"poiid":"B2094654D46BA0F54798","title":"鑫龙摩托车综合修配行","lon":"121.3675","lat":"31.28474","category":"159","category_name":"汽车维修","address":"古浪路1681号鑫世纪汽配城1区007号"},{"poiid":"B2094757D064A7F44099","title":"桃浦五村杜鹃苑","lon":"121.356","lat":"31.2905","category":"47","category_name":"住宅区","address":"上海绿杨路201弄"},{"poiid":"B2094654DB65A0FA469A","title":"鑫宇都市园","lon":"121.3636","lat":"31.28231","category":"45","category_name":"产业园区","address":"常和路613弄"},{"poiid":"B2094757D069ABF8419A","title":"马自达4s 景和真南店","lon":"121.365507","lat":"31.278018","category":"500","category_name":"未知分类","address":"上海真南路武威路"},{"poiid":"B2094757D06FA1FD4199","title":"桃浦七村","lon":"121.356126","lat":"31.294847","category":"47","category_name":"住宅区","address":"上海雪松路458弄"},{"poiid":"B2094757D068A7FE4493","title":"星瀚奔驰","lon":"121.360466","lat":"31.294511795","category":"263","category_name":"公司","address":"上海普陀区红柳路288号"},{"poiid":"B2094655D268ABF84092","title":"外环沪嘉立交桥","lon":"121.35855","lat":"31.28933","category":"250","category_name":"公园户外","address":""},{"poiid":"B2094757D06AA1FF4099","title":"宝弘宝马","lon":"121.35483449","lat":"31.292829136","category":"500","category_name":"未知分类","address":"上海红柳路233号"},{"poiid":"B2094757D06FA0F4439E","title":"肯德基 KFC (桃浦店)","lon":"121.353774","lat":"31.284607","category":"68","category_name":"快餐厅","address":"普陀区雪松路368号(近绿杨路)"},{"poiid":"B2094757D065A5FD489C","title":"古浪路","lon":"121.37608995","lat":"31.2849073447","category":"500","category_name":"未知分类","address":"上海市普陀区古浪路"},{"poiid":"B2094655D26BA2F94492","title":"桃浦五村","lon":"121.355","lat":"31.2914","category":"38","category_name":"公交车站","address":"红棉路351弄"},{"poiid":"B2094757D06FA5FA409E","title":"武威路地铁站","lon":"121.36533108","lat":"31.276572321","category":"36","category_name":"地铁站","address":"上海轨道交通 十一号线 轨交武威路站 11"},{"poiid":"B2094654D46BAAFB409D","title":"华东师范大学资源与环境科学学院","lon":"121.36418","lat":"31.28917","category":"52","category_name":"高等院校","address":""},{"poiid":"B2094654D46BA6F5419A","title":"桃浦六村绿春苑","lon":"121.362","lat":"31.2929","category":"47","category_name":"住宅区","address":"雪松路392弄"},{"poiid":"B2094654D46BAAFB409F","title":"桃苑村学校","lon":"121.36415","lat":"31.28918","category":"55","category_name":"中学","address":""},{"poiid":"B2094757D165A7F4439D","title":"绿杨桥","lon":"121.365897059","lat":"31.2845843173","category":"38","category_name":"公交车站","address":"上海普陀区古浪路与真南路交叉口"},{"poiid":"B2094654D46BAAFB409C","title":"人口生育文化小区","lon":"121.36525","lat":"31.28942","category":"47","category_name":"住宅区","address":""},{"poiid":"B2094757D068A6FD4898","title":"南大路","lon":"121.37060092","lat":"31.295675969","category":"500","category_name":"未知分类","address":"上海市宝山区环镇南路"},{"poiid":"B2094654D46BAAF9459C","title":"宗强小区","lon":"121.3658","lat":"31.29006","category":"47","category_name":"住宅区","address":""},{"poiid":"B2094654D46BA7FC4099","title":"上海都市型工业示范区","lon":"121.36299","lat":"31.28709","category":"45","category_name":"产业园区","address":"真南路2548"},{"poiid":"B2094757D068A1FD489E","title":"桃浦","lon":"121.362959","lat":"31.2796","category":"260","category_name":"其他","address":"上海桃浦"},{"poiid":"B2094757D068A3F5469B","title":"沃尔玛(桃浦店)","lon":"121.365709","lat":"31.284111","category":"118","category_name":"超级市场","address":"普陀区武威路1118号白丽生活广场内(近红棉路)"},{"poiid":"B2094757D068A0F8439C","title":"一品全大酒店(桃浦店)","lon":"121.35344","lat":"31.28059","category":"76","category_name":"上海菜","address":"普陀区雪松路281号(近武威路)"},{"poiid":"B2094654D46BAAF94593","title":"射阳大米驻沪办事处钱龙桥分销点","lon":"121.36792","lat":"31.29076","category":"117","category_name":"便民商店/便利店","address":"南大路701弄钱龙桥头"},{"poiid":"B2094757D065A1F94992","title":"东风悦达起亚绅起专营店","lon":"121.364862","lat":"31.282629","category":"500","category_name":"未知分类","address":"上海真南路2165号"},{"poiid":"B2094654D46BA7FC4599","title":"绿杨供销商业街","lon":"121.36537","lat":"31.28525","category":"116","category_name":"特色商业街","address":""},{"poiid":"B2094654D46BAAF94093","title":"阜润便利店","lon":"121.3647","lat":"31.2931","category":"117","category_name":"便民商店/便利店","address":"南大路799弄188号北场A楼17号"},{"poiid":"B2094757D569A2FE489B","title":"旭日之城","lon":"121.361029","lat":"31.286979","category":"47","category_name":"住宅区","address":"普陀雪松路武威路口"},{"poiid":"B2094757D068A0FC4998","title":"泰煌鸡(雪松路店)","lon":"121.35368","lat":"31.28307","category":"68","category_name":"快餐厅","address":"普陀区桃浦雪松路334号(近武威路)"},{"poiid":"B2094757D169A6F5459B","title":"南大路外环入口","lon":"121.364722","lat":"31.293262","category":"500","category_name":"未知分类","address":"上海南大路768号"},{"poiid":"B2094757D66CA6FE439A","title":"万事红","lon":"121.368049","lat":"31.289844","category":"500","category_name":"未知分类","address":"上海春和路588号"},{"poiid":"B2094757D16DA7F4469E","title":"上海众国宝泓","lon":"121.35481595","lat":"31.2957055511","category":"47","category_name":"住宅区","address":"普陀区红柳路233号(近南大路)"},{"poiid":"B2094654D46BAAFA489E","title":"蓝图物流","lon":"121.36821","lat":"31.2896","category":"248","category_name":"生活娱乐","address":"祁连山路1035弄555号"},{"poiid":"B2094654D46BAAF94999","title":"大场南大工业园","lon":"121.37016","lat":"31.29232","category":"45","category_name":"产业园区","address":"南大祁骆路18号"},{"poiid":"B2094654DB6AA4F94593","title":"泰煌火锅","lon":"121.3541","lat":"31.28344","category":"86","category_name":"火锅店","address":"普陀区雪松路338号(近武威路)"},{"poiid":"B2094654D46BA0FB489F","title":"绿杨新村","lon":"121.36641","lat":"31.28413","category":"47","category_name":"住宅区","address":"真南路2206-2208号"},{"poiid":"B2094654D46BA6F4479B","title":"锦翔大楼","lon":"121.35658","lat":"31.28754","category":"46","category_name":"楼宇","address":"真南路"},{"poiid":"B2094655D26FA1FB409D","title":"绿杨新村(西门)","lon":"121.36565","lat":"31.28411","category":"47","category_name":"住宅区","address":"真南路2206-2208号"},{"poiid":"B2094757D66CA1F84893","title":"南石饭店","lon":"121.35928745","lat":"31.2862719708","category":"247","category_name":"餐饮美食","address":"上海桃浦七村，838终点站旁"},{"poiid":"B2094654D46BAAF84292","title":"春光家园","lon":"121.35783","lat":"31.277744","category":"47","category_name":"住宅区","address":"武威路1019弄"},{"poiid":"B2094757D66CA4FD479E","title":"上海九州通医药公司","lon":"121.362832","lat":"31.283183","category":"500","category_name":"未知分类","address":"上海常和路666号"},{"poiid":"B2094757D168A5F84493","title":"远成集团","lon":"121.36337095","lat":"31.2847413416","category":"263","category_name":"公司","address":"上海真南路2339号"},{"poiid":"B2094654D46BA6F5419D","title":"桃浦三村红棉苑","lon":"121.357597","lat":"31.289053","category":"47","category_name":"住宅区","address":"西武威路301号"},{"poiid":"B2094757D065A6F8489A","title":"利群医院(桃浦分院)","lon":"121.35465","lat":"31.28151","category":"162","category_name":"医院","address":"普陀区雪松路302号(近武威路)"},{"poiid":"B2094655D268ABF84093","title":"一号桥","lon":"121.361","lat":"31.29464","category":"250","category_name":"公园户外","address":""},{"poiid":"B2094654D46BA7FD429E","title":"申润园","lon":"121.37098","lat":"31.285","category":"45","category_name":"产业园区","address":"古浪路1570弄"},{"poiid":"B2094654D46BA0F5499D","title":"上海公路桥梁工程有限公司","lon":"121.36157","lat":"31.28577","category":"263","category_name":"公司","address":"真南路2557号"},{"poiid":"B2094654D46BA0F5479E","title":"浦浪浴场","lon":"121.36742","lat":"31.28474","category":"149","category_name":"洗浴推拿场所","address":"普陀区古浪路1681号第1区1-10号"},{"poiid":"B2094654D46BAAF9499B","title":"复星大药房祁骆店","lon":"121.37171","lat":"31.29265","category":"162","category_name":"医院","address":"大场镇"},{"poiid":"B2094757D069A4F4439E","title":"桃浦四村","lon":"121.352","lat":"31.2902","category":"252","category_name":"楼宇机构","address":"上海市普陀区绿杨路51弄"},{"poiid":"B2094654D46BA0F54798","title":"鑫龙摩托车综合修配行","lon":"121.3675","lat":"31.28474","category":"159","category_name":"汽车维修","address":"古浪路1681号鑫世纪汽配城1区007号"},{"poiid":"B2094757D064A7F44099","title":"桃浦五村杜鹃苑","lon":"121.356","lat":"31.2905","category":"47","category_name":"住宅区","address":"上海绿杨路201弄"},{"poiid":"B2094654DB65A0FA469A","title":"鑫宇都市园","lon":"121.3636","lat":"31.28231","category":"45","category_name":"产业园区","address":"常和路613弄"},{"poiid":"B2094757D069ABF8419A","title":"马自达4s 景和真南店","lon":"121.365507","lat":"31.278018","category":"500","category_name":"未知分类","address":"上海真南路武威路"},{"poiid":"B2094757D06FA1FD4199","title":"桃浦七村","lon":"121.356126","lat":"31.294847","category":"47","category_name":"住宅区","address":"上海雪松路458弄"},{"poiid":"B2094757D068A7FE4493","title":"星瀚奔驰","lon":"121.360466","lat":"31.294511795","category":"263","category_name":"公司","address":"上海普陀区红柳路288号"},{"poiid":"B2094655D268ABF84092","title":"外环沪嘉立交桥","lon":"121.35855","lat":"31.28933","category":"250","category_name":"公园户外","address":""},{"poiid":"B2094757D06AA1FF4099","title":"宝弘宝马","lon":"121.35483449","lat":"31.292829136","category":"500","category_name":"未知分类","address":"上海红柳路233号"},{"poiid":"B2094757D06FA0F4439E","title":"肯德基 KFC (桃浦店)","lon":"121.353774","lat":"31.284607","category":"68","category_name":"快餐厅","address":"普陀区雪松路368号(近绿杨路)"},{"poiid":"B2094757D065A5FD489C","title":"古浪路","lon":"121.37608995","lat":"31.2849073447","category":"500","category_name":"未知分类","address":"上海市普陀区古浪路"},{"poiid":"B2094655D26BA2F94492","title":"桃浦五村","lon":"121.355","lat":"31.2914","category":"38","category_name":"公交车站","address":"红棉路351弄"},{"poiid":"B2094757D06FA5FA409E","title":"武威路地铁站","lon":"121.36533108","lat":"31.276572321","category":"36","category_name":"地铁站","address":"上海轨道交通 十一号线 轨交武威路站 11"},{"poiid":"B2094654D46BAAFB409D","title":"华东师范大学资源与环境科学学院","lon":"121.36418","lat":"31.28917","category":"52","category_name":"高等院校","address":""},{"poiid":"B2094654D46BA6F5419A","title":"桃浦六村绿春苑","lon":"121.362","lat":"31.2929","category":"47","category_name":"住宅区","address":"雪松路392弄"},{"poiid":"B2094654D46BAAFB409F","title":"桃苑村学校","lon":"121.36415","lat":"31.28918","category":"55","category_name":"中学","address":""},{"poiid":"B2094757D165A7F4439D","title":"绿杨桥","lon":"121.365897059","lat":"31.2845843173","category":"38","category_name":"公交车站","address":"上海普陀区古浪路与真南路交叉口"},{"poiid":"B2094654D46BAAFB409C","title":"人口生育文化小区","lon":"121.36525","lat":"31.28942","category":"47","category_name":"住宅区","address":""},{"poiid":"B2094757D068A6FD4898","title":"南大路","lon":"121.37060092","lat":"31.295675969","category":"500","category_name":"未知分类","address":"上海市宝山区环镇南路"},{"poiid":"B2094654D46BAAF9459C","title":"宗强小区","lon":"121.3658","lat":"31.29006","category":"47","category_name":"住宅区","address":""},{"poiid":"B2094654D46BA7FC4099","title":"上海都市型工业示范区","lon":"121.36299","lat":"31.28709","category":"45","category_name":"产业园区","address":"真南路2548"},{"poiid":"B2094757D068A1FD489E","title":"桃浦","lon":"121.362959","lat":"31.2796","category":"260","category_name":"其他","address":"上海桃浦"},{"poiid":"B2094757D068A3F5469B","title":"沃尔玛(桃浦店)","lon":"121.365709","lat":"31.284111","category":"118","category_name":"超级市场","address":"普陀区武威路1118号白丽生活广场内(近红棉路)"},{"poiid":"B2094757D068A0F8439C","title":"一品全大酒店(桃浦店)","lon":"121.35344","lat":"31.28059","category":"76","category_name":"上海菜","address":"普陀区雪松路281号(近武威路)"},{"poiid":"B2094654D46BAAF94593","title":"射阳大米驻沪办事处钱龙桥分销点","lon":"121.36792","lat":"31.29076","category":"117","category_name":"便民商店/便利店","address":"南大路701弄钱龙桥头"},{"poiid":"B2094757D065A1F94992","title":"东风悦达起亚绅起专营店","lon":"121.364862","lat":"31.282629","category":"500","category_name":"未知分类","address":"上海真南路2165号"},{"poiid":"B2094654D46BA7FC4599","title":"绿杨供销商业街","lon":"121.36537","lat":"31.28525","category":"116","category_name":"特色商业街","address":""},{"poiid":"B2094654D46BAAF94093","title":"阜润便利店","lon":"121.3647","lat":"31.2931","category":"117","category_name":"便民商店/便利店","address":"南大路799弄188号北场A楼17号"},{"poiid":"B2094757D569A2FE489B","title":"旭日之城","lon":"121.361029","lat":"31.286979","category":"47","category_name":"住宅区","address":"普陀雪松路武威路口"},{"poiid":"B2094757D068A0FC4998","title":"泰煌鸡(雪松路店)","lon":"121.35368","lat":"31.28307","category":"68","category_name":"快餐厅","address":"普陀区桃浦雪松路334号(近武威路)"},{"poiid":"B2094757D169A6F5459B","title":"南大路外环入口","lon":"121.364722","lat":"31.293262","category":"500","category_name":"未知分类","address":"上海南大路768号"},{"poiid":"B2094757D66CA6FE439A","title":"万事红","lon":"121.368049","lat":"31.289844","category":"500","category_name":"未知分类","address":"上海春和路588号"},{"poiid":"B2094757D16DA7F4469E","title":"上海众国宝泓","lon":"121.35481595","lat":"31.2957055511","category":"47","category_name":"住宅区","address":"普陀区红柳路233号(近南大路)"},{"poiid":"B2094654D46BAAFA489E","title":"蓝图物流","lon":"121.36821","lat":"31.2896","category":"248","category_name":"生活娱乐","address":"祁连山路1035弄555号"},{"poiid":"B2094654D46BAAF94999","title":"大场南大工业园","lon":"121.37016","lat":"31.29232","category":"45","category_name":"产业园区","address":"南大祁骆路18号"},{"poiid":"B2094654DB6AA4F94593","title":"泰煌火锅","lon":"121.3541","lat":"31.28344","category":"86","category_name":"火锅店","address":"普陀区雪松路338号(近武威路)"},{"poiid":"B2094654D46BA0FB489F","title":"绿杨新村","lon":"121.36641","lat":"31.28413","category":"47","category_name":"住宅区","address":"真南路2206-2208号"},{"poiid":"B2094654D46BA6F4479B","title":"锦翔大楼","lon":"121.35658","lat":"31.28754","category":"46","category_name":"楼宇","address":"真南路"},{"poiid":"B2094655D26FA1FB409D","title":"绿杨新村(西门)","lon":"121.36565","lat":"31.28411","category":"47","category_name":"住宅区","address":"真南路2206-2208号"},{"poiid":"B2094757D66CA1F84893","title":"南石饭店","lon":"121.35928745","lat":"31.2862719708","category":"247","category_name":"餐饮美食","address":"上海桃浦七村，838终点站旁"},{"poiid":"B2094654D46BAAF84292","title":"春光家园","lon":"121.35783","lat":"31.277744","category":"47","category_name":"住宅区","address":"武威路1019弄"},{"poiid":"B2094757D66CA4FD479E","title":"上海九州通医药公司","lon":"121.362832","lat":"31.283183","category":"500","category_name":"未知分类","address":"上海常和路666号"},{"poiid":"B2094757D168A5F84493","title":"远成集团","lon":"121.36337095","lat":"31.2847413416","category":"263","category_name":"公司","address":"上海真南路2339号"},{"poiid":"B2094654D46BA6F5419D","title":"桃浦三村红棉苑","lon":"121.357597","lat":"31.289053","category":"47","category_name":"住宅区","address":"西武威路301号"},{"poiid":"B2094757D065A6F8489A","title":"利群医院(桃浦分院)","lon":"121.35465","lat":"31.28151","category":"162","category_name":"医院","address":"普陀区雪松路302号(近武威路)"},{"poiid":"B2094655D268ABF84093","title":"一号桥","lon":"121.361","lat":"31.29464","category":"250","category_name":"公园户外","address":""},{"poiid":"B2094654D46BA7FD429E","title":"申润园","lon":"121.37098","lat":"31.285","category":"45","category_name":"产业园区","address":"古浪路1570弄"},{"poiid":"B2094654D46BA0F5499D","title":"上海公路桥梁工程有限公司","lon":"121.36157","lat":"31.28577","category":"263","category_name":"公司","address":"真南路2557号"},{"poiid":"B2094654D46BA0F5479E","title":"浦浪浴场","lon":"121.36742","lat":"31.28474","category":"149","category_name":"洗浴推拿场所","address":"普陀区古浪路1681号第1区1-10号"},{"poiid":"B2094654D46BAAF9499B","title":"复星大药房祁骆店","lon":"121.37171","lat":"31.29265","category":"162","category_name":"医院","address":"大场镇"},{"poiid":"B2094757D069A4F4439E","title":"桃浦四村","lon":"121.352","lat":"31.2902","category":"252","category_name":"楼宇机构","address":"上海市普陀区绿杨路51弄"},{"poiid":"B2094654D46BA0F54798","title":"鑫龙摩托车综合修配行","lon":"121.3675","lat":"31.28474","category":"159","category_name":"汽车维修","address":"古浪路1681号鑫世纪汽配城1区007号"},{"poiid":"B2094757D064A7F44099","title":"桃浦五村杜鹃苑","lon":"121.356","lat":"31.2905","category":"47","category_name":"住宅区","address":"上海绿杨路201弄"},{"poiid":"B2094654DB65A0FA469A","title":"鑫宇都市园","lon":"121.3636","lat":"31.28231","category":"45","category_name":"产业园区","address":"常和路613弄"},{"poiid":"B2094757D069ABF8419A","title":"马自达4s 景和真南店","lon":"121.365507","lat":"31.278018","category":"500","category_name":"未知分类","address":"上海真南路武威路"},{"poiid":"B2094757D06FA1FD4199","title":"桃浦七村","lon":"121.356126","lat":"31.294847","category":"47","category_name":"住宅区","address":"上海雪松路458弄"},{"poiid":"B2094757D068A7FE4493","title":"星瀚奔驰","lon":"121.360466","lat":"31.294511795","category":"263","category_name":"公司","address":"上海普陀区红柳路288号"},{"poiid":"B2094655D268ABF84092","title":"外环沪嘉立交桥","lon":"121.35855","lat":"31.28933","category":"250","category_name":"公园户外","address":""},{"poiid":"B2094757D06AA1FF4099","title":"宝弘宝马","lon":"121.35483449","lat":"31.292829136","category":"500","category_name":"未知分类","address":"上海红柳路233号"},{"poiid":"B2094757D06FA0F4439E","title":"肯德基 KFC (桃浦店)","lon":"121.353774","lat":"31.284607","category":"68","category_name":"快餐厅","address":"普陀区雪松路368号(近绿杨路)"},{"poiid":"B2094757D065A5FD489C","title":"古浪路","lon":"121.37608995","lat":"31.2849073447","category":"500","category_name":"未知分类","address":"上海市普陀区古浪路"},{"poiid":"B2094655D26BA2F94492","title":"桃浦五村","lon":"121.355","lat":"31.2914","category":"38","category_name":"公交车站","address":"红棉路351弄"},{"poiid":"B2094757D06FA5FA409E","title":"武威路地铁站","lon":"121.36533108","lat":"31.276572321","category":"36","category_name":"地铁站","address":"上海轨道交通 十一号线 轨交武威路站 11"},{"poiid":"B2094654D46BAAFB409D","title":"华东师范大学资源与环境科学学院","lon":"121.36418","lat":"31.28917","category":"52","category_name":"高等院校","address":""},{"poiid":"B2094654D46BA6F5419A","title":"桃浦六村绿春苑","lon":"121.362","lat":"31.2929","category":"47","category_name":"住宅区","address":"雪松路392弄"},{"poiid":"B2094654D46BAAFB409F","title":"桃苑村学校","lon":"121.36415","lat":"31.28918","category":"55","category_name":"中学","address":""},{"poiid":"B2094757D165A7F4439D","title":"绿杨桥","lon":"121.365897059","lat":"31.2845843173","category":"38","category_name":"公交车站","address":"上海普陀区古浪路与真南路交叉口"},{"poiid":"B2094654D46BAAFB409C","title":"人口生育文化小区","lon":"121.36525","lat":"31.28942","category":"47","category_name":"住宅区","address":""},{"poiid":"B2094757D068A6FD4898","title":"南大路","lon":"121.37060092","lat":"31.295675969","category":"500","category_name":"未知分类","address":"上海市宝山区环镇南路"},{"poiid":"B2094654D46BAAF9459C","title":"宗强小区","lon":"121.3658","lat":"31.29006","category":"47","category_name":"住宅区","address":""},{"poiid":"B2094654D46BA7FC4099","title":"上海都市型工业示范区","lon":"121.36299","lat":"31.28709","category":"45","category_name":"产业园区","address":"真南路2548"},{"poiid":"B2094757D068A1FD489E","title":"桃浦","lon":"121.362959","lat":"31.2796","category":"260","category_name":"其他","address":"上海桃浦"},{"poiid":"B2094757D068A3F5469B","title":"沃尔玛(桃浦店)","lon":"121.365709","lat":"31.284111","category":"118","category_name":"超级市场","address":"普陀区武威路1118号白丽生活广场内(近红棉路)"},{"poiid":"B2094757D068A0F8439C","title":"一品全大酒店(桃浦店)","lon":"121.35344","lat":"31.28059","category":"76","category_name":"上海菜","address":"普陀区雪松路281号(近武威路)"},{"poiid":"B2094654D46BAAF94593","title":"射阳大米驻沪办事处钱龙桥分销点","lon":"121.36792","lat":"31.29076","category":"117","category_name":"便民商店/便利店","address":"南大路701弄钱龙桥头"},{"poiid":"B2094757D065A1F94992","title":"东风悦达起亚绅起专营店","lon":"121.364862","lat":"31.282629","category":"500","category_name":"未知分类","address":"上海真南路2165号"},{"poiid":"B2094654D46BA7FC4599","title":"绿杨供销商业街","lon":"121.36537","lat":"31.28525","category":"116","category_name":"特色商业街","address":""},{"poiid":"B2094654D46BAAF94093","title":"阜润便利店","lon":"121.3647","lat":"31.2931","category":"117","category_name":"便民商店/便利店","address":"南大路799弄188号北场A楼17号"},{"poiid":"B2094757D569A2FE489B","title":"旭日之城","lon":"121.361029","lat":"31.286979","category":"47","category_name":"住宅区","address":"普陀雪松路武威路口"},{"poiid":"B2094757D068A0FC4998","title":"泰煌鸡(雪松路店)","lon":"121.35368","lat":"31.28307","category":"68","category_name":"快餐厅","address":"普陀区桃浦雪松路334号(近武威路)"},{"poiid":"B2094757D169A6F5459B","title":"南大路外环入口","lon":"121.364722","lat":"31.293262","category":"500","category_name":"未知分类","address":"上海南大路768号"},{"poiid":"B2094757D66CA6FE439A","title":"万事红","lon":"121.368049","lat":"31.289844","category":"500","category_name":"未知分类","address":"上海春和路588号"},{"poiid":"B2094757D16DA7F4469E","title":"上海众国宝泓","lon":"121.35481595","lat":"31.2957055511","category":"47","category_name":"住宅区","address":"普陀区红柳路233号(近南大路)"},{"poiid":"B2094654D46BAAFA489E","title":"蓝图物流","lon":"121.36821","lat":"31.2896","category":"248","category_name":"生活娱乐","address":"祁连山路1035弄555号"},{"poiid":"B2094654D46BAAF94999","title":"大场南大工业园","lon":"121.37016","lat":"31.29232","category":"45","category_name":"产业园区","address":"南大祁骆路18号"},{"poiid":"B2094654DB6AA4F94593","title":"泰煌火锅","lon":"121.3541","lat":"31.28344","category":"86","category_name":"火锅店","address":"普陀区雪松路338号(近武威路)"},{"poiid":"B2094654D46BA0FB489F","title":"绿杨新村","lon":"121.36641","lat":"31.28413","category":"47","category_name":"住宅区","address":"真南路2206-2208号"},{"poiid":"B2094654D46BA6F4479B","title":"锦翔大楼","lon":"121.35658","lat":"31.28754","category":"46","category_name":"楼宇","address":"真南路"},{"poiid":"B2094655D26FA1FB409D","title":"绿杨新村(西门)","lon":"121.36565","lat":"31.28411","category":"47","category_name":"住宅区","address":"真南路2206-2208号"},{"poiid":"B2094757D66CA1F84893","title":"南石饭店","lon":"121.35928745","lat":"31.2862719708","category":"247","category_name":"餐饮美食","address":"上海桃浦七村，838终点站旁"},{"poiid":"B2094654D46BAAF84292","title":"春光家园","lon":"121.35783","lat":"31.277744","category":"47","category_name":"住宅区","address":"武威路1019弄"},{"poiid":"B2094757D66CA4FD479E","title":"上海九州通医药公司","lon":"121.362832","lat":"31.283183","category":"500","category_name":"未知分类","address":"上海常和路666号"},{"poiid":"B2094757D168A5F84493","title":"远成集团","lon":"121.36337095","lat":"31.2847413416","category":"263","category_name":"公司","address":"上海真南路2339号"},{"poiid":"B2094654D46BA6F5419D","title":"桃浦三村红棉苑","lon":"121.357597","lat":"31.289053","category":"47","category_name":"住宅区","address":"西武威路301号"},{"poiid":"B2094757D065A6F8489A","title":"利群医院(桃浦分院)","lon":"121.35465","lat":"31.28151","category":"162","category_name":"医院","address":"普陀区雪松路302号(近武威路)"},{"poiid":"B2094655D268ABF84093","title":"一号桥","lon":"121.361","lat":"31.29464","category":"250","category_name":"公园户外","address":""},{"poiid":"B2094654D46BA7FD429E","title":"申润园","lon":"121.37098","lat":"31.285","category":"45","category_name":"产业园区","address":"古浪路1570弄"},{"poiid":"B2094654D46BA0F5499D","title":"上海公路桥梁工程有限公司","lon":"121.36157","lat":"31.28577","category":"263","category_name":"公司","address":"真南路2557号"},{"poiid":"B2094654D46BA0F5479E","title":"浦浪浴场","lon":"121.36742","lat":"31.28474","category":"149","category_name":"洗浴推拿场所","address":"普陀区古浪路1681号第1区1-10号"},{"poiid":"B2094654D46BAAF9499B","title":"复星大药房祁骆店","lon":"121.37171","lat":"31.29265","category":"162","category_name":"医院","address":"大场镇"},{"poiid":"B2094757D069A4F4439E","title":"桃浦四村","lon":"121.352","lat":"31.2902","category":"252","category_name":"楼宇机构","address":"上海市普陀区绿杨路51弄"},{"poiid":"B2094654D46BA0F54798","title":"鑫龙摩托车综合修配行","lon":"121.3675","lat":"31.28474","category":"159","category_name":"汽车维修","address":"古浪路1681号鑫世纪汽配城1区007号"},{"poiid":"B2094757D064A7F44099","title":"桃浦五村杜鹃苑","lon":"121.356","lat":"31.2905","category":"47","category_name":"住宅区","address":"上海绿杨路201弄"},{"poiid":"B2094654DB65A0FA469A","title":"鑫宇都市园","lon":"121.3636","lat":"31.28231","category":"45","category_name":"产业园区","address":"常和路613弄"},{"poiid":"B2094757D069ABF8419A","title":"马自达4s 景和真南店","lon":"121.365507","lat":"31.278018","category":"500","category_name":"未知分类","address":"上海真南路武威路"}]