[{"poiid":"B2094757D06FA0F8409E","title":"上海海事大学","lon":"121.54098","lat":"31.242395","category":"671","category_name":"高校中心点","address":"浦东新区浦东大道1550号上海海事大学院内(近民生路)"},{"poiid":"B2094757D06FA6F94692","title":"上海市医药学校","lon":"121.54008","lat":"31.2359","category":"500","category_name":"未知分类","address":"浦东新区沈家弄路700号(近源深体育场)"},{"poiid":"B2094654DA68ABF8499E","title":"陆家嘴国际华城","lon":"121.53563","lat":"31.235361","category":"47","category_name":"住宅区","address":"上海市浦东新区张扬路1351号"},{"poiid":"B2094757D06FA5F8479A","title":"汤豪仕汤馆(民生店)","lon":"121.54043","lat":"31.23834","category":"76","category_name":"上海菜","address":"浦东新区商城路2128号(近民生路)"},{"poiid":"B2094757D068A2FC429B","title":"粤尚名庭","lon":"121.53463","lat":"31.24159","category":"47","category_name":"住宅区","address":"浦东新区浦东大道1179号(桃林路口)"},{"poiid":"B2094757D068A5F44598","title":"船长高尔夫","lon":"121.53754","lat":"31.23753","category":"206","category_name":"高尔夫相关","address":"浦东新区商城路1860号(桃林路口)"},{"poiid":"B2094757D065A7F44498","title":"爱康国宾","lon":"121.537822","lat":"31.237644","category":"902","category_name":"楼宇机构","address":"上海商城路1900号"},{"poiid":"B2094757D16DA2FA4699","title":"民生路栖山路","lon":"121.54128464","lat":"31.243066869","category":"500","category_name":"未知分类","address":"上海民生路栖山路路口"},{"poiid":"B2094654DA68ABFF489B","title":"上海市第二轻工业学校","lon":"121.53842","lat":"31.23609","category":"54","category_name":"职业技术学校","address":"浦东新区沈家弄路650号"},{"poiid":"B2094654DA68ABFD439B","title":"巨洋大厦","lon":"121.533062","lat":"31.241866","category":"46","category_name":"楼宇","address":"浦东区浦东大道1200号"},{"poiid":"B2094753DA6FA7FD469A","title":"四川香天下火锅（陆家嘴店）","lon":"121.537597","lat":"31.239873","category":"247","category_name":"餐饮美食","address":"上海市 浦东大道1108号"},{"poiid":"B2094757D06AA6F54999","title":"印度小厨(浦东店)","lon":"121.54252","lat":"31.23881","category":"102","category_name":"印度风味","address":"浦东新区民生路480号(商城路口)"},{"poiid":"B2094655D26BA7FE469D","title":"重庆四季鱼庄","lon":"121.53345","lat":"31.24172","category":"86","category_name":"火锅店","address":"浦东新区浦东大道1108号(近桃林路)"},{"poiid":"B2094757D16FA6FE439E","title":"高恒大厦","lon":"121.541544078","lat":"31.2419453798","category":"252","category_name":"楼宇机构","address":"上海浦东大道1608号"},{"poiid":"B2094654DB6BABF44498","title":"上海市环境学校","lon":"121.53858","lat":"31.23765","category":"54","category_name":"职业技术学校","address":"商城路1980"},{"poiid":"B2094654DA68ABFF4399","title":"船研大厦","lon":"121.54187","lat":"31.23891","category":"46","category_name":"楼宇","address":"闸北区江场西路38号(近共和新路)"},{"poiid":"B2094654DA68ABFF499D","title":"金桃大厦","lon":"121.53782","lat":"31.23764","category":"46","category_name":"楼宇","address":"普陀区宜昌路88号梦清园公园内"},{"poiid":"B2094655D26BA1F9429B","title":"民生路浦东大道","lon":"121.54077","lat":"31.24432","category":"38","category_name":"公交车站","address":""},{"poiid":"B2094654DA68ABFA419A","title":"上海市泾南中学","lon":"121.54187","lat":"31.24162","category":"55","category_name":"中学","address":"浦东新区民生路303号(民生路栖山路)"},{"poiid":"B2094757D068A0F94192","title":"阿英煲 民生路店","lon":"121.542073054","lat":"31.239555793","category":"260","category_name":"其他","address":"浦东新区商城路2151号(民生路口)"},{"poiid":"B2094757D06AABF8499C","title":"1758龙虾王","lon":"121.541451054","lat":"31.242051793","category":"68","category_name":"快餐厅","address":"浦东新区栖山路12号(近民生路)"},{"poiid":"B2094757D168A2FF489F","title":"雅弗源养生中心","lon":"121.54144873","lat":"31.239282493","category":"500","category_name":"未知分类","address":"浦东新区商城路2120号(近民生路)"},{"poiid":"B2094757D56CA2FA439C","title":"鼓浪屿","lon":"121.54076346374","lat":"31.235272760666","category":"247","category_name":"餐饮美食","address":"浦东新区张杨路1657号鼓浪屿休闲浴场2楼(近民生路)"},{"poiid":"B2094757D065ABF84293","title":"海事大学图书馆","lon":"121.5376","lat":"31.243141","category":"181","category_name":"图书馆","address":"浦东新区浦东大道1550号上海海事大学院内(近民生路)"},{"poiid":"B2094750D76EA4FF4693","title":"红宝石(浦东大道店)","lon":"121.539","lat":"31.2434","category":"67","category_name":"甜品店","address":"浦东新区浦东大道1574号(近民生路)"},{"poiid":"B2094757D66BA3F84793","title":"食知味龙虾馆 栖山路店","lon":"121.54153382439","lat":"31.242334441884","category":"68","category_name":"快餐厅","address":"浦东新区栖山路36号(近民生路)"},{"poiid":"B2094654DA69AAFF439F","title":"星海石油大楼","lon":"121.536","lat":"31.2418","category":"46","category_name":"楼宇","address":"卢湾区局门路427号(邮编:200023)"},{"poiid":"B2094757D069A2F84899","title":"小绍兴(民生路店)","lon":"121.54031","lat":"31.24367","category":"68","category_name":"快餐厅","address":"浦东新区浦东大道1588号(近民生路)"},{"poiid":"B2094654DB69A5FB499D","title":"重庆鸡公煲 浦东大道店","lon":"121.539384054","lat":"31.243903793","category":"71","category_name":"四川菜","address":"浦东新区浦东大道(近民生路)"},{"poiid":"B2094655D26BA2F54692","title":"浦东大道桃林路","lon":"121.53421","lat":"31.2422","category":"38","category_name":"公交车站","address":""},{"poiid":"B2094757D16CA2FF489C","title":"广东祥记蚝庄(栖山路店)","lon":"121.5416","lat":"31.24159","category":"68","category_name":"快餐厅","address":"浦东新区栖山路12号(近民生路)"},{"poiid":"B2094750D665ABFB439A","title":"金湘缘","lon":"121.54","lat":"31.2379","category":"77","category_name":"湖南菜","address":"浦东新区栖山路153号(近巨野路)"},{"poiid":"B2094757D069A6FA4498","title":"泰和足道(浦东大道店)","lon":"121.53294","lat":"31.24154","category":"149","category_name":"洗浴推拿场所","address":"浦东新区浦东大道1068号(浦东大道华开路)"},{"poiid":"B2094757D16EA5FA4893","title":"惠扬大厦","lon":"121.53391573","lat":"31.24101853","category":"252","category_name":"楼宇机构","address":"上海市浦东新区浦东大道1139弄"},{"poiid":"B2094757D069A5FB4598","title":"蓝十字健康体检中心","lon":"121.53761","lat":"31.23741","category":"162","category_name":"医院","address":"上海浦东新区商城路1900号金桃大厦1-2楼"},{"poiid":"B2094655D268A5FD4692","title":"海院小区(西门)","lon":"121.53595","lat":"31.24048","category":"47","category_name":"住宅区","address":""},{"poiid":"B2094655D26DA7F4429E","title":"海院小区","lon":"121.53582","lat":"31.241341","category":"47","category_name":"住宅区","address":"浦东大道1460弄1-60号"},{"poiid":"B2094654DA69AAFA419A","title":"申富大厦","lon":"121.536","lat":"31.2437","category":"46","category_name":"楼宇","address":"黄浦区外滩23号,中山东一路,南京东路"},{"poiid":"B2094654DA68ABFD429E","title":"泰和茶馆","lon":"121.5329","lat":"31.2415","category":"260","category_name":"其他","address":"浦东新区浦东大道1048号(桃林路与源深路之间)"},{"poiid":"B2094654DB69AAF9499D","title":"宁波汉通酒店","lon":"121.53834","lat":"31.2347","category":"247","category_name":"餐饮美食","address":"上海市浦东新区张杨路1587号八方大厦2楼(近桃林路)"},{"poiid":"B2094757D16DA0FB4198","title":"681鲜缘坊(浦东店)","lon":"121.5341","lat":"31.24384","category":"74","category_name":"江苏菜","address":"浦东新区桃林路18号(近昌邑路)"},{"poiid":"B2094757D568A0F9479D","title":"永乐大厦","lon":"121.5390006","lat":"31.24127889","category":"46","category_name":"楼宇","address":"惠南镇城东路86弄17支弄"},{"poiid":"B2094655D26BA2F54799","title":"浦东大道民生路","lon":"121.5395","lat":"31.24371","category":"38","category_name":"公交车站","address":""},{"poiid":"B2094654DA68A4F54693","title":"中国石化大厦(西楼)","lon":"121.53803","lat":"31.2438","category":"46","category_name":"楼宇","address":"上海市浦东大道1525号"},{"poiid":"B2094654DA68ABFF479E","title":"上海市医药学校(沈家弄路)","lon":"121.53976","lat":"31.23659","category":"54","category_name":"职业技术学校","address":"沈家弄路700号"},{"poiid":"B2094654DA68ABFD469E","title":"海云宾馆","lon":"121.53553","lat":"31.24045","category":"250","category_name":"公园户外","address":"桃林路199"},{"poiid":"B2094654DB6BABF44499","title":"商城商务楼","lon":"121.53889","lat":"31.23808","category":"46","category_name":"楼宇","address":"商城路1986号"},{"poiid":"B2094757D064A6F9419F","title":"上海海事大学(临港校区)海馨楼","lon":"121.53817","lat":"31.2427","category":"68","category_name":"快餐厅","address":"浦东新区浦东大道1550号上海海事大学院内(近民生路)"},{"poiid":"B2094654DA68ABF84393","title":"八方大酒店","lon":"121.53851","lat":"31.23477","category":"215","category_name":"三星级宾馆","address":"张杨路1587号(近桃林路)"},{"poiid":"B2094757D569A3FD459E","title":"沙尘暴西域餐厅","lon":"121.53327962","lat":"31.24162164","category":"90","category_name":"清真餐馆","address":"浦东新区浦东大道1096号(近桃林路)"},{"poiid":"B2094757D06FA0F8409E","title":"上海海事大学","lon":"121.54098","lat":"31.242395","category":"671","category_name":"高校中心点","address":"浦东新区浦东大道1550号上海海事大学院内(近民生路)"},{"poiid":"B2094757D06FA6F94692","title":"上海市医药学校","lon":"121.54008","lat":"31.2359","category":"500","category_name":"未知分类","address":"浦东新区沈家弄路700号(近源深体育场)"},{"poiid":"B2094654DA68ABF8499E","title":"陆家嘴国际华城","lon":"121.53563","lat":"31.235361","category":"47","category_name":"住宅区","address":"上海市浦东新区张扬路1351号"},{"poiid":"B2094757D06FA5F8479A","title":"汤豪仕汤馆(民生店)","lon":"121.54043","lat":"31.23834","category":"76","category_name":"上海菜","address":"浦东新区商城路2128号(近民生路)"},{"poiid":"B2094757D068A2FC429B","title":"粤尚名庭","lon":"121.53463","lat":"31.24159","category":"47","category_name":"住宅区","address":"浦东新区浦东大道1179号(桃林路口)"},{"poiid":"B2094757D068A5F44598","title":"船长高尔夫","lon":"121.53754","lat":"31.23753","category":"206","category_name":"高尔夫相关","address":"浦东新区商城路1860号(桃林路口)"},{"poiid":"B2094757D065A7F44498","title":"爱康国宾","lon":"121.537822","lat":"31.237644","category":"902","category_name":"楼宇机构","address":"上海商城路1900号"},{"poiid":"B2094757D16DA2FA4699","title":"民生路栖山路","lon":"121.54128464","lat":"31.243066869","category":"500","category_name":"未知分类","address":"上海民生路栖山路路口"},{"poiid":"B2094654DA68ABFF489B","title":"上海市第二轻工业学校","lon":"121.53842","lat":"31.23609","category":"54","category_name":"职业技术学校","address":"浦东新区沈家弄路650号"},{"poiid":"B2094654DA68ABFD439B","title":"巨洋大厦","lon":"121.533062","lat":"31.241866","category":"46","category_name":"楼宇","address":"浦东区浦东大道1200号"},{"poiid":"B2094753DA6FA7FD469A","title":"四川香天下火锅（陆家嘴店）","lon":"121.537597","lat":"31.239873","category":"247","category_name":"餐饮美食","address":"上海市 浦东大道1108号"},{"poiid":"B2094757D06AA6F54999","title":"印度小厨(浦东店)","lon":"121.54252","lat":"31.23881","category":"102","category_name":"印度风味","address":"浦东新区民生路480号(商城路口)"},{"poiid":"B2094655D26BA7FE469D","title":"重庆四季鱼庄","lon":"121.53345","lat":"31.24172","category":"86","category_name":"火锅店","address":"浦东新区浦东大道1108号(近桃林路)"},{"poiid":"B2094757D16FA6FE439E","title":"高恒大厦","lon":"121.541544078","lat":"31.2419453798","category":"252","category_name":"楼宇机构","address":"上海浦东大道1608号"},{"poiid":"B2094654DB6BABF44498","title":"上海市环境学校","lon":"121.53858","lat":"31.23765","category":"54","category_name":"职业技术学校","address":"商城路1980"},{"poiid":"B2094654DA68ABFF4399","title":"船研大厦","lon":"121.54187","lat":"31.23891","category":"46","category_name":"楼宇","address":"闸北区江场西路38号(近共和新路)"},{"poiid":"B2094654DA68ABFF499D","title":"金桃大厦","lon":"121.53782","lat":"31.23764","category":"46","category_name":"楼宇","address":"普陀区宜昌路88号梦清园公园内"},{"poiid":"B2094655D26BA1F9429B","title":"民生路浦东大道","lon":"121.54077","lat":"31.24432","category":"38","category_name":"公交车站","address":""},{"poiid":"B2094654DA68ABFA419A","title":"上海市泾南中学","lon":"121.54187","lat":"31.24162","category":"55","category_name":"中学","address":"浦东新区民生路303号(民生路栖山路)"},{"poiid":"B2094757D068A0F94192","title":"阿英煲 民生路店","lon":"121.542073054","lat":"31.239555793","category":"260","category_name":"其他","address":"浦东新区商城路2151号(民生路口)"},{"poiid":"B2094757D06AABF8499C","title":"1758龙虾王","lon":"121.541451054","lat":"31.242051793","category":"68","category_name":"快餐厅","address":"浦东新区栖山路12号(近民生路)"},{"poiid":"B2094757D168A2FF489F","title":"雅弗源养生中心","lon":"121.54144873","lat":"31.239282493","category":"500","category_name":"未知分类","address":"浦东新区商城路2120号(近民生路)"},{"poiid":"B2094757D56CA2FA439C","title":"鼓浪屿","lon":"121.54076346374","lat":"31.235272760666","category":"247","category_name":"餐饮美食","address":"浦东新区张杨路1657号鼓浪屿休闲浴场2楼(近民生路)"},{"poiid":"B2094757D065ABF84293","title":"海事大学图书馆","lon":"121.5376","lat":"31.243141","category":"181","category_name":"图书馆","address":"浦东新区浦东大道1550号上海海事大学院内(近民生路)"},{"poiid":"B2094750D76EA4FF4693","title":"红宝石(浦东大道店)","lon":"121.539","lat":"31.2434","category":"67","category_name":"甜品店","address":"浦东新区浦东大道1574号(近民生路)"},{"poiid":"B2094757D66BA3F84793","title":"食知味龙虾馆 栖山路店","lon":"121.54153382439","lat":"31.242334441884","category":"68","category_name":"快餐厅","address":"浦东新区栖山路36号(近民生路)"},{"poiid":"B2094654DA69AAFF439F","title":"星海石油大楼","lon":"121.536","lat":"31.2418","category":"46","category_name":"楼宇","address":"卢湾区局门路427号(邮编:200023)"},{"poiid":"B2094757D069A2F84899","title":"小绍兴(民生路店)","lon":"121.54031","lat":"31.24367","category":"68","category_name":"快餐厅","address":"浦东新区浦东大道1588号(近民生路)"},{"poiid":"B2094654DB69A5FB499D","title":"重庆鸡公煲 浦东大道店","lon":"121.539384054","lat":"31.243903793","category":"71","category_name":"四川菜","address":"浦东新区浦东大道(近民生路)"},{"poiid":"B2094655D26BA2F54692","title":"浦东大道桃林路","lon":"121.53421","lat":"31.2422","category":"38","category_name":"公交车站","address":""},{"poiid":"B2094757D16CA2FF489C","title":"广东祥记蚝庄(栖山路店)","lon":"121.5416","lat":"31.24159","category":"68","category_name":"快餐厅","address":"浦东新区栖山路12号(近民生路)"},{"poiid":"B2094750D665ABFB439A","title":"金湘缘","lon":"121.54","lat":"31.2379","category":"77","category_name":"湖南菜","address":"浦东新区栖山路153号(近巨野路)"},{"poiid":"B2094757D069A6FA4498","title":"泰和足道(浦东大道店)","lon":"121.53294","lat":"31.24154","category":"149","category_name":"洗浴推拿场所","address":"浦东新区浦东大道1068号(浦东大道华开路)"},{"poiid":"B2094757D16EA5FA4893","title":"惠扬大厦","lon":"121.53391573","lat":"31.24101853","category":"252","category_name":"楼宇机构","address":"上海市浦东新区浦东大道1139弄"},{"poiid":"B2094757D069A5FB4598","title":"蓝十字健康体检中心","lon":"121.53761","lat":"31.23741","category":"162","category_name":"医院","address":"上海浦东新区商城路1900号金桃大厦1-2楼"},{"poiid":"B2094655D268A5FD4692","title":"海院小区(西门)","lon":"121.53595","lat":"31.24048","category":"47","category_name":"住宅区","address":""},{"poiid":"B2094655D26DA7F4429E","title":"海院小区","lon":"121.53582","lat":"31.241341","category":"47","category_name":"住宅区","address":"浦东大道1460弄1-60号"},{"poiid":"B2094654DA69AAFA419A","title":"申富大厦","lon":"121.536","lat":"31.2437","category":"46","category_name":"楼宇","address":"黄浦区外滩23号,中山东一路,南京东路"},{"poiid":"B2094654DA68ABFD429E","title":"泰和茶馆","lon":"121.5329","lat":"31.2415","category":"260","category_name":"其他","address":"浦东新区浦东大道1048号(桃林路与源深路之间)"},{"poiid":"B2094654DB69AAF9499D","title":"宁波汉通酒店","lon":"121.53834","lat":"31.2347","category":"247","category_name":"餐饮美食","address":"上海市浦东新区张杨路1587号八方大厦2楼(近桃林路)"},{"poiid":"B2094757D16DA0FB4198","title":"681鲜缘坊(浦东店)","lon":"121.5341","lat":"31.24384","category":"74","category_name":"江苏菜","address":"浦东新区桃林路18号(近昌邑路)"},{"poiid":"B2094757D568A0F9479D","title":"永乐大厦","lon":"121.5390006","lat":"31.24127889","category":"46","category_name":"楼宇","address":"惠南镇城东路86弄17支弄"},{"poiid":"B2094655D26BA2F54799","title":"浦东大道民生路","lon":"121.5395","lat":"31.24371","category":"38","category_name":"公交车站","address":""},{"poiid":"B2094654DA68A4F54693","title":"中国石化大厦(西楼)","lon":"121.53803","lat":"31.2438","category":"46","category_name":"楼宇","address":"上海市浦东大道1525号"},{"poiid":"B2094654DA68ABFF479E","title":"上海市医药学校(沈家弄路)","lon":"121.53976","lat":"31.23659","category":"54","category_name":"职业技术学校","address":"沈家弄路700号"},{"poiid":"B2094654DA68ABFD469E","title":"海云宾馆","lon":"121.53553","lat":"31.24045","category":"250","category_name":"公园户外","address":"桃林路199"},{"poiid":"B2094654DB6BABF44499","title":"商城商务楼","lon":"121.53889","lat":"31.23808","category":"46","category_name":"楼宇","address":"商城路1986号"},{"poiid":"B2094757D064A6F9419F","title":"上海海事大学(临港校区)海馨楼","lon":"121.53817","lat":"31.2427","category":"68","category_name":"快餐厅","address":"浦东新区浦东大道1550号上海海事大学院内(近民生路)"},{"poiid":"B2094654DA68ABF84393","title":"八方大酒店","lon":"121.53851","lat":"31.23477","category":"215","category_name":"三星级宾馆","address":"张杨路1587号(近桃林路)"},{"poiid":"B2094757D569A3FD459E","title":"沙尘暴西域餐厅","lon":"121.53327962","lat":"31.24162164","category":"90","category_name":"清真餐馆","address":"浦东新区浦东大道1096号(近桃林路)"},{"poiid":"B2094757D06FA0F8409E","title":"上海海事大学","lon":"121.54098","lat":"31.242395","category":"671","category_name":"高校中心点","address":"浦东新区浦东大道1550号上海海事大学院内(近民生路)"},{"poiid":"B2094757D06FA6F94692","title":"上海市医药学校","lon":"121.54008","lat":"31.2359","category":"500","category_name":"未知分类","address":"浦东新区沈家弄路700号(近源深体育场)"},{"poiid":"B2094654DA68ABF8499E","title":"陆家嘴国际华城","lon":"121.53563","lat":"31.235361","category":"47","category_name":"住宅区","address":"上海市浦东新区张扬路1351号"},{"poiid":"B2094757D06FA5F8479A","title":"汤豪仕汤馆(民生店)","lon":"121.54043","lat":"31.23834","category":"76","category_name":"上海菜","address":"浦东新区商城路2128号(近民生路)"},{"poiid":"B2094757D068A2FC429B","title":"粤尚名庭","lon":"121.53463","lat":"31.24159","category":"47","category_name":"住宅区","address":"浦东新区浦东大道1179号(桃林路口)"},{"poiid":"B2094757D068A5F44598","title":"船长高尔夫","lon":"121.53754","lat":"31.23753","category":"206","category_name":"高尔夫相关","address":"浦东新区商城路1860号(桃林路口)"},{"poiid":"B2094757D065A7F44498","title":"爱康国宾","lon":"121.537822","lat":"31.237644","category":"902","category_name":"楼宇机构","address":"上海商城路1900号"},{"poiid":"B2094757D16DA2FA4699","title":"民生路栖山路","lon":"121.54128464","lat":"31.243066869","category":"500","category_name":"未知分类","address":"上海民生路栖山路路口"},{"poiid":"B2094654DA68ABFF489B","title":"上海市第二轻工业学校","lon":"121.53842","lat":"31.23609","category":"54","category_name":"职业技术学校","address":"浦东新区沈家弄路650号"},{"poiid":"B2094654DA68ABFD439B","title":"巨洋大厦","lon":"121.533062","lat":"31.241866","category":"46","category_name":"楼宇","address":"浦东区浦东大道1200号"},{"poiid":"B2094753DA6FA7FD469A","title":"四川香天下火锅（陆家嘴店）","lon":"121.537597","lat":"31.239873","category":"247","category_name":"餐饮美食","address":"上海市 浦东大道1108号"},{"poiid":"B2094757D06AA6F54999","title":"印度小厨(浦东店)","lon":"121.54252","lat":"31.23881","category":"102","category_name":"印度风味","address":"浦东新区民生路480号(商城路口)"},{"poiid":"B2094655D26BA7FE469D","title":"重庆四季鱼庄","lon":"121.53345","lat":"31.24172","category":"86","category_name":"火锅店","address":"浦东新区浦东大道1108号(近桃林路)"},{"poiid":"B2094757D16FA6FE439E","title":"高恒大厦","lon":"121.541544078","lat":"31.2419453798","category":"252","category_name":"楼宇机构","address":"上海浦东大道1608号"},{"poiid":"B2094654DB6BABF44498","title":"上海市环境学校","lon":"121.53858","lat":"31.23765","category":"54","category_name":"职业技术学校","address":"商城路1980"},{"poiid":"B2094654DA68ABFF4399","title":"船研大厦","lon":"121.54187","lat":"31.23891","category":"46","category_name":"楼宇","address":"闸北区江场西路38号(近共和新路)"},{"poiid":"B2094654DA68ABFF499D","title":"金桃大厦","lon":"121.53782","lat":"31.23764","category":"46","category_name":"楼宇","address":"普陀区宜昌路88号梦清园公园内"},{"poiid":"B2094655D26BA1F9429B","title":"民生路浦东大道","lon":"121.54077","lat":"31.24432","category":"38","category_name":"公交车站","address":""},{"poiid":"B2094654DA68ABFA419A","title":"上海市泾南中学","lon":"121.54187","lat":"31.24162","category":"55","category_name":"中学","address":"浦东新区民生路303号(民生路栖山路)"},{"poiid":"B2094757D068A0F94192","title":"阿英煲 民生路店","lon":"121.542073054","lat":"31.239555793","category":"260","category_name":"其他","address":"浦东新区商城路2151号(民生路口)"},{"poiid":"B2094757D06AABF8499C","title":"1758龙虾王","lon":"121.541451054","lat":"31.242051793","category":"68","category_name":"快餐厅","address":"浦东新区栖山路12号(近民生路)"},{"poiid":"B2094757D168A2FF489F","title":"雅弗源养生中心","lon":"121.54144873","lat":"31.239282493","category":"500","category_name":"未知分类","address":"浦东新区商城路2120号(近民生路)"},{"poiid":"B2094757D56CA2FA439C","title":"鼓浪屿","lon":"121.54076346374","lat":"31.235272760666","category":"247","category_name":"餐饮美食","address":"浦东新区张杨路1657号鼓浪屿休闲浴场2楼(近民生路)"},{"poiid":"B2094757D065ABF84293","title":"海事大学图书馆","lon":"121.5376","lat":"31.243141","category":"181","category_name":"图书馆","address":"浦东新区浦东大道1550号上海海事大学院内(近民生路)"},{"poiid":"B2094750D76EA4FF4693","title":"红宝石(浦东大道店)","lon":"121.539","lat":"31.2434","category":"67","category_name":"甜品店","address":"浦东新区浦东大道1574号(近民生路)"},{"poiid":"B2094757D66BA3F84793","title":"食知味龙虾馆 栖山路店","lon":"121.54153382439","lat":"31.242334441884","category":"68","category_name":"快餐厅","address":"浦东新区栖山路36号(近民生路)"},{"poiid":"B2094654DA69AAFF439F","title":"星海石油大楼","lon":"121.536","lat":"31.2418","category":"46","category_name":"楼宇","address":"卢湾区局门路427号(邮编:200023)"},{"poiid":"B2094757D069A2F84899","title":"小绍兴(民生路店)","lon":"121.54031","lat":"31.24367","category":"68","category_name":"快餐厅","address":"浦东新区浦东大道1588号(近民生路)"},{"poiid":"B2094654DB69A5FB499D","title":"重庆鸡公煲 浦东大道店","lon":"121.539384054","lat":"31.243903793","category":"71","category_name":"四川菜","address":"浦东新区浦东大道(近民生路)"},{"poiid":"B2094655D26BA2F54692","title":"浦东大道桃林路","lon":"121.53421","lat":"31.2422","category":"38","category_name":"公交车站","address":""},{"poiid":"B2094757D16CA2FF489C","title":"广东祥记蚝庄(栖山路店)","lon":"121.5416","lat":"31.24159","category":"68","category_name":"快餐厅","address":"浦东新区栖山路12号(近民生路)"},{"poiid":"B2094750D665ABFB439A","title":"金湘缘","lon":"121.54","lat":"31.2379","category":"77","category_name":"湖南菜","address":"浦东新区栖山路153号(近巨野路)"},{"poiid":"B2094757D069A6FA4498","title":"泰和足道(浦东大道店)","lon":"121.53294","lat":"31.24154","category":"149","category_name":"洗浴推拿场所","address":"浦东新区浦东大道1068号(浦东大道华开路)"},{"poiid":"B2094757D16EA5FA4893","title":"惠扬大厦","lon":"121.53391573","lat":"31.24101853","category":"252","category_name":"楼宇机构","address":"上海市浦东新区浦东大道1139弄"},{"poiid":"B2094757D069A5FB4598","title":"蓝十字健康体检中心","lon":"121.53761","lat":"31.23741","category":"162","category_name":"医院","address":"上海浦东新区商城路1900号金桃大厦1-2楼"},{"poiid":"B2094655D268A5FD4692","title":"海院小区(西门)","lon":"121.53595","lat":"31.24048","category":"47","category_name":"住宅区","address":""},{"poiid":"B2094655D26DA7F4429E","title":"海院小区","lon":"121.53582","lat":"31.241341","category":"47","category_name":"住宅区","address":"浦东大道1460弄1-60号"},{"poiid":"B2094654DA69AAFA419A","title":"申富大厦","lon":"121.536","lat":"31.2437","category":"46","category_name":"楼宇","address":"黄浦区外滩23号,中山东一路,南京东路"},{"poiid":"B2094654DA68ABFD429E","title":"泰和茶馆","lon":"121.5329","lat":"31.2415","category":"260","category_name":"其他","address":"浦东新区浦东大道1048号(桃林路与源深路之间)"},{"poiid":"B2094654DB69AAF9499D","title":"宁波汉通酒店","lon":"121.53834","lat":"31.2347","category":"247","category_name":"餐饮美食","address":"上海市浦东新区张杨路1587号八方大厦2楼(近桃林路)"},{"poiid":"B2094757D16DA0FB4198","title":"681鲜缘坊(浦东店)","lon":"121.5341","lat":"31.24384","category":"74","category_name":"江苏菜","address":"浦东新区桃林路18号(近昌邑路)"},{"poiid":"B2094757D568A0F9479D","title":"永乐大厦","lon":"121.5390006","lat":"31.24127889","category":"46","category_name":"楼宇","address":"惠南镇城东路86弄17支弄"},{"poiid":"B2094655D26BA2F54799","title":"浦东大道民生路","lon":"121.5395","lat":"31.24371","category":"38","category_name":"公交车站","address":""},{"poiid":"B2094654DA68A4F54693","title":"中国石化大厦(西楼)","lon":"121.53803","lat":"31.2438","category":"46","category_name":"楼宇","address":"上海市浦东大道1525号"},{"poiid":"B2094654DA68ABFF479E","title":"上海市医药学校(沈家弄路)","lon":"121.53976","lat":"31.23659","category":"54","category_name":"职业技术学校","address":"沈家弄路700号"},{"poiid":"B2094654DA68ABFD469E","title":"海云宾馆","lon":"121.53553","lat":"31.24045","category":"250","category_name":"公园户外","address":"桃林路199"},{"poiid":"B2094654DB6BABF44499","title":"商城商务楼","lon":"121.53889","lat":"31.23808","category":"46","category_name":"楼宇","address":"商城路1986号"},{"poiid":"B2094757D064A6F9419F","title":"上海海事大学(临港校区)海馨楼","lon":"121.53817","lat":"31.2427","category":"68","category_name":"快餐厅","address":"浦东新区浦东大道1550号上海海事大学院内(近民生路)"},{"poiid":"B2094654DA68ABF84393","title":"八方大酒店","lon":"121.53851","lat":"31.23477","category":"215","category_name":"三星级宾馆","address":"张杨路1587号(近桃林路)"},{"poiid":"B2094757D569A3FD459E","title":"沙尘暴西域餐厅","lon":"121.53327962","lat":"31.24162164","category":"90","category_name":"清真餐馆","address":"浦东新区浦东大道1096号(近桃林路)"},{"poiid":"B2094757D06FA0F8409E","title":"上海海事大学","lon":"121.54098","lat":"31.242395","category":"671","category_name":"高校中心点","address":"浦东新区浦东大道1550号上海海事大学院内(近民生路)"},{"poiid":"B2094757D06FA6F94692","title":"上海市医药学校","lon":"121.54008","lat":"31.2359","category":"500","category_name":"未知分类","address":"浦东新区沈家弄路700号(近源深体育场)"},{"poiid":"B2094654DA68ABF8499E","title":"陆家嘴国际华城","lon":"121.53563","lat":"31.235361","category":"47","category_name":"住宅区","address":"上海市浦东新区张扬路1351号"},{"poiid":"B2094757D06FA5F8479A","title":"汤豪仕汤馆(民生店)","lon":"121.54043","lat":"31.23834","category":"76","category_name":"上海菜","address":"浦东新区商城路2128号(近民生路)"},{"poiid":"B2094757D068A2FC429B","title":"粤尚名庭","lon":"121.53463","lat":"31.24159","category":"47","category_name":"住宅区","address":"浦东新区浦东大道1179号(桃林路口)"},{"poiid":"B2094757D068A5F44598","title":"船长高尔夫","lon":"121.53754","lat":"31.23753","category":"206","category_name":"高尔夫相关","address":"浦东新区商城路1860号(桃林路口)"},{"poiid":"B2094757D065A7F44498","title":"爱康国宾","lon":"121.537822","lat":"31.237644","category":"902","category_name":"楼宇机构","address":"上海商城路1900号"},{"poiid":"B2094757D16DA2FA4699","title":"民生路栖山路","lon":"121.54128464","lat":"31.243066869","category":"500","category_name":"未知分类","address":"上海民生路栖山路路口"},{"poiid":"B2094654DA68ABFF489B","title":"上海市第二轻工业学校","lon":"121.53842","lat":"31.23609","category":"54","category_name":"职业技术学校","address":"浦东新区沈家弄路650号"},{"poiid":"B2094654DA68ABFD439B","title":"巨洋大厦","lon":"121.533062","lat":"31.241866","category":"46","category_name":"楼宇","address":"浦东区浦东大道1200号"},{"poiid":"B2094753DA6FA7FD469A","title":"四川香天下火锅（陆家嘴店）","lon":"121.537597","lat":"31.239873","category":"247","category_name":"餐饮美食","address":"上海市 浦东大道1108号"},{"poiid":"B2094757D06AA6F54999","title":"印度小厨(浦东店)","lon":"121.54252","lat":"31.23881","category":"102","category_name":"印度风味","address":"浦东新区民生路480号(商城路口)"},{"poiid":"B2094655D26BA7FE469D","title":"重庆四季鱼庄","lon":"121.53345","lat":"31.24172","category":"86","category_name":"火锅店","address":"浦东新区浦东大道1108号(近桃林路)"},{"poiid":"B2094757D16FA6FE439E","title":"高恒大厦","lon":"121.541544078","lat":"31.2419453798","category":"252","category_name":"楼宇机构","address":"上海浦东大道1608号"},{"poiid":"B2094654DB6BABF44498","title":"上海市环境学校","lon":"121.53858","lat":"31.23765","category":"54","category_name":"职业技术学校","address":"商城路1980"},{"poiid":"B2094654DA68ABFF4399","title":"船研大厦","lon":"121.54187","lat":"31.23891","category":"46","category_name":"楼宇","address":"闸北区江场西路38号(近共和新路)"},{"poiid":"B2094654DA68ABFF499D","title":"金桃大厦","lon":"121.53782","lat":"31.23764","category":"46","category_name":"楼宇","address":"普陀区宜昌路88号梦清园公园内"},{"poiid":"B2094655D26BA1F9429B","title":"民生路浦东大道","lon":"121.54077","lat":"31.24432","category":"38","category_name":"公交车站","address":""},{"poiid":"B2094654DA68ABFA419A","title":"上海市泾南中学","lon":"121.54187","lat":"31.24162","category":"55","category_name":"中学","address":"浦东新区民生路303号(民生路栖山路)"},{"poiid":"B2094757D068A0F94192","title":"阿英煲 民生路店","lon":"121.542073054","lat":"31.239555793","category":"260","category_name":"其他","address":"浦东新区商城路2151号(民生路口)"},{"poiid":"B2094757D06AABF8499C","title":"1758龙虾王","lon":"121.541451054","lat":"31.242051793","category":"68","category_name":"快餐厅","address":"浦东新区栖山路12号(近民生路)"},{"poiid":"B2094757D168A2FF489F","title":"雅弗源养生中心","lon":"121.54144873","lat":"31.239282493","category":"500","category_name":"未知分类","address":"浦东新区商城路2120号(近民生路)"},{"poiid":"B2094757D56CA2FA439C","title":"鼓浪屿","lon":"121.54076346374","lat":"31.235272760666","category":"247","category_name":"餐饮美食","address":"浦东新区张杨路1657号鼓浪屿休闲浴场2楼(近民生路)"},{"poiid":"B2094757D065ABF84293","title":"海事大学图书馆","lon":"121.5376","lat":"31.243141","category":"181","category_name":"图书馆","address":"浦东新区浦东大道1550号上海海事大学院内(近民生路)"},{"poiid":"B2094750D76EA4FF4693","title":"红宝石(浦东大道店)","lon":"121.539","lat":"31.2434","category":"67","category_name":"甜品店","address":"浦东新区浦东大道1574号(近民生路)"},{"poiid":"B2094757D66BA3F84793","title":"食知味龙虾馆 栖山路店","lon":"121.54153382439","lat":"31.242334441884","category":"68","category_name":"快餐厅","address":"浦东新区栖山路36号(近民生路)"},{"poiid":"B2094654DA69AAFF439F","title":"星海石油大楼","lon":"121.536","lat":"31.2418","category":"46","category_name":"楼宇","address":"卢湾区局门路427号(邮编:200023)"},{"poiid":"B2094757D069A2F84899","title":"小绍兴(民生路店)","lon":"121.54031","lat":"31.24367","category":"68","category_name":"快餐厅","address":"浦东新区浦东大道1588号(近民生路)"},{"poiid":"B2094654DB69A5FB499D","title":"重庆鸡公煲 浦东大道店","lon":"121.539384054","lat":"31.243903793","category":"71","category_name":"四川菜","address":"浦东新区浦东大道(近民生路)"},{"poiid":"B2094655D26BA2F54692","title":"浦东大道桃林路","lon":"121.53421","lat":"31.2422","category":"38","category_name":"公交车站","address":""},{"poiid":"B2094757D16CA2FF489C","title":"广东祥记蚝庄(栖山路店)","lon":"121.5416","lat":"31.24159","category":"68","category_name":"快餐厅","address":"浦东新区栖山路12号(近民生路)"},{"poiid":"B2094750D665ABFB439A","title":"金湘缘","lon":"121.54","lat":"31.2379","category":"77","category_name":"湖南菜","address":"浦东新区栖山路153号(近巨野路)"},{"poiid":"B2094757D069A6FA4498","title":"泰和足道(浦东大道店)","lon":"121.53294","lat":"31.24154","category":"149","category_name":"洗浴推拿场所","address":"浦东新区浦东大道1068号(浦东大道华开路)"},{"poiid":"B2094757D16EA5FA4893","title":"惠扬大厦","lon":"121.53391573","lat":"31.24101853","category":"252","category_name":"楼宇机构","address":"上海市浦东新区浦东大道1139弄"},{"poiid":"B2094757D069A5FB4598","title":"蓝十字健康体检中心","lon":"121.53761","lat":"31.23741","category":"162","category_name":"医院","address":"上海浦东新区商城路1900号金桃大厦1-2楼"},{"poiid":"B2094655D268A5FD4692","title":"海院小区(西门)","lon":"121.53595","lat":"31.24048","category":"47","category_name":"住宅区","address":""},{"poiid":"B2094655D26DA7F4429E","title":"海院小区","lon":"121.53582","lat":"31.241341","category":"47","category_name":"住宅区","address":"浦东大道1460弄1-60号"},{"poiid":"B2094654DA69AAFA419A","title":"申富大厦","lon":"121.536","lat":"31.2437","category":"46","category_name":"楼宇","address":"黄浦区外滩23号,中山东一路,南京东路"},{"poiid":"B2094654DA68ABFD429E","title":"泰和茶馆","lon":"121.5329","lat":"31.2415","category":"260","category_name":"其他","address":"浦东新区浦东大道1048号(桃林路与源深路之间)"},{"poiid":"B2094654DB69AAF9499D","title":"宁波汉通酒店","lon":"121.53834","lat":"31.2347","category":"247","category_name":"餐饮美食","address":"上海市浦东新区张杨路1587号八方大厦2楼(近桃林路)"},{"poiid":"B2094757D16DA0FB4198","title":"681鲜缘坊(浦东店)","lon":"121.5341","lat":"31.24384","category":"74","category_name":"江苏菜","address":"浦东新区桃林路18号(近昌邑路)"},{"poiid":"B2094757D568A0F9479D","title":"永乐大厦","lon":"121.5390006","lat":"31.24127889","category":"46","category_name":"楼宇","address":"惠南镇城东路86弄17支弄"},{"poiid":"B2094655D26BA2F54799","title":"浦东大道民生路","lon":"121.5395","lat":"31.24371","category":"38","category_name":"公交车站","address":""},{"poiid":"B2094654DA68A4F54693","title":"中国石化大厦(西楼)","lon":"121.53803","lat":"31.2438","category":"46","category_name":"楼宇","address":"上海市浦东大道1525号"},{"poiid":"B2094654DA68ABFF479E","title":"上海市医药学校(沈家弄路)","lon":"121.53976","lat":"31.23659","category":"54","category_name":"职业技术学校","address":"沈家弄路700号"},{"poiid":"B2094654DA68ABFD469E","title":"海云宾馆","lon":"121.53553","lat":"31.24045","category":"250","category_name":"公园户外","address":"桃林路199"},{"poiid":"B2094654DB6BABF44499","title":"商城商务楼","lon":"121.53889","lat":"31.23808","category":"46","category_name":"楼宇","address":"商城路1986号"},{"poiid":"B2094757D064A6F9419F","title":"上海海事大学(临港校区)海馨楼","lon":"121.53817","lat":"31.2427","category":"68","category_name":"快餐厅","address":"浦东新区浦东大道1550号上海海事大学院内(近民生路)"},{"poiid":"B2094654DA68ABF84393","title":"八方大酒店","lon":"121.53851","lat":"31.23477","category":"215","category_name":"三星级宾馆","address":"张杨路1587号(近桃林路)"},{"poiid":"B2094757D569A3FD459E","title":"沙尘暴西域餐厅","lon":"121.53327962","lat":"31.24162164","category":"90","category_name":"清真餐馆","address":"浦东新区浦东大道1096号(近桃林路)"}]