[{"poiid":"B2094757D06FA3FF409F","title":"新九龙塘(兰溪路店)","lon":"121.4018862681055","lat":"31.249494773574355","category":"88","category_name":"海鲜酒楼","address":"普陀区兰溪路419号(近铜川路)"},{"poiid":"B2094757D66EA2FD439D","title":"銅川路海鮮市場","lon":"121.40417995","lat":"31.2510206976","category":"500","category_name":"未知分类","address":"上海市普陀区兰溪路"},{"poiid":"B2094757D06FA1FF409B","title":"真如羊肉馆","lon":"121.40147","lat":"31.24845","category":"68","category_name":"快餐厅","address":"普陀区寺前街1号(近兰溪路)"},{"poiid":"B2094654D464AAF5449A","title":"真如寺","lon":"121.40148","lat":"31.24912","category":"244","category_name":"寺庙道观","address":"上海普陀区真如镇后山门5号"},{"poiid":"B2094757D06FA2F5409D","title":"曹杨八村","lon":"121.40708","lat":"31.246595","category":"47","category_name":"住宅区","address":"曹扬路1207弄"},{"poiid":"B2094757D06FA2FF4098","title":"真如地铁站","lon":"121.407202","lat":"31.251089","category":"36","category_name":"地铁站","address":"上海轨道交通 十一号线 轨交真如站 11"},{"poiid":"B2094757D068A3F5449B","title":"天鸿酒家","lon":"121.40336","lat":"31.25018","category":"260","category_name":"其他","address":"普陀区铜川路947号"},{"poiid":"B2094757D06FA3F8419D","title":"真如西村","lon":"121.406","lat":"31.2507","category":"47","category_name":"住宅区","address":"上海普陀区大渡河路北石路"},{"poiid":"B2094654D464AAF5459E","title":"天上来大酒店","lon":"121.4021632781","lat":"31.248501946268","category":"260","category_name":"其他","address":"普陀区兰溪路436号(近铜川路)"},{"poiid":"B2094757D06FABFA439A","title":"云中酒楼","lon":"121.401710964","lat":"31.2503601854","category":"260","category_name":"其他","address":"普陀区兰溪路455号(近铜川路)"},{"poiid":"B2094654D464AAF5469C","title":"真如海鲜城","lon":"121.40215941072","lat":"31.248823280602","category":"260","category_name":"其他","address":"普陀区兰溪路437号(近铜川路)"},{"poiid":"B2094654D464AAF5469A","title":"金煌海鲜酒楼","lon":"121.40175","lat":"31.25047","category":"260","category_name":"其他","address":"普陀区兰溪路473号(铜川路口)"},{"poiid":"B2094757D06FA3F5469B","title":"八村烧烤","lon":"121.40622","lat":"31.24499","category":"68","category_name":"快餐厅","address":"普陀区南石一路(南石二路口)"},{"poiid":"B2094757D069A7FB4899","title":"普陀中心医院二楼输液室","lon":"121.40099014","lat":"31.246303745","category":"162","category_name":"医院","address":"上海普陀区兰溪路164号普陀中心医内"},{"poiid":"B2094757D569A3F8449B","title":"潮隆大酒店铜川路店","lon":"121.40021","lat":"31.25081","category":"72","category_name":"广东菜","address":"普陀区铜川路990弄6区28号(近兰溪路)"},{"poiid":"B2094757D068A5F9409D","title":"普陀区中医医院","lon":"121.4076828","lat":"31.2479404483","category":"162","category_name":"医院","address":"普陀区曹杨路1261号(近北石路)"},{"poiid":"B2094654D464AAF5469D","title":"皇悦轩","lon":"121.40185507927","lat":"31.250357993092","category":"260","category_name":"其他","address":"普陀区兰溪路429号(近铜川路)"},{"poiid":"B2094654D465A3FC469C","title":"铜川水产市场(边门)","lon":"121.40418","lat":"31.25063","category":"117","category_name":"便民商店/便利店","address":"铜川路871号20-5号"},{"poiid":"B2094757D16DA7FF439B","title":"曹杨路铜川路","lon":"121.40696345","lat":"31.25062539","category":"500","category_name":"未知分类","address":"上海曹杨路铜川路"},{"poiid":"B2094757D069AAFA459A","title":"帝赋苑","lon":"121.40262","lat":"31.24722","category":"72","category_name":"广东菜","address":"普陀区兰溪路277-289号(近北石路)"},{"poiid":"B2094654D465A3FC4499","title":"金鼎花苑","lon":"121.40331","lat":"31.250048","category":"47","category_name":"住宅区","address":"铜川路999弄"},{"poiid":"B2094757D069A5F84292","title":"真如体育场","lon":"121.399510261","lat":"31.2481169398","category":"220","category_name":"运动场所","address":"普陀区北石路208号(近兰溪路)"},{"poiid":"B2094655D36DA6FF4192","title":"真如","lon":"121.4072","lat":"31.2511","category":"38","category_name":"公交车站","address":""},{"poiid":"B2094655D26AAAF4429F","title":"明捷万丽咖啡厅","lon":"121.40205","lat":"31.2513","category":"247","category_name":"餐饮美食","address":"普陀区铜川路50号明捷万丽酒店1楼(近地铁岚皋路站)"},{"poiid":"B2094751D56CA5FB499F","title":"真如古镇羊肉馆","lon":"121.40113","lat":"31.24819","category":"68","category_name":"快餐厅","address":"普陀区穿心街9号(近北石路)"},{"poiid":"B2094757D169ABF9409B","title":"帝苑壹号精菜坊","lon":"121.40226795","lat":"31.248455648","category":"247","category_name":"餐饮美食","address":"上海市普陀区大渡河路"},{"poiid":"B2094757D66FA2FA439B","title":"辉煌火锅","lon":"121.40372","lat":"31.25126","category":"86","category_name":"火锅店","address":"普陀区铜川路990弄干货市场内(近兰溪路)"},{"poiid":"B2094654DB6AABF8439A","title":"铜川水产批发市场(三号门)","lon":"121.40533","lat":"31.24956","category":"117","category_name":"便民商店/便利店","address":"铜川路871号"},{"poiid":"B2094757D069A4F4419E","title":"上海市公安局普陀分局","lon":"121.40164053","lat":"31.249383512","category":"500","category_name":"未知分类","address":"上海市普陀区大渡河路1895号"},{"poiid":"B2094757D16CA0FC4899","title":"真如文英中心小学","lon":"121.40453","lat":"31.24847","category":"253","category_name":"校园生活","address":"普陀区北石路110号(南石四路南石一路)"},{"poiid":"B2094654D56BA3F9439A","title":"普陀早教指导中心","lon":"121.40708","lat":"31.24659","category":"57","category_name":"幼儿园","address":"曹阳八村54号"},{"poiid":"B2094654DB6BA0F54099","title":"白玉兰甜品屋饮料站","lon":"121.401843054","lat":"31.248002793","category":"67","category_name":"甜品店","address":"普陀区兰溪路300号(近北石路)"},{"poiid":"B2094654D465A3FC4599","title":"铜川鲍翅批发一条街","lon":"121.40332","lat":"31.25045","category":"117","category_name":"便民商店/便利店","address":""},{"poiid":"B2094757D064AAFA4493","title":"北石路","lon":"121.40338735","lat":"31.2484989494","category":"500","category_name":"未知分类","address":"上海北石路118号"},{"poiid":"B2094655D26FA1F54093","title":"铜川水产市场(四号门)","lon":"121.40565","lat":"31.25062","category":"117","category_name":"便民商店/便利店","address":""},{"poiid":"B2094655D36CA2FC459F","title":"喜士多铜川门市","lon":"121.40211","lat":"31.25011","category":"117","category_name":"便民商店/便利店","address":"兰溪路452号"},{"poiid":"B2094654DB6AABF84298","title":"铜川水产市场(北二门)","lon":"121.40524","lat":"31.25061","category":"117","category_name":"便民商店/便利店","address":"铜川路871"},{"poiid":"B2094654D464AAFB499B","title":"上海沪西水产市场","lon":"121.40379","lat":"31.25146","category":"117","category_name":"便民商店/便利店","address":"铜川路936号"},{"poiid":"B2094654D464AAF44099","title":"上海沪西水产市场(北门)","lon":"121.40295","lat":"31.25093","category":"117","category_name":"便民商店/便利店","address":""},{"poiid":"B2094753D36EA1FA469E","title":"新九龙塘(兰溪路店)","lon":"121.401677","lat":"31.249837","category":"88","category_name":"海鲜酒楼","address":"兰溪路419号"},{"poiid":"B2094654D464AAFB489D","title":"大西洋水产行","lon":"121.40431","lat":"31.25095","category":"117","category_name":"便民商店/便利店","address":""},{"poiid":"B2094655D265AAF8429B","title":"老街汤团26号店","lon":"121.40256","lat":"31.24779","category":"257","category_name":"中餐厅","address":"七宝老街南大街26号"},{"poiid":"B2094654D56BA3FF499D","title":"福建千里香馄饨(南大街)","lon":"121.40296","lat":"31.24795","category":"68","category_name":"快餐厅","address":"闵行区七宝老街(近富强街)"},{"poiid":"B2094655D264A2F5479D","title":"重庆鸡公煲北石路店","lon":"121.40114","lat":"31.2482","category":"71","category_name":"四川菜","address":"普陀区北石路158号穿心街11号(快客超市对面)"},{"poiid":"B2094654D56BA3F8419A","title":"家家圆特色汤园","lon":"121.40324","lat":"31.24777","category":"257","category_name":"中餐厅","address":""},{"poiid":"B2094654D464AAFB499D","title":"上海晨龙冻品总汇","lon":"121.40335","lat":"31.25093","category":"117","category_name":"便民商店/便利店","address":"铜川路998号"},{"poiid":"B2094757D76DA1FE449D","title":"莹燕酒楼","lon":"121.40513","lat":"31.24917","category":"260","category_name":"其他","address":"普陀区北石路90号(近曹杨路)"},{"poiid":"B2094654D464AAFB479B","title":"上海银江水产批发行","lon":"121.40511","lat":"31.25094","category":"117","category_name":"便民商店/便利店","address":"铜路路896号西2-西3"},{"poiid":"B2094654DB6AABF84293","title":"大胡子饭店","lon":"121.40499","lat":"31.24906","category":"260","category_name":"其他","address":"普陀区北石路98号(近曹杨路)"},{"poiid":"B2094757D06AA4F4499C","title":"新招鲜兰溪店","lon":"121.40199145","lat":"31.2484936493","category":"500","category_name":"未知分类","address":"上海普陀区兰溪路277号"},{"poiid":"B2094757D06FA3FF409F","title":"新九龙塘(兰溪路店)","lon":"121.4018862681055","lat":"31.249494773574355","category":"88","category_name":"海鲜酒楼","address":"普陀区兰溪路419号(近铜川路)"},{"poiid":"B2094757D66EA2FD439D","title":"銅川路海鮮市場","lon":"121.40417995","lat":"31.2510206976","category":"500","category_name":"未知分类","address":"上海市普陀区兰溪路"},{"poiid":"B2094757D06FA1FF409B","title":"真如羊肉馆","lon":"121.40147","lat":"31.24845","category":"68","category_name":"快餐厅","address":"普陀区寺前街1号(近兰溪路)"},{"poiid":"B2094654D464AAF5449A","title":"真如寺","lon":"121.40148","lat":"31.24912","category":"244","category_name":"寺庙道观","address":"上海普陀区真如镇后山门5号"},{"poiid":"B2094757D06FA2F5409D","title":"曹杨八村","lon":"121.40708","lat":"31.246595","category":"47","category_name":"住宅区","address":"曹扬路1207弄"},{"poiid":"B2094757D06FA2FF4098","title":"真如地铁站","lon":"121.407202","lat":"31.251089","category":"36","category_name":"地铁站","address":"上海轨道交通 十一号线 轨交真如站 11"},{"poiid":"B2094757D068A3F5449B","title":"天鸿酒家","lon":"121.40336","lat":"31.25018","category":"260","category_name":"其他","address":"普陀区铜川路947号"},{"poiid":"B2094757D06FA3F8419D","title":"真如西村","lon":"121.406","lat":"31.2507","category":"47","category_name":"住宅区","address":"上海普陀区大渡河路北石路"},{"poiid":"B2094654D464AAF5459E","title":"天上来大酒店","lon":"121.4021632781","lat":"31.248501946268","category":"260","category_name":"其他","address":"普陀区兰溪路436号(近铜川路)"},{"poiid":"B2094757D06FABFA439A","title":"云中酒楼","lon":"121.401710964","lat":"31.2503601854","category":"260","category_name":"其他","address":"普陀区兰溪路455号(近铜川路)"},{"poiid":"B2094654D464AAF5469C","title":"真如海鲜城","lon":"121.40215941072","lat":"31.248823280602","category":"260","category_name":"其他","address":"普陀区兰溪路437号(近铜川路)"},{"poiid":"B2094654D464AAF5469A","title":"金煌海鲜酒楼","lon":"121.40175","lat":"31.25047","category":"260","category_name":"其他","address":"普陀区兰溪路473号(铜川路口)"},{"poiid":"B2094757D06FA3F5469B","title":"八村烧烤","lon":"121.40622","lat":"31.24499","category":"68","category_name":"快餐厅","address":"普陀区南石一路(南石二路口)"},{"poiid":"B2094757D069A7FB4899","title":"普陀中心医院二楼输液室","lon":"121.40099014","lat":"31.246303745","category":"162","category_name":"医院","address":"上海普陀区兰溪路164号普陀中心医内"},{"poiid":"B2094757D569A3F8449B","title":"潮隆大酒店铜川路店","lon":"121.40021","lat":"31.25081","category":"72","category_name":"广东菜","address":"普陀区铜川路990弄6区28号(近兰溪路)"},{"poiid":"B2094757D068A5F9409D","title":"普陀区中医医院","lon":"121.4076828","lat":"31.2479404483","category":"162","category_name":"医院","address":"普陀区曹杨路1261号(近北石路)"},{"poiid":"B2094654D464AAF5469D","title":"皇悦轩","lon":"121.40185507927","lat":"31.250357993092","category":"260","category_name":"其他","address":"普陀区兰溪路429号(近铜川路)"},{"poiid":"B2094654D465A3FC469C","title":"铜川水产市场(边门)","lon":"121.40418","lat":"31.25063","category":"117","category_name":"便民商店/便利店","address":"铜川路871号20-5号"},{"poiid":"B2094757D16DA7FF439B","title":"曹杨路铜川路","lon":"121.40696345","lat":"31.25062539","category":"500","category_name":"未知分类","address":"上海曹杨路铜川路"},{"poiid":"B2094757D069AAFA459A","title":"帝赋苑","lon":"121.40262","lat":"31.24722","category":"72","category_name":"广东菜","address":"普陀区兰溪路277-289号(近北石路)"},{"poiid":"B2094654D465A3FC4499","title":"金鼎花苑","lon":"121.40331","lat":"31.250048","category":"47","category_name":"住宅区","address":"铜川路999弄"},{"poiid":"B2094757D069A5F84292","title":"真如体育场","lon":"121.399510261","lat":"31.2481169398","category":"220","category_name":"运动场所","address":"普陀区北石路208号(近兰溪路)"},{"poiid":"B2094655D36DA6FF4192","title":"真如","lon":"121.4072","lat":"31.2511","category":"38","category_name":"公交车站","address":""},{"poiid":"B2094655D26AAAF4429F","title":"明捷万丽咖啡厅","lon":"121.40205","lat":"31.2513","category":"247","category_name":"餐饮美食","address":"普陀区铜川路50号明捷万丽酒店1楼(近地铁岚皋路站)"},{"poiid":"B2094751D56CA5FB499F","title":"真如古镇羊肉馆","lon":"121.40113","lat":"31.24819","category":"68","category_name":"快餐厅","address":"普陀区穿心街9号(近北石路)"},{"poiid":"B2094757D169ABF9409B","title":"帝苑壹号精菜坊","lon":"121.40226795","lat":"31.248455648","category":"247","category_name":"餐饮美食","address":"上海市普陀区大渡河路"},{"poiid":"B2094757D66FA2FA439B","title":"辉煌火锅","lon":"121.40372","lat":"31.25126","category":"86","category_name":"火锅店","address":"普陀区铜川路990弄干货市场内(近兰溪路)"},{"poiid":"B2094654DB6AABF8439A","title":"铜川水产批发市场(三号门)","lon":"121.40533","lat":"31.24956","category":"117","category_name":"便民商店/便利店","address":"铜川路871号"},{"poiid":"B2094757D069A4F4419E","title":"上海市公安局普陀分局","lon":"121.40164053","lat":"31.249383512","category":"500","category_name":"未知分类","address":"上海市普陀区大渡河路1895号"},{"poiid":"B2094757D16CA0FC4899","title":"真如文英中心小学","lon":"121.40453","lat":"31.24847","category":"253","category_name":"校园生活","address":"普陀区北石路110号(南石四路南石一路)"},{"poiid":"B2094654D56BA3F9439A","title":"普陀早教指导中心","lon":"121.40708","lat":"31.24659","category":"57","category_name":"幼儿园","address":"曹阳八村54号"},{"poiid":"B2094654DB6BA0F54099","title":"白玉兰甜品屋饮料站","lon":"121.401843054","lat":"31.248002793","category":"67","category_name":"甜品店","address":"普陀区兰溪路300号(近北石路)"},{"poiid":"B2094654D465A3FC4599","title":"铜川鲍翅批发一条街","lon":"121.40332","lat":"31.25045","category":"117","category_name":"便民商店/便利店","address":""},{"poiid":"B2094757D064AAFA4493","title":"北石路","lon":"121.40338735","lat":"31.2484989494","category":"500","category_name":"未知分类","address":"上海北石路118号"},{"poiid":"B2094655D26FA1F54093","title":"铜川水产市场(四号门)","lon":"121.40565","lat":"31.25062","category":"117","category_name":"便民商店/便利店","address":""},{"poiid":"B2094655D36CA2FC459F","title":"喜士多铜川门市","lon":"121.40211","lat":"31.25011","category":"117","category_name":"便民商店/便利店","address":"兰溪路452号"},{"poiid":"B2094654DB6AABF84298","title":"铜川水产市场(北二门)","lon":"121.40524","lat":"31.25061","category":"117","category_name":"便民商店/便利店","address":"铜川路871"},{"poiid":"B2094654D464AAFB499B","title":"上海沪西水产市场","lon":"121.40379","lat":"31.25146","category":"117","category_name":"便民商店/便利店","address":"铜川路936号"},{"poiid":"B2094654D464AAF44099","title":"上海沪西水产市场(北门)","lon":"121.40295","lat":"31.25093","category":"117","category_name":"便民商店/便利店","address":""},{"poiid":"B2094753D36EA1FA469E","title":"新九龙塘(兰溪路店)","lon":"121.401677","lat":"31.249837","category":"88","category_name":"海鲜酒楼","address":"兰溪路419号"},{"poiid":"B2094654D464AAFB489D","title":"大西洋水产行","lon":"121.40431","lat":"31.25095","category":"117","category_name":"便民商店/便利店","address":""},{"poiid":"B2094655D265AAF8429B","title":"老街汤团26号店","lon":"121.40256","lat":"31.24779","category":"257","category_name":"中餐厅","address":"七宝老街南大街26号"},{"poiid":"B2094654D56BA3FF499D","title":"福建千里香馄饨(南大街)","lon":"121.40296","lat":"31.24795","category":"68","category_name":"快餐厅","address":"闵行区七宝老街(近富强街)"},{"poiid":"B2094655D264A2F5479D","title":"重庆鸡公煲北石路店","lon":"121.40114","lat":"31.2482","category":"71","category_name":"四川菜","address":"普陀区北石路158号穿心街11号(快客超市对面)"},{"poiid":"B2094654D56BA3F8419A","title":"家家圆特色汤园","lon":"121.40324","lat":"31.24777","category":"257","category_name":"中餐厅","address":""},{"poiid":"B2094654D464AAFB499D","title":"上海晨龙冻品总汇","lon":"121.40335","lat":"31.25093","category":"117","category_name":"便民商店/便利店","address":"铜川路998号"},{"poiid":"B2094757D76DA1FE449D","title":"莹燕酒楼","lon":"121.40513","lat":"31.24917","category":"260","category_name":"其他","address":"普陀区北石路90号(近曹杨路)"},{"poiid":"B2094654D464AAFB479B","title":"上海银江水产批发行","lon":"121.40511","lat":"31.25094","category":"117","category_name":"便民商店/便利店","address":"铜路路896号西2-西3"},{"poiid":"B2094654DB6AABF84293","title":"大胡子饭店","lon":"121.40499","lat":"31.24906","category":"260","category_name":"其他","address":"普陀区北石路98号(近曹杨路)"},{"poiid":"B2094757D06AA4F4499C","title":"新招鲜兰溪店","lon":"121.40199145","lat":"31.2484936493","category":"500","category_name":"未知分类","address":"上海普陀区兰溪路277号"},{"poiid":"B2094757D06FA3FF409F","title":"新九龙塘(兰溪路店)","lon":"121.4018862681055","lat":"31.249494773574355","category":"88","category_name":"海鲜酒楼","address":"普陀区兰溪路419号(近铜川路)"},{"poiid":"B2094757D66EA2FD439D","title":"銅川路海鮮市場","lon":"121.40417995","lat":"31.2510206976","category":"500","category_name":"未知分类","address":"上海市普陀区兰溪路"},{"poiid":"B2094757D06FA1FF409B","title":"真如羊肉馆","lon":"121.40147","lat":"31.24845","category":"68","category_name":"快餐厅","address":"普陀区寺前街1号(近兰溪路)"},{"poiid":"B2094654D464AAF5449A","title":"真如寺","lon":"121.40148","lat":"31.24912","category":"244","category_name":"寺庙道观","address":"上海普陀区真如镇后山门5号"},{"poiid":"B2094757D06FA2F5409D","title":"曹杨八村","lon":"121.40708","lat":"31.246595","category":"47","category_name":"住宅区","address":"曹扬路1207弄"},{"poiid":"B2094757D06FA2FF4098","title":"真如地铁站","lon":"121.407202","lat":"31.251089","category":"36","category_name":"地铁站","address":"上海轨道交通 十一号线 轨交真如站 11"},{"poiid":"B2094757D068A3F5449B","title":"天鸿酒家","lon":"121.40336","lat":"31.25018","category":"260","category_name":"其他","address":"普陀区铜川路947号"},{"poiid":"B2094757D06FA3F8419D","title":"真如西村","lon":"121.406","lat":"31.2507","category":"47","category_name":"住宅区","address":"上海普陀区大渡河路北石路"},{"poiid":"B2094654D464AAF5459E","title":"天上来大酒店","lon":"121.4021632781","lat":"31.248501946268","category":"260","category_name":"其他","address":"普陀区兰溪路436号(近铜川路)"},{"poiid":"B2094757D06FABFA439A","title":"云中酒楼","lon":"121.401710964","lat":"31.2503601854","category":"260","category_name":"其他","address":"普陀区兰溪路455号(近铜川路)"},{"poiid":"B2094654D464AAF5469C","title":"真如海鲜城","lon":"121.40215941072","lat":"31.248823280602","category":"260","category_name":"其他","address":"普陀区兰溪路437号(近铜川路)"},{"poiid":"B2094654D464AAF5469A","title":"金煌海鲜酒楼","lon":"121.40175","lat":"31.25047","category":"260","category_name":"其他","address":"普陀区兰溪路473号(铜川路口)"},{"poiid":"B2094757D06FA3F5469B","title":"八村烧烤","lon":"121.40622","lat":"31.24499","category":"68","category_name":"快餐厅","address":"普陀区南石一路(南石二路口)"},{"poiid":"B2094757D069A7FB4899","title":"普陀中心医院二楼输液室","lon":"121.40099014","lat":"31.246303745","category":"162","category_name":"医院","address":"上海普陀区兰溪路164号普陀中心医内"},{"poiid":"B2094757D569A3F8449B","title":"潮隆大酒店铜川路店","lon":"121.40021","lat":"31.25081","category":"72","category_name":"广东菜","address":"普陀区铜川路990弄6区28号(近兰溪路)"},{"poiid":"B2094757D068A5F9409D","title":"普陀区中医医院","lon":"121.4076828","lat":"31.2479404483","category":"162","category_name":"医院","address":"普陀区曹杨路1261号(近北石路)"},{"poiid":"B2094654D464AAF5469D","title":"皇悦轩","lon":"121.40185507927","lat":"31.250357993092","category":"260","category_name":"其他","address":"普陀区兰溪路429号(近铜川路)"},{"poiid":"B2094654D465A3FC469C","title":"铜川水产市场(边门)","lon":"121.40418","lat":"31.25063","category":"117","category_name":"便民商店/便利店","address":"铜川路871号20-5号"},{"poiid":"B2094757D16DA7FF439B","title":"曹杨路铜川路","lon":"121.40696345","lat":"31.25062539","category":"500","category_name":"未知分类","address":"上海曹杨路铜川路"},{"poiid":"B2094757D069AAFA459A","title":"帝赋苑","lon":"121.40262","lat":"31.24722","category":"72","category_name":"广东菜","address":"普陀区兰溪路277-289号(近北石路)"},{"poiid":"B2094654D465A3FC4499","title":"金鼎花苑","lon":"121.40331","lat":"31.250048","category":"47","category_name":"住宅区","address":"铜川路999弄"},{"poiid":"B2094757D069A5F84292","title":"真如体育场","lon":"121.399510261","lat":"31.2481169398","category":"220","category_name":"运动场所","address":"普陀区北石路208号(近兰溪路)"},{"poiid":"B2094655D36DA6FF4192","title":"真如","lon":"121.4072","lat":"31.2511","category":"38","category_name":"公交车站","address":""},{"poiid":"B2094655D26AAAF4429F","title":"明捷万丽咖啡厅","lon":"121.40205","lat":"31.2513","category":"247","category_name":"餐饮美食","address":"普陀区铜川路50号明捷万丽酒店1楼(近地铁岚皋路站)"},{"poiid":"B2094751D56CA5FB499F","title":"真如古镇羊肉馆","lon":"121.40113","lat":"31.24819","category":"68","category_name":"快餐厅","address":"普陀区穿心街9号(近北石路)"},{"poiid":"B2094757D169ABF9409B","title":"帝苑壹号精菜坊","lon":"121.40226795","lat":"31.248455648","category":"247","category_name":"餐饮美食","address":"上海市普陀区大渡河路"},{"poiid":"B2094757D66FA2FA439B","title":"辉煌火锅","lon":"121.40372","lat":"31.25126","category":"86","category_name":"火锅店","address":"普陀区铜川路990弄干货市场内(近兰溪路)"},{"poiid":"B2094654DB6AABF8439A","title":"铜川水产批发市场(三号门)","lon":"121.40533","lat":"31.24956","category":"117","category_name":"便民商店/便利店","address":"铜川路871号"},{"poiid":"B2094757D069A4F4419E","title":"上海市公安局普陀分局","lon":"121.40164053","lat":"31.249383512","category":"500","category_name":"未知分类","address":"上海市普陀区大渡河路1895号"},{"poiid":"B2094757D16CA0FC4899","title":"真如文英中心小学","lon":"121.40453","lat":"31.24847","category":"253","category_name":"校园生活","address":"普陀区北石路110号(南石四路南石一路)"},{"poiid":"B2094654D56BA3F9439A","title":"普陀早教指导中心","lon":"121.40708","lat":"31.24659","category":"57","category_name":"幼儿园","address":"曹阳八村54号"},{"poiid":"B2094654DB6BA0F54099","title":"白玉兰甜品屋饮料站","lon":"121.401843054","lat":"31.248002793","category":"67","category_name":"甜品店","address":"普陀区兰溪路300号(近北石路)"},{"poiid":"B2094654D465A3FC4599","title":"铜川鲍翅批发一条街","lon":"121.40332","lat":"31.25045","category":"117","category_name":"便民商店/便利店","address":""},{"poiid":"B2094757D064AAFA4493","title":"北石路","lon":"121.40338735","lat":"31.2484989494","category":"500","category_name":"未知分类","address":"上海北石路118号"},{"poiid":"B2094655D26FA1F54093","title":"铜川水产市场(四号门)","lon":"121.40565","lat":"31.25062","category":"117","category_name":"便民商店/便利店","address":""},{"poiid":"B2094655D36CA2FC459F","title":"喜士多铜川门市","lon":"121.40211","lat":"31.25011","category":"117","category_name":"便民商店/便利店","address":"兰溪路452号"},{"poiid":"B2094654DB6AABF84298","title":"铜川水产市场(北二门)","lon":"121.40524","lat":"31.25061","category":"117","category_name":"便民商店/便利店","address":"铜川路871"},{"poiid":"B2094654D464AAFB499B","title":"上海沪西水产市场","lon":"121.40379","lat":"31.25146","category":"117","category_name":"便民商店/便利店","address":"铜川路936号"},{"poiid":"B2094654D464AAF44099","title":"上海沪西水产市场(北门)","lon":"121.40295","lat":"31.25093","category":"117","category_name":"便民商店/便利店","address":""},{"poiid":"B2094753D36EA1FA469E","title":"新九龙塘(兰溪路店)","lon":"121.401677","lat":"31.249837","category":"88","category_name":"海鲜酒楼","address":"兰溪路419号"},{"poiid":"B2094654D464AAFB489D","title":"大西洋水产行","lon":"121.40431","lat":"31.25095","category":"117","category_name":"便民商店/便利店","address":""},{"poiid":"B2094655D265AAF8429B","title":"老街汤团26号店","lon":"121.40256","lat":"31.24779","category":"257","category_name":"中餐厅","address":"七宝老街南大街26号"},{"poiid":"B2094654D56BA3FF499D","title":"福建千里香馄饨(南大街)","lon":"121.40296","lat":"31.24795","category":"68","category_name":"快餐厅","address":"闵行区七宝老街(近富强街)"},{"poiid":"B2094655D264A2F5479D","title":"重庆鸡公煲北石路店","lon":"121.40114","lat":"31.2482","category":"71","category_name":"四川菜","address":"普陀区北石路158号穿心街11号(快客超市对面)"},{"poiid":"B2094654D56BA3F8419A","title":"家家圆特色汤园","lon":"121.40324","lat":"31.24777","category":"257","category_name":"中餐厅","address":""},{"poiid":"B2094654D464AAFB499D","title":"上海晨龙冻品总汇","lon":"121.40335","lat":"31.25093","category":"117","category_name":"便民商店/便利店","address":"铜川路998号"},{"poiid":"B2094757D76DA1FE449D","title":"莹燕酒楼","lon":"121.40513","lat":"31.24917","category":"260","category_name":"其他","address":"普陀区北石路90号(近曹杨路)"},{"poiid":"B2094654D464AAFB479B","title":"上海银江水产批发行","lon":"121.40511","lat":"31.25094","category":"117","category_name":"便民商店/便利店","address":"铜路路896号西2-西3"},{"poiid":"B2094654DB6AABF84293","title":"大胡子饭店","lon":"121.40499","lat":"31.24906","category":"260","category_name":"其他","address":"普陀区北石路98号(近曹杨路)"},{"poiid":"B2094757D06AA4F4499C","title":"新招鲜兰溪店","lon":"121.40199145","lat":"31.2484936493","category":"500","category_name":"未知分类","address":"上海普陀区兰溪路277号"},{"poiid":"B2094757D06FA3FF409F","title":"新九龙塘(兰溪路店)","lon":"121.4018862681055","lat":"31.249494773574355","category":"88","category_name":"海鲜酒楼","address":"普陀区兰溪路419号(近铜川路)"},{"poiid":"B2094757D66EA2FD439D","title":"銅川路海鮮市場","lon":"121.40417995","lat":"31.2510206976","category":"500","category_name":"未知分类","address":"上海市普陀区兰溪路"},{"poiid":"B2094757D06FA1FF409B","title":"真如羊肉馆","lon":"121.40147","lat":"31.24845","category":"68","category_name":"快餐厅","address":"普陀区寺前街1号(近兰溪路)"},{"poiid":"B2094654D464AAF5449A","title":"真如寺","lon":"121.40148","lat":"31.24912","category":"244","category_name":"寺庙道观","address":"上海普陀区真如镇后山门5号"},{"poiid":"B2094757D06FA2F5409D","title":"曹杨八村","lon":"121.40708","lat":"31.246595","category":"47","category_name":"住宅区","address":"曹扬路1207弄"},{"poiid":"B2094757D06FA2FF4098","title":"真如地铁站","lon":"121.407202","lat":"31.251089","category":"36","category_name":"地铁站","address":"上海轨道交通 十一号线 轨交真如站 11"},{"poiid":"B2094757D068A3F5449B","title":"天鸿酒家","lon":"121.40336","lat":"31.25018","category":"260","category_name":"其他","address":"普陀区铜川路947号"},{"poiid":"B2094757D06FA3F8419D","title":"真如西村","lon":"121.406","lat":"31.2507","category":"47","category_name":"住宅区","address":"上海普陀区大渡河路北石路"},{"poiid":"B2094654D464AAF5459E","title":"天上来大酒店","lon":"121.4021632781","lat":"31.248501946268","category":"260","category_name":"其他","address":"普陀区兰溪路436号(近铜川路)"},{"poiid":"B2094757D06FABFA439A","title":"云中酒楼","lon":"121.401710964","lat":"31.2503601854","category":"260","category_name":"其他","address":"普陀区兰溪路455号(近铜川路)"},{"poiid":"B2094654D464AAF5469C","title":"真如海鲜城","lon":"121.40215941072","lat":"31.248823280602","category":"260","category_name":"其他","address":"普陀区兰溪路437号(近铜川路)"},{"poiid":"B2094654D464AAF5469A","title":"金煌海鲜酒楼","lon":"121.40175","lat":"31.25047","category":"260","category_name":"其他","address":"普陀区兰溪路473号(铜川路口)"},{"poiid":"B2094757D06FA3F5469B","title":"八村烧烤","lon":"121.40622","lat":"31.24499","category":"68","category_name":"快餐厅","address":"普陀区南石一路(南石二路口)"},{"poiid":"B2094757D069A7FB4899","title":"普陀中心医院二楼输液室","lon":"121.40099014","lat":"31.246303745","category":"162","category_name":"医院","address":"上海普陀区兰溪路164号普陀中心医内"},{"poiid":"B2094757D569A3F8449B","title":"潮隆大酒店铜川路店","lon":"121.40021","lat":"31.25081","category":"72","category_name":"广东菜","address":"普陀区铜川路990弄6区28号(近兰溪路)"},{"poiid":"B2094757D068A5F9409D","title":"普陀区中医医院","lon":"121.4076828","lat":"31.2479404483","category":"162","category_name":"医院","address":"普陀区曹杨路1261号(近北石路)"},{"poiid":"B2094654D464AAF5469D","title":"皇悦轩","lon":"121.40185507927","lat":"31.250357993092","category":"260","category_name":"其他","address":"普陀区兰溪路429号(近铜川路)"},{"poiid":"B2094654D465A3FC469C","title":"铜川水产市场(边门)","lon":"121.40418","lat":"31.25063","category":"117","category_name":"便民商店/便利店","address":"铜川路871号20-5号"},{"poiid":"B2094757D16DA7FF439B","title":"曹杨路铜川路","lon":"121.40696345","lat":"31.25062539","category":"500","category_name":"未知分类","address":"上海曹杨路铜川路"},{"poiid":"B2094757D069AAFA459A","title":"帝赋苑","lon":"121.40262","lat":"31.24722","category":"72","category_name":"广东菜","address":"普陀区兰溪路277-289号(近北石路)"},{"poiid":"B2094654D465A3FC4499","title":"金鼎花苑","lon":"121.40331","lat":"31.250048","category":"47","category_name":"住宅区","address":"铜川路999弄"},{"poiid":"B2094757D069A5F84292","title":"真如体育场","lon":"121.399510261","lat":"31.2481169398","category":"220","category_name":"运动场所","address":"普陀区北石路208号(近兰溪路)"},{"poiid":"B2094655D36DA6FF4192","title":"真如","lon":"121.4072","lat":"31.2511","category":"38","category_name":"公交车站","address":""},{"poiid":"B2094655D26AAAF4429F","title":"明捷万丽咖啡厅","lon":"121.40205","lat":"31.2513","category":"247","category_name":"餐饮美食","address":"普陀区铜川路50号明捷万丽酒店1楼(近地铁岚皋路站)"},{"poiid":"B2094751D56CA5FB499F","title":"真如古镇羊肉馆","lon":"121.40113","lat":"31.24819","category":"68","category_name":"快餐厅","address":"普陀区穿心街9号(近北石路)"},{"poiid":"B2094757D169ABF9409B","title":"帝苑壹号精菜坊","lon":"121.40226795","lat":"31.248455648","category":"247","category_name":"餐饮美食","address":"上海市普陀区大渡河路"},{"poiid":"B2094757D66FA2FA439B","title":"辉煌火锅","lon":"121.40372","lat":"31.25126","category":"86","category_name":"火锅店","address":"普陀区铜川路990弄干货市场内(近兰溪路)"},{"poiid":"B2094654DB6AABF8439A","title":"铜川水产批发市场(三号门)","lon":"121.40533","lat":"31.24956","category":"117","category_name":"便民商店/便利店","address":"铜川路871号"},{"poiid":"B2094757D069A4F4419E","title":"上海市公安局普陀分局","lon":"121.40164053","lat":"31.249383512","category":"500","category_name":"未知分类","address":"上海市普陀区大渡河路1895号"},{"poiid":"B2094757D16CA0FC4899","title":"真如文英中心小学","lon":"121.40453","lat":"31.24847","category":"253","category_name":"校园生活","address":"普陀区北石路110号(南石四路南石一路)"},{"poiid":"B2094654D56BA3F9439A","title":"普陀早教指导中心","lon":"121.40708","lat":"31.24659","category":"57","category_name":"幼儿园","address":"曹阳八村54号"},{"poiid":"B2094654DB6BA0F54099","title":"白玉兰甜品屋饮料站","lon":"121.401843054","lat":"31.248002793","category":"67","category_name":"甜品店","address":"普陀区兰溪路300号(近北石路)"},{"poiid":"B2094654D465A3FC4599","title":"铜川鲍翅批发一条街","lon":"121.40332","lat":"31.25045","category":"117","category_name":"便民商店/便利店","address":""},{"poiid":"B2094757D064AAFA4493","title":"北石路","lon":"121.40338735","lat":"31.2484989494","category":"500","category_name":"未知分类","address":"上海北石路118号"},{"poiid":"B2094655D26FA1F54093","title":"铜川水产市场(四号门)","lon":"121.40565","lat":"31.25062","category":"117","category_name":"便民商店/便利店","address":""},{"poiid":"B2094655D36CA2FC459F","title":"喜士多铜川门市","lon":"121.40211","lat":"31.25011","category":"117","category_name":"便民商店/便利店","address":"兰溪路452号"},{"poiid":"B2094654DB6AABF84298","title":"铜川水产市场(北二门)","lon":"121.40524","lat":"31.25061","category":"117","category_name":"便民商店/便利店","address":"铜川路871"},{"poiid":"B2094654D464AAFB499B","title":"上海沪西水产市场","lon":"121.40379","lat":"31.25146","category":"117","category_name":"便民商店/便利店","address":"铜川路936号"},{"poiid":"B2094654D464AAF44099","title":"上海沪西水产市场(北门)","lon":"121.40295","lat":"31.25093","category":"117","category_name":"便民商店/便利店","address":""},{"poiid":"B2094753D36EA1FA469E","title":"新九龙塘(兰溪路店)","lon":"121.401677","lat":"31.249837","category":"88","category_name":"海鲜酒楼","address":"兰溪路419号"},{"poiid":"B2094654D464AAFB489D","title":"大西洋水产行","lon":"121.40431","lat":"31.25095","category":"117","category_name":"便民商店/便利店","address":""},{"poiid":"B2094655D265AAF8429B","title":"老街汤团26号店","lon":"121.40256","lat":"31.24779","category":"257","category_name":"中餐厅","address":"七宝老街南大街26号"},{"poiid":"B2094654D56BA3FF499D","title":"福建千里香馄饨(南大街)","lon":"121.40296","lat":"31.24795","category":"68","category_name":"快餐厅","address":"闵行区七宝老街(近富强街)"},{"poiid":"B2094655D264A2F5479D","title":"重庆鸡公煲北石路店","lon":"121.40114","lat":"31.2482","category":"71","category_name":"四川菜","address":"普陀区北石路158号穿心街11号(快客超市对面)"},{"poiid":"B2094654D56BA3F8419A","title":"家家圆特色汤园","lon":"121.40324","lat":"31.24777","category":"257","category_name":"中餐厅","address":""},{"poiid":"B2094654D464AAFB499D","title":"上海晨龙冻品总汇","lon":"121.40335","lat":"31.25093","category":"117","category_name":"便民商店/便利店","address":"铜川路998号"},{"poiid":"B2094757D76DA1FE449D","title":"莹燕酒楼","lon":"121.40513","lat":"31.24917","category":"260","category_name":"其他","address":"普陀区北石路90号(近曹杨路)"},{"poiid":"B2094654D464AAFB479B","title":"上海银江水产批发行","lon":"121.40511","lat":"31.25094","category":"117","category_name":"便民商店/便利店","address":"铜路路896号西2-西3"},{"poiid":"B2094654DB6AABF84293","title":"大胡子饭店","lon":"121.40499","lat":"31.24906","category":"260","category_name":"其他","address":"普陀区北石路98号(近曹杨路)"},{"poiid":"B2094757D06AA4F4499C","title":"新招鲜兰溪店","lon":"121.40199145","lat":"31.2484936493","category":"500","category_name":"未知分类","address":"上海普陀区兰溪路277号"}]