[{"poiid":"B2094757D064ABFB4392","title":"梅赛德斯奔驰文化中心音乐俱乐部","lon":"121.495735738","lat":"31.1882344057","category":"500","category_name":"未知分类","address":"上海世博大道1200号西门一层"},{"poiid":"B2094655D268A3FF4498","title":"世博园区中国馆","lon":"121.49475","lat":"31.18453","category":"183","category_name":"展览馆","address":""},{"poiid":"B2094655D268A3FF449E","title":"世博演艺中心","lon":"121.494","lat":"31.18899","category":"180","category_name":"剧场","address":"上海市浦东新区世博大道"},{"poiid":"B2094750D365A4F5489C","title":"中华艺术宫","lon":"121.494338","lat":"31.183723","category":"248","category_name":"生活娱乐","address":"国展路云台路口（原中国国家馆）"},{"poiid":"B2094757D06EAAF9409C","title":"世博会中国国家馆","lon":"121.494923671","lat":"31.184639805","category":"260","category_name":"其他","address":"上海浦东新区国展路云台路口(原上海世博会A片区)"},{"poiid":"B2094750D365ABFA4392","title":"梅赛得斯-奔驰文化中心","lon":"121.493125","lat":"31.189492","category":"500","category_name":"未知分类","address":"世博大道1200号"},{"poiid":"B2094757D06FA2FE4092","title":"世纪星滑冰俱乐部(Century Star Rink)","lon":"121.49329056","lat":"31.18833552","category":"260","category_name":"其他","address":"浦东新区世博大道1200号梅赛德斯奔驰文化中心B1楼"},{"poiid":"B2094757DA6EA6FE489C","title":"望湘园(世博店)","lon":"121.4943","lat":"31.18886","category":"77","category_name":"湖南菜","address":"浦东新区世博大道1200号梅赛德斯奔驰文化中心6楼603号(近上南路)"},{"poiid":"B2094750D66CA7F9449E","title":"月亮船","lon":"121.496009","lat":"31.188825","category":"500","category_name":"未知分类","address":null},{"poiid":"B2094757DA6EA4F8459F","title":"世博场馆沙特阿拉伯馆","lon":"121.4958","lat":"31.188443","category":"252","category_name":"楼宇机构","address":"浦东新区博成路1221号(近高科西路口)"},{"poiid":"B2094751D56BA1F5479A","title":"世博源(The River Mall)","lon":"121.491795","lat":"31.187409","category":"247","category_name":"餐饮美食","address":"浦东新区世博大道1368号(近中华艺术宫)"},{"poiid":"B2094752DB6AA3FB489A","title":"银乐迪","lon":"121.492111","lat":"31.187576","category":"500","category_name":"未知分类","address":"上海市 世博大道1368号1G13(近上南路)"},{"poiid":"B2094757D06EAAF44099","title":"云台路地铁站","lon":"121.50042159","lat":"31.182326472","category":"36","category_name":"地铁站","address":"上海轨道交通 七号线 轨交云台路站 7"},{"poiid":"B2094751DA68ABFA459D","title":"世博源王鼎日本料理","lon":"121.491779","lat":"31.187822","category":"247","category_name":"餐饮美食","address":"世博源"},{"poiid":"B2094751D464A7F9499C","title":"梅赛德斯文化中心","lon":"121.492462","lat":"31.188721","category":"500","category_name":"未知分类","address":"上海浦东"},{"poiid":"B2094757D06BA0F94599","title":"7号线耀华路","lon":"121.499637738","lat":"31.1832632999","category":"500","category_name":"未知分类","address":"上海地铁七号线"},{"poiid":"B2094757D06FA4FE4698","title":"味千拉面(世博文化中心店)","lon":"121.49320902","lat":"31.188971979","category":"68","category_name":"快餐厅","address":"浦东新区世博大道1200号B1层B101-103号"},{"poiid":"B2094757D06FA1F54292","title":"世博会世博轴","lon":"121.49265997","lat":"31.183181722","category":"260","category_name":"其他","address":"上海浦东新区上南路周家渡路间(原上海世博会A/B片区交汇处)"},{"poiid":"B2094757D068A3F94492","title":"世博会阿联酋馆","lon":"121.49784","lat":"31.18622","category":"260","category_name":"其他","address":"上海浦东新区国展路近云台路(原上海世博会A片区)"},{"poiid":"B2094757D069A0FF4298","title":"乐町Rakumachi 日本料理","lon":"121.49200542","lat":"31.187594186","category":"500","category_name":"未知分类","address":"上海浦东世博大道1200号世博文化中心6楼605"},{"poiid":"B2094751DA6FA7F44093","title":"麝香猫咖啡世博店","lon":"121.49202","lat":"31.18782","category":"247","category_name":"餐饮美食","address":"浦东新区浦东南路3588号世博源购物中心LM楼1LM06室"},{"poiid":"B2094757D068ABF84899","title":"世博庆典广场","lon":"121.49148323","lat":"31.188546226","category":"201","category_name":"城市广场","address":"原上海世博会世博园世博轴北面(近黄浦江畔)"},{"poiid":"B2094757D16DA5FA4398","title":"浦东新区社保中心","lon":"121.500264738","lat":"31.1834623041","category":"500","category_name":"未知分类","address":"上海市浦东新区浦东南路云台路"},{"poiid":"B2094752D065A0FE449B","title":"王鼎日本料理铁板烧","lon":"121.492686","lat":"31.189287","category":"247","category_name":"餐饮美食","address":"世博大道1368号世博源1LM03-04号铺(近梅赛德斯奔驰文化中心西门)"},{"poiid":"B2094751D26FA2F54699","title":"上海地铁8号线中华艺术宫站","lon":"121.49370496826168","lat":"31.184915300620595","category":"36","category_name":"地铁站","address":"浦东新区上南路近博成路"},{"poiid":"B2094654DA68A6FA4993","title":"浦东长途汽车客运总站","lon":"121.50264","lat":"31.18449","category":"35","category_name":"长途汽车站","address":"浦东新区浦东南路3843号(近莲南路)"},{"poiid":"B2094751DA69A7F44992","title":"王鼎","lon":"121.492645","lat":"31.189255","category":"247","category_name":"餐饮美食","address":"浦东新区世博大道1368号世博源1LM03-04号铺(近梅赛德斯奔驰文化中心西门)"},{"poiid":"B2094757D06BA5FA439C","title":"高科西路","lon":"121.50241873","lat":"31.183264299","category":"260","category_name":"其他","address":"上海高科西路"},{"poiid":"B2094757D168A4FB479A","title":"海逸酒家","lon":"121.497772217","lat":"31.1877937317","category":"247","category_name":"餐饮美食","address":"浦东新区世博大道1200号世博文化中心6楼"},{"poiid":"B2094757D069A7F9429B","title":"世博大道","lon":"121.49357258","lat":"31.183651909","category":"260","category_name":"其他","address":"上海世博园"},{"poiid":"B2094752D669A5F54993","title":"梅赛德斯奔驰文化中心","lon":"121.499021","lat":"31.186684","category":"500","category_name":"未知分类","address":null},{"poiid":"B2094750DA64ABFE4493","title":"上海世博园沙特馆","lon":"121.495628","lat":"31.188323","category":"500","category_name":"未知分类","address":null},{"poiid":"B2094757D065A5FD4698","title":"上海协和双语学校(浦东校区) Shanghai United Bilingual School Pudong Campus","lon":"121.49784038","lat":"31.18314481","category":"55","category_name":"中学","address":"浦东新区雪野路48号(近云台路)"},{"poiid":"B2094750D66CAAFD4792","title":"上海东方体育中心","lon":"121.494178","lat":"31.185503","category":"500","category_name":"未知分类","address":null},{"poiid":"B2094750DB6AA7F5439D","title":"上海新国际博览中心","lon":"121.493598","lat":"31.189872","category":"500","category_name":"未知分类","address":"浦东新区龙阳路2345号"},{"poiid":"B2094757D068A5FD409B","title":"雪野二村","lon":"121.49775","lat":"31.182205","category":"47","category_name":"住宅区","address":"上海浦东新区浦东南路4800弄(雪野路34弄)"},{"poiid":"B2094654DA68A6FA429A","title":"雪野家园","lon":"121.49998","lat":"31.18418","category":"47","category_name":"住宅区","address":"上海浦东新区浦东南路4200-4250弄(近云台路)"},{"poiid":"B2094655D26EA5FC4198","title":"星巴克(中融店)","lon":"121.5019","lat":"31.18414","category":"65","category_name":"咖啡厅","address":"浦东新区浦东南路1068号中融国际商城1楼"},{"poiid":"B209475CD76DA6F9419B","title":"世博源","lon":"121.496467","lat":"31.187179","category":"500","category_name":"未知分类","address":"上海市 浦东世博源"},{"poiid":"B2094757D16DA3FF4899","title":"浦东南路","lon":"121.49919246","lat":"31.186612791","category":"500","category_name":"未知分类","address":"上海浦东南路"},{"poiid":"B2094751DA69A0F44198","title":"第一八佰伴","lon":"121.4987051559967","lat":"31.18380815258452","category":"247","category_name":"餐饮美食","address":"上海浦东张扬路501号第一八佰伴9楼"},{"poiid":"B2094752DB6DA3FB429B","title":"梅德赛斯奔驰文化中心","lon":"121.493049","lat":"31.188869","category":"500","category_name":"未知分类","address":"上海市 世博大道"},{"poiid":"B2094753D56DA1FF449B","title":"上海梅赛德斯奔驰文化中心","lon":"121.496444","lat":"31.187229","category":"500","category_name":"未知分类","address":"上海市 上海"},{"poiid":"B2094752D664A4F9449A","title":"广潮味","lon":"121.491635","lat":"31.187727","category":"247","category_name":"餐饮美食","address":"世博源"},{"poiid":"B2094757D16EA2FB439E","title":"浦东南路云台路路口","lon":"121.50020073","lat":"31.181478261","category":"500","category_name":"未知分类","address":"上海市浦东新区浦东南路"},{"poiid":"B2094655D265A1FF469F","title":"中国国家馆下沉广场","lon":"121.49467","lat":"31.18577","category":"183","category_name":"展览馆","address":"上海世博园区"},{"poiid":"B2094655D268A6F8409D","title":"上海世博会浦东临时场馆及配套设施项目A片区","lon":"121.49526","lat":"31.18758","category":"46","category_name":"楼宇","address":""},{"poiid":"B2094753D569ABFD489B","title":"上海梅塞德斯奔驰文化中心","lon":"121.494567","lat":"31.188966","category":"500","category_name":"未知分类","address":"上海市 上海"},{"poiid":"B2094757D164A5F94299","title":"乐町","lon":"121.49369173","lat":"31.189618435","category":"95","category_name":"日本料理","address":"浦东新区世博大道1200号世博文化中心6楼605室(近中国馆)"},{"poiid":"B2094752D36DA4F4469B","title":"奔驰梅赛德斯文化中心","lon":"121.491959","lat":"31.187866","category":"500","category_name":"未知分类","address":"世博源公馆"},{"poiid":"B2094757D064ABFB4392","title":"梅赛德斯奔驰文化中心音乐俱乐部","lon":"121.495735738","lat":"31.1882344057","category":"500","category_name":"未知分类","address":"上海世博大道1200号西门一层"},{"poiid":"B2094655D268A3FF4498","title":"世博园区中国馆","lon":"121.49475","lat":"31.18453","category":"183","category_name":"展览馆","address":""},{"poiid":"B2094655D268A3FF449E","title":"世博演艺中心","lon":"121.494","lat":"31.18899","category":"180","category_name":"剧场","address":"上海市浦东新区世博大道"},{"poiid":"B2094750D365A4F5489C","title":"中华艺术宫","lon":"121.494338","lat":"31.183723","category":"248","category_name":"生活娱乐","address":"国展路云台路口（原中国国家馆）"},{"poiid":"B2094757D06EAAF9409C","title":"世博会中国国家馆","lon":"121.494923671","lat":"31.184639805","category":"260","category_name":"其他","address":"上海浦东新区国展路云台路口(原上海世博会A片区)"},{"poiid":"B2094750D365ABFA4392","title":"梅赛得斯-奔驰文化中心","lon":"121.493125","lat":"31.189492","category":"500","category_name":"未知分类","address":"世博大道1200号"},{"poiid":"B2094757D06FA2FE4092","title":"世纪星滑冰俱乐部(Century Star Rink)","lon":"121.49329056","lat":"31.18833552","category":"260","category_name":"其他","address":"浦东新区世博大道1200号梅赛德斯奔驰文化中心B1楼"},{"poiid":"B2094757DA6EA6FE489C","title":"望湘园(世博店)","lon":"121.4943","lat":"31.18886","category":"77","category_name":"湖南菜","address":"浦东新区世博大道1200号梅赛德斯奔驰文化中心6楼603号(近上南路)"},{"poiid":"B2094750D66CA7F9449E","title":"月亮船","lon":"121.496009","lat":"31.188825","category":"500","category_name":"未知分类","address":null},{"poiid":"B2094757DA6EA4F8459F","title":"世博场馆沙特阿拉伯馆","lon":"121.4958","lat":"31.188443","category":"252","category_name":"楼宇机构","address":"浦东新区博成路1221号(近高科西路口)"},{"poiid":"B2094751D56BA1F5479A","title":"世博源(The River Mall)","lon":"121.491795","lat":"31.187409","category":"247","category_name":"餐饮美食","address":"浦东新区世博大道1368号(近中华艺术宫)"},{"poiid":"B2094752DB6AA3FB489A","title":"银乐迪","lon":"121.492111","lat":"31.187576","category":"500","category_name":"未知分类","address":"上海市 世博大道1368号1G13(近上南路)"},{"poiid":"B2094757D06EAAF44099","title":"云台路地铁站","lon":"121.50042159","lat":"31.182326472","category":"36","category_name":"地铁站","address":"上海轨道交通 七号线 轨交云台路站 7"},{"poiid":"B2094751DA68ABFA459D","title":"世博源王鼎日本料理","lon":"121.491779","lat":"31.187822","category":"247","category_name":"餐饮美食","address":"世博源"},{"poiid":"B2094751D464A7F9499C","title":"梅赛德斯文化中心","lon":"121.492462","lat":"31.188721","category":"500","category_name":"未知分类","address":"上海浦东"},{"poiid":"B2094757D06BA0F94599","title":"7号线耀华路","lon":"121.499637738","lat":"31.1832632999","category":"500","category_name":"未知分类","address":"上海地铁七号线"},{"poiid":"B2094757D06FA4FE4698","title":"味千拉面(世博文化中心店)","lon":"121.49320902","lat":"31.188971979","category":"68","category_name":"快餐厅","address":"浦东新区世博大道1200号B1层B101-103号"},{"poiid":"B2094757D06FA1F54292","title":"世博会世博轴","lon":"121.49265997","lat":"31.183181722","category":"260","category_name":"其他","address":"上海浦东新区上南路周家渡路间(原上海世博会A/B片区交汇处)"},{"poiid":"B2094757D068A3F94492","title":"世博会阿联酋馆","lon":"121.49784","lat":"31.18622","category":"260","category_name":"其他","address":"上海浦东新区国展路近云台路(原上海世博会A片区)"},{"poiid":"B2094757D069A0FF4298","title":"乐町Rakumachi 日本料理","lon":"121.49200542","lat":"31.187594186","category":"500","category_name":"未知分类","address":"上海浦东世博大道1200号世博文化中心6楼605"},{"poiid":"B2094751DA6FA7F44093","title":"麝香猫咖啡世博店","lon":"121.49202","lat":"31.18782","category":"247","category_name":"餐饮美食","address":"浦东新区浦东南路3588号世博源购物中心LM楼1LM06室"},{"poiid":"B2094757D068ABF84899","title":"世博庆典广场","lon":"121.49148323","lat":"31.188546226","category":"201","category_name":"城市广场","address":"原上海世博会世博园世博轴北面(近黄浦江畔)"},{"poiid":"B2094757D16DA5FA4398","title":"浦东新区社保中心","lon":"121.500264738","lat":"31.1834623041","category":"500","category_name":"未知分类","address":"上海市浦东新区浦东南路云台路"},{"poiid":"B2094752D065A0FE449B","title":"王鼎日本料理铁板烧","lon":"121.492686","lat":"31.189287","category":"247","category_name":"餐饮美食","address":"世博大道1368号世博源1LM03-04号铺(近梅赛德斯奔驰文化中心西门)"},{"poiid":"B2094751D26FA2F54699","title":"上海地铁8号线中华艺术宫站","lon":"121.49370496826168","lat":"31.184915300620595","category":"36","category_name":"地铁站","address":"浦东新区上南路近博成路"},{"poiid":"B2094654DA68A6FA4993","title":"浦东长途汽车客运总站","lon":"121.50264","lat":"31.18449","category":"35","category_name":"长途汽车站","address":"浦东新区浦东南路3843号(近莲南路)"},{"poiid":"B2094751DA69A7F44992","title":"王鼎","lon":"121.492645","lat":"31.189255","category":"247","category_name":"餐饮美食","address":"浦东新区世博大道1368号世博源1LM03-04号铺(近梅赛德斯奔驰文化中心西门)"},{"poiid":"B2094757D06BA5FA439C","title":"高科西路","lon":"121.50241873","lat":"31.183264299","category":"260","category_name":"其他","address":"上海高科西路"},{"poiid":"B2094757D168A4FB479A","title":"海逸酒家","lon":"121.497772217","lat":"31.1877937317","category":"247","category_name":"餐饮美食","address":"浦东新区世博大道1200号世博文化中心6楼"},{"poiid":"B2094757D069A7F9429B","title":"世博大道","lon":"121.49357258","lat":"31.183651909","category":"260","category_name":"其他","address":"上海世博园"},{"poiid":"B2094752D669A5F54993","title":"梅赛德斯奔驰文化中心","lon":"121.499021","lat":"31.186684","category":"500","category_name":"未知分类","address":null},{"poiid":"B2094750DA64ABFE4493","title":"上海世博园沙特馆","lon":"121.495628","lat":"31.188323","category":"500","category_name":"未知分类","address":null},{"poiid":"B2094757D065A5FD4698","title":"上海协和双语学校(浦东校区) Shanghai United Bilingual School Pudong Campus","lon":"121.49784038","lat":"31.18314481","category":"55","category_name":"中学","address":"浦东新区雪野路48号(近云台路)"},{"poiid":"B2094750D66CAAFD4792","title":"上海东方体育中心","lon":"121.494178","lat":"31.185503","category":"500","category_name":"未知分类","address":null},{"poiid":"B2094750DB6AA7F5439D","title":"上海新国际博览中心","lon":"121.493598","lat":"31.189872","category":"500","category_name":"未知分类","address":"浦东新区龙阳路2345号"},{"poiid":"B2094757D068A5FD409B","title":"雪野二村","lon":"121.49775","lat":"31.182205","category":"47","category_name":"住宅区","address":"上海浦东新区浦东南路4800弄(雪野路34弄)"},{"poiid":"B2094654DA68A6FA429A","title":"雪野家园","lon":"121.49998","lat":"31.18418","category":"47","category_name":"住宅区","address":"上海浦东新区浦东南路4200-4250弄(近云台路)"},{"poiid":"B2094655D26EA5FC4198","title":"星巴克(中融店)","lon":"121.5019","lat":"31.18414","category":"65","category_name":"咖啡厅","address":"浦东新区浦东南路1068号中融国际商城1楼"},{"poiid":"B209475CD76DA6F9419B","title":"世博源","lon":"121.496467","lat":"31.187179","category":"500","category_name":"未知分类","address":"上海市 浦东世博源"},{"poiid":"B2094757D16DA3FF4899","title":"浦东南路","lon":"121.49919246","lat":"31.186612791","category":"500","category_name":"未知分类","address":"上海浦东南路"},{"poiid":"B2094751DA69A0F44198","title":"第一八佰伴","lon":"121.4987051559967","lat":"31.18380815258452","category":"247","category_name":"餐饮美食","address":"上海浦东张扬路501号第一八佰伴9楼"},{"poiid":"B2094752DB6DA3FB429B","title":"梅德赛斯奔驰文化中心","lon":"121.493049","lat":"31.188869","category":"500","category_name":"未知分类","address":"上海市 世博大道"},{"poiid":"B2094753D56DA1FF449B","title":"上海梅赛德斯奔驰文化中心","lon":"121.496444","lat":"31.187229","category":"500","category_name":"未知分类","address":"上海市 上海"},{"poiid":"B2094752D664A4F9449A","title":"广潮味","lon":"121.491635","lat":"31.187727","category":"247","category_name":"餐饮美食","address":"世博源"},{"poiid":"B2094757D16EA2FB439E","title":"浦东南路云台路路口","lon":"121.50020073","lat":"31.181478261","category":"500","category_name":"未知分类","address":"上海市浦东新区浦东南路"},{"poiid":"B2094655D265A1FF469F","title":"中国国家馆下沉广场","lon":"121.49467","lat":"31.18577","category":"183","category_name":"展览馆","address":"上海世博园区"},{"poiid":"B2094655D268A6F8409D","title":"上海世博会浦东临时场馆及配套设施项目A片区","lon":"121.49526","lat":"31.18758","category":"46","category_name":"楼宇","address":""},{"poiid":"B2094753D569ABFD489B","title":"上海梅塞德斯奔驰文化中心","lon":"121.494567","lat":"31.188966","category":"500","category_name":"未知分类","address":"上海市 上海"},{"poiid":"B2094757D164A5F94299","title":"乐町","lon":"121.49369173","lat":"31.189618435","category":"95","category_name":"日本料理","address":"浦东新区世博大道1200号世博文化中心6楼605室(近中国馆)"},{"poiid":"B2094752D36DA4F4469B","title":"奔驰梅赛德斯文化中心","lon":"121.491959","lat":"31.187866","category":"500","category_name":"未知分类","address":"世博源公馆"},{"poiid":"B2094757D064ABFB4392","title":"梅赛德斯奔驰文化中心音乐俱乐部","lon":"121.495735738","lat":"31.1882344057","category":"500","category_name":"未知分类","address":"上海世博大道1200号西门一层"},{"poiid":"B2094655D268A3FF4498","title":"世博园区中国馆","lon":"121.49475","lat":"31.18453","category":"183","category_name":"展览馆","address":""},{"poiid":"B2094655D268A3FF449E","title":"世博演艺中心","lon":"121.494","lat":"31.18899","category":"180","category_name":"剧场","address":"上海市浦东新区世博大道"},{"poiid":"B2094750D365A4F5489C","title":"中华艺术宫","lon":"121.494338","lat":"31.183723","category":"248","category_name":"生活娱乐","address":"国展路云台路口（原中国国家馆）"},{"poiid":"B2094757D06EAAF9409C","title":"世博会中国国家馆","lon":"121.494923671","lat":"31.184639805","category":"260","category_name":"其他","address":"上海浦东新区国展路云台路口(原上海世博会A片区)"},{"poiid":"B2094750D365ABFA4392","title":"梅赛得斯-奔驰文化中心","lon":"121.493125","lat":"31.189492","category":"500","category_name":"未知分类","address":"世博大道1200号"},{"poiid":"B2094757D06FA2FE4092","title":"世纪星滑冰俱乐部(Century Star Rink)","lon":"121.49329056","lat":"31.18833552","category":"260","category_name":"其他","address":"浦东新区世博大道1200号梅赛德斯奔驰文化中心B1楼"},{"poiid":"B2094757DA6EA6FE489C","title":"望湘园(世博店)","lon":"121.4943","lat":"31.18886","category":"77","category_name":"湖南菜","address":"浦东新区世博大道1200号梅赛德斯奔驰文化中心6楼603号(近上南路)"},{"poiid":"B2094750D66CA7F9449E","title":"月亮船","lon":"121.496009","lat":"31.188825","category":"500","category_name":"未知分类","address":null},{"poiid":"B2094757DA6EA4F8459F","title":"世博场馆沙特阿拉伯馆","lon":"121.4958","lat":"31.188443","category":"252","category_name":"楼宇机构","address":"浦东新区博成路1221号(近高科西路口)"},{"poiid":"B2094751D56BA1F5479A","title":"世博源(The River Mall)","lon":"121.491795","lat":"31.187409","category":"247","category_name":"餐饮美食","address":"浦东新区世博大道1368号(近中华艺术宫)"},{"poiid":"B2094752DB6AA3FB489A","title":"银乐迪","lon":"121.492111","lat":"31.187576","category":"500","category_name":"未知分类","address":"上海市 世博大道1368号1G13(近上南路)"},{"poiid":"B2094757D06EAAF44099","title":"云台路地铁站","lon":"121.50042159","lat":"31.182326472","category":"36","category_name":"地铁站","address":"上海轨道交通 七号线 轨交云台路站 7"},{"poiid":"B2094751DA68ABFA459D","title":"世博源王鼎日本料理","lon":"121.491779","lat":"31.187822","category":"247","category_name":"餐饮美食","address":"世博源"},{"poiid":"B2094751D464A7F9499C","title":"梅赛德斯文化中心","lon":"121.492462","lat":"31.188721","category":"500","category_name":"未知分类","address":"上海浦东"},{"poiid":"B2094757D06BA0F94599","title":"7号线耀华路","lon":"121.499637738","lat":"31.1832632999","category":"500","category_name":"未知分类","address":"上海地铁七号线"},{"poiid":"B2094757D06FA4FE4698","title":"味千拉面(世博文化中心店)","lon":"121.49320902","lat":"31.188971979","category":"68","category_name":"快餐厅","address":"浦东新区世博大道1200号B1层B101-103号"},{"poiid":"B2094757D06FA1F54292","title":"世博会世博轴","lon":"121.49265997","lat":"31.183181722","category":"260","category_name":"其他","address":"上海浦东新区上南路周家渡路间(原上海世博会A/B片区交汇处)"},{"poiid":"B2094757D068A3F94492","title":"世博会阿联酋馆","lon":"121.49784","lat":"31.18622","category":"260","category_name":"其他","address":"上海浦东新区国展路近云台路(原上海世博会A片区)"},{"poiid":"B2094757D069A0FF4298","title":"乐町Rakumachi 日本料理","lon":"121.49200542","lat":"31.187594186","category":"500","category_name":"未知分类","address":"上海浦东世博大道1200号世博文化中心6楼605"},{"poiid":"B2094751DA6FA7F44093","title":"麝香猫咖啡世博店","lon":"121.49202","lat":"31.18782","category":"247","category_name":"餐饮美食","address":"浦东新区浦东南路3588号世博源购物中心LM楼1LM06室"},{"poiid":"B2094757D068ABF84899","title":"世博庆典广场","lon":"121.49148323","lat":"31.188546226","category":"201","category_name":"城市广场","address":"原上海世博会世博园世博轴北面(近黄浦江畔)"},{"poiid":"B2094757D16DA5FA4398","title":"浦东新区社保中心","lon":"121.500264738","lat":"31.1834623041","category":"500","category_name":"未知分类","address":"上海市浦东新区浦东南路云台路"},{"poiid":"B2094752D065A0FE449B","title":"王鼎日本料理铁板烧","lon":"121.492686","lat":"31.189287","category":"247","category_name":"餐饮美食","address":"世博大道1368号世博源1LM03-04号铺(近梅赛德斯奔驰文化中心西门)"},{"poiid":"B2094751D26FA2F54699","title":"上海地铁8号线中华艺术宫站","lon":"121.49370496826168","lat":"31.184915300620595","category":"36","category_name":"地铁站","address":"浦东新区上南路近博成路"},{"poiid":"B2094654DA68A6FA4993","title":"浦东长途汽车客运总站","lon":"121.50264","lat":"31.18449","category":"35","category_name":"长途汽车站","address":"浦东新区浦东南路3843号(近莲南路)"},{"poiid":"B2094751DA69A7F44992","title":"王鼎","lon":"121.492645","lat":"31.189255","category":"247","category_name":"餐饮美食","address":"浦东新区世博大道1368号世博源1LM03-04号铺(近梅赛德斯奔驰文化中心西门)"},{"poiid":"B2094757D06BA5FA439C","title":"高科西路","lon":"121.50241873","lat":"31.183264299","category":"260","category_name":"其他","address":"上海高科西路"},{"poiid":"B2094757D168A4FB479A","title":"海逸酒家","lon":"121.497772217","lat":"31.1877937317","category":"247","category_name":"餐饮美食","address":"浦东新区世博大道1200号世博文化中心6楼"},{"poiid":"B2094757D069A7F9429B","title":"世博大道","lon":"121.49357258","lat":"31.183651909","category":"260","category_name":"其他","address":"上海世博园"},{"poiid":"B2094752D669A5F54993","title":"梅赛德斯奔驰文化中心","lon":"121.499021","lat":"31.186684","category":"500","category_name":"未知分类","address":null},{"poiid":"B2094750DA64ABFE4493","title":"上海世博园沙特馆","lon":"121.495628","lat":"31.188323","category":"500","category_name":"未知分类","address":null},{"poiid":"B2094757D065A5FD4698","title":"上海协和双语学校(浦东校区) Shanghai United Bilingual School Pudong Campus","lon":"121.49784038","lat":"31.18314481","category":"55","category_name":"中学","address":"浦东新区雪野路48号(近云台路)"},{"poiid":"B2094750D66CAAFD4792","title":"上海东方体育中心","lon":"121.494178","lat":"31.185503","category":"500","category_name":"未知分类","address":null},{"poiid":"B2094750DB6AA7F5439D","title":"上海新国际博览中心","lon":"121.493598","lat":"31.189872","category":"500","category_name":"未知分类","address":"浦东新区龙阳路2345号"},{"poiid":"B2094757D068A5FD409B","title":"雪野二村","lon":"121.49775","lat":"31.182205","category":"47","category_name":"住宅区","address":"上海浦东新区浦东南路4800弄(雪野路34弄)"},{"poiid":"B2094654DA68A6FA429A","title":"雪野家园","lon":"121.49998","lat":"31.18418","category":"47","category_name":"住宅区","address":"上海浦东新区浦东南路4200-4250弄(近云台路)"},{"poiid":"B2094655D26EA5FC4198","title":"星巴克(中融店)","lon":"121.5019","lat":"31.18414","category":"65","category_name":"咖啡厅","address":"浦东新区浦东南路1068号中融国际商城1楼"},{"poiid":"B209475CD76DA6F9419B","title":"世博源","lon":"121.496467","lat":"31.187179","category":"500","category_name":"未知分类","address":"上海市 浦东世博源"},{"poiid":"B2094757D16DA3FF4899","title":"浦东南路","lon":"121.49919246","lat":"31.186612791","category":"500","category_name":"未知分类","address":"上海浦东南路"},{"poiid":"B2094751DA69A0F44198","title":"第一八佰伴","lon":"121.4987051559967","lat":"31.18380815258452","category":"247","category_name":"餐饮美食","address":"上海浦东张扬路501号第一八佰伴9楼"},{"poiid":"B2094752DB6DA3FB429B","title":"梅德赛斯奔驰文化中心","lon":"121.493049","lat":"31.188869","category":"500","category_name":"未知分类","address":"上海市 世博大道"},{"poiid":"B2094753D56DA1FF449B","title":"上海梅赛德斯奔驰文化中心","lon":"121.496444","lat":"31.187229","category":"500","category_name":"未知分类","address":"上海市 上海"},{"poiid":"B2094752D664A4F9449A","title":"广潮味","lon":"121.491635","lat":"31.187727","category":"247","category_name":"餐饮美食","address":"世博源"},{"poiid":"B2094757D16EA2FB439E","title":"浦东南路云台路路口","lon":"121.50020073","lat":"31.181478261","category":"500","category_name":"未知分类","address":"上海市浦东新区浦东南路"},{"poiid":"B2094655D265A1FF469F","title":"中国国家馆下沉广场","lon":"121.49467","lat":"31.18577","category":"183","category_name":"展览馆","address":"上海世博园区"},{"poiid":"B2094655D268A6F8409D","title":"上海世博会浦东临时场馆及配套设施项目A片区","lon":"121.49526","lat":"31.18758","category":"46","category_name":"楼宇","address":""},{"poiid":"B2094753D569ABFD489B","title":"上海梅塞德斯奔驰文化中心","lon":"121.494567","lat":"31.188966","category":"500","category_name":"未知分类","address":"上海市 上海"},{"poiid":"B2094757D164A5F94299","title":"乐町","lon":"121.49369173","lat":"31.189618435","category":"95","category_name":"日本料理","address":"浦东新区世博大道1200号世博文化中心6楼605室(近中国馆)"},{"poiid":"B2094752D36DA4F4469B","title":"奔驰梅赛德斯文化中心","lon":"121.491959","lat":"31.187866","category":"500","category_name":"未知分类","address":"世博源公馆"},{"poiid":"B2094757D064ABFB4392","title":"梅赛德斯奔驰文化中心音乐俱乐部","lon":"121.495735738","lat":"31.1882344057","category":"500","category_name":"未知分类","address":"上海世博大道1200号西门一层"},{"poiid":"B2094655D268A3FF4498","title":"世博园区中国馆","lon":"121.49475","lat":"31.18453","category":"183","category_name":"展览馆","address":""},{"poiid":"B2094655D268A3FF449E","title":"世博演艺中心","lon":"121.494","lat":"31.18899","category":"180","category_name":"剧场","address":"上海市浦东新区世博大道"},{"poiid":"B2094750D365A4F5489C","title":"中华艺术宫","lon":"121.494338","lat":"31.183723","category":"248","category_name":"生活娱乐","address":"国展路云台路口（原中国国家馆）"},{"poiid":"B2094757D06EAAF9409C","title":"世博会中国国家馆","lon":"121.494923671","lat":"31.184639805","category":"260","category_name":"其他","address":"上海浦东新区国展路云台路口(原上海世博会A片区)"},{"poiid":"B2094750D365ABFA4392","title":"梅赛得斯-奔驰文化中心","lon":"121.493125","lat":"31.189492","category":"500","category_name":"未知分类","address":"世博大道1200号"},{"poiid":"B2094757D06FA2FE4092","title":"世纪星滑冰俱乐部(Century Star Rink)","lon":"121.49329056","lat":"31.18833552","category":"260","category_name":"其他","address":"浦东新区世博大道1200号梅赛德斯奔驰文化中心B1楼"},{"poiid":"B2094757DA6EA6FE489C","title":"望湘园(世博店)","lon":"121.4943","lat":"31.18886","category":"77","category_name":"湖南菜","address":"浦东新区世博大道1200号梅赛德斯奔驰文化中心6楼603号(近上南路)"},{"poiid":"B2094750D66CA7F9449E","title":"月亮船","lon":"121.496009","lat":"31.188825","category":"500","category_name":"未知分类","address":null},{"poiid":"B2094757DA6EA4F8459F","title":"世博场馆沙特阿拉伯馆","lon":"121.4958","lat":"31.188443","category":"252","category_name":"楼宇机构","address":"浦东新区博成路1221号(近高科西路口)"},{"poiid":"B2094751D56BA1F5479A","title":"世博源(The River Mall)","lon":"121.491795","lat":"31.187409","category":"247","category_name":"餐饮美食","address":"浦东新区世博大道1368号(近中华艺术宫)"},{"poiid":"B2094752DB6AA3FB489A","title":"银乐迪","lon":"121.492111","lat":"31.187576","category":"500","category_name":"未知分类","address":"上海市 世博大道1368号1G13(近上南路)"},{"poiid":"B2094757D06EAAF44099","title":"云台路地铁站","lon":"121.50042159","lat":"31.182326472","category":"36","category_name":"地铁站","address":"上海轨道交通 七号线 轨交云台路站 7"},{"poiid":"B2094751DA68ABFA459D","title":"世博源王鼎日本料理","lon":"121.491779","lat":"31.187822","category":"247","category_name":"餐饮美食","address":"世博源"},{"poiid":"B2094751D464A7F9499C","title":"梅赛德斯文化中心","lon":"121.492462","lat":"31.188721","category":"500","category_name":"未知分类","address":"上海浦东"},{"poiid":"B2094757D06BA0F94599","title":"7号线耀华路","lon":"121.499637738","lat":"31.1832632999","category":"500","category_name":"未知分类","address":"上海地铁七号线"},{"poiid":"B2094757D06FA4FE4698","title":"味千拉面(世博文化中心店)","lon":"121.49320902","lat":"31.188971979","category":"68","category_name":"快餐厅","address":"浦东新区世博大道1200号B1层B101-103号"},{"poiid":"B2094757D06FA1F54292","title":"世博会世博轴","lon":"121.49265997","lat":"31.183181722","category":"260","category_name":"其他","address":"上海浦东新区上南路周家渡路间(原上海世博会A/B片区交汇处)"},{"poiid":"B2094757D068A3F94492","title":"世博会阿联酋馆","lon":"121.49784","lat":"31.18622","category":"260","category_name":"其他","address":"上海浦东新区国展路近云台路(原上海世博会A片区)"},{"poiid":"B2094757D069A0FF4298","title":"乐町Rakumachi 日本料理","lon":"121.49200542","lat":"31.187594186","category":"500","category_name":"未知分类","address":"上海浦东世博大道1200号世博文化中心6楼605"},{"poiid":"B2094751DA6FA7F44093","title":"麝香猫咖啡世博店","lon":"121.49202","lat":"31.18782","category":"247","category_name":"餐饮美食","address":"浦东新区浦东南路3588号世博源购物中心LM楼1LM06室"},{"poiid":"B2094757D068ABF84899","title":"世博庆典广场","lon":"121.49148323","lat":"31.188546226","category":"201","category_name":"城市广场","address":"原上海世博会世博园世博轴北面(近黄浦江畔)"},{"poiid":"B2094757D16DA5FA4398","title":"浦东新区社保中心","lon":"121.500264738","lat":"31.1834623041","category":"500","category_name":"未知分类","address":"上海市浦东新区浦东南路云台路"},{"poiid":"B2094752D065A0FE449B","title":"王鼎日本料理铁板烧","lon":"121.492686","lat":"31.189287","category":"247","category_name":"餐饮美食","address":"世博大道1368号世博源1LM03-04号铺(近梅赛德斯奔驰文化中心西门)"},{"poiid":"B2094751D26FA2F54699","title":"上海地铁8号线中华艺术宫站","lon":"121.49370496826168","lat":"31.184915300620595","category":"36","category_name":"地铁站","address":"浦东新区上南路近博成路"},{"poiid":"B2094654DA68A6FA4993","title":"浦东长途汽车客运总站","lon":"121.50264","lat":"31.18449","category":"35","category_name":"长途汽车站","address":"浦东新区浦东南路3843号(近莲南路)"},{"poiid":"B2094751DA69A7F44992","title":"王鼎","lon":"121.492645","lat":"31.189255","category":"247","category_name":"餐饮美食","address":"浦东新区世博大道1368号世博源1LM03-04号铺(近梅赛德斯奔驰文化中心西门)"},{"poiid":"B2094757D06BA5FA439C","title":"高科西路","lon":"121.50241873","lat":"31.183264299","category":"260","category_name":"其他","address":"上海高科西路"},{"poiid":"B2094757D168A4FB479A","title":"海逸酒家","lon":"121.497772217","lat":"31.1877937317","category":"247","category_name":"餐饮美食","address":"浦东新区世博大道1200号世博文化中心6楼"},{"poiid":"B2094757D069A7F9429B","title":"世博大道","lon":"121.49357258","lat":"31.183651909","category":"260","category_name":"其他","address":"上海世博园"},{"poiid":"B2094752D669A5F54993","title":"梅赛德斯奔驰文化中心","lon":"121.499021","lat":"31.186684","category":"500","category_name":"未知分类","address":null},{"poiid":"B2094750DA64ABFE4493","title":"上海世博园沙特馆","lon":"121.495628","lat":"31.188323","category":"500","category_name":"未知分类","address":null},{"poiid":"B2094757D065A5FD4698","title":"上海协和双语学校(浦东校区) Shanghai United Bilingual School Pudong Campus","lon":"121.49784038","lat":"31.18314481","category":"55","category_name":"中学","address":"浦东新区雪野路48号(近云台路)"},{"poiid":"B2094750D66CAAFD4792","title":"上海东方体育中心","lon":"121.494178","lat":"31.185503","category":"500","category_name":"未知分类","address":null},{"poiid":"B2094750DB6AA7F5439D","title":"上海新国际博览中心","lon":"121.493598","lat":"31.189872","category":"500","category_name":"未知分类","address":"浦东新区龙阳路2345号"},{"poiid":"B2094757D068A5FD409B","title":"雪野二村","lon":"121.49775","lat":"31.182205","category":"47","category_name":"住宅区","address":"上海浦东新区浦东南路4800弄(雪野路34弄)"},{"poiid":"B2094654DA68A6FA429A","title":"雪野家园","lon":"121.49998","lat":"31.18418","category":"47","category_name":"住宅区","address":"上海浦东新区浦东南路4200-4250弄(近云台路)"},{"poiid":"B2094655D26EA5FC4198","title":"星巴克(中融店)","lon":"121.5019","lat":"31.18414","category":"65","category_name":"咖啡厅","address":"浦东新区浦东南路1068号中融国际商城1楼"},{"poiid":"B209475CD76DA6F9419B","title":"世博源","lon":"121.496467","lat":"31.187179","category":"500","category_name":"未知分类","address":"上海市 浦东世博源"},{"poiid":"B2094757D16DA3FF4899","title":"浦东南路","lon":"121.49919246","lat":"31.186612791","category":"500","category_name":"未知分类","address":"上海浦东南路"},{"poiid":"B2094751DA69A0F44198","title":"第一八佰伴","lon":"121.4987051559967","lat":"31.18380815258452","category":"247","category_name":"餐饮美食","address":"上海浦东张扬路501号第一八佰伴9楼"},{"poiid":"B2094752DB6DA3FB429B","title":"梅德赛斯奔驰文化中心","lon":"121.493049","lat":"31.188869","category":"500","category_name":"未知分类","address":"上海市 世博大道"},{"poiid":"B2094753D56DA1FF449B","title":"上海梅赛德斯奔驰文化中心","lon":"121.496444","lat":"31.187229","category":"500","category_name":"未知分类","address":"上海市 上海"},{"poiid":"B2094752D664A4F9449A","title":"广潮味","lon":"121.491635","lat":"31.187727","category":"247","category_name":"餐饮美食","address":"世博源"},{"poiid":"B2094757D16EA2FB439E","title":"浦东南路云台路路口","lon":"121.50020073","lat":"31.181478261","category":"500","category_name":"未知分类","address":"上海市浦东新区浦东南路"},{"poiid":"B2094655D265A1FF469F","title":"中国国家馆下沉广场","lon":"121.49467","lat":"31.18577","category":"183","category_name":"展览馆","address":"上海世博园区"},{"poiid":"B2094655D268A6F8409D","title":"上海世博会浦东临时场馆及配套设施项目A片区","lon":"121.49526","lat":"31.18758","category":"46","category_name":"楼宇","address":""},{"poiid":"B2094753D569ABFD489B","title":"上海梅塞德斯奔驰文化中心","lon":"121.494567","lat":"31.188966","category":"500","category_name":"未知分类","address":"上海市 上海"},{"poiid":"B2094757D164A5F94299","title":"乐町","lon":"121.49369173","lat":"31.189618435","category":"95","category_name":"日本料理","address":"浦东新区世博大道1200号世博文化中心6楼605室(近中国馆)"},{"poiid":"B2094752D36DA4F4469B","title":"奔驰梅赛德斯文化中心","lon":"121.491959","lat":"31.187866","category":"500","category_name":"未知分类","address":"世博源公馆"}]