[{"poiid":"B2094654DB65AAF94692","title":"万科假日风景","lon":"121.41139140717","lat":"31.110280687219","category":"47","category_name":"住宅区","address":"闵行区畹町路99弄178号"},{"poiid":"B2094757D06FA0F54599","title":"南方商城","lon":"121.40695985","lat":"31.119168745","category":"249","category_name":"购物服务","address":"上海市闵行区景彩路"},{"poiid":"B2094757D06FA7FA4298","title":"莲花南路","lon":"121.40647806","lat":"31.121321969","category":"47","category_name":"住宅区","address":"上海莲花南路"},{"poiid":"B2094757D06AA1FB489C","title":"高兴花园","lon":"121.41322775921","lat":"31.121081035008","category":"47","category_name":"住宅区","address":"上海市闵行区莘朱路879弄"},{"poiid":"B2094654DB6CA4FF459F","title":"春申景城-湖滨晨韵","lon":"121.41277","lat":"31.10846","category":"47","category_name":"住宅区","address":"莲花南路1111弄"},{"poiid":"B2094757D069A2FD419C","title":"恒隆大酒店(梅陇旗舰店)","lon":"121.42206","lat":"31.11158","category":"76","category_name":"上海菜","address":"上海闵行区春申路2105号(近虹梅南路)  "},{"poiid":"B2094757D06AAAFD479B","title":"天都火锅(虹梅店)","lon":"121.423830657","lat":"31.1236830363","category":"247","category_name":"餐饮美食","address":"上海虹梅南路1008号(莘朱路口)"},{"poiid":"B2094655D36DA7FA4899","title":"朱行","lon":"121.42371","lat":"31.1238","category":"38","category_name":"公交车站","address":""},{"poiid":"B2094757D06BA4FA479D","title":"坤儒体育篮球馆","lon":"121.415111686","lat":"31.1231101817","category":"220","category_name":"运动场所","address":"上海闵行区罗锦路211号(近龙里路)"},{"poiid":"B2094757D16FA2FB4092","title":"春申景城Mid-Town","lon":"121.410659333","lat":"31.1105397683","category":"47","category_name":"住宅区","address":"上海闵行区锦梅路1398弄"},{"poiid":"B2094655D26BA1FA449F","title":"梅富路春申路","lon":"121.41586","lat":"31.11173","category":"38","category_name":"公交车站","address":""},{"poiid":"B2094757D069A4FB4299","title":"COSTA春申店","lon":"121.412304","lat":"31.108947","category":"500","category_name":"未知分类","address":"上海莲花南路1111弄"},{"poiid":"B2094757D06FA5FF449D","title":"罗阳二村","lon":"121.41174","lat":"31.12117","category":"47","category_name":"住宅区","address":"上海闵行区罗锦路258弄"},{"poiid":"B2094757D569A2F4479A","title":"绿地春申花园二期","lon":"121.41391","lat":"31.117103","category":"47","category_name":"住宅区","address":"上海市闵行区莲花南路988弄"},{"poiid":"B2094655D265A2FD469C","title":"新世界外国语进修学院","lon":"121.42154","lat":"31.12532","category":"53","category_name":"成人教育","address":"闵行区罗锦路25号新世界外国语进修学院内"},{"poiid":"B2094655D26DA0F8439D","title":"中梅苑","lon":"121.41572","lat":"31.12756","category":"47","category_name":"住宅区","address":"上海市闵行区上中西路855弄(近虹梅南路)"},{"poiid":"B2094655D36CA2FB449D","title":"森安苑","lon":"121.42169","lat":"31.118301","category":"38","category_name":"公交车站","address":"普乐路655弄"},{"poiid":"B2094654DA65A5F4459D","title":"罗阳一村","lon":"121.41155","lat":"31.123041","category":"47","category_name":"住宅区","address":"上海罗阳路258弄"},{"poiid":"B2094750D26FA7F9479B","title":"宜家","lon":"121.415435","lat":"31.116107","category":"249","category_name":"购物服务","address":"漕溪路"},{"poiid":"B2094757D06AA0FB499A","title":"虹梅佳苑","lon":"121.41901","lat":"31.121452","category":"47","category_name":"住宅区","address":"上海市闵行区莘朱路1688号"},{"poiid":"B2094654DB64A1FF4092","title":"陇兴别墅(西门)","lon":"121.41584","lat":"31.11572","category":"47","category_name":"住宅区","address":"梅富路628弄1-138号"},{"poiid":"B2094654DA65A5F44993","title":"乐巢家居时尚生活馆","lon":"121.41521","lat":"31.12009","category":"123","category_name":"家具建材市场","address":"莘朱路1258号"},{"poiid":"B2094655D26EAAF94392","title":"春馨苑","lon":"121.419479","lat":"31.119077","category":"47","category_name":"住宅区","address":"上海市闵行区锦梅路锦梅路1258弄"},{"poiid":"B2094757D568ABF44692","title":"昆仑好客","lon":"121.41320936","lat":"31.11828315","category":"117","category_name":"便民商店/便利店","address":"梅陇镇"},{"poiid":"B2094654DB6CA5FB4592","title":"上海锦衣多服饰有限公司","lon":"121.4145","lat":"31.11828","category":"263","category_name":"公司","address":""},{"poiid":"B2094655D26FA6FA4693","title":"陇兴别墅","lon":"121.422","lat":"31.1218","category":"47","category_name":"住宅区","address":"梅富路628弄1-138号"},{"poiid":"B2094655D36DA2F84493","title":"外环梅龙港桥","lon":"121.41852","lat":"31.11938","category":"250","category_name":"公园户外","address":""},{"poiid":"B2094654DA65A5F44693","title":"上海市罗阳中学","lon":"121.41311","lat":"31.12176","category":"55","category_name":"中学","address":"闵行区罗阳二村105号(近罗锦路)"},{"poiid":"B2094750D76FA5F9459B","title":"品粥鮮","lon":"121.42","lat":"31.1242","category":"72","category_name":"广东菜","address":"闵行区罗锦路69号(近虹梅南路)"},{"poiid":"B2094655D36CA0FD479B","title":"锦梅路梅富路","lon":"121.41603","lat":"31.11371","category":"38","category_name":"公交车站","address":""},{"poiid":"B2094655D265A6FF409B","title":"莘朱路1389弄65号工业园","lon":"121.41714","lat":"31.12173","category":"45","category_name":"产业园区","address":"莘朱路1389弄65号"},{"poiid":"B2094757D66CA2F54698","title":"中国石油梅莘加油站","lon":"121.41234795","lat":"31.11890954","category":"154","category_name":"加油加气站","address":"闵行区莘朱路1058号"},{"poiid":"B2094654DA65A5F4499D","title":"上海陇兴(集团)有限公司","lon":"121.41522","lat":"31.12009","category":"263","category_name":"公司","address":"莘朱路1258号"},{"poiid":"B2094654DA65A5F4479C","title":"罗锦苑","lon":"121.41624","lat":"31.123518","category":"47","category_name":"住宅区","address":"上海闵行区梅陇镇罗锦路111弄"},{"poiid":"B2094757D16AA3FF439F","title":"虚空风暴(风暴要塞)","lon":"121.41880385","lat":"31.121556793","category":"247","category_name":"餐饮美食","address":"上海天朝魔都外域虚空风暴东"},{"poiid":"B2094752D16BA2FD4492","title":"银点羽毛球馆","lon":"121.419243","lat":"31.115206","category":"248","category_name":"生活娱乐","address":"上海闵行区锦梅路818号"},{"poiid":"B2094757D164ABFC449F","title":"窩窩頭","lon":"121.41993385","lat":"31.120715776","category":"247","category_name":"餐饮美食","address":null},{"poiid":"B2094654DA65A5F5449D","title":"罗阳东四村","lon":"121.40928","lat":"31.120451","category":"47","category_name":"住宅区","address":"莲花南路565弄1-57号"},{"poiid":"B2094757D46BA1F9429F","title":"柒柒私房面","lon":"121.4100943","lat":"31.1209234","category":"68","category_name":"快餐厅","address":"闵行区景福路119号(近莲花南路)"},{"poiid":"B2094757D068A1F9489C","title":"莘朱路1760弄小区","lon":"121.41997985","lat":"31.122043803","category":"47","category_name":"住宅区","address":"上海市闵行区莘朱路1760弄2-96号"},{"poiid":"B2094757D06FABFA459E","title":"罗阳三村","lon":"121.40886","lat":"31.123457","category":"47","category_name":"住宅区","address":"上海闵行区莲花南路431弄"},{"poiid":"B2094757D164A1FF459D","title":"辣翻天麻辣烫","lon":"121.42104","lat":"31.11731","category":"68","category_name":"快餐厅","address":"闵行区锦梅路(近虹梅南路)"},{"poiid":"B2094757D169A1FA409F","title":"优麦时尚量贩式歌城","lon":"121.423388","lat":"31.123964","category":"170","category_name":"KTV","address":"上海闵行区虹梅南路1005号(苏宁电器3楼)"},{"poiid":"B2094757D568A6FE419C","title":"莫泰168(上海春申路店)","lon":"121.41854","lat":"31.111154","category":"216","category_name":"经济型连锁酒店","address":"上海市闵行区春申路2329号(近梅富路)"},{"poiid":"B2094655D264A0FE439E","title":"康诗丹郡二期","lon":"121.411886","lat":"31.113905","category":"47","category_name":"住宅区","address":"上海市闵行区春申路2688号"},{"poiid":"B2094654DA65A5F5429D","title":"朱行三村","lon":"121.42064","lat":"31.120609","category":"47","category_name":"住宅区","address":"莘朱路1760弄"},{"poiid":"B2094757D16DA4FC489D","title":"源梦苑","lon":"121.422412","lat":"31.113569","category":"252","category_name":"楼宇机构","address":"上海市闵行区虹梅南路215号"},{"poiid":"B2094655D26FA3FC459A","title":"春馨苑(南门)","lon":"121.41307","lat":"31.11309","category":"47","category_name":"住宅区","address":"锦梅路1258弄"},{"poiid":"B2094757D16FA5FA4398","title":"cocoro发型设计","lon":"121.41674515","lat":"31.122465411","category":"148","category_name":"美容美发店","address":"上海愚园路278号"},{"poiid":"B2094654DA65A5F54692","title":"恒德花苑","lon":"121.40777","lat":"31.1204","category":"47","category_name":"住宅区","address":"上海莲花南路565弄"},{"poiid":"B2094654DB65AAF94692","title":"万科假日风景","lon":"121.41139140717","lat":"31.110280687219","category":"47","category_name":"住宅区","address":"闵行区畹町路99弄178号"},{"poiid":"B2094757D06FA0F54599","title":"南方商城","lon":"121.40695985","lat":"31.119168745","category":"249","category_name":"购物服务","address":"上海市闵行区景彩路"},{"poiid":"B2094757D06FA7FA4298","title":"莲花南路","lon":"121.40647806","lat":"31.121321969","category":"47","category_name":"住宅区","address":"上海莲花南路"},{"poiid":"B2094757D06AA1FB489C","title":"高兴花园","lon":"121.41322775921","lat":"31.121081035008","category":"47","category_name":"住宅区","address":"上海市闵行区莘朱路879弄"},{"poiid":"B2094654DB6CA4FF459F","title":"春申景城-湖滨晨韵","lon":"121.41277","lat":"31.10846","category":"47","category_name":"住宅区","address":"莲花南路1111弄"},{"poiid":"B2094757D069A2FD419C","title":"恒隆大酒店(梅陇旗舰店)","lon":"121.42206","lat":"31.11158","category":"76","category_name":"上海菜","address":"上海闵行区春申路2105号(近虹梅南路)  "},{"poiid":"B2094757D06AAAFD479B","title":"天都火锅(虹梅店)","lon":"121.423830657","lat":"31.1236830363","category":"247","category_name":"餐饮美食","address":"上海虹梅南路1008号(莘朱路口)"},{"poiid":"B2094655D36DA7FA4899","title":"朱行","lon":"121.42371","lat":"31.1238","category":"38","category_name":"公交车站","address":""},{"poiid":"B2094757D06BA4FA479D","title":"坤儒体育篮球馆","lon":"121.415111686","lat":"31.1231101817","category":"220","category_name":"运动场所","address":"上海闵行区罗锦路211号(近龙里路)"},{"poiid":"B2094757D16FA2FB4092","title":"春申景城Mid-Town","lon":"121.410659333","lat":"31.1105397683","category":"47","category_name":"住宅区","address":"上海闵行区锦梅路1398弄"},{"poiid":"B2094655D26BA1FA449F","title":"梅富路春申路","lon":"121.41586","lat":"31.11173","category":"38","category_name":"公交车站","address":""},{"poiid":"B2094757D069A4FB4299","title":"COSTA春申店","lon":"121.412304","lat":"31.108947","category":"500","category_name":"未知分类","address":"上海莲花南路1111弄"},{"poiid":"B2094757D06FA5FF449D","title":"罗阳二村","lon":"121.41174","lat":"31.12117","category":"47","category_name":"住宅区","address":"上海闵行区罗锦路258弄"},{"poiid":"B2094757D569A2F4479A","title":"绿地春申花园二期","lon":"121.41391","lat":"31.117103","category":"47","category_name":"住宅区","address":"上海市闵行区莲花南路988弄"},{"poiid":"B2094655D265A2FD469C","title":"新世界外国语进修学院","lon":"121.42154","lat":"31.12532","category":"53","category_name":"成人教育","address":"闵行区罗锦路25号新世界外国语进修学院内"},{"poiid":"B2094655D26DA0F8439D","title":"中梅苑","lon":"121.41572","lat":"31.12756","category":"47","category_name":"住宅区","address":"上海市闵行区上中西路855弄(近虹梅南路)"},{"poiid":"B2094655D36CA2FB449D","title":"森安苑","lon":"121.42169","lat":"31.118301","category":"38","category_name":"公交车站","address":"普乐路655弄"},{"poiid":"B2094654DA65A5F4459D","title":"罗阳一村","lon":"121.41155","lat":"31.123041","category":"47","category_name":"住宅区","address":"上海罗阳路258弄"},{"poiid":"B2094750D26FA7F9479B","title":"宜家","lon":"121.415435","lat":"31.116107","category":"249","category_name":"购物服务","address":"漕溪路"},{"poiid":"B2094757D06AA0FB499A","title":"虹梅佳苑","lon":"121.41901","lat":"31.121452","category":"47","category_name":"住宅区","address":"上海市闵行区莘朱路1688号"},{"poiid":"B2094654DB64A1FF4092","title":"陇兴别墅(西门)","lon":"121.41584","lat":"31.11572","category":"47","category_name":"住宅区","address":"梅富路628弄1-138号"},{"poiid":"B2094654DA65A5F44993","title":"乐巢家居时尚生活馆","lon":"121.41521","lat":"31.12009","category":"123","category_name":"家具建材市场","address":"莘朱路1258号"},{"poiid":"B2094655D26EAAF94392","title":"春馨苑","lon":"121.419479","lat":"31.119077","category":"47","category_name":"住宅区","address":"上海市闵行区锦梅路锦梅路1258弄"},{"poiid":"B2094757D568ABF44692","title":"昆仑好客","lon":"121.41320936","lat":"31.11828315","category":"117","category_name":"便民商店/便利店","address":"梅陇镇"},{"poiid":"B2094654DB6CA5FB4592","title":"上海锦衣多服饰有限公司","lon":"121.4145","lat":"31.11828","category":"263","category_name":"公司","address":""},{"poiid":"B2094655D26FA6FA4693","title":"陇兴别墅","lon":"121.422","lat":"31.1218","category":"47","category_name":"住宅区","address":"梅富路628弄1-138号"},{"poiid":"B2094655D36DA2F84493","title":"外环梅龙港桥","lon":"121.41852","lat":"31.11938","category":"250","category_name":"公园户外","address":""},{"poiid":"B2094654DA65A5F44693","title":"上海市罗阳中学","lon":"121.41311","lat":"31.12176","category":"55","category_name":"中学","address":"闵行区罗阳二村105号(近罗锦路)"},{"poiid":"B2094750D76FA5F9459B","title":"品粥鮮","lon":"121.42","lat":"31.1242","category":"72","category_name":"广东菜","address":"闵行区罗锦路69号(近虹梅南路)"},{"poiid":"B2094655D36CA0FD479B","title":"锦梅路梅富路","lon":"121.41603","lat":"31.11371","category":"38","category_name":"公交车站","address":""},{"poiid":"B2094655D265A6FF409B","title":"莘朱路1389弄65号工业园","lon":"121.41714","lat":"31.12173","category":"45","category_name":"产业园区","address":"莘朱路1389弄65号"},{"poiid":"B2094757D66CA2F54698","title":"中国石油梅莘加油站","lon":"121.41234795","lat":"31.11890954","category":"154","category_name":"加油加气站","address":"闵行区莘朱路1058号"},{"poiid":"B2094654DA65A5F4499D","title":"上海陇兴(集团)有限公司","lon":"121.41522","lat":"31.12009","category":"263","category_name":"公司","address":"莘朱路1258号"},{"poiid":"B2094654DA65A5F4479C","title":"罗锦苑","lon":"121.41624","lat":"31.123518","category":"47","category_name":"住宅区","address":"上海闵行区梅陇镇罗锦路111弄"},{"poiid":"B2094757D16AA3FF439F","title":"虚空风暴(风暴要塞)","lon":"121.41880385","lat":"31.121556793","category":"247","category_name":"餐饮美食","address":"上海天朝魔都外域虚空风暴东"},{"poiid":"B2094752D16BA2FD4492","title":"银点羽毛球馆","lon":"121.419243","lat":"31.115206","category":"248","category_name":"生活娱乐","address":"上海闵行区锦梅路818号"},{"poiid":"B2094757D164ABFC449F","title":"窩窩頭","lon":"121.41993385","lat":"31.120715776","category":"247","category_name":"餐饮美食","address":null},{"poiid":"B2094654DA65A5F5449D","title":"罗阳东四村","lon":"121.40928","lat":"31.120451","category":"47","category_name":"住宅区","address":"莲花南路565弄1-57号"},{"poiid":"B2094757D46BA1F9429F","title":"柒柒私房面","lon":"121.4100943","lat":"31.1209234","category":"68","category_name":"快餐厅","address":"闵行区景福路119号(近莲花南路)"},{"poiid":"B2094757D068A1F9489C","title":"莘朱路1760弄小区","lon":"121.41997985","lat":"31.122043803","category":"47","category_name":"住宅区","address":"上海市闵行区莘朱路1760弄2-96号"},{"poiid":"B2094757D06FABFA459E","title":"罗阳三村","lon":"121.40886","lat":"31.123457","category":"47","category_name":"住宅区","address":"上海闵行区莲花南路431弄"},{"poiid":"B2094757D164A1FF459D","title":"辣翻天麻辣烫","lon":"121.42104","lat":"31.11731","category":"68","category_name":"快餐厅","address":"闵行区锦梅路(近虹梅南路)"},{"poiid":"B2094757D169A1FA409F","title":"优麦时尚量贩式歌城","lon":"121.423388","lat":"31.123964","category":"170","category_name":"KTV","address":"上海闵行区虹梅南路1005号(苏宁电器3楼)"},{"poiid":"B2094757D568A6FE419C","title":"莫泰168(上海春申路店)","lon":"121.41854","lat":"31.111154","category":"216","category_name":"经济型连锁酒店","address":"上海市闵行区春申路2329号(近梅富路)"},{"poiid":"B2094655D264A0FE439E","title":"康诗丹郡二期","lon":"121.411886","lat":"31.113905","category":"47","category_name":"住宅区","address":"上海市闵行区春申路2688号"},{"poiid":"B2094654DA65A5F5429D","title":"朱行三村","lon":"121.42064","lat":"31.120609","category":"47","category_name":"住宅区","address":"莘朱路1760弄"},{"poiid":"B2094757D16DA4FC489D","title":"源梦苑","lon":"121.422412","lat":"31.113569","category":"252","category_name":"楼宇机构","address":"上海市闵行区虹梅南路215号"},{"poiid":"B2094655D26FA3FC459A","title":"春馨苑(南门)","lon":"121.41307","lat":"31.11309","category":"47","category_name":"住宅区","address":"锦梅路1258弄"},{"poiid":"B2094757D16FA5FA4398","title":"cocoro发型设计","lon":"121.41674515","lat":"31.122465411","category":"148","category_name":"美容美发店","address":"上海愚园路278号"},{"poiid":"B2094654DA65A5F54692","title":"恒德花苑","lon":"121.40777","lat":"31.1204","category":"47","category_name":"住宅区","address":"上海莲花南路565弄"},{"poiid":"B2094654DB65AAF94692","title":"万科假日风景","lon":"121.41139140717","lat":"31.110280687219","category":"47","category_name":"住宅区","address":"闵行区畹町路99弄178号"},{"poiid":"B2094757D06FA0F54599","title":"南方商城","lon":"121.40695985","lat":"31.119168745","category":"249","category_name":"购物服务","address":"上海市闵行区景彩路"},{"poiid":"B2094757D06FA7FA4298","title":"莲花南路","lon":"121.40647806","lat":"31.121321969","category":"47","category_name":"住宅区","address":"上海莲花南路"},{"poiid":"B2094757D06AA1FB489C","title":"高兴花园","lon":"121.41322775921","lat":"31.121081035008","category":"47","category_name":"住宅区","address":"上海市闵行区莘朱路879弄"},{"poiid":"B2094654DB6CA4FF459F","title":"春申景城-湖滨晨韵","lon":"121.41277","lat":"31.10846","category":"47","category_name":"住宅区","address":"莲花南路1111弄"},{"poiid":"B2094757D069A2FD419C","title":"恒隆大酒店(梅陇旗舰店)","lon":"121.42206","lat":"31.11158","category":"76","category_name":"上海菜","address":"上海闵行区春申路2105号(近虹梅南路)  "},{"poiid":"B2094757D06AAAFD479B","title":"天都火锅(虹梅店)","lon":"121.423830657","lat":"31.1236830363","category":"247","category_name":"餐饮美食","address":"上海虹梅南路1008号(莘朱路口)"},{"poiid":"B2094655D36DA7FA4899","title":"朱行","lon":"121.42371","lat":"31.1238","category":"38","category_name":"公交车站","address":""},{"poiid":"B2094757D06BA4FA479D","title":"坤儒体育篮球馆","lon":"121.415111686","lat":"31.1231101817","category":"220","category_name":"运动场所","address":"上海闵行区罗锦路211号(近龙里路)"},{"poiid":"B2094757D16FA2FB4092","title":"春申景城Mid-Town","lon":"121.410659333","lat":"31.1105397683","category":"47","category_name":"住宅区","address":"上海闵行区锦梅路1398弄"},{"poiid":"B2094655D26BA1FA449F","title":"梅富路春申路","lon":"121.41586","lat":"31.11173","category":"38","category_name":"公交车站","address":""},{"poiid":"B2094757D069A4FB4299","title":"COSTA春申店","lon":"121.412304","lat":"31.108947","category":"500","category_name":"未知分类","address":"上海莲花南路1111弄"},{"poiid":"B2094757D06FA5FF449D","title":"罗阳二村","lon":"121.41174","lat":"31.12117","category":"47","category_name":"住宅区","address":"上海闵行区罗锦路258弄"},{"poiid":"B2094757D569A2F4479A","title":"绿地春申花园二期","lon":"121.41391","lat":"31.117103","category":"47","category_name":"住宅区","address":"上海市闵行区莲花南路988弄"},{"poiid":"B2094655D265A2FD469C","title":"新世界外国语进修学院","lon":"121.42154","lat":"31.12532","category":"53","category_name":"成人教育","address":"闵行区罗锦路25号新世界外国语进修学院内"},{"poiid":"B2094655D26DA0F8439D","title":"中梅苑","lon":"121.41572","lat":"31.12756","category":"47","category_name":"住宅区","address":"上海市闵行区上中西路855弄(近虹梅南路)"},{"poiid":"B2094655D36CA2FB449D","title":"森安苑","lon":"121.42169","lat":"31.118301","category":"38","category_name":"公交车站","address":"普乐路655弄"},{"poiid":"B2094654DA65A5F4459D","title":"罗阳一村","lon":"121.41155","lat":"31.123041","category":"47","category_name":"住宅区","address":"上海罗阳路258弄"},{"poiid":"B2094750D26FA7F9479B","title":"宜家","lon":"121.415435","lat":"31.116107","category":"249","category_name":"购物服务","address":"漕溪路"},{"poiid":"B2094757D06AA0FB499A","title":"虹梅佳苑","lon":"121.41901","lat":"31.121452","category":"47","category_name":"住宅区","address":"上海市闵行区莘朱路1688号"},{"poiid":"B2094654DB64A1FF4092","title":"陇兴别墅(西门)","lon":"121.41584","lat":"31.11572","category":"47","category_name":"住宅区","address":"梅富路628弄1-138号"},{"poiid":"B2094654DA65A5F44993","title":"乐巢家居时尚生活馆","lon":"121.41521","lat":"31.12009","category":"123","category_name":"家具建材市场","address":"莘朱路1258号"},{"poiid":"B2094655D26EAAF94392","title":"春馨苑","lon":"121.419479","lat":"31.119077","category":"47","category_name":"住宅区","address":"上海市闵行区锦梅路锦梅路1258弄"},{"poiid":"B2094757D568ABF44692","title":"昆仑好客","lon":"121.41320936","lat":"31.11828315","category":"117","category_name":"便民商店/便利店","address":"梅陇镇"},{"poiid":"B2094654DB6CA5FB4592","title":"上海锦衣多服饰有限公司","lon":"121.4145","lat":"31.11828","category":"263","category_name":"公司","address":""},{"poiid":"B2094655D26FA6FA4693","title":"陇兴别墅","lon":"121.422","lat":"31.1218","category":"47","category_name":"住宅区","address":"梅富路628弄1-138号"},{"poiid":"B2094655D36DA2F84493","title":"外环梅龙港桥","lon":"121.41852","lat":"31.11938","category":"250","category_name":"公园户外","address":""},{"poiid":"B2094654DA65A5F44693","title":"上海市罗阳中学","lon":"121.41311","lat":"31.12176","category":"55","category_name":"中学","address":"闵行区罗阳二村105号(近罗锦路)"},{"poiid":"B2094750D76FA5F9459B","title":"品粥鮮","lon":"121.42","lat":"31.1242","category":"72","category_name":"广东菜","address":"闵行区罗锦路69号(近虹梅南路)"},{"poiid":"B2094655D36CA0FD479B","title":"锦梅路梅富路","lon":"121.41603","lat":"31.11371","category":"38","category_name":"公交车站","address":""},{"poiid":"B2094655D265A6FF409B","title":"莘朱路1389弄65号工业园","lon":"121.41714","lat":"31.12173","category":"45","category_name":"产业园区","address":"莘朱路1389弄65号"},{"poiid":"B2094757D66CA2F54698","title":"中国石油梅莘加油站","lon":"121.41234795","lat":"31.11890954","category":"154","category_name":"加油加气站","address":"闵行区莘朱路1058号"},{"poiid":"B2094654DA65A5F4499D","title":"上海陇兴(集团)有限公司","lon":"121.41522","lat":"31.12009","category":"263","category_name":"公司","address":"莘朱路1258号"},{"poiid":"B2094654DA65A5F4479C","title":"罗锦苑","lon":"121.41624","lat":"31.123518","category":"47","category_name":"住宅区","address":"上海闵行区梅陇镇罗锦路111弄"},{"poiid":"B2094757D16AA3FF439F","title":"虚空风暴(风暴要塞)","lon":"121.41880385","lat":"31.121556793","category":"247","category_name":"餐饮美食","address":"上海天朝魔都外域虚空风暴东"},{"poiid":"B2094752D16BA2FD4492","title":"银点羽毛球馆","lon":"121.419243","lat":"31.115206","category":"248","category_name":"生活娱乐","address":"上海闵行区锦梅路818号"},{"poiid":"B2094757D164ABFC449F","title":"窩窩頭","lon":"121.41993385","lat":"31.120715776","category":"247","category_name":"餐饮美食","address":null},{"poiid":"B2094654DA65A5F5449D","title":"罗阳东四村","lon":"121.40928","lat":"31.120451","category":"47","category_name":"住宅区","address":"莲花南路565弄1-57号"},{"poiid":"B2094757D46BA1F9429F","title":"柒柒私房面","lon":"121.4100943","lat":"31.1209234","category":"68","category_name":"快餐厅","address":"闵行区景福路119号(近莲花南路)"},{"poiid":"B2094757D068A1F9489C","title":"莘朱路1760弄小区","lon":"121.41997985","lat":"31.122043803","category":"47","category_name":"住宅区","address":"上海市闵行区莘朱路1760弄2-96号"},{"poiid":"B2094757D06FABFA459E","title":"罗阳三村","lon":"121.40886","lat":"31.123457","category":"47","category_name":"住宅区","address":"上海闵行区莲花南路431弄"},{"poiid":"B2094757D164A1FF459D","title":"辣翻天麻辣烫","lon":"121.42104","lat":"31.11731","category":"68","category_name":"快餐厅","address":"闵行区锦梅路(近虹梅南路)"},{"poiid":"B2094757D169A1FA409F","title":"优麦时尚量贩式歌城","lon":"121.423388","lat":"31.123964","category":"170","category_name":"KTV","address":"上海闵行区虹梅南路1005号(苏宁电器3楼)"},{"poiid":"B2094757D568A6FE419C","title":"莫泰168(上海春申路店)","lon":"121.41854","lat":"31.111154","category":"216","category_name":"经济型连锁酒店","address":"上海市闵行区春申路2329号(近梅富路)"},{"poiid":"B2094655D264A0FE439E","title":"康诗丹郡二期","lon":"121.411886","lat":"31.113905","category":"47","category_name":"住宅区","address":"上海市闵行区春申路2688号"},{"poiid":"B2094654DA65A5F5429D","title":"朱行三村","lon":"121.42064","lat":"31.120609","category":"47","category_name":"住宅区","address":"莘朱路1760弄"},{"poiid":"B2094757D16DA4FC489D","title":"源梦苑","lon":"121.422412","lat":"31.113569","category":"252","category_name":"楼宇机构","address":"上海市闵行区虹梅南路215号"},{"poiid":"B2094655D26FA3FC459A","title":"春馨苑(南门)","lon":"121.41307","lat":"31.11309","category":"47","category_name":"住宅区","address":"锦梅路1258弄"},{"poiid":"B2094757D16FA5FA4398","title":"cocoro发型设计","lon":"121.41674515","lat":"31.122465411","category":"148","category_name":"美容美发店","address":"上海愚园路278号"},{"poiid":"B2094654DA65A5F54692","title":"恒德花苑","lon":"121.40777","lat":"31.1204","category":"47","category_name":"住宅区","address":"上海莲花南路565弄"},{"poiid":"B2094654DB65AAF94692","title":"万科假日风景","lon":"121.41139140717","lat":"31.110280687219","category":"47","category_name":"住宅区","address":"闵行区畹町路99弄178号"},{"poiid":"B2094757D06FA0F54599","title":"南方商城","lon":"121.40695985","lat":"31.119168745","category":"249","category_name":"购物服务","address":"上海市闵行区景彩路"},{"poiid":"B2094757D06FA7FA4298","title":"莲花南路","lon":"121.40647806","lat":"31.121321969","category":"47","category_name":"住宅区","address":"上海莲花南路"},{"poiid":"B2094757D06AA1FB489C","title":"高兴花园","lon":"121.41322775921","lat":"31.121081035008","category":"47","category_name":"住宅区","address":"上海市闵行区莘朱路879弄"},{"poiid":"B2094654DB6CA4FF459F","title":"春申景城-湖滨晨韵","lon":"121.41277","lat":"31.10846","category":"47","category_name":"住宅区","address":"莲花南路1111弄"},{"poiid":"B2094757D069A2FD419C","title":"恒隆大酒店(梅陇旗舰店)","lon":"121.42206","lat":"31.11158","category":"76","category_name":"上海菜","address":"上海闵行区春申路2105号(近虹梅南路)  "},{"poiid":"B2094757D06AAAFD479B","title":"天都火锅(虹梅店)","lon":"121.423830657","lat":"31.1236830363","category":"247","category_name":"餐饮美食","address":"上海虹梅南路1008号(莘朱路口)"},{"poiid":"B2094655D36DA7FA4899","title":"朱行","lon":"121.42371","lat":"31.1238","category":"38","category_name":"公交车站","address":""},{"poiid":"B2094757D06BA4FA479D","title":"坤儒体育篮球馆","lon":"121.415111686","lat":"31.1231101817","category":"220","category_name":"运动场所","address":"上海闵行区罗锦路211号(近龙里路)"},{"poiid":"B2094757D16FA2FB4092","title":"春申景城Mid-Town","lon":"121.410659333","lat":"31.1105397683","category":"47","category_name":"住宅区","address":"上海闵行区锦梅路1398弄"},{"poiid":"B2094655D26BA1FA449F","title":"梅富路春申路","lon":"121.41586","lat":"31.11173","category":"38","category_name":"公交车站","address":""},{"poiid":"B2094757D069A4FB4299","title":"COSTA春申店","lon":"121.412304","lat":"31.108947","category":"500","category_name":"未知分类","address":"上海莲花南路1111弄"},{"poiid":"B2094757D06FA5FF449D","title":"罗阳二村","lon":"121.41174","lat":"31.12117","category":"47","category_name":"住宅区","address":"上海闵行区罗锦路258弄"},{"poiid":"B2094757D569A2F4479A","title":"绿地春申花园二期","lon":"121.41391","lat":"31.117103","category":"47","category_name":"住宅区","address":"上海市闵行区莲花南路988弄"},{"poiid":"B2094655D265A2FD469C","title":"新世界外国语进修学院","lon":"121.42154","lat":"31.12532","category":"53","category_name":"成人教育","address":"闵行区罗锦路25号新世界外国语进修学院内"},{"poiid":"B2094655D26DA0F8439D","title":"中梅苑","lon":"121.41572","lat":"31.12756","category":"47","category_name":"住宅区","address":"上海市闵行区上中西路855弄(近虹梅南路)"},{"poiid":"B2094655D36CA2FB449D","title":"森安苑","lon":"121.42169","lat":"31.118301","category":"38","category_name":"公交车站","address":"普乐路655弄"},{"poiid":"B2094654DA65A5F4459D","title":"罗阳一村","lon":"121.41155","lat":"31.123041","category":"47","category_name":"住宅区","address":"上海罗阳路258弄"},{"poiid":"B2094750D26FA7F9479B","title":"宜家","lon":"121.415435","lat":"31.116107","category":"249","category_name":"购物服务","address":"漕溪路"},{"poiid":"B2094757D06AA0FB499A","title":"虹梅佳苑","lon":"121.41901","lat":"31.121452","category":"47","category_name":"住宅区","address":"上海市闵行区莘朱路1688号"},{"poiid":"B2094654DB64A1FF4092","title":"陇兴别墅(西门)","lon":"121.41584","lat":"31.11572","category":"47","category_name":"住宅区","address":"梅富路628弄1-138号"},{"poiid":"B2094654DA65A5F44993","title":"乐巢家居时尚生活馆","lon":"121.41521","lat":"31.12009","category":"123","category_name":"家具建材市场","address":"莘朱路1258号"},{"poiid":"B2094655D26EAAF94392","title":"春馨苑","lon":"121.419479","lat":"31.119077","category":"47","category_name":"住宅区","address":"上海市闵行区锦梅路锦梅路1258弄"},{"poiid":"B2094757D568ABF44692","title":"昆仑好客","lon":"121.41320936","lat":"31.11828315","category":"117","category_name":"便民商店/便利店","address":"梅陇镇"},{"poiid":"B2094654DB6CA5FB4592","title":"上海锦衣多服饰有限公司","lon":"121.4145","lat":"31.11828","category":"263","category_name":"公司","address":""},{"poiid":"B2094655D26FA6FA4693","title":"陇兴别墅","lon":"121.422","lat":"31.1218","category":"47","category_name":"住宅区","address":"梅富路628弄1-138号"},{"poiid":"B2094655D36DA2F84493","title":"外环梅龙港桥","lon":"121.41852","lat":"31.11938","category":"250","category_name":"公园户外","address":""},{"poiid":"B2094654DA65A5F44693","title":"上海市罗阳中学","lon":"121.41311","lat":"31.12176","category":"55","category_name":"中学","address":"闵行区罗阳二村105号(近罗锦路)"},{"poiid":"B2094750D76FA5F9459B","title":"品粥鮮","lon":"121.42","lat":"31.1242","category":"72","category_name":"广东菜","address":"闵行区罗锦路69号(近虹梅南路)"},{"poiid":"B2094655D36CA0FD479B","title":"锦梅路梅富路","lon":"121.41603","lat":"31.11371","category":"38","category_name":"公交车站","address":""},{"poiid":"B2094655D265A6FF409B","title":"莘朱路1389弄65号工业园","lon":"121.41714","lat":"31.12173","category":"45","category_name":"产业园区","address":"莘朱路1389弄65号"},{"poiid":"B2094757D66CA2F54698","title":"中国石油梅莘加油站","lon":"121.41234795","lat":"31.11890954","category":"154","category_name":"加油加气站","address":"闵行区莘朱路1058号"},{"poiid":"B2094654DA65A5F4499D","title":"上海陇兴(集团)有限公司","lon":"121.41522","lat":"31.12009","category":"263","category_name":"公司","address":"莘朱路1258号"},{"poiid":"B2094654DA65A5F4479C","title":"罗锦苑","lon":"121.41624","lat":"31.123518","category":"47","category_name":"住宅区","address":"上海闵行区梅陇镇罗锦路111弄"},{"poiid":"B2094757D16AA3FF439F","title":"虚空风暴(风暴要塞)","lon":"121.41880385","lat":"31.121556793","category":"247","category_name":"餐饮美食","address":"上海天朝魔都外域虚空风暴东"},{"poiid":"B2094752D16BA2FD4492","title":"银点羽毛球馆","lon":"121.419243","lat":"31.115206","category":"248","category_name":"生活娱乐","address":"上海闵行区锦梅路818号"},{"poiid":"B2094757D164ABFC449F","title":"窩窩頭","lon":"121.41993385","lat":"31.120715776","category":"247","category_name":"餐饮美食","address":null},{"poiid":"B2094654DA65A5F5449D","title":"罗阳东四村","lon":"121.40928","lat":"31.120451","category":"47","category_name":"住宅区","address":"莲花南路565弄1-57号"},{"poiid":"B2094757D46BA1F9429F","title":"柒柒私房面","lon":"121.4100943","lat":"31.1209234","category":"68","category_name":"快餐厅","address":"闵行区景福路119号(近莲花南路)"},{"poiid":"B2094757D068A1F9489C","title":"莘朱路1760弄小区","lon":"121.41997985","lat":"31.122043803","category":"47","category_name":"住宅区","address":"上海市闵行区莘朱路1760弄2-96号"},{"poiid":"B2094757D06FABFA459E","title":"罗阳三村","lon":"121.40886","lat":"31.123457","category":"47","category_name":"住宅区","address":"上海闵行区莲花南路431弄"},{"poiid":"B2094757D164A1FF459D","title":"辣翻天麻辣烫","lon":"121.42104","lat":"31.11731","category":"68","category_name":"快餐厅","address":"闵行区锦梅路(近虹梅南路)"},{"poiid":"B2094757D169A1FA409F","title":"优麦时尚量贩式歌城","lon":"121.423388","lat":"31.123964","category":"170","category_name":"KTV","address":"上海闵行区虹梅南路1005号(苏宁电器3楼)"},{"poiid":"B2094757D568A6FE419C","title":"莫泰168(上海春申路店)","lon":"121.41854","lat":"31.111154","category":"216","category_name":"经济型连锁酒店","address":"上海市闵行区春申路2329号(近梅富路)"},{"poiid":"B2094655D264A0FE439E","title":"康诗丹郡二期","lon":"121.411886","lat":"31.113905","category":"47","category_name":"住宅区","address":"上海市闵行区春申路2688号"},{"poiid":"B2094654DA65A5F5429D","title":"朱行三村","lon":"121.42064","lat":"31.120609","category":"47","category_name":"住宅区","address":"莘朱路1760弄"},{"poiid":"B2094757D16DA4FC489D","title":"源梦苑","lon":"121.422412","lat":"31.113569","category":"252","category_name":"楼宇机构","address":"上海市闵行区虹梅南路215号"},{"poiid":"B2094655D26FA3FC459A","title":"春馨苑(南门)","lon":"121.41307","lat":"31.11309","category":"47","category_name":"住宅区","address":"锦梅路1258弄"},{"poiid":"B2094757D16FA5FA4398","title":"cocoro发型设计","lon":"121.41674515","lat":"31.122465411","category":"148","category_name":"美容美发店","address":"上海愚园路278号"},{"poiid":"B2094654DA65A5F54692","title":"恒德花苑","lon":"121.40777","lat":"31.1204","category":"47","category_name":"住宅区","address":"上海莲花南路565弄"}]