[{"poiid":"B2094757D06FA5FF499E","title":"千岛湖平价小海鲜(梅陇路店)","lon":"121.41571","lat":"31.13684","category":"76","category_name":"上海菜","address":"徐汇区梅陇路599号(近虹梅南路)"},{"poiid":"B2094757D069A3F94293","title":"中环上中路","lon":"121.419115682","lat":"31.1320688254","category":"500","category_name":"未知分类","address":"上海中环上中路"},{"poiid":"B2094654DB65A0FF4398","title":"梅陇三村","lon":"121.41748","lat":"31.135757","category":"47","category_name":"住宅区","address":"梅陇路555弄"},{"poiid":"B2094757D16EA0FB4198","title":"梅陇","lon":"121.414322857","lat":"31.1362010872","category":"500","category_name":"未知分类","address":"上海市闵行区320,National,Rd"},{"poiid":"B2094757D068A0FA4599","title":"小食堂","lon":"121.41547","lat":"31.13859","category":"76","category_name":"上海菜","address":"徐汇区虹梅南路126弄323号(近梅陇路)"},{"poiid":"B2094757D068A4FF469B","title":"小梅园","lon":"121.41896","lat":"31.13747","category":"76","category_name":"上海菜","address":"徐汇区凌云路413号(近梅陇路)"},{"poiid":"B2094757D068A1F9489E","title":"梅陇路","lon":"121.419166565","lat":"31.1382198334","category":"500","category_name":"未知分类","address":"上海梅陇路"},{"poiid":"B2094757D068A2FF469A","title":"肯德基 KFC (新凌云店)","lon":"121.419436","lat":"31.136432","category":"68","category_name":"快餐厅","address":"凌云路402号近梅陇路"},{"poiid":"B2094757D069A6F4479A","title":"大桶大(虹梅店)","lon":"121.41811685","lat":"31.131848999","category":"149","category_name":"洗浴推拿场所","address":"上海上中西路虹梅南路口"},{"poiid":"B2094757D068ABF44998","title":"四海游龙 梅陇店 OVERSEAS DRAGON","lon":"121.418294054","lat":"31.131273793","category":"257","category_name":"中餐厅","address":"闵行区虹梅南路485号(近上中西路)"},{"poiid":"B2094654DA65ABFB419F","title":"梅陇五村","lon":"121.42187","lat":"31.134462","category":"47","category_name":"住宅区","address":"徐汇区嘉川路凌云路"},{"poiid":"B2094655D26BA1FA429E","title":"梅陇路虹梅南路","lon":"121.41504","lat":"31.13702","category":"38","category_name":"公交车站","address":""},{"poiid":"B2094655D36CA2F5449C","title":"上中西路凌云路","lon":"121.42025","lat":"31.13245","category":"38","category_name":"公交车站","address":""},{"poiid":"B2094655D26DA0F8429B","title":"梅陇二村(益文路)","lon":"121.41194","lat":"31.13552","category":"47","category_name":"住宅区","address":""},{"poiid":"B2094757D06FABF9409B","title":"梅陇九村","lon":"121.42123","lat":"31.131018","category":"252","category_name":"楼宇机构","address":"上海凌云路(上中西路罗秀路)"},{"poiid":"B2094654DB64A2F5479D","title":"罗秀苑","lon":"121.41686","lat":"31.135964","category":"47","category_name":"住宅区","address":"上海市闵行区上中西路1011弄"},{"poiid":"B2094757D16DA4FC4693","title":"湛江生蚝馆","lon":"121.415730457","lat":"31.1340084432","category":"247","category_name":"餐饮美食","address":"上海徐汇区梅陇路565弄15号"},{"poiid":"B2094654DB64A2F44598","title":"上陇新村","lon":"121.41666","lat":"31.132132","category":"47","category_name":"住宅区","address":"上中西路810弄39号-84号"},{"poiid":"B2094757D664A5F54492","title":"第五次烧烤","lon":"121.41398","lat":"31.14","category":"68","category_name":"快餐厅","address":"徐汇区虹梅南路96弄凌云新村317号(近梅陇路)"},{"poiid":"B2094655D268A2FB4793","title":"徐汇区启新小学","lon":"121.41686","lat":"31.13486","category":"56","category_name":"小学","address":""},{"poiid":"B2094757D06FAAF5439C","title":"我家","lon":"121.41635071","lat":"31.138881528","category":"500","category_name":"未知分类","address":"上海虹梅南路126弄"},{"poiid":"B2094757D56CABFA469C","title":"凯司令西点房 百色路店","lon":"121.41598","lat":"31.13722","category":"67","category_name":"甜品店","address":"徐汇区百色路1076号(近上海植物园)"},{"poiid":"B2094753D26CABFF4399","title":"锦江乐园","lon":"121.417365","lat":"31.134187","category":"500","category_name":"未知分类","address":"上海市 锦江乐园"},{"poiid":"B2094757D16FA4FD439D","title":"艺流美容美发","lon":"121.416779857","lat":"31.1340900448","category":"148","category_name":"美容美发店","address":"徐汇区凌云路(近嘉川路)"},{"poiid":"B2094654DB6CA2FB489A","title":"中梅苑梅花阁","lon":"121.41873","lat":"31.13014","category":"47","category_name":"住宅区","address":"上海上中西路735弄"},{"poiid":"B2094757D16DA7FA4492","title":"中环路","lon":"121.41778745","lat":"31.132781718","category":"500","category_name":"未知分类","address":"上海中环路外圈"},{"poiid":"B2094655D36CA2F5449E","title":"上中西路虹梅南路","lon":"121.41603","lat":"31.13066","category":"38","category_name":"公交车站","address":""},{"poiid":"B2094757D765A0F4429F","title":"老城隍庙小吃 上中西路店","lon":"121.42403","lat":"31.13408","category":"68","category_name":"快餐厅","address":"徐汇区上中西路223号(近龙州路)"},{"poiid":"B2094757D06AA3FC4393","title":"乔家栅 上中店","lon":"121.417893054","lat":"31.131550793","category":"257","category_name":"中餐厅","address":"徐汇区上中西路720号(近虹梅路)"},{"poiid":"B2094655D26DA0F8439B","title":"梅陇一村(益梅路)","lon":"121.41371","lat":"31.13482","category":"47","category_name":"住宅区","address":""},{"poiid":"B2094752DA65A3F44892","title":"查餐厅","lon":"121.416096","lat":"31.134731","category":"500","category_name":"未知分类","address":"上海市 天钥桥路131号永新坊B1楼18号(近辛耕路)"},{"poiid":"B2094654DA65AAFE4592","title":"上海第22车辆检测站","lon":"121.41409","lat":"31.13803","category":"250","category_name":"公园户外","address":"虹梅南路128"},{"poiid":"B2094757D66BA0FC459D","title":"广东仔原味烧烤","lon":"121.417584054","lat":"31.137848793","category":"68","category_name":"快餐厅","address":"徐汇区梅陇路565弄15号(近虹梅南路)"},{"poiid":"B2094757D169A7FC4499","title":"上海市第四建筑有限公司","lon":"121.414606857","lat":"31.1354830728","category":"46","category_name":"楼宇","address":"上海桂林路928号"},{"poiid":"B2094757D66CA6FD499A","title":"尚味客美食城","lon":"121.415553557","lat":"31.1355366738","category":"247","category_name":"餐饮美食","address":"上海梅陇西路102号"},{"poiid":"B2094654DB64A2F4459B","title":"上陇新村南门(上中西路)","lon":"121.41722","lat":"31.13133","category":"47","category_name":"住宅区","address":"上中西路738弄9-38号甲"},{"poiid":"B2094757D068A7F54598","title":"中梅苑三期","lon":"121.421297","lat":"31.135859","category":"47","category_name":"住宅区","address":"上海市闵行区上中西路711弄"},{"poiid":"B2094654DA65ABF54199","title":"利加达商务酒店","lon":"121.41643","lat":"31.13718","category":"250","category_name":"公园户外","address":"徐汇区梅陇路555号(近龙州路)"},{"poiid":"B2094655D36CA2F54498","title":"上中西路","lon":"121.42011","lat":"31.13257","category":"38","category_name":"公交车站","address":""},{"poiid":"B2094654DB6CA3FD4198","title":"河之洲餐饮休闲坊","lon":"121.41482","lat":"31.13527","category":"257","category_name":"中餐厅","address":"虹梅南路287号-35甲"},{"poiid":"B2094654DA65A5F4459C","title":"绿梅别墅","lon":"121.417","lat":"31.1308","category":"47","category_name":"住宅区","address":"上海闵行区罗阳路255弄34号"},{"poiid":"B2094752D665A2F94792","title":"徐家汇","lon":"121.417947","lat":"31.132908","category":"249","category_name":"购物服务","address":null},{"poiid":"B2094750DB6EABFF439F","title":"森陇家园","lon":"121.41603","lat":"31.136562","category":"47","category_name":"住宅区","address":"上海市徐汇区梅陇路565弄"},{"poiid":"B2094757D769A7F44298","title":"炫锅坊麻辣香锅","lon":"121.41362","lat":"31.13782","category":"77","category_name":"湖南菜","address":"闵行区虹梅南路128弄11号(近梅陇路)"},{"poiid":"B2094757D16CA3F8439E","title":"嘉川小游园","lon":"121.4178158","lat":"31.135927756","category":"500","category_name":"未知分类","address":"上海嘉川路凌云路"},{"poiid":"B2094655D264A2FF4093","title":"克莉丝汀","lon":"121.41457","lat":"31.13041","category":"112","category_name":"糕饼店","address":"徐汇区罗秀路1697号望族苑3号101室(近莲花南路)"},{"poiid":"B2094757D664A3F8429D","title":"依依食府 梅陇路店","lon":"121.416487","lat":"31.137405","category":"76","category_name":"上海菜","address":"徐汇区梅陇路555号(近虹梅南路)"},{"poiid":"B209475CD169A6FC469D","title":"华东理工大学","lon":"121.417854","lat":"31.135517","category":"500","category_name":"未知分类","address":"上海市 上海市梅陇路130号"},{"poiid":"B2094655D264A4FD479F","title":"老木子鸡广式烧烤","lon":"121.41883","lat":"31.13679","category":"68","category_name":"快餐厅","address":"徐汇区凌云路381号(近鑫研迷人坊)"},{"poiid":"B2094654DB6CA3FD4599","title":"快客No.6087","lon":"121.41703","lat":"31.13126","category":"117","category_name":"便民商店/便利店","address":"上中西路752"},{"poiid":"B2094757D06FA5FF499E","title":"千岛湖平价小海鲜(梅陇路店)","lon":"121.41571","lat":"31.13684","category":"76","category_name":"上海菜","address":"徐汇区梅陇路599号(近虹梅南路)"},{"poiid":"B2094757D069A3F94293","title":"中环上中路","lon":"121.419115682","lat":"31.1320688254","category":"500","category_name":"未知分类","address":"上海中环上中路"},{"poiid":"B2094654DB65A0FF4398","title":"梅陇三村","lon":"121.41748","lat":"31.135757","category":"47","category_name":"住宅区","address":"梅陇路555弄"},{"poiid":"B2094757D16EA0FB4198","title":"梅陇","lon":"121.414322857","lat":"31.1362010872","category":"500","category_name":"未知分类","address":"上海市闵行区320,National,Rd"},{"poiid":"B2094757D068A0FA4599","title":"小食堂","lon":"121.41547","lat":"31.13859","category":"76","category_name":"上海菜","address":"徐汇区虹梅南路126弄323号(近梅陇路)"},{"poiid":"B2094757D068A4FF469B","title":"小梅园","lon":"121.41896","lat":"31.13747","category":"76","category_name":"上海菜","address":"徐汇区凌云路413号(近梅陇路)"},{"poiid":"B2094757D068A1F9489E","title":"梅陇路","lon":"121.419166565","lat":"31.1382198334","category":"500","category_name":"未知分类","address":"上海梅陇路"},{"poiid":"B2094757D068A2FF469A","title":"肯德基 KFC (新凌云店)","lon":"121.419436","lat":"31.136432","category":"68","category_name":"快餐厅","address":"凌云路402号近梅陇路"},{"poiid":"B2094757D069A6F4479A","title":"大桶大(虹梅店)","lon":"121.41811685","lat":"31.131848999","category":"149","category_name":"洗浴推拿场所","address":"上海上中西路虹梅南路口"},{"poiid":"B2094757D068ABF44998","title":"四海游龙 梅陇店 OVERSEAS DRAGON","lon":"121.418294054","lat":"31.131273793","category":"257","category_name":"中餐厅","address":"闵行区虹梅南路485号(近上中西路)"},{"poiid":"B2094654DA65ABFB419F","title":"梅陇五村","lon":"121.42187","lat":"31.134462","category":"47","category_name":"住宅区","address":"徐汇区嘉川路凌云路"},{"poiid":"B2094655D26BA1FA429E","title":"梅陇路虹梅南路","lon":"121.41504","lat":"31.13702","category":"38","category_name":"公交车站","address":""},{"poiid":"B2094655D36CA2F5449C","title":"上中西路凌云路","lon":"121.42025","lat":"31.13245","category":"38","category_name":"公交车站","address":""},{"poiid":"B2094655D26DA0F8429B","title":"梅陇二村(益文路)","lon":"121.41194","lat":"31.13552","category":"47","category_name":"住宅区","address":""},{"poiid":"B2094757D06FABF9409B","title":"梅陇九村","lon":"121.42123","lat":"31.131018","category":"252","category_name":"楼宇机构","address":"上海凌云路(上中西路罗秀路)"},{"poiid":"B2094654DB64A2F5479D","title":"罗秀苑","lon":"121.41686","lat":"31.135964","category":"47","category_name":"住宅区","address":"上海市闵行区上中西路1011弄"},{"poiid":"B2094757D16DA4FC4693","title":"湛江生蚝馆","lon":"121.415730457","lat":"31.1340084432","category":"247","category_name":"餐饮美食","address":"上海徐汇区梅陇路565弄15号"},{"poiid":"B2094654DB64A2F44598","title":"上陇新村","lon":"121.41666","lat":"31.132132","category":"47","category_name":"住宅区","address":"上中西路810弄39号-84号"},{"poiid":"B2094757D664A5F54492","title":"第五次烧烤","lon":"121.41398","lat":"31.14","category":"68","category_name":"快餐厅","address":"徐汇区虹梅南路96弄凌云新村317号(近梅陇路)"},{"poiid":"B2094655D268A2FB4793","title":"徐汇区启新小学","lon":"121.41686","lat":"31.13486","category":"56","category_name":"小学","address":""},{"poiid":"B2094757D06FAAF5439C","title":"我家","lon":"121.41635071","lat":"31.138881528","category":"500","category_name":"未知分类","address":"上海虹梅南路126弄"},{"poiid":"B2094757D56CABFA469C","title":"凯司令西点房 百色路店","lon":"121.41598","lat":"31.13722","category":"67","category_name":"甜品店","address":"徐汇区百色路1076号(近上海植物园)"},{"poiid":"B2094753D26CABFF4399","title":"锦江乐园","lon":"121.417365","lat":"31.134187","category":"500","category_name":"未知分类","address":"上海市 锦江乐园"},{"poiid":"B2094757D16FA4FD439D","title":"艺流美容美发","lon":"121.416779857","lat":"31.1340900448","category":"148","category_name":"美容美发店","address":"徐汇区凌云路(近嘉川路)"},{"poiid":"B2094654DB6CA2FB489A","title":"中梅苑梅花阁","lon":"121.41873","lat":"31.13014","category":"47","category_name":"住宅区","address":"上海上中西路735弄"},{"poiid":"B2094757D16DA7FA4492","title":"中环路","lon":"121.41778745","lat":"31.132781718","category":"500","category_name":"未知分类","address":"上海中环路外圈"},{"poiid":"B2094655D36CA2F5449E","title":"上中西路虹梅南路","lon":"121.41603","lat":"31.13066","category":"38","category_name":"公交车站","address":""},{"poiid":"B2094757D765A0F4429F","title":"老城隍庙小吃 上中西路店","lon":"121.42403","lat":"31.13408","category":"68","category_name":"快餐厅","address":"徐汇区上中西路223号(近龙州路)"},{"poiid":"B2094757D06AA3FC4393","title":"乔家栅 上中店","lon":"121.417893054","lat":"31.131550793","category":"257","category_name":"中餐厅","address":"徐汇区上中西路720号(近虹梅路)"},{"poiid":"B2094655D26DA0F8439B","title":"梅陇一村(益梅路)","lon":"121.41371","lat":"31.13482","category":"47","category_name":"住宅区","address":""},{"poiid":"B2094752DA65A3F44892","title":"查餐厅","lon":"121.416096","lat":"31.134731","category":"500","category_name":"未知分类","address":"上海市 天钥桥路131号永新坊B1楼18号(近辛耕路)"},{"poiid":"B2094654DA65AAFE4592","title":"上海第22车辆检测站","lon":"121.41409","lat":"31.13803","category":"250","category_name":"公园户外","address":"虹梅南路128"},{"poiid":"B2094757D66BA0FC459D","title":"广东仔原味烧烤","lon":"121.417584054","lat":"31.137848793","category":"68","category_name":"快餐厅","address":"徐汇区梅陇路565弄15号(近虹梅南路)"},{"poiid":"B2094757D169A7FC4499","title":"上海市第四建筑有限公司","lon":"121.414606857","lat":"31.1354830728","category":"46","category_name":"楼宇","address":"上海桂林路928号"},{"poiid":"B2094757D66CA6FD499A","title":"尚味客美食城","lon":"121.415553557","lat":"31.1355366738","category":"247","category_name":"餐饮美食","address":"上海梅陇西路102号"},{"poiid":"B2094654DB64A2F4459B","title":"上陇新村南门(上中西路)","lon":"121.41722","lat":"31.13133","category":"47","category_name":"住宅区","address":"上中西路738弄9-38号甲"},{"poiid":"B2094757D068A7F54598","title":"中梅苑三期","lon":"121.421297","lat":"31.135859","category":"47","category_name":"住宅区","address":"上海市闵行区上中西路711弄"},{"poiid":"B2094654DA65ABF54199","title":"利加达商务酒店","lon":"121.41643","lat":"31.13718","category":"250","category_name":"公园户外","address":"徐汇区梅陇路555号(近龙州路)"},{"poiid":"B2094655D36CA2F54498","title":"上中西路","lon":"121.42011","lat":"31.13257","category":"38","category_name":"公交车站","address":""},{"poiid":"B2094654DB6CA3FD4198","title":"河之洲餐饮休闲坊","lon":"121.41482","lat":"31.13527","category":"257","category_name":"中餐厅","address":"虹梅南路287号-35甲"},{"poiid":"B2094654DA65A5F4459C","title":"绿梅别墅","lon":"121.417","lat":"31.1308","category":"47","category_name":"住宅区","address":"上海闵行区罗阳路255弄34号"},{"poiid":"B2094752D665A2F94792","title":"徐家汇","lon":"121.417947","lat":"31.132908","category":"249","category_name":"购物服务","address":null},{"poiid":"B2094750DB6EABFF439F","title":"森陇家园","lon":"121.41603","lat":"31.136562","category":"47","category_name":"住宅区","address":"上海市徐汇区梅陇路565弄"},{"poiid":"B2094757D769A7F44298","title":"炫锅坊麻辣香锅","lon":"121.41362","lat":"31.13782","category":"77","category_name":"湖南菜","address":"闵行区虹梅南路128弄11号(近梅陇路)"},{"poiid":"B2094757D16CA3F8439E","title":"嘉川小游园","lon":"121.4178158","lat":"31.135927756","category":"500","category_name":"未知分类","address":"上海嘉川路凌云路"},{"poiid":"B2094655D264A2FF4093","title":"克莉丝汀","lon":"121.41457","lat":"31.13041","category":"112","category_name":"糕饼店","address":"徐汇区罗秀路1697号望族苑3号101室(近莲花南路)"},{"poiid":"B2094757D664A3F8429D","title":"依依食府 梅陇路店","lon":"121.416487","lat":"31.137405","category":"76","category_name":"上海菜","address":"徐汇区梅陇路555号(近虹梅南路)"},{"poiid":"B209475CD169A6FC469D","title":"华东理工大学","lon":"121.417854","lat":"31.135517","category":"500","category_name":"未知分类","address":"上海市 上海市梅陇路130号"},{"poiid":"B2094655D264A4FD479F","title":"老木子鸡广式烧烤","lon":"121.41883","lat":"31.13679","category":"68","category_name":"快餐厅","address":"徐汇区凌云路381号(近鑫研迷人坊)"},{"poiid":"B2094654DB6CA3FD4599","title":"快客No.6087","lon":"121.41703","lat":"31.13126","category":"117","category_name":"便民商店/便利店","address":"上中西路752"},{"poiid":"B2094757D06FA5FF499E","title":"千岛湖平价小海鲜(梅陇路店)","lon":"121.41571","lat":"31.13684","category":"76","category_name":"上海菜","address":"徐汇区梅陇路599号(近虹梅南路)"},{"poiid":"B2094757D069A3F94293","title":"中环上中路","lon":"121.419115682","lat":"31.1320688254","category":"500","category_name":"未知分类","address":"上海中环上中路"},{"poiid":"B2094654DB65A0FF4398","title":"梅陇三村","lon":"121.41748","lat":"31.135757","category":"47","category_name":"住宅区","address":"梅陇路555弄"},{"poiid":"B2094757D16EA0FB4198","title":"梅陇","lon":"121.414322857","lat":"31.1362010872","category":"500","category_name":"未知分类","address":"上海市闵行区320,National,Rd"},{"poiid":"B2094757D068A0FA4599","title":"小食堂","lon":"121.41547","lat":"31.13859","category":"76","category_name":"上海菜","address":"徐汇区虹梅南路126弄323号(近梅陇路)"},{"poiid":"B2094757D068A4FF469B","title":"小梅园","lon":"121.41896","lat":"31.13747","category":"76","category_name":"上海菜","address":"徐汇区凌云路413号(近梅陇路)"},{"poiid":"B2094757D068A1F9489E","title":"梅陇路","lon":"121.419166565","lat":"31.1382198334","category":"500","category_name":"未知分类","address":"上海梅陇路"},{"poiid":"B2094757D068A2FF469A","title":"肯德基 KFC (新凌云店)","lon":"121.419436","lat":"31.136432","category":"68","category_name":"快餐厅","address":"凌云路402号近梅陇路"},{"poiid":"B2094757D069A6F4479A","title":"大桶大(虹梅店)","lon":"121.41811685","lat":"31.131848999","category":"149","category_name":"洗浴推拿场所","address":"上海上中西路虹梅南路口"},{"poiid":"B2094757D068ABF44998","title":"四海游龙 梅陇店 OVERSEAS DRAGON","lon":"121.418294054","lat":"31.131273793","category":"257","category_name":"中餐厅","address":"闵行区虹梅南路485号(近上中西路)"},{"poiid":"B2094654DA65ABFB419F","title":"梅陇五村","lon":"121.42187","lat":"31.134462","category":"47","category_name":"住宅区","address":"徐汇区嘉川路凌云路"},{"poiid":"B2094655D26BA1FA429E","title":"梅陇路虹梅南路","lon":"121.41504","lat":"31.13702","category":"38","category_name":"公交车站","address":""},{"poiid":"B2094655D36CA2F5449C","title":"上中西路凌云路","lon":"121.42025","lat":"31.13245","category":"38","category_name":"公交车站","address":""},{"poiid":"B2094655D26DA0F8429B","title":"梅陇二村(益文路)","lon":"121.41194","lat":"31.13552","category":"47","category_name":"住宅区","address":""},{"poiid":"B2094757D06FABF9409B","title":"梅陇九村","lon":"121.42123","lat":"31.131018","category":"252","category_name":"楼宇机构","address":"上海凌云路(上中西路罗秀路)"},{"poiid":"B2094654DB64A2F5479D","title":"罗秀苑","lon":"121.41686","lat":"31.135964","category":"47","category_name":"住宅区","address":"上海市闵行区上中西路1011弄"},{"poiid":"B2094757D16DA4FC4693","title":"湛江生蚝馆","lon":"121.415730457","lat":"31.1340084432","category":"247","category_name":"餐饮美食","address":"上海徐汇区梅陇路565弄15号"},{"poiid":"B2094654DB64A2F44598","title":"上陇新村","lon":"121.41666","lat":"31.132132","category":"47","category_name":"住宅区","address":"上中西路810弄39号-84号"},{"poiid":"B2094757D664A5F54492","title":"第五次烧烤","lon":"121.41398","lat":"31.14","category":"68","category_name":"快餐厅","address":"徐汇区虹梅南路96弄凌云新村317号(近梅陇路)"},{"poiid":"B2094655D268A2FB4793","title":"徐汇区启新小学","lon":"121.41686","lat":"31.13486","category":"56","category_name":"小学","address":""},{"poiid":"B2094757D06FAAF5439C","title":"我家","lon":"121.41635071","lat":"31.138881528","category":"500","category_name":"未知分类","address":"上海虹梅南路126弄"},{"poiid":"B2094757D56CABFA469C","title":"凯司令西点房 百色路店","lon":"121.41598","lat":"31.13722","category":"67","category_name":"甜品店","address":"徐汇区百色路1076号(近上海植物园)"},{"poiid":"B2094753D26CABFF4399","title":"锦江乐园","lon":"121.417365","lat":"31.134187","category":"500","category_name":"未知分类","address":"上海市 锦江乐园"},{"poiid":"B2094757D16FA4FD439D","title":"艺流美容美发","lon":"121.416779857","lat":"31.1340900448","category":"148","category_name":"美容美发店","address":"徐汇区凌云路(近嘉川路)"},{"poiid":"B2094654DB6CA2FB489A","title":"中梅苑梅花阁","lon":"121.41873","lat":"31.13014","category":"47","category_name":"住宅区","address":"上海上中西路735弄"},{"poiid":"B2094757D16DA7FA4492","title":"中环路","lon":"121.41778745","lat":"31.132781718","category":"500","category_name":"未知分类","address":"上海中环路外圈"},{"poiid":"B2094655D36CA2F5449E","title":"上中西路虹梅南路","lon":"121.41603","lat":"31.13066","category":"38","category_name":"公交车站","address":""},{"poiid":"B2094757D765A0F4429F","title":"老城隍庙小吃 上中西路店","lon":"121.42403","lat":"31.13408","category":"68","category_name":"快餐厅","address":"徐汇区上中西路223号(近龙州路)"},{"poiid":"B2094757D06AA3FC4393","title":"乔家栅 上中店","lon":"121.417893054","lat":"31.131550793","category":"257","category_name":"中餐厅","address":"徐汇区上中西路720号(近虹梅路)"},{"poiid":"B2094655D26DA0F8439B","title":"梅陇一村(益梅路)","lon":"121.41371","lat":"31.13482","category":"47","category_name":"住宅区","address":""},{"poiid":"B2094752DA65A3F44892","title":"查餐厅","lon":"121.416096","lat":"31.134731","category":"500","category_name":"未知分类","address":"上海市 天钥桥路131号永新坊B1楼18号(近辛耕路)"},{"poiid":"B2094654DA65AAFE4592","title":"上海第22车辆检测站","lon":"121.41409","lat":"31.13803","category":"250","category_name":"公园户外","address":"虹梅南路128"},{"poiid":"B2094757D66BA0FC459D","title":"广东仔原味烧烤","lon":"121.417584054","lat":"31.137848793","category":"68","category_name":"快餐厅","address":"徐汇区梅陇路565弄15号(近虹梅南路)"},{"poiid":"B2094757D169A7FC4499","title":"上海市第四建筑有限公司","lon":"121.414606857","lat":"31.1354830728","category":"46","category_name":"楼宇","address":"上海桂林路928号"},{"poiid":"B2094757D66CA6FD499A","title":"尚味客美食城","lon":"121.415553557","lat":"31.1355366738","category":"247","category_name":"餐饮美食","address":"上海梅陇西路102号"},{"poiid":"B2094654DB64A2F4459B","title":"上陇新村南门(上中西路)","lon":"121.41722","lat":"31.13133","category":"47","category_name":"住宅区","address":"上中西路738弄9-38号甲"},{"poiid":"B2094757D068A7F54598","title":"中梅苑三期","lon":"121.421297","lat":"31.135859","category":"47","category_name":"住宅区","address":"上海市闵行区上中西路711弄"},{"poiid":"B2094654DA65ABF54199","title":"利加达商务酒店","lon":"121.41643","lat":"31.13718","category":"250","category_name":"公园户外","address":"徐汇区梅陇路555号(近龙州路)"},{"poiid":"B2094655D36CA2F54498","title":"上中西路","lon":"121.42011","lat":"31.13257","category":"38","category_name":"公交车站","address":""},{"poiid":"B2094654DB6CA3FD4198","title":"河之洲餐饮休闲坊","lon":"121.41482","lat":"31.13527","category":"257","category_name":"中餐厅","address":"虹梅南路287号-35甲"},{"poiid":"B2094654DA65A5F4459C","title":"绿梅别墅","lon":"121.417","lat":"31.1308","category":"47","category_name":"住宅区","address":"上海闵行区罗阳路255弄34号"},{"poiid":"B2094752D665A2F94792","title":"徐家汇","lon":"121.417947","lat":"31.132908","category":"249","category_name":"购物服务","address":null},{"poiid":"B2094750DB6EABFF439F","title":"森陇家园","lon":"121.41603","lat":"31.136562","category":"47","category_name":"住宅区","address":"上海市徐汇区梅陇路565弄"},{"poiid":"B2094757D769A7F44298","title":"炫锅坊麻辣香锅","lon":"121.41362","lat":"31.13782","category":"77","category_name":"湖南菜","address":"闵行区虹梅南路128弄11号(近梅陇路)"},{"poiid":"B2094757D16CA3F8439E","title":"嘉川小游园","lon":"121.4178158","lat":"31.135927756","category":"500","category_name":"未知分类","address":"上海嘉川路凌云路"},{"poiid":"B2094655D264A2FF4093","title":"克莉丝汀","lon":"121.41457","lat":"31.13041","category":"112","category_name":"糕饼店","address":"徐汇区罗秀路1697号望族苑3号101室(近莲花南路)"},{"poiid":"B2094757D664A3F8429D","title":"依依食府 梅陇路店","lon":"121.416487","lat":"31.137405","category":"76","category_name":"上海菜","address":"徐汇区梅陇路555号(近虹梅南路)"},{"poiid":"B209475CD169A6FC469D","title":"华东理工大学","lon":"121.417854","lat":"31.135517","category":"500","category_name":"未知分类","address":"上海市 上海市梅陇路130号"},{"poiid":"B2094655D264A4FD479F","title":"老木子鸡广式烧烤","lon":"121.41883","lat":"31.13679","category":"68","category_name":"快餐厅","address":"徐汇区凌云路381号(近鑫研迷人坊)"},{"poiid":"B2094654DB6CA3FD4599","title":"快客No.6087","lon":"121.41703","lat":"31.13126","category":"117","category_name":"便民商店/便利店","address":"上中西路752"},{"poiid":"B2094757D06FA5FF499E","title":"千岛湖平价小海鲜(梅陇路店)","lon":"121.41571","lat":"31.13684","category":"76","category_name":"上海菜","address":"徐汇区梅陇路599号(近虹梅南路)"},{"poiid":"B2094757D069A3F94293","title":"中环上中路","lon":"121.419115682","lat":"31.1320688254","category":"500","category_name":"未知分类","address":"上海中环上中路"},{"poiid":"B2094654DB65A0FF4398","title":"梅陇三村","lon":"121.41748","lat":"31.135757","category":"47","category_name":"住宅区","address":"梅陇路555弄"},{"poiid":"B2094757D16EA0FB4198","title":"梅陇","lon":"121.414322857","lat":"31.1362010872","category":"500","category_name":"未知分类","address":"上海市闵行区320,National,Rd"},{"poiid":"B2094757D068A0FA4599","title":"小食堂","lon":"121.41547","lat":"31.13859","category":"76","category_name":"上海菜","address":"徐汇区虹梅南路126弄323号(近梅陇路)"},{"poiid":"B2094757D068A4FF469B","title":"小梅园","lon":"121.41896","lat":"31.13747","category":"76","category_name":"上海菜","address":"徐汇区凌云路413号(近梅陇路)"},{"poiid":"B2094757D068A1F9489E","title":"梅陇路","lon":"121.419166565","lat":"31.1382198334","category":"500","category_name":"未知分类","address":"上海梅陇路"},{"poiid":"B2094757D068A2FF469A","title":"肯德基 KFC (新凌云店)","lon":"121.419436","lat":"31.136432","category":"68","category_name":"快餐厅","address":"凌云路402号近梅陇路"},{"poiid":"B2094757D069A6F4479A","title":"大桶大(虹梅店)","lon":"121.41811685","lat":"31.131848999","category":"149","category_name":"洗浴推拿场所","address":"上海上中西路虹梅南路口"},{"poiid":"B2094757D068ABF44998","title":"四海游龙 梅陇店 OVERSEAS DRAGON","lon":"121.418294054","lat":"31.131273793","category":"257","category_name":"中餐厅","address":"闵行区虹梅南路485号(近上中西路)"},{"poiid":"B2094654DA65ABFB419F","title":"梅陇五村","lon":"121.42187","lat":"31.134462","category":"47","category_name":"住宅区","address":"徐汇区嘉川路凌云路"},{"poiid":"B2094655D26BA1FA429E","title":"梅陇路虹梅南路","lon":"121.41504","lat":"31.13702","category":"38","category_name":"公交车站","address":""},{"poiid":"B2094655D36CA2F5449C","title":"上中西路凌云路","lon":"121.42025","lat":"31.13245","category":"38","category_name":"公交车站","address":""},{"poiid":"B2094655D26DA0F8429B","title":"梅陇二村(益文路)","lon":"121.41194","lat":"31.13552","category":"47","category_name":"住宅区","address":""},{"poiid":"B2094757D06FABF9409B","title":"梅陇九村","lon":"121.42123","lat":"31.131018","category":"252","category_name":"楼宇机构","address":"上海凌云路(上中西路罗秀路)"},{"poiid":"B2094654DB64A2F5479D","title":"罗秀苑","lon":"121.41686","lat":"31.135964","category":"47","category_name":"住宅区","address":"上海市闵行区上中西路1011弄"},{"poiid":"B2094757D16DA4FC4693","title":"湛江生蚝馆","lon":"121.415730457","lat":"31.1340084432","category":"247","category_name":"餐饮美食","address":"上海徐汇区梅陇路565弄15号"},{"poiid":"B2094654DB64A2F44598","title":"上陇新村","lon":"121.41666","lat":"31.132132","category":"47","category_name":"住宅区","address":"上中西路810弄39号-84号"},{"poiid":"B2094757D664A5F54492","title":"第五次烧烤","lon":"121.41398","lat":"31.14","category":"68","category_name":"快餐厅","address":"徐汇区虹梅南路96弄凌云新村317号(近梅陇路)"},{"poiid":"B2094655D268A2FB4793","title":"徐汇区启新小学","lon":"121.41686","lat":"31.13486","category":"56","category_name":"小学","address":""},{"poiid":"B2094757D06FAAF5439C","title":"我家","lon":"121.41635071","lat":"31.138881528","category":"500","category_name":"未知分类","address":"上海虹梅南路126弄"},{"poiid":"B2094757D56CABFA469C","title":"凯司令西点房 百色路店","lon":"121.41598","lat":"31.13722","category":"67","category_name":"甜品店","address":"徐汇区百色路1076号(近上海植物园)"},{"poiid":"B2094753D26CABFF4399","title":"锦江乐园","lon":"121.417365","lat":"31.134187","category":"500","category_name":"未知分类","address":"上海市 锦江乐园"},{"poiid":"B2094757D16FA4FD439D","title":"艺流美容美发","lon":"121.416779857","lat":"31.1340900448","category":"148","category_name":"美容美发店","address":"徐汇区凌云路(近嘉川路)"},{"poiid":"B2094654DB6CA2FB489A","title":"中梅苑梅花阁","lon":"121.41873","lat":"31.13014","category":"47","category_name":"住宅区","address":"上海上中西路735弄"},{"poiid":"B2094757D16DA7FA4492","title":"中环路","lon":"121.41778745","lat":"31.132781718","category":"500","category_name":"未知分类","address":"上海中环路外圈"},{"poiid":"B2094655D36CA2F5449E","title":"上中西路虹梅南路","lon":"121.41603","lat":"31.13066","category":"38","category_name":"公交车站","address":""},{"poiid":"B2094757D765A0F4429F","title":"老城隍庙小吃 上中西路店","lon":"121.42403","lat":"31.13408","category":"68","category_name":"快餐厅","address":"徐汇区上中西路223号(近龙州路)"},{"poiid":"B2094757D06AA3FC4393","title":"乔家栅 上中店","lon":"121.417893054","lat":"31.131550793","category":"257","category_name":"中餐厅","address":"徐汇区上中西路720号(近虹梅路)"},{"poiid":"B2094655D26DA0F8439B","title":"梅陇一村(益梅路)","lon":"121.41371","lat":"31.13482","category":"47","category_name":"住宅区","address":""},{"poiid":"B2094752DA65A3F44892","title":"查餐厅","lon":"121.416096","lat":"31.134731","category":"500","category_name":"未知分类","address":"上海市 天钥桥路131号永新坊B1楼18号(近辛耕路)"},{"poiid":"B2094654DA65AAFE4592","title":"上海第22车辆检测站","lon":"121.41409","lat":"31.13803","category":"250","category_name":"公园户外","address":"虹梅南路128"},{"poiid":"B2094757D66BA0FC459D","title":"广东仔原味烧烤","lon":"121.417584054","lat":"31.137848793","category":"68","category_name":"快餐厅","address":"徐汇区梅陇路565弄15号(近虹梅南路)"},{"poiid":"B2094757D169A7FC4499","title":"上海市第四建筑有限公司","lon":"121.414606857","lat":"31.1354830728","category":"46","category_name":"楼宇","address":"上海桂林路928号"},{"poiid":"B2094757D66CA6FD499A","title":"尚味客美食城","lon":"121.415553557","lat":"31.1355366738","category":"247","category_name":"餐饮美食","address":"上海梅陇西路102号"},{"poiid":"B2094654DB64A2F4459B","title":"上陇新村南门(上中西路)","lon":"121.41722","lat":"31.13133","category":"47","category_name":"住宅区","address":"上中西路738弄9-38号甲"},{"poiid":"B2094757D068A7F54598","title":"中梅苑三期","lon":"121.421297","lat":"31.135859","category":"47","category_name":"住宅区","address":"上海市闵行区上中西路711弄"},{"poiid":"B2094654DA65ABF54199","title":"利加达商务酒店","lon":"121.41643","lat":"31.13718","category":"250","category_name":"公园户外","address":"徐汇区梅陇路555号(近龙州路)"},{"poiid":"B2094655D36CA2F54498","title":"上中西路","lon":"121.42011","lat":"31.13257","category":"38","category_name":"公交车站","address":""},{"poiid":"B2094654DB6CA3FD4198","title":"河之洲餐饮休闲坊","lon":"121.41482","lat":"31.13527","category":"257","category_name":"中餐厅","address":"虹梅南路287号-35甲"},{"poiid":"B2094654DA65A5F4459C","title":"绿梅别墅","lon":"121.417","lat":"31.1308","category":"47","category_name":"住宅区","address":"上海闵行区罗阳路255弄34号"},{"poiid":"B2094752D665A2F94792","title":"徐家汇","lon":"121.417947","lat":"31.132908","category":"249","category_name":"购物服务","address":null},{"poiid":"B2094750DB6EABFF439F","title":"森陇家园","lon":"121.41603","lat":"31.136562","category":"47","category_name":"住宅区","address":"上海市徐汇区梅陇路565弄"},{"poiid":"B2094757D769A7F44298","title":"炫锅坊麻辣香锅","lon":"121.41362","lat":"31.13782","category":"77","category_name":"湖南菜","address":"闵行区虹梅南路128弄11号(近梅陇路)"},{"poiid":"B2094757D16CA3F8439E","title":"嘉川小游园","lon":"121.4178158","lat":"31.135927756","category":"500","category_name":"未知分类","address":"上海嘉川路凌云路"},{"poiid":"B2094655D264A2FF4093","title":"克莉丝汀","lon":"121.41457","lat":"31.13041","category":"112","category_name":"糕饼店","address":"徐汇区罗秀路1697号望族苑3号101室(近莲花南路)"},{"poiid":"B2094757D664A3F8429D","title":"依依食府 梅陇路店","lon":"121.416487","lat":"31.137405","category":"76","category_name":"上海菜","address":"徐汇区梅陇路555号(近虹梅南路)"},{"poiid":"B209475CD169A6FC469D","title":"华东理工大学","lon":"121.417854","lat":"31.135517","category":"500","category_name":"未知分类","address":"上海市 上海市梅陇路130号"},{"poiid":"B2094655D264A4FD479F","title":"老木子鸡广式烧烤","lon":"121.41883","lat":"31.13679","category":"68","category_name":"快餐厅","address":"徐汇区凌云路381号(近鑫研迷人坊)"},{"poiid":"B2094654DB6CA3FD4599","title":"快客No.6087","lon":"121.41703","lat":"31.13126","category":"117","category_name":"便民商店/便利店","address":"上中西路752"}]