[{"poiid":"B2094757D06FA2F4409E","title":"老盛昌苏州汤包馆(梅陇店)","lon":"121.4211","lat":"31.13846","category":"68","category_name":"快餐厅","address":"徐汇区梅陇路267号(近凌云路)"},{"poiid":"B2094655D26DA5FF489D","title":"华东理工大学","lon":"121.425","lat":"31.14313","category":"671","category_name":"高校中心点","address":"徐汇区梅陇路130号"},{"poiid":"B2094757D06FAAF84398","title":"华东理工大学图书馆","lon":"121.42208612","lat":"31.142591023","category":"253","category_name":"校园生活","address":"徐汇区梅陇路130号华东理工大学内(近天等路)"},{"poiid":"B2094757D06FA5FF449A","title":"梅陇文化馆","lon":"121.42175","lat":"31.13916","category":"260","category_name":"其他","address":"徐汇区梅陇路415号(近凌云路)"},{"poiid":"B2094757D06FA1F8419D","title":"华轻梅陇购物中心","lon":"121.421973848","lat":"31.1393005866","category":"119","category_name":"商场","address":"上海徐汇区梅陇路255号(近龙州路)"},{"poiid":"B2094654DB6AA7F5479B","title":"华东理工大学华理苑","lon":"121.41942","lat":"31.13925","category":"52","category_name":"高等院校","address":"徐汇区梅陇路256号"},{"poiid":"B2094757D06FAAF4489E","title":"小李烧烤(梅陇路店)","lon":"121.4202","lat":"31.13859","category":"68","category_name":"快餐厅","address":"徐汇区梅陇路258号(近凌云路)"},{"poiid":"B2094757D068A1F9489E","title":"梅陇路","lon":"121.419166565","lat":"31.1382198334","category":"500","category_name":"未知分类","address":"上海梅陇路"},{"poiid":"B2094655D26EA2FC479E","title":"巴贝拉 梅陇路店 Babela's Kitchen","lon":"121.42533","lat":"31.14084","category":"94","category_name":"西餐厅","address":"徐汇区梅陇路257号1-2楼(近天等路)"},{"poiid":"B2094655D26DAAFB4698","title":"凌云新村","lon":"121.41817","lat":"31.14193","category":"47","category_name":"住宅区","address":"虹梅南路126弄"},{"poiid":"B2094757D068A4FF469B","title":"小梅园","lon":"121.41896","lat":"31.13747","category":"76","category_name":"上海菜","address":"徐汇区凌云路413号(近梅陇路)"},{"poiid":"B2094757D06FA5FA4699","title":"梅陇四村","lon":"121.42199","lat":"31.137596","category":"47","category_name":"住宅区","address":"上海徐汇区梅陇四村"},{"poiid":"B2094757D068A2F8499C","title":"85度C(龙州店)","lon":"121.42244","lat":"31.13908","category":"112","category_name":"糕饼店","address":"徐汇区龙州路995号(近梅陇路)"},{"poiid":"B2094750D269A5F94893","title":"济州料理","lon":"121.420692","lat":"31.138915","category":"96","category_name":"韩国料理","address":"徐汇区梅陇路279号格林联盟酒店1楼(近华东理工大学)"},{"poiid":"B2094757D068A2FF469A","title":"肯德基 KFC (新凌云店)","lon":"121.419436","lat":"31.136432","category":"68","category_name":"快餐厅","address":"凌云路402号近梅陇路"},{"poiid":"B2094757D568A5FC489E","title":"刘基故里农家大院","lon":"121.42073","lat":"31.138929","category":"257","category_name":"中餐厅","address":"徐汇区梅陇路279号今缘宝大酒店2楼(近凌云路)"},{"poiid":"B2094654DB69AAF84398","title":"台台缘美食坊 梅陇路店","lon":"121.4188167111","lat":"31.138202038697","category":"76","category_name":"上海菜","address":"徐汇区梅陇路293号(近凌云路)"},{"poiid":"B2094757D069A4F94098","title":"泰煌鸡 梅陇路店","lon":"121.41907","lat":"31.138309","category":"68","category_name":"快餐厅","address":"徐汇区梅陇路279号(近凌云路)"},{"poiid":"B2094757D069A4F9489A","title":"豪鸡汇(梅陇路店)","lon":"121.419965","lat":"31.138611","category":"68","category_name":"快餐厅","address":"徐汇区梅陇路391号(近龙州路)"},{"poiid":"B2094757D164A2F54793","title":"济洲料理","lon":"121.419791857","lat":"31.1382051273","category":"96","category_name":"韩国料理","address":"徐汇区梅陇路(近凌云路)"},{"poiid":"B2094655D26BA6F94499","title":"小红花幼儿园","lon":"121.4204","lat":"31.13946","category":"57","category_name":"幼儿园","address":"徐汇区梅陇路130弄(天等路口)"},{"poiid":"B2094757D069AAFB489A","title":"川福楼","lon":"121.421497054","lat":"31.139273793","category":"86","category_name":"火锅店","address":"徐汇区梅陇路289号(近凌云路)"},{"poiid":"B2094654DB69A5F44892","title":"避风塘 梅陇路","lon":"121.41902923668","lat":"31.138262254249","category":"257","category_name":"中餐厅","address":"梅陇路279号近龙州路"},{"poiid":"B2094655D26BAAFD4092","title":"华东理工大学游泳池","lon":"121.42037","lat":"31.14171","category":"231","category_name":"游泳馆","address":"徐汇区梅陇路130号华东理工大学内(近天等路)"},{"poiid":"B2094757D664AAFB4393","title":"华东理工教工食堂","lon":"121.42533","lat":"31.14084","category":"68","category_name":"快餐厅","address":"徐汇区梅陇路130号华东理工大学西门(近天等路)"},{"poiid":"B2094654DB64A2FB479B","title":"永琪美容美发(梅陇路)","lon":"121.42026","lat":"31.13874","category":"148","category_name":"美容美发店","address":"徐汇区梅陇路555号(近虹梅南路)"},{"poiid":"B2094757D569A3FD499D","title":"华东理工肉夹馍","lon":"121.42602","lat":"31.14041","category":"68","category_name":"快餐厅","address":"徐汇区天等路494号(近华东理工大学正门口)"},{"poiid":"B2094757D06FAAF5439C","title":"我家","lon":"121.41635071","lat":"31.138881528","category":"500","category_name":"未知分类","address":"上海虹梅南路126弄"},{"poiid":"B2094757D66CA0F4469D","title":"梅陇文化馆2号厅","lon":"121.41949365","lat":"31.138143226","category":"500","category_name":"未知分类","address":"上海梅陇路"},{"poiid":"B2094757D06AA4F54092","title":"中国银行(梅陇支行)","lon":"121.41976648","lat":"31.138787582","category":"150","category_name":"银行","address":"徐汇区梅陇路260号"},{"poiid":"B2094654DB69A0F54698","title":"新今缘宝大酒店","lon":"121.42073","lat":"31.13893","category":"257","category_name":"中餐厅","address":"徐汇区梅陇路279号"},{"poiid":"B2094752DB64A1F44893","title":"上海市机械工业学校","lon":"121.42078","lat":"31.139964","category":"500","category_name":"未知分类","address":"上海市 上海市徐汇区天等路465号"},{"poiid":"B2094654DA65ABF5469D","title":"图门烧烤","lon":"121.42533","lat":"31.14084","category":"68","category_name":"快餐厅","address":"徐汇区梅陇路130号华东理工大学内(近天等路)"},{"poiid":"B2094655D26FA7FA449C","title":"锦隆苑(东门)","lon":"121.41936","lat":"31.13963","category":"47","category_name":"住宅区","address":"梅陇路256弄5-6号"},{"poiid":"B2094655D268A2FF429D","title":"梅陇路教师公寓小区(东门)","lon":"121.41969","lat":"31.13924","category":"47","category_name":"住宅区","address":"梅陇路256弄1-4号"},{"poiid":"B2094654DB65A3F5419D","title":"锦隆苑","lon":"121.4192","lat":"31.139442","category":"47","category_name":"住宅区","address":"梅陇路256弄5-6号"},{"poiid":"B2094655D26BA1FA429F","title":"梅陇路化工四村","lon":"121.42106","lat":"31.13928","category":"38","category_name":"公交车站","address":""},{"poiid":"B2094757D168A5FA459D","title":"吉龙豆捞","lon":"121.42448","lat":"31.13532","category":"86","category_name":"火锅店","address":"徐汇区龙州路925号(梅陇七村对面)"},{"poiid":"B2094757D168A3F8419A","title":"超级鸡车梅陇店","lon":"121.42179","lat":"31.13952","category":"68","category_name":"快餐厅","address":"闵行区梅陇路400-6号(虹梅南路口)"},{"poiid":"B2094654DA65ABF54493","title":"张鼎鸡鸡粥店(梅陇路)","lon":"121.42014","lat":"31.1387","category":"257","category_name":"中餐厅","address":"梅陇路391"},{"poiid":"B2094655D26AAAFC499D","title":"华轻轻纺市场","lon":"121.42215","lat":"31.13947","category":"116","category_name":"特色商业街","address":"上海徐汇区梅陇路255号华轻梅陇购物中心2楼(近龙州路)"},{"poiid":"B2094757D065A3F94898","title":"华东理工大学网球场","lon":"121.42306","lat":"31.13967","category":"500","category_name":"未知分类","address":"徐汇区梅陇路130号华东理工大学内(近天等路)"},{"poiid":"B2094757D06AA0FF449C","title":"丰裕生煎(梅陇路店)","lon":"121.42274","lat":"31.13888","category":"68","category_name":"快餐厅","address":"徐汇区梅陇路255号第一食品内(近龙州路)"},{"poiid":"B2094655D268A2FF4199","title":"梅陇路教师公寓小区","lon":"121.41939","lat":"31.13908","category":"47","category_name":"住宅区","address":"梅陇路256弄1-4号"},{"poiid":"B209475CD06AA6FC419C","title":"网鱼网咖 梅陇路店","lon":"121.42069","lat":"31.13891","category":"65","category_name":"咖啡厅","address":"梅陇路279号302室"},{"poiid":"B2094757D065A4F9429E","title":"忆香休闲烧烤","lon":"121.422220419","lat":"31.1392937336","category":"68","category_name":"快餐厅","address":"徐汇区梅陇路255号上海第一食品商店旁边(近龙州路)"},{"poiid":"B2094655D36CA0F5439E","title":"化工四村","lon":"121.42101","lat":"31.13925","category":"38","category_name":"公交车站","address":""},{"poiid":"B2094757D168A7FA459D","title":"东新宿食街","lon":"121.41943015","lat":"31.138141326","category":"257","category_name":"中餐厅","address":"闵行区沪闵路7866弄莲花国际广场B13-14号(古方路路口)"},{"poiid":"B2094654DA65ABF5469E","title":"可的(梅陇路)","lon":"121.42106","lat":"31.13907","category":"117","category_name":"便民商店/便利店","address":"徐汇区梅陇路271号(龙州路梅陇路)"},{"poiid":"B2094655D26AA3F8479E","title":"震轩美容美发梅陇店","lon":"121.42215","lat":"31.13947","category":"247","category_name":"餐饮美食","address":"徐汇区梅陇路255号第一食品内(近龙州路)"},{"poiid":"B2094757D06FA2F4409E","title":"老盛昌苏州汤包馆(梅陇店)","lon":"121.4211","lat":"31.13846","category":"68","category_name":"快餐厅","address":"徐汇区梅陇路267号(近凌云路)"},{"poiid":"B2094655D26DA5FF489D","title":"华东理工大学","lon":"121.425","lat":"31.14313","category":"671","category_name":"高校中心点","address":"徐汇区梅陇路130号"},{"poiid":"B2094757D06FAAF84398","title":"华东理工大学图书馆","lon":"121.42208612","lat":"31.142591023","category":"253","category_name":"校园生活","address":"徐汇区梅陇路130号华东理工大学内(近天等路)"},{"poiid":"B2094757D06FA5FF449A","title":"梅陇文化馆","lon":"121.42175","lat":"31.13916","category":"260","category_name":"其他","address":"徐汇区梅陇路415号(近凌云路)"},{"poiid":"B2094757D06FA1F8419D","title":"华轻梅陇购物中心","lon":"121.421973848","lat":"31.1393005866","category":"119","category_name":"商场","address":"上海徐汇区梅陇路255号(近龙州路)"},{"poiid":"B2094654DB6AA7F5479B","title":"华东理工大学华理苑","lon":"121.41942","lat":"31.13925","category":"52","category_name":"高等院校","address":"徐汇区梅陇路256号"},{"poiid":"B2094757D06FAAF4489E","title":"小李烧烤(梅陇路店)","lon":"121.4202","lat":"31.13859","category":"68","category_name":"快餐厅","address":"徐汇区梅陇路258号(近凌云路)"},{"poiid":"B2094757D068A1F9489E","title":"梅陇路","lon":"121.419166565","lat":"31.1382198334","category":"500","category_name":"未知分类","address":"上海梅陇路"},{"poiid":"B2094655D26EA2FC479E","title":"巴贝拉 梅陇路店 Babela's Kitchen","lon":"121.42533","lat":"31.14084","category":"94","category_name":"西餐厅","address":"徐汇区梅陇路257号1-2楼(近天等路)"},{"poiid":"B2094655D26DAAFB4698","title":"凌云新村","lon":"121.41817","lat":"31.14193","category":"47","category_name":"住宅区","address":"虹梅南路126弄"},{"poiid":"B2094757D068A4FF469B","title":"小梅园","lon":"121.41896","lat":"31.13747","category":"76","category_name":"上海菜","address":"徐汇区凌云路413号(近梅陇路)"},{"poiid":"B2094757D06FA5FA4699","title":"梅陇四村","lon":"121.42199","lat":"31.137596","category":"47","category_name":"住宅区","address":"上海徐汇区梅陇四村"},{"poiid":"B2094757D068A2F8499C","title":"85度C(龙州店)","lon":"121.42244","lat":"31.13908","category":"112","category_name":"糕饼店","address":"徐汇区龙州路995号(近梅陇路)"},{"poiid":"B2094750D269A5F94893","title":"济州料理","lon":"121.420692","lat":"31.138915","category":"96","category_name":"韩国料理","address":"徐汇区梅陇路279号格林联盟酒店1楼(近华东理工大学)"},{"poiid":"B2094757D068A2FF469A","title":"肯德基 KFC (新凌云店)","lon":"121.419436","lat":"31.136432","category":"68","category_name":"快餐厅","address":"凌云路402号近梅陇路"},{"poiid":"B2094757D568A5FC489E","title":"刘基故里农家大院","lon":"121.42073","lat":"31.138929","category":"257","category_name":"中餐厅","address":"徐汇区梅陇路279号今缘宝大酒店2楼(近凌云路)"},{"poiid":"B2094654DB69AAF84398","title":"台台缘美食坊 梅陇路店","lon":"121.4188167111","lat":"31.138202038697","category":"76","category_name":"上海菜","address":"徐汇区梅陇路293号(近凌云路)"},{"poiid":"B2094757D069A4F94098","title":"泰煌鸡 梅陇路店","lon":"121.41907","lat":"31.138309","category":"68","category_name":"快餐厅","address":"徐汇区梅陇路279号(近凌云路)"},{"poiid":"B2094757D069A4F9489A","title":"豪鸡汇(梅陇路店)","lon":"121.419965","lat":"31.138611","category":"68","category_name":"快餐厅","address":"徐汇区梅陇路391号(近龙州路)"},{"poiid":"B2094757D164A2F54793","title":"济洲料理","lon":"121.419791857","lat":"31.1382051273","category":"96","category_name":"韩国料理","address":"徐汇区梅陇路(近凌云路)"},{"poiid":"B2094655D26BA6F94499","title":"小红花幼儿园","lon":"121.4204","lat":"31.13946","category":"57","category_name":"幼儿园","address":"徐汇区梅陇路130弄(天等路口)"},{"poiid":"B2094757D069AAFB489A","title":"川福楼","lon":"121.421497054","lat":"31.139273793","category":"86","category_name":"火锅店","address":"徐汇区梅陇路289号(近凌云路)"},{"poiid":"B2094654DB69A5F44892","title":"避风塘 梅陇路","lon":"121.41902923668","lat":"31.138262254249","category":"257","category_name":"中餐厅","address":"梅陇路279号近龙州路"},{"poiid":"B2094655D26BAAFD4092","title":"华东理工大学游泳池","lon":"121.42037","lat":"31.14171","category":"231","category_name":"游泳馆","address":"徐汇区梅陇路130号华东理工大学内(近天等路)"},{"poiid":"B2094757D664AAFB4393","title":"华东理工教工食堂","lon":"121.42533","lat":"31.14084","category":"68","category_name":"快餐厅","address":"徐汇区梅陇路130号华东理工大学西门(近天等路)"},{"poiid":"B2094654DB64A2FB479B","title":"永琪美容美发(梅陇路)","lon":"121.42026","lat":"31.13874","category":"148","category_name":"美容美发店","address":"徐汇区梅陇路555号(近虹梅南路)"},{"poiid":"B2094757D569A3FD499D","title":"华东理工肉夹馍","lon":"121.42602","lat":"31.14041","category":"68","category_name":"快餐厅","address":"徐汇区天等路494号(近华东理工大学正门口)"},{"poiid":"B2094757D06FAAF5439C","title":"我家","lon":"121.41635071","lat":"31.138881528","category":"500","category_name":"未知分类","address":"上海虹梅南路126弄"},{"poiid":"B2094757D66CA0F4469D","title":"梅陇文化馆2号厅","lon":"121.41949365","lat":"31.138143226","category":"500","category_name":"未知分类","address":"上海梅陇路"},{"poiid":"B2094757D06AA4F54092","title":"中国银行(梅陇支行)","lon":"121.41976648","lat":"31.138787582","category":"150","category_name":"银行","address":"徐汇区梅陇路260号"},{"poiid":"B2094654DB69A0F54698","title":"新今缘宝大酒店","lon":"121.42073","lat":"31.13893","category":"257","category_name":"中餐厅","address":"徐汇区梅陇路279号"},{"poiid":"B2094752DB64A1F44893","title":"上海市机械工业学校","lon":"121.42078","lat":"31.139964","category":"500","category_name":"未知分类","address":"上海市 上海市徐汇区天等路465号"},{"poiid":"B2094654DA65ABF5469D","title":"图门烧烤","lon":"121.42533","lat":"31.14084","category":"68","category_name":"快餐厅","address":"徐汇区梅陇路130号华东理工大学内(近天等路)"},{"poiid":"B2094655D26FA7FA449C","title":"锦隆苑(东门)","lon":"121.41936","lat":"31.13963","category":"47","category_name":"住宅区","address":"梅陇路256弄5-6号"},{"poiid":"B2094655D268A2FF429D","title":"梅陇路教师公寓小区(东门)","lon":"121.41969","lat":"31.13924","category":"47","category_name":"住宅区","address":"梅陇路256弄1-4号"},{"poiid":"B2094654DB65A3F5419D","title":"锦隆苑","lon":"121.4192","lat":"31.139442","category":"47","category_name":"住宅区","address":"梅陇路256弄5-6号"},{"poiid":"B2094655D26BA1FA429F","title":"梅陇路化工四村","lon":"121.42106","lat":"31.13928","category":"38","category_name":"公交车站","address":""},{"poiid":"B2094757D168A5FA459D","title":"吉龙豆捞","lon":"121.42448","lat":"31.13532","category":"86","category_name":"火锅店","address":"徐汇区龙州路925号(梅陇七村对面)"},{"poiid":"B2094757D168A3F8419A","title":"超级鸡车梅陇店","lon":"121.42179","lat":"31.13952","category":"68","category_name":"快餐厅","address":"闵行区梅陇路400-6号(虹梅南路口)"},{"poiid":"B2094654DA65ABF54493","title":"张鼎鸡鸡粥店(梅陇路)","lon":"121.42014","lat":"31.1387","category":"257","category_name":"中餐厅","address":"梅陇路391"},{"poiid":"B2094655D26AAAFC499D","title":"华轻轻纺市场","lon":"121.42215","lat":"31.13947","category":"116","category_name":"特色商业街","address":"上海徐汇区梅陇路255号华轻梅陇购物中心2楼(近龙州路)"},{"poiid":"B2094757D065A3F94898","title":"华东理工大学网球场","lon":"121.42306","lat":"31.13967","category":"500","category_name":"未知分类","address":"徐汇区梅陇路130号华东理工大学内(近天等路)"},{"poiid":"B2094757D06AA0FF449C","title":"丰裕生煎(梅陇路店)","lon":"121.42274","lat":"31.13888","category":"68","category_name":"快餐厅","address":"徐汇区梅陇路255号第一食品内(近龙州路)"},{"poiid":"B2094655D268A2FF4199","title":"梅陇路教师公寓小区","lon":"121.41939","lat":"31.13908","category":"47","category_name":"住宅区","address":"梅陇路256弄1-4号"},{"poiid":"B209475CD06AA6FC419C","title":"网鱼网咖 梅陇路店","lon":"121.42069","lat":"31.13891","category":"65","category_name":"咖啡厅","address":"梅陇路279号302室"},{"poiid":"B2094757D065A4F9429E","title":"忆香休闲烧烤","lon":"121.422220419","lat":"31.1392937336","category":"68","category_name":"快餐厅","address":"徐汇区梅陇路255号上海第一食品商店旁边(近龙州路)"},{"poiid":"B2094655D36CA0F5439E","title":"化工四村","lon":"121.42101","lat":"31.13925","category":"38","category_name":"公交车站","address":""},{"poiid":"B2094757D168A7FA459D","title":"东新宿食街","lon":"121.41943015","lat":"31.138141326","category":"257","category_name":"中餐厅","address":"闵行区沪闵路7866弄莲花国际广场B13-14号(古方路路口)"},{"poiid":"B2094654DA65ABF5469E","title":"可的(梅陇路)","lon":"121.42106","lat":"31.13907","category":"117","category_name":"便民商店/便利店","address":"徐汇区梅陇路271号(龙州路梅陇路)"},{"poiid":"B2094655D26AA3F8479E","title":"震轩美容美发梅陇店","lon":"121.42215","lat":"31.13947","category":"247","category_name":"餐饮美食","address":"徐汇区梅陇路255号第一食品内(近龙州路)"},{"poiid":"B2094757D06FA2F4409E","title":"老盛昌苏州汤包馆(梅陇店)","lon":"121.4211","lat":"31.13846","category":"68","category_name":"快餐厅","address":"徐汇区梅陇路267号(近凌云路)"},{"poiid":"B2094655D26DA5FF489D","title":"华东理工大学","lon":"121.425","lat":"31.14313","category":"671","category_name":"高校中心点","address":"徐汇区梅陇路130号"},{"poiid":"B2094757D06FAAF84398","title":"华东理工大学图书馆","lon":"121.42208612","lat":"31.142591023","category":"253","category_name":"校园生活","address":"徐汇区梅陇路130号华东理工大学内(近天等路)"},{"poiid":"B2094757D06FA5FF449A","title":"梅陇文化馆","lon":"121.42175","lat":"31.13916","category":"260","category_name":"其他","address":"徐汇区梅陇路415号(近凌云路)"},{"poiid":"B2094757D06FA1F8419D","title":"华轻梅陇购物中心","lon":"121.421973848","lat":"31.1393005866","category":"119","category_name":"商场","address":"上海徐汇区梅陇路255号(近龙州路)"},{"poiid":"B2094654DB6AA7F5479B","title":"华东理工大学华理苑","lon":"121.41942","lat":"31.13925","category":"52","category_name":"高等院校","address":"徐汇区梅陇路256号"},{"poiid":"B2094757D06FAAF4489E","title":"小李烧烤(梅陇路店)","lon":"121.4202","lat":"31.13859","category":"68","category_name":"快餐厅","address":"徐汇区梅陇路258号(近凌云路)"},{"poiid":"B2094757D068A1F9489E","title":"梅陇路","lon":"121.419166565","lat":"31.1382198334","category":"500","category_name":"未知分类","address":"上海梅陇路"},{"poiid":"B2094655D26EA2FC479E","title":"巴贝拉 梅陇路店 Babela's Kitchen","lon":"121.42533","lat":"31.14084","category":"94","category_name":"西餐厅","address":"徐汇区梅陇路257号1-2楼(近天等路)"},{"poiid":"B2094655D26DAAFB4698","title":"凌云新村","lon":"121.41817","lat":"31.14193","category":"47","category_name":"住宅区","address":"虹梅南路126弄"},{"poiid":"B2094757D068A4FF469B","title":"小梅园","lon":"121.41896","lat":"31.13747","category":"76","category_name":"上海菜","address":"徐汇区凌云路413号(近梅陇路)"},{"poiid":"B2094757D06FA5FA4699","title":"梅陇四村","lon":"121.42199","lat":"31.137596","category":"47","category_name":"住宅区","address":"上海徐汇区梅陇四村"},{"poiid":"B2094757D068A2F8499C","title":"85度C(龙州店)","lon":"121.42244","lat":"31.13908","category":"112","category_name":"糕饼店","address":"徐汇区龙州路995号(近梅陇路)"},{"poiid":"B2094750D269A5F94893","title":"济州料理","lon":"121.420692","lat":"31.138915","category":"96","category_name":"韩国料理","address":"徐汇区梅陇路279号格林联盟酒店1楼(近华东理工大学)"},{"poiid":"B2094757D068A2FF469A","title":"肯德基 KFC (新凌云店)","lon":"121.419436","lat":"31.136432","category":"68","category_name":"快餐厅","address":"凌云路402号近梅陇路"},{"poiid":"B2094757D568A5FC489E","title":"刘基故里农家大院","lon":"121.42073","lat":"31.138929","category":"257","category_name":"中餐厅","address":"徐汇区梅陇路279号今缘宝大酒店2楼(近凌云路)"},{"poiid":"B2094654DB69AAF84398","title":"台台缘美食坊 梅陇路店","lon":"121.4188167111","lat":"31.138202038697","category":"76","category_name":"上海菜","address":"徐汇区梅陇路293号(近凌云路)"},{"poiid":"B2094757D069A4F94098","title":"泰煌鸡 梅陇路店","lon":"121.41907","lat":"31.138309","category":"68","category_name":"快餐厅","address":"徐汇区梅陇路279号(近凌云路)"},{"poiid":"B2094757D069A4F9489A","title":"豪鸡汇(梅陇路店)","lon":"121.419965","lat":"31.138611","category":"68","category_name":"快餐厅","address":"徐汇区梅陇路391号(近龙州路)"},{"poiid":"B2094757D164A2F54793","title":"济洲料理","lon":"121.419791857","lat":"31.1382051273","category":"96","category_name":"韩国料理","address":"徐汇区梅陇路(近凌云路)"},{"poiid":"B2094655D26BA6F94499","title":"小红花幼儿园","lon":"121.4204","lat":"31.13946","category":"57","category_name":"幼儿园","address":"徐汇区梅陇路130弄(天等路口)"},{"poiid":"B2094757D069AAFB489A","title":"川福楼","lon":"121.421497054","lat":"31.139273793","category":"86","category_name":"火锅店","address":"徐汇区梅陇路289号(近凌云路)"},{"poiid":"B2094654DB69A5F44892","title":"避风塘 梅陇路","lon":"121.41902923668","lat":"31.138262254249","category":"257","category_name":"中餐厅","address":"梅陇路279号近龙州路"},{"poiid":"B2094655D26BAAFD4092","title":"华东理工大学游泳池","lon":"121.42037","lat":"31.14171","category":"231","category_name":"游泳馆","address":"徐汇区梅陇路130号华东理工大学内(近天等路)"},{"poiid":"B2094757D664AAFB4393","title":"华东理工教工食堂","lon":"121.42533","lat":"31.14084","category":"68","category_name":"快餐厅","address":"徐汇区梅陇路130号华东理工大学西门(近天等路)"},{"poiid":"B2094654DB64A2FB479B","title":"永琪美容美发(梅陇路)","lon":"121.42026","lat":"31.13874","category":"148","category_name":"美容美发店","address":"徐汇区梅陇路555号(近虹梅南路)"},{"poiid":"B2094757D569A3FD499D","title":"华东理工肉夹馍","lon":"121.42602","lat":"31.14041","category":"68","category_name":"快餐厅","address":"徐汇区天等路494号(近华东理工大学正门口)"},{"poiid":"B2094757D06FAAF5439C","title":"我家","lon":"121.41635071","lat":"31.138881528","category":"500","category_name":"未知分类","address":"上海虹梅南路126弄"},{"poiid":"B2094757D66CA0F4469D","title":"梅陇文化馆2号厅","lon":"121.41949365","lat":"31.138143226","category":"500","category_name":"未知分类","address":"上海梅陇路"},{"poiid":"B2094757D06AA4F54092","title":"中国银行(梅陇支行)","lon":"121.41976648","lat":"31.138787582","category":"150","category_name":"银行","address":"徐汇区梅陇路260号"},{"poiid":"B2094654DB69A0F54698","title":"新今缘宝大酒店","lon":"121.42073","lat":"31.13893","category":"257","category_name":"中餐厅","address":"徐汇区梅陇路279号"},{"poiid":"B2094752DB64A1F44893","title":"上海市机械工业学校","lon":"121.42078","lat":"31.139964","category":"500","category_name":"未知分类","address":"上海市 上海市徐汇区天等路465号"},{"poiid":"B2094654DA65ABF5469D","title":"图门烧烤","lon":"121.42533","lat":"31.14084","category":"68","category_name":"快餐厅","address":"徐汇区梅陇路130号华东理工大学内(近天等路)"},{"poiid":"B2094655D26FA7FA449C","title":"锦隆苑(东门)","lon":"121.41936","lat":"31.13963","category":"47","category_name":"住宅区","address":"梅陇路256弄5-6号"},{"poiid":"B2094655D268A2FF429D","title":"梅陇路教师公寓小区(东门)","lon":"121.41969","lat":"31.13924","category":"47","category_name":"住宅区","address":"梅陇路256弄1-4号"},{"poiid":"B2094654DB65A3F5419D","title":"锦隆苑","lon":"121.4192","lat":"31.139442","category":"47","category_name":"住宅区","address":"梅陇路256弄5-6号"},{"poiid":"B2094655D26BA1FA429F","title":"梅陇路化工四村","lon":"121.42106","lat":"31.13928","category":"38","category_name":"公交车站","address":""},{"poiid":"B2094757D168A5FA459D","title":"吉龙豆捞","lon":"121.42448","lat":"31.13532","category":"86","category_name":"火锅店","address":"徐汇区龙州路925号(梅陇七村对面)"},{"poiid":"B2094757D168A3F8419A","title":"超级鸡车梅陇店","lon":"121.42179","lat":"31.13952","category":"68","category_name":"快餐厅","address":"闵行区梅陇路400-6号(虹梅南路口)"},{"poiid":"B2094654DA65ABF54493","title":"张鼎鸡鸡粥店(梅陇路)","lon":"121.42014","lat":"31.1387","category":"257","category_name":"中餐厅","address":"梅陇路391"},{"poiid":"B2094655D26AAAFC499D","title":"华轻轻纺市场","lon":"121.42215","lat":"31.13947","category":"116","category_name":"特色商业街","address":"上海徐汇区梅陇路255号华轻梅陇购物中心2楼(近龙州路)"},{"poiid":"B2094757D065A3F94898","title":"华东理工大学网球场","lon":"121.42306","lat":"31.13967","category":"500","category_name":"未知分类","address":"徐汇区梅陇路130号华东理工大学内(近天等路)"},{"poiid":"B2094757D06AA0FF449C","title":"丰裕生煎(梅陇路店)","lon":"121.42274","lat":"31.13888","category":"68","category_name":"快餐厅","address":"徐汇区梅陇路255号第一食品内(近龙州路)"},{"poiid":"B2094655D268A2FF4199","title":"梅陇路教师公寓小区","lon":"121.41939","lat":"31.13908","category":"47","category_name":"住宅区","address":"梅陇路256弄1-4号"},{"poiid":"B209475CD06AA6FC419C","title":"网鱼网咖 梅陇路店","lon":"121.42069","lat":"31.13891","category":"65","category_name":"咖啡厅","address":"梅陇路279号302室"},{"poiid":"B2094757D065A4F9429E","title":"忆香休闲烧烤","lon":"121.422220419","lat":"31.1392937336","category":"68","category_name":"快餐厅","address":"徐汇区梅陇路255号上海第一食品商店旁边(近龙州路)"},{"poiid":"B2094655D36CA0F5439E","title":"化工四村","lon":"121.42101","lat":"31.13925","category":"38","category_name":"公交车站","address":""},{"poiid":"B2094757D168A7FA459D","title":"东新宿食街","lon":"121.41943015","lat":"31.138141326","category":"257","category_name":"中餐厅","address":"闵行区沪闵路7866弄莲花国际广场B13-14号(古方路路口)"},{"poiid":"B2094654DA65ABF5469E","title":"可的(梅陇路)","lon":"121.42106","lat":"31.13907","category":"117","category_name":"便民商店/便利店","address":"徐汇区梅陇路271号(龙州路梅陇路)"},{"poiid":"B2094655D26AA3F8479E","title":"震轩美容美发梅陇店","lon":"121.42215","lat":"31.13947","category":"247","category_name":"餐饮美食","address":"徐汇区梅陇路255号第一食品内(近龙州路)"},{"poiid":"B2094757D06FA2F4409E","title":"老盛昌苏州汤包馆(梅陇店)","lon":"121.4211","lat":"31.13846","category":"68","category_name":"快餐厅","address":"徐汇区梅陇路267号(近凌云路)"},{"poiid":"B2094655D26DA5FF489D","title":"华东理工大学","lon":"121.425","lat":"31.14313","category":"671","category_name":"高校中心点","address":"徐汇区梅陇路130号"},{"poiid":"B2094757D06FAAF84398","title":"华东理工大学图书馆","lon":"121.42208612","lat":"31.142591023","category":"253","category_name":"校园生活","address":"徐汇区梅陇路130号华东理工大学内(近天等路)"},{"poiid":"B2094757D06FA5FF449A","title":"梅陇文化馆","lon":"121.42175","lat":"31.13916","category":"260","category_name":"其他","address":"徐汇区梅陇路415号(近凌云路)"},{"poiid":"B2094757D06FA1F8419D","title":"华轻梅陇购物中心","lon":"121.421973848","lat":"31.1393005866","category":"119","category_name":"商场","address":"上海徐汇区梅陇路255号(近龙州路)"},{"poiid":"B2094654DB6AA7F5479B","title":"华东理工大学华理苑","lon":"121.41942","lat":"31.13925","category":"52","category_name":"高等院校","address":"徐汇区梅陇路256号"},{"poiid":"B2094757D06FAAF4489E","title":"小李烧烤(梅陇路店)","lon":"121.4202","lat":"31.13859","category":"68","category_name":"快餐厅","address":"徐汇区梅陇路258号(近凌云路)"},{"poiid":"B2094757D068A1F9489E","title":"梅陇路","lon":"121.419166565","lat":"31.1382198334","category":"500","category_name":"未知分类","address":"上海梅陇路"},{"poiid":"B2094655D26EA2FC479E","title":"巴贝拉 梅陇路店 Babela's Kitchen","lon":"121.42533","lat":"31.14084","category":"94","category_name":"西餐厅","address":"徐汇区梅陇路257号1-2楼(近天等路)"},{"poiid":"B2094655D26DAAFB4698","title":"凌云新村","lon":"121.41817","lat":"31.14193","category":"47","category_name":"住宅区","address":"虹梅南路126弄"},{"poiid":"B2094757D068A4FF469B","title":"小梅园","lon":"121.41896","lat":"31.13747","category":"76","category_name":"上海菜","address":"徐汇区凌云路413号(近梅陇路)"},{"poiid":"B2094757D06FA5FA4699","title":"梅陇四村","lon":"121.42199","lat":"31.137596","category":"47","category_name":"住宅区","address":"上海徐汇区梅陇四村"},{"poiid":"B2094757D068A2F8499C","title":"85度C(龙州店)","lon":"121.42244","lat":"31.13908","category":"112","category_name":"糕饼店","address":"徐汇区龙州路995号(近梅陇路)"},{"poiid":"B2094750D269A5F94893","title":"济州料理","lon":"121.420692","lat":"31.138915","category":"96","category_name":"韩国料理","address":"徐汇区梅陇路279号格林联盟酒店1楼(近华东理工大学)"},{"poiid":"B2094757D068A2FF469A","title":"肯德基 KFC (新凌云店)","lon":"121.419436","lat":"31.136432","category":"68","category_name":"快餐厅","address":"凌云路402号近梅陇路"},{"poiid":"B2094757D568A5FC489E","title":"刘基故里农家大院","lon":"121.42073","lat":"31.138929","category":"257","category_name":"中餐厅","address":"徐汇区梅陇路279号今缘宝大酒店2楼(近凌云路)"},{"poiid":"B2094654DB69AAF84398","title":"台台缘美食坊 梅陇路店","lon":"121.4188167111","lat":"31.138202038697","category":"76","category_name":"上海菜","address":"徐汇区梅陇路293号(近凌云路)"},{"poiid":"B2094757D069A4F94098","title":"泰煌鸡 梅陇路店","lon":"121.41907","lat":"31.138309","category":"68","category_name":"快餐厅","address":"徐汇区梅陇路279号(近凌云路)"},{"poiid":"B2094757D069A4F9489A","title":"豪鸡汇(梅陇路店)","lon":"121.419965","lat":"31.138611","category":"68","category_name":"快餐厅","address":"徐汇区梅陇路391号(近龙州路)"},{"poiid":"B2094757D164A2F54793","title":"济洲料理","lon":"121.419791857","lat":"31.1382051273","category":"96","category_name":"韩国料理","address":"徐汇区梅陇路(近凌云路)"},{"poiid":"B2094655D26BA6F94499","title":"小红花幼儿园","lon":"121.4204","lat":"31.13946","category":"57","category_name":"幼儿园","address":"徐汇区梅陇路130弄(天等路口)"},{"poiid":"B2094757D069AAFB489A","title":"川福楼","lon":"121.421497054","lat":"31.139273793","category":"86","category_name":"火锅店","address":"徐汇区梅陇路289号(近凌云路)"},{"poiid":"B2094654DB69A5F44892","title":"避风塘 梅陇路","lon":"121.41902923668","lat":"31.138262254249","category":"257","category_name":"中餐厅","address":"梅陇路279号近龙州路"},{"poiid":"B2094655D26BAAFD4092","title":"华东理工大学游泳池","lon":"121.42037","lat":"31.14171","category":"231","category_name":"游泳馆","address":"徐汇区梅陇路130号华东理工大学内(近天等路)"},{"poiid":"B2094757D664AAFB4393","title":"华东理工教工食堂","lon":"121.42533","lat":"31.14084","category":"68","category_name":"快餐厅","address":"徐汇区梅陇路130号华东理工大学西门(近天等路)"},{"poiid":"B2094654DB64A2FB479B","title":"永琪美容美发(梅陇路)","lon":"121.42026","lat":"31.13874","category":"148","category_name":"美容美发店","address":"徐汇区梅陇路555号(近虹梅南路)"},{"poiid":"B2094757D569A3FD499D","title":"华东理工肉夹馍","lon":"121.42602","lat":"31.14041","category":"68","category_name":"快餐厅","address":"徐汇区天等路494号(近华东理工大学正门口)"},{"poiid":"B2094757D06FAAF5439C","title":"我家","lon":"121.41635071","lat":"31.138881528","category":"500","category_name":"未知分类","address":"上海虹梅南路126弄"},{"poiid":"B2094757D66CA0F4469D","title":"梅陇文化馆2号厅","lon":"121.41949365","lat":"31.138143226","category":"500","category_name":"未知分类","address":"上海梅陇路"},{"poiid":"B2094757D06AA4F54092","title":"中国银行(梅陇支行)","lon":"121.41976648","lat":"31.138787582","category":"150","category_name":"银行","address":"徐汇区梅陇路260号"},{"poiid":"B2094654DB69A0F54698","title":"新今缘宝大酒店","lon":"121.42073","lat":"31.13893","category":"257","category_name":"中餐厅","address":"徐汇区梅陇路279号"},{"poiid":"B2094752DB64A1F44893","title":"上海市机械工业学校","lon":"121.42078","lat":"31.139964","category":"500","category_name":"未知分类","address":"上海市 上海市徐汇区天等路465号"},{"poiid":"B2094654DA65ABF5469D","title":"图门烧烤","lon":"121.42533","lat":"31.14084","category":"68","category_name":"快餐厅","address":"徐汇区梅陇路130号华东理工大学内(近天等路)"},{"poiid":"B2094655D26FA7FA449C","title":"锦隆苑(东门)","lon":"121.41936","lat":"31.13963","category":"47","category_name":"住宅区","address":"梅陇路256弄5-6号"},{"poiid":"B2094655D268A2FF429D","title":"梅陇路教师公寓小区(东门)","lon":"121.41969","lat":"31.13924","category":"47","category_name":"住宅区","address":"梅陇路256弄1-4号"},{"poiid":"B2094654DB65A3F5419D","title":"锦隆苑","lon":"121.4192","lat":"31.139442","category":"47","category_name":"住宅区","address":"梅陇路256弄5-6号"},{"poiid":"B2094655D26BA1FA429F","title":"梅陇路化工四村","lon":"121.42106","lat":"31.13928","category":"38","category_name":"公交车站","address":""},{"poiid":"B2094757D168A5FA459D","title":"吉龙豆捞","lon":"121.42448","lat":"31.13532","category":"86","category_name":"火锅店","address":"徐汇区龙州路925号(梅陇七村对面)"},{"poiid":"B2094757D168A3F8419A","title":"超级鸡车梅陇店","lon":"121.42179","lat":"31.13952","category":"68","category_name":"快餐厅","address":"闵行区梅陇路400-6号(虹梅南路口)"},{"poiid":"B2094654DA65ABF54493","title":"张鼎鸡鸡粥店(梅陇路)","lon":"121.42014","lat":"31.1387","category":"257","category_name":"中餐厅","address":"梅陇路391"},{"poiid":"B2094655D26AAAFC499D","title":"华轻轻纺市场","lon":"121.42215","lat":"31.13947","category":"116","category_name":"特色商业街","address":"上海徐汇区梅陇路255号华轻梅陇购物中心2楼(近龙州路)"},{"poiid":"B2094757D065A3F94898","title":"华东理工大学网球场","lon":"121.42306","lat":"31.13967","category":"500","category_name":"未知分类","address":"徐汇区梅陇路130号华东理工大学内(近天等路)"},{"poiid":"B2094757D06AA0FF449C","title":"丰裕生煎(梅陇路店)","lon":"121.42274","lat":"31.13888","category":"68","category_name":"快餐厅","address":"徐汇区梅陇路255号第一食品内(近龙州路)"},{"poiid":"B2094655D268A2FF4199","title":"梅陇路教师公寓小区","lon":"121.41939","lat":"31.13908","category":"47","category_name":"住宅区","address":"梅陇路256弄1-4号"},{"poiid":"B209475CD06AA6FC419C","title":"网鱼网咖 梅陇路店","lon":"121.42069","lat":"31.13891","category":"65","category_name":"咖啡厅","address":"梅陇路279号302室"},{"poiid":"B2094757D065A4F9429E","title":"忆香休闲烧烤","lon":"121.422220419","lat":"31.1392937336","category":"68","category_name":"快餐厅","address":"徐汇区梅陇路255号上海第一食品商店旁边(近龙州路)"},{"poiid":"B2094655D36CA0F5439E","title":"化工四村","lon":"121.42101","lat":"31.13925","category":"38","category_name":"公交车站","address":""},{"poiid":"B2094757D168A7FA459D","title":"东新宿食街","lon":"121.41943015","lat":"31.138141326","category":"257","category_name":"中餐厅","address":"闵行区沪闵路7866弄莲花国际广场B13-14号(古方路路口)"},{"poiid":"B2094654DA65ABF5469E","title":"可的(梅陇路)","lon":"121.42106","lat":"31.13907","category":"117","category_name":"便民商店/便利店","address":"徐汇区梅陇路271号(龙州路梅陇路)"},{"poiid":"B2094655D26AA3F8479E","title":"震轩美容美发梅陇店","lon":"121.42215","lat":"31.13947","category":"247","category_name":"餐饮美食","address":"徐汇区梅陇路255号第一食品内(近龙州路)"}]