[{"poiid":"B2094654D464A3F5489B","title":"上海长途汽车客运总站","lon":"121.45463","lat":"31.2528","category":"35","category_name":"长途汽车站","address":"闸北区中兴路1662号(近孔家木桥路)"},{"poiid":"B2094757D068A7FB4698","title":"上海火车站4-5号站台","lon":"121.45375295","lat":"31.2499646774","category":"22","category_name":"火车站","address":"上海市火车站"},{"poiid":"B2094757D06FA1FE449B","title":"上海长途汽车站","lon":"121.45027","lat":"31.25843","category":"35","category_name":"长途汽车站","address":"普陀区中山北路1015号(沪太路口)"},{"poiid":"B209475CD564A7F8439E","title":"上海滩中信泰富店","lon":"121.45602","lat":"31.22851","category":"119","category_name":"商场","address":"\"南京西路1168号中信泰富广场，店铺号221.\r\n\""},{"poiid":"B2094757D06FABFF4493","title":"上海北方智选假日酒店 Holiday Inn Express","lon":"121.452994","lat":"31.252272","category":"217","category_name":"旅馆招待所","address":"上海市闸北区中兴路1738号(近恒丰路)"},{"poiid":"B2094757D06FA4FD409E","title":"一兆韦德(中远两湾城店)","lon":"121.44843","lat":"31.25147","category":"221","category_name":"健身中心","address":"普陀区远景路97弄中远两湾城23号(近上海火车站)"},{"poiid":"B2094757D069A2FD479D","title":"内环高架路","lon":"121.45056895","lat":"31.258640843","category":"260","category_name":"其他","address":"上海高架上"},{"poiid":"B2094757D06AA0FC4999","title":"上海沪铁长途客运站","lon":"121.451751983","lat":"31.2508245347","category":"35","category_name":"长途汽车站","address":"闸北区恒丰路783号(近远景路)"},{"poiid":"B2094757D06FA7F54498","title":"友力国际大厦","lon":"121.452","lat":"31.2504","category":"46","category_name":"楼宇","address":"上海江宁路1158号"},{"poiid":"B2094757D068A7F94298","title":"肯德基 KFC (沪太店)","lon":"121.4499901","lat":"31.257908495","category":"68","category_name":"快餐厅","address":"普陀区沪太路583号(近中山北路)"},{"poiid":"B2094654D464A2FD489B","title":"上海铁路大厦","lon":"121.45258","lat":"31.2497","category":"46","category_name":"楼宇","address":"浦东新区金湘路345号"},{"poiid":"B2094757D068AAFA419D","title":"平江盛世家园","lon":"121.447951","lat":"31.256852","category":"47","category_name":"住宅区","address":"上海市闸北区交城路386弄"},{"poiid":"B2094757D068A3FB469C","title":"上海国际眼镜城","lon":"121.45453","lat":"31.25213","category":"132","category_name":"眼镜店","address":"闸北区中兴路1688号火车站北广场长途客运总站1-4楼(近恒丰路桥)"},{"poiid":"B2094654DA6CA5FC4293","title":"富丽大厦","lon":"121.448","lat":"31.2526","category":"46","category_name":"楼宇","address":"上海市普陀区江宁路1286号或江宁路1306弄"},{"poiid":"B2094751DA6AABF8459C","title":"上海外滩","lon":"121.454437","lat":"31.256653","category":"500","category_name":"未知分类","address":null},{"poiid":"B2094757D06FA3F54499","title":"无印良品MUJI(大悦城店)","lon":"121.45269408","lat":"31.253671806","category":"123","category_name":"家具建材市场","address":"上海市闸北区西藏北路166号大悦城3楼(近曲阜路)"},{"poiid":"B2094654DB6AA6FF469E","title":"上海亚繁龙门大酒店","lon":"121.45188","lat":"31.24962","category":"214","category_name":"四星级宾馆","address":"上海市闸北区恒丰路777号（近天目路）"},{"poiid":"B2094757D068A4FC419F","title":"和泰花园","lon":"121.45147","lat":"31.257212","category":"47","category_name":"住宅区","address":"上海市闸北区沪太路555弄"},{"poiid":"B2094757D069A2F54092","title":"阿拉丁清真餐厅","lon":"121.44803","lat":"31.25408","category":"90","category_name":"清真餐馆","address":"普陀区交通西路21号克拉玛依宾馆1楼(近交通路)"},{"poiid":"B2094757D068A7F94198","title":"世纪商务大厦","lon":"121.45","lat":"31.2495","category":"46","category_name":"楼宇","address":"上海市普陀区长寿路97号"},{"poiid":"B2094654D464A2F94793","title":"华舟大厦","lon":"121.45287","lat":"31.255368","category":"46","category_name":"楼宇","address":"华舟大厦位于闸北沪太路315弄"},{"poiid":"B2094654DB69A4FD4892","title":"锦江之星(火车站店)","lon":"121.45037","lat":"31.25593","category":"216","category_name":"经济型连锁酒店","address":"上海市闸北区沪太路500号(近中山北路)"},{"poiid":"B2094654DB6AABF4469C","title":"上海克拉玛依石油宾馆","lon":"121.44759","lat":"31.25407","category":"250","category_name":"公园户外","address":"上海普陀区交通路1333号(近交通路)"},{"poiid":"B2094655D36DA1FD4499","title":"恒丰路立交桥","lon":"121.45135","lat":"31.25165","category":"250","category_name":"公园户外","address":""},{"poiid":"B2094654D465A7FB409D","title":"智荟苑","lon":"121.44738","lat":"31.255966","category":"47","category_name":"住宅区","address":"交通西路129弄1-21"},{"poiid":"B2094654DA6CA5FC429C","title":"三维大厦","lon":"121.448","lat":"31.2533","category":"46","category_name":"楼宇","address":"卢湾区局门路427号(邮编:200023)"},{"poiid":"B2094757D46DAAFD479F","title":"华必和 沪太路店","lon":"121.451755054","lat":"31.255580793","category":"68","category_name":"快餐厅","address":"普陀区沪太路359号华龙大厦1楼(近芷江西路)"},{"poiid":"B2094757D16BA5FD419D","title":"莫干山路","lon":"121.45006565","lat":"31.2509608964","category":"500","category_name":"未知分类","address":"上海莫干山路"},{"poiid":"B2094655D26AA0FE4393","title":"湘旺阁 沪太路店","lon":"121.451435054","lat":"31.255667793","category":"77","category_name":"湖南菜","address":"普陀区沪太路380号(近恒丰北路)"},{"poiid":"B2094751DA6DA3F84193","title":"第十人民医院","lon":"121.453423","lat":"31.256281","category":"162","category_name":"医院","address":"延长中路"},{"poiid":"B2094757D46EA4FC429F","title":"恒顿咖啡","lon":"121.451918054","lat":"31.255161793","category":"65","category_name":"咖啡厅","address":"恒丰北路100号林顿大厦沪太路口"},{"poiid":"B2094753D46BAAF5409A","title":"上海火车站","lon":"121.451988","lat":"31.253292","category":"500","category_name":"未知分类","address":"上海市 上海火车站"},{"poiid":"B2094757D16AA1F44793","title":"胖子客家菜","lon":"121.45184595","lat":"31.2558687901","category":"247","category_name":"餐饮美食","address":"静安区安远路222号(陕西北路口)"},{"poiid":"B2094654D464A2FA409F","title":"昆明大楼","lon":"121.45397","lat":"31.25461","category":"46","category_name":"楼宇","address":"静安区长寿路(万航渡路口)"},{"poiid":"B2094757D068ABFE439B","title":"紫兰苑","lon":"121.45522","lat":"31.255281","category":"47","category_name":"住宅区","address":"上海市闸北区中华新路939弄"},{"poiid":"B2094655D268A0F5429C","title":"7天连锁酒店上海火车站店","lon":"121.45397","lat":"31.25461","category":"216","category_name":"经济型连锁酒店","address":"闸北区中华新路999号(近沪太路)"},{"poiid":"B2094757D66DA6F44393","title":"大洋小区","lon":"121.44888","lat":"31.254152","category":"47","category_name":"住宅区","address":"上海普陀区交通西路"},{"poiid":"B2094654D465A7F4419A","title":"良友金伴(中华新路)","lon":"121.45164","lat":"31.2551","category":"117","category_name":"便民商店/便利店","address":""},{"poiid":"B2094654DB6AA4FB419E","title":"上海市闸北区实验中学","lon":"121.45261","lat":"31.25325","category":"55","category_name":"中学","address":"闸北区中华新路977号(近沪太路)"},{"poiid":"B2094757DA65A6F4429F","title":"上海火车站五号候车室","lon":"121.450864680371","lat":"31.25141213843349","category":"500","category_name":"未知分类","address":"上海火车站"},{"poiid":"B2094654DB65A6F4459B","title":"圣天地商务楼","lon":"121.45","lat":"31.25","category":"46","category_name":"楼宇","address":"江宁路1165号"},{"poiid":"B2094655D26CA7FF419C","title":"地梨港小区","lon":"121.45069","lat":"31.25481","category":"47","category_name":"住宅区","address":""},{"poiid":"B2094655D26DABFF4593","title":"南苑e家商务连锁酒店沪太路店","lon":"121.44984","lat":"31.25698","category":"216","category_name":"经济型连锁酒店","address":"上海普陀区沪太路520号（紧邻沪太长途客运站，近中山北路）。"},{"poiid":"B2094655D36CA7FE419A","title":"沪太路中山北路","lon":"121.45043","lat":"31.25732","category":"38","category_name":"公交车站","address":""},{"poiid":"B2094655D26CA7FD4193","title":"地梨港小区(北门)","lon":"121.45075","lat":"31.25497","category":"47","category_name":"住宅区","address":""},{"poiid":"B2094654D465A7FB479F","title":"良友金伴便利连锁NO.894","lon":"121.45069","lat":"31.25288","category":"117","category_name":"便民商店/便利店","address":"中兴路1913"},{"poiid":"B2094750D66CA2F8459B","title":"吉泰连锁酒店上海北广场二店","lon":"121.451684832573","lat":"31.2552255186204","category":"216","category_name":"经济型连锁酒店","address":"闸北区恒丰北路100号(近上海火车站)"},{"poiid":"B2094757D66AA5FD4698","title":"潮人十二全牛火锅","lon":"121.449965","lat":"31.25745","category":"86","category_name":"火锅店","address":"普陀区沪太路520号(近中山北路)"},{"poiid":"B2094750D76CA4F8459F","title":"东方既白(火车站北广场店)","lon":"121.456","lat":"31.2524","category":"68","category_name":"快餐厅","address":"闸北区中兴路1600号火车站北广场入口西侧"},{"poiid":"B2094654D464A2F9499D","title":"快客No.815","lon":"121.45293","lat":"31.255","category":"117","category_name":"便民商店/便利店","address":"沪太路321"},{"poiid":"B2094654D464A3F5489B","title":"上海长途汽车客运总站","lon":"121.45463","lat":"31.2528","category":"35","category_name":"长途汽车站","address":"闸北区中兴路1662号(近孔家木桥路)"},{"poiid":"B2094757D068A7FB4698","title":"上海火车站4-5号站台","lon":"121.45375295","lat":"31.2499646774","category":"22","category_name":"火车站","address":"上海市火车站"},{"poiid":"B2094757D06FA1FE449B","title":"上海长途汽车站","lon":"121.45027","lat":"31.25843","category":"35","category_name":"长途汽车站","address":"普陀区中山北路1015号(沪太路口)"},{"poiid":"B209475CD564A7F8439E","title":"上海滩中信泰富店","lon":"121.45602","lat":"31.22851","category":"119","category_name":"商场","address":"\"南京西路1168号中信泰富广场，店铺号221.\r\n\""},{"poiid":"B2094757D06FABFF4493","title":"上海北方智选假日酒店 Holiday Inn Express","lon":"121.452994","lat":"31.252272","category":"217","category_name":"旅馆招待所","address":"上海市闸北区中兴路1738号(近恒丰路)"},{"poiid":"B2094757D06FA4FD409E","title":"一兆韦德(中远两湾城店)","lon":"121.44843","lat":"31.25147","category":"221","category_name":"健身中心","address":"普陀区远景路97弄中远两湾城23号(近上海火车站)"},{"poiid":"B2094757D069A2FD479D","title":"内环高架路","lon":"121.45056895","lat":"31.258640843","category":"260","category_name":"其他","address":"上海高架上"},{"poiid":"B2094757D06AA0FC4999","title":"上海沪铁长途客运站","lon":"121.451751983","lat":"31.2508245347","category":"35","category_name":"长途汽车站","address":"闸北区恒丰路783号(近远景路)"},{"poiid":"B2094757D06FA7F54498","title":"友力国际大厦","lon":"121.452","lat":"31.2504","category":"46","category_name":"楼宇","address":"上海江宁路1158号"},{"poiid":"B2094757D068A7F94298","title":"肯德基 KFC (沪太店)","lon":"121.4499901","lat":"31.257908495","category":"68","category_name":"快餐厅","address":"普陀区沪太路583号(近中山北路)"},{"poiid":"B2094654D464A2FD489B","title":"上海铁路大厦","lon":"121.45258","lat":"31.2497","category":"46","category_name":"楼宇","address":"浦东新区金湘路345号"},{"poiid":"B2094757D068AAFA419D","title":"平江盛世家园","lon":"121.447951","lat":"31.256852","category":"47","category_name":"住宅区","address":"上海市闸北区交城路386弄"},{"poiid":"B2094757D068A3FB469C","title":"上海国际眼镜城","lon":"121.45453","lat":"31.25213","category":"132","category_name":"眼镜店","address":"闸北区中兴路1688号火车站北广场长途客运总站1-4楼(近恒丰路桥)"},{"poiid":"B2094654DA6CA5FC4293","title":"富丽大厦","lon":"121.448","lat":"31.2526","category":"46","category_name":"楼宇","address":"上海市普陀区江宁路1286号或江宁路1306弄"},{"poiid":"B2094751DA6AABF8459C","title":"上海外滩","lon":"121.454437","lat":"31.256653","category":"500","category_name":"未知分类","address":null},{"poiid":"B2094757D06FA3F54499","title":"无印良品MUJI(大悦城店)","lon":"121.45269408","lat":"31.253671806","category":"123","category_name":"家具建材市场","address":"上海市闸北区西藏北路166号大悦城3楼(近曲阜路)"},{"poiid":"B2094654DB6AA6FF469E","title":"上海亚繁龙门大酒店","lon":"121.45188","lat":"31.24962","category":"214","category_name":"四星级宾馆","address":"上海市闸北区恒丰路777号（近天目路）"},{"poiid":"B2094757D068A4FC419F","title":"和泰花园","lon":"121.45147","lat":"31.257212","category":"47","category_name":"住宅区","address":"上海市闸北区沪太路555弄"},{"poiid":"B2094757D069A2F54092","title":"阿拉丁清真餐厅","lon":"121.44803","lat":"31.25408","category":"90","category_name":"清真餐馆","address":"普陀区交通西路21号克拉玛依宾馆1楼(近交通路)"},{"poiid":"B2094757D068A7F94198","title":"世纪商务大厦","lon":"121.45","lat":"31.2495","category":"46","category_name":"楼宇","address":"上海市普陀区长寿路97号"},{"poiid":"B2094654D464A2F94793","title":"华舟大厦","lon":"121.45287","lat":"31.255368","category":"46","category_name":"楼宇","address":"华舟大厦位于闸北沪太路315弄"},{"poiid":"B2094654DB69A4FD4892","title":"锦江之星(火车站店)","lon":"121.45037","lat":"31.25593","category":"216","category_name":"经济型连锁酒店","address":"上海市闸北区沪太路500号(近中山北路)"},{"poiid":"B2094654DB6AABF4469C","title":"上海克拉玛依石油宾馆","lon":"121.44759","lat":"31.25407","category":"250","category_name":"公园户外","address":"上海普陀区交通路1333号(近交通路)"},{"poiid":"B2094655D36DA1FD4499","title":"恒丰路立交桥","lon":"121.45135","lat":"31.25165","category":"250","category_name":"公园户外","address":""},{"poiid":"B2094654D465A7FB409D","title":"智荟苑","lon":"121.44738","lat":"31.255966","category":"47","category_name":"住宅区","address":"交通西路129弄1-21"},{"poiid":"B2094654DA6CA5FC429C","title":"三维大厦","lon":"121.448","lat":"31.2533","category":"46","category_name":"楼宇","address":"卢湾区局门路427号(邮编:200023)"},{"poiid":"B2094757D46DAAFD479F","title":"华必和 沪太路店","lon":"121.451755054","lat":"31.255580793","category":"68","category_name":"快餐厅","address":"普陀区沪太路359号华龙大厦1楼(近芷江西路)"},{"poiid":"B2094757D16BA5FD419D","title":"莫干山路","lon":"121.45006565","lat":"31.2509608964","category":"500","category_name":"未知分类","address":"上海莫干山路"},{"poiid":"B2094655D26AA0FE4393","title":"湘旺阁 沪太路店","lon":"121.451435054","lat":"31.255667793","category":"77","category_name":"湖南菜","address":"普陀区沪太路380号(近恒丰北路)"},{"poiid":"B2094751DA6DA3F84193","title":"第十人民医院","lon":"121.453423","lat":"31.256281","category":"162","category_name":"医院","address":"延长中路"},{"poiid":"B2094757D46EA4FC429F","title":"恒顿咖啡","lon":"121.451918054","lat":"31.255161793","category":"65","category_name":"咖啡厅","address":"恒丰北路100号林顿大厦沪太路口"},{"poiid":"B2094753D46BAAF5409A","title":"上海火车站","lon":"121.451988","lat":"31.253292","category":"500","category_name":"未知分类","address":"上海市 上海火车站"},{"poiid":"B2094757D16AA1F44793","title":"胖子客家菜","lon":"121.45184595","lat":"31.2558687901","category":"247","category_name":"餐饮美食","address":"静安区安远路222号(陕西北路口)"},{"poiid":"B2094654D464A2FA409F","title":"昆明大楼","lon":"121.45397","lat":"31.25461","category":"46","category_name":"楼宇","address":"静安区长寿路(万航渡路口)"},{"poiid":"B2094757D068ABFE439B","title":"紫兰苑","lon":"121.45522","lat":"31.255281","category":"47","category_name":"住宅区","address":"上海市闸北区中华新路939弄"},{"poiid":"B2094655D268A0F5429C","title":"7天连锁酒店上海火车站店","lon":"121.45397","lat":"31.25461","category":"216","category_name":"经济型连锁酒店","address":"闸北区中华新路999号(近沪太路)"},{"poiid":"B2094757D66DA6F44393","title":"大洋小区","lon":"121.44888","lat":"31.254152","category":"47","category_name":"住宅区","address":"上海普陀区交通西路"},{"poiid":"B2094654D465A7F4419A","title":"良友金伴(中华新路)","lon":"121.45164","lat":"31.2551","category":"117","category_name":"便民商店/便利店","address":""},{"poiid":"B2094654DB6AA4FB419E","title":"上海市闸北区实验中学","lon":"121.45261","lat":"31.25325","category":"55","category_name":"中学","address":"闸北区中华新路977号(近沪太路)"},{"poiid":"B2094757DA65A6F4429F","title":"上海火车站五号候车室","lon":"121.450864680371","lat":"31.25141213843349","category":"500","category_name":"未知分类","address":"上海火车站"},{"poiid":"B2094654DB65A6F4459B","title":"圣天地商务楼","lon":"121.45","lat":"31.25","category":"46","category_name":"楼宇","address":"江宁路1165号"},{"poiid":"B2094655D26CA7FF419C","title":"地梨港小区","lon":"121.45069","lat":"31.25481","category":"47","category_name":"住宅区","address":""},{"poiid":"B2094655D26DABFF4593","title":"南苑e家商务连锁酒店沪太路店","lon":"121.44984","lat":"31.25698","category":"216","category_name":"经济型连锁酒店","address":"上海普陀区沪太路520号（紧邻沪太长途客运站，近中山北路）。"},{"poiid":"B2094655D36CA7FE419A","title":"沪太路中山北路","lon":"121.45043","lat":"31.25732","category":"38","category_name":"公交车站","address":""},{"poiid":"B2094655D26CA7FD4193","title":"地梨港小区(北门)","lon":"121.45075","lat":"31.25497","category":"47","category_name":"住宅区","address":""},{"poiid":"B2094654D465A7FB479F","title":"良友金伴便利连锁NO.894","lon":"121.45069","lat":"31.25288","category":"117","category_name":"便民商店/便利店","address":"中兴路1913"},{"poiid":"B2094750D66CA2F8459B","title":"吉泰连锁酒店上海北广场二店","lon":"121.451684832573","lat":"31.2552255186204","category":"216","category_name":"经济型连锁酒店","address":"闸北区恒丰北路100号(近上海火车站)"},{"poiid":"B2094757D66AA5FD4698","title":"潮人十二全牛火锅","lon":"121.449965","lat":"31.25745","category":"86","category_name":"火锅店","address":"普陀区沪太路520号(近中山北路)"},{"poiid":"B2094750D76CA4F8459F","title":"东方既白(火车站北广场店)","lon":"121.456","lat":"31.2524","category":"68","category_name":"快餐厅","address":"闸北区中兴路1600号火车站北广场入口西侧"},{"poiid":"B2094654D464A2F9499D","title":"快客No.815","lon":"121.45293","lat":"31.255","category":"117","category_name":"便民商店/便利店","address":"沪太路321"},{"poiid":"B2094654D464A3F5489B","title":"上海长途汽车客运总站","lon":"121.45463","lat":"31.2528","category":"35","category_name":"长途汽车站","address":"闸北区中兴路1662号(近孔家木桥路)"},{"poiid":"B2094757D068A7FB4698","title":"上海火车站4-5号站台","lon":"121.45375295","lat":"31.2499646774","category":"22","category_name":"火车站","address":"上海市火车站"},{"poiid":"B2094757D06FA1FE449B","title":"上海长途汽车站","lon":"121.45027","lat":"31.25843","category":"35","category_name":"长途汽车站","address":"普陀区中山北路1015号(沪太路口)"},{"poiid":"B209475CD564A7F8439E","title":"上海滩中信泰富店","lon":"121.45602","lat":"31.22851","category":"119","category_name":"商场","address":"\"南京西路1168号中信泰富广场，店铺号221.\r\n\""},{"poiid":"B2094757D06FABFF4493","title":"上海北方智选假日酒店 Holiday Inn Express","lon":"121.452994","lat":"31.252272","category":"217","category_name":"旅馆招待所","address":"上海市闸北区中兴路1738号(近恒丰路)"},{"poiid":"B2094757D06FA4FD409E","title":"一兆韦德(中远两湾城店)","lon":"121.44843","lat":"31.25147","category":"221","category_name":"健身中心","address":"普陀区远景路97弄中远两湾城23号(近上海火车站)"},{"poiid":"B2094757D069A2FD479D","title":"内环高架路","lon":"121.45056895","lat":"31.258640843","category":"260","category_name":"其他","address":"上海高架上"},{"poiid":"B2094757D06AA0FC4999","title":"上海沪铁长途客运站","lon":"121.451751983","lat":"31.2508245347","category":"35","category_name":"长途汽车站","address":"闸北区恒丰路783号(近远景路)"},{"poiid":"B2094757D06FA7F54498","title":"友力国际大厦","lon":"121.452","lat":"31.2504","category":"46","category_name":"楼宇","address":"上海江宁路1158号"},{"poiid":"B2094757D068A7F94298","title":"肯德基 KFC (沪太店)","lon":"121.4499901","lat":"31.257908495","category":"68","category_name":"快餐厅","address":"普陀区沪太路583号(近中山北路)"},{"poiid":"B2094654D464A2FD489B","title":"上海铁路大厦","lon":"121.45258","lat":"31.2497","category":"46","category_name":"楼宇","address":"浦东新区金湘路345号"},{"poiid":"B2094757D068AAFA419D","title":"平江盛世家园","lon":"121.447951","lat":"31.256852","category":"47","category_name":"住宅区","address":"上海市闸北区交城路386弄"},{"poiid":"B2094757D068A3FB469C","title":"上海国际眼镜城","lon":"121.45453","lat":"31.25213","category":"132","category_name":"眼镜店","address":"闸北区中兴路1688号火车站北广场长途客运总站1-4楼(近恒丰路桥)"},{"poiid":"B2094654DA6CA5FC4293","title":"富丽大厦","lon":"121.448","lat":"31.2526","category":"46","category_name":"楼宇","address":"上海市普陀区江宁路1286号或江宁路1306弄"},{"poiid":"B2094751DA6AABF8459C","title":"上海外滩","lon":"121.454437","lat":"31.256653","category":"500","category_name":"未知分类","address":null},{"poiid":"B2094757D06FA3F54499","title":"无印良品MUJI(大悦城店)","lon":"121.45269408","lat":"31.253671806","category":"123","category_name":"家具建材市场","address":"上海市闸北区西藏北路166号大悦城3楼(近曲阜路)"},{"poiid":"B2094654DB6AA6FF469E","title":"上海亚繁龙门大酒店","lon":"121.45188","lat":"31.24962","category":"214","category_name":"四星级宾馆","address":"上海市闸北区恒丰路777号（近天目路）"},{"poiid":"B2094757D068A4FC419F","title":"和泰花园","lon":"121.45147","lat":"31.257212","category":"47","category_name":"住宅区","address":"上海市闸北区沪太路555弄"},{"poiid":"B2094757D069A2F54092","title":"阿拉丁清真餐厅","lon":"121.44803","lat":"31.25408","category":"90","category_name":"清真餐馆","address":"普陀区交通西路21号克拉玛依宾馆1楼(近交通路)"},{"poiid":"B2094757D068A7F94198","title":"世纪商务大厦","lon":"121.45","lat":"31.2495","category":"46","category_name":"楼宇","address":"上海市普陀区长寿路97号"},{"poiid":"B2094654D464A2F94793","title":"华舟大厦","lon":"121.45287","lat":"31.255368","category":"46","category_name":"楼宇","address":"华舟大厦位于闸北沪太路315弄"},{"poiid":"B2094654DB69A4FD4892","title":"锦江之星(火车站店)","lon":"121.45037","lat":"31.25593","category":"216","category_name":"经济型连锁酒店","address":"上海市闸北区沪太路500号(近中山北路)"},{"poiid":"B2094654DB6AABF4469C","title":"上海克拉玛依石油宾馆","lon":"121.44759","lat":"31.25407","category":"250","category_name":"公园户外","address":"上海普陀区交通路1333号(近交通路)"},{"poiid":"B2094655D36DA1FD4499","title":"恒丰路立交桥","lon":"121.45135","lat":"31.25165","category":"250","category_name":"公园户外","address":""},{"poiid":"B2094654D465A7FB409D","title":"智荟苑","lon":"121.44738","lat":"31.255966","category":"47","category_name":"住宅区","address":"交通西路129弄1-21"},{"poiid":"B2094654DA6CA5FC429C","title":"三维大厦","lon":"121.448","lat":"31.2533","category":"46","category_name":"楼宇","address":"卢湾区局门路427号(邮编:200023)"},{"poiid":"B2094757D46DAAFD479F","title":"华必和 沪太路店","lon":"121.451755054","lat":"31.255580793","category":"68","category_name":"快餐厅","address":"普陀区沪太路359号华龙大厦1楼(近芷江西路)"},{"poiid":"B2094757D16BA5FD419D","title":"莫干山路","lon":"121.45006565","lat":"31.2509608964","category":"500","category_name":"未知分类","address":"上海莫干山路"},{"poiid":"B2094655D26AA0FE4393","title":"湘旺阁 沪太路店","lon":"121.451435054","lat":"31.255667793","category":"77","category_name":"湖南菜","address":"普陀区沪太路380号(近恒丰北路)"},{"poiid":"B2094751DA6DA3F84193","title":"第十人民医院","lon":"121.453423","lat":"31.256281","category":"162","category_name":"医院","address":"延长中路"},{"poiid":"B2094757D46EA4FC429F","title":"恒顿咖啡","lon":"121.451918054","lat":"31.255161793","category":"65","category_name":"咖啡厅","address":"恒丰北路100号林顿大厦沪太路口"},{"poiid":"B2094753D46BAAF5409A","title":"上海火车站","lon":"121.451988","lat":"31.253292","category":"500","category_name":"未知分类","address":"上海市 上海火车站"},{"poiid":"B2094757D16AA1F44793","title":"胖子客家菜","lon":"121.45184595","lat":"31.2558687901","category":"247","category_name":"餐饮美食","address":"静安区安远路222号(陕西北路口)"},{"poiid":"B2094654D464A2FA409F","title":"昆明大楼","lon":"121.45397","lat":"31.25461","category":"46","category_name":"楼宇","address":"静安区长寿路(万航渡路口)"},{"poiid":"B2094757D068ABFE439B","title":"紫兰苑","lon":"121.45522","lat":"31.255281","category":"47","category_name":"住宅区","address":"上海市闸北区中华新路939弄"},{"poiid":"B2094655D268A0F5429C","title":"7天连锁酒店上海火车站店","lon":"121.45397","lat":"31.25461","category":"216","category_name":"经济型连锁酒店","address":"闸北区中华新路999号(近沪太路)"},{"poiid":"B2094757D66DA6F44393","title":"大洋小区","lon":"121.44888","lat":"31.254152","category":"47","category_name":"住宅区","address":"上海普陀区交通西路"},{"poiid":"B2094654D465A7F4419A","title":"良友金伴(中华新路)","lon":"121.45164","lat":"31.2551","category":"117","category_name":"便民商店/便利店","address":""},{"poiid":"B2094654DB6AA4FB419E","title":"上海市闸北区实验中学","lon":"121.45261","lat":"31.25325","category":"55","category_name":"中学","address":"闸北区中华新路977号(近沪太路)"},{"poiid":"B2094757DA65A6F4429F","title":"上海火车站五号候车室","lon":"121.450864680371","lat":"31.25141213843349","category":"500","category_name":"未知分类","address":"上海火车站"},{"poiid":"B2094654DB65A6F4459B","title":"圣天地商务楼","lon":"121.45","lat":"31.25","category":"46","category_name":"楼宇","address":"江宁路1165号"},{"poiid":"B2094655D26CA7FF419C","title":"地梨港小区","lon":"121.45069","lat":"31.25481","category":"47","category_name":"住宅区","address":""},{"poiid":"B2094655D26DABFF4593","title":"南苑e家商务连锁酒店沪太路店","lon":"121.44984","lat":"31.25698","category":"216","category_name":"经济型连锁酒店","address":"上海普陀区沪太路520号（紧邻沪太长途客运站，近中山北路）。"},{"poiid":"B2094655D36CA7FE419A","title":"沪太路中山北路","lon":"121.45043","lat":"31.25732","category":"38","category_name":"公交车站","address":""},{"poiid":"B2094655D26CA7FD4193","title":"地梨港小区(北门)","lon":"121.45075","lat":"31.25497","category":"47","category_name":"住宅区","address":""},{"poiid":"B2094654D465A7FB479F","title":"良友金伴便利连锁NO.894","lon":"121.45069","lat":"31.25288","category":"117","category_name":"便民商店/便利店","address":"中兴路1913"},{"poiid":"B2094750D66CA2F8459B","title":"吉泰连锁酒店上海北广场二店","lon":"121.451684832573","lat":"31.2552255186204","category":"216","category_name":"经济型连锁酒店","address":"闸北区恒丰北路100号(近上海火车站)"},{"poiid":"B2094757D66AA5FD4698","title":"潮人十二全牛火锅","lon":"121.449965","lat":"31.25745","category":"86","category_name":"火锅店","address":"普陀区沪太路520号(近中山北路)"},{"poiid":"B2094750D76CA4F8459F","title":"东方既白(火车站北广场店)","lon":"121.456","lat":"31.2524","category":"68","category_name":"快餐厅","address":"闸北区中兴路1600号火车站北广场入口西侧"},{"poiid":"B2094654D464A2F9499D","title":"快客No.815","lon":"121.45293","lat":"31.255","category":"117","category_name":"便民商店/便利店","address":"沪太路321"},{"poiid":"B2094654D464A3F5489B","title":"上海长途汽车客运总站","lon":"121.45463","lat":"31.2528","category":"35","category_name":"长途汽车站","address":"闸北区中兴路1662号(近孔家木桥路)"},{"poiid":"B2094757D068A7FB4698","title":"上海火车站4-5号站台","lon":"121.45375295","lat":"31.2499646774","category":"22","category_name":"火车站","address":"上海市火车站"},{"poiid":"B2094757D06FA1FE449B","title":"上海长途汽车站","lon":"121.45027","lat":"31.25843","category":"35","category_name":"长途汽车站","address":"普陀区中山北路1015号(沪太路口)"},{"poiid":"B209475CD564A7F8439E","title":"上海滩中信泰富店","lon":"121.45602","lat":"31.22851","category":"119","category_name":"商场","address":"\"南京西路1168号中信泰富广场，店铺号221.\r\n\""},{"poiid":"B2094757D06FABFF4493","title":"上海北方智选假日酒店 Holiday Inn Express","lon":"121.452994","lat":"31.252272","category":"217","category_name":"旅馆招待所","address":"上海市闸北区中兴路1738号(近恒丰路)"},{"poiid":"B2094757D06FA4FD409E","title":"一兆韦德(中远两湾城店)","lon":"121.44843","lat":"31.25147","category":"221","category_name":"健身中心","address":"普陀区远景路97弄中远两湾城23号(近上海火车站)"},{"poiid":"B2094757D069A2FD479D","title":"内环高架路","lon":"121.45056895","lat":"31.258640843","category":"260","category_name":"其他","address":"上海高架上"},{"poiid":"B2094757D06AA0FC4999","title":"上海沪铁长途客运站","lon":"121.451751983","lat":"31.2508245347","category":"35","category_name":"长途汽车站","address":"闸北区恒丰路783号(近远景路)"},{"poiid":"B2094757D06FA7F54498","title":"友力国际大厦","lon":"121.452","lat":"31.2504","category":"46","category_name":"楼宇","address":"上海江宁路1158号"},{"poiid":"B2094757D068A7F94298","title":"肯德基 KFC (沪太店)","lon":"121.4499901","lat":"31.257908495","category":"68","category_name":"快餐厅","address":"普陀区沪太路583号(近中山北路)"},{"poiid":"B2094654D464A2FD489B","title":"上海铁路大厦","lon":"121.45258","lat":"31.2497","category":"46","category_name":"楼宇","address":"浦东新区金湘路345号"},{"poiid":"B2094757D068AAFA419D","title":"平江盛世家园","lon":"121.447951","lat":"31.256852","category":"47","category_name":"住宅区","address":"上海市闸北区交城路386弄"},{"poiid":"B2094757D068A3FB469C","title":"上海国际眼镜城","lon":"121.45453","lat":"31.25213","category":"132","category_name":"眼镜店","address":"闸北区中兴路1688号火车站北广场长途客运总站1-4楼(近恒丰路桥)"},{"poiid":"B2094654DA6CA5FC4293","title":"富丽大厦","lon":"121.448","lat":"31.2526","category":"46","category_name":"楼宇","address":"上海市普陀区江宁路1286号或江宁路1306弄"},{"poiid":"B2094751DA6AABF8459C","title":"上海外滩","lon":"121.454437","lat":"31.256653","category":"500","category_name":"未知分类","address":null},{"poiid":"B2094757D06FA3F54499","title":"无印良品MUJI(大悦城店)","lon":"121.45269408","lat":"31.253671806","category":"123","category_name":"家具建材市场","address":"上海市闸北区西藏北路166号大悦城3楼(近曲阜路)"},{"poiid":"B2094654DB6AA6FF469E","title":"上海亚繁龙门大酒店","lon":"121.45188","lat":"31.24962","category":"214","category_name":"四星级宾馆","address":"上海市闸北区恒丰路777号（近天目路）"},{"poiid":"B2094757D068A4FC419F","title":"和泰花园","lon":"121.45147","lat":"31.257212","category":"47","category_name":"住宅区","address":"上海市闸北区沪太路555弄"},{"poiid":"B2094757D069A2F54092","title":"阿拉丁清真餐厅","lon":"121.44803","lat":"31.25408","category":"90","category_name":"清真餐馆","address":"普陀区交通西路21号克拉玛依宾馆1楼(近交通路)"},{"poiid":"B2094757D068A7F94198","title":"世纪商务大厦","lon":"121.45","lat":"31.2495","category":"46","category_name":"楼宇","address":"上海市普陀区长寿路97号"},{"poiid":"B2094654D464A2F94793","title":"华舟大厦","lon":"121.45287","lat":"31.255368","category":"46","category_name":"楼宇","address":"华舟大厦位于闸北沪太路315弄"},{"poiid":"B2094654DB69A4FD4892","title":"锦江之星(火车站店)","lon":"121.45037","lat":"31.25593","category":"216","category_name":"经济型连锁酒店","address":"上海市闸北区沪太路500号(近中山北路)"},{"poiid":"B2094654DB6AABF4469C","title":"上海克拉玛依石油宾馆","lon":"121.44759","lat":"31.25407","category":"250","category_name":"公园户外","address":"上海普陀区交通路1333号(近交通路)"},{"poiid":"B2094655D36DA1FD4499","title":"恒丰路立交桥","lon":"121.45135","lat":"31.25165","category":"250","category_name":"公园户外","address":""},{"poiid":"B2094654D465A7FB409D","title":"智荟苑","lon":"121.44738","lat":"31.255966","category":"47","category_name":"住宅区","address":"交通西路129弄1-21"},{"poiid":"B2094654DA6CA5FC429C","title":"三维大厦","lon":"121.448","lat":"31.2533","category":"46","category_name":"楼宇","address":"卢湾区局门路427号(邮编:200023)"},{"poiid":"B2094757D46DAAFD479F","title":"华必和 沪太路店","lon":"121.451755054","lat":"31.255580793","category":"68","category_name":"快餐厅","address":"普陀区沪太路359号华龙大厦1楼(近芷江西路)"},{"poiid":"B2094757D16BA5FD419D","title":"莫干山路","lon":"121.45006565","lat":"31.2509608964","category":"500","category_name":"未知分类","address":"上海莫干山路"},{"poiid":"B2094655D26AA0FE4393","title":"湘旺阁 沪太路店","lon":"121.451435054","lat":"31.255667793","category":"77","category_name":"湖南菜","address":"普陀区沪太路380号(近恒丰北路)"},{"poiid":"B2094751DA6DA3F84193","title":"第十人民医院","lon":"121.453423","lat":"31.256281","category":"162","category_name":"医院","address":"延长中路"},{"poiid":"B2094757D46EA4FC429F","title":"恒顿咖啡","lon":"121.451918054","lat":"31.255161793","category":"65","category_name":"咖啡厅","address":"恒丰北路100号林顿大厦沪太路口"},{"poiid":"B2094753D46BAAF5409A","title":"上海火车站","lon":"121.451988","lat":"31.253292","category":"500","category_name":"未知分类","address":"上海市 上海火车站"},{"poiid":"B2094757D16AA1F44793","title":"胖子客家菜","lon":"121.45184595","lat":"31.2558687901","category":"247","category_name":"餐饮美食","address":"静安区安远路222号(陕西北路口)"},{"poiid":"B2094654D464A2FA409F","title":"昆明大楼","lon":"121.45397","lat":"31.25461","category":"46","category_name":"楼宇","address":"静安区长寿路(万航渡路口)"},{"poiid":"B2094757D068ABFE439B","title":"紫兰苑","lon":"121.45522","lat":"31.255281","category":"47","category_name":"住宅区","address":"上海市闸北区中华新路939弄"},{"poiid":"B2094655D268A0F5429C","title":"7天连锁酒店上海火车站店","lon":"121.45397","lat":"31.25461","category":"216","category_name":"经济型连锁酒店","address":"闸北区中华新路999号(近沪太路)"},{"poiid":"B2094757D66DA6F44393","title":"大洋小区","lon":"121.44888","lat":"31.254152","category":"47","category_name":"住宅区","address":"上海普陀区交通西路"},{"poiid":"B2094654D465A7F4419A","title":"良友金伴(中华新路)","lon":"121.45164","lat":"31.2551","category":"117","category_name":"便民商店/便利店","address":""},{"poiid":"B2094654DB6AA4FB419E","title":"上海市闸北区实验中学","lon":"121.45261","lat":"31.25325","category":"55","category_name":"中学","address":"闸北区中华新路977号(近沪太路)"},{"poiid":"B2094757DA65A6F4429F","title":"上海火车站五号候车室","lon":"121.450864680371","lat":"31.25141213843349","category":"500","category_name":"未知分类","address":"上海火车站"},{"poiid":"B2094654DB65A6F4459B","title":"圣天地商务楼","lon":"121.45","lat":"31.25","category":"46","category_name":"楼宇","address":"江宁路1165号"},{"poiid":"B2094655D26CA7FF419C","title":"地梨港小区","lon":"121.45069","lat":"31.25481","category":"47","category_name":"住宅区","address":""},{"poiid":"B2094655D26DABFF4593","title":"南苑e家商务连锁酒店沪太路店","lon":"121.44984","lat":"31.25698","category":"216","category_name":"经济型连锁酒店","address":"上海普陀区沪太路520号（紧邻沪太长途客运站，近中山北路）。"},{"poiid":"B2094655D36CA7FE419A","title":"沪太路中山北路","lon":"121.45043","lat":"31.25732","category":"38","category_name":"公交车站","address":""},{"poiid":"B2094655D26CA7FD4193","title":"地梨港小区(北门)","lon":"121.45075","lat":"31.25497","category":"47","category_name":"住宅区","address":""},{"poiid":"B2094654D465A7FB479F","title":"良友金伴便利连锁NO.894","lon":"121.45069","lat":"31.25288","category":"117","category_name":"便民商店/便利店","address":"中兴路1913"},{"poiid":"B2094750D66CA2F8459B","title":"吉泰连锁酒店上海北广场二店","lon":"121.451684832573","lat":"31.2552255186204","category":"216","category_name":"经济型连锁酒店","address":"闸北区恒丰北路100号(近上海火车站)"},{"poiid":"B2094757D66AA5FD4698","title":"潮人十二全牛火锅","lon":"121.449965","lat":"31.25745","category":"86","category_name":"火锅店","address":"普陀区沪太路520号(近中山北路)"},{"poiid":"B2094750D76CA4F8459F","title":"东方既白(火车站北广场店)","lon":"121.456","lat":"31.2524","category":"68","category_name":"快餐厅","address":"闸北区中兴路1600号火车站北广场入口西侧"},{"poiid":"B2094654D464A2F9499D","title":"快客No.815","lon":"121.45293","lat":"31.255","category":"117","category_name":"便民商店/便利店","address":"沪太路321"},{"poiid":"B2094654D464A3F5489B","title":"上海长途汽车客运总站","lon":"121.45463","lat":"31.2528","category":"35","category_name":"长途汽车站","address":"闸北区中兴路1662号(近孔家木桥路)"},{"poiid":"B2094757D068A7FB4698","title":"上海火车站4-5号站台","lon":"121.45375295","lat":"31.2499646774","category":"22","category_name":"火车站","address":"上海市火车站"},{"poiid":"B2094757D06FA1FE449B","title":"上海长途汽车站","lon":"121.45027","lat":"31.25843","category":"35","category_name":"长途汽车站","address":"普陀区中山北路1015号(沪太路口)"},{"poiid":"B209475CD564A7F8439E","title":"上海滩中信泰富店","lon":"121.45602","lat":"31.22851","category":"119","category_name":"商场","address":"\"南京西路1168号中信泰富广场，店铺号221.\r\n\""},{"poiid":"B2094757D06FABFF4493","title":"上海北方智选假日酒店 Holiday Inn Express","lon":"121.452994","lat":"31.252272","category":"217","category_name":"旅馆招待所","address":"上海市闸北区中兴路1738号(近恒丰路)"},{"poiid":"B2094757D06FA4FD409E","title":"一兆韦德(中远两湾城店)","lon":"121.44843","lat":"31.25147","category":"221","category_name":"健身中心","address":"普陀区远景路97弄中远两湾城23号(近上海火车站)"},{"poiid":"B2094757D069A2FD479D","title":"内环高架路","lon":"121.45056895","lat":"31.258640843","category":"260","category_name":"其他","address":"上海高架上"},{"poiid":"B2094757D06AA0FC4999","title":"上海沪铁长途客运站","lon":"121.451751983","lat":"31.2508245347","category":"35","category_name":"长途汽车站","address":"闸北区恒丰路783号(近远景路)"},{"poiid":"B2094757D06FA7F54498","title":"友力国际大厦","lon":"121.452","lat":"31.2504","category":"46","category_name":"楼宇","address":"上海江宁路1158号"},{"poiid":"B2094757D068A7F94298","title":"肯德基 KFC (沪太店)","lon":"121.4499901","lat":"31.257908495","category":"68","category_name":"快餐厅","address":"普陀区沪太路583号(近中山北路)"},{"poiid":"B2094654D464A2FD489B","title":"上海铁路大厦","lon":"121.45258","lat":"31.2497","category":"46","category_name":"楼宇","address":"浦东新区金湘路345号"},{"poiid":"B2094757D068AAFA419D","title":"平江盛世家园","lon":"121.447951","lat":"31.256852","category":"47","category_name":"住宅区","address":"上海市闸北区交城路386弄"},{"poiid":"B2094757D068A3FB469C","title":"上海国际眼镜城","lon":"121.45453","lat":"31.25213","category":"132","category_name":"眼镜店","address":"闸北区中兴路1688号火车站北广场长途客运总站1-4楼(近恒丰路桥)"},{"poiid":"B2094654DA6CA5FC4293","title":"富丽大厦","lon":"121.448","lat":"31.2526","category":"46","category_name":"楼宇","address":"上海市普陀区江宁路1286号或江宁路1306弄"},{"poiid":"B2094751DA6AABF8459C","title":"上海外滩","lon":"121.454437","lat":"31.256653","category":"500","category_name":"未知分类","address":null},{"poiid":"B2094757D06FA3F54499","title":"无印良品MUJI(大悦城店)","lon":"121.45269408","lat":"31.253671806","category":"123","category_name":"家具建材市场","address":"上海市闸北区西藏北路166号大悦城3楼(近曲阜路)"},{"poiid":"B2094654DB6AA6FF469E","title":"上海亚繁龙门大酒店","lon":"121.45188","lat":"31.24962","category":"214","category_name":"四星级宾馆","address":"上海市闸北区恒丰路777号（近天目路）"},{"poiid":"B2094757D068A4FC419F","title":"和泰花园","lon":"121.45147","lat":"31.257212","category":"47","category_name":"住宅区","address":"上海市闸北区沪太路555弄"},{"poiid":"B2094757D069A2F54092","title":"阿拉丁清真餐厅","lon":"121.44803","lat":"31.25408","category":"90","category_name":"清真餐馆","address":"普陀区交通西路21号克拉玛依宾馆1楼(近交通路)"},{"poiid":"B2094757D068A7F94198","title":"世纪商务大厦","lon":"121.45","lat":"31.2495","category":"46","category_name":"楼宇","address":"上海市普陀区长寿路97号"},{"poiid":"B2094654D464A2F94793","title":"华舟大厦","lon":"121.45287","lat":"31.255368","category":"46","category_name":"楼宇","address":"华舟大厦位于闸北沪太路315弄"},{"poiid":"B2094654DB69A4FD4892","title":"锦江之星(火车站店)","lon":"121.45037","lat":"31.25593","category":"216","category_name":"经济型连锁酒店","address":"上海市闸北区沪太路500号(近中山北路)"},{"poiid":"B2094654DB6AABF4469C","title":"上海克拉玛依石油宾馆","lon":"121.44759","lat":"31.25407","category":"250","category_name":"公园户外","address":"上海普陀区交通路1333号(近交通路)"},{"poiid":"B2094655D36DA1FD4499","title":"恒丰路立交桥","lon":"121.45135","lat":"31.25165","category":"250","category_name":"公园户外","address":""},{"poiid":"B2094654D465A7FB409D","title":"智荟苑","lon":"121.44738","lat":"31.255966","category":"47","category_name":"住宅区","address":"交通西路129弄1-21"},{"poiid":"B2094654DA6CA5FC429C","title":"三维大厦","lon":"121.448","lat":"31.2533","category":"46","category_name":"楼宇","address":"卢湾区局门路427号(邮编:200023)"},{"poiid":"B2094757D46DAAFD479F","title":"华必和 沪太路店","lon":"121.451755054","lat":"31.255580793","category":"68","category_name":"快餐厅","address":"普陀区沪太路359号华龙大厦1楼(近芷江西路)"},{"poiid":"B2094757D16BA5FD419D","title":"莫干山路","lon":"121.45006565","lat":"31.2509608964","category":"500","category_name":"未知分类","address":"上海莫干山路"},{"poiid":"B2094655D26AA0FE4393","title":"湘旺阁 沪太路店","lon":"121.451435054","lat":"31.255667793","category":"77","category_name":"湖南菜","address":"普陀区沪太路380号(近恒丰北路)"},{"poiid":"B2094751DA6DA3F84193","title":"第十人民医院","lon":"121.453423","lat":"31.256281","category":"162","category_name":"医院","address":"延长中路"},{"poiid":"B2094757D46EA4FC429F","title":"恒顿咖啡","lon":"121.451918054","lat":"31.255161793","category":"65","category_name":"咖啡厅","address":"恒丰北路100号林顿大厦沪太路口"},{"poiid":"B2094753D46BAAF5409A","title":"上海火车站","lon":"121.451988","lat":"31.253292","category":"500","category_name":"未知分类","address":"上海市 上海火车站"},{"poiid":"B2094757D16AA1F44793","title":"胖子客家菜","lon":"121.45184595","lat":"31.2558687901","category":"247","category_name":"餐饮美食","address":"静安区安远路222号(陕西北路口)"},{"poiid":"B2094654D464A2FA409F","title":"昆明大楼","lon":"121.45397","lat":"31.25461","category":"46","category_name":"楼宇","address":"静安区长寿路(万航渡路口)"},{"poiid":"B2094757D068ABFE439B","title":"紫兰苑","lon":"121.45522","lat":"31.255281","category":"47","category_name":"住宅区","address":"上海市闸北区中华新路939弄"},{"poiid":"B2094655D268A0F5429C","title":"7天连锁酒店上海火车站店","lon":"121.45397","lat":"31.25461","category":"216","category_name":"经济型连锁酒店","address":"闸北区中华新路999号(近沪太路)"},{"poiid":"B2094757D66DA6F44393","title":"大洋小区","lon":"121.44888","lat":"31.254152","category":"47","category_name":"住宅区","address":"上海普陀区交通西路"},{"poiid":"B2094654D465A7F4419A","title":"良友金伴(中华新路)","lon":"121.45164","lat":"31.2551","category":"117","category_name":"便民商店/便利店","address":""},{"poiid":"B2094654DB6AA4FB419E","title":"上海市闸北区实验中学","lon":"121.45261","lat":"31.25325","category":"55","category_name":"中学","address":"闸北区中华新路977号(近沪太路)"},{"poiid":"B2094757DA65A6F4429F","title":"上海火车站五号候车室","lon":"121.450864680371","lat":"31.25141213843349","category":"500","category_name":"未知分类","address":"上海火车站"},{"poiid":"B2094654DB65A6F4459B","title":"圣天地商务楼","lon":"121.45","lat":"31.25","category":"46","category_name":"楼宇","address":"江宁路1165号"},{"poiid":"B2094655D26CA7FF419C","title":"地梨港小区","lon":"121.45069","lat":"31.25481","category":"47","category_name":"住宅区","address":""},{"poiid":"B2094655D26DABFF4593","title":"南苑e家商务连锁酒店沪太路店","lon":"121.44984","lat":"31.25698","category":"216","category_name":"经济型连锁酒店","address":"上海普陀区沪太路520号（紧邻沪太长途客运站，近中山北路）。"},{"poiid":"B2094655D36CA7FE419A","title":"沪太路中山北路","lon":"121.45043","lat":"31.25732","category":"38","category_name":"公交车站","address":""},{"poiid":"B2094655D26CA7FD4193","title":"地梨港小区(北门)","lon":"121.45075","lat":"31.25497","category":"47","category_name":"住宅区","address":""},{"poiid":"B2094654D465A7FB479F","title":"良友金伴便利连锁NO.894","lon":"121.45069","lat":"31.25288","category":"117","category_name":"便民商店/便利店","address":"中兴路1913"},{"poiid":"B2094750D66CA2F8459B","title":"吉泰连锁酒店上海北广场二店","lon":"121.451684832573","lat":"31.2552255186204","category":"216","category_name":"经济型连锁酒店","address":"闸北区恒丰北路100号(近上海火车站)"},{"poiid":"B2094757D66AA5FD4698","title":"潮人十二全牛火锅","lon":"121.449965","lat":"31.25745","category":"86","category_name":"火锅店","address":"普陀区沪太路520号(近中山北路)"},{"poiid":"B2094750D76CA4F8459F","title":"东方既白(火车站北广场店)","lon":"121.456","lat":"31.2524","category":"68","category_name":"快餐厅","address":"闸北区中兴路1600号火车站北广场入口西侧"},{"poiid":"B2094654D464A2F9499D","title":"快客No.815","lon":"121.45293","lat":"31.255","category":"117","category_name":"便民商店/便利店","address":"沪太路321"}]