[{"poiid":"B2094654D464A3F5489B","title":"上海长途汽车客运总站","lon":"121.45463","lat":"31.2528","category":"35","category_name":"长途汽车站","address":"闸北区中兴路1662号(近孔家木桥路)"},{"poiid":"B2094655D36CA2F44592","title":"上海火车站北广场","lon":"121.45576","lat":"31.25164","category":"38","category_name":"公交车站","address":"上海市闸北区大统路"},{"poiid":"B2094757D068A7FB4698","title":"上海火车站4-5号站台","lon":"121.45375295","lat":"31.2499646774","category":"22","category_name":"火车站","address":"上海市火车站"},{"poiid":"B209475CD564A7F8439E","title":"上海滩中信泰富店","lon":"121.45602","lat":"31.22851","category":"119","category_name":"商场","address":"\"南京西路1168号中信泰富广场，店铺号221.\r\n\""},{"poiid":"B2094757D06FABFF4493","title":"上海北方智选假日酒店 Holiday Inn Express","lon":"121.452994","lat":"31.252272","category":"217","category_name":"旅馆招待所","address":"上海市闸北区中兴路1738号(近恒丰路)"},{"poiid":"B2094757D06FA2F8489A","title":"麦当劳(火车站北广场店)","lon":"121.455468","lat":"31.251107","category":"68","category_name":"快餐厅","address":"闸北区中兴路1646号(近大统路)"},{"poiid":"B2094757D06AA0FC4999","title":"上海沪铁长途客运站","lon":"121.451751983","lat":"31.2508245347","category":"35","category_name":"长途汽车站","address":"闸北区恒丰路783号(近远景路)"},{"poiid":"B2094757D06FA7F54498","title":"友力国际大厦","lon":"121.452","lat":"31.2504","category":"46","category_name":"楼宇","address":"上海江宁路1158号"},{"poiid":"B2094654D464A2FD489B","title":"上海铁路大厦","lon":"121.45258","lat":"31.2497","category":"46","category_name":"楼宇","address":"浦东新区金湘路345号"},{"poiid":"B2094757D068A3FB469C","title":"上海国际眼镜城","lon":"121.45453","lat":"31.25213","category":"132","category_name":"眼镜店","address":"闸北区中兴路1688号火车站北广场长途客运总站1-4楼(近恒丰路桥)"},{"poiid":"B2094757D068A7F94298","title":"肯德基 KFC (沪太店)","lon":"121.4499901","lat":"31.257908495","category":"68","category_name":"快餐厅","address":"普陀区沪太路583号(近中山北路)"},{"poiid":"B2094757D06FA3F54499","title":"无印良品MUJI(大悦城店)","lon":"121.45269408","lat":"31.253671806","category":"123","category_name":"家具建材市场","address":"上海市闸北区西藏北路166号大悦城3楼(近曲阜路)"},{"poiid":"B2094751DA6AABF8459C","title":"上海外滩","lon":"121.454437","lat":"31.256653","category":"500","category_name":"未知分类","address":null},{"poiid":"B2094654DB6AA6FF469E","title":"上海亚繁龙门大酒店","lon":"121.45188","lat":"31.24962","category":"214","category_name":"四星级宾馆","address":"上海市闸北区恒丰路777号（近天目路）"},{"poiid":"B2094757D068A4FC419F","title":"和泰花园","lon":"121.45147","lat":"31.257212","category":"47","category_name":"住宅区","address":"上海市闸北区沪太路555弄"},{"poiid":"B2094654D464A2F94793","title":"华舟大厦","lon":"121.45287","lat":"31.255368","category":"46","category_name":"楼宇","address":"华舟大厦位于闸北沪太路315弄"},{"poiid":"B2094654D464A2FA409F","title":"昆明大楼","lon":"121.45397","lat":"31.25461","category":"46","category_name":"楼宇","address":"静安区长寿路(万航渡路口)"},{"poiid":"B2094655D268A0F5429C","title":"7天连锁酒店上海火车站店","lon":"121.45397","lat":"31.25461","category":"216","category_name":"经济型连锁酒店","address":"闸北区中华新路999号(近沪太路)"},{"poiid":"B2094757D068ABFE439B","title":"紫兰苑","lon":"121.45522","lat":"31.255281","category":"47","category_name":"住宅区","address":"上海市闸北区中华新路939弄"},{"poiid":"B2094654DB69A4FD4892","title":"锦江之星(火车站店)","lon":"121.45037","lat":"31.25593","category":"216","category_name":"经济型连锁酒店","address":"上海市闸北区沪太路500号(近中山北路)"},{"poiid":"B2094751DA6DA3F84193","title":"第十人民医院","lon":"121.453423","lat":"31.256281","category":"162","category_name":"医院","address":"延长中路"},{"poiid":"B2094655D36DA1FD4499","title":"恒丰路立交桥","lon":"121.45135","lat":"31.25165","category":"250","category_name":"公园户外","address":""},{"poiid":"B2094654DB6AA4FB419E","title":"上海市闸北区实验中学","lon":"121.45261","lat":"31.25325","category":"55","category_name":"中学","address":"闸北区中华新路977号(近沪太路)"},{"poiid":"B2094750D76CA4F8459F","title":"东方既白(火车站北广场店)","lon":"121.456","lat":"31.2524","category":"68","category_name":"快餐厅","address":"闸北区中兴路1600号火车站北广场入口西侧"},{"poiid":"B2094757D46DAAFD479F","title":"华必和 沪太路店","lon":"121.451755054","lat":"31.255580793","category":"68","category_name":"快餐厅","address":"普陀区沪太路359号华龙大厦1楼(近芷江西路)"},{"poiid":"B2094753D46BAAF5409A","title":"上海火车站","lon":"121.451988","lat":"31.253292","category":"500","category_name":"未知分类","address":"上海市 上海火车站"},{"poiid":"B2094654D464A2F9499D","title":"快客No.815","lon":"121.45293","lat":"31.255","category":"117","category_name":"便民商店/便利店","address":"沪太路321"},{"poiid":"B2094757D46EA4FC429F","title":"恒顿咖啡","lon":"121.451918054","lat":"31.255161793","category":"65","category_name":"咖啡厅","address":"恒丰北路100号林顿大厦沪太路口"},{"poiid":"B2094655D26FA0FD489E","title":"华舟小区(南门)","lon":"121.45327","lat":"31.25479","category":"47","category_name":"住宅区","address":"沪太路315弄"},{"poiid":"B2094757D16AA1F44793","title":"胖子客家菜","lon":"121.45184595","lat":"31.2558687901","category":"247","category_name":"餐饮美食","address":"静安区安远路222号(陕西北路口)"},{"poiid":"B2094750DB6CA3FE479B","title":"上海交通大学附属儿童医院","lon":"121.454589","lat":"31.253812","category":"162","category_name":"医院","address":"北京西路1400号"},{"poiid":"B2094655D26AA0FE4393","title":"湘旺阁 沪太路店","lon":"121.451435054","lat":"31.255667793","category":"77","category_name":"湖南菜","address":"普陀区沪太路380号(近恒丰北路)"},{"poiid":"B2094757D16BA7FF4498","title":"京世造型","lon":"121.455735103","lat":"31.2563981292","category":"148","category_name":"美容美发店","address":"上海芷江西路549号(普善路口)"},{"poiid":"B2094655D36DA7FF4892","title":"中华新路沪太路","lon":"121.45462","lat":"31.25385","category":"38","category_name":"公交车站","address":""},{"poiid":"B2094757D76CAAF84099","title":"永和大王 中兴路店","lon":"121.45446","lat":"31.25236","category":"68","category_name":"快餐厅","address":"闸北区中兴路1666号(近长途汽车客运总站)"},{"poiid":"B2094654D464A2F94999","title":"华舟小区","lon":"121.45317","lat":"31.25503","category":"47","category_name":"住宅区","address":"沪太路315弄"},{"poiid":"B2094757D16BA5FD419D","title":"莫干山路","lon":"121.45006565","lat":"31.2509608964","category":"500","category_name":"未知分类","address":"上海莫干山路"},{"poiid":"B2094757D76AA6FE4198","title":"谢记重庆麻辣烫 芷江西路店","lon":"121.456205","lat":"31.256621","category":"68","category_name":"快餐厅","address":"闸北区芷江西路487号(近普善路)"},{"poiid":"B2094655D26FA1F4499B","title":"上海市闸北第八中学(中华新路)","lon":"121.45442","lat":"31.25453","category":"55","category_name":"中学","address":"中华新路977"},{"poiid":"B2094655D26FA6F54092","title":"客运大厦","lon":"121.45261","lat":"31.25234","category":"46","category_name":"楼宇","address":"中兴路"},{"poiid":"B2094654D465A7F4419A","title":"良友金伴(中华新路)","lon":"121.45164","lat":"31.2551","category":"117","category_name":"便民商店/便利店","address":""},{"poiid":"B2094654D464A2FD4898","title":"上海铁路大厦酒店","lon":"121.45258","lat":"31.2497","category":"76","category_name":"上海菜","address":"闸北区秣陵路355号(恒丰路秣陵路)"},{"poiid":"B2094654D464A3F54792","title":"大娘水饺美食城","lon":"121.4553","lat":"31.25198","category":"68","category_name":"快餐厅","address":"闸北区中兴路1638号"},{"poiid":"B2094757D16FA6FF419A","title":"老娘舅（上海长途汽车总站店)","lon":"121.4566547","lat":"31.252325944","category":"68","category_name":"快餐厅","address":"闸北区中兴路1642号(近汽车总站出口处)"},{"poiid":"B2094757DA65A6F4429F","title":"上海火车站五号候车室","lon":"121.450864680371","lat":"31.25141213843349","category":"500","category_name":"未知分类","address":"上海火车站"},{"poiid":"B2094654DB69A6FE4993","title":"兴联公寓","lon":"121.45214","lat":"31.256426","category":"47","category_name":"住宅区","address":"兴联公寓位于闸北沪太路453弄88号"},{"poiid":"B2094757D169ABFC4993","title":"秀田美容美发沙龙","lon":"121.45229","lat":"31.25353","category":"148","category_name":"美容美发店","address":"闸北区恒丰路41号(近一号线汉中路地铁站)"},{"poiid":"B2094750D66CA2F8459B","title":"吉泰连锁酒店上海北广场二店","lon":"121.451684832573","lat":"31.2552255186204","category":"216","category_name":"经济型连锁酒店","address":"闸北区恒丰北路100号(近上海火车站)"},{"poiid":"B2094757D064A6FA4693","title":"合兴小区 中华新路","lon":"121.45415437","lat":"31.252870556","category":"47","category_name":"住宅区","address":"上海中华新路940号「近沪太路」"},{"poiid":"B2094655D26AA0FE4092","title":"唐人眼镜三叶店","lon":"121.45417","lat":"31.25226","category":"247","category_name":"餐饮美食","address":"闸北区梅园路360号环龙商厦4楼59号铺"},{"poiid":"B2094654D464A3F5489B","title":"上海长途汽车客运总站","lon":"121.45463","lat":"31.2528","category":"35","category_name":"长途汽车站","address":"闸北区中兴路1662号(近孔家木桥路)"},{"poiid":"B2094655D36CA2F44592","title":"上海火车站北广场","lon":"121.45576","lat":"31.25164","category":"38","category_name":"公交车站","address":"上海市闸北区大统路"},{"poiid":"B2094757D068A7FB4698","title":"上海火车站4-5号站台","lon":"121.45375295","lat":"31.2499646774","category":"22","category_name":"火车站","address":"上海市火车站"},{"poiid":"B209475CD564A7F8439E","title":"上海滩中信泰富店","lon":"121.45602","lat":"31.22851","category":"119","category_name":"商场","address":"\"南京西路1168号中信泰富广场，店铺号221.\r\n\""},{"poiid":"B2094757D06FABFF4493","title":"上海北方智选假日酒店 Holiday Inn Express","lon":"121.452994","lat":"31.252272","category":"217","category_name":"旅馆招待所","address":"上海市闸北区中兴路1738号(近恒丰路)"},{"poiid":"B2094757D06FA2F8489A","title":"麦当劳(火车站北广场店)","lon":"121.455468","lat":"31.251107","category":"68","category_name":"快餐厅","address":"闸北区中兴路1646号(近大统路)"},{"poiid":"B2094757D06AA0FC4999","title":"上海沪铁长途客运站","lon":"121.451751983","lat":"31.2508245347","category":"35","category_name":"长途汽车站","address":"闸北区恒丰路783号(近远景路)"},{"poiid":"B2094757D06FA7F54498","title":"友力国际大厦","lon":"121.452","lat":"31.2504","category":"46","category_name":"楼宇","address":"上海江宁路1158号"},{"poiid":"B2094654D464A2FD489B","title":"上海铁路大厦","lon":"121.45258","lat":"31.2497","category":"46","category_name":"楼宇","address":"浦东新区金湘路345号"},{"poiid":"B2094757D068A3FB469C","title":"上海国际眼镜城","lon":"121.45453","lat":"31.25213","category":"132","category_name":"眼镜店","address":"闸北区中兴路1688号火车站北广场长途客运总站1-4楼(近恒丰路桥)"},{"poiid":"B2094757D068A7F94298","title":"肯德基 KFC (沪太店)","lon":"121.4499901","lat":"31.257908495","category":"68","category_name":"快餐厅","address":"普陀区沪太路583号(近中山北路)"},{"poiid":"B2094757D06FA3F54499","title":"无印良品MUJI(大悦城店)","lon":"121.45269408","lat":"31.253671806","category":"123","category_name":"家具建材市场","address":"上海市闸北区西藏北路166号大悦城3楼(近曲阜路)"},{"poiid":"B2094751DA6AABF8459C","title":"上海外滩","lon":"121.454437","lat":"31.256653","category":"500","category_name":"未知分类","address":null},{"poiid":"B2094654DB6AA6FF469E","title":"上海亚繁龙门大酒店","lon":"121.45188","lat":"31.24962","category":"214","category_name":"四星级宾馆","address":"上海市闸北区恒丰路777号（近天目路）"},{"poiid":"B2094757D068A4FC419F","title":"和泰花园","lon":"121.45147","lat":"31.257212","category":"47","category_name":"住宅区","address":"上海市闸北区沪太路555弄"},{"poiid":"B2094654D464A2F94793","title":"华舟大厦","lon":"121.45287","lat":"31.255368","category":"46","category_name":"楼宇","address":"华舟大厦位于闸北沪太路315弄"},{"poiid":"B2094654D464A2FA409F","title":"昆明大楼","lon":"121.45397","lat":"31.25461","category":"46","category_name":"楼宇","address":"静安区长寿路(万航渡路口)"},{"poiid":"B2094655D268A0F5429C","title":"7天连锁酒店上海火车站店","lon":"121.45397","lat":"31.25461","category":"216","category_name":"经济型连锁酒店","address":"闸北区中华新路999号(近沪太路)"},{"poiid":"B2094757D068ABFE439B","title":"紫兰苑","lon":"121.45522","lat":"31.255281","category":"47","category_name":"住宅区","address":"上海市闸北区中华新路939弄"},{"poiid":"B2094654DB69A4FD4892","title":"锦江之星(火车站店)","lon":"121.45037","lat":"31.25593","category":"216","category_name":"经济型连锁酒店","address":"上海市闸北区沪太路500号(近中山北路)"},{"poiid":"B2094751DA6DA3F84193","title":"第十人民医院","lon":"121.453423","lat":"31.256281","category":"162","category_name":"医院","address":"延长中路"},{"poiid":"B2094655D36DA1FD4499","title":"恒丰路立交桥","lon":"121.45135","lat":"31.25165","category":"250","category_name":"公园户外","address":""},{"poiid":"B2094654DB6AA4FB419E","title":"上海市闸北区实验中学","lon":"121.45261","lat":"31.25325","category":"55","category_name":"中学","address":"闸北区中华新路977号(近沪太路)"},{"poiid":"B2094750D76CA4F8459F","title":"东方既白(火车站北广场店)","lon":"121.456","lat":"31.2524","category":"68","category_name":"快餐厅","address":"闸北区中兴路1600号火车站北广场入口西侧"},{"poiid":"B2094757D46DAAFD479F","title":"华必和 沪太路店","lon":"121.451755054","lat":"31.255580793","category":"68","category_name":"快餐厅","address":"普陀区沪太路359号华龙大厦1楼(近芷江西路)"},{"poiid":"B2094753D46BAAF5409A","title":"上海火车站","lon":"121.451988","lat":"31.253292","category":"500","category_name":"未知分类","address":"上海市 上海火车站"},{"poiid":"B2094654D464A2F9499D","title":"快客No.815","lon":"121.45293","lat":"31.255","category":"117","category_name":"便民商店/便利店","address":"沪太路321"},{"poiid":"B2094757D46EA4FC429F","title":"恒顿咖啡","lon":"121.451918054","lat":"31.255161793","category":"65","category_name":"咖啡厅","address":"恒丰北路100号林顿大厦沪太路口"},{"poiid":"B2094655D26FA0FD489E","title":"华舟小区(南门)","lon":"121.45327","lat":"31.25479","category":"47","category_name":"住宅区","address":"沪太路315弄"},{"poiid":"B2094757D16AA1F44793","title":"胖子客家菜","lon":"121.45184595","lat":"31.2558687901","category":"247","category_name":"餐饮美食","address":"静安区安远路222号(陕西北路口)"},{"poiid":"B2094750DB6CA3FE479B","title":"上海交通大学附属儿童医院","lon":"121.454589","lat":"31.253812","category":"162","category_name":"医院","address":"北京西路1400号"},{"poiid":"B2094655D26AA0FE4393","title":"湘旺阁 沪太路店","lon":"121.451435054","lat":"31.255667793","category":"77","category_name":"湖南菜","address":"普陀区沪太路380号(近恒丰北路)"},{"poiid":"B2094757D16BA7FF4498","title":"京世造型","lon":"121.455735103","lat":"31.2563981292","category":"148","category_name":"美容美发店","address":"上海芷江西路549号(普善路口)"},{"poiid":"B2094655D36DA7FF4892","title":"中华新路沪太路","lon":"121.45462","lat":"31.25385","category":"38","category_name":"公交车站","address":""},{"poiid":"B2094757D76CAAF84099","title":"永和大王 中兴路店","lon":"121.45446","lat":"31.25236","category":"68","category_name":"快餐厅","address":"闸北区中兴路1666号(近长途汽车客运总站)"},{"poiid":"B2094654D464A2F94999","title":"华舟小区","lon":"121.45317","lat":"31.25503","category":"47","category_name":"住宅区","address":"沪太路315弄"},{"poiid":"B2094757D16BA5FD419D","title":"莫干山路","lon":"121.45006565","lat":"31.2509608964","category":"500","category_name":"未知分类","address":"上海莫干山路"},{"poiid":"B2094757D76AA6FE4198","title":"谢记重庆麻辣烫 芷江西路店","lon":"121.456205","lat":"31.256621","category":"68","category_name":"快餐厅","address":"闸北区芷江西路487号(近普善路)"},{"poiid":"B2094655D26FA1F4499B","title":"上海市闸北第八中学(中华新路)","lon":"121.45442","lat":"31.25453","category":"55","category_name":"中学","address":"中华新路977"},{"poiid":"B2094655D26FA6F54092","title":"客运大厦","lon":"121.45261","lat":"31.25234","category":"46","category_name":"楼宇","address":"中兴路"},{"poiid":"B2094654D465A7F4419A","title":"良友金伴(中华新路)","lon":"121.45164","lat":"31.2551","category":"117","category_name":"便民商店/便利店","address":""},{"poiid":"B2094654D464A2FD4898","title":"上海铁路大厦酒店","lon":"121.45258","lat":"31.2497","category":"76","category_name":"上海菜","address":"闸北区秣陵路355号(恒丰路秣陵路)"},{"poiid":"B2094654D464A3F54792","title":"大娘水饺美食城","lon":"121.4553","lat":"31.25198","category":"68","category_name":"快餐厅","address":"闸北区中兴路1638号"},{"poiid":"B2094757D16FA6FF419A","title":"老娘舅（上海长途汽车总站店)","lon":"121.4566547","lat":"31.252325944","category":"68","category_name":"快餐厅","address":"闸北区中兴路1642号(近汽车总站出口处)"},{"poiid":"B2094757DA65A6F4429F","title":"上海火车站五号候车室","lon":"121.450864680371","lat":"31.25141213843349","category":"500","category_name":"未知分类","address":"上海火车站"},{"poiid":"B2094654DB69A6FE4993","title":"兴联公寓","lon":"121.45214","lat":"31.256426","category":"47","category_name":"住宅区","address":"兴联公寓位于闸北沪太路453弄88号"},{"poiid":"B2094757D169ABFC4993","title":"秀田美容美发沙龙","lon":"121.45229","lat":"31.25353","category":"148","category_name":"美容美发店","address":"闸北区恒丰路41号(近一号线汉中路地铁站)"},{"poiid":"B2094750D66CA2F8459B","title":"吉泰连锁酒店上海北广场二店","lon":"121.451684832573","lat":"31.2552255186204","category":"216","category_name":"经济型连锁酒店","address":"闸北区恒丰北路100号(近上海火车站)"},{"poiid":"B2094757D064A6FA4693","title":"合兴小区 中华新路","lon":"121.45415437","lat":"31.252870556","category":"47","category_name":"住宅区","address":"上海中华新路940号「近沪太路」"},{"poiid":"B2094655D26AA0FE4092","title":"唐人眼镜三叶店","lon":"121.45417","lat":"31.25226","category":"247","category_name":"餐饮美食","address":"闸北区梅园路360号环龙商厦4楼59号铺"},{"poiid":"B2094654D464A3F5489B","title":"上海长途汽车客运总站","lon":"121.45463","lat":"31.2528","category":"35","category_name":"长途汽车站","address":"闸北区中兴路1662号(近孔家木桥路)"},{"poiid":"B2094655D36CA2F44592","title":"上海火车站北广场","lon":"121.45576","lat":"31.25164","category":"38","category_name":"公交车站","address":"上海市闸北区大统路"},{"poiid":"B2094757D068A7FB4698","title":"上海火车站4-5号站台","lon":"121.45375295","lat":"31.2499646774","category":"22","category_name":"火车站","address":"上海市火车站"},{"poiid":"B209475CD564A7F8439E","title":"上海滩中信泰富店","lon":"121.45602","lat":"31.22851","category":"119","category_name":"商场","address":"\"南京西路1168号中信泰富广场，店铺号221.\r\n\""},{"poiid":"B2094757D06FABFF4493","title":"上海北方智选假日酒店 Holiday Inn Express","lon":"121.452994","lat":"31.252272","category":"217","category_name":"旅馆招待所","address":"上海市闸北区中兴路1738号(近恒丰路)"},{"poiid":"B2094757D06FA2F8489A","title":"麦当劳(火车站北广场店)","lon":"121.455468","lat":"31.251107","category":"68","category_name":"快餐厅","address":"闸北区中兴路1646号(近大统路)"},{"poiid":"B2094757D06AA0FC4999","title":"上海沪铁长途客运站","lon":"121.451751983","lat":"31.2508245347","category":"35","category_name":"长途汽车站","address":"闸北区恒丰路783号(近远景路)"},{"poiid":"B2094757D06FA7F54498","title":"友力国际大厦","lon":"121.452","lat":"31.2504","category":"46","category_name":"楼宇","address":"上海江宁路1158号"},{"poiid":"B2094654D464A2FD489B","title":"上海铁路大厦","lon":"121.45258","lat":"31.2497","category":"46","category_name":"楼宇","address":"浦东新区金湘路345号"},{"poiid":"B2094757D068A3FB469C","title":"上海国际眼镜城","lon":"121.45453","lat":"31.25213","category":"132","category_name":"眼镜店","address":"闸北区中兴路1688号火车站北广场长途客运总站1-4楼(近恒丰路桥)"},{"poiid":"B2094757D068A7F94298","title":"肯德基 KFC (沪太店)","lon":"121.4499901","lat":"31.257908495","category":"68","category_name":"快餐厅","address":"普陀区沪太路583号(近中山北路)"},{"poiid":"B2094757D06FA3F54499","title":"无印良品MUJI(大悦城店)","lon":"121.45269408","lat":"31.253671806","category":"123","category_name":"家具建材市场","address":"上海市闸北区西藏北路166号大悦城3楼(近曲阜路)"},{"poiid":"B2094751DA6AABF8459C","title":"上海外滩","lon":"121.454437","lat":"31.256653","category":"500","category_name":"未知分类","address":null},{"poiid":"B2094654DB6AA6FF469E","title":"上海亚繁龙门大酒店","lon":"121.45188","lat":"31.24962","category":"214","category_name":"四星级宾馆","address":"上海市闸北区恒丰路777号（近天目路）"},{"poiid":"B2094757D068A4FC419F","title":"和泰花园","lon":"121.45147","lat":"31.257212","category":"47","category_name":"住宅区","address":"上海市闸北区沪太路555弄"},{"poiid":"B2094654D464A2F94793","title":"华舟大厦","lon":"121.45287","lat":"31.255368","category":"46","category_name":"楼宇","address":"华舟大厦位于闸北沪太路315弄"},{"poiid":"B2094654D464A2FA409F","title":"昆明大楼","lon":"121.45397","lat":"31.25461","category":"46","category_name":"楼宇","address":"静安区长寿路(万航渡路口)"},{"poiid":"B2094655D268A0F5429C","title":"7天连锁酒店上海火车站店","lon":"121.45397","lat":"31.25461","category":"216","category_name":"经济型连锁酒店","address":"闸北区中华新路999号(近沪太路)"},{"poiid":"B2094757D068ABFE439B","title":"紫兰苑","lon":"121.45522","lat":"31.255281","category":"47","category_name":"住宅区","address":"上海市闸北区中华新路939弄"},{"poiid":"B2094654DB69A4FD4892","title":"锦江之星(火车站店)","lon":"121.45037","lat":"31.25593","category":"216","category_name":"经济型连锁酒店","address":"上海市闸北区沪太路500号(近中山北路)"},{"poiid":"B2094751DA6DA3F84193","title":"第十人民医院","lon":"121.453423","lat":"31.256281","category":"162","category_name":"医院","address":"延长中路"},{"poiid":"B2094655D36DA1FD4499","title":"恒丰路立交桥","lon":"121.45135","lat":"31.25165","category":"250","category_name":"公园户外","address":""},{"poiid":"B2094654DB6AA4FB419E","title":"上海市闸北区实验中学","lon":"121.45261","lat":"31.25325","category":"55","category_name":"中学","address":"闸北区中华新路977号(近沪太路)"},{"poiid":"B2094750D76CA4F8459F","title":"东方既白(火车站北广场店)","lon":"121.456","lat":"31.2524","category":"68","category_name":"快餐厅","address":"闸北区中兴路1600号火车站北广场入口西侧"},{"poiid":"B2094757D46DAAFD479F","title":"华必和 沪太路店","lon":"121.451755054","lat":"31.255580793","category":"68","category_name":"快餐厅","address":"普陀区沪太路359号华龙大厦1楼(近芷江西路)"},{"poiid":"B2094753D46BAAF5409A","title":"上海火车站","lon":"121.451988","lat":"31.253292","category":"500","category_name":"未知分类","address":"上海市 上海火车站"},{"poiid":"B2094654D464A2F9499D","title":"快客No.815","lon":"121.45293","lat":"31.255","category":"117","category_name":"便民商店/便利店","address":"沪太路321"},{"poiid":"B2094757D46EA4FC429F","title":"恒顿咖啡","lon":"121.451918054","lat":"31.255161793","category":"65","category_name":"咖啡厅","address":"恒丰北路100号林顿大厦沪太路口"},{"poiid":"B2094655D26FA0FD489E","title":"华舟小区(南门)","lon":"121.45327","lat":"31.25479","category":"47","category_name":"住宅区","address":"沪太路315弄"},{"poiid":"B2094757D16AA1F44793","title":"胖子客家菜","lon":"121.45184595","lat":"31.2558687901","category":"247","category_name":"餐饮美食","address":"静安区安远路222号(陕西北路口)"},{"poiid":"B2094750DB6CA3FE479B","title":"上海交通大学附属儿童医院","lon":"121.454589","lat":"31.253812","category":"162","category_name":"医院","address":"北京西路1400号"},{"poiid":"B2094655D26AA0FE4393","title":"湘旺阁 沪太路店","lon":"121.451435054","lat":"31.255667793","category":"77","category_name":"湖南菜","address":"普陀区沪太路380号(近恒丰北路)"},{"poiid":"B2094757D16BA7FF4498","title":"京世造型","lon":"121.455735103","lat":"31.2563981292","category":"148","category_name":"美容美发店","address":"上海芷江西路549号(普善路口)"},{"poiid":"B2094655D36DA7FF4892","title":"中华新路沪太路","lon":"121.45462","lat":"31.25385","category":"38","category_name":"公交车站","address":""},{"poiid":"B2094757D76CAAF84099","title":"永和大王 中兴路店","lon":"121.45446","lat":"31.25236","category":"68","category_name":"快餐厅","address":"闸北区中兴路1666号(近长途汽车客运总站)"},{"poiid":"B2094654D464A2F94999","title":"华舟小区","lon":"121.45317","lat":"31.25503","category":"47","category_name":"住宅区","address":"沪太路315弄"},{"poiid":"B2094757D16BA5FD419D","title":"莫干山路","lon":"121.45006565","lat":"31.2509608964","category":"500","category_name":"未知分类","address":"上海莫干山路"},{"poiid":"B2094757D76AA6FE4198","title":"谢记重庆麻辣烫 芷江西路店","lon":"121.456205","lat":"31.256621","category":"68","category_name":"快餐厅","address":"闸北区芷江西路487号(近普善路)"},{"poiid":"B2094655D26FA1F4499B","title":"上海市闸北第八中学(中华新路)","lon":"121.45442","lat":"31.25453","category":"55","category_name":"中学","address":"中华新路977"},{"poiid":"B2094655D26FA6F54092","title":"客运大厦","lon":"121.45261","lat":"31.25234","category":"46","category_name":"楼宇","address":"中兴路"},{"poiid":"B2094654D465A7F4419A","title":"良友金伴(中华新路)","lon":"121.45164","lat":"31.2551","category":"117","category_name":"便民商店/便利店","address":""},{"poiid":"B2094654D464A2FD4898","title":"上海铁路大厦酒店","lon":"121.45258","lat":"31.2497","category":"76","category_name":"上海菜","address":"闸北区秣陵路355号(恒丰路秣陵路)"},{"poiid":"B2094654D464A3F54792","title":"大娘水饺美食城","lon":"121.4553","lat":"31.25198","category":"68","category_name":"快餐厅","address":"闸北区中兴路1638号"},{"poiid":"B2094757D16FA6FF419A","title":"老娘舅（上海长途汽车总站店)","lon":"121.4566547","lat":"31.252325944","category":"68","category_name":"快餐厅","address":"闸北区中兴路1642号(近汽车总站出口处)"},{"poiid":"B2094757DA65A6F4429F","title":"上海火车站五号候车室","lon":"121.450864680371","lat":"31.25141213843349","category":"500","category_name":"未知分类","address":"上海火车站"},{"poiid":"B2094654DB69A6FE4993","title":"兴联公寓","lon":"121.45214","lat":"31.256426","category":"47","category_name":"住宅区","address":"兴联公寓位于闸北沪太路453弄88号"},{"poiid":"B2094757D169ABFC4993","title":"秀田美容美发沙龙","lon":"121.45229","lat":"31.25353","category":"148","category_name":"美容美发店","address":"闸北区恒丰路41号(近一号线汉中路地铁站)"},{"poiid":"B2094750D66CA2F8459B","title":"吉泰连锁酒店上海北广场二店","lon":"121.451684832573","lat":"31.2552255186204","category":"216","category_name":"经济型连锁酒店","address":"闸北区恒丰北路100号(近上海火车站)"},{"poiid":"B2094757D064A6FA4693","title":"合兴小区 中华新路","lon":"121.45415437","lat":"31.252870556","category":"47","category_name":"住宅区","address":"上海中华新路940号「近沪太路」"},{"poiid":"B2094655D26AA0FE4092","title":"唐人眼镜三叶店","lon":"121.45417","lat":"31.25226","category":"247","category_name":"餐饮美食","address":"闸北区梅园路360号环龙商厦4楼59号铺"},{"poiid":"B2094654D464A3F5489B","title":"上海长途汽车客运总站","lon":"121.45463","lat":"31.2528","category":"35","category_name":"长途汽车站","address":"闸北区中兴路1662号(近孔家木桥路)"},{"poiid":"B2094655D36CA2F44592","title":"上海火车站北广场","lon":"121.45576","lat":"31.25164","category":"38","category_name":"公交车站","address":"上海市闸北区大统路"},{"poiid":"B2094757D068A7FB4698","title":"上海火车站4-5号站台","lon":"121.45375295","lat":"31.2499646774","category":"22","category_name":"火车站","address":"上海市火车站"},{"poiid":"B209475CD564A7F8439E","title":"上海滩中信泰富店","lon":"121.45602","lat":"31.22851","category":"119","category_name":"商场","address":"\"南京西路1168号中信泰富广场，店铺号221.\r\n\""},{"poiid":"B2094757D06FABFF4493","title":"上海北方智选假日酒店 Holiday Inn Express","lon":"121.452994","lat":"31.252272","category":"217","category_name":"旅馆招待所","address":"上海市闸北区中兴路1738号(近恒丰路)"},{"poiid":"B2094757D06FA2F8489A","title":"麦当劳(火车站北广场店)","lon":"121.455468","lat":"31.251107","category":"68","category_name":"快餐厅","address":"闸北区中兴路1646号(近大统路)"},{"poiid":"B2094757D06AA0FC4999","title":"上海沪铁长途客运站","lon":"121.451751983","lat":"31.2508245347","category":"35","category_name":"长途汽车站","address":"闸北区恒丰路783号(近远景路)"},{"poiid":"B2094757D06FA7F54498","title":"友力国际大厦","lon":"121.452","lat":"31.2504","category":"46","category_name":"楼宇","address":"上海江宁路1158号"},{"poiid":"B2094654D464A2FD489B","title":"上海铁路大厦","lon":"121.45258","lat":"31.2497","category":"46","category_name":"楼宇","address":"浦东新区金湘路345号"},{"poiid":"B2094757D068A3FB469C","title":"上海国际眼镜城","lon":"121.45453","lat":"31.25213","category":"132","category_name":"眼镜店","address":"闸北区中兴路1688号火车站北广场长途客运总站1-4楼(近恒丰路桥)"},{"poiid":"B2094757D068A7F94298","title":"肯德基 KFC (沪太店)","lon":"121.4499901","lat":"31.257908495","category":"68","category_name":"快餐厅","address":"普陀区沪太路583号(近中山北路)"},{"poiid":"B2094757D06FA3F54499","title":"无印良品MUJI(大悦城店)","lon":"121.45269408","lat":"31.253671806","category":"123","category_name":"家具建材市场","address":"上海市闸北区西藏北路166号大悦城3楼(近曲阜路)"},{"poiid":"B2094751DA6AABF8459C","title":"上海外滩","lon":"121.454437","lat":"31.256653","category":"500","category_name":"未知分类","address":null},{"poiid":"B2094654DB6AA6FF469E","title":"上海亚繁龙门大酒店","lon":"121.45188","lat":"31.24962","category":"214","category_name":"四星级宾馆","address":"上海市闸北区恒丰路777号（近天目路）"},{"poiid":"B2094757D068A4FC419F","title":"和泰花园","lon":"121.45147","lat":"31.257212","category":"47","category_name":"住宅区","address":"上海市闸北区沪太路555弄"},{"poiid":"B2094654D464A2F94793","title":"华舟大厦","lon":"121.45287","lat":"31.255368","category":"46","category_name":"楼宇","address":"华舟大厦位于闸北沪太路315弄"},{"poiid":"B2094654D464A2FA409F","title":"昆明大楼","lon":"121.45397","lat":"31.25461","category":"46","category_name":"楼宇","address":"静安区长寿路(万航渡路口)"},{"poiid":"B2094655D268A0F5429C","title":"7天连锁酒店上海火车站店","lon":"121.45397","lat":"31.25461","category":"216","category_name":"经济型连锁酒店","address":"闸北区中华新路999号(近沪太路)"},{"poiid":"B2094757D068ABFE439B","title":"紫兰苑","lon":"121.45522","lat":"31.255281","category":"47","category_name":"住宅区","address":"上海市闸北区中华新路939弄"},{"poiid":"B2094654DB69A4FD4892","title":"锦江之星(火车站店)","lon":"121.45037","lat":"31.25593","category":"216","category_name":"经济型连锁酒店","address":"上海市闸北区沪太路500号(近中山北路)"},{"poiid":"B2094751DA6DA3F84193","title":"第十人民医院","lon":"121.453423","lat":"31.256281","category":"162","category_name":"医院","address":"延长中路"},{"poiid":"B2094655D36DA1FD4499","title":"恒丰路立交桥","lon":"121.45135","lat":"31.25165","category":"250","category_name":"公园户外","address":""},{"poiid":"B2094654DB6AA4FB419E","title":"上海市闸北区实验中学","lon":"121.45261","lat":"31.25325","category":"55","category_name":"中学","address":"闸北区中华新路977号(近沪太路)"},{"poiid":"B2094750D76CA4F8459F","title":"东方既白(火车站北广场店)","lon":"121.456","lat":"31.2524","category":"68","category_name":"快餐厅","address":"闸北区中兴路1600号火车站北广场入口西侧"},{"poiid":"B2094757D46DAAFD479F","title":"华必和 沪太路店","lon":"121.451755054","lat":"31.255580793","category":"68","category_name":"快餐厅","address":"普陀区沪太路359号华龙大厦1楼(近芷江西路)"},{"poiid":"B2094753D46BAAF5409A","title":"上海火车站","lon":"121.451988","lat":"31.253292","category":"500","category_name":"未知分类","address":"上海市 上海火车站"},{"poiid":"B2094654D464A2F9499D","title":"快客No.815","lon":"121.45293","lat":"31.255","category":"117","category_name":"便民商店/便利店","address":"沪太路321"},{"poiid":"B2094757D46EA4FC429F","title":"恒顿咖啡","lon":"121.451918054","lat":"31.255161793","category":"65","category_name":"咖啡厅","address":"恒丰北路100号林顿大厦沪太路口"},{"poiid":"B2094655D26FA0FD489E","title":"华舟小区(南门)","lon":"121.45327","lat":"31.25479","category":"47","category_name":"住宅区","address":"沪太路315弄"},{"poiid":"B2094757D16AA1F44793","title":"胖子客家菜","lon":"121.45184595","lat":"31.2558687901","category":"247","category_name":"餐饮美食","address":"静安区安远路222号(陕西北路口)"},{"poiid":"B2094750DB6CA3FE479B","title":"上海交通大学附属儿童医院","lon":"121.454589","lat":"31.253812","category":"162","category_name":"医院","address":"北京西路1400号"},{"poiid":"B2094655D26AA0FE4393","title":"湘旺阁 沪太路店","lon":"121.451435054","lat":"31.255667793","category":"77","category_name":"湖南菜","address":"普陀区沪太路380号(近恒丰北路)"},{"poiid":"B2094757D16BA7FF4498","title":"京世造型","lon":"121.455735103","lat":"31.2563981292","category":"148","category_name":"美容美发店","address":"上海芷江西路549号(普善路口)"},{"poiid":"B2094655D36DA7FF4892","title":"中华新路沪太路","lon":"121.45462","lat":"31.25385","category":"38","category_name":"公交车站","address":""},{"poiid":"B2094757D76CAAF84099","title":"永和大王 中兴路店","lon":"121.45446","lat":"31.25236","category":"68","category_name":"快餐厅","address":"闸北区中兴路1666号(近长途汽车客运总站)"},{"poiid":"B2094654D464A2F94999","title":"华舟小区","lon":"121.45317","lat":"31.25503","category":"47","category_name":"住宅区","address":"沪太路315弄"},{"poiid":"B2094757D16BA5FD419D","title":"莫干山路","lon":"121.45006565","lat":"31.2509608964","category":"500","category_name":"未知分类","address":"上海莫干山路"},{"poiid":"B2094757D76AA6FE4198","title":"谢记重庆麻辣烫 芷江西路店","lon":"121.456205","lat":"31.256621","category":"68","category_name":"快餐厅","address":"闸北区芷江西路487号(近普善路)"},{"poiid":"B2094655D26FA1F4499B","title":"上海市闸北第八中学(中华新路)","lon":"121.45442","lat":"31.25453","category":"55","category_name":"中学","address":"中华新路977"},{"poiid":"B2094655D26FA6F54092","title":"客运大厦","lon":"121.45261","lat":"31.25234","category":"46","category_name":"楼宇","address":"中兴路"},{"poiid":"B2094654D465A7F4419A","title":"良友金伴(中华新路)","lon":"121.45164","lat":"31.2551","category":"117","category_name":"便民商店/便利店","address":""},{"poiid":"B2094654D464A2FD4898","title":"上海铁路大厦酒店","lon":"121.45258","lat":"31.2497","category":"76","category_name":"上海菜","address":"闸北区秣陵路355号(恒丰路秣陵路)"},{"poiid":"B2094654D464A3F54792","title":"大娘水饺美食城","lon":"121.4553","lat":"31.25198","category":"68","category_name":"快餐厅","address":"闸北区中兴路1638号"},{"poiid":"B2094757D16FA6FF419A","title":"老娘舅（上海长途汽车总站店)","lon":"121.4566547","lat":"31.252325944","category":"68","category_name":"快餐厅","address":"闸北区中兴路1642号(近汽车总站出口处)"},{"poiid":"B2094757DA65A6F4429F","title":"上海火车站五号候车室","lon":"121.450864680371","lat":"31.25141213843349","category":"500","category_name":"未知分类","address":"上海火车站"},{"poiid":"B2094654DB69A6FE4993","title":"兴联公寓","lon":"121.45214","lat":"31.256426","category":"47","category_name":"住宅区","address":"兴联公寓位于闸北沪太路453弄88号"},{"poiid":"B2094757D169ABFC4993","title":"秀田美容美发沙龙","lon":"121.45229","lat":"31.25353","category":"148","category_name":"美容美发店","address":"闸北区恒丰路41号(近一号线汉中路地铁站)"},{"poiid":"B2094750D66CA2F8459B","title":"吉泰连锁酒店上海北广场二店","lon":"121.451684832573","lat":"31.2552255186204","category":"216","category_name":"经济型连锁酒店","address":"闸北区恒丰北路100号(近上海火车站)"},{"poiid":"B2094757D064A6FA4693","title":"合兴小区 中华新路","lon":"121.45415437","lat":"31.252870556","category":"47","category_name":"住宅区","address":"上海中华新路940号「近沪太路」"},{"poiid":"B2094655D26AA0FE4092","title":"唐人眼镜三叶店","lon":"121.45417","lat":"31.25226","category":"247","category_name":"餐饮美食","address":"闸北区梅园路360号环龙商厦4楼59号铺"}]