[{"poiid":"B2094757D068A3FD409A","title":"上海迪斯尼乐园","lon":"121.65279471","lat":"31.143728456","category":"195","category_name":"游乐场","address":"上海浦东新区沪芦高速秀浦路下匝道处"},{"poiid":"B2094757D065A4FE469F","title":"上海迪士尼项目工地","lon":"121.66061608","lat":"31.15002032","category":"500","category_name":"未知分类","address":"上海市浦东新区Ｓ２沪芦高速"},{"poiid":"B2094757D06FAAF94492","title":"S2沪芦高速公路康桥收费站","lon":"121.64817484","lat":"31.145233933","category":"267","category_name":"收费站","address":"上海浦东新区康桥(S2沪芦高速公路)"},{"poiid":"B2094757D069A6FA409B","title":"A20","lon":"121.64606797","lat":"31.15749936","category":"500","category_name":"未知分类","address":"上海市浦东新区康桥路"},{"poiid":"B2094655D36CA2FE489F","title":"旗杆","lon":"121.66084","lat":"31.15209","category":"38","category_name":"公交车站","address":""},{"poiid":"B2094655D268ABFF4199","title":"环东二大道立交桥","lon":"121.64802","lat":"31.15553","category":"250","category_name":"公园户外","address":""},{"poiid":"B2094750D26AA4FA4393","title":"浦东绿地铂骊酒店","lon":"121.646163","lat":"31.151405","category":"247","category_name":"餐饮美食","address":"川沙路5500号"},{"poiid":"B2094757D069A0FD439D","title":"上海市民政第二精神病院","lon":"121.643251","lat":"31.153094","category":"162","category_name":"医院","address":"上海市南汇区川周公路2607号"},{"poiid":"B2094655D36CA6F94992","title":"杜甫亭","lon":"121.65655","lat":"31.15997","category":"38","category_name":"公交车站","address":""},{"poiid":"B2094655D26BABF5419C","title":"S2沪芦高速康桥收费站","lon":"121.6483","lat":"31.14526","category":"267","category_name":"收费站","address":""},{"poiid":"B2094655D36CA7F9419C","title":"横沔","lon":"121.63975","lat":"31.15187","category":"38","category_name":"公交车站","address":""},{"poiid":"B2094655D268ABFF4792","title":"Ａ２康桥收费站","lon":"121.64829","lat":"31.14526","category":"267","category_name":"收费站","address":""},{"poiid":"B2094654DB6DA7F54993","title":"上海市第二精神病医院","lon":"121.63709","lat":"31.15025","category":"162","category_name":"医院","address":"南汇区川周公路"},{"poiid":"B2094654DB6DA6FF4098","title":"上海嘉毓华工艺礼品有限公司","lon":"121.65405","lat":"31.14354","category":"263","category_name":"公司","address":"浦东川沙镇赵行村庙桥队"},{"poiid":"B2094654DB6DA5FC4092","title":"上海共业制刷有限公司","lon":"121.65267","lat":"31.15852","category":"263","category_name":"公司","address":"川周公路5380"},{"poiid":"B2094655D36DA2FE4598","title":"横沔港桥","lon":"121.64047","lat":"31.15221","category":"250","category_name":"公园户外","address":""},{"poiid":"B2094654DB6DA7F5479F","title":"宏福商场","lon":"121.66027","lat":"31.16101","category":"119","category_name":"商场","address":"黄镇栏学路"},{"poiid":"B2094655D26DA6FD419B","title":"赵行公园(黄赵路)","lon":"121.66418","lat":"31.14142","category":"196","category_name":"公园","address":"赵行中心村"},{"poiid":"B2094757D065ABF5439D","title":"上海电力公司康桥220kv变电站","lon":"121.643841","lat":"31.155828","category":"500","category_name":"未知分类","address":"上海浦东川周公路4032号"},{"poiid":"B2094654DB6DA5FC4193","title":"上海华新乐器有限公司","lon":"121.65557","lat":"31.16143","category":"263","category_name":"公司","address":""},{"poiid":"B2094654DB6DA6FD4493","title":"华联超市No.1870(沔青村)","lon":"121.63825","lat":"31.15132","category":"118","category_name":"超级市场","address":""},{"poiid":"B2094654DB6DA6FF4299","title":"杭州华联(川展路)","lon":"121.66979","lat":"31.15413","category":"118","category_name":"超级市场","address":""},{"poiid":"B2094654DB6DA5FC409B","title":"上海峥嵘工程机械配件厂","lon":"121.63864","lat":"31.15113","category":"263","category_name":"公司","address":""},{"poiid":"B2094654DB6DA6FC4498","title":"浦东新区黄楼幼儿园","lon":"121.67042","lat":"31.16168","category":"57","category_name":"幼儿园","address":"浦东新区黄楼栏学路495号"},{"poiid":"B2094757D165A1F8479A","title":"吉祥馄饨(南桥店)","lon":"121.668402","lat":"31.162874","category":"247","category_name":"餐饮美食","address":"上海市浦东新区川沙新镇川黄路195号"},{"poiid":"B2094654DA6AA4FC419B","title":"桂龙商场","lon":"121.66765","lat":"31.16481","category":"119","category_name":"商场","address":"黄镇南首"},{"poiid":"B2094654DB6DA6FC449A","title":"黄楼影剧院","lon":"121.668791","lat":"31.163573","category":"178","category_name":"电影院","address":"芙蓉路56号"},{"poiid":"B2094757D16FA2F84898","title":"康桥东路1300","lon":"121.635722","lat":"31.156165","category":"500","category_name":"未知分类","address":"上海康桥东路1300号"},{"poiid":"B2094757D16DABF5449B","title":"哈挺机床(上海)有限公司","lon":"121.63733497","lat":"31.158612386","category":"249","category_name":"购物服务","address":"上海市南汇区康桥东路3880号"},{"poiid":"B2094757D168A3FA459B","title":"界龙数码印刷","lon":"121.6685","lat":"31.1625","category":"500","category_name":"未知分类","address":"浦东新区川周路7077号"},{"poiid":"B2094757D16AA3FB439A","title":"鼎鑫名流苑","lon":"121.669069","lat":"31.162963","category":"500","category_name":"未知分类","address":"上海市浦東新區川沙鎮川黃路"},{"poiid":"B2094654DB64A1FB4499","title":"上海浦新砌块厂(横沔江路)","lon":"121.63937","lat":"31.1622","category":"263","category_name":"公司","address":""},{"poiid":"B2094654DB65A4FE409A","title":"上海吉龙经济发展有限公司","lon":"121.66991","lat":"31.1622","category":"263","category_name":"公司","address":""}]