[{"poiid":"B2094655D36CA6FE4498","title":"高东镇","lon":"121.61866","lat":"31.33127","category":"38","category_name":"公交车站","address":"浦东光明路415弄"},{"poiid":"B2094757D16AA5F8449A","title":"樱花园","lon":"121.616539986","lat":"31.3283641507","category":"500","category_name":"未知分类","address":"上海市浦东新区光耀路"},{"poiid":"B2094757D66FA7FE4599","title":"上海外高桥造船有限公司","lon":"121.639853339","lat":"31.33531876","category":"263","category_name":"公司","address":"浦东新区洲海路3001号"},{"poiid":"B2094655D26FA0FD479B","title":"高东新村","lon":"121.623","lat":"31.3383","category":"47","category_name":"住宅区","address":"光明路41弄"},{"poiid":"B2094655D264AAF44993","title":"上海高东海上救助机场","lon":"121.62562","lat":"31.33478","category":"21","category_name":"飞机场","address":"高东一路200"},{"poiid":"B2094654D46BA3F4409B","title":"上海都乐食品有限公司","lon":"121.62062","lat":"31.33389","category":"263","category_name":"公司","address":"海徐路1105"},{"poiid":"B2094654D46BA3F84792","title":"上海嘉里食品工业有限公司","lon":"121.62196","lat":"31.33987","category":"263","category_name":"公司","address":""},{"poiid":"B2094654D46AAAFF4392","title":"盛世东苑","lon":"121.61275","lat":"31.333025","category":"47","category_name":"住宅区","address":"光泽路120弄1-83号"},{"poiid":"B2094757D168A5F4489B","title":"苹果园(高东店)","lon":"121.62096","lat":"31.33565","category":"500","category_name":"未知分类","address":"浦东新区高东新路160号(近高东菜场)"},{"poiid":"B2094757D169A2F4409E","title":"高东中学","lon":"121.622475839","lat":"31.3315208725","category":"55","category_name":"中学","address":"上海高东镇光明路"},{"poiid":"B2094654D46BA3F8479C","title":"嘉里油脂化学工业(上海)有限公司","lon":"121.62196","lat":"31.33988","category":"263","category_name":"公司","address":""},{"poiid":"B2094757D66EA1FE409D","title":"上海市宝山区湄星路","lon":"121.62202633","lat":"31.340087869","category":"500","category_name":"未知分类","address":"上海一号线地铁友谊西路站"},{"poiid":"B2094654D46BA3F8479F","title":"嘉里特种油脂(上海)有限公司","lon":"121.62196","lat":"31.33987","category":"263","category_name":"公司","address":""},{"poiid":"B2094654D568A0FA439F","title":"千秋嘉苑","lon":"121.63018382608","lat":"31.329122452928","category":"47","category_name":"住宅区","address":"浦东高东二路47弄"},{"poiid":"B2094654D46AAAFE499A","title":"苹果园(光明路)","lon":"121.61777","lat":"31.3318","category":"112","category_name":"糕饼店","address":"浦东新区高东镇光明路"},{"poiid":"B2094654D46BA3FF4993","title":"上海外高桥造船基地","lon":"121.62666","lat":"31.34317","category":"45","category_name":"产业园区","address":""},{"poiid":"B2094757D16BA3F9459B","title":"外高桥保税区 六号门","lon":"121.607119339","lat":"31.330455148","category":"500","category_name":"未知分类","address":null},{"poiid":"B2094654D568A0FB419F","title":"高东馨苑","lon":"121.61721","lat":"31.329136","category":"47","category_name":"住宅区","address":"光泽路428弄1-92号"},{"poiid":"B2094757D06FA5FD4799","title":"杨园社区","lon":"121.628463","lat":"31.320476","category":"47","category_name":"住宅区","address":"上海新园路洲海路"},{"poiid":"B2094655D26DA5FF449C","title":"天天水煮鱼","lon":"121.615990054","lat":"31.332773793","category":"257","category_name":"中餐厅","address":"浦东新区高东镇光明路415弄24号(近外环线)"},{"poiid":"B2094654D46BA3F8479A","title":"上海浦东国际展览品监管服务中心上外物流9号库","lon":"121.61895","lat":"31.33997","category":"248","category_name":"生活娱乐","address":"东集路200"},{"poiid":"B2094654D46BA3F4409E","title":"上海隧道股份机械制造分公司","lon":"121.61836","lat":"31.33574","category":"263","category_name":"公司","address":"海徐路957"},{"poiid":"B2094757D16BA4FF479A","title":"高东公寓","lon":"121.618704","lat":"31.3332875","category":"252","category_name":"楼宇机构","address":"上海浦东新区 高东新路 500弄"},{"poiid":"B2094757D66CA5F5449B","title":"益海嘉里上海企业群","lon":"121.62242853","lat":"31.331521472","category":"500","category_name":"未知分类","address":"上海浦东新区高东路118号"},{"poiid":"B2094655D36CA7FA4499","title":"航津路","lon":"121.6126","lat":"31.33459","category":"38","category_name":"公交车站","address":""},{"poiid":"B2094757D16BA4F8449E","title":"高东机场","lon":"121.62750033","lat":"31.332562696","category":"21","category_name":"飞机场","address":"上海市浦东新区高东一路"},{"poiid":"B2094757D66DA5F8409C","title":"竹园第二污水处理厂","lon":"121.618418","lat":"31.34267","category":"500","category_name":"未知分类","address":"上海航津路2399号"},{"poiid":"B2094757D66CA6FC489A","title":"廣州市地稅天河分局","lon":"121.620971339","lat":"31.3427299307","category":"617","category_name":"政府机构","address":"广州天河區華利路"},{"poiid":"B2094757D068ABFF439F","title":"外高桥造船厂","lon":"121.626654","lat":"31.343175","category":"263","category_name":"公司","address":"上海洲海路3001号"},{"poiid":"B2094757D164A0FC409D","title":"百味楼","lon":"121.61607","lat":"31.32957","category":"71","category_name":"四川菜","address":"浦东新区高东新路24号(近光泽路)"},{"poiid":"B2094654DB6BA1FC4998","title":"欣连佳苑","lon":"121.61835","lat":"31.330544","category":"47","category_name":"住宅区","address":"光泽路429弄1-49号"},{"poiid":"B2094654D46AAAFF4193","title":"光明综合商店(光明路)","lon":"121.61746","lat":"31.33235","category":"117","category_name":"便民商店/便利店","address":""},{"poiid":"B2094654D46AAAFF419E","title":"小周水果店(光明路)","lon":"121.61765","lat":"31.33222","category":"117","category_name":"便民商店/便利店","address":""},{"poiid":"B2094654DB6AA5F4419C","title":"联华(光明路)","lon":"121.61692","lat":"31.33247","category":"117","category_name":"便民商店/便利店","address":"光明路258"},{"poiid":"B2094757D16CA6F54498","title":"益海嘉里","lon":"121.617182","lat":"31.331052","category":"500","category_name":"未知分类","address":"上海高东路118号"},{"poiid":"B2094757D16CA7FA479A","title":"黄浦江入海囗","lon":"121.62696075","lat":"31.348020553","category":"247","category_name":"餐饮美食","address":"上海外高桥保税区"},{"poiid":"B2094654D46AAAFE489B","title":"高东菜市场","lon":"121.61823","lat":"31.33182","category":"117","category_name":"便民商店/便利店","address":""},{"poiid":"B2094655D26FA1FE4198","title":"朋缘阁","lon":"121.61926","lat":"31.33093","category":"257","category_name":"中餐厅","address":"高东镇光明路419-421"},{"poiid":"B2094757D66CA4FB4492","title":"阿牛嫂桂林米粉(光明路店)","lon":"121.61862","lat":"31.33148","category":"247","category_name":"餐饮美食","address":"上海浦东新区光明路415弄28号(近高东新路)  "},{"poiid":"B2094750D46DA4FE419C","title":"红咖啡","lon":"121.615051","lat":"31.330118","category":"247","category_name":"餐饮美食","address":"高东樱花园"},{"poiid":"B2094654D568A0FA459B","title":"高东公园","lon":"121.62548","lat":"31.32757","category":"196","category_name":"公园","address":"浦东新区高东镇光明路743号佳雪缘酒店对面"},{"poiid":"B2094655D26FA5F94499","title":"三联大厦","lon":"121.613","lat":"31.3268","category":"46","category_name":"楼宇","address":"闸北区江场西路38号(近共和新路)"},{"poiid":"B2094654DB6BA1FC4892","title":"采鲜坊(光明路)","lon":"121.62439","lat":"31.32669","category":"76","category_name":"上海菜","address":"浦东新区光明路719号"},{"poiid":"B2094757D568AAF44293","title":"申客超市","lon":"121.61916802","lat":"31.33113091","category":"117","category_name":"便民商店/便利店","address":"高东镇光明路415弄17"},{"poiid":"B2094654D568A0FA469A","title":"逸墅新苑","lon":"121.6246","lat":"31.32523","category":"47","category_name":"住宅区","address":"高东二路99弄"},{"poiid":"B2094655D26FA2F94899","title":"上海信息管理专修学院浦东分院","lon":"121.61991","lat":"31.32966","category":"52","category_name":"高等院校","address":"浦东新区光明路476号"},{"poiid":"B2094654D46BA3F4419E","title":"上海浦东竹园工业中心","lon":"121.6119","lat":"31.34057","category":"45","category_name":"产业园区","address":""},{"poiid":"B2094654D46AAAF84393","title":"华源国际大厦","lon":"121.61","lat":"31.3405","category":"46","category_name":"楼宇","address":"泰谷路169号"},{"poiid":"B2094757D065A3F44298","title":"高东镇人民政府","lon":"121.622768","lat":"31.326886","category":"500","category_name":"未知分类","address":"上海浦东新区光明路718号"},{"poiid":"B2094654D568A0FA459D","title":"佳雪缘酒店","lon":"121.62451","lat":"31.32652","category":"76","category_name":"上海菜","address":"浦东新区高东镇光明路743号(高东公园对面)"},{"poiid":"B2094655D36CA6FE4498","title":"高东镇","lon":"121.61866","lat":"31.33127","category":"38","category_name":"公交车站","address":"浦东光明路415弄"},{"poiid":"B2094757D16AA5F8449A","title":"樱花园","lon":"121.616539986","lat":"31.3283641507","category":"500","category_name":"未知分类","address":"上海市浦东新区光耀路"},{"poiid":"B2094757D66FA7FE4599","title":"上海外高桥造船有限公司","lon":"121.639853339","lat":"31.33531876","category":"263","category_name":"公司","address":"浦东新区洲海路3001号"},{"poiid":"B2094655D26FA0FD479B","title":"高东新村","lon":"121.623","lat":"31.3383","category":"47","category_name":"住宅区","address":"光明路41弄"},{"poiid":"B2094655D264AAF44993","title":"上海高东海上救助机场","lon":"121.62562","lat":"31.33478","category":"21","category_name":"飞机场","address":"高东一路200"},{"poiid":"B2094654D46BA3F4409B","title":"上海都乐食品有限公司","lon":"121.62062","lat":"31.33389","category":"263","category_name":"公司","address":"海徐路1105"},{"poiid":"B2094654D46BA3F84792","title":"上海嘉里食品工业有限公司","lon":"121.62196","lat":"31.33987","category":"263","category_name":"公司","address":""},{"poiid":"B2094654D46AAAFF4392","title":"盛世东苑","lon":"121.61275","lat":"31.333025","category":"47","category_name":"住宅区","address":"光泽路120弄1-83号"},{"poiid":"B2094757D168A5F4489B","title":"苹果园(高东店)","lon":"121.62096","lat":"31.33565","category":"500","category_name":"未知分类","address":"浦东新区高东新路160号(近高东菜场)"},{"poiid":"B2094757D169A2F4409E","title":"高东中学","lon":"121.622475839","lat":"31.3315208725","category":"55","category_name":"中学","address":"上海高东镇光明路"},{"poiid":"B2094654D46BA3F8479C","title":"嘉里油脂化学工业(上海)有限公司","lon":"121.62196","lat":"31.33988","category":"263","category_name":"公司","address":""},{"poiid":"B2094757D66EA1FE409D","title":"上海市宝山区湄星路","lon":"121.62202633","lat":"31.340087869","category":"500","category_name":"未知分类","address":"上海一号线地铁友谊西路站"},{"poiid":"B2094654D46BA3F8479F","title":"嘉里特种油脂(上海)有限公司","lon":"121.62196","lat":"31.33987","category":"263","category_name":"公司","address":""},{"poiid":"B2094654D568A0FA439F","title":"千秋嘉苑","lon":"121.63018382608","lat":"31.329122452928","category":"47","category_name":"住宅区","address":"浦东高东二路47弄"},{"poiid":"B2094654D46AAAFE499A","title":"苹果园(光明路)","lon":"121.61777","lat":"31.3318","category":"112","category_name":"糕饼店","address":"浦东新区高东镇光明路"},{"poiid":"B2094654D46BA3FF4993","title":"上海外高桥造船基地","lon":"121.62666","lat":"31.34317","category":"45","category_name":"产业园区","address":""},{"poiid":"B2094757D16BA3F9459B","title":"外高桥保税区 六号门","lon":"121.607119339","lat":"31.330455148","category":"500","category_name":"未知分类","address":null},{"poiid":"B2094654D568A0FB419F","title":"高东馨苑","lon":"121.61721","lat":"31.329136","category":"47","category_name":"住宅区","address":"光泽路428弄1-92号"},{"poiid":"B2094757D06FA5FD4799","title":"杨园社区","lon":"121.628463","lat":"31.320476","category":"47","category_name":"住宅区","address":"上海新园路洲海路"},{"poiid":"B2094655D26DA5FF449C","title":"天天水煮鱼","lon":"121.615990054","lat":"31.332773793","category":"257","category_name":"中餐厅","address":"浦东新区高东镇光明路415弄24号(近外环线)"},{"poiid":"B2094654D46BA3F8479A","title":"上海浦东国际展览品监管服务中心上外物流9号库","lon":"121.61895","lat":"31.33997","category":"248","category_name":"生活娱乐","address":"东集路200"},{"poiid":"B2094654D46BA3F4409E","title":"上海隧道股份机械制造分公司","lon":"121.61836","lat":"31.33574","category":"263","category_name":"公司","address":"海徐路957"},{"poiid":"B2094757D16BA4FF479A","title":"高东公寓","lon":"121.618704","lat":"31.3332875","category":"252","category_name":"楼宇机构","address":"上海浦东新区 高东新路 500弄"},{"poiid":"B2094757D66CA5F5449B","title":"益海嘉里上海企业群","lon":"121.62242853","lat":"31.331521472","category":"500","category_name":"未知分类","address":"上海浦东新区高东路118号"},{"poiid":"B2094655D36CA7FA4499","title":"航津路","lon":"121.6126","lat":"31.33459","category":"38","category_name":"公交车站","address":""},{"poiid":"B2094757D16BA4F8449E","title":"高东机场","lon":"121.62750033","lat":"31.332562696","category":"21","category_name":"飞机场","address":"上海市浦东新区高东一路"},{"poiid":"B2094757D66DA5F8409C","title":"竹园第二污水处理厂","lon":"121.618418","lat":"31.34267","category":"500","category_name":"未知分类","address":"上海航津路2399号"},{"poiid":"B2094757D66CA6FC489A","title":"廣州市地稅天河分局","lon":"121.620971339","lat":"31.3427299307","category":"617","category_name":"政府机构","address":"广州天河區華利路"},{"poiid":"B2094757D068ABFF439F","title":"外高桥造船厂","lon":"121.626654","lat":"31.343175","category":"263","category_name":"公司","address":"上海洲海路3001号"},{"poiid":"B2094757D164A0FC409D","title":"百味楼","lon":"121.61607","lat":"31.32957","category":"71","category_name":"四川菜","address":"浦东新区高东新路24号(近光泽路)"},{"poiid":"B2094654DB6BA1FC4998","title":"欣连佳苑","lon":"121.61835","lat":"31.330544","category":"47","category_name":"住宅区","address":"光泽路429弄1-49号"},{"poiid":"B2094654D46AAAFF4193","title":"光明综合商店(光明路)","lon":"121.61746","lat":"31.33235","category":"117","category_name":"便民商店/便利店","address":""},{"poiid":"B2094654D46AAAFF419E","title":"小周水果店(光明路)","lon":"121.61765","lat":"31.33222","category":"117","category_name":"便民商店/便利店","address":""},{"poiid":"B2094654DB6AA5F4419C","title":"联华(光明路)","lon":"121.61692","lat":"31.33247","category":"117","category_name":"便民商店/便利店","address":"光明路258"},{"poiid":"B2094757D16CA6F54498","title":"益海嘉里","lon":"121.617182","lat":"31.331052","category":"500","category_name":"未知分类","address":"上海高东路118号"},{"poiid":"B2094757D16CA7FA479A","title":"黄浦江入海囗","lon":"121.62696075","lat":"31.348020553","category":"247","category_name":"餐饮美食","address":"上海外高桥保税区"},{"poiid":"B2094654D46AAAFE489B","title":"高东菜市场","lon":"121.61823","lat":"31.33182","category":"117","category_name":"便民商店/便利店","address":""},{"poiid":"B2094655D26FA1FE4198","title":"朋缘阁","lon":"121.61926","lat":"31.33093","category":"257","category_name":"中餐厅","address":"高东镇光明路419-421"},{"poiid":"B2094757D66CA4FB4492","title":"阿牛嫂桂林米粉(光明路店)","lon":"121.61862","lat":"31.33148","category":"247","category_name":"餐饮美食","address":"上海浦东新区光明路415弄28号(近高东新路)  "},{"poiid":"B2094750D46DA4FE419C","title":"红咖啡","lon":"121.615051","lat":"31.330118","category":"247","category_name":"餐饮美食","address":"高东樱花园"},{"poiid":"B2094654D568A0FA459B","title":"高东公园","lon":"121.62548","lat":"31.32757","category":"196","category_name":"公园","address":"浦东新区高东镇光明路743号佳雪缘酒店对面"},{"poiid":"B2094655D26FA5F94499","title":"三联大厦","lon":"121.613","lat":"31.3268","category":"46","category_name":"楼宇","address":"闸北区江场西路38号(近共和新路)"},{"poiid":"B2094654DB6BA1FC4892","title":"采鲜坊(光明路)","lon":"121.62439","lat":"31.32669","category":"76","category_name":"上海菜","address":"浦东新区光明路719号"},{"poiid":"B2094757D568AAF44293","title":"申客超市","lon":"121.61916802","lat":"31.33113091","category":"117","category_name":"便民商店/便利店","address":"高东镇光明路415弄17"},{"poiid":"B2094654D568A0FA469A","title":"逸墅新苑","lon":"121.6246","lat":"31.32523","category":"47","category_name":"住宅区","address":"高东二路99弄"},{"poiid":"B2094655D26FA2F94899","title":"上海信息管理专修学院浦东分院","lon":"121.61991","lat":"31.32966","category":"52","category_name":"高等院校","address":"浦东新区光明路476号"},{"poiid":"B2094654D46BA3F4419E","title":"上海浦东竹园工业中心","lon":"121.6119","lat":"31.34057","category":"45","category_name":"产业园区","address":""},{"poiid":"B2094654D46AAAF84393","title":"华源国际大厦","lon":"121.61","lat":"31.3405","category":"46","category_name":"楼宇","address":"泰谷路169号"},{"poiid":"B2094757D065A3F44298","title":"高东镇人民政府","lon":"121.622768","lat":"31.326886","category":"500","category_name":"未知分类","address":"上海浦东新区光明路718号"},{"poiid":"B2094654D568A0FA459D","title":"佳雪缘酒店","lon":"121.62451","lat":"31.32652","category":"76","category_name":"上海菜","address":"浦东新区高东镇光明路743号(高东公园对面)"},{"poiid":"B2094655D36CA6FE4498","title":"高东镇","lon":"121.61866","lat":"31.33127","category":"38","category_name":"公交车站","address":"浦东光明路415弄"},{"poiid":"B2094757D16AA5F8449A","title":"樱花园","lon":"121.616539986","lat":"31.3283641507","category":"500","category_name":"未知分类","address":"上海市浦东新区光耀路"},{"poiid":"B2094757D66FA7FE4599","title":"上海外高桥造船有限公司","lon":"121.639853339","lat":"31.33531876","category":"263","category_name":"公司","address":"浦东新区洲海路3001号"},{"poiid":"B2094655D26FA0FD479B","title":"高东新村","lon":"121.623","lat":"31.3383","category":"47","category_name":"住宅区","address":"光明路41弄"},{"poiid":"B2094655D264AAF44993","title":"上海高东海上救助机场","lon":"121.62562","lat":"31.33478","category":"21","category_name":"飞机场","address":"高东一路200"},{"poiid":"B2094654D46BA3F4409B","title":"上海都乐食品有限公司","lon":"121.62062","lat":"31.33389","category":"263","category_name":"公司","address":"海徐路1105"},{"poiid":"B2094654D46BA3F84792","title":"上海嘉里食品工业有限公司","lon":"121.62196","lat":"31.33987","category":"263","category_name":"公司","address":""},{"poiid":"B2094654D46AAAFF4392","title":"盛世东苑","lon":"121.61275","lat":"31.333025","category":"47","category_name":"住宅区","address":"光泽路120弄1-83号"},{"poiid":"B2094757D168A5F4489B","title":"苹果园(高东店)","lon":"121.62096","lat":"31.33565","category":"500","category_name":"未知分类","address":"浦东新区高东新路160号(近高东菜场)"},{"poiid":"B2094757D169A2F4409E","title":"高东中学","lon":"121.622475839","lat":"31.3315208725","category":"55","category_name":"中学","address":"上海高东镇光明路"},{"poiid":"B2094654D46BA3F8479C","title":"嘉里油脂化学工业(上海)有限公司","lon":"121.62196","lat":"31.33988","category":"263","category_name":"公司","address":""},{"poiid":"B2094757D66EA1FE409D","title":"上海市宝山区湄星路","lon":"121.62202633","lat":"31.340087869","category":"500","category_name":"未知分类","address":"上海一号线地铁友谊西路站"},{"poiid":"B2094654D46BA3F8479F","title":"嘉里特种油脂(上海)有限公司","lon":"121.62196","lat":"31.33987","category":"263","category_name":"公司","address":""},{"poiid":"B2094654D568A0FA439F","title":"千秋嘉苑","lon":"121.63018382608","lat":"31.329122452928","category":"47","category_name":"住宅区","address":"浦东高东二路47弄"},{"poiid":"B2094654D46AAAFE499A","title":"苹果园(光明路)","lon":"121.61777","lat":"31.3318","category":"112","category_name":"糕饼店","address":"浦东新区高东镇光明路"},{"poiid":"B2094654D46BA3FF4993","title":"上海外高桥造船基地","lon":"121.62666","lat":"31.34317","category":"45","category_name":"产业园区","address":""},{"poiid":"B2094757D16BA3F9459B","title":"外高桥保税区 六号门","lon":"121.607119339","lat":"31.330455148","category":"500","category_name":"未知分类","address":null},{"poiid":"B2094654D568A0FB419F","title":"高东馨苑","lon":"121.61721","lat":"31.329136","category":"47","category_name":"住宅区","address":"光泽路428弄1-92号"},{"poiid":"B2094757D06FA5FD4799","title":"杨园社区","lon":"121.628463","lat":"31.320476","category":"47","category_name":"住宅区","address":"上海新园路洲海路"},{"poiid":"B2094655D26DA5FF449C","title":"天天水煮鱼","lon":"121.615990054","lat":"31.332773793","category":"257","category_name":"中餐厅","address":"浦东新区高东镇光明路415弄24号(近外环线)"},{"poiid":"B2094654D46BA3F8479A","title":"上海浦东国际展览品监管服务中心上外物流9号库","lon":"121.61895","lat":"31.33997","category":"248","category_name":"生活娱乐","address":"东集路200"},{"poiid":"B2094654D46BA3F4409E","title":"上海隧道股份机械制造分公司","lon":"121.61836","lat":"31.33574","category":"263","category_name":"公司","address":"海徐路957"},{"poiid":"B2094757D16BA4FF479A","title":"高东公寓","lon":"121.618704","lat":"31.3332875","category":"252","category_name":"楼宇机构","address":"上海浦东新区 高东新路 500弄"},{"poiid":"B2094757D66CA5F5449B","title":"益海嘉里上海企业群","lon":"121.62242853","lat":"31.331521472","category":"500","category_name":"未知分类","address":"上海浦东新区高东路118号"},{"poiid":"B2094655D36CA7FA4499","title":"航津路","lon":"121.6126","lat":"31.33459","category":"38","category_name":"公交车站","address":""},{"poiid":"B2094757D16BA4F8449E","title":"高东机场","lon":"121.62750033","lat":"31.332562696","category":"21","category_name":"飞机场","address":"上海市浦东新区高东一路"},{"poiid":"B2094757D66DA5F8409C","title":"竹园第二污水处理厂","lon":"121.618418","lat":"31.34267","category":"500","category_name":"未知分类","address":"上海航津路2399号"},{"poiid":"B2094757D66CA6FC489A","title":"廣州市地稅天河分局","lon":"121.620971339","lat":"31.3427299307","category":"617","category_name":"政府机构","address":"广州天河區華利路"},{"poiid":"B2094757D068ABFF439F","title":"外高桥造船厂","lon":"121.626654","lat":"31.343175","category":"263","category_name":"公司","address":"上海洲海路3001号"},{"poiid":"B2094757D164A0FC409D","title":"百味楼","lon":"121.61607","lat":"31.32957","category":"71","category_name":"四川菜","address":"浦东新区高东新路24号(近光泽路)"},{"poiid":"B2094654DB6BA1FC4998","title":"欣连佳苑","lon":"121.61835","lat":"31.330544","category":"47","category_name":"住宅区","address":"光泽路429弄1-49号"},{"poiid":"B2094654D46AAAFF4193","title":"光明综合商店(光明路)","lon":"121.61746","lat":"31.33235","category":"117","category_name":"便民商店/便利店","address":""},{"poiid":"B2094654D46AAAFF419E","title":"小周水果店(光明路)","lon":"121.61765","lat":"31.33222","category":"117","category_name":"便民商店/便利店","address":""},{"poiid":"B2094654DB6AA5F4419C","title":"联华(光明路)","lon":"121.61692","lat":"31.33247","category":"117","category_name":"便民商店/便利店","address":"光明路258"},{"poiid":"B2094757D16CA6F54498","title":"益海嘉里","lon":"121.617182","lat":"31.331052","category":"500","category_name":"未知分类","address":"上海高东路118号"},{"poiid":"B2094757D16CA7FA479A","title":"黄浦江入海囗","lon":"121.62696075","lat":"31.348020553","category":"247","category_name":"餐饮美食","address":"上海外高桥保税区"},{"poiid":"B2094654D46AAAFE489B","title":"高东菜市场","lon":"121.61823","lat":"31.33182","category":"117","category_name":"便民商店/便利店","address":""},{"poiid":"B2094655D26FA1FE4198","title":"朋缘阁","lon":"121.61926","lat":"31.33093","category":"257","category_name":"中餐厅","address":"高东镇光明路419-421"},{"poiid":"B2094757D66CA4FB4492","title":"阿牛嫂桂林米粉(光明路店)","lon":"121.61862","lat":"31.33148","category":"247","category_name":"餐饮美食","address":"上海浦东新区光明路415弄28号(近高东新路)  "},{"poiid":"B2094750D46DA4FE419C","title":"红咖啡","lon":"121.615051","lat":"31.330118","category":"247","category_name":"餐饮美食","address":"高东樱花园"},{"poiid":"B2094654D568A0FA459B","title":"高东公园","lon":"121.62548","lat":"31.32757","category":"196","category_name":"公园","address":"浦东新区高东镇光明路743号佳雪缘酒店对面"},{"poiid":"B2094655D26FA5F94499","title":"三联大厦","lon":"121.613","lat":"31.3268","category":"46","category_name":"楼宇","address":"闸北区江场西路38号(近共和新路)"},{"poiid":"B2094654DB6BA1FC4892","title":"采鲜坊(光明路)","lon":"121.62439","lat":"31.32669","category":"76","category_name":"上海菜","address":"浦东新区光明路719号"},{"poiid":"B2094757D568AAF44293","title":"申客超市","lon":"121.61916802","lat":"31.33113091","category":"117","category_name":"便民商店/便利店","address":"高东镇光明路415弄17"},{"poiid":"B2094654D568A0FA469A","title":"逸墅新苑","lon":"121.6246","lat":"31.32523","category":"47","category_name":"住宅区","address":"高东二路99弄"},{"poiid":"B2094655D26FA2F94899","title":"上海信息管理专修学院浦东分院","lon":"121.61991","lat":"31.32966","category":"52","category_name":"高等院校","address":"浦东新区光明路476号"},{"poiid":"B2094654D46BA3F4419E","title":"上海浦东竹园工业中心","lon":"121.6119","lat":"31.34057","category":"45","category_name":"产业园区","address":""},{"poiid":"B2094654D46AAAF84393","title":"华源国际大厦","lon":"121.61","lat":"31.3405","category":"46","category_name":"楼宇","address":"泰谷路169号"},{"poiid":"B2094757D065A3F44298","title":"高东镇人民政府","lon":"121.622768","lat":"31.326886","category":"500","category_name":"未知分类","address":"上海浦东新区光明路718号"},{"poiid":"B2094654D568A0FA459D","title":"佳雪缘酒店","lon":"121.62451","lat":"31.32652","category":"76","category_name":"上海菜","address":"浦东新区高东镇光明路743号(高东公园对面)"}]