[{"poiid":"B2094654DB65A4FE4793","title":"上海交通大学医学院","lon":"121.47212","lat":"31.21238","category":"671","category_name":"高校中心点","address":"上海市重庆南路227号"},{"poiid":"B2094757D16CA3FA409F","title":"上海谦刺青","lon":"121.471876238","lat":"31.2107683855","category":"260","category_name":"其他","address":"徐汇区永嘉路527弄4号"},{"poiid":"B2094750D26EA7F8489D","title":"蚝皇创意四层火锅","lon":"121.473885","lat":"31.209268","category":"86","category_name":"火锅店","address":"卢湾区徐家汇路396号(近重庆南路)"},{"poiid":"B2094753D76FAAFA449C","title":"上海滩国泰旗舰店","lon":"121.466011","lat":"31.216125","category":"249","category_name":"购物服务","address":"淮海中路868号"},{"poiid":"B209475CD564A7F84292","title":"上海滩新天地店","lon":"121.47463","lat":"31.22164","category":"119","category_name":"商场","address":"\"太仓路181弄新天地北里15号\r\n\""},{"poiid":"B209475CD564A7F8439E","title":"上海滩中信泰富店","lon":"121.45602","lat":"31.22851","category":"119","category_name":"商场","address":"\"南京西路1168号中信泰富广场，店铺号221.\r\n\""},{"poiid":"B2094757D06FA0FB439B","title":"白玉兰剧场","lon":"121.47266","lat":"31.20947","category":"179","category_name":"音乐厅","address":"卢湾区重庆南路308号(近建国中路)"},{"poiid":"B2094654DA6EA3F8499E","title":"海兴广场","lon":"121.474","lat":"31.2106","category":"119","category_name":"商场","address":"卢湾区瑞金南路1号(近徐家汇路)"},{"poiid":"B2094757D06AA4FE439E","title":"交大医学院","lon":"121.47128583","lat":"31.211549299","category":"253","category_name":"校园生活","address":"上海重庆南路靠近建国路"},{"poiid":"B2094655D264A7FD4798","title":"8号桥创意园","lon":"121.47138","lat":"31.21065","category":"263","category_name":"公司","address":"建国中路8号"},{"poiid":"B2094757D66EA7FC499F","title":"交通大学医学院","lon":"121.47045573","lat":"31.212595924","category":"253","category_name":"校园生活","address":"上海重庆南路280号"},{"poiid":"B2094757D068A2FA439E","title":"KAKADU","lon":"121.471380904","lat":"31.2106511616","category":"94","category_name":"西餐厅","address":"卢湾区建国中路8号1104A座(近重庆南路)"},{"poiid":"B2094757D06FA0FA429B","title":"南北高架徐家汇路轧道","lon":"121.47258517","lat":"31.209395591","category":"500","category_name":"未知分类","address":"上海南北高架徐家汇路轧道"},{"poiid":"B2094757D06FA2F4409F","title":"巴士大厦","lon":"121.47304474","lat":"31.210916296","category":"46","category_name":"楼宇","address":"上海卢湾区建国东路525号(近重庆南路)"},{"poiid":"B2094757D065ABF94893","title":"交大医学院懿德楼","lon":"121.472265","lat":"31.212037","category":"500","category_name":"未知分类","address":"上海重庆南路227号"},{"poiid":"B2094757D06FA7FC499E","title":"上海壹号美术馆","lon":"121.47197","lat":"31.20997","category":"179","category_name":"音乐厅","address":"卢湾区建国中路1号(近重庆南路)"},{"poiid":"B2094750D565A6FE449A","title":"Acqua Pazza","lon":"121.47149","lat":"31.21056","category":"94","category_name":"西餐厅","address":"卢湾区建国中路6号(近南北高架)"},{"poiid":"B2094757D064A7FC479F","title":"上海第二医科大学","lon":"121.470434636","lat":"31.211727589","category":"671","category_name":"高校中心点","address":"上海重庆南路227号"},{"poiid":"B2094757D06FA5FA4799","title":"原味坊(八号桥店)","lon":"121.47149658","lat":"31.210737228","category":"67","category_name":"甜品店","address":"上海卢湾区建国中路10号8号楼8101(近重庆南路)"},{"poiid":"B2094654DA6FA3FF4492","title":"上海市兴业中学","lon":"121.47257","lat":"31.21138","category":"55","category_name":"中学","address":"卢湾区建国东路518号"},{"poiid":"B2094757D06AABFE499B","title":"汉庭海友客栈新天地店","lon":"121.47331237","lat":"31.209251403","category":"216","category_name":"经济型连锁酒店","address":"卢湾区重庆南路283号(近徐家汇路)"},{"poiid":"B2094757D06BA4FF4299","title":"卢湾区第一中心小学","lon":"121.47419","lat":"31.21231","category":"56","category_name":"小学","address":"卢湾区淡水路416号(淡水路建国东路)"},{"poiid":"B2094757D66DA3FB429B","title":"肇嘉浜路地铁站","lon":"121.472531","lat":"31.210758","category":"36","category_name":"地铁站","address":"上海轨道交通7/9号线 肇嘉浜路站"},{"poiid":"B2094757D464AAF44599","title":"交通大学医学院食堂","lon":"121.471829054","lat":"31.211296793","category":"76","category_name":"上海菜","address":"卢湾区重庆南路227号交通大学医学院内(近合肥路)"},{"poiid":"B2094750D26DA0F4409A","title":"亚历山大健身会所（卢湾店）","lon":"121.472847","lat":"31.2113","category":"248","category_name":"生活娱乐","address":"徐家汇路169号"},{"poiid":"B2094752D468A0F9439D","title":"香港龍鳳樓","lon":"121.472769","lat":"31.209387","category":"247","category_name":"餐饮美食","address":null},{"poiid":"B2094757D06AA2FC409E","title":"瑞金医院干部病房","lon":"121.47264301","lat":"31.212139202","category":"162","category_name":"医院","address":"上海市卢湾区建德路9号瑞金医院一号门内九号楼"},{"poiid":"B2094655D36CA3FB409A","title":"丰裕生煎 建国东路店","lon":"121.472830054","lat":"31.210854793","category":"87","category_name":"特色／地方风味餐厅","address":"卢湾区建国东路485号(近重庆南路)"},{"poiid":"B2094654DA6FA3FF459A","title":"上海市卢湾区重庆南路幼儿园","lon":"121.47235","lat":"31.21182","category":"57","category_name":"幼儿园","address":"重庆南路229弄1-7号"},{"poiid":"B2094757D569A0FD439A","title":"汉庭全季酒店(上海新天地店)","lon":"121.47338325","lat":"31.20904243","category":"216","category_name":"经济型连锁酒店","address":"上海市黄浦区重庆南路283号(徐家汇路)"},{"poiid":"B2094753D76AA5FC439A","title":"树洞咖啡","lon":"121.47134","lat":"31.21385","category":"65","category_name":"咖啡厅","address":"上海市卢湾区合肥路636号(近重庆南路)"},{"poiid":"B2094655D26BA0FB4493","title":"重庆南路杂粮煎饼摊","lon":"121.47213","lat":"31.21238","category":"68","category_name":"快餐厅","address":"卢湾区重庆南路227号二医大教育超市门口"},{"poiid":"B2094757D165A2FB489A","title":"交通大学医学院清真餐厅","lon":"121.47152","lat":"31.21164","category":"90","category_name":"清真餐馆","address":"卢湾区重庆南路227号交通大学医学院内(近合肥路)"},{"poiid":"B2094654DA6FA3FF459B","title":"重建小区","lon":"121.47235","lat":"31.211826","category":"47","category_name":"住宅区","address":"重庆南路229弄1-7号"},{"poiid":"B2094757D16DA6FC439C","title":"986公交","lon":"121.472017","lat":"31.211263","category":"38","category_name":"公交车站","address":"上海建国中路站"},{"poiid":"B2094655D36CA0F9489C","title":"建国中路","lon":"121.47149","lat":"31.2112","category":"38","category_name":"公交车站","address":""},{"poiid":"B2094750DB65AAFE499F","title":"世博大舞台","lon":"121.471679","lat":"31.211416","category":"250","category_name":"公园户外","address":"世博大道，近长清北路"},{"poiid":"B2094757D068A7FA4199","title":"全家便利(建国中路店)","lon":"121.47200012","lat":"31.210500717","category":"117","category_name":"便民商店/便利店","address":"上海卢湾区建国中路10号8号楼8102-8103室(近重庆南路)"},{"poiid":"B2094654DA6FA3FF4393","title":"香麦浓","lon":"121.47348","lat":"31.21116","category":"111","category_name":"休闲餐饮场所","address":"卢湾区建国东路479号(近重庆南路)"},{"poiid":"B2094654DA6FA3FE4793","title":"圣乐大酒店","lon":"121.47262","lat":"31.21314","category":"88","category_name":"海鲜酒楼","address":"卢湾区金陵西路38号(连云路口)"},{"poiid":"B2094757D065A7F84898","title":"苏记麻辣烫(建国东路)","lon":"121.47060356","lat":"31.21147631","category":"68","category_name":"快餐厅","address":"卢湾区建国东路479号(近重庆南路)"},{"poiid":"B2094655D36DA7F9459C","title":"重庆南路建国中路","lon":"121.47139","lat":"31.212","category":"38","category_name":"公交车站","address":""},{"poiid":"B2094757DB69ABFD489F","title":"上海九号线地铁","lon":"121.472491","lat":"31.21162","category":"627","category_name":"一般地点标志","address":null},{"poiid":"B2094655D264A6F5499B","title":"交大医学院门诊部","lon":"121.47184","lat":"31.21205","category":"162","category_name":"医院","address":""},{"poiid":"B2094757D06BA7FE449D","title":"香啡缤(八号桥店)","lon":"121.471496","lat":"31.210737","category":"500","category_name":"未知分类","address":"上海建国中路8号八号桥"},{"poiid":"B2094654DA6FA3FF4599","title":"尔谊宾馆","lon":"121.4717","lat":"31.21201","category":"215","category_name":"三星级宾馆","address":"卢湾区重庆南路227号交通大学医学院东部校园内(近合肥路)"},{"poiid":"B2094757D568A4FD409D","title":"8号桥一期","lon":"121.4710839","lat":"31.21082389","category":"47","category_name":"住宅区","address":"卢湾区建国中路10号"},{"poiid":"B2094757D069ABFE499D","title":"COLABO","lon":"121.4711462","lat":"31.210773105","category":"500","category_name":"未知分类","address":"上海卢湾区建国中路6号"},{"poiid":"B2094757D06AA7F54892","title":"隧道八线","lon":"121.471647438","lat":"31.2111807942","category":"38","category_name":"公交车站","address":"上海东方路张扬路—船厂路中山南二路"},{"poiid":"B2094751D26CA3F54498","title":"mao livehouse","lon":"121.4724","lat":"31.21084","category":"500","category_name":"未知分类","address":null},{"poiid":"B2094655D26AA4F4489D","title":"巴士汽车租赁建国东路店","lon":"121.47311","lat":"31.21086","category":"247","category_name":"餐饮美食","address":"卢湾区建国东路525号1316室(建国东路建国中路)"},{"poiid":"B2094654DA6FA3FF439F","title":"可的(建国东路)","lon":"121.47377","lat":"31.21128","category":"117","category_name":"便民商店/便利店","address":"建国东路473乙"},{"poiid":"B2094750DA6AAAF44898","title":"星游城","lon":"121.472084","lat":"31.211172","category":"248","category_name":"生活娱乐","address":"天钥桥路零陵路"},{"poiid":"B2094750D76FA0FC419E","title":"MAOLIVEHOUSESHANGHAI","lon":"121.472","lat":"31.2097","category":"269","category_name":"烧烤","address":"重庆南路308号(近建国中路)"},{"poiid":"B2094654DA6FA3FE4299","title":"淡水公寓","lon":"121.47429","lat":"31.212645","category":"47","category_name":"住宅区","address":"上海市卢湾区淡水路361号"},{"poiid":"B2094757D06FAAFD489F","title":"香啡缤(建国中路店)","lon":"121.4712","lat":"31.21005","category":"260","category_name":"其他","address":"卢湾区建国中路25号9号楼9101A室(近南北高架)"},{"poiid":"B2094654DA6FA3FF4499","title":"上海市城市交通业务受理中心","lon":"121.4731","lat":"31.21086","category":"250","category_name":"公园户外","address":"建国东路525号巴士大厦"},{"poiid":"B2094757D16DA1F8449C","title":"亲吧KISS奶茶店","lon":"121.471924938","lat":"31.210653883","category":"247","category_name":"餐饮美食","address":"卢湾区建国中路10号8105室(近重庆南路)"},{"poiid":"B2094655D26CA4F8479E","title":"巴士小区","lon":"121.47395","lat":"31.210955","category":"47","category_name":"住宅区","address":"淡水路460弄1-7号"},{"poiid":"B2094757D66CA5FF469B","title":"瑞金医院门诊补液室","lon":"121.470474738","lat":"31.2117589066","category":"162","category_name":"医院","address":"上海市卢湾区瑞金二路"},{"poiid":"B2094655D268A6F44598","title":"体育馆","lon":"121.47292","lat":"31.21284","category":"224","category_name":"综合体育馆","address":""},{"poiid":"B2094654DA6DA5FE429F","title":"清水町日本料理","lon":"121.47148","lat":"31.21098","category":"95","category_name":"日本料理","address":"建国中路8-10号8号桥8号楼"},{"poiid":"B2094757D065ABF5489D","title":"大旺旺特色馄饨(淡水路店)","lon":"121.473931","lat":"31.212588","category":"247","category_name":"餐饮美食","address":"上海淡水路(近淮海中路)"},{"poiid":"B2094757D069A4F94393","title":"上海交通大学医学院合肥路学生公寓","lon":"121.47309764","lat":"31.213114581","category":"500","category_name":"未知分类","address":"卢湾区重庆南路227号交通大学医学院内(近合肥路)"},{"poiid":"B2094757D66DA1FD489E","title":"嘉定汽车公园","lon":"121.47260803","lat":"31.213414041","category":"196","category_name":"公园","address":"上海嘉定汽车博物馆"},{"poiid":"B2094757D069A4F5419F","title":"魅力假期销售部","lon":"121.47217173","lat":"31.211154893","category":"500","category_name":"未知分类","address":"卢湾区建国东路525号巴士大厦1406室"},{"poiid":"B209475CD06BA7F9479B","title":"Small Spice","lon":"121.474174","lat":"31.213106","category":"75","category_name":"浙江菜","address":"淡水路250号"},{"poiid":"B2094757D569A6F9419A","title":"意大利餐厅(建国路店)","lon":"121.47144857","lat":"31.21068197","category":"98","category_name":"意式菜品餐厅","address":"建国中路6"},{"poiid":"B2094757D16FABF4489F","title":"车站","lon":"121.47184703","lat":"31.211344197","category":"500","category_name":"未知分类","address":"上海重庆北路"},{"poiid":"B2094655D264A7F9439C","title":"8号桥南区","lon":"121.47126","lat":"31.21007","category":"46","category_name":"楼宇","address":"建国中路25"},{"poiid":"B2094757D66AA0FC4892","title":"乐食汇","lon":"121.47182873261","lat":"31.211296367651","category":"260","category_name":"其他","address":"卢湾区重庆南路227号尔谊宾馆13楼(近建国路)"},{"poiid":"B209475CD264A1FD499E","title":"Las Tapas","lon":"121.472534","lat":"31.212821","category":"500","category_name":"未知分类","address":"上海市 思南路45号32幢1-2楼"},{"poiid":"B2094751DA6FA6FA439B","title":"cafe espmark","lon":"121.472498","lat":"31.213737","category":"248","category_name":"生活娱乐","address":"上海市黄浦区合肥路588号"},{"poiid":"B2094757D569A1FE4799","title":"海尚杰座","lon":"121.4717025","lat":"31.21024889","category":"47","category_name":"住宅区","address":"营口路578、588"},{"poiid":"B2094654DB65A3FA419C","title":"Fabrique 酒吧","lon":"121.47148","lat":"31.21098","category":"172","category_name":"酒吧","address":"卢弯区建国中路8-10号(近思南路)"},{"poiid":"B2094757D169A5FA429F","title":"17路建国东路重庆南路站","lon":"121.47181573","lat":"31.210810886","category":"500","category_name":"未知分类","address":"上海建国东路重庆南路"},{"poiid":"B2094750D565A1F8459E","title":"天钥桥路","lon":"121.472206","lat":"31.209934","category":"247","category_name":"餐饮美食","address":null},{"poiid":"B2094757D065AAF9429D","title":"重庆南路308号","lon":"121.472159","lat":"31.209495","category":"500","category_name":"未知分类","address":"上海重庆南路308号3楼"},{"poiid":"B2094757D66DABFD479A","title":"卢湾车辆检验所","lon":"121.47204403","lat":"31.210627332","category":"500","category_name":"未知分类","address":"上海重庆南路徐家汇路"},{"poiid":"B2094757D66FA0F44992","title":"消防卢湾","lon":"121.471453738","lat":"31.2112078948","category":"500","category_name":"未知分类","address":"上海市卢湾区重庆南路231号"},{"poiid":"B2094655D265A1F54793","title":"上海中妇旅国旅(魅力假期)","lon":"121.47311","lat":"31.21087","category":"248","category_name":"生活娱乐","address":"建国东路525号巴士大厦1401室"},{"poiid":"B2094750DB6EA5F84599","title":"汇峰鼎园","lon":"121.472","lat":"31.2098","category":"47","category_name":"住宅区","address":"徐汇区肇嘉浜路9弄"},{"poiid":"B2094757D064A0FC4193","title":"建国大厦一号公馆","lon":"121.47154424","lat":"31.210555734","category":"500","category_name":"未知分类","address":"卢湾区柳林路1号(近淮海中路)"},{"poiid":"B2094757D568ABF44893","title":"8号桥二期","lon":"121.4713131","lat":"31.20999694","category":"47","category_name":"住宅区","address":"卢湾局门路427号(靠近斜土路)"},{"poiid":"B209475CD264AAFB459A","title":"徐家汇","lon":"121.471008","lat":"31.212211","category":"500","category_name":"未知分类","address":"上海市 徐家汇"},{"poiid":"B2094655D268A0F4439D","title":"上海交通大学医学院(东门)","lon":"121.47057","lat":"31.21245","category":"656","category_name":"大门","address":"重庆南路280"},{"poiid":"B2094757D16DAAF44292","title":"上海市第三机动车检测站","lon":"121.474249","lat":"31.210696","category":"500","category_name":"未知分类","address":"上海重庆南路275号"},{"poiid":"B2094757D064A4FD429E","title":"香山路7号","lon":"121.47295173","lat":"31.213255938","category":"500","category_name":"未知分类","address":"上海香山路7号"},{"poiid":"B2094655D269ABFF4193","title":"LCCLUB","lon":"121.47204","lat":"31.2098","category":"247","category_name":"餐饮美食","address":"卢湾区重庆南路308号3楼(近建国中路)"},{"poiid":"B2094654DB6BA4FB479F","title":"二医大小区(合肥路)","lon":"121.47165","lat":"31.21362","category":"47","category_name":"住宅区","address":"合肥路381"},{"poiid":"B2094757D66BA6FE459B","title":"卢家湾食府","lon":"121.4724396049","lat":"31.209272369479","category":"76","category_name":"上海菜","address":"卢湾区重庆南路312号(近徐家汇路)"},{"poiid":"B2094655D26FABF5419D","title":"建国东路400弄小区","lon":"121.47482","lat":"31.21202","category":"47","category_name":"住宅区","address":"建国东路400弄1-5号"},{"poiid":"B209475DD76EA1FB439E","title":"新天地","lon":"121.473968","lat":"31.213369","category":"249","category_name":"购物服务","address":"上海市 淮海路"},{"poiid":"B2094655D268A0FF449C","title":"上海交通大学医学院(北门)","lon":"121.4725","lat":"31.21357","category":"656","category_name":"大门","address":"合肥路381"},{"poiid":"B2094655D268A0FF449B","title":"建国东路400弄小区(南门)","lon":"121.47492","lat":"31.21187","category":"47","category_name":"住宅区","address":"建国东路400弄1-5号"},{"poiid":"B2094757D16FA5FB409A","title":"Rotisserie Chicken","lon":"121.47448047","lat":"31.211470843","category":"500","category_name":"未知分类","address":"上海思南公館26F"},{"poiid":"B2094655D26CA4F4469B","title":"健乐小区","lon":"121.47493","lat":"31.2132","category":"47","category_name":"住宅区","address":"淡水路345弄1-32号"},{"poiid":"B2094654DA6FA3FE4293","title":"复兴苑(淡水路门)","lon":"121.47415","lat":"31.21334","category":"47","category_name":"住宅区","address":"淡水路"},{"poiid":"B2094757D164A2FB4593","title":"苏宁电器","lon":"121.47292778","lat":"31.21005667","category":"500","category_name":"未知分类","address":"卢湾区马当路588弄"},{"poiid":"B2094757D064ABFF459C","title":"海文商务楼","lon":"121.47376723","lat":"31.213863451","category":"252","category_name":"楼宇机构","address":"上海合肥路315号"},{"poiid":"B209475CD46CA4FF4392","title":"上海交大医学院图书馆","lon":"121.471008","lat":"31.210807","category":"500","category_name":"未知分类","address":"上海市 重庆南路280号"},{"poiid":"B2094655D268A6F4459B","title":"二医派出所","lon":"121.47149","lat":"31.21284","category":"609","category_name":"警察局","address":""},{"poiid":"B2094654DB65A3FE4299","title":"上海第三机动车安全检测站","lon":"121.47337","lat":"31.20924","category":"250","category_name":"公园户外","address":"重庆南路275号"},{"poiid":"B2094757DA65A1FB469B","title":"闸北区","lon":"121.475046","lat":"31.211598","category":"500","category_name":"未知分类","address":"共和新路"},{"poiid":"B2094654DA6FA3FF439B","title":"申沃客车巴士新新重庆南路特约维修中心","lon":"121.47424","lat":"31.21069","category":"159","category_name":"汽车维修","address":""},{"poiid":"B2094753D569AAFA459D","title":"上海日月光City Shop城市超市","lon":"121.473762","lat":"31.209482","category":"500","category_name":"未知分类","address":"上海市 卢湾区"},{"poiid":"B2094757D064A3FA4799","title":"八号桥时尚生活设计廊","lon":"121.47176","lat":"31.21046","category":"260","category_name":"其他","address":"卢湾区建国中路8-10号8号桥5号楼中庭(近重庆南路)"},{"poiid":"B2094753D36DA0FE449E","title":"香港龙凤楼","lon":"121.472723","lat":"31.209257","category":"247","category_name":"餐饮美食","address":"上海市 蒙自东路75号(丽园路)"},{"poiid":"B2094655D268A0F84899","title":"合肥小区(南门)","lon":"121.47216","lat":"31.21389","category":"47","category_name":"住宅区","address":"合肥路592弄16-31号"},{"poiid":"B2094757D064AAFA459A","title":"喜士多便利(淡水路店)","lon":"121.47392","lat":"31.2137","category":"117","category_name":"便民商店/便利店","address":"卢湾区淡水路372号(近合肥路)"},{"poiid":"B2094757D06BA6FE4498","title":"罗森便利店","lon":"121.47071989","lat":"31.212405806","category":"500","category_name":"未知分类","address":"上海重庆南路227号"},{"poiid":"B2094757D068A5F84598","title":"Konata's room","lon":"121.47394173","lat":"31.213150936","category":"500","category_name":"未知分类","address":"上海马当路357弄1号1405室"},{"poiid":"B2094655D26CA4F8479F","title":"淡水湾花园(西门)","lon":"121.47453","lat":"31.21112","category":"48","category_name":"楼宇大门","address":"淡水路421"},{"poiid":"B2094655D268A6F44493","title":"巴士大厦(西门)","lon":"121.47261","lat":"31.21059","category":"656","category_name":"大门","address":"重庆南路269"},{"poiid":"B2094654DA6FA3FE4792","title":"花园理发店","lon":"121.47223","lat":"31.21387","category":"148","category_name":"美容美发店","address":""},{"poiid":"B2094654DB6BA4FB4898","title":"罗森(徐家汇路)","lon":"121.4734","lat":"31.209","category":"117","category_name":"便民商店/便利店","address":"重庆南路283-2"},{"poiid":"B2094655D26EA5F8489E","title":"设计书店","lon":"121.47131","lat":"31.20999","category":"125","category_name":"书店","address":"卢湾区建国中路25号8号桥2期1楼"},{"poiid":"B2094757D16AA6F9489C","title":"大桥一线","lon":"121.47371208","lat":"31.214056722","category":"38","category_name":"公交车站","address":"上海重庆南路建国中路"},{"poiid":"B2094757D164A2F4469B","title":"上海交通大学医学院四号楼病原实验室","lon":"121.47038903","lat":"31.212159915","category":"500","category_name":"未知分类","address":"上海重庆南路280号"},{"poiid":"B2094654DB65A6F44499","title":"卢湾区文化局","lon":"121.47206","lat":"31.2098","category":"188","category_name":"文化宫","address":"重庆南路308号卢湾社区之家"},{"poiid":"B209475CDA65ABFB4093","title":"Enight.C.Bar","lon":"121.472165","lat":"31.213828","category":"500","category_name":"未知分类","address":"黄浦区合肥路588号（近重庆南路）"},{"poiid":"B2094751D26CA6FA439A","title":"地铁7号线后滩站","lon":"121.474853","lat":"31.209953","category":"250","category_name":"公园户外","address":null},{"poiid":"B2094655D268A6F4459F","title":"合肥小区","lon":"121.47216","lat":"31.21409","category":"47","category_name":"住宅区","address":"合肥路592弄16-31号"},{"poiid":"B2094654DB65A5FD499C","title":"上海电力设计院有限公司","lon":"121.47208","lat":"31.20955","category":"263","category_name":"公司","address":"重庆南路310号新电大厦18-22层、B1层"},{"poiid":"B2094654DA6FA3FE4899","title":"上海交通大学医学院学生活动中心","lon":"121.47296","lat":"31.21361","category":"248","category_name":"生活娱乐","address":"合肥路365"},{"poiid":"B2094753DA6FA0FA439F","title":"交通大學醫學院附屬瑞金醫院","lon":"121.471977","lat":"31.209594","category":"627","category_name":"一般地点标志","address":"上海市黄浦区瑞金二路197号"},{"poiid":"B2094655D268A6F4459E","title":"中科院上海生命科学研究院上海交通大学医学院健康科学研究所","lon":"121.47109","lat":"31.21312","category":"191","category_name":"科研机构","address":"重庆南路225"},{"poiid":"B2094757D065A5F4469C","title":"花嫁丽舍婚礼私人会所(古北店)","lon":"121.47226973","lat":"31.209561859","category":"500","category_name":"未知分类","address":"上海红松东路1000号"},{"poiid":"B2094757D66CABF4469E","title":"中国科学院上海巴斯德研究所","lon":"121.471083","lat":"31.21365","category":"500","category_name":"未知分类","address":"上海合肥路411号(近重庆南路)"},{"poiid":"B2094757D16BA6FD449D","title":"SHANGHAI VIVE 双妹","lon":"121.47131273","lat":"31.209825865","category":"500","category_name":"未知分类","address":"上海市卢湾区泰康路210弄"},{"poiid":"B2094757DB6CA6FB469C","title":"兴业银行上海卢湾支行","lon":"121.4725544661003","lat":"31.20955261820317","category":"263","category_name":"公司","address":"茂名南路59号西楼一组131-136号W136"},{"poiid":"B2094654DA6FA3FE449C","title":"联茂商务酒店","lon":"121.47407","lat":"31.21408","category":"250","category_name":"公园户外","address":"卢湾区合肥路301号"},{"poiid":"B2094655D265ABF5429F","title":"中国农工民主党第一次全国干部会议会址","lon":"121.47355","lat":"31.21427","category":"250","category_name":"公园户外","address":"淡水路338-1临"},{"poiid":"B2094655D26DA2F4499A","title":"上海市国家税务局第五稽查局","lon":"121.47095","lat":"31.20962","category":"250","category_name":"公园户外","address":"建国中路31号"},{"poiid":"B2094654DA6DA5FD459C","title":"上海市电力公司技术与发展中心","lon":"121.47207","lat":"31.20956","category":"263","category_name":"公司","address":"重庆南路310号新电大厦M1-M2"},{"poiid":"B2094654DA6DA5FD4398","title":"快印王子","lon":"121.47069","lat":"31.21038","category":"248","category_name":"生活娱乐","address":""},{"poiid":"B2094757D16EAAF4449F","title":"午饭是要吃呢还是要吃呢还是要吃呢！！","lon":"121.47127448","lat":"31.213927256","category":"500","category_name":"未知分类","address":"上海长清路389号"},{"poiid":"B2094757D16FA5FE479B","title":"罗森","lon":"121.473406","lat":"31.209004","category":"249","category_name":"购物服务","address":"上海重庆南路283号"},{"poiid":"B2094654DA6FA3FF4592","title":"上海巴士新新汽车服务有限公司","lon":"121.47338","lat":"31.20924","category":"263","category_name":"公司","address":"重庆南路275"},{"poiid":"B2094757D66CA3FC409B","title":"Another 03","lon":"121.47105773","lat":"31.209538859","category":"500","category_name":"未知分类","address":"上海马当路296号"},{"poiid":"B2094757D66DA7FD449C","title":"MMJ","lon":"121.475221738","lat":"31.2104088778","category":"249","category_name":"购物服务","address":"上海市卢湾区重庆南路"},{"poiid":"B2094654DA6DA5FD429F","title":"中国软件与技术服务股份有限公司上海分公司","lon":"121.47095","lat":"31.20961","category":"263","category_name":"公司","address":"建国中路29-31号国信商务大厦5层"},{"poiid":"B2094654DA6DA5FD419D","title":"齐鲁证券有限公司(建国中路)","lon":"121.47095","lat":"31.20962","category":"219","category_name":"其他","address":"建国中路29-31号国信商务大厦1-2层"},{"poiid":"B2094655D268A0F4439E","title":"振颖苑(后门)","lon":"121.47105","lat":"31.2101","category":"656","category_name":"大门","address":""}]