[{"poiid":"B2094757D06FA3FD4598","title":"衡山路","lon":"121.44432","lat":"31.20163","category":"260","category_name":"其他","address":"徐汇区衡山路(衡山路吴兴路)"},{"poiid":"B2094757D06FA2FE4599","title":"富豪环球东亚酒店","lon":"121.44417","lat":"31.20142","category":"213","category_name":"五星级宾馆","address":"徐汇区衡山路516号(近宛平路)"},{"poiid":"B2094654DA6DA7FB429F","title":"衡山宾馆","lon":"121.44309","lat":"31.20092","category":"214","category_name":"四星级宾馆","address":"上海市徐汇区衡山路534号(衡山路地区,宛平路口)"},{"poiid":"B2094753D76FAAFA449C","title":"上海滩国泰旗舰店","lon":"121.466011","lat":"31.216125","category":"249","category_name":"购物服务","address":"淮海中路868号"},{"poiid":"B2094757D06FA3F84899","title":"衡山小馆(衡山店)","lon":"121.44508","lat":"31.20207","category":"72","category_name":"广东菜","address":"徐汇区衡山路308号(近高安路)"},{"poiid":"B2094655D269AAFC419D","title":"建工锦江大酒店","lon":"121.44402","lat":"31.19989","category":"247","category_name":"餐饮美食","address":"上海市徐汇区建国西路691号(近衡山路)"},{"poiid":"B2094757D06FA0FB4898","title":"汇银广场","lon":"121.443","lat":"31.2041","category":"46","category_name":"楼宇","address":"铁西卫工南街8―5号"},{"poiid":"B2094654DA6DA3FC409F","title":"港汇中心二座","lon":"121.44363940644","lat":"31.200356970369","category":"46","category_name":"楼宇","address":"上海虹桥路3号"},{"poiid":"B2094757D068ABFC439D","title":"自由港量販式KTV(吴兴店)","lon":"121.44459958","lat":"31.200683853","category":"170","category_name":"KTV","address":"上海徐汇区吴兴路277号"},{"poiid":"B2094757D06FA2F9409B","title":"建汇大厦","lon":"121.446","lat":"31.2018","category":"46","category_name":"楼宇","address":"上海市徐汇区衡山路922号"},{"poiid":"B2094654DA6DA7FA409A","title":"贝尼酒吧","lon":"121.44584","lat":"31.20336","category":"260","category_name":"其他","address":"徐汇区永嘉路705号(衡山路口)"},{"poiid":"B2094757D06FA2FB4193","title":"实业大厦","lon":"121.444","lat":"31.1993","category":"46","category_name":"楼宇","address":"上海市徐汇区漕溪北路18号"},{"poiid":"B2094757DA6AA6FB449C","title":"上海歌城","lon":"121.445144","lat":"31.203566","category":"170","category_name":"KTV","address":"长宁区淮海西路"},{"poiid":"B2094757D06FA6F8429A","title":"浩然高科技大厦","lon":"121.441","lat":"31.2038","category":"46","category_name":"楼宇","address":"上海市徐汇区广元西路55号"},{"poiid":"B2094757D068A2F4469A","title":"草津亭日本料理铁板烧","lon":"121.44346","lat":"31.20042","category":"95","category_name":"日本料理","address":"徐汇区衡山路534号衡山宾馆2楼(建国西路宛平路)"},{"poiid":"B2094757D068A1FF419E","title":"汇银大厦","lon":"121.443831","lat":"31.203133","category":"46","category_name":"楼宇","address":"上海市徐汇区华山路2088号"},{"poiid":"B2094752D76FAAF5409D","title":"Sunday Brunch","lon":"121.443327","lat":"31.199718","category":"247","category_name":"餐饮美食","address":"上海市徐汇区宛平路189弄1号（近衡山路徐家汇公园）"},{"poiid":"B2094757D068A0FC459D","title":"Restaurant Martin by Martin Berasategui","lon":"121.44191","lat":"31.19788","category":"94","category_name":"西餐厅","address":"徐汇区衡山路811号徐家汇中心广场绿地内(近余庆路)"},{"poiid":"B2094757D06FA6F44792","title":"哥莉酒吧","lon":"121.445563","lat":"31.203115","category":"260","category_name":"其他","address":"徐汇区衡山路(高安路口)"},{"poiid":"B2094757D66BA3F54993","title":"花园里","lon":"121.441024","lat":"31.203503","category":"260","category_name":"其他","address":"徐汇区宛平路42号(近上海图书馆)"},{"poiid":"B2094654DA6DA7FA479B","title":"上海国际网球中心","lon":"121.44366","lat":"31.20171","category":"226","category_name":"网球场","address":"徐汇区衡山路516号3楼(宛平路口)"},{"poiid":"B2094654DA6DABFE459A","title":"巾帼园","lon":"121.446","lat":"31.2033","category":"46","category_name":"楼宇","address":"上海天平路245号"},{"poiid":"B2094757D06AA3FA489C","title":"绿丰花园(吴兴路店)","lon":"121.44456","lat":"31.20241","category":"47","category_name":"住宅区","address":"徐汇区吴兴路87号(近衡山路)"},{"poiid":"B2094654DA6DA7F94992","title":"88酒吧","lon":"121.44596","lat":"31.20336","category":"172","category_name":"酒吧","address":"上海静安区富民路291号悟锦大厦2楼(近长乐路),,,88号酒吧"},{"poiid":"B2094757D068A7FD479B","title":"凯文咖啡西餐厅","lon":"121.4442","lat":"31.20048","category":"260","category_name":"其他","address":"徐汇区衡山路525号(近宛平路口衡山宾馆对面)"},{"poiid":"B2094654DB6AA7F4409E","title":"富豪环球绿宝石厅","lon":"121.443976054","lat":"31.201707793","category":"247","category_name":"餐饮美食","address":"衡山路516号富豪环球东亚酒店2楼近吴兴路"},{"poiid":"B2094757D068A1FF4698","title":"宁波人家","lon":"121.44451","lat":"31.19978","category":"75","category_name":"浙江菜","address":"徐汇区建国西路691号建工锦江大酒店4楼(近宛平路)"},{"poiid":"B2094757D068A3FC489D","title":"顿迪酒吧","lon":"121.44623","lat":"31.20313","category":"260","category_name":"其他","address":"徐汇区衡山路281号(近高安路)"},{"poiid":"B2094757D064A2F8459E","title":"康平路","lon":"121.443515","lat":"31.203933","category":"260","category_name":"其他","address":"上海康平路宛平路口"},{"poiid":"B2094757D068A6F8409B","title":"瑜伽空间(Yoga Space)","lon":"121.44525","lat":"31.20361","category":"148","category_name":"美容美发店","address":"上海徐汇区高安路35号3楼(近衡山路)"},{"poiid":"B2094655D269AAFB489A","title":"富豪环球宴会厅","lon":"121.44366","lat":"31.20171","category":"247","category_name":"餐饮美食","address":"徐汇区衡山路516号富豪环球东亚酒店2楼(衡山路吴兴路)查看地图"},{"poiid":"B2094757D66FA7FF439D","title":"梅园村餐饮","lon":"121.44162658","lat":"31.202923897","category":"500","category_name":"未知分类","address":"上海华山路2088号汇银大厦南楼6f"},{"poiid":"B2094655D26EA0FD419A","title":"酒神巴克斯 baccus","lon":"121.443976054","lat":"31.201707793","category":"94","category_name":"西餐厅","address":"徐汇区衡山路516号富豪环球东亚酒店1楼(近吴兴路)"},{"poiid":"B2094757D464A7FD479A","title":"百花园中餐厅","lon":"121.443976054","lat":"31.201707793","category":"72","category_name":"广东菜","address":"徐汇区衡山路516号富豪环球东亚酒店2楼(近吴兴路)"},{"poiid":"B2094655D26AA3FA449D","title":"衡山宾馆宴会厅","lon":"121.44309","lat":"31.20092","category":"247","category_name":"餐饮美食","address":"徐汇区衡山路534号衡山宾馆内(近宛平路)查看地图"},{"poiid":"B2094757D06AA4FB439A","title":"上海特色煨面馆","lon":"121.4434","lat":"31.20335","category":"68","category_name":"快餐厅","address":"徐汇区吴兴路86号(淮海中路康平路间)"},{"poiid":"B2094757DB69A4FB4699","title":"绿丰花园 Abundant Green Garden","lon":"121.4443580218","lat":"31.202050151636","category":"47","category_name":"住宅区","address":"吴兴路87号近衡山路"},{"poiid":"B2094757D569A2F8449B","title":"星巴克咖啡(均瑶店)","lon":"121.443859999998","lat":"31.20044","category":"65","category_name":"咖啡厅","address":"徐汇区肇嘉浜路789号"},{"poiid":"B2094750D164A7FE4893","title":"上海联艺・凯文公寓","lon":"121.443970205688","lat":"31.2008428871856","category":"214","category_name":"四星级宾馆","address":"徐汇区衡山路525号(近网球中心)"},{"poiid":"B2094757D06AA4FD449F","title":"第五十四中学","lon":"121.4437","lat":"31.20429","category":"55","category_name":"中学","address":"徐汇区康平路34号(近高安路)"},{"poiid":"B2094757DA68A0FE4599","title":"串串香","lon":"121.4430919","lat":"31.20093111","category":"247","category_name":"餐饮美食","address":"徐汇区肇嘉浜路1111弄美罗城大食代内(近漕溪北路)"},{"poiid":"B2094757D16EAAF5489B","title":"徐家汇公园儿童乐园","lon":"121.443157586","lat":"31.1997056341","category":"196","category_name":"公园","address":"上海肇嘉浜路天平路"},{"poiid":"B2094757D06AA0FF4093","title":"中国银行(衡山路支行)","lon":"121.443664551","lat":"31.2017173767","category":"150","category_name":"银行","address":"上海衡山路516号"},{"poiid":"B2094757D664A2F8439A","title":"割烹雄","lon":"121.442321","lat":"31.205273","category":"95","category_name":"日本料理","address":"徐汇区吴兴路33号(近淮海中路)"},{"poiid":"B2094753D26AAAF9489E","title":"一月咖啡","lon":"121.442945","lat":"31.201937","category":"500","category_name":"未知分类","address":"上海市 高安路101号漪霏庭D区"},{"poiid":"B2094654DB6BA5FA4698","title":"东亚公寓","lon":"121.4441","lat":"31.202082","category":"47","category_name":"住宅区","address":"吴兴路108号"},{"poiid":"B2094655D26FA3FA4099","title":"衡山宾馆商务中心","lon":"121.44309","lat":"31.20093","category":"46","category_name":"楼宇","address":"衡山路534号2层"},{"poiid":"B2094655D26CA1FE439A","title":"凯文公寓(衡山路)","lon":"121.44429","lat":"31.20107","category":"47","category_name":"住宅区","address":"衡山路525"},{"poiid":"B2094654DA6DA6FC489D","title":"华康大楼","lon":"121.4432","lat":"31.20425","category":"46","category_name":"楼宇","address":"静安区西康路946号"},{"poiid":"B2094757D165A5FA4192","title":"唯東秘密基地","lon":"121.443672886","lat":"31.2023269854","category":"500","category_name":"未知分类","address":null},{"poiid":"B2094757D06FA3FD4598","title":"衡山路","lon":"121.44432","lat":"31.20163","category":"260","category_name":"其他","address":"徐汇区衡山路(衡山路吴兴路)"},{"poiid":"B2094757D06FA2FE4599","title":"富豪环球东亚酒店","lon":"121.44417","lat":"31.20142","category":"213","category_name":"五星级宾馆","address":"徐汇区衡山路516号(近宛平路)"},{"poiid":"B2094654DA6DA7FB429F","title":"衡山宾馆","lon":"121.44309","lat":"31.20092","category":"214","category_name":"四星级宾馆","address":"上海市徐汇区衡山路534号(衡山路地区,宛平路口)"},{"poiid":"B2094753D76FAAFA449C","title":"上海滩国泰旗舰店","lon":"121.466011","lat":"31.216125","category":"249","category_name":"购物服务","address":"淮海中路868号"},{"poiid":"B2094757D06FA3F84899","title":"衡山小馆(衡山店)","lon":"121.44508","lat":"31.20207","category":"72","category_name":"广东菜","address":"徐汇区衡山路308号(近高安路)"},{"poiid":"B2094655D269AAFC419D","title":"建工锦江大酒店","lon":"121.44402","lat":"31.19989","category":"247","category_name":"餐饮美食","address":"上海市徐汇区建国西路691号(近衡山路)"},{"poiid":"B2094757D06FA0FB4898","title":"汇银广场","lon":"121.443","lat":"31.2041","category":"46","category_name":"楼宇","address":"铁西卫工南街8―5号"},{"poiid":"B2094654DA6DA3FC409F","title":"港汇中心二座","lon":"121.44363940644","lat":"31.200356970369","category":"46","category_name":"楼宇","address":"上海虹桥路3号"},{"poiid":"B2094757D068ABFC439D","title":"自由港量販式KTV(吴兴店)","lon":"121.44459958","lat":"31.200683853","category":"170","category_name":"KTV","address":"上海徐汇区吴兴路277号"},{"poiid":"B2094757D06FA2F9409B","title":"建汇大厦","lon":"121.446","lat":"31.2018","category":"46","category_name":"楼宇","address":"上海市徐汇区衡山路922号"},{"poiid":"B2094654DA6DA7FA409A","title":"贝尼酒吧","lon":"121.44584","lat":"31.20336","category":"260","category_name":"其他","address":"徐汇区永嘉路705号(衡山路口)"},{"poiid":"B2094757D06FA2FB4193","title":"实业大厦","lon":"121.444","lat":"31.1993","category":"46","category_name":"楼宇","address":"上海市徐汇区漕溪北路18号"},{"poiid":"B2094757DA6AA6FB449C","title":"上海歌城","lon":"121.445144","lat":"31.203566","category":"170","category_name":"KTV","address":"长宁区淮海西路"},{"poiid":"B2094757D06FA6F8429A","title":"浩然高科技大厦","lon":"121.441","lat":"31.2038","category":"46","category_name":"楼宇","address":"上海市徐汇区广元西路55号"},{"poiid":"B2094757D068A2F4469A","title":"草津亭日本料理铁板烧","lon":"121.44346","lat":"31.20042","category":"95","category_name":"日本料理","address":"徐汇区衡山路534号衡山宾馆2楼(建国西路宛平路)"},{"poiid":"B2094757D068A1FF419E","title":"汇银大厦","lon":"121.443831","lat":"31.203133","category":"46","category_name":"楼宇","address":"上海市徐汇区华山路2088号"},{"poiid":"B2094752D76FAAF5409D","title":"Sunday Brunch","lon":"121.443327","lat":"31.199718","category":"247","category_name":"餐饮美食","address":"上海市徐汇区宛平路189弄1号（近衡山路徐家汇公园）"},{"poiid":"B2094757D068A0FC459D","title":"Restaurant Martin by Martin Berasategui","lon":"121.44191","lat":"31.19788","category":"94","category_name":"西餐厅","address":"徐汇区衡山路811号徐家汇中心广场绿地内(近余庆路)"},{"poiid":"B2094757D06FA6F44792","title":"哥莉酒吧","lon":"121.445563","lat":"31.203115","category":"260","category_name":"其他","address":"徐汇区衡山路(高安路口)"},{"poiid":"B2094757D66BA3F54993","title":"花园里","lon":"121.441024","lat":"31.203503","category":"260","category_name":"其他","address":"徐汇区宛平路42号(近上海图书馆)"},{"poiid":"B2094654DA6DA7FA479B","title":"上海国际网球中心","lon":"121.44366","lat":"31.20171","category":"226","category_name":"网球场","address":"徐汇区衡山路516号3楼(宛平路口)"},{"poiid":"B2094654DA6DABFE459A","title":"巾帼园","lon":"121.446","lat":"31.2033","category":"46","category_name":"楼宇","address":"上海天平路245号"},{"poiid":"B2094757D06AA3FA489C","title":"绿丰花园(吴兴路店)","lon":"121.44456","lat":"31.20241","category":"47","category_name":"住宅区","address":"徐汇区吴兴路87号(近衡山路)"},{"poiid":"B2094654DA6DA7F94992","title":"88酒吧","lon":"121.44596","lat":"31.20336","category":"172","category_name":"酒吧","address":"上海静安区富民路291号悟锦大厦2楼(近长乐路),,,88号酒吧"},{"poiid":"B2094757D068A7FD479B","title":"凯文咖啡西餐厅","lon":"121.4442","lat":"31.20048","category":"260","category_name":"其他","address":"徐汇区衡山路525号(近宛平路口衡山宾馆对面)"},{"poiid":"B2094654DB6AA7F4409E","title":"富豪环球绿宝石厅","lon":"121.443976054","lat":"31.201707793","category":"247","category_name":"餐饮美食","address":"衡山路516号富豪环球东亚酒店2楼近吴兴路"},{"poiid":"B2094757D068A1FF4698","title":"宁波人家","lon":"121.44451","lat":"31.19978","category":"75","category_name":"浙江菜","address":"徐汇区建国西路691号建工锦江大酒店4楼(近宛平路)"},{"poiid":"B2094757D068A3FC489D","title":"顿迪酒吧","lon":"121.44623","lat":"31.20313","category":"260","category_name":"其他","address":"徐汇区衡山路281号(近高安路)"},{"poiid":"B2094757D064A2F8459E","title":"康平路","lon":"121.443515","lat":"31.203933","category":"260","category_name":"其他","address":"上海康平路宛平路口"},{"poiid":"B2094757D068A6F8409B","title":"瑜伽空间(Yoga Space)","lon":"121.44525","lat":"31.20361","category":"148","category_name":"美容美发店","address":"上海徐汇区高安路35号3楼(近衡山路)"},{"poiid":"B2094655D269AAFB489A","title":"富豪环球宴会厅","lon":"121.44366","lat":"31.20171","category":"247","category_name":"餐饮美食","address":"徐汇区衡山路516号富豪环球东亚酒店2楼(衡山路吴兴路)查看地图"},{"poiid":"B2094757D66FA7FF439D","title":"梅园村餐饮","lon":"121.44162658","lat":"31.202923897","category":"500","category_name":"未知分类","address":"上海华山路2088号汇银大厦南楼6f"},{"poiid":"B2094655D26EA0FD419A","title":"酒神巴克斯 baccus","lon":"121.443976054","lat":"31.201707793","category":"94","category_name":"西餐厅","address":"徐汇区衡山路516号富豪环球东亚酒店1楼(近吴兴路)"},{"poiid":"B2094757D464A7FD479A","title":"百花园中餐厅","lon":"121.443976054","lat":"31.201707793","category":"72","category_name":"广东菜","address":"徐汇区衡山路516号富豪环球东亚酒店2楼(近吴兴路)"},{"poiid":"B2094655D26AA3FA449D","title":"衡山宾馆宴会厅","lon":"121.44309","lat":"31.20092","category":"247","category_name":"餐饮美食","address":"徐汇区衡山路534号衡山宾馆内(近宛平路)查看地图"},{"poiid":"B2094757D06AA4FB439A","title":"上海特色煨面馆","lon":"121.4434","lat":"31.20335","category":"68","category_name":"快餐厅","address":"徐汇区吴兴路86号(淮海中路康平路间)"},{"poiid":"B2094757DB69A4FB4699","title":"绿丰花园 Abundant Green Garden","lon":"121.4443580218","lat":"31.202050151636","category":"47","category_name":"住宅区","address":"吴兴路87号近衡山路"},{"poiid":"B2094757D569A2F8449B","title":"星巴克咖啡(均瑶店)","lon":"121.443859999998","lat":"31.20044","category":"65","category_name":"咖啡厅","address":"徐汇区肇嘉浜路789号"},{"poiid":"B2094750D164A7FE4893","title":"上海联艺・凯文公寓","lon":"121.443970205688","lat":"31.2008428871856","category":"214","category_name":"四星级宾馆","address":"徐汇区衡山路525号(近网球中心)"},{"poiid":"B2094757D06AA4FD449F","title":"第五十四中学","lon":"121.4437","lat":"31.20429","category":"55","category_name":"中学","address":"徐汇区康平路34号(近高安路)"},{"poiid":"B2094757DA68A0FE4599","title":"串串香","lon":"121.4430919","lat":"31.20093111","category":"247","category_name":"餐饮美食","address":"徐汇区肇嘉浜路1111弄美罗城大食代内(近漕溪北路)"},{"poiid":"B2094757D16EAAF5489B","title":"徐家汇公园儿童乐园","lon":"121.443157586","lat":"31.1997056341","category":"196","category_name":"公园","address":"上海肇嘉浜路天平路"},{"poiid":"B2094757D06AA0FF4093","title":"中国银行(衡山路支行)","lon":"121.443664551","lat":"31.2017173767","category":"150","category_name":"银行","address":"上海衡山路516号"},{"poiid":"B2094757D664A2F8439A","title":"割烹雄","lon":"121.442321","lat":"31.205273","category":"95","category_name":"日本料理","address":"徐汇区吴兴路33号(近淮海中路)"},{"poiid":"B2094753D26AAAF9489E","title":"一月咖啡","lon":"121.442945","lat":"31.201937","category":"500","category_name":"未知分类","address":"上海市 高安路101号漪霏庭D区"},{"poiid":"B2094654DB6BA5FA4698","title":"东亚公寓","lon":"121.4441","lat":"31.202082","category":"47","category_name":"住宅区","address":"吴兴路108号"},{"poiid":"B2094655D26FA3FA4099","title":"衡山宾馆商务中心","lon":"121.44309","lat":"31.20093","category":"46","category_name":"楼宇","address":"衡山路534号2层"},{"poiid":"B2094655D26CA1FE439A","title":"凯文公寓(衡山路)","lon":"121.44429","lat":"31.20107","category":"47","category_name":"住宅区","address":"衡山路525"},{"poiid":"B2094654DA6DA6FC489D","title":"华康大楼","lon":"121.4432","lat":"31.20425","category":"46","category_name":"楼宇","address":"静安区西康路946号"},{"poiid":"B2094757D165A5FA4192","title":"唯東秘密基地","lon":"121.443672886","lat":"31.2023269854","category":"500","category_name":"未知分类","address":null},{"poiid":"B2094757D06FA3FD4598","title":"衡山路","lon":"121.44432","lat":"31.20163","category":"260","category_name":"其他","address":"徐汇区衡山路(衡山路吴兴路)"},{"poiid":"B2094757D06FA2FE4599","title":"富豪环球东亚酒店","lon":"121.44417","lat":"31.20142","category":"213","category_name":"五星级宾馆","address":"徐汇区衡山路516号(近宛平路)"},{"poiid":"B2094654DA6DA7FB429F","title":"衡山宾馆","lon":"121.44309","lat":"31.20092","category":"214","category_name":"四星级宾馆","address":"上海市徐汇区衡山路534号(衡山路地区,宛平路口)"},{"poiid":"B2094753D76FAAFA449C","title":"上海滩国泰旗舰店","lon":"121.466011","lat":"31.216125","category":"249","category_name":"购物服务","address":"淮海中路868号"},{"poiid":"B2094757D06FA3F84899","title":"衡山小馆(衡山店)","lon":"121.44508","lat":"31.20207","category":"72","category_name":"广东菜","address":"徐汇区衡山路308号(近高安路)"},{"poiid":"B2094655D269AAFC419D","title":"建工锦江大酒店","lon":"121.44402","lat":"31.19989","category":"247","category_name":"餐饮美食","address":"上海市徐汇区建国西路691号(近衡山路)"},{"poiid":"B2094757D06FA0FB4898","title":"汇银广场","lon":"121.443","lat":"31.2041","category":"46","category_name":"楼宇","address":"铁西卫工南街8―5号"},{"poiid":"B2094654DA6DA3FC409F","title":"港汇中心二座","lon":"121.44363940644","lat":"31.200356970369","category":"46","category_name":"楼宇","address":"上海虹桥路3号"},{"poiid":"B2094757D068ABFC439D","title":"自由港量販式KTV(吴兴店)","lon":"121.44459958","lat":"31.200683853","category":"170","category_name":"KTV","address":"上海徐汇区吴兴路277号"},{"poiid":"B2094757D06FA2F9409B","title":"建汇大厦","lon":"121.446","lat":"31.2018","category":"46","category_name":"楼宇","address":"上海市徐汇区衡山路922号"},{"poiid":"B2094654DA6DA7FA409A","title":"贝尼酒吧","lon":"121.44584","lat":"31.20336","category":"260","category_name":"其他","address":"徐汇区永嘉路705号(衡山路口)"},{"poiid":"B2094757D06FA2FB4193","title":"实业大厦","lon":"121.444","lat":"31.1993","category":"46","category_name":"楼宇","address":"上海市徐汇区漕溪北路18号"},{"poiid":"B2094757DA6AA6FB449C","title":"上海歌城","lon":"121.445144","lat":"31.203566","category":"170","category_name":"KTV","address":"长宁区淮海西路"},{"poiid":"B2094757D06FA6F8429A","title":"浩然高科技大厦","lon":"121.441","lat":"31.2038","category":"46","category_name":"楼宇","address":"上海市徐汇区广元西路55号"},{"poiid":"B2094757D068A2F4469A","title":"草津亭日本料理铁板烧","lon":"121.44346","lat":"31.20042","category":"95","category_name":"日本料理","address":"徐汇区衡山路534号衡山宾馆2楼(建国西路宛平路)"},{"poiid":"B2094757D068A1FF419E","title":"汇银大厦","lon":"121.443831","lat":"31.203133","category":"46","category_name":"楼宇","address":"上海市徐汇区华山路2088号"},{"poiid":"B2094752D76FAAF5409D","title":"Sunday Brunch","lon":"121.443327","lat":"31.199718","category":"247","category_name":"餐饮美食","address":"上海市徐汇区宛平路189弄1号（近衡山路徐家汇公园）"},{"poiid":"B2094757D068A0FC459D","title":"Restaurant Martin by Martin Berasategui","lon":"121.44191","lat":"31.19788","category":"94","category_name":"西餐厅","address":"徐汇区衡山路811号徐家汇中心广场绿地内(近余庆路)"},{"poiid":"B2094757D06FA6F44792","title":"哥莉酒吧","lon":"121.445563","lat":"31.203115","category":"260","category_name":"其他","address":"徐汇区衡山路(高安路口)"},{"poiid":"B2094757D66BA3F54993","title":"花园里","lon":"121.441024","lat":"31.203503","category":"260","category_name":"其他","address":"徐汇区宛平路42号(近上海图书馆)"},{"poiid":"B2094654DA6DA7FA479B","title":"上海国际网球中心","lon":"121.44366","lat":"31.20171","category":"226","category_name":"网球场","address":"徐汇区衡山路516号3楼(宛平路口)"},{"poiid":"B2094654DA6DABFE459A","title":"巾帼园","lon":"121.446","lat":"31.2033","category":"46","category_name":"楼宇","address":"上海天平路245号"},{"poiid":"B2094757D06AA3FA489C","title":"绿丰花园(吴兴路店)","lon":"121.44456","lat":"31.20241","category":"47","category_name":"住宅区","address":"徐汇区吴兴路87号(近衡山路)"},{"poiid":"B2094654DA6DA7F94992","title":"88酒吧","lon":"121.44596","lat":"31.20336","category":"172","category_name":"酒吧","address":"上海静安区富民路291号悟锦大厦2楼(近长乐路),,,88号酒吧"},{"poiid":"B2094757D068A7FD479B","title":"凯文咖啡西餐厅","lon":"121.4442","lat":"31.20048","category":"260","category_name":"其他","address":"徐汇区衡山路525号(近宛平路口衡山宾馆对面)"},{"poiid":"B2094654DB6AA7F4409E","title":"富豪环球绿宝石厅","lon":"121.443976054","lat":"31.201707793","category":"247","category_name":"餐饮美食","address":"衡山路516号富豪环球东亚酒店2楼近吴兴路"},{"poiid":"B2094757D068A1FF4698","title":"宁波人家","lon":"121.44451","lat":"31.19978","category":"75","category_name":"浙江菜","address":"徐汇区建国西路691号建工锦江大酒店4楼(近宛平路)"},{"poiid":"B2094757D068A3FC489D","title":"顿迪酒吧","lon":"121.44623","lat":"31.20313","category":"260","category_name":"其他","address":"徐汇区衡山路281号(近高安路)"},{"poiid":"B2094757D064A2F8459E","title":"康平路","lon":"121.443515","lat":"31.203933","category":"260","category_name":"其他","address":"上海康平路宛平路口"},{"poiid":"B2094757D068A6F8409B","title":"瑜伽空间(Yoga Space)","lon":"121.44525","lat":"31.20361","category":"148","category_name":"美容美发店","address":"上海徐汇区高安路35号3楼(近衡山路)"},{"poiid":"B2094655D269AAFB489A","title":"富豪环球宴会厅","lon":"121.44366","lat":"31.20171","category":"247","category_name":"餐饮美食","address":"徐汇区衡山路516号富豪环球东亚酒店2楼(衡山路吴兴路)查看地图"},{"poiid":"B2094757D66FA7FF439D","title":"梅园村餐饮","lon":"121.44162658","lat":"31.202923897","category":"500","category_name":"未知分类","address":"上海华山路2088号汇银大厦南楼6f"},{"poiid":"B2094655D26EA0FD419A","title":"酒神巴克斯 baccus","lon":"121.443976054","lat":"31.201707793","category":"94","category_name":"西餐厅","address":"徐汇区衡山路516号富豪环球东亚酒店1楼(近吴兴路)"},{"poiid":"B2094757D464A7FD479A","title":"百花园中餐厅","lon":"121.443976054","lat":"31.201707793","category":"72","category_name":"广东菜","address":"徐汇区衡山路516号富豪环球东亚酒店2楼(近吴兴路)"},{"poiid":"B2094655D26AA3FA449D","title":"衡山宾馆宴会厅","lon":"121.44309","lat":"31.20092","category":"247","category_name":"餐饮美食","address":"徐汇区衡山路534号衡山宾馆内(近宛平路)查看地图"},{"poiid":"B2094757D06AA4FB439A","title":"上海特色煨面馆","lon":"121.4434","lat":"31.20335","category":"68","category_name":"快餐厅","address":"徐汇区吴兴路86号(淮海中路康平路间)"},{"poiid":"B2094757DB69A4FB4699","title":"绿丰花园 Abundant Green Garden","lon":"121.4443580218","lat":"31.202050151636","category":"47","category_name":"住宅区","address":"吴兴路87号近衡山路"},{"poiid":"B2094757D569A2F8449B","title":"星巴克咖啡(均瑶店)","lon":"121.443859999998","lat":"31.20044","category":"65","category_name":"咖啡厅","address":"徐汇区肇嘉浜路789号"},{"poiid":"B2094750D164A7FE4893","title":"上海联艺・凯文公寓","lon":"121.443970205688","lat":"31.2008428871856","category":"214","category_name":"四星级宾馆","address":"徐汇区衡山路525号(近网球中心)"},{"poiid":"B2094757D06AA4FD449F","title":"第五十四中学","lon":"121.4437","lat":"31.20429","category":"55","category_name":"中学","address":"徐汇区康平路34号(近高安路)"},{"poiid":"B2094757DA68A0FE4599","title":"串串香","lon":"121.4430919","lat":"31.20093111","category":"247","category_name":"餐饮美食","address":"徐汇区肇嘉浜路1111弄美罗城大食代内(近漕溪北路)"},{"poiid":"B2094757D16EAAF5489B","title":"徐家汇公园儿童乐园","lon":"121.443157586","lat":"31.1997056341","category":"196","category_name":"公园","address":"上海肇嘉浜路天平路"},{"poiid":"B2094757D06AA0FF4093","title":"中国银行(衡山路支行)","lon":"121.443664551","lat":"31.2017173767","category":"150","category_name":"银行","address":"上海衡山路516号"},{"poiid":"B2094757D664A2F8439A","title":"割烹雄","lon":"121.442321","lat":"31.205273","category":"95","category_name":"日本料理","address":"徐汇区吴兴路33号(近淮海中路)"},{"poiid":"B2094753D26AAAF9489E","title":"一月咖啡","lon":"121.442945","lat":"31.201937","category":"500","category_name":"未知分类","address":"上海市 高安路101号漪霏庭D区"},{"poiid":"B2094654DB6BA5FA4698","title":"东亚公寓","lon":"121.4441","lat":"31.202082","category":"47","category_name":"住宅区","address":"吴兴路108号"},{"poiid":"B2094655D26FA3FA4099","title":"衡山宾馆商务中心","lon":"121.44309","lat":"31.20093","category":"46","category_name":"楼宇","address":"衡山路534号2层"},{"poiid":"B2094655D26CA1FE439A","title":"凯文公寓(衡山路)","lon":"121.44429","lat":"31.20107","category":"47","category_name":"住宅区","address":"衡山路525"},{"poiid":"B2094654DA6DA6FC489D","title":"华康大楼","lon":"121.4432","lat":"31.20425","category":"46","category_name":"楼宇","address":"静安区西康路946号"},{"poiid":"B2094757D165A5FA4192","title":"唯東秘密基地","lon":"121.443672886","lat":"31.2023269854","category":"500","category_name":"未知分类","address":null},{"poiid":"B2094757D06FA3FD4598","title":"衡山路","lon":"121.44432","lat":"31.20163","category":"260","category_name":"其他","address":"徐汇区衡山路(衡山路吴兴路)"},{"poiid":"B2094757D06FA2FE4599","title":"富豪环球东亚酒店","lon":"121.44417","lat":"31.20142","category":"213","category_name":"五星级宾馆","address":"徐汇区衡山路516号(近宛平路)"},{"poiid":"B2094654DA6DA7FB429F","title":"衡山宾馆","lon":"121.44309","lat":"31.20092","category":"214","category_name":"四星级宾馆","address":"上海市徐汇区衡山路534号(衡山路地区,宛平路口)"},{"poiid":"B2094753D76FAAFA449C","title":"上海滩国泰旗舰店","lon":"121.466011","lat":"31.216125","category":"249","category_name":"购物服务","address":"淮海中路868号"},{"poiid":"B2094757D06FA3F84899","title":"衡山小馆(衡山店)","lon":"121.44508","lat":"31.20207","category":"72","category_name":"广东菜","address":"徐汇区衡山路308号(近高安路)"},{"poiid":"B2094655D269AAFC419D","title":"建工锦江大酒店","lon":"121.44402","lat":"31.19989","category":"247","category_name":"餐饮美食","address":"上海市徐汇区建国西路691号(近衡山路)"},{"poiid":"B2094757D06FA0FB4898","title":"汇银广场","lon":"121.443","lat":"31.2041","category":"46","category_name":"楼宇","address":"铁西卫工南街8―5号"},{"poiid":"B2094654DA6DA3FC409F","title":"港汇中心二座","lon":"121.44363940644","lat":"31.200356970369","category":"46","category_name":"楼宇","address":"上海虹桥路3号"},{"poiid":"B2094757D068ABFC439D","title":"自由港量販式KTV(吴兴店)","lon":"121.44459958","lat":"31.200683853","category":"170","category_name":"KTV","address":"上海徐汇区吴兴路277号"},{"poiid":"B2094757D06FA2F9409B","title":"建汇大厦","lon":"121.446","lat":"31.2018","category":"46","category_name":"楼宇","address":"上海市徐汇区衡山路922号"},{"poiid":"B2094654DA6DA7FA409A","title":"贝尼酒吧","lon":"121.44584","lat":"31.20336","category":"260","category_name":"其他","address":"徐汇区永嘉路705号(衡山路口)"},{"poiid":"B2094757D06FA2FB4193","title":"实业大厦","lon":"121.444","lat":"31.1993","category":"46","category_name":"楼宇","address":"上海市徐汇区漕溪北路18号"},{"poiid":"B2094757DA6AA6FB449C","title":"上海歌城","lon":"121.445144","lat":"31.203566","category":"170","category_name":"KTV","address":"长宁区淮海西路"},{"poiid":"B2094757D06FA6F8429A","title":"浩然高科技大厦","lon":"121.441","lat":"31.2038","category":"46","category_name":"楼宇","address":"上海市徐汇区广元西路55号"},{"poiid":"B2094757D068A2F4469A","title":"草津亭日本料理铁板烧","lon":"121.44346","lat":"31.20042","category":"95","category_name":"日本料理","address":"徐汇区衡山路534号衡山宾馆2楼(建国西路宛平路)"},{"poiid":"B2094757D068A1FF419E","title":"汇银大厦","lon":"121.443831","lat":"31.203133","category":"46","category_name":"楼宇","address":"上海市徐汇区华山路2088号"},{"poiid":"B2094752D76FAAF5409D","title":"Sunday Brunch","lon":"121.443327","lat":"31.199718","category":"247","category_name":"餐饮美食","address":"上海市徐汇区宛平路189弄1号（近衡山路徐家汇公园）"},{"poiid":"B2094757D068A0FC459D","title":"Restaurant Martin by Martin Berasategui","lon":"121.44191","lat":"31.19788","category":"94","category_name":"西餐厅","address":"徐汇区衡山路811号徐家汇中心广场绿地内(近余庆路)"},{"poiid":"B2094757D06FA6F44792","title":"哥莉酒吧","lon":"121.445563","lat":"31.203115","category":"260","category_name":"其他","address":"徐汇区衡山路(高安路口)"},{"poiid":"B2094757D66BA3F54993","title":"花园里","lon":"121.441024","lat":"31.203503","category":"260","category_name":"其他","address":"徐汇区宛平路42号(近上海图书馆)"},{"poiid":"B2094654DA6DA7FA479B","title":"上海国际网球中心","lon":"121.44366","lat":"31.20171","category":"226","category_name":"网球场","address":"徐汇区衡山路516号3楼(宛平路口)"},{"poiid":"B2094654DA6DABFE459A","title":"巾帼园","lon":"121.446","lat":"31.2033","category":"46","category_name":"楼宇","address":"上海天平路245号"},{"poiid":"B2094757D06AA3FA489C","title":"绿丰花园(吴兴路店)","lon":"121.44456","lat":"31.20241","category":"47","category_name":"住宅区","address":"徐汇区吴兴路87号(近衡山路)"},{"poiid":"B2094654DA6DA7F94992","title":"88酒吧","lon":"121.44596","lat":"31.20336","category":"172","category_name":"酒吧","address":"上海静安区富民路291号悟锦大厦2楼(近长乐路),,,88号酒吧"},{"poiid":"B2094757D068A7FD479B","title":"凯文咖啡西餐厅","lon":"121.4442","lat":"31.20048","category":"260","category_name":"其他","address":"徐汇区衡山路525号(近宛平路口衡山宾馆对面)"},{"poiid":"B2094654DB6AA7F4409E","title":"富豪环球绿宝石厅","lon":"121.443976054","lat":"31.201707793","category":"247","category_name":"餐饮美食","address":"衡山路516号富豪环球东亚酒店2楼近吴兴路"},{"poiid":"B2094757D068A1FF4698","title":"宁波人家","lon":"121.44451","lat":"31.19978","category":"75","category_name":"浙江菜","address":"徐汇区建国西路691号建工锦江大酒店4楼(近宛平路)"},{"poiid":"B2094757D068A3FC489D","title":"顿迪酒吧","lon":"121.44623","lat":"31.20313","category":"260","category_name":"其他","address":"徐汇区衡山路281号(近高安路)"},{"poiid":"B2094757D064A2F8459E","title":"康平路","lon":"121.443515","lat":"31.203933","category":"260","category_name":"其他","address":"上海康平路宛平路口"},{"poiid":"B2094757D068A6F8409B","title":"瑜伽空间(Yoga Space)","lon":"121.44525","lat":"31.20361","category":"148","category_name":"美容美发店","address":"上海徐汇区高安路35号3楼(近衡山路)"},{"poiid":"B2094655D269AAFB489A","title":"富豪环球宴会厅","lon":"121.44366","lat":"31.20171","category":"247","category_name":"餐饮美食","address":"徐汇区衡山路516号富豪环球东亚酒店2楼(衡山路吴兴路)查看地图"},{"poiid":"B2094757D66FA7FF439D","title":"梅园村餐饮","lon":"121.44162658","lat":"31.202923897","category":"500","category_name":"未知分类","address":"上海华山路2088号汇银大厦南楼6f"},{"poiid":"B2094655D26EA0FD419A","title":"酒神巴克斯 baccus","lon":"121.443976054","lat":"31.201707793","category":"94","category_name":"西餐厅","address":"徐汇区衡山路516号富豪环球东亚酒店1楼(近吴兴路)"},{"poiid":"B2094757D464A7FD479A","title":"百花园中餐厅","lon":"121.443976054","lat":"31.201707793","category":"72","category_name":"广东菜","address":"徐汇区衡山路516号富豪环球东亚酒店2楼(近吴兴路)"},{"poiid":"B2094655D26AA3FA449D","title":"衡山宾馆宴会厅","lon":"121.44309","lat":"31.20092","category":"247","category_name":"餐饮美食","address":"徐汇区衡山路534号衡山宾馆内(近宛平路)查看地图"},{"poiid":"B2094757D06AA4FB439A","title":"上海特色煨面馆","lon":"121.4434","lat":"31.20335","category":"68","category_name":"快餐厅","address":"徐汇区吴兴路86号(淮海中路康平路间)"},{"poiid":"B2094757DB69A4FB4699","title":"绿丰花园 Abundant Green Garden","lon":"121.4443580218","lat":"31.202050151636","category":"47","category_name":"住宅区","address":"吴兴路87号近衡山路"},{"poiid":"B2094757D569A2F8449B","title":"星巴克咖啡(均瑶店)","lon":"121.443859999998","lat":"31.20044","category":"65","category_name":"咖啡厅","address":"徐汇区肇嘉浜路789号"},{"poiid":"B2094750D164A7FE4893","title":"上海联艺・凯文公寓","lon":"121.443970205688","lat":"31.2008428871856","category":"214","category_name":"四星级宾馆","address":"徐汇区衡山路525号(近网球中心)"},{"poiid":"B2094757D06AA4FD449F","title":"第五十四中学","lon":"121.4437","lat":"31.20429","category":"55","category_name":"中学","address":"徐汇区康平路34号(近高安路)"},{"poiid":"B2094757DA68A0FE4599","title":"串串香","lon":"121.4430919","lat":"31.20093111","category":"247","category_name":"餐饮美食","address":"徐汇区肇嘉浜路1111弄美罗城大食代内(近漕溪北路)"},{"poiid":"B2094757D16EAAF5489B","title":"徐家汇公园儿童乐园","lon":"121.443157586","lat":"31.1997056341","category":"196","category_name":"公园","address":"上海肇嘉浜路天平路"},{"poiid":"B2094757D06AA0FF4093","title":"中国银行(衡山路支行)","lon":"121.443664551","lat":"31.2017173767","category":"150","category_name":"银行","address":"上海衡山路516号"},{"poiid":"B2094757D664A2F8439A","title":"割烹雄","lon":"121.442321","lat":"31.205273","category":"95","category_name":"日本料理","address":"徐汇区吴兴路33号(近淮海中路)"},{"poiid":"B2094753D26AAAF9489E","title":"一月咖啡","lon":"121.442945","lat":"31.201937","category":"500","category_name":"未知分类","address":"上海市 高安路101号漪霏庭D区"},{"poiid":"B2094654DB6BA5FA4698","title":"东亚公寓","lon":"121.4441","lat":"31.202082","category":"47","category_name":"住宅区","address":"吴兴路108号"},{"poiid":"B2094655D26FA3FA4099","title":"衡山宾馆商务中心","lon":"121.44309","lat":"31.20093","category":"46","category_name":"楼宇","address":"衡山路534号2层"},{"poiid":"B2094655D26CA1FE439A","title":"凯文公寓(衡山路)","lon":"121.44429","lat":"31.20107","category":"47","category_name":"住宅区","address":"衡山路525"},{"poiid":"B2094654DA6DA6FC489D","title":"华康大楼","lon":"121.4432","lat":"31.20425","category":"46","category_name":"楼宇","address":"静安区西康路946号"},{"poiid":"B2094757D165A5FA4192","title":"唯東秘密基地","lon":"121.443672886","lat":"31.2023269854","category":"500","category_name":"未知分类","address":null}]