[{"poiid":"B2094654DB65A4FA409D","title":"上海新天地","lon":"121.47503","lat":"31.21888","category":"119","category_name":"商场","address":"上海卢湾区太仓路181弄,兴业路123弄(近马当路)"},{"poiid":"B2094757D06EAAFE469A","title":"七叶和茶 新天地店","lon":"121.474699","lat":"31.218808","category":"95","category_name":"日本料理","address":"卢湾区马当路185号(自忠路口)"},{"poiid":"B2094757D06EAAFA4493","title":"UME国际影城（新天地店）","lon":"121.475131983","lat":"31.2193528916","category":"178","category_name":"电影院","address":"上海卢湾区兴业路123弄新天地南里6号5楼(近马当路)"},{"poiid":"B2094753D76FAAFA449C","title":"上海滩国泰旗舰店","lon":"121.466011","lat":"31.216125","category":"249","category_name":"购物服务","address":"淮海中路868号"},{"poiid":"B209475CD564A7F84292","title":"上海滩新天地店","lon":"121.47463","lat":"31.22164","category":"119","category_name":"商场","address":"\"太仓路181弄新天地北里15号\r\n\""},{"poiid":"B209475CD564A7F8439E","title":"上海滩中信泰富店","lon":"121.45602","lat":"31.22851","category":"119","category_name":"商场","address":"\"南京西路1168号中信泰富广场，店铺号221.\r\n\""},{"poiid":"B2094757D06EAAF8489C","title":"鼎泰丰(新天地店)","lon":"121.474870817","lat":"31.2190067707","category":"68","category_name":"快餐厅","address":"卢湾区兴业路123弄新天地广场南里6号楼2楼11A单元(近马当路)"},{"poiid":"B2094757D06FA2FD4198","title":"godiva café","lon":"121.47528839","lat":"31.21899414","category":"260","category_name":"其他","address":"卢湾区自忠路338号新天地南里5号106号Godiva2楼(近马当路)"},{"poiid":"B2094757D06EABF54693","title":"STAYREAL(新天地店)","lon":"121.4748631","lat":"31.2170296","category":"141","category_name":"服装鞋帽皮具店","address":"上海市马当路245号新天地时尚B101-B102"},{"poiid":"B2094654DB6BA4FA409B","title":"翡翠酒家(新天地店)","lon":"121.47504","lat":"31.21888","category":"72","category_name":"广东菜","address":"卢湾区兴业路123弄新天地南里6-7号2楼(近马当路)"},{"poiid":"B2094757D06FA1FE4598","title":"小南国(新天地店)","lon":"121.47489","lat":"31.21927","category":"76","category_name":"上海菜","address":"卢湾区兴业路123弄新天地南里商场2楼(近马当路)"},{"poiid":"B2094757D06EAAF44293","title":"瑞金医院(卢湾分院)","lon":"121.472367079","lat":"31.2182978875","category":"162","category_name":"医院","address":"卢湾区重庆南路149号(近南昌路)"},{"poiid":"B2094757D56DA2F5469A","title":"新天地G 酒吧","lon":"121.474958738","lat":"31.2194850711","category":"172","category_name":"酒吧","address":"上海新天地"},{"poiid":"B2094750D66EA5FF4192","title":"新天地。猫的天空之城","lon":"121.474761","lat":"31.218126","category":"247","category_name":"餐饮美食","address":null},{"poiid":"B2094751D265A1FB459E","title":"萌果酱女仆咖啡屋 Maid Jump","lon":"121.47213","lat":"31.21763","category":"247","category_name":"餐饮美食","address":"卢湾区自忠路453号甲(近淡水路)"},{"poiid":"B2094757D16FA6F44399","title":"新天地PAULANER","lon":"121.473980542","lat":"31.2169820769","category":"500","category_name":"未知分类","address":"上海新天地"},{"poiid":"B2094757D06FAAF54292","title":"新天地时尚中庭","lon":"121.474863","lat":"31.21703","category":"119","category_name":"商场","address":"上海卢湾区马当路245号"},{"poiid":"B2094757D068A2F84192","title":"丰和日丽","lon":"121.474841738","lat":"31.2194980714","category":"76","category_name":"上海菜","address":"卢湾区自忠路338号新天地南里6号3楼(近马当路)"},{"poiid":"B2094654DB64AAF44398","title":"锅德港式极品肥牛海鲜火锅 新天地店 Good  Hotpot","lon":"121.47531915384","lat":"31.218654115544","category":"86","category_name":"火锅店","address":"卢湾区自忠路338号新天地南里1楼(近黄陂南路)"},{"poiid":"B2094757D06EAAF9439C","title":"Afternoon Tea 新天地店","lon":"121.475007054","lat":"31.219595793","category":"94","category_name":"西餐厅","address":"卢湾区兴业路123弄6-7号楼新天地南里商场3楼(近马当路)"},{"poiid":"B2094750DA6AA6FE499B","title":"STAGE-上海新天地","lon":"121.475151","lat":"31.217338","category":"249","category_name":"购物服务","address":null},{"poiid":"B2094757D468A0FB499C","title":"香啡缤 新天地时尚店","lon":"121.474843","lat":"31.2171292","category":"260","category_name":"其他","address":"卢湾区马当路245号新天地时尚购物广场B129a室(近复兴中路)"},{"poiid":"B2094757D069A0F84393","title":"新天地Fame KTV","lon":"121.47507559","lat":"31.219313547","category":"170","category_name":"KTV","address":"上海卢湾区马当路123号（近兴业路）"},{"poiid":"B2094757D068A2F9409D","title":"Lavazza Espression(新天地店)","lon":"121.47317673","lat":"31.216841014","category":"260","category_name":"其他","address":"卢湾区马当路245号新天地时尚商场1楼"},{"poiid":"B2094757D06AA0FD4092","title":"Urban Soup Kitchen","lon":"121.47502","lat":"31.21742","category":"94","category_name":"西餐厅","address":"卢湾区马当路280号(近自忠路)"},{"poiid":"B2094757DB6FA7F8499B","title":"Mix drink","lon":"121.47339","lat":"31.21652","category":"113","category_name":"冷饮店","address":"卢湾区淡水路238号(近自忠路)"},{"poiid":"B2094757D06FA7F5409A","title":"全洲超市","lon":"121.474375658","lat":"31.2190575772","category":"118","category_name":"超级市场","address":"卢湾区马当路222弄1-6号B1楼(近自忠路)"},{"poiid":"B2094750D565A6FF4993","title":"多謝賞面","lon":"121.47396","lat":"31.219984","category":"247","category_name":"餐饮美食","address":"卢湾区兴业路156弄1号A11号铺(近马当路)"},{"poiid":"B2094757D069A0F54699","title":"Yogo Juice(新天地店)","lon":"121.47470973","lat":"31.217293024","category":"113","category_name":"冷饮店","address":"卢湾区马当路245号新天地时尚购物广场B128室(近复兴中路)"},{"poiid":"B2094655D26EA1FA409E","title":"蒂梵尼造型设计(新天地店)","lon":"121.47405","lat":"31.21983","category":"148","category_name":"美容美发店","address":"卢湾区马当路245号新天地时尚B204-B205单元(近复兴中路)"},{"poiid":"B2094757D16FA4FC4993","title":"Berry bear 贝瑞熊酸奶冰激淋","lon":"121.475104738","lat":"31.219336068","category":"113","category_name":"冷饮店","address":"上海市浦东新区芳甸路1155号嘉里城B层"},{"poiid":"B2094757D068A7F8489D","title":"全州广场日本超市","lon":"121.47435","lat":"31.21843","category":"118","category_name":"超级市场","address":"上海卢湾区马当路222弄1-6号全州广场B1楼(近自忠路)"},{"poiid":"B2094757D069A4FC499B","title":"真的好海鲜餐厅(新天地店)","lon":"121.47488","lat":"31.21967","category":"260","category_name":"其他","address":"卢湾区兴业路123弄新天地广场南里1号楼(近马当路)"},{"poiid":"B2094655D26EA5FD4098","title":"STELLA LUNA(新天地店)","lon":"121.47482","lat":"31.21864","category":"247","category_name":"餐饮美食","address":"卢湾区兴业路123弄6号楼2楼19单元"},{"poiid":"B2094752D165A0FC4099","title":"猫的天空之城新天地店","lon":"121.474701","lat":"31.218201","category":"248","category_name":"生活娱乐","address":"上海黄浦区马当路245号上海新天地时尚B112"},{"poiid":"B209475CD26FA5F8489B","title":"一人前寿司专门店","lon":"121.474746","lat":"31.217882","category":"500","category_name":"未知分类","address":"上海市 马当路245号新天地时尚地下一层129室"},{"poiid":"B2094752DB6CA5FA469D","title":"思南公館","lon":"121.473636","lat":"31.21627","category":"500","category_name":"未知分类","address":"上海市 上海市思南路"},{"poiid":"B2094752DA64AAFD4093","title":"壹品饼家","lon":"121.474797","lat":"31.218069","category":"247","category_name":"餐饮美食","address":"上海市 上海市新天地时尚"},{"poiid":"B2094757D06EAAF54592","title":"汇佳量贩桌游咖啡馆(百米香榭店)","lon":"121.47484173","lat":"31.219498071","category":"175","category_name":"棋牌室","address":"上海黄浦区广西北路250号百米香榭步行街"},{"poiid":"B2094757D16FA4FB479A","title":"新西兰中心","lon":"121.47402443","lat":"31.219481371","category":"182","category_name":"博物馆","address":"上海卢湾区马当路190号"},{"poiid":"B2094757D069A7FA409D","title":"Parkway Health(淡水路门诊部)","lon":"121.47327","lat":"31.21829","category":"162","category_name":"医院","address":"上海卢湾区淡水路170号2-3楼(近兴业路)"},{"poiid":"B2094757D66BA1FC4492","title":"钲酒廊 NU Lounge","lon":"121.474427","lat":"31.219754","category":"94","category_name":"西餐厅","address":"卢湾区兴业路118号2楼(近马当路)"},{"poiid":"B2094757D06FA5FE489F","title":"酷圣石(兴业路店)","lon":"121.47389841","lat":"31.219784209","category":"113","category_name":"冷饮店","address":"卢湾区自忠路338号新天地南里5号楼7单元(近马当路)"},{"poiid":"B2094757D06AA2FB4993","title":"Zen Cafe(新天地店)","lon":"121.47442448","lat":"31.219842237","category":"65","category_name":"咖啡厅","address":"上海卢湾区兴业路118号2楼(近马当路)"},{"poiid":"B2094757D06FA7FA469B","title":"BAPE Store","lon":"121.4750568","lat":"31.2187127","category":"141","category_name":"服装鞋帽皮具店","address":"上海卢湾区马当路245号新天地时尚购物广场7号楼1-2楼(近复兴中路)"},{"poiid":"B2094757D064A6FD4593","title":"好地方精烧扒轩 新天地店 Moon's Steakhouse","lon":"121.47446920145","lat":"31.222526668897","category":"94","category_name":"西餐厅","address":"兴业路123弄新天地广场1楼2室近马当路"},{"poiid":"B2094757D069A7F4469F","title":"新天地人工湖","lon":"121.47291015","lat":"31.217486148","category":"500","category_name":"未知分类","address":"上海新天地"},{"poiid":"B2094757D068ABFF4598","title":"大韩民国临时政府旧址","lon":"121.47505","lat":"31.21707","category":"260","category_name":"其他","address":"卢湾区马当路302-304号(马当路自忠路)"},{"poiid":"B2094757D06BA1F8419D","title":"The Five Tables Bistro","lon":"121.47461813","lat":"31.217152521","category":"94","category_name":"西餐厅","address":"卢湾区淡水路210号(近自忠路)"},{"poiid":"B2094654DB6AA3F54492","title":"新天地AfternoonTea","lon":"121.47482","lat":"31.21864","category":"247","category_name":"餐饮美食","address":"上海市卢湾区兴业路123弄6-7号楼新天地南里商场3楼"},{"poiid":"B2094654DB65A4FA409D","title":"上海新天地","lon":"121.47503","lat":"31.21888","category":"119","category_name":"商场","address":"上海卢湾区太仓路181弄,兴业路123弄(近马当路)"},{"poiid":"B2094757D06EAAFE469A","title":"七叶和茶 新天地店","lon":"121.474699","lat":"31.218808","category":"95","category_name":"日本料理","address":"卢湾区马当路185号(自忠路口)"},{"poiid":"B2094757D06EAAFA4493","title":"UME国际影城（新天地店）","lon":"121.475131983","lat":"31.2193528916","category":"178","category_name":"电影院","address":"上海卢湾区兴业路123弄新天地南里6号5楼(近马当路)"},{"poiid":"B2094753D76FAAFA449C","title":"上海滩国泰旗舰店","lon":"121.466011","lat":"31.216125","category":"249","category_name":"购物服务","address":"淮海中路868号"},{"poiid":"B209475CD564A7F84292","title":"上海滩新天地店","lon":"121.47463","lat":"31.22164","category":"119","category_name":"商场","address":"\"太仓路181弄新天地北里15号\r\n\""},{"poiid":"B209475CD564A7F8439E","title":"上海滩中信泰富店","lon":"121.45602","lat":"31.22851","category":"119","category_name":"商场","address":"\"南京西路1168号中信泰富广场，店铺号221.\r\n\""},{"poiid":"B2094757D06EAAF8489C","title":"鼎泰丰(新天地店)","lon":"121.474870817","lat":"31.2190067707","category":"68","category_name":"快餐厅","address":"卢湾区兴业路123弄新天地广场南里6号楼2楼11A单元(近马当路)"},{"poiid":"B2094757D06FA2FD4198","title":"godiva café","lon":"121.47528839","lat":"31.21899414","category":"260","category_name":"其他","address":"卢湾区自忠路338号新天地南里5号106号Godiva2楼(近马当路)"},{"poiid":"B2094757D06EABF54693","title":"STAYREAL(新天地店)","lon":"121.4748631","lat":"31.2170296","category":"141","category_name":"服装鞋帽皮具店","address":"上海市马当路245号新天地时尚B101-B102"},{"poiid":"B2094654DB6BA4FA409B","title":"翡翠酒家(新天地店)","lon":"121.47504","lat":"31.21888","category":"72","category_name":"广东菜","address":"卢湾区兴业路123弄新天地南里6-7号2楼(近马当路)"},{"poiid":"B2094757D06FA1FE4598","title":"小南国(新天地店)","lon":"121.47489","lat":"31.21927","category":"76","category_name":"上海菜","address":"卢湾区兴业路123弄新天地南里商场2楼(近马当路)"},{"poiid":"B2094757D06EAAF44293","title":"瑞金医院(卢湾分院)","lon":"121.472367079","lat":"31.2182978875","category":"162","category_name":"医院","address":"卢湾区重庆南路149号(近南昌路)"},{"poiid":"B2094757D56DA2F5469A","title":"新天地G 酒吧","lon":"121.474958738","lat":"31.2194850711","category":"172","category_name":"酒吧","address":"上海新天地"},{"poiid":"B2094750D66EA5FF4192","title":"新天地。猫的天空之城","lon":"121.474761","lat":"31.218126","category":"247","category_name":"餐饮美食","address":null},{"poiid":"B2094751D265A1FB459E","title":"萌果酱女仆咖啡屋 Maid Jump","lon":"121.47213","lat":"31.21763","category":"247","category_name":"餐饮美食","address":"卢湾区自忠路453号甲(近淡水路)"},{"poiid":"B2094757D16FA6F44399","title":"新天地PAULANER","lon":"121.473980542","lat":"31.2169820769","category":"500","category_name":"未知分类","address":"上海新天地"},{"poiid":"B2094757D06FAAF54292","title":"新天地时尚中庭","lon":"121.474863","lat":"31.21703","category":"119","category_name":"商场","address":"上海卢湾区马当路245号"},{"poiid":"B2094757D068A2F84192","title":"丰和日丽","lon":"121.474841738","lat":"31.2194980714","category":"76","category_name":"上海菜","address":"卢湾区自忠路338号新天地南里6号3楼(近马当路)"},{"poiid":"B2094654DB64AAF44398","title":"锅德港式极品肥牛海鲜火锅 新天地店 Good  Hotpot","lon":"121.47531915384","lat":"31.218654115544","category":"86","category_name":"火锅店","address":"卢湾区自忠路338号新天地南里1楼(近黄陂南路)"},{"poiid":"B2094757D06EAAF9439C","title":"Afternoon Tea 新天地店","lon":"121.475007054","lat":"31.219595793","category":"94","category_name":"西餐厅","address":"卢湾区兴业路123弄6-7号楼新天地南里商场3楼(近马当路)"},{"poiid":"B2094750DA6AA6FE499B","title":"STAGE-上海新天地","lon":"121.475151","lat":"31.217338","category":"249","category_name":"购物服务","address":null},{"poiid":"B2094757D468A0FB499C","title":"香啡缤 新天地时尚店","lon":"121.474843","lat":"31.2171292","category":"260","category_name":"其他","address":"卢湾区马当路245号新天地时尚购物广场B129a室(近复兴中路)"},{"poiid":"B2094757D069A0F84393","title":"新天地Fame KTV","lon":"121.47507559","lat":"31.219313547","category":"170","category_name":"KTV","address":"上海卢湾区马当路123号（近兴业路）"},{"poiid":"B2094757D068A2F9409D","title":"Lavazza Espression(新天地店)","lon":"121.47317673","lat":"31.216841014","category":"260","category_name":"其他","address":"卢湾区马当路245号新天地时尚商场1楼"},{"poiid":"B2094757D06AA0FD4092","title":"Urban Soup Kitchen","lon":"121.47502","lat":"31.21742","category":"94","category_name":"西餐厅","address":"卢湾区马当路280号(近自忠路)"},{"poiid":"B2094757DB6FA7F8499B","title":"Mix drink","lon":"121.47339","lat":"31.21652","category":"113","category_name":"冷饮店","address":"卢湾区淡水路238号(近自忠路)"},{"poiid":"B2094757D06FA7F5409A","title":"全洲超市","lon":"121.474375658","lat":"31.2190575772","category":"118","category_name":"超级市场","address":"卢湾区马当路222弄1-6号B1楼(近自忠路)"},{"poiid":"B2094750D565A6FF4993","title":"多謝賞面","lon":"121.47396","lat":"31.219984","category":"247","category_name":"餐饮美食","address":"卢湾区兴业路156弄1号A11号铺(近马当路)"},{"poiid":"B2094757D069A0F54699","title":"Yogo Juice(新天地店)","lon":"121.47470973","lat":"31.217293024","category":"113","category_name":"冷饮店","address":"卢湾区马当路245号新天地时尚购物广场B128室(近复兴中路)"},{"poiid":"B2094655D26EA1FA409E","title":"蒂梵尼造型设计(新天地店)","lon":"121.47405","lat":"31.21983","category":"148","category_name":"美容美发店","address":"卢湾区马当路245号新天地时尚B204-B205单元(近复兴中路)"},{"poiid":"B2094757D16FA4FC4993","title":"Berry bear 贝瑞熊酸奶冰激淋","lon":"121.475104738","lat":"31.219336068","category":"113","category_name":"冷饮店","address":"上海市浦东新区芳甸路1155号嘉里城B层"},{"poiid":"B2094757D068A7F8489D","title":"全州广场日本超市","lon":"121.47435","lat":"31.21843","category":"118","category_name":"超级市场","address":"上海卢湾区马当路222弄1-6号全州广场B1楼(近自忠路)"},{"poiid":"B2094757D069A4FC499B","title":"真的好海鲜餐厅(新天地店)","lon":"121.47488","lat":"31.21967","category":"260","category_name":"其他","address":"卢湾区兴业路123弄新天地广场南里1号楼(近马当路)"},{"poiid":"B2094655D26EA5FD4098","title":"STELLA LUNA(新天地店)","lon":"121.47482","lat":"31.21864","category":"247","category_name":"餐饮美食","address":"卢湾区兴业路123弄6号楼2楼19单元"},{"poiid":"B2094752D165A0FC4099","title":"猫的天空之城新天地店","lon":"121.474701","lat":"31.218201","category":"248","category_name":"生活娱乐","address":"上海黄浦区马当路245号上海新天地时尚B112"},{"poiid":"B209475CD26FA5F8489B","title":"一人前寿司专门店","lon":"121.474746","lat":"31.217882","category":"500","category_name":"未知分类","address":"上海市 马当路245号新天地时尚地下一层129室"},{"poiid":"B2094752DB6CA5FA469D","title":"思南公館","lon":"121.473636","lat":"31.21627","category":"500","category_name":"未知分类","address":"上海市 上海市思南路"},{"poiid":"B2094752DA64AAFD4093","title":"壹品饼家","lon":"121.474797","lat":"31.218069","category":"247","category_name":"餐饮美食","address":"上海市 上海市新天地时尚"},{"poiid":"B2094757D06EAAF54592","title":"汇佳量贩桌游咖啡馆(百米香榭店)","lon":"121.47484173","lat":"31.219498071","category":"175","category_name":"棋牌室","address":"上海黄浦区广西北路250号百米香榭步行街"},{"poiid":"B2094757D16FA4FB479A","title":"新西兰中心","lon":"121.47402443","lat":"31.219481371","category":"182","category_name":"博物馆","address":"上海卢湾区马当路190号"},{"poiid":"B2094757D069A7FA409D","title":"Parkway Health(淡水路门诊部)","lon":"121.47327","lat":"31.21829","category":"162","category_name":"医院","address":"上海卢湾区淡水路170号2-3楼(近兴业路)"},{"poiid":"B2094757D66BA1FC4492","title":"钲酒廊 NU Lounge","lon":"121.474427","lat":"31.219754","category":"94","category_name":"西餐厅","address":"卢湾区兴业路118号2楼(近马当路)"},{"poiid":"B2094757D06FA5FE489F","title":"酷圣石(兴业路店)","lon":"121.47389841","lat":"31.219784209","category":"113","category_name":"冷饮店","address":"卢湾区自忠路338号新天地南里5号楼7单元(近马当路)"},{"poiid":"B2094757D06AA2FB4993","title":"Zen Cafe(新天地店)","lon":"121.47442448","lat":"31.219842237","category":"65","category_name":"咖啡厅","address":"上海卢湾区兴业路118号2楼(近马当路)"},{"poiid":"B2094757D06FA7FA469B","title":"BAPE Store","lon":"121.4750568","lat":"31.2187127","category":"141","category_name":"服装鞋帽皮具店","address":"上海卢湾区马当路245号新天地时尚购物广场7号楼1-2楼(近复兴中路)"},{"poiid":"B2094757D064A6FD4593","title":"好地方精烧扒轩 新天地店 Moon's Steakhouse","lon":"121.47446920145","lat":"31.222526668897","category":"94","category_name":"西餐厅","address":"兴业路123弄新天地广场1楼2室近马当路"},{"poiid":"B2094757D069A7F4469F","title":"新天地人工湖","lon":"121.47291015","lat":"31.217486148","category":"500","category_name":"未知分类","address":"上海新天地"},{"poiid":"B2094757D068ABFF4598","title":"大韩民国临时政府旧址","lon":"121.47505","lat":"31.21707","category":"260","category_name":"其他","address":"卢湾区马当路302-304号(马当路自忠路)"},{"poiid":"B2094757D06BA1F8419D","title":"The Five Tables Bistro","lon":"121.47461813","lat":"31.217152521","category":"94","category_name":"西餐厅","address":"卢湾区淡水路210号(近自忠路)"},{"poiid":"B2094654DB6AA3F54492","title":"新天地AfternoonTea","lon":"121.47482","lat":"31.21864","category":"247","category_name":"餐饮美食","address":"上海市卢湾区兴业路123弄6-7号楼新天地南里商场3楼"},{"poiid":"B2094654DB65A4FA409D","title":"上海新天地","lon":"121.47503","lat":"31.21888","category":"119","category_name":"商场","address":"上海卢湾区太仓路181弄,兴业路123弄(近马当路)"},{"poiid":"B2094757D06EAAFE469A","title":"七叶和茶 新天地店","lon":"121.474699","lat":"31.218808","category":"95","category_name":"日本料理","address":"卢湾区马当路185号(自忠路口)"},{"poiid":"B2094757D06EAAFA4493","title":"UME国际影城（新天地店）","lon":"121.475131983","lat":"31.2193528916","category":"178","category_name":"电影院","address":"上海卢湾区兴业路123弄新天地南里6号5楼(近马当路)"},{"poiid":"B2094753D76FAAFA449C","title":"上海滩国泰旗舰店","lon":"121.466011","lat":"31.216125","category":"249","category_name":"购物服务","address":"淮海中路868号"},{"poiid":"B209475CD564A7F84292","title":"上海滩新天地店","lon":"121.47463","lat":"31.22164","category":"119","category_name":"商场","address":"\"太仓路181弄新天地北里15号\r\n\""},{"poiid":"B209475CD564A7F8439E","title":"上海滩中信泰富店","lon":"121.45602","lat":"31.22851","category":"119","category_name":"商场","address":"\"南京西路1168号中信泰富广场，店铺号221.\r\n\""},{"poiid":"B2094757D06EAAF8489C","title":"鼎泰丰(新天地店)","lon":"121.474870817","lat":"31.2190067707","category":"68","category_name":"快餐厅","address":"卢湾区兴业路123弄新天地广场南里6号楼2楼11A单元(近马当路)"},{"poiid":"B2094757D06FA2FD4198","title":"godiva café","lon":"121.47528839","lat":"31.21899414","category":"260","category_name":"其他","address":"卢湾区自忠路338号新天地南里5号106号Godiva2楼(近马当路)"},{"poiid":"B2094757D06EABF54693","title":"STAYREAL(新天地店)","lon":"121.4748631","lat":"31.2170296","category":"141","category_name":"服装鞋帽皮具店","address":"上海市马当路245号新天地时尚B101-B102"},{"poiid":"B2094654DB6BA4FA409B","title":"翡翠酒家(新天地店)","lon":"121.47504","lat":"31.21888","category":"72","category_name":"广东菜","address":"卢湾区兴业路123弄新天地南里6-7号2楼(近马当路)"},{"poiid":"B2094757D06FA1FE4598","title":"小南国(新天地店)","lon":"121.47489","lat":"31.21927","category":"76","category_name":"上海菜","address":"卢湾区兴业路123弄新天地南里商场2楼(近马当路)"},{"poiid":"B2094757D06EAAF44293","title":"瑞金医院(卢湾分院)","lon":"121.472367079","lat":"31.2182978875","category":"162","category_name":"医院","address":"卢湾区重庆南路149号(近南昌路)"},{"poiid":"B2094757D56DA2F5469A","title":"新天地G 酒吧","lon":"121.474958738","lat":"31.2194850711","category":"172","category_name":"酒吧","address":"上海新天地"},{"poiid":"B2094750D66EA5FF4192","title":"新天地。猫的天空之城","lon":"121.474761","lat":"31.218126","category":"247","category_name":"餐饮美食","address":null},{"poiid":"B2094751D265A1FB459E","title":"萌果酱女仆咖啡屋 Maid Jump","lon":"121.47213","lat":"31.21763","category":"247","category_name":"餐饮美食","address":"卢湾区自忠路453号甲(近淡水路)"},{"poiid":"B2094757D16FA6F44399","title":"新天地PAULANER","lon":"121.473980542","lat":"31.2169820769","category":"500","category_name":"未知分类","address":"上海新天地"},{"poiid":"B2094757D06FAAF54292","title":"新天地时尚中庭","lon":"121.474863","lat":"31.21703","category":"119","category_name":"商场","address":"上海卢湾区马当路245号"},{"poiid":"B2094757D068A2F84192","title":"丰和日丽","lon":"121.474841738","lat":"31.2194980714","category":"76","category_name":"上海菜","address":"卢湾区自忠路338号新天地南里6号3楼(近马当路)"},{"poiid":"B2094654DB64AAF44398","title":"锅德港式极品肥牛海鲜火锅 新天地店 Good  Hotpot","lon":"121.47531915384","lat":"31.218654115544","category":"86","category_name":"火锅店","address":"卢湾区自忠路338号新天地南里1楼(近黄陂南路)"},{"poiid":"B2094757D06EAAF9439C","title":"Afternoon Tea 新天地店","lon":"121.475007054","lat":"31.219595793","category":"94","category_name":"西餐厅","address":"卢湾区兴业路123弄6-7号楼新天地南里商场3楼(近马当路)"},{"poiid":"B2094750DA6AA6FE499B","title":"STAGE-上海新天地","lon":"121.475151","lat":"31.217338","category":"249","category_name":"购物服务","address":null},{"poiid":"B2094757D468A0FB499C","title":"香啡缤 新天地时尚店","lon":"121.474843","lat":"31.2171292","category":"260","category_name":"其他","address":"卢湾区马当路245号新天地时尚购物广场B129a室(近复兴中路)"},{"poiid":"B2094757D069A0F84393","title":"新天地Fame KTV","lon":"121.47507559","lat":"31.219313547","category":"170","category_name":"KTV","address":"上海卢湾区马当路123号（近兴业路）"},{"poiid":"B2094757D068A2F9409D","title":"Lavazza Espression(新天地店)","lon":"121.47317673","lat":"31.216841014","category":"260","category_name":"其他","address":"卢湾区马当路245号新天地时尚商场1楼"},{"poiid":"B2094757D06AA0FD4092","title":"Urban Soup Kitchen","lon":"121.47502","lat":"31.21742","category":"94","category_name":"西餐厅","address":"卢湾区马当路280号(近自忠路)"},{"poiid":"B2094757DB6FA7F8499B","title":"Mix drink","lon":"121.47339","lat":"31.21652","category":"113","category_name":"冷饮店","address":"卢湾区淡水路238号(近自忠路)"},{"poiid":"B2094757D06FA7F5409A","title":"全洲超市","lon":"121.474375658","lat":"31.2190575772","category":"118","category_name":"超级市场","address":"卢湾区马当路222弄1-6号B1楼(近自忠路)"},{"poiid":"B2094750D565A6FF4993","title":"多謝賞面","lon":"121.47396","lat":"31.219984","category":"247","category_name":"餐饮美食","address":"卢湾区兴业路156弄1号A11号铺(近马当路)"},{"poiid":"B2094757D069A0F54699","title":"Yogo Juice(新天地店)","lon":"121.47470973","lat":"31.217293024","category":"113","category_name":"冷饮店","address":"卢湾区马当路245号新天地时尚购物广场B128室(近复兴中路)"},{"poiid":"B2094655D26EA1FA409E","title":"蒂梵尼造型设计(新天地店)","lon":"121.47405","lat":"31.21983","category":"148","category_name":"美容美发店","address":"卢湾区马当路245号新天地时尚B204-B205单元(近复兴中路)"},{"poiid":"B2094757D16FA4FC4993","title":"Berry bear 贝瑞熊酸奶冰激淋","lon":"121.475104738","lat":"31.219336068","category":"113","category_name":"冷饮店","address":"上海市浦东新区芳甸路1155号嘉里城B层"},{"poiid":"B2094757D068A7F8489D","title":"全州广场日本超市","lon":"121.47435","lat":"31.21843","category":"118","category_name":"超级市场","address":"上海卢湾区马当路222弄1-6号全州广场B1楼(近自忠路)"},{"poiid":"B2094757D069A4FC499B","title":"真的好海鲜餐厅(新天地店)","lon":"121.47488","lat":"31.21967","category":"260","category_name":"其他","address":"卢湾区兴业路123弄新天地广场南里1号楼(近马当路)"},{"poiid":"B2094655D26EA5FD4098","title":"STELLA LUNA(新天地店)","lon":"121.47482","lat":"31.21864","category":"247","category_name":"餐饮美食","address":"卢湾区兴业路123弄6号楼2楼19单元"},{"poiid":"B2094752D165A0FC4099","title":"猫的天空之城新天地店","lon":"121.474701","lat":"31.218201","category":"248","category_name":"生活娱乐","address":"上海黄浦区马当路245号上海新天地时尚B112"},{"poiid":"B209475CD26FA5F8489B","title":"一人前寿司专门店","lon":"121.474746","lat":"31.217882","category":"500","category_name":"未知分类","address":"上海市 马当路245号新天地时尚地下一层129室"},{"poiid":"B2094752DB6CA5FA469D","title":"思南公館","lon":"121.473636","lat":"31.21627","category":"500","category_name":"未知分类","address":"上海市 上海市思南路"},{"poiid":"B2094752DA64AAFD4093","title":"壹品饼家","lon":"121.474797","lat":"31.218069","category":"247","category_name":"餐饮美食","address":"上海市 上海市新天地时尚"},{"poiid":"B2094757D06EAAF54592","title":"汇佳量贩桌游咖啡馆(百米香榭店)","lon":"121.47484173","lat":"31.219498071","category":"175","category_name":"棋牌室","address":"上海黄浦区广西北路250号百米香榭步行街"},{"poiid":"B2094757D16FA4FB479A","title":"新西兰中心","lon":"121.47402443","lat":"31.219481371","category":"182","category_name":"博物馆","address":"上海卢湾区马当路190号"},{"poiid":"B2094757D069A7FA409D","title":"Parkway Health(淡水路门诊部)","lon":"121.47327","lat":"31.21829","category":"162","category_name":"医院","address":"上海卢湾区淡水路170号2-3楼(近兴业路)"},{"poiid":"B2094757D66BA1FC4492","title":"钲酒廊 NU Lounge","lon":"121.474427","lat":"31.219754","category":"94","category_name":"西餐厅","address":"卢湾区兴业路118号2楼(近马当路)"},{"poiid":"B2094757D06FA5FE489F","title":"酷圣石(兴业路店)","lon":"121.47389841","lat":"31.219784209","category":"113","category_name":"冷饮店","address":"卢湾区自忠路338号新天地南里5号楼7单元(近马当路)"},{"poiid":"B2094757D06AA2FB4993","title":"Zen Cafe(新天地店)","lon":"121.47442448","lat":"31.219842237","category":"65","category_name":"咖啡厅","address":"上海卢湾区兴业路118号2楼(近马当路)"},{"poiid":"B2094757D06FA7FA469B","title":"BAPE Store","lon":"121.4750568","lat":"31.2187127","category":"141","category_name":"服装鞋帽皮具店","address":"上海卢湾区马当路245号新天地时尚购物广场7号楼1-2楼(近复兴中路)"},{"poiid":"B2094757D064A6FD4593","title":"好地方精烧扒轩 新天地店 Moon's Steakhouse","lon":"121.47446920145","lat":"31.222526668897","category":"94","category_name":"西餐厅","address":"兴业路123弄新天地广场1楼2室近马当路"},{"poiid":"B2094757D069A7F4469F","title":"新天地人工湖","lon":"121.47291015","lat":"31.217486148","category":"500","category_name":"未知分类","address":"上海新天地"},{"poiid":"B2094757D068ABFF4598","title":"大韩民国临时政府旧址","lon":"121.47505","lat":"31.21707","category":"260","category_name":"其他","address":"卢湾区马当路302-304号(马当路自忠路)"},{"poiid":"B2094757D06BA1F8419D","title":"The Five Tables Bistro","lon":"121.47461813","lat":"31.217152521","category":"94","category_name":"西餐厅","address":"卢湾区淡水路210号(近自忠路)"},{"poiid":"B2094654DB6AA3F54492","title":"新天地AfternoonTea","lon":"121.47482","lat":"31.21864","category":"247","category_name":"餐饮美食","address":"上海市卢湾区兴业路123弄6-7号楼新天地南里商场3楼"},{"poiid":"B2094654DB65A4FA409D","title":"上海新天地","lon":"121.47503","lat":"31.21888","category":"119","category_name":"商场","address":"上海卢湾区太仓路181弄,兴业路123弄(近马当路)"},{"poiid":"B2094757D06EAAFE469A","title":"七叶和茶 新天地店","lon":"121.474699","lat":"31.218808","category":"95","category_name":"日本料理","address":"卢湾区马当路185号(自忠路口)"},{"poiid":"B2094757D06EAAFA4493","title":"UME国际影城（新天地店）","lon":"121.475131983","lat":"31.2193528916","category":"178","category_name":"电影院","address":"上海卢湾区兴业路123弄新天地南里6号5楼(近马当路)"},{"poiid":"B2094753D76FAAFA449C","title":"上海滩国泰旗舰店","lon":"121.466011","lat":"31.216125","category":"249","category_name":"购物服务","address":"淮海中路868号"},{"poiid":"B209475CD564A7F84292","title":"上海滩新天地店","lon":"121.47463","lat":"31.22164","category":"119","category_name":"商场","address":"\"太仓路181弄新天地北里15号\r\n\""},{"poiid":"B209475CD564A7F8439E","title":"上海滩中信泰富店","lon":"121.45602","lat":"31.22851","category":"119","category_name":"商场","address":"\"南京西路1168号中信泰富广场，店铺号221.\r\n\""},{"poiid":"B2094757D06EAAF8489C","title":"鼎泰丰(新天地店)","lon":"121.474870817","lat":"31.2190067707","category":"68","category_name":"快餐厅","address":"卢湾区兴业路123弄新天地广场南里6号楼2楼11A单元(近马当路)"},{"poiid":"B2094757D06FA2FD4198","title":"godiva café","lon":"121.47528839","lat":"31.21899414","category":"260","category_name":"其他","address":"卢湾区自忠路338号新天地南里5号106号Godiva2楼(近马当路)"},{"poiid":"B2094757D06EABF54693","title":"STAYREAL(新天地店)","lon":"121.4748631","lat":"31.2170296","category":"141","category_name":"服装鞋帽皮具店","address":"上海市马当路245号新天地时尚B101-B102"},{"poiid":"B2094654DB6BA4FA409B","title":"翡翠酒家(新天地店)","lon":"121.47504","lat":"31.21888","category":"72","category_name":"广东菜","address":"卢湾区兴业路123弄新天地南里6-7号2楼(近马当路)"},{"poiid":"B2094757D06FA1FE4598","title":"小南国(新天地店)","lon":"121.47489","lat":"31.21927","category":"76","category_name":"上海菜","address":"卢湾区兴业路123弄新天地南里商场2楼(近马当路)"},{"poiid":"B2094757D06EAAF44293","title":"瑞金医院(卢湾分院)","lon":"121.472367079","lat":"31.2182978875","category":"162","category_name":"医院","address":"卢湾区重庆南路149号(近南昌路)"},{"poiid":"B2094757D56DA2F5469A","title":"新天地G 酒吧","lon":"121.474958738","lat":"31.2194850711","category":"172","category_name":"酒吧","address":"上海新天地"},{"poiid":"B2094750D66EA5FF4192","title":"新天地。猫的天空之城","lon":"121.474761","lat":"31.218126","category":"247","category_name":"餐饮美食","address":null},{"poiid":"B2094751D265A1FB459E","title":"萌果酱女仆咖啡屋 Maid Jump","lon":"121.47213","lat":"31.21763","category":"247","category_name":"餐饮美食","address":"卢湾区自忠路453号甲(近淡水路)"},{"poiid":"B2094757D16FA6F44399","title":"新天地PAULANER","lon":"121.473980542","lat":"31.2169820769","category":"500","category_name":"未知分类","address":"上海新天地"},{"poiid":"B2094757D06FAAF54292","title":"新天地时尚中庭","lon":"121.474863","lat":"31.21703","category":"119","category_name":"商场","address":"上海卢湾区马当路245号"},{"poiid":"B2094757D068A2F84192","title":"丰和日丽","lon":"121.474841738","lat":"31.2194980714","category":"76","category_name":"上海菜","address":"卢湾区自忠路338号新天地南里6号3楼(近马当路)"},{"poiid":"B2094654DB64AAF44398","title":"锅德港式极品肥牛海鲜火锅 新天地店 Good  Hotpot","lon":"121.47531915384","lat":"31.218654115544","category":"86","category_name":"火锅店","address":"卢湾区自忠路338号新天地南里1楼(近黄陂南路)"},{"poiid":"B2094757D06EAAF9439C","title":"Afternoon Tea 新天地店","lon":"121.475007054","lat":"31.219595793","category":"94","category_name":"西餐厅","address":"卢湾区兴业路123弄6-7号楼新天地南里商场3楼(近马当路)"},{"poiid":"B2094750DA6AA6FE499B","title":"STAGE-上海新天地","lon":"121.475151","lat":"31.217338","category":"249","category_name":"购物服务","address":null},{"poiid":"B2094757D468A0FB499C","title":"香啡缤 新天地时尚店","lon":"121.474843","lat":"31.2171292","category":"260","category_name":"其他","address":"卢湾区马当路245号新天地时尚购物广场B129a室(近复兴中路)"},{"poiid":"B2094757D069A0F84393","title":"新天地Fame KTV","lon":"121.47507559","lat":"31.219313547","category":"170","category_name":"KTV","address":"上海卢湾区马当路123号（近兴业路）"},{"poiid":"B2094757D068A2F9409D","title":"Lavazza Espression(新天地店)","lon":"121.47317673","lat":"31.216841014","category":"260","category_name":"其他","address":"卢湾区马当路245号新天地时尚商场1楼"},{"poiid":"B2094757D06AA0FD4092","title":"Urban Soup Kitchen","lon":"121.47502","lat":"31.21742","category":"94","category_name":"西餐厅","address":"卢湾区马当路280号(近自忠路)"},{"poiid":"B2094757DB6FA7F8499B","title":"Mix drink","lon":"121.47339","lat":"31.21652","category":"113","category_name":"冷饮店","address":"卢湾区淡水路238号(近自忠路)"},{"poiid":"B2094757D06FA7F5409A","title":"全洲超市","lon":"121.474375658","lat":"31.2190575772","category":"118","category_name":"超级市场","address":"卢湾区马当路222弄1-6号B1楼(近自忠路)"},{"poiid":"B2094750D565A6FF4993","title":"多謝賞面","lon":"121.47396","lat":"31.219984","category":"247","category_name":"餐饮美食","address":"卢湾区兴业路156弄1号A11号铺(近马当路)"},{"poiid":"B2094757D069A0F54699","title":"Yogo Juice(新天地店)","lon":"121.47470973","lat":"31.217293024","category":"113","category_name":"冷饮店","address":"卢湾区马当路245号新天地时尚购物广场B128室(近复兴中路)"},{"poiid":"B2094655D26EA1FA409E","title":"蒂梵尼造型设计(新天地店)","lon":"121.47405","lat":"31.21983","category":"148","category_name":"美容美发店","address":"卢湾区马当路245号新天地时尚B204-B205单元(近复兴中路)"},{"poiid":"B2094757D16FA4FC4993","title":"Berry bear 贝瑞熊酸奶冰激淋","lon":"121.475104738","lat":"31.219336068","category":"113","category_name":"冷饮店","address":"上海市浦东新区芳甸路1155号嘉里城B层"},{"poiid":"B2094757D068A7F8489D","title":"全州广场日本超市","lon":"121.47435","lat":"31.21843","category":"118","category_name":"超级市场","address":"上海卢湾区马当路222弄1-6号全州广场B1楼(近自忠路)"},{"poiid":"B2094757D069A4FC499B","title":"真的好海鲜餐厅(新天地店)","lon":"121.47488","lat":"31.21967","category":"260","category_name":"其他","address":"卢湾区兴业路123弄新天地广场南里1号楼(近马当路)"},{"poiid":"B2094655D26EA5FD4098","title":"STELLA LUNA(新天地店)","lon":"121.47482","lat":"31.21864","category":"247","category_name":"餐饮美食","address":"卢湾区兴业路123弄6号楼2楼19单元"},{"poiid":"B2094752D165A0FC4099","title":"猫的天空之城新天地店","lon":"121.474701","lat":"31.218201","category":"248","category_name":"生活娱乐","address":"上海黄浦区马当路245号上海新天地时尚B112"},{"poiid":"B209475CD26FA5F8489B","title":"一人前寿司专门店","lon":"121.474746","lat":"31.217882","category":"500","category_name":"未知分类","address":"上海市 马当路245号新天地时尚地下一层129室"},{"poiid":"B2094752DB6CA5FA469D","title":"思南公館","lon":"121.473636","lat":"31.21627","category":"500","category_name":"未知分类","address":"上海市 上海市思南路"},{"poiid":"B2094752DA64AAFD4093","title":"壹品饼家","lon":"121.474797","lat":"31.218069","category":"247","category_name":"餐饮美食","address":"上海市 上海市新天地时尚"},{"poiid":"B2094757D06EAAF54592","title":"汇佳量贩桌游咖啡馆(百米香榭店)","lon":"121.47484173","lat":"31.219498071","category":"175","category_name":"棋牌室","address":"上海黄浦区广西北路250号百米香榭步行街"},{"poiid":"B2094757D16FA4FB479A","title":"新西兰中心","lon":"121.47402443","lat":"31.219481371","category":"182","category_name":"博物馆","address":"上海卢湾区马当路190号"},{"poiid":"B2094757D069A7FA409D","title":"Parkway Health(淡水路门诊部)","lon":"121.47327","lat":"31.21829","category":"162","category_name":"医院","address":"上海卢湾区淡水路170号2-3楼(近兴业路)"},{"poiid":"B2094757D66BA1FC4492","title":"钲酒廊 NU Lounge","lon":"121.474427","lat":"31.219754","category":"94","category_name":"西餐厅","address":"卢湾区兴业路118号2楼(近马当路)"},{"poiid":"B2094757D06FA5FE489F","title":"酷圣石(兴业路店)","lon":"121.47389841","lat":"31.219784209","category":"113","category_name":"冷饮店","address":"卢湾区自忠路338号新天地南里5号楼7单元(近马当路)"},{"poiid":"B2094757D06AA2FB4993","title":"Zen Cafe(新天地店)","lon":"121.47442448","lat":"31.219842237","category":"65","category_name":"咖啡厅","address":"上海卢湾区兴业路118号2楼(近马当路)"},{"poiid":"B2094757D06FA7FA469B","title":"BAPE Store","lon":"121.4750568","lat":"31.2187127","category":"141","category_name":"服装鞋帽皮具店","address":"上海卢湾区马当路245号新天地时尚购物广场7号楼1-2楼(近复兴中路)"},{"poiid":"B2094757D064A6FD4593","title":"好地方精烧扒轩 新天地店 Moon's Steakhouse","lon":"121.47446920145","lat":"31.222526668897","category":"94","category_name":"西餐厅","address":"兴业路123弄新天地广场1楼2室近马当路"},{"poiid":"B2094757D069A7F4469F","title":"新天地人工湖","lon":"121.47291015","lat":"31.217486148","category":"500","category_name":"未知分类","address":"上海新天地"},{"poiid":"B2094757D068ABFF4598","title":"大韩民国临时政府旧址","lon":"121.47505","lat":"31.21707","category":"260","category_name":"其他","address":"卢湾区马当路302-304号(马当路自忠路)"},{"poiid":"B2094757D06BA1F8419D","title":"The Five Tables Bistro","lon":"121.47461813","lat":"31.217152521","category":"94","category_name":"西餐厅","address":"卢湾区淡水路210号(近自忠路)"},{"poiid":"B2094654DB6AA3F54492","title":"新天地AfternoonTea","lon":"121.47482","lat":"31.21864","category":"247","category_name":"餐饮美食","address":"上海市卢湾区兴业路123弄6-7号楼新天地南里商场3楼"},{"poiid":"B2094654DB65A4FA409D","title":"上海新天地","lon":"121.47503","lat":"31.21888","category":"119","category_name":"商场","address":"上海卢湾区太仓路181弄,兴业路123弄(近马当路)"},{"poiid":"B2094757D06EAAFE469A","title":"七叶和茶 新天地店","lon":"121.474699","lat":"31.218808","category":"95","category_name":"日本料理","address":"卢湾区马当路185号(自忠路口)"},{"poiid":"B2094757D06EAAFA4493","title":"UME国际影城（新天地店）","lon":"121.475131983","lat":"31.2193528916","category":"178","category_name":"电影院","address":"上海卢湾区兴业路123弄新天地南里6号5楼(近马当路)"},{"poiid":"B2094753D76FAAFA449C","title":"上海滩国泰旗舰店","lon":"121.466011","lat":"31.216125","category":"249","category_name":"购物服务","address":"淮海中路868号"},{"poiid":"B209475CD564A7F84292","title":"上海滩新天地店","lon":"121.47463","lat":"31.22164","category":"119","category_name":"商场","address":"\"太仓路181弄新天地北里15号\r\n\""},{"poiid":"B209475CD564A7F8439E","title":"上海滩中信泰富店","lon":"121.45602","lat":"31.22851","category":"119","category_name":"商场","address":"\"南京西路1168号中信泰富广场，店铺号221.\r\n\""},{"poiid":"B2094757D06EAAF8489C","title":"鼎泰丰(新天地店)","lon":"121.474870817","lat":"31.2190067707","category":"68","category_name":"快餐厅","address":"卢湾区兴业路123弄新天地广场南里6号楼2楼11A单元(近马当路)"},{"poiid":"B2094757D06FA2FD4198","title":"godiva café","lon":"121.47528839","lat":"31.21899414","category":"260","category_name":"其他","address":"卢湾区自忠路338号新天地南里5号106号Godiva2楼(近马当路)"},{"poiid":"B2094757D06EABF54693","title":"STAYREAL(新天地店)","lon":"121.4748631","lat":"31.2170296","category":"141","category_name":"服装鞋帽皮具店","address":"上海市马当路245号新天地时尚B101-B102"},{"poiid":"B2094654DB6BA4FA409B","title":"翡翠酒家(新天地店)","lon":"121.47504","lat":"31.21888","category":"72","category_name":"广东菜","address":"卢湾区兴业路123弄新天地南里6-7号2楼(近马当路)"},{"poiid":"B2094757D06FA1FE4598","title":"小南国(新天地店)","lon":"121.47489","lat":"31.21927","category":"76","category_name":"上海菜","address":"卢湾区兴业路123弄新天地南里商场2楼(近马当路)"},{"poiid":"B2094757D06EAAF44293","title":"瑞金医院(卢湾分院)","lon":"121.472367079","lat":"31.2182978875","category":"162","category_name":"医院","address":"卢湾区重庆南路149号(近南昌路)"},{"poiid":"B2094757D56DA2F5469A","title":"新天地G 酒吧","lon":"121.474958738","lat":"31.2194850711","category":"172","category_name":"酒吧","address":"上海新天地"},{"poiid":"B2094750D66EA5FF4192","title":"新天地。猫的天空之城","lon":"121.474761","lat":"31.218126","category":"247","category_name":"餐饮美食","address":null},{"poiid":"B2094751D265A1FB459E","title":"萌果酱女仆咖啡屋 Maid Jump","lon":"121.47213","lat":"31.21763","category":"247","category_name":"餐饮美食","address":"卢湾区自忠路453号甲(近淡水路)"},{"poiid":"B2094757D16FA6F44399","title":"新天地PAULANER","lon":"121.473980542","lat":"31.2169820769","category":"500","category_name":"未知分类","address":"上海新天地"},{"poiid":"B2094757D06FAAF54292","title":"新天地时尚中庭","lon":"121.474863","lat":"31.21703","category":"119","category_name":"商场","address":"上海卢湾区马当路245号"},{"poiid":"B2094757D068A2F84192","title":"丰和日丽","lon":"121.474841738","lat":"31.2194980714","category":"76","category_name":"上海菜","address":"卢湾区自忠路338号新天地南里6号3楼(近马当路)"},{"poiid":"B2094654DB64AAF44398","title":"锅德港式极品肥牛海鲜火锅 新天地店 Good  Hotpot","lon":"121.47531915384","lat":"31.218654115544","category":"86","category_name":"火锅店","address":"卢湾区自忠路338号新天地南里1楼(近黄陂南路)"},{"poiid":"B2094757D06EAAF9439C","title":"Afternoon Tea 新天地店","lon":"121.475007054","lat":"31.219595793","category":"94","category_name":"西餐厅","address":"卢湾区兴业路123弄6-7号楼新天地南里商场3楼(近马当路)"},{"poiid":"B2094750DA6AA6FE499B","title":"STAGE-上海新天地","lon":"121.475151","lat":"31.217338","category":"249","category_name":"购物服务","address":null},{"poiid":"B2094757D468A0FB499C","title":"香啡缤 新天地时尚店","lon":"121.474843","lat":"31.2171292","category":"260","category_name":"其他","address":"卢湾区马当路245号新天地时尚购物广场B129a室(近复兴中路)"},{"poiid":"B2094757D069A0F84393","title":"新天地Fame KTV","lon":"121.47507559","lat":"31.219313547","category":"170","category_name":"KTV","address":"上海卢湾区马当路123号（近兴业路）"},{"poiid":"B2094757D068A2F9409D","title":"Lavazza Espression(新天地店)","lon":"121.47317673","lat":"31.216841014","category":"260","category_name":"其他","address":"卢湾区马当路245号新天地时尚商场1楼"},{"poiid":"B2094757D06AA0FD4092","title":"Urban Soup Kitchen","lon":"121.47502","lat":"31.21742","category":"94","category_name":"西餐厅","address":"卢湾区马当路280号(近自忠路)"},{"poiid":"B2094757DB6FA7F8499B","title":"Mix drink","lon":"121.47339","lat":"31.21652","category":"113","category_name":"冷饮店","address":"卢湾区淡水路238号(近自忠路)"},{"poiid":"B2094757D06FA7F5409A","title":"全洲超市","lon":"121.474375658","lat":"31.2190575772","category":"118","category_name":"超级市场","address":"卢湾区马当路222弄1-6号B1楼(近自忠路)"},{"poiid":"B2094750D565A6FF4993","title":"多謝賞面","lon":"121.47396","lat":"31.219984","category":"247","category_name":"餐饮美食","address":"卢湾区兴业路156弄1号A11号铺(近马当路)"},{"poiid":"B2094757D069A0F54699","title":"Yogo Juice(新天地店)","lon":"121.47470973","lat":"31.217293024","category":"113","category_name":"冷饮店","address":"卢湾区马当路245号新天地时尚购物广场B128室(近复兴中路)"},{"poiid":"B2094655D26EA1FA409E","title":"蒂梵尼造型设计(新天地店)","lon":"121.47405","lat":"31.21983","category":"148","category_name":"美容美发店","address":"卢湾区马当路245号新天地时尚B204-B205单元(近复兴中路)"},{"poiid":"B2094757D16FA4FC4993","title":"Berry bear 贝瑞熊酸奶冰激淋","lon":"121.475104738","lat":"31.219336068","category":"113","category_name":"冷饮店","address":"上海市浦东新区芳甸路1155号嘉里城B层"},{"poiid":"B2094757D068A7F8489D","title":"全州广场日本超市","lon":"121.47435","lat":"31.21843","category":"118","category_name":"超级市场","address":"上海卢湾区马当路222弄1-6号全州广场B1楼(近自忠路)"},{"poiid":"B2094757D069A4FC499B","title":"真的好海鲜餐厅(新天地店)","lon":"121.47488","lat":"31.21967","category":"260","category_name":"其他","address":"卢湾区兴业路123弄新天地广场南里1号楼(近马当路)"},{"poiid":"B2094655D26EA5FD4098","title":"STELLA LUNA(新天地店)","lon":"121.47482","lat":"31.21864","category":"247","category_name":"餐饮美食","address":"卢湾区兴业路123弄6号楼2楼19单元"},{"poiid":"B2094752D165A0FC4099","title":"猫的天空之城新天地店","lon":"121.474701","lat":"31.218201","category":"248","category_name":"生活娱乐","address":"上海黄浦区马当路245号上海新天地时尚B112"},{"poiid":"B209475CD26FA5F8489B","title":"一人前寿司专门店","lon":"121.474746","lat":"31.217882","category":"500","category_name":"未知分类","address":"上海市 马当路245号新天地时尚地下一层129室"},{"poiid":"B2094752DB6CA5FA469D","title":"思南公館","lon":"121.473636","lat":"31.21627","category":"500","category_name":"未知分类","address":"上海市 上海市思南路"},{"poiid":"B2094752DA64AAFD4093","title":"壹品饼家","lon":"121.474797","lat":"31.218069","category":"247","category_name":"餐饮美食","address":"上海市 上海市新天地时尚"},{"poiid":"B2094757D06EAAF54592","title":"汇佳量贩桌游咖啡馆(百米香榭店)","lon":"121.47484173","lat":"31.219498071","category":"175","category_name":"棋牌室","address":"上海黄浦区广西北路250号百米香榭步行街"},{"poiid":"B2094757D16FA4FB479A","title":"新西兰中心","lon":"121.47402443","lat":"31.219481371","category":"182","category_name":"博物馆","address":"上海卢湾区马当路190号"},{"poiid":"B2094757D069A7FA409D","title":"Parkway Health(淡水路门诊部)","lon":"121.47327","lat":"31.21829","category":"162","category_name":"医院","address":"上海卢湾区淡水路170号2-3楼(近兴业路)"},{"poiid":"B2094757D66BA1FC4492","title":"钲酒廊 NU Lounge","lon":"121.474427","lat":"31.219754","category":"94","category_name":"西餐厅","address":"卢湾区兴业路118号2楼(近马当路)"},{"poiid":"B2094757D06FA5FE489F","title":"酷圣石(兴业路店)","lon":"121.47389841","lat":"31.219784209","category":"113","category_name":"冷饮店","address":"卢湾区自忠路338号新天地南里5号楼7单元(近马当路)"},{"poiid":"B2094757D06AA2FB4993","title":"Zen Cafe(新天地店)","lon":"121.47442448","lat":"31.219842237","category":"65","category_name":"咖啡厅","address":"上海卢湾区兴业路118号2楼(近马当路)"},{"poiid":"B2094757D06FA7FA469B","title":"BAPE Store","lon":"121.4750568","lat":"31.2187127","category":"141","category_name":"服装鞋帽皮具店","address":"上海卢湾区马当路245号新天地时尚购物广场7号楼1-2楼(近复兴中路)"},{"poiid":"B2094757D064A6FD4593","title":"好地方精烧扒轩 新天地店 Moon's Steakhouse","lon":"121.47446920145","lat":"31.222526668897","category":"94","category_name":"西餐厅","address":"兴业路123弄新天地广场1楼2室近马当路"},{"poiid":"B2094757D069A7F4469F","title":"新天地人工湖","lon":"121.47291015","lat":"31.217486148","category":"500","category_name":"未知分类","address":"上海新天地"},{"poiid":"B2094757D068ABFF4598","title":"大韩民国临时政府旧址","lon":"121.47505","lat":"31.21707","category":"260","category_name":"其他","address":"卢湾区马当路302-304号(马当路自忠路)"},{"poiid":"B2094757D06BA1F8419D","title":"The Five Tables Bistro","lon":"121.47461813","lat":"31.217152521","category":"94","category_name":"西餐厅","address":"卢湾区淡水路210号(近自忠路)"},{"poiid":"B2094654DB6AA3F54492","title":"新天地AfternoonTea","lon":"121.47482","lat":"31.21864","category":"247","category_name":"餐饮美食","address":"上海市卢湾区兴业路123弄6-7号楼新天地南里商场3楼"}]