[{"poiid":"B2094757D06FA2F4439C","title":"上海市出入境管理局徐汇分局","lon":"121.428715562","lat":"31.1973608269","category":"252","category_name":"楼宇机构","address":"上海番禺路865号"},{"poiid":"B2094757D069AAFC4893","title":"老刘野生大鱼坊(番禺路店)","lon":"121.42839","lat":"31.19603","category":"82","category_name":"东北菜","address":"徐汇区番禺路888号2楼(近虹桥路)"},{"poiid":"B2094757D06FA2FD469A","title":"乐山新村","lon":"121.43004623","lat":"31.195086057","category":"47","category_name":"住宅区","address":"上海秀山路乐山新村"},{"poiid":"B2094757D068AAFA4692","title":"东方射击射箭馆","lon":"121.42682","lat":"31.19442","category":"220","category_name":"运动场所","address":"上海虹桥路663号(近番禺绿地)  "},{"poiid":"B2094757D06FA1F4479C","title":"上海数娱大厦","lon":"121.42780037","lat":"31.193787149","category":"46","category_name":"楼宇","address":"上海番禺路1028号"},{"poiid":"B2094655D26EAAFD449C","title":"上海市昂立学院(番禺路)","lon":"121.42809","lat":"31.19708","category":"52","category_name":"高等院校","address":"徐汇区番禺路868"},{"poiid":"B2094757D06FAAFB4498","title":"上海新东方学校(番禺路校区)","lon":"121.42843","lat":"31.19542","category":"253","category_name":"校园生活","address":"徐汇区番禺路900号1楼(近虹桥路)"},{"poiid":"B2094757D06FA4F54693","title":"东北四季饺子王(番禺路店)","lon":"121.428130321","lat":"31.1959206491","category":"82","category_name":"东北菜","address":"徐汇区番禺路888号(近秀山路)"},{"poiid":"B2094757D06FA1F8409E","title":"亚力山大会馆(虹桥路店)","lon":"121.42813","lat":"31.19334","category":"221","category_name":"健身中心","address":"徐汇区虹桥路600号(近番禺路)"},{"poiid":"B2094757D068A6F5479B","title":"とりくら","lon":"121.42876633","lat":"31.197705595","category":"95","category_name":"日本料理","address":"徐汇区番禺路828号(近交通大学)"},{"poiid":"B2094750DB6BA2FB4999","title":"星巴克新淮海坊","lon":"121.427413","lat":"31.19465","category":"500","category_name":"未知分类","address":null},{"poiid":"B2094655D26EA6FF439D","title":"汉庭快捷酒店(上海交大店)","lon":"121.42843","lat":"31.19504","category":"216","category_name":"经济型连锁酒店","address":"徐汇区番禺路955号(近虹桥路)"},{"poiid":"B2094757D06BA5FA4599","title":"港汇广场stella luna","lon":"121.42873382","lat":"31.197780609","category":"500","category_name":"未知分类","address":"上海华山路"},{"poiid":"B2094757D06FA6FB459C","title":"7-ELEVEN(新番禺店)","lon":"121.428344727","lat":"31.1967391968","category":"117","category_name":"便民商店/便利店","address":"徐汇区番禺路878号(番禺路秀山路)"},{"poiid":"B2094757D068A5F94399","title":"红辣椒湘菜馆(番禺店)","lon":"121.4292","lat":"31.19863","category":"77","category_name":"湖南菜","address":"徐汇区番禺路754号(近淮海西路)"},{"poiid":"B2094750D568A3F5419B","title":"肯德基(番禺路店)","lon":"121.428","lat":"31.1976","category":"68","category_name":"快餐厅","address":"徐汇区番禺路868号(近虹桥路)"},{"poiid":"B2094757D069A4F9409A","title":"大众大厦","lon":"121.43","lat":"31.1934","category":"46","category_name":"楼宇","address":"徐汇区中山西路1515号(近徐虹中路)"},{"poiid":"B2094757D06FA7FC4992","title":"昂立进修学院(番禺路分校)","lon":"121.42851","lat":"31.19654","category":"260","category_name":"其他","address":"上海徐汇区番禺路868号(近交通大学)"},{"poiid":"B2094757DA6AA5F5489B","title":"Element fresh","lon":"121.4299939867743","lat":"31.19539928272323","category":"500","category_name":"未知分类","address":"港汇广场"},{"poiid":"B2094654DA6DA3F9429C","title":"爱情公寓","lon":"121.42775","lat":"31.19459","category":"263","category_name":"公司","address":"番禺路1028号上海数娱大厦1108"},{"poiid":"B2094750DB6CABF4429B","title":"港汇广场 永乐电影院","lon":"121.4322351732257","lat":"31.19701766388474","category":"248","category_name":"生活娱乐","address":null},{"poiid":"B2094655D268A3FC409D","title":"锦江之星旅馆徐家汇交大店","lon":"121.43218","lat":"31.19465","category":"216","category_name":"经济型连锁酒店","address":"上海市徐汇区广元西路319号（近华山路）"},{"poiid":"B2094757D068A1F44599","title":"番禺绿地","lon":"121.42766","lat":"31.19429","category":"196","category_name":"公园","address":"徐汇区虹桥路637号(番禺路口)"},{"poiid":"B2094757D065A4F8429F","title":"成妈功夫面馆","lon":"121.428373414","lat":"31.1966294045","category":"68","category_name":"快餐厅","address":"徐汇区番禺路784号(近乐山路)"},{"poiid":"B2094655D264A0F44393","title":"上海交大慧谷信息园","lon":"121.42867","lat":"31.19554","category":"45","category_name":"产业园区","address":"番禺路951-3临"},{"poiid":"B2094757D06AA0FE4099","title":"东骏海鲜大酒楼","lon":"121.42922973","lat":"31.196931839","category":"247","category_name":"餐饮美食","address":"上海淮海西路518号"},{"poiid":"B2094654DB65A1FE409C","title":"乐山六七村","lon":"121.43008","lat":"31.19564","category":"47","category_name":"住宅区","address":"徐家汇"},{"poiid":"B2094757D165A4F5429E","title":"熔盛重工","lon":"121.428665161","lat":"31.1958370209","category":"46","category_name":"楼宇","address":"上海虹桥路882号"},{"poiid":"B2094757D468A3FD489E","title":"紫都雅宴","lon":"121.428357","lat":"31.196826","category":"91","category_name":"台湾菜","address":"徐汇区番禺路878号(近虹桥路)"},{"poiid":"B2094757D465A4FC4793","title":"四海游龙 番禺路店 OVERSEAS DRAGON","lon":"121.427827054","lat":"31.193939793","category":"68","category_name":"快餐厅","address":"徐汇区番禺路955号(近虹桥路)"},{"poiid":"B2094655D36CA6F9459B","title":"番禺路虹桥路","lon":"121.42824","lat":"31.19506","category":"38","category_name":"公交车站","address":""},{"poiid":"B209475CD16EABFB4492","title":"IAPM","lon":"121.429931","lat":"31.196283","category":"500","category_name":"未知分类","address":"上海市 淮海中路999号"},{"poiid":"B2094654DA6DA3FB4399","title":"上海市徐汇区虹桥路小学","lon":"121.4289","lat":"31.19634","category":"56","category_name":"小学","address":"番禺路901"},{"poiid":"B2094757D068ABFB479E","title":"金杆桌球(番禺路店)","lon":"121.42856","lat":"31.19589","category":"171","category_name":"台球厅","address":"徐汇区番禺路888号(近虹桥路)"},{"poiid":"B2094757D06FABF8479E","title":"博望坡餐厅 虹桥路店","lon":"121.434364054","lat":"31.193106793","category":"260","category_name":"其他","address":"徐汇区虹桥路199号弘基休闲广场内(近恭城路)"},{"poiid":"B2094654DA6DA3FB4398","title":"上海交通大学出版社","lon":"121.42855","lat":"31.19567","category":"63","category_name":"出版社","address":"番禺路951号"},{"poiid":"B2094757D465A4F8449F","title":"赤阪拉面","lon":"121.428357","lat":"31.196826","category":"247","category_name":"餐饮美食","address":"番禺路878号近虹桥路"},{"poiid":"B2094654DA6DA3FF4098","title":"乐山八、九村小区","lon":"121.4295","lat":"31.19472","category":"47","category_name":"住宅区","address":"秀山路15弄1-12号"},{"poiid":"B2094757D06AA5FC419A","title":"阿迪达斯(上海南站店)","lon":"121.429601353","lat":"31.1951906126","category":"140","category_name":"体育用品店","address":"徐汇区石龙路750-3号银泰购物中心南广场B1楼(近上海南站)  "},{"poiid":"B2094655D26EA1FA4899","title":"乐山二村","lon":"121.431","lat":"31.197004","category":"47","category_name":"住宅区","address":"乐山支路4弄1-13号,8弄1-32号"},{"poiid":"B2094654DA6DA3FA409B","title":"八五八商务楼","lon":"121.42844","lat":"31.1974","category":"46","category_name":"楼宇","address":"沈河北中街123号"},{"poiid":"B2094751D464A2F4449D","title":"加州寿司","lon":"121.428213","lat":"31.195103","category":"95","category_name":"日本料理","address":"徐汇区番禺路1000号(近虹桥路)"},{"poiid":"B2094757D16EA6F5499D","title":"JOYCE WAREHOUSE","lon":"121.4286499","lat":"31.196163177","category":"500","category_name":"未知分类","address":"上海淮海西路紅坊"},{"poiid":"B2094655D265A4FE429B","title":"徐汇公安分局出入境接待大厅","lon":"121.42872","lat":"31.19722","category":"248","category_name":"生活娱乐","address":"番禺路865"},{"poiid":"B2094757D06BA1F54398","title":"喜凤•海南鸡饭","lon":"121.42821358","lat":"31.195200746","category":"247","category_name":"餐饮美食","address":"上海番愚路"},{"poiid":"B2094654DA6DA3FE4892","title":"乐山二村(南门)","lon":"121.43087","lat":"31.19624","category":"47","category_name":"住宅区","address":"乐山支路4弄1-13号、8弄1-32号"},{"poiid":"B2094757D064ABF5489C","title":"家里的床上","lon":"121.430812","lat":"31.194282","category":"253","category_name":"校园生活","address":"上海徐汇区乐山路"},{"poiid":"B2094655D26EAAFC429C","title":"农工商超市番禺店","lon":"121.42807","lat":"31.19659","category":"117","category_name":"便民商店/便利店","address":"番禺路882号"},{"poiid":"B2094655D268A3F4459B","title":"番禺大楼(东门)","lon":"121.42814","lat":"31.19559","category":"47","category_name":"住宅区","address":"番禺路900"},{"poiid":"B2094751D56BABFE449A","title":"上海城开国际大厦","lon":"121.431048","lat":"31.193613","category":"46","category_name":"楼宇","address":"上海市 虹桥路355号906室"},{"poiid":"B2094757D06FA2F4439C","title":"上海市出入境管理局徐汇分局","lon":"121.428715562","lat":"31.1973608269","category":"252","category_name":"楼宇机构","address":"上海番禺路865号"},{"poiid":"B2094757D069AAFC4893","title":"老刘野生大鱼坊(番禺路店)","lon":"121.42839","lat":"31.19603","category":"82","category_name":"东北菜","address":"徐汇区番禺路888号2楼(近虹桥路)"},{"poiid":"B2094757D06FA2FD469A","title":"乐山新村","lon":"121.43004623","lat":"31.195086057","category":"47","category_name":"住宅区","address":"上海秀山路乐山新村"},{"poiid":"B2094757D068AAFA4692","title":"东方射击射箭馆","lon":"121.42682","lat":"31.19442","category":"220","category_name":"运动场所","address":"上海虹桥路663号(近番禺绿地)  "},{"poiid":"B2094757D06FA1F4479C","title":"上海数娱大厦","lon":"121.42780037","lat":"31.193787149","category":"46","category_name":"楼宇","address":"上海番禺路1028号"},{"poiid":"B2094655D26EAAFD449C","title":"上海市昂立学院(番禺路)","lon":"121.42809","lat":"31.19708","category":"52","category_name":"高等院校","address":"徐汇区番禺路868"},{"poiid":"B2094757D06FAAFB4498","title":"上海新东方学校(番禺路校区)","lon":"121.42843","lat":"31.19542","category":"253","category_name":"校园生活","address":"徐汇区番禺路900号1楼(近虹桥路)"},{"poiid":"B2094757D06FA4F54693","title":"东北四季饺子王(番禺路店)","lon":"121.428130321","lat":"31.1959206491","category":"82","category_name":"东北菜","address":"徐汇区番禺路888号(近秀山路)"},{"poiid":"B2094757D06FA1F8409E","title":"亚力山大会馆(虹桥路店)","lon":"121.42813","lat":"31.19334","category":"221","category_name":"健身中心","address":"徐汇区虹桥路600号(近番禺路)"},{"poiid":"B2094757D068A6F5479B","title":"とりくら","lon":"121.42876633","lat":"31.197705595","category":"95","category_name":"日本料理","address":"徐汇区番禺路828号(近交通大学)"},{"poiid":"B2094750DB6BA2FB4999","title":"星巴克新淮海坊","lon":"121.427413","lat":"31.19465","category":"500","category_name":"未知分类","address":null},{"poiid":"B2094655D26EA6FF439D","title":"汉庭快捷酒店(上海交大店)","lon":"121.42843","lat":"31.19504","category":"216","category_name":"经济型连锁酒店","address":"徐汇区番禺路955号(近虹桥路)"},{"poiid":"B2094757D06BA5FA4599","title":"港汇广场stella luna","lon":"121.42873382","lat":"31.197780609","category":"500","category_name":"未知分类","address":"上海华山路"},{"poiid":"B2094757D06FA6FB459C","title":"7-ELEVEN(新番禺店)","lon":"121.428344727","lat":"31.1967391968","category":"117","category_name":"便民商店/便利店","address":"徐汇区番禺路878号(番禺路秀山路)"},{"poiid":"B2094757D068A5F94399","title":"红辣椒湘菜馆(番禺店)","lon":"121.4292","lat":"31.19863","category":"77","category_name":"湖南菜","address":"徐汇区番禺路754号(近淮海西路)"},{"poiid":"B2094750D568A3F5419B","title":"肯德基(番禺路店)","lon":"121.428","lat":"31.1976","category":"68","category_name":"快餐厅","address":"徐汇区番禺路868号(近虹桥路)"},{"poiid":"B2094757D069A4F9409A","title":"大众大厦","lon":"121.43","lat":"31.1934","category":"46","category_name":"楼宇","address":"徐汇区中山西路1515号(近徐虹中路)"},{"poiid":"B2094757D06FA7FC4992","title":"昂立进修学院(番禺路分校)","lon":"121.42851","lat":"31.19654","category":"260","category_name":"其他","address":"上海徐汇区番禺路868号(近交通大学)"},{"poiid":"B2094757DA6AA5F5489B","title":"Element fresh","lon":"121.4299939867743","lat":"31.19539928272323","category":"500","category_name":"未知分类","address":"港汇广场"},{"poiid":"B2094654DA6DA3F9429C","title":"爱情公寓","lon":"121.42775","lat":"31.19459","category":"263","category_name":"公司","address":"番禺路1028号上海数娱大厦1108"},{"poiid":"B2094750DB6CABF4429B","title":"港汇广场 永乐电影院","lon":"121.4322351732257","lat":"31.19701766388474","category":"248","category_name":"生活娱乐","address":null},{"poiid":"B2094655D268A3FC409D","title":"锦江之星旅馆徐家汇交大店","lon":"121.43218","lat":"31.19465","category":"216","category_name":"经济型连锁酒店","address":"上海市徐汇区广元西路319号（近华山路）"},{"poiid":"B2094757D068A1F44599","title":"番禺绿地","lon":"121.42766","lat":"31.19429","category":"196","category_name":"公园","address":"徐汇区虹桥路637号(番禺路口)"},{"poiid":"B2094757D065A4F8429F","title":"成妈功夫面馆","lon":"121.428373414","lat":"31.1966294045","category":"68","category_name":"快餐厅","address":"徐汇区番禺路784号(近乐山路)"},{"poiid":"B2094655D264A0F44393","title":"上海交大慧谷信息园","lon":"121.42867","lat":"31.19554","category":"45","category_name":"产业园区","address":"番禺路951-3临"},{"poiid":"B2094757D06AA0FE4099","title":"东骏海鲜大酒楼","lon":"121.42922973","lat":"31.196931839","category":"247","category_name":"餐饮美食","address":"上海淮海西路518号"},{"poiid":"B2094654DB65A1FE409C","title":"乐山六七村","lon":"121.43008","lat":"31.19564","category":"47","category_name":"住宅区","address":"徐家汇"},{"poiid":"B2094757D165A4F5429E","title":"熔盛重工","lon":"121.428665161","lat":"31.1958370209","category":"46","category_name":"楼宇","address":"上海虹桥路882号"},{"poiid":"B2094757D468A3FD489E","title":"紫都雅宴","lon":"121.428357","lat":"31.196826","category":"91","category_name":"台湾菜","address":"徐汇区番禺路878号(近虹桥路)"},{"poiid":"B2094757D465A4FC4793","title":"四海游龙 番禺路店 OVERSEAS DRAGON","lon":"121.427827054","lat":"31.193939793","category":"68","category_name":"快餐厅","address":"徐汇区番禺路955号(近虹桥路)"},{"poiid":"B2094655D36CA6F9459B","title":"番禺路虹桥路","lon":"121.42824","lat":"31.19506","category":"38","category_name":"公交车站","address":""},{"poiid":"B209475CD16EABFB4492","title":"IAPM","lon":"121.429931","lat":"31.196283","category":"500","category_name":"未知分类","address":"上海市 淮海中路999号"},{"poiid":"B2094654DA6DA3FB4399","title":"上海市徐汇区虹桥路小学","lon":"121.4289","lat":"31.19634","category":"56","category_name":"小学","address":"番禺路901"},{"poiid":"B2094757D068ABFB479E","title":"金杆桌球(番禺路店)","lon":"121.42856","lat":"31.19589","category":"171","category_name":"台球厅","address":"徐汇区番禺路888号(近虹桥路)"},{"poiid":"B2094757D06FABF8479E","title":"博望坡餐厅 虹桥路店","lon":"121.434364054","lat":"31.193106793","category":"260","category_name":"其他","address":"徐汇区虹桥路199号弘基休闲广场内(近恭城路)"},{"poiid":"B2094654DA6DA3FB4398","title":"上海交通大学出版社","lon":"121.42855","lat":"31.19567","category":"63","category_name":"出版社","address":"番禺路951号"},{"poiid":"B2094757D465A4F8449F","title":"赤阪拉面","lon":"121.428357","lat":"31.196826","category":"247","category_name":"餐饮美食","address":"番禺路878号近虹桥路"},{"poiid":"B2094654DA6DA3FF4098","title":"乐山八、九村小区","lon":"121.4295","lat":"31.19472","category":"47","category_name":"住宅区","address":"秀山路15弄1-12号"},{"poiid":"B2094757D06AA5FC419A","title":"阿迪达斯(上海南站店)","lon":"121.429601353","lat":"31.1951906126","category":"140","category_name":"体育用品店","address":"徐汇区石龙路750-3号银泰购物中心南广场B1楼(近上海南站)  "},{"poiid":"B2094655D26EA1FA4899","title":"乐山二村","lon":"121.431","lat":"31.197004","category":"47","category_name":"住宅区","address":"乐山支路4弄1-13号,8弄1-32号"},{"poiid":"B2094654DA6DA3FA409B","title":"八五八商务楼","lon":"121.42844","lat":"31.1974","category":"46","category_name":"楼宇","address":"沈河北中街123号"},{"poiid":"B2094751D464A2F4449D","title":"加州寿司","lon":"121.428213","lat":"31.195103","category":"95","category_name":"日本料理","address":"徐汇区番禺路1000号(近虹桥路)"},{"poiid":"B2094757D16EA6F5499D","title":"JOYCE WAREHOUSE","lon":"121.4286499","lat":"31.196163177","category":"500","category_name":"未知分类","address":"上海淮海西路紅坊"},{"poiid":"B2094655D265A4FE429B","title":"徐汇公安分局出入境接待大厅","lon":"121.42872","lat":"31.19722","category":"248","category_name":"生活娱乐","address":"番禺路865"},{"poiid":"B2094757D06BA1F54398","title":"喜凤•海南鸡饭","lon":"121.42821358","lat":"31.195200746","category":"247","category_name":"餐饮美食","address":"上海番愚路"},{"poiid":"B2094654DA6DA3FE4892","title":"乐山二村(南门)","lon":"121.43087","lat":"31.19624","category":"47","category_name":"住宅区","address":"乐山支路4弄1-13号、8弄1-32号"},{"poiid":"B2094757D064ABF5489C","title":"家里的床上","lon":"121.430812","lat":"31.194282","category":"253","category_name":"校园生活","address":"上海徐汇区乐山路"},{"poiid":"B2094655D26EAAFC429C","title":"农工商超市番禺店","lon":"121.42807","lat":"31.19659","category":"117","category_name":"便民商店/便利店","address":"番禺路882号"},{"poiid":"B2094655D268A3F4459B","title":"番禺大楼(东门)","lon":"121.42814","lat":"31.19559","category":"47","category_name":"住宅区","address":"番禺路900"},{"poiid":"B2094751D56BABFE449A","title":"上海城开国际大厦","lon":"121.431048","lat":"31.193613","category":"46","category_name":"楼宇","address":"上海市 虹桥路355号906室"},{"poiid":"B2094757D06FA2F4439C","title":"上海市出入境管理局徐汇分局","lon":"121.428715562","lat":"31.1973608269","category":"252","category_name":"楼宇机构","address":"上海番禺路865号"},{"poiid":"B2094757D069AAFC4893","title":"老刘野生大鱼坊(番禺路店)","lon":"121.42839","lat":"31.19603","category":"82","category_name":"东北菜","address":"徐汇区番禺路888号2楼(近虹桥路)"},{"poiid":"B2094757D06FA2FD469A","title":"乐山新村","lon":"121.43004623","lat":"31.195086057","category":"47","category_name":"住宅区","address":"上海秀山路乐山新村"},{"poiid":"B2094757D068AAFA4692","title":"东方射击射箭馆","lon":"121.42682","lat":"31.19442","category":"220","category_name":"运动场所","address":"上海虹桥路663号(近番禺绿地)  "},{"poiid":"B2094757D06FA1F4479C","title":"上海数娱大厦","lon":"121.42780037","lat":"31.193787149","category":"46","category_name":"楼宇","address":"上海番禺路1028号"},{"poiid":"B2094655D26EAAFD449C","title":"上海市昂立学院(番禺路)","lon":"121.42809","lat":"31.19708","category":"52","category_name":"高等院校","address":"徐汇区番禺路868"},{"poiid":"B2094757D06FAAFB4498","title":"上海新东方学校(番禺路校区)","lon":"121.42843","lat":"31.19542","category":"253","category_name":"校园生活","address":"徐汇区番禺路900号1楼(近虹桥路)"},{"poiid":"B2094757D06FA4F54693","title":"东北四季饺子王(番禺路店)","lon":"121.428130321","lat":"31.1959206491","category":"82","category_name":"东北菜","address":"徐汇区番禺路888号(近秀山路)"},{"poiid":"B2094757D06FA1F8409E","title":"亚力山大会馆(虹桥路店)","lon":"121.42813","lat":"31.19334","category":"221","category_name":"健身中心","address":"徐汇区虹桥路600号(近番禺路)"},{"poiid":"B2094757D068A6F5479B","title":"とりくら","lon":"121.42876633","lat":"31.197705595","category":"95","category_name":"日本料理","address":"徐汇区番禺路828号(近交通大学)"},{"poiid":"B2094750DB6BA2FB4999","title":"星巴克新淮海坊","lon":"121.427413","lat":"31.19465","category":"500","category_name":"未知分类","address":null},{"poiid":"B2094655D26EA6FF439D","title":"汉庭快捷酒店(上海交大店)","lon":"121.42843","lat":"31.19504","category":"216","category_name":"经济型连锁酒店","address":"徐汇区番禺路955号(近虹桥路)"},{"poiid":"B2094757D06BA5FA4599","title":"港汇广场stella luna","lon":"121.42873382","lat":"31.197780609","category":"500","category_name":"未知分类","address":"上海华山路"},{"poiid":"B2094757D06FA6FB459C","title":"7-ELEVEN(新番禺店)","lon":"121.428344727","lat":"31.1967391968","category":"117","category_name":"便民商店/便利店","address":"徐汇区番禺路878号(番禺路秀山路)"},{"poiid":"B2094757D068A5F94399","title":"红辣椒湘菜馆(番禺店)","lon":"121.4292","lat":"31.19863","category":"77","category_name":"湖南菜","address":"徐汇区番禺路754号(近淮海西路)"},{"poiid":"B2094750D568A3F5419B","title":"肯德基(番禺路店)","lon":"121.428","lat":"31.1976","category":"68","category_name":"快餐厅","address":"徐汇区番禺路868号(近虹桥路)"},{"poiid":"B2094757D069A4F9409A","title":"大众大厦","lon":"121.43","lat":"31.1934","category":"46","category_name":"楼宇","address":"徐汇区中山西路1515号(近徐虹中路)"},{"poiid":"B2094757D06FA7FC4992","title":"昂立进修学院(番禺路分校)","lon":"121.42851","lat":"31.19654","category":"260","category_name":"其他","address":"上海徐汇区番禺路868号(近交通大学)"},{"poiid":"B2094757DA6AA5F5489B","title":"Element fresh","lon":"121.4299939867743","lat":"31.19539928272323","category":"500","category_name":"未知分类","address":"港汇广场"},{"poiid":"B2094654DA6DA3F9429C","title":"爱情公寓","lon":"121.42775","lat":"31.19459","category":"263","category_name":"公司","address":"番禺路1028号上海数娱大厦1108"},{"poiid":"B2094750DB6CABF4429B","title":"港汇广场 永乐电影院","lon":"121.4322351732257","lat":"31.19701766388474","category":"248","category_name":"生活娱乐","address":null},{"poiid":"B2094655D268A3FC409D","title":"锦江之星旅馆徐家汇交大店","lon":"121.43218","lat":"31.19465","category":"216","category_name":"经济型连锁酒店","address":"上海市徐汇区广元西路319号（近华山路）"},{"poiid":"B2094757D068A1F44599","title":"番禺绿地","lon":"121.42766","lat":"31.19429","category":"196","category_name":"公园","address":"徐汇区虹桥路637号(番禺路口)"},{"poiid":"B2094757D065A4F8429F","title":"成妈功夫面馆","lon":"121.428373414","lat":"31.1966294045","category":"68","category_name":"快餐厅","address":"徐汇区番禺路784号(近乐山路)"},{"poiid":"B2094655D264A0F44393","title":"上海交大慧谷信息园","lon":"121.42867","lat":"31.19554","category":"45","category_name":"产业园区","address":"番禺路951-3临"},{"poiid":"B2094757D06AA0FE4099","title":"东骏海鲜大酒楼","lon":"121.42922973","lat":"31.196931839","category":"247","category_name":"餐饮美食","address":"上海淮海西路518号"},{"poiid":"B2094654DB65A1FE409C","title":"乐山六七村","lon":"121.43008","lat":"31.19564","category":"47","category_name":"住宅区","address":"徐家汇"},{"poiid":"B2094757D165A4F5429E","title":"熔盛重工","lon":"121.428665161","lat":"31.1958370209","category":"46","category_name":"楼宇","address":"上海虹桥路882号"},{"poiid":"B2094757D468A3FD489E","title":"紫都雅宴","lon":"121.428357","lat":"31.196826","category":"91","category_name":"台湾菜","address":"徐汇区番禺路878号(近虹桥路)"},{"poiid":"B2094757D465A4FC4793","title":"四海游龙 番禺路店 OVERSEAS DRAGON","lon":"121.427827054","lat":"31.193939793","category":"68","category_name":"快餐厅","address":"徐汇区番禺路955号(近虹桥路)"},{"poiid":"B2094655D36CA6F9459B","title":"番禺路虹桥路","lon":"121.42824","lat":"31.19506","category":"38","category_name":"公交车站","address":""},{"poiid":"B209475CD16EABFB4492","title":"IAPM","lon":"121.429931","lat":"31.196283","category":"500","category_name":"未知分类","address":"上海市 淮海中路999号"},{"poiid":"B2094654DA6DA3FB4399","title":"上海市徐汇区虹桥路小学","lon":"121.4289","lat":"31.19634","category":"56","category_name":"小学","address":"番禺路901"},{"poiid":"B2094757D068ABFB479E","title":"金杆桌球(番禺路店)","lon":"121.42856","lat":"31.19589","category":"171","category_name":"台球厅","address":"徐汇区番禺路888号(近虹桥路)"},{"poiid":"B2094757D06FABF8479E","title":"博望坡餐厅 虹桥路店","lon":"121.434364054","lat":"31.193106793","category":"260","category_name":"其他","address":"徐汇区虹桥路199号弘基休闲广场内(近恭城路)"},{"poiid":"B2094654DA6DA3FB4398","title":"上海交通大学出版社","lon":"121.42855","lat":"31.19567","category":"63","category_name":"出版社","address":"番禺路951号"},{"poiid":"B2094757D465A4F8449F","title":"赤阪拉面","lon":"121.428357","lat":"31.196826","category":"247","category_name":"餐饮美食","address":"番禺路878号近虹桥路"},{"poiid":"B2094654DA6DA3FF4098","title":"乐山八、九村小区","lon":"121.4295","lat":"31.19472","category":"47","category_name":"住宅区","address":"秀山路15弄1-12号"},{"poiid":"B2094757D06AA5FC419A","title":"阿迪达斯(上海南站店)","lon":"121.429601353","lat":"31.1951906126","category":"140","category_name":"体育用品店","address":"徐汇区石龙路750-3号银泰购物中心南广场B1楼(近上海南站)  "},{"poiid":"B2094655D26EA1FA4899","title":"乐山二村","lon":"121.431","lat":"31.197004","category":"47","category_name":"住宅区","address":"乐山支路4弄1-13号,8弄1-32号"},{"poiid":"B2094654DA6DA3FA409B","title":"八五八商务楼","lon":"121.42844","lat":"31.1974","category":"46","category_name":"楼宇","address":"沈河北中街123号"},{"poiid":"B2094751D464A2F4449D","title":"加州寿司","lon":"121.428213","lat":"31.195103","category":"95","category_name":"日本料理","address":"徐汇区番禺路1000号(近虹桥路)"},{"poiid":"B2094757D16EA6F5499D","title":"JOYCE WAREHOUSE","lon":"121.4286499","lat":"31.196163177","category":"500","category_name":"未知分类","address":"上海淮海西路紅坊"},{"poiid":"B2094655D265A4FE429B","title":"徐汇公安分局出入境接待大厅","lon":"121.42872","lat":"31.19722","category":"248","category_name":"生活娱乐","address":"番禺路865"},{"poiid":"B2094757D06BA1F54398","title":"喜凤•海南鸡饭","lon":"121.42821358","lat":"31.195200746","category":"247","category_name":"餐饮美食","address":"上海番愚路"},{"poiid":"B2094654DA6DA3FE4892","title":"乐山二村(南门)","lon":"121.43087","lat":"31.19624","category":"47","category_name":"住宅区","address":"乐山支路4弄1-13号、8弄1-32号"},{"poiid":"B2094757D064ABF5489C","title":"家里的床上","lon":"121.430812","lat":"31.194282","category":"253","category_name":"校园生活","address":"上海徐汇区乐山路"},{"poiid":"B2094655D26EAAFC429C","title":"农工商超市番禺店","lon":"121.42807","lat":"31.19659","category":"117","category_name":"便民商店/便利店","address":"番禺路882号"},{"poiid":"B2094655D268A3F4459B","title":"番禺大楼(东门)","lon":"121.42814","lat":"31.19559","category":"47","category_name":"住宅区","address":"番禺路900"},{"poiid":"B2094751D56BABFE449A","title":"上海城开国际大厦","lon":"121.431048","lat":"31.193613","category":"46","category_name":"楼宇","address":"上海市 虹桥路355号906室"},{"poiid":"B2094757D06FA2F4439C","title":"上海市出入境管理局徐汇分局","lon":"121.428715562","lat":"31.1973608269","category":"252","category_name":"楼宇机构","address":"上海番禺路865号"},{"poiid":"B2094757D069AAFC4893","title":"老刘野生大鱼坊(番禺路店)","lon":"121.42839","lat":"31.19603","category":"82","category_name":"东北菜","address":"徐汇区番禺路888号2楼(近虹桥路)"},{"poiid":"B2094757D06FA2FD469A","title":"乐山新村","lon":"121.43004623","lat":"31.195086057","category":"47","category_name":"住宅区","address":"上海秀山路乐山新村"},{"poiid":"B2094757D068AAFA4692","title":"东方射击射箭馆","lon":"121.42682","lat":"31.19442","category":"220","category_name":"运动场所","address":"上海虹桥路663号(近番禺绿地)  "},{"poiid":"B2094757D06FA1F4479C","title":"上海数娱大厦","lon":"121.42780037","lat":"31.193787149","category":"46","category_name":"楼宇","address":"上海番禺路1028号"},{"poiid":"B2094655D26EAAFD449C","title":"上海市昂立学院(番禺路)","lon":"121.42809","lat":"31.19708","category":"52","category_name":"高等院校","address":"徐汇区番禺路868"},{"poiid":"B2094757D06FAAFB4498","title":"上海新东方学校(番禺路校区)","lon":"121.42843","lat":"31.19542","category":"253","category_name":"校园生活","address":"徐汇区番禺路900号1楼(近虹桥路)"},{"poiid":"B2094757D06FA4F54693","title":"东北四季饺子王(番禺路店)","lon":"121.428130321","lat":"31.1959206491","category":"82","category_name":"东北菜","address":"徐汇区番禺路888号(近秀山路)"},{"poiid":"B2094757D06FA1F8409E","title":"亚力山大会馆(虹桥路店)","lon":"121.42813","lat":"31.19334","category":"221","category_name":"健身中心","address":"徐汇区虹桥路600号(近番禺路)"},{"poiid":"B2094757D068A6F5479B","title":"とりくら","lon":"121.42876633","lat":"31.197705595","category":"95","category_name":"日本料理","address":"徐汇区番禺路828号(近交通大学)"},{"poiid":"B2094750DB6BA2FB4999","title":"星巴克新淮海坊","lon":"121.427413","lat":"31.19465","category":"500","category_name":"未知分类","address":null},{"poiid":"B2094655D26EA6FF439D","title":"汉庭快捷酒店(上海交大店)","lon":"121.42843","lat":"31.19504","category":"216","category_name":"经济型连锁酒店","address":"徐汇区番禺路955号(近虹桥路)"},{"poiid":"B2094757D06BA5FA4599","title":"港汇广场stella luna","lon":"121.42873382","lat":"31.197780609","category":"500","category_name":"未知分类","address":"上海华山路"},{"poiid":"B2094757D06FA6FB459C","title":"7-ELEVEN(新番禺店)","lon":"121.428344727","lat":"31.1967391968","category":"117","category_name":"便民商店/便利店","address":"徐汇区番禺路878号(番禺路秀山路)"},{"poiid":"B2094757D068A5F94399","title":"红辣椒湘菜馆(番禺店)","lon":"121.4292","lat":"31.19863","category":"77","category_name":"湖南菜","address":"徐汇区番禺路754号(近淮海西路)"},{"poiid":"B2094750D568A3F5419B","title":"肯德基(番禺路店)","lon":"121.428","lat":"31.1976","category":"68","category_name":"快餐厅","address":"徐汇区番禺路868号(近虹桥路)"},{"poiid":"B2094757D069A4F9409A","title":"大众大厦","lon":"121.43","lat":"31.1934","category":"46","category_name":"楼宇","address":"徐汇区中山西路1515号(近徐虹中路)"},{"poiid":"B2094757D06FA7FC4992","title":"昂立进修学院(番禺路分校)","lon":"121.42851","lat":"31.19654","category":"260","category_name":"其他","address":"上海徐汇区番禺路868号(近交通大学)"},{"poiid":"B2094757DA6AA5F5489B","title":"Element fresh","lon":"121.4299939867743","lat":"31.19539928272323","category":"500","category_name":"未知分类","address":"港汇广场"},{"poiid":"B2094654DA6DA3F9429C","title":"爱情公寓","lon":"121.42775","lat":"31.19459","category":"263","category_name":"公司","address":"番禺路1028号上海数娱大厦1108"},{"poiid":"B2094750DB6CABF4429B","title":"港汇广场 永乐电影院","lon":"121.4322351732257","lat":"31.19701766388474","category":"248","category_name":"生活娱乐","address":null},{"poiid":"B2094655D268A3FC409D","title":"锦江之星旅馆徐家汇交大店","lon":"121.43218","lat":"31.19465","category":"216","category_name":"经济型连锁酒店","address":"上海市徐汇区广元西路319号（近华山路）"},{"poiid":"B2094757D068A1F44599","title":"番禺绿地","lon":"121.42766","lat":"31.19429","category":"196","category_name":"公园","address":"徐汇区虹桥路637号(番禺路口)"},{"poiid":"B2094757D065A4F8429F","title":"成妈功夫面馆","lon":"121.428373414","lat":"31.1966294045","category":"68","category_name":"快餐厅","address":"徐汇区番禺路784号(近乐山路)"},{"poiid":"B2094655D264A0F44393","title":"上海交大慧谷信息园","lon":"121.42867","lat":"31.19554","category":"45","category_name":"产业园区","address":"番禺路951-3临"},{"poiid":"B2094757D06AA0FE4099","title":"东骏海鲜大酒楼","lon":"121.42922973","lat":"31.196931839","category":"247","category_name":"餐饮美食","address":"上海淮海西路518号"},{"poiid":"B2094654DB65A1FE409C","title":"乐山六七村","lon":"121.43008","lat":"31.19564","category":"47","category_name":"住宅区","address":"徐家汇"},{"poiid":"B2094757D165A4F5429E","title":"熔盛重工","lon":"121.428665161","lat":"31.1958370209","category":"46","category_name":"楼宇","address":"上海虹桥路882号"},{"poiid":"B2094757D468A3FD489E","title":"紫都雅宴","lon":"121.428357","lat":"31.196826","category":"91","category_name":"台湾菜","address":"徐汇区番禺路878号(近虹桥路)"},{"poiid":"B2094757D465A4FC4793","title":"四海游龙 番禺路店 OVERSEAS DRAGON","lon":"121.427827054","lat":"31.193939793","category":"68","category_name":"快餐厅","address":"徐汇区番禺路955号(近虹桥路)"},{"poiid":"B2094655D36CA6F9459B","title":"番禺路虹桥路","lon":"121.42824","lat":"31.19506","category":"38","category_name":"公交车站","address":""},{"poiid":"B209475CD16EABFB4492","title":"IAPM","lon":"121.429931","lat":"31.196283","category":"500","category_name":"未知分类","address":"上海市 淮海中路999号"},{"poiid":"B2094654DA6DA3FB4399","title":"上海市徐汇区虹桥路小学","lon":"121.4289","lat":"31.19634","category":"56","category_name":"小学","address":"番禺路901"},{"poiid":"B2094757D068ABFB479E","title":"金杆桌球(番禺路店)","lon":"121.42856","lat":"31.19589","category":"171","category_name":"台球厅","address":"徐汇区番禺路888号(近虹桥路)"},{"poiid":"B2094757D06FABF8479E","title":"博望坡餐厅 虹桥路店","lon":"121.434364054","lat":"31.193106793","category":"260","category_name":"其他","address":"徐汇区虹桥路199号弘基休闲广场内(近恭城路)"},{"poiid":"B2094654DA6DA3FB4398","title":"上海交通大学出版社","lon":"121.42855","lat":"31.19567","category":"63","category_name":"出版社","address":"番禺路951号"},{"poiid":"B2094757D465A4F8449F","title":"赤阪拉面","lon":"121.428357","lat":"31.196826","category":"247","category_name":"餐饮美食","address":"番禺路878号近虹桥路"},{"poiid":"B2094654DA6DA3FF4098","title":"乐山八、九村小区","lon":"121.4295","lat":"31.19472","category":"47","category_name":"住宅区","address":"秀山路15弄1-12号"},{"poiid":"B2094757D06AA5FC419A","title":"阿迪达斯(上海南站店)","lon":"121.429601353","lat":"31.1951906126","category":"140","category_name":"体育用品店","address":"徐汇区石龙路750-3号银泰购物中心南广场B1楼(近上海南站)  "},{"poiid":"B2094655D26EA1FA4899","title":"乐山二村","lon":"121.431","lat":"31.197004","category":"47","category_name":"住宅区","address":"乐山支路4弄1-13号,8弄1-32号"},{"poiid":"B2094654DA6DA3FA409B","title":"八五八商务楼","lon":"121.42844","lat":"31.1974","category":"46","category_name":"楼宇","address":"沈河北中街123号"},{"poiid":"B2094751D464A2F4449D","title":"加州寿司","lon":"121.428213","lat":"31.195103","category":"95","category_name":"日本料理","address":"徐汇区番禺路1000号(近虹桥路)"},{"poiid":"B2094757D16EA6F5499D","title":"JOYCE WAREHOUSE","lon":"121.4286499","lat":"31.196163177","category":"500","category_name":"未知分类","address":"上海淮海西路紅坊"},{"poiid":"B2094655D265A4FE429B","title":"徐汇公安分局出入境接待大厅","lon":"121.42872","lat":"31.19722","category":"248","category_name":"生活娱乐","address":"番禺路865"},{"poiid":"B2094757D06BA1F54398","title":"喜凤•海南鸡饭","lon":"121.42821358","lat":"31.195200746","category":"247","category_name":"餐饮美食","address":"上海番愚路"},{"poiid":"B2094654DA6DA3FE4892","title":"乐山二村(南门)","lon":"121.43087","lat":"31.19624","category":"47","category_name":"住宅区","address":"乐山支路4弄1-13号、8弄1-32号"},{"poiid":"B2094757D064ABF5489C","title":"家里的床上","lon":"121.430812","lat":"31.194282","category":"253","category_name":"校园生活","address":"上海徐汇区乐山路"},{"poiid":"B2094655D26EAAFC429C","title":"农工商超市番禺店","lon":"121.42807","lat":"31.19659","category":"117","category_name":"便民商店/便利店","address":"番禺路882号"},{"poiid":"B2094655D268A3F4459B","title":"番禺大楼(东门)","lon":"121.42814","lat":"31.19559","category":"47","category_name":"住宅区","address":"番禺路900"},{"poiid":"B2094751D56BABFE449A","title":"上海城开国际大厦","lon":"121.431048","lat":"31.193613","category":"46","category_name":"楼宇","address":"上海市 虹桥路355号906室"}]