[{"poiid":"B2094654DB65A4FA409D","title":"上海新天地","lon":"121.47503","lat":"31.21888","category":"119","category_name":"商场","address":"上海卢湾区太仓路181弄,兴业路123弄(近马当路)"},{"poiid":"B2094757D06EAAFE469A","title":"七叶和茶 新天地店","lon":"121.474699","lat":"31.218808","category":"95","category_name":"日本料理","address":"卢湾区马当路185号(自忠路口)"},{"poiid":"B2094654DB64A4F8429B","title":"小山日本料理","lon":"121.475007054","lat":"31.219595793","category":"95","category_name":"日本料理","address":"卢湾区自忠路338号新天地南里6号3楼(近马当路)"},{"poiid":"B2094753D76FAAFA449C","title":"上海滩国泰旗舰店","lon":"121.466011","lat":"31.216125","category":"249","category_name":"购物服务","address":"淮海中路868号"},{"poiid":"B209475CD564A7F84292","title":"上海滩新天地店","lon":"121.47463","lat":"31.22164","category":"119","category_name":"商场","address":"\"太仓路181弄新天地北里15号\r\n\""},{"poiid":"B209475CD564A7F8439E","title":"上海滩中信泰富店","lon":"121.45602","lat":"31.22851","category":"119","category_name":"商场","address":"\"南京西路1168号中信泰富广场，店铺号221.\r\n\""},{"poiid":"B2094757D06EAAFA4493","title":"UME国际影城（新天地店）","lon":"121.475131983","lat":"31.2193528916","category":"178","category_name":"电影院","address":"上海卢湾区兴业路123弄新天地南里6号5楼(近马当路)"},{"poiid":"B2094757D06AA1FE4599","title":"新天地","lon":"121.475463","lat":"31.21941","category":"260","category_name":"其他","address":"卢湾区太仓路181弄新天地北里内"},{"poiid":"B2094654DB64AAFE4393","title":"Pizza Marzano(新天地店)","lon":"121.47557","lat":"31.21932","category":"68","category_name":"快餐厅","address":"卢湾区黄陂南路380号(近兴业路)"},{"poiid":"B2094757D06EAAF8489C","title":"鼎泰丰(新天地店)","lon":"121.474870817","lat":"31.2190067707","category":"68","category_name":"快餐厅","address":"卢湾区兴业路123弄新天地广场南里6号楼2楼11A单元(近马当路)"},{"poiid":"B2094757D06FA2FD4198","title":"godiva café","lon":"121.47528839","lat":"31.21899414","category":"260","category_name":"其他","address":"卢湾区自忠路338号新天地南里5号106号Godiva2楼(近马当路)"},{"poiid":"B2094757D06EABF54693","title":"STAYREAL(新天地店)","lon":"121.4748631","lat":"31.2170296","category":"141","category_name":"服装鞋帽皮具店","address":"上海市马当路245号新天地时尚B101-B102"},{"poiid":"B2094757D06FA2FD419A","title":"CJW爵士酒吧","lon":"121.475242615","lat":"31.2192897797","category":"260","category_name":"其他","address":"卢湾区兴业路123弄新天地南里2号4单元(近马当路)"},{"poiid":"B2094654DB6BA4FA409B","title":"翡翠酒家(新天地店)","lon":"121.47504","lat":"31.21888","category":"72","category_name":"广东菜","address":"卢湾区兴业路123弄新天地南里6-7号2楼(近马当路)"},{"poiid":"B2094757D06FABFD4393","title":"新天地太平湖","lon":"121.47574439","lat":"31.219562847","category":"500","category_name":"未知分类","address":"上海湖滨路222号"},{"poiid":"B2094757D06FA1FE4598","title":"小南国(新天地店)","lon":"121.47489","lat":"31.21927","category":"76","category_name":"上海菜","address":"卢湾区兴业路123弄新天地南里商场2楼(近马当路)"},{"poiid":"B2094757D069A5FD449C","title":"米高餐厅","lon":"121.475007054","lat":"31.219595793","category":"72","category_name":"广东菜","address":"卢湾区兴业路123弄新天地南里6号楼3楼(近马当路)"},{"poiid":"B2094757D56DA2F5469A","title":"新天地G 酒吧","lon":"121.474958738","lat":"31.2194850711","category":"172","category_name":"酒吧","address":"上海新天地"},{"poiid":"B2094757D06BA7FF469C","title":"新天地 Luna","lon":"121.475423658","lat":"31.218935574","category":"500","category_name":"未知分类","address":"上海市黄浦区延安高架路"},{"poiid":"B2094757D06FA1FE449D","title":"赤坂亭(新天地店)","lon":"121.47503","lat":"31.2198","category":"269","category_name":"烧烤","address":"卢湾区兴业路123弄新天地南里广场6号3楼(近马当路)"},{"poiid":"B2094750D66EA5FF4192","title":"新天地。猫的天空之城","lon":"121.474761","lat":"31.218126","category":"247","category_name":"餐饮美食","address":null},{"poiid":"B2094757D06FAAF54292","title":"新天地时尚中庭","lon":"121.474863","lat":"31.21703","category":"119","category_name":"商场","address":"上海卢湾区马当路245号"},{"poiid":"B2094757D068A2F84192","title":"丰和日丽","lon":"121.474841738","lat":"31.2194980714","category":"76","category_name":"上海菜","address":"卢湾区自忠路338号新天地南里6号3楼(近马当路)"},{"poiid":"B2094654DB64AAF44398","title":"锅德港式极品肥牛海鲜火锅 新天地店 Good  Hotpot","lon":"121.47531915384","lat":"31.218654115544","category":"86","category_name":"火锅店","address":"卢湾区自忠路338号新天地南里1楼(近黄陂南路)"},{"poiid":"B2094757D06EAAF9439C","title":"Afternoon Tea 新天地店","lon":"121.475007054","lat":"31.219595793","category":"94","category_name":"西餐厅","address":"卢湾区兴业路123弄6-7号楼新天地南里商场3楼(近马当路)"},{"poiid":"B2094751D26DA3FB469A","title":"摩罗街","lon":"121.47544","lat":"31.219779","category":"72","category_name":"广东菜","address":"卢湾区兴业路123弄新天地南里6号3楼"},{"poiid":"B2094757D06FA6F5499C","title":"翠湖天地御苑","lon":"121.47715","lat":"31.21806","category":"47","category_name":"住宅区","address":"黄浦区东门路168号2楼252号(近中华路豫园)"},{"poiid":"B2094757D06AA6FF4292","title":"Lind琳德烘焙(新天地店)","lon":"121.475593658","lat":"31.2190605735","category":"112","category_name":"糕饼店","address":"卢湾区兴业路123弄新天地南里5号104室(近马当路)"},{"poiid":"B2094757D069A7FC459A","title":"Latina(新天地店)","lon":"121.47511273","lat":"31.219655074","category":"500","category_name":"未知分类","address":"上海市卢湾区淮海中路"},{"poiid":"B2094753D76DA0FD4893","title":"查厘士港式餐厅","lon":"121.475654","lat":"31.220012","category":"247","category_name":"餐饮美食","address":"上海市 淮海中路438号4F"},{"poiid":"B2094750D26EABFB4093","title":"庄源 La Finca","lon":"121.47557176192","lat":"31.219692862031","category":"100","category_name":"地中海风格菜品","address":"卢湾区黄陂南路373号(近兴业路)"},{"poiid":"B2094750DA6AA6FE499B","title":"STAGE-上海新天地","lon":"121.475151","lat":"31.217338","category":"249","category_name":"购物服务","address":null},{"poiid":"B2094757D66AA5FC419D","title":"吴记老锅底麻辣火锅 黄陂南路店","lon":"121.47667530833","lat":"31.216400943765","category":"86","category_name":"火锅店","address":"卢湾区黄陂南路577号(复兴中路合肥路间)"},{"poiid":"B2094757D465A7FE4498","title":"Fame卡拉OK会所 Fame","lon":"121.475007054","lat":"31.219595793","category":"247","category_name":"餐饮美食","address":"卢湾区兴业路123弄新天地南里商场3楼(近马当路)"},{"poiid":"B2094757D06FA6F8469C","title":"香港采蝶轩","lon":"121.47579","lat":"31.21958","category":"72","category_name":"广东菜","address":"卢湾区兴业路123弄新天地南里2号楼(近马当路)"},{"poiid":"B2094757D468A0FB499C","title":"香啡缤 新天地时尚店","lon":"121.474843","lat":"31.2171292","category":"260","category_name":"其他","address":"卢湾区马当路245号新天地时尚购物广场B129a室(近复兴中路)"},{"poiid":"B2094757D069A0F84393","title":"新天地Fame KTV","lon":"121.47507559","lat":"31.219313547","category":"170","category_name":"KTV","address":"上海卢湾区马当路123号（近兴业路）"},{"poiid":"B2094757D06AA0FD4092","title":"Urban Soup Kitchen","lon":"121.47502","lat":"31.21742","category":"94","category_name":"西餐厅","address":"卢湾区马当路280号(近自忠路)"},{"poiid":"B2094757D06FA7F5409A","title":"全洲超市","lon":"121.474375658","lat":"31.2190575772","category":"118","category_name":"超级市场","address":"卢湾区马当路222弄1-6号B1楼(近自忠路)"},{"poiid":"B2094757D66AA0F5439E","title":"乐园石头烧餐厅酒廊 Paradise Stonegrill","lon":"121.475007054","lat":"31.219595793","category":"172","category_name":"酒吧","address":"卢湾区兴业路123弄新天地南里5号楼1楼5单元(近马当路)"},{"poiid":"B2094757D069A0F54699","title":"Yogo Juice(新天地店)","lon":"121.47470973","lat":"31.217293024","category":"113","category_name":"冷饮店","address":"卢湾区马当路245号新天地时尚购物广场B128室(近复兴中路)"},{"poiid":"B2094757D568A2F9489F","title":"湖庭","lon":"121.4757531","lat":"31.21993194","category":"74","category_name":"江苏菜","address":"卢湾区黄陂南路383号(兴业路口)"},{"poiid":"B2094757D16FA4FC4993","title":"Berry bear 贝瑞熊酸奶冰激淋","lon":"121.475104738","lat":"31.219336068","category":"113","category_name":"冷饮店","address":"上海市浦东新区芳甸路1155号嘉里城B层"},{"poiid":"B2094757D068A7F8489D","title":"全州广场日本超市","lon":"121.47435","lat":"31.21843","category":"118","category_name":"超级市场","address":"上海卢湾区马当路222弄1-6号全州广场B1楼(近自忠路)"},{"poiid":"B2094757D069A4FC499B","title":"真的好海鲜餐厅(新天地店)","lon":"121.47488","lat":"31.21967","category":"260","category_name":"其他","address":"卢湾区兴业路123弄新天地广场南里1号楼(近马当路)"},{"poiid":"B2094655D26EA5FD4098","title":"STELLA LUNA(新天地店)","lon":"121.47482","lat":"31.21864","category":"247","category_name":"餐饮美食","address":"卢湾区兴业路123弄6号楼2楼19单元"},{"poiid":"B2094654DA6EABF5449A","title":"太平桥公园","lon":"121.47679","lat":"31.2197","category":"196","category_name":"公园","address":"淮海中路"},{"poiid":"B2094752D165A0FC4099","title":"猫的天空之城新天地店","lon":"121.474701","lat":"31.218201","category":"248","category_name":"生活娱乐","address":"上海黄浦区马当路245号上海新天地时尚B112"},{"poiid":"B2094750D565A2F8489E","title":"庄源 喜娜","lon":"121.475532","lat":"31.220149","category":"247","category_name":"餐饮美食","address":"卢湾区黄陂南路373号(近兴业路)"},{"poiid":"B209475CD26FA5F8489B","title":"一人前寿司专门店","lon":"121.474746","lat":"31.217882","category":"500","category_name":"未知分类","address":"上海市 马当路245号新天地时尚地下一层129室"},{"poiid":"B2094654DB65A4FA409D","title":"上海新天地","lon":"121.47503","lat":"31.21888","category":"119","category_name":"商场","address":"上海卢湾区太仓路181弄,兴业路123弄(近马当路)"},{"poiid":"B2094757D06EAAFE469A","title":"七叶和茶 新天地店","lon":"121.474699","lat":"31.218808","category":"95","category_name":"日本料理","address":"卢湾区马当路185号(自忠路口)"},{"poiid":"B2094654DB64A4F8429B","title":"小山日本料理","lon":"121.475007054","lat":"31.219595793","category":"95","category_name":"日本料理","address":"卢湾区自忠路338号新天地南里6号3楼(近马当路)"},{"poiid":"B2094753D76FAAFA449C","title":"上海滩国泰旗舰店","lon":"121.466011","lat":"31.216125","category":"249","category_name":"购物服务","address":"淮海中路868号"},{"poiid":"B209475CD564A7F84292","title":"上海滩新天地店","lon":"121.47463","lat":"31.22164","category":"119","category_name":"商场","address":"\"太仓路181弄新天地北里15号\r\n\""},{"poiid":"B209475CD564A7F8439E","title":"上海滩中信泰富店","lon":"121.45602","lat":"31.22851","category":"119","category_name":"商场","address":"\"南京西路1168号中信泰富广场，店铺号221.\r\n\""},{"poiid":"B2094757D06EAAFA4493","title":"UME国际影城（新天地店）","lon":"121.475131983","lat":"31.2193528916","category":"178","category_name":"电影院","address":"上海卢湾区兴业路123弄新天地南里6号5楼(近马当路)"},{"poiid":"B2094757D06AA1FE4599","title":"新天地","lon":"121.475463","lat":"31.21941","category":"260","category_name":"其他","address":"卢湾区太仓路181弄新天地北里内"},{"poiid":"B2094654DB64AAFE4393","title":"Pizza Marzano(新天地店)","lon":"121.47557","lat":"31.21932","category":"68","category_name":"快餐厅","address":"卢湾区黄陂南路380号(近兴业路)"},{"poiid":"B2094757D06EAAF8489C","title":"鼎泰丰(新天地店)","lon":"121.474870817","lat":"31.2190067707","category":"68","category_name":"快餐厅","address":"卢湾区兴业路123弄新天地广场南里6号楼2楼11A单元(近马当路)"},{"poiid":"B2094757D06FA2FD4198","title":"godiva café","lon":"121.47528839","lat":"31.21899414","category":"260","category_name":"其他","address":"卢湾区自忠路338号新天地南里5号106号Godiva2楼(近马当路)"},{"poiid":"B2094757D06EABF54693","title":"STAYREAL(新天地店)","lon":"121.4748631","lat":"31.2170296","category":"141","category_name":"服装鞋帽皮具店","address":"上海市马当路245号新天地时尚B101-B102"},{"poiid":"B2094757D06FA2FD419A","title":"CJW爵士酒吧","lon":"121.475242615","lat":"31.2192897797","category":"260","category_name":"其他","address":"卢湾区兴业路123弄新天地南里2号4单元(近马当路)"},{"poiid":"B2094654DB6BA4FA409B","title":"翡翠酒家(新天地店)","lon":"121.47504","lat":"31.21888","category":"72","category_name":"广东菜","address":"卢湾区兴业路123弄新天地南里6-7号2楼(近马当路)"},{"poiid":"B2094757D06FABFD4393","title":"新天地太平湖","lon":"121.47574439","lat":"31.219562847","category":"500","category_name":"未知分类","address":"上海湖滨路222号"},{"poiid":"B2094757D06FA1FE4598","title":"小南国(新天地店)","lon":"121.47489","lat":"31.21927","category":"76","category_name":"上海菜","address":"卢湾区兴业路123弄新天地南里商场2楼(近马当路)"},{"poiid":"B2094757D069A5FD449C","title":"米高餐厅","lon":"121.475007054","lat":"31.219595793","category":"72","category_name":"广东菜","address":"卢湾区兴业路123弄新天地南里6号楼3楼(近马当路)"},{"poiid":"B2094757D56DA2F5469A","title":"新天地G 酒吧","lon":"121.474958738","lat":"31.2194850711","category":"172","category_name":"酒吧","address":"上海新天地"},{"poiid":"B2094757D06BA7FF469C","title":"新天地 Luna","lon":"121.475423658","lat":"31.218935574","category":"500","category_name":"未知分类","address":"上海市黄浦区延安高架路"},{"poiid":"B2094757D06FA1FE449D","title":"赤坂亭(新天地店)","lon":"121.47503","lat":"31.2198","category":"269","category_name":"烧烤","address":"卢湾区兴业路123弄新天地南里广场6号3楼(近马当路)"},{"poiid":"B2094750D66EA5FF4192","title":"新天地。猫的天空之城","lon":"121.474761","lat":"31.218126","category":"247","category_name":"餐饮美食","address":null},{"poiid":"B2094757D06FAAF54292","title":"新天地时尚中庭","lon":"121.474863","lat":"31.21703","category":"119","category_name":"商场","address":"上海卢湾区马当路245号"},{"poiid":"B2094757D068A2F84192","title":"丰和日丽","lon":"121.474841738","lat":"31.2194980714","category":"76","category_name":"上海菜","address":"卢湾区自忠路338号新天地南里6号3楼(近马当路)"},{"poiid":"B2094654DB64AAF44398","title":"锅德港式极品肥牛海鲜火锅 新天地店 Good  Hotpot","lon":"121.47531915384","lat":"31.218654115544","category":"86","category_name":"火锅店","address":"卢湾区自忠路338号新天地南里1楼(近黄陂南路)"},{"poiid":"B2094757D06EAAF9439C","title":"Afternoon Tea 新天地店","lon":"121.475007054","lat":"31.219595793","category":"94","category_name":"西餐厅","address":"卢湾区兴业路123弄6-7号楼新天地南里商场3楼(近马当路)"},{"poiid":"B2094751D26DA3FB469A","title":"摩罗街","lon":"121.47544","lat":"31.219779","category":"72","category_name":"广东菜","address":"卢湾区兴业路123弄新天地南里6号3楼"},{"poiid":"B2094757D06FA6F5499C","title":"翠湖天地御苑","lon":"121.47715","lat":"31.21806","category":"47","category_name":"住宅区","address":"黄浦区东门路168号2楼252号(近中华路豫园)"},{"poiid":"B2094757D06AA6FF4292","title":"Lind琳德烘焙(新天地店)","lon":"121.475593658","lat":"31.2190605735","category":"112","category_name":"糕饼店","address":"卢湾区兴业路123弄新天地南里5号104室(近马当路)"},{"poiid":"B2094757D069A7FC459A","title":"Latina(新天地店)","lon":"121.47511273","lat":"31.219655074","category":"500","category_name":"未知分类","address":"上海市卢湾区淮海中路"},{"poiid":"B2094753D76DA0FD4893","title":"查厘士港式餐厅","lon":"121.475654","lat":"31.220012","category":"247","category_name":"餐饮美食","address":"上海市 淮海中路438号4F"},{"poiid":"B2094750D26EABFB4093","title":"庄源 La Finca","lon":"121.47557176192","lat":"31.219692862031","category":"100","category_name":"地中海风格菜品","address":"卢湾区黄陂南路373号(近兴业路)"},{"poiid":"B2094750DA6AA6FE499B","title":"STAGE-上海新天地","lon":"121.475151","lat":"31.217338","category":"249","category_name":"购物服务","address":null},{"poiid":"B2094757D66AA5FC419D","title":"吴记老锅底麻辣火锅 黄陂南路店","lon":"121.47667530833","lat":"31.216400943765","category":"86","category_name":"火锅店","address":"卢湾区黄陂南路577号(复兴中路合肥路间)"},{"poiid":"B2094757D465A7FE4498","title":"Fame卡拉OK会所 Fame","lon":"121.475007054","lat":"31.219595793","category":"247","category_name":"餐饮美食","address":"卢湾区兴业路123弄新天地南里商场3楼(近马当路)"},{"poiid":"B2094757D06FA6F8469C","title":"香港采蝶轩","lon":"121.47579","lat":"31.21958","category":"72","category_name":"广东菜","address":"卢湾区兴业路123弄新天地南里2号楼(近马当路)"},{"poiid":"B2094757D468A0FB499C","title":"香啡缤 新天地时尚店","lon":"121.474843","lat":"31.2171292","category":"260","category_name":"其他","address":"卢湾区马当路245号新天地时尚购物广场B129a室(近复兴中路)"},{"poiid":"B2094757D069A0F84393","title":"新天地Fame KTV","lon":"121.47507559","lat":"31.219313547","category":"170","category_name":"KTV","address":"上海卢湾区马当路123号（近兴业路）"},{"poiid":"B2094757D06AA0FD4092","title":"Urban Soup Kitchen","lon":"121.47502","lat":"31.21742","category":"94","category_name":"西餐厅","address":"卢湾区马当路280号(近自忠路)"},{"poiid":"B2094757D06FA7F5409A","title":"全洲超市","lon":"121.474375658","lat":"31.2190575772","category":"118","category_name":"超级市场","address":"卢湾区马当路222弄1-6号B1楼(近自忠路)"},{"poiid":"B2094757D66AA0F5439E","title":"乐园石头烧餐厅酒廊 Paradise Stonegrill","lon":"121.475007054","lat":"31.219595793","category":"172","category_name":"酒吧","address":"卢湾区兴业路123弄新天地南里5号楼1楼5单元(近马当路)"},{"poiid":"B2094757D069A0F54699","title":"Yogo Juice(新天地店)","lon":"121.47470973","lat":"31.217293024","category":"113","category_name":"冷饮店","address":"卢湾区马当路245号新天地时尚购物广场B128室(近复兴中路)"},{"poiid":"B2094757D568A2F9489F","title":"湖庭","lon":"121.4757531","lat":"31.21993194","category":"74","category_name":"江苏菜","address":"卢湾区黄陂南路383号(兴业路口)"},{"poiid":"B2094757D16FA4FC4993","title":"Berry bear 贝瑞熊酸奶冰激淋","lon":"121.475104738","lat":"31.219336068","category":"113","category_name":"冷饮店","address":"上海市浦东新区芳甸路1155号嘉里城B层"},{"poiid":"B2094757D068A7F8489D","title":"全州广场日本超市","lon":"121.47435","lat":"31.21843","category":"118","category_name":"超级市场","address":"上海卢湾区马当路222弄1-6号全州广场B1楼(近自忠路)"},{"poiid":"B2094757D069A4FC499B","title":"真的好海鲜餐厅(新天地店)","lon":"121.47488","lat":"31.21967","category":"260","category_name":"其他","address":"卢湾区兴业路123弄新天地广场南里1号楼(近马当路)"},{"poiid":"B2094655D26EA5FD4098","title":"STELLA LUNA(新天地店)","lon":"121.47482","lat":"31.21864","category":"247","category_name":"餐饮美食","address":"卢湾区兴业路123弄6号楼2楼19单元"},{"poiid":"B2094654DA6EABF5449A","title":"太平桥公园","lon":"121.47679","lat":"31.2197","category":"196","category_name":"公园","address":"淮海中路"},{"poiid":"B2094752D165A0FC4099","title":"猫的天空之城新天地店","lon":"121.474701","lat":"31.218201","category":"248","category_name":"生活娱乐","address":"上海黄浦区马当路245号上海新天地时尚B112"},{"poiid":"B2094750D565A2F8489E","title":"庄源 喜娜","lon":"121.475532","lat":"31.220149","category":"247","category_name":"餐饮美食","address":"卢湾区黄陂南路373号(近兴业路)"},{"poiid":"B209475CD26FA5F8489B","title":"一人前寿司专门店","lon":"121.474746","lat":"31.217882","category":"500","category_name":"未知分类","address":"上海市 马当路245号新天地时尚地下一层129室"},{"poiid":"B2094654DB65A4FA409D","title":"上海新天地","lon":"121.47503","lat":"31.21888","category":"119","category_name":"商场","address":"上海卢湾区太仓路181弄,兴业路123弄(近马当路)"},{"poiid":"B2094757D06EAAFE469A","title":"七叶和茶 新天地店","lon":"121.474699","lat":"31.218808","category":"95","category_name":"日本料理","address":"卢湾区马当路185号(自忠路口)"},{"poiid":"B2094654DB64A4F8429B","title":"小山日本料理","lon":"121.475007054","lat":"31.219595793","category":"95","category_name":"日本料理","address":"卢湾区自忠路338号新天地南里6号3楼(近马当路)"},{"poiid":"B2094753D76FAAFA449C","title":"上海滩国泰旗舰店","lon":"121.466011","lat":"31.216125","category":"249","category_name":"购物服务","address":"淮海中路868号"},{"poiid":"B209475CD564A7F84292","title":"上海滩新天地店","lon":"121.47463","lat":"31.22164","category":"119","category_name":"商场","address":"\"太仓路181弄新天地北里15号\r\n\""},{"poiid":"B209475CD564A7F8439E","title":"上海滩中信泰富店","lon":"121.45602","lat":"31.22851","category":"119","category_name":"商场","address":"\"南京西路1168号中信泰富广场，店铺号221.\r\n\""},{"poiid":"B2094757D06EAAFA4493","title":"UME国际影城（新天地店）","lon":"121.475131983","lat":"31.2193528916","category":"178","category_name":"电影院","address":"上海卢湾区兴业路123弄新天地南里6号5楼(近马当路)"},{"poiid":"B2094757D06AA1FE4599","title":"新天地","lon":"121.475463","lat":"31.21941","category":"260","category_name":"其他","address":"卢湾区太仓路181弄新天地北里内"},{"poiid":"B2094654DB64AAFE4393","title":"Pizza Marzano(新天地店)","lon":"121.47557","lat":"31.21932","category":"68","category_name":"快餐厅","address":"卢湾区黄陂南路380号(近兴业路)"},{"poiid":"B2094757D06EAAF8489C","title":"鼎泰丰(新天地店)","lon":"121.474870817","lat":"31.2190067707","category":"68","category_name":"快餐厅","address":"卢湾区兴业路123弄新天地广场南里6号楼2楼11A单元(近马当路)"},{"poiid":"B2094757D06FA2FD4198","title":"godiva café","lon":"121.47528839","lat":"31.21899414","category":"260","category_name":"其他","address":"卢湾区自忠路338号新天地南里5号106号Godiva2楼(近马当路)"},{"poiid":"B2094757D06EABF54693","title":"STAYREAL(新天地店)","lon":"121.4748631","lat":"31.2170296","category":"141","category_name":"服装鞋帽皮具店","address":"上海市马当路245号新天地时尚B101-B102"},{"poiid":"B2094757D06FA2FD419A","title":"CJW爵士酒吧","lon":"121.475242615","lat":"31.2192897797","category":"260","category_name":"其他","address":"卢湾区兴业路123弄新天地南里2号4单元(近马当路)"},{"poiid":"B2094654DB6BA4FA409B","title":"翡翠酒家(新天地店)","lon":"121.47504","lat":"31.21888","category":"72","category_name":"广东菜","address":"卢湾区兴业路123弄新天地南里6-7号2楼(近马当路)"},{"poiid":"B2094757D06FABFD4393","title":"新天地太平湖","lon":"121.47574439","lat":"31.219562847","category":"500","category_name":"未知分类","address":"上海湖滨路222号"},{"poiid":"B2094757D06FA1FE4598","title":"小南国(新天地店)","lon":"121.47489","lat":"31.21927","category":"76","category_name":"上海菜","address":"卢湾区兴业路123弄新天地南里商场2楼(近马当路)"},{"poiid":"B2094757D069A5FD449C","title":"米高餐厅","lon":"121.475007054","lat":"31.219595793","category":"72","category_name":"广东菜","address":"卢湾区兴业路123弄新天地南里6号楼3楼(近马当路)"},{"poiid":"B2094757D56DA2F5469A","title":"新天地G 酒吧","lon":"121.474958738","lat":"31.2194850711","category":"172","category_name":"酒吧","address":"上海新天地"},{"poiid":"B2094757D06BA7FF469C","title":"新天地 Luna","lon":"121.475423658","lat":"31.218935574","category":"500","category_name":"未知分类","address":"上海市黄浦区延安高架路"},{"poiid":"B2094757D06FA1FE449D","title":"赤坂亭(新天地店)","lon":"121.47503","lat":"31.2198","category":"269","category_name":"烧烤","address":"卢湾区兴业路123弄新天地南里广场6号3楼(近马当路)"},{"poiid":"B2094750D66EA5FF4192","title":"新天地。猫的天空之城","lon":"121.474761","lat":"31.218126","category":"247","category_name":"餐饮美食","address":null},{"poiid":"B2094757D06FAAF54292","title":"新天地时尚中庭","lon":"121.474863","lat":"31.21703","category":"119","category_name":"商场","address":"上海卢湾区马当路245号"},{"poiid":"B2094757D068A2F84192","title":"丰和日丽","lon":"121.474841738","lat":"31.2194980714","category":"76","category_name":"上海菜","address":"卢湾区自忠路338号新天地南里6号3楼(近马当路)"},{"poiid":"B2094654DB64AAF44398","title":"锅德港式极品肥牛海鲜火锅 新天地店 Good  Hotpot","lon":"121.47531915384","lat":"31.218654115544","category":"86","category_name":"火锅店","address":"卢湾区自忠路338号新天地南里1楼(近黄陂南路)"},{"poiid":"B2094757D06EAAF9439C","title":"Afternoon Tea 新天地店","lon":"121.475007054","lat":"31.219595793","category":"94","category_name":"西餐厅","address":"卢湾区兴业路123弄6-7号楼新天地南里商场3楼(近马当路)"},{"poiid":"B2094751D26DA3FB469A","title":"摩罗街","lon":"121.47544","lat":"31.219779","category":"72","category_name":"广东菜","address":"卢湾区兴业路123弄新天地南里6号3楼"},{"poiid":"B2094757D06FA6F5499C","title":"翠湖天地御苑","lon":"121.47715","lat":"31.21806","category":"47","category_name":"住宅区","address":"黄浦区东门路168号2楼252号(近中华路豫园)"},{"poiid":"B2094757D06AA6FF4292","title":"Lind琳德烘焙(新天地店)","lon":"121.475593658","lat":"31.2190605735","category":"112","category_name":"糕饼店","address":"卢湾区兴业路123弄新天地南里5号104室(近马当路)"},{"poiid":"B2094757D069A7FC459A","title":"Latina(新天地店)","lon":"121.47511273","lat":"31.219655074","category":"500","category_name":"未知分类","address":"上海市卢湾区淮海中路"},{"poiid":"B2094753D76DA0FD4893","title":"查厘士港式餐厅","lon":"121.475654","lat":"31.220012","category":"247","category_name":"餐饮美食","address":"上海市 淮海中路438号4F"},{"poiid":"B2094750D26EABFB4093","title":"庄源 La Finca","lon":"121.47557176192","lat":"31.219692862031","category":"100","category_name":"地中海风格菜品","address":"卢湾区黄陂南路373号(近兴业路)"},{"poiid":"B2094750DA6AA6FE499B","title":"STAGE-上海新天地","lon":"121.475151","lat":"31.217338","category":"249","category_name":"购物服务","address":null},{"poiid":"B2094757D66AA5FC419D","title":"吴记老锅底麻辣火锅 黄陂南路店","lon":"121.47667530833","lat":"31.216400943765","category":"86","category_name":"火锅店","address":"卢湾区黄陂南路577号(复兴中路合肥路间)"},{"poiid":"B2094757D465A7FE4498","title":"Fame卡拉OK会所 Fame","lon":"121.475007054","lat":"31.219595793","category":"247","category_name":"餐饮美食","address":"卢湾区兴业路123弄新天地南里商场3楼(近马当路)"},{"poiid":"B2094757D06FA6F8469C","title":"香港采蝶轩","lon":"121.47579","lat":"31.21958","category":"72","category_name":"广东菜","address":"卢湾区兴业路123弄新天地南里2号楼(近马当路)"},{"poiid":"B2094757D468A0FB499C","title":"香啡缤 新天地时尚店","lon":"121.474843","lat":"31.2171292","category":"260","category_name":"其他","address":"卢湾区马当路245号新天地时尚购物广场B129a室(近复兴中路)"},{"poiid":"B2094757D069A0F84393","title":"新天地Fame KTV","lon":"121.47507559","lat":"31.219313547","category":"170","category_name":"KTV","address":"上海卢湾区马当路123号（近兴业路）"},{"poiid":"B2094757D06AA0FD4092","title":"Urban Soup Kitchen","lon":"121.47502","lat":"31.21742","category":"94","category_name":"西餐厅","address":"卢湾区马当路280号(近自忠路)"},{"poiid":"B2094757D06FA7F5409A","title":"全洲超市","lon":"121.474375658","lat":"31.2190575772","category":"118","category_name":"超级市场","address":"卢湾区马当路222弄1-6号B1楼(近自忠路)"},{"poiid":"B2094757D66AA0F5439E","title":"乐园石头烧餐厅酒廊 Paradise Stonegrill","lon":"121.475007054","lat":"31.219595793","category":"172","category_name":"酒吧","address":"卢湾区兴业路123弄新天地南里5号楼1楼5单元(近马当路)"},{"poiid":"B2094757D069A0F54699","title":"Yogo Juice(新天地店)","lon":"121.47470973","lat":"31.217293024","category":"113","category_name":"冷饮店","address":"卢湾区马当路245号新天地时尚购物广场B128室(近复兴中路)"},{"poiid":"B2094757D568A2F9489F","title":"湖庭","lon":"121.4757531","lat":"31.21993194","category":"74","category_name":"江苏菜","address":"卢湾区黄陂南路383号(兴业路口)"},{"poiid":"B2094757D16FA4FC4993","title":"Berry bear 贝瑞熊酸奶冰激淋","lon":"121.475104738","lat":"31.219336068","category":"113","category_name":"冷饮店","address":"上海市浦东新区芳甸路1155号嘉里城B层"},{"poiid":"B2094757D068A7F8489D","title":"全州广场日本超市","lon":"121.47435","lat":"31.21843","category":"118","category_name":"超级市场","address":"上海卢湾区马当路222弄1-6号全州广场B1楼(近自忠路)"},{"poiid":"B2094757D069A4FC499B","title":"真的好海鲜餐厅(新天地店)","lon":"121.47488","lat":"31.21967","category":"260","category_name":"其他","address":"卢湾区兴业路123弄新天地广场南里1号楼(近马当路)"},{"poiid":"B2094655D26EA5FD4098","title":"STELLA LUNA(新天地店)","lon":"121.47482","lat":"31.21864","category":"247","category_name":"餐饮美食","address":"卢湾区兴业路123弄6号楼2楼19单元"},{"poiid":"B2094654DA6EABF5449A","title":"太平桥公园","lon":"121.47679","lat":"31.2197","category":"196","category_name":"公园","address":"淮海中路"},{"poiid":"B2094752D165A0FC4099","title":"猫的天空之城新天地店","lon":"121.474701","lat":"31.218201","category":"248","category_name":"生活娱乐","address":"上海黄浦区马当路245号上海新天地时尚B112"},{"poiid":"B2094750D565A2F8489E","title":"庄源 喜娜","lon":"121.475532","lat":"31.220149","category":"247","category_name":"餐饮美食","address":"卢湾区黄陂南路373号(近兴业路)"},{"poiid":"B209475CD26FA5F8489B","title":"一人前寿司专门店","lon":"121.474746","lat":"31.217882","category":"500","category_name":"未知分类","address":"上海市 马当路245号新天地时尚地下一层129室"},{"poiid":"B2094654DB65A4FA409D","title":"上海新天地","lon":"121.47503","lat":"31.21888","category":"119","category_name":"商场","address":"上海卢湾区太仓路181弄,兴业路123弄(近马当路)"},{"poiid":"B2094757D06EAAFE469A","title":"七叶和茶 新天地店","lon":"121.474699","lat":"31.218808","category":"95","category_name":"日本料理","address":"卢湾区马当路185号(自忠路口)"},{"poiid":"B2094654DB64A4F8429B","title":"小山日本料理","lon":"121.475007054","lat":"31.219595793","category":"95","category_name":"日本料理","address":"卢湾区自忠路338号新天地南里6号3楼(近马当路)"},{"poiid":"B2094753D76FAAFA449C","title":"上海滩国泰旗舰店","lon":"121.466011","lat":"31.216125","category":"249","category_name":"购物服务","address":"淮海中路868号"},{"poiid":"B209475CD564A7F84292","title":"上海滩新天地店","lon":"121.47463","lat":"31.22164","category":"119","category_name":"商场","address":"\"太仓路181弄新天地北里15号\r\n\""},{"poiid":"B209475CD564A7F8439E","title":"上海滩中信泰富店","lon":"121.45602","lat":"31.22851","category":"119","category_name":"商场","address":"\"南京西路1168号中信泰富广场，店铺号221.\r\n\""},{"poiid":"B2094757D06EAAFA4493","title":"UME国际影城（新天地店）","lon":"121.475131983","lat":"31.2193528916","category":"178","category_name":"电影院","address":"上海卢湾区兴业路123弄新天地南里6号5楼(近马当路)"},{"poiid":"B2094757D06AA1FE4599","title":"新天地","lon":"121.475463","lat":"31.21941","category":"260","category_name":"其他","address":"卢湾区太仓路181弄新天地北里内"},{"poiid":"B2094654DB64AAFE4393","title":"Pizza Marzano(新天地店)","lon":"121.47557","lat":"31.21932","category":"68","category_name":"快餐厅","address":"卢湾区黄陂南路380号(近兴业路)"},{"poiid":"B2094757D06EAAF8489C","title":"鼎泰丰(新天地店)","lon":"121.474870817","lat":"31.2190067707","category":"68","category_name":"快餐厅","address":"卢湾区兴业路123弄新天地广场南里6号楼2楼11A单元(近马当路)"},{"poiid":"B2094757D06FA2FD4198","title":"godiva café","lon":"121.47528839","lat":"31.21899414","category":"260","category_name":"其他","address":"卢湾区自忠路338号新天地南里5号106号Godiva2楼(近马当路)"},{"poiid":"B2094757D06EABF54693","title":"STAYREAL(新天地店)","lon":"121.4748631","lat":"31.2170296","category":"141","category_name":"服装鞋帽皮具店","address":"上海市马当路245号新天地时尚B101-B102"},{"poiid":"B2094757D06FA2FD419A","title":"CJW爵士酒吧","lon":"121.475242615","lat":"31.2192897797","category":"260","category_name":"其他","address":"卢湾区兴业路123弄新天地南里2号4单元(近马当路)"},{"poiid":"B2094654DB6BA4FA409B","title":"翡翠酒家(新天地店)","lon":"121.47504","lat":"31.21888","category":"72","category_name":"广东菜","address":"卢湾区兴业路123弄新天地南里6-7号2楼(近马当路)"},{"poiid":"B2094757D06FABFD4393","title":"新天地太平湖","lon":"121.47574439","lat":"31.219562847","category":"500","category_name":"未知分类","address":"上海湖滨路222号"},{"poiid":"B2094757D06FA1FE4598","title":"小南国(新天地店)","lon":"121.47489","lat":"31.21927","category":"76","category_name":"上海菜","address":"卢湾区兴业路123弄新天地南里商场2楼(近马当路)"},{"poiid":"B2094757D069A5FD449C","title":"米高餐厅","lon":"121.475007054","lat":"31.219595793","category":"72","category_name":"广东菜","address":"卢湾区兴业路123弄新天地南里6号楼3楼(近马当路)"},{"poiid":"B2094757D56DA2F5469A","title":"新天地G 酒吧","lon":"121.474958738","lat":"31.2194850711","category":"172","category_name":"酒吧","address":"上海新天地"},{"poiid":"B2094757D06BA7FF469C","title":"新天地 Luna","lon":"121.475423658","lat":"31.218935574","category":"500","category_name":"未知分类","address":"上海市黄浦区延安高架路"},{"poiid":"B2094757D06FA1FE449D","title":"赤坂亭(新天地店)","lon":"121.47503","lat":"31.2198","category":"269","category_name":"烧烤","address":"卢湾区兴业路123弄新天地南里广场6号3楼(近马当路)"},{"poiid":"B2094750D66EA5FF4192","title":"新天地。猫的天空之城","lon":"121.474761","lat":"31.218126","category":"247","category_name":"餐饮美食","address":null},{"poiid":"B2094757D06FAAF54292","title":"新天地时尚中庭","lon":"121.474863","lat":"31.21703","category":"119","category_name":"商场","address":"上海卢湾区马当路245号"},{"poiid":"B2094757D068A2F84192","title":"丰和日丽","lon":"121.474841738","lat":"31.2194980714","category":"76","category_name":"上海菜","address":"卢湾区自忠路338号新天地南里6号3楼(近马当路)"},{"poiid":"B2094654DB64AAF44398","title":"锅德港式极品肥牛海鲜火锅 新天地店 Good  Hotpot","lon":"121.47531915384","lat":"31.218654115544","category":"86","category_name":"火锅店","address":"卢湾区自忠路338号新天地南里1楼(近黄陂南路)"},{"poiid":"B2094757D06EAAF9439C","title":"Afternoon Tea 新天地店","lon":"121.475007054","lat":"31.219595793","category":"94","category_name":"西餐厅","address":"卢湾区兴业路123弄6-7号楼新天地南里商场3楼(近马当路)"},{"poiid":"B2094751D26DA3FB469A","title":"摩罗街","lon":"121.47544","lat":"31.219779","category":"72","category_name":"广东菜","address":"卢湾区兴业路123弄新天地南里6号3楼"},{"poiid":"B2094757D06FA6F5499C","title":"翠湖天地御苑","lon":"121.47715","lat":"31.21806","category":"47","category_name":"住宅区","address":"黄浦区东门路168号2楼252号(近中华路豫园)"},{"poiid":"B2094757D06AA6FF4292","title":"Lind琳德烘焙(新天地店)","lon":"121.475593658","lat":"31.2190605735","category":"112","category_name":"糕饼店","address":"卢湾区兴业路123弄新天地南里5号104室(近马当路)"},{"poiid":"B2094757D069A7FC459A","title":"Latina(新天地店)","lon":"121.47511273","lat":"31.219655074","category":"500","category_name":"未知分类","address":"上海市卢湾区淮海中路"},{"poiid":"B2094753D76DA0FD4893","title":"查厘士港式餐厅","lon":"121.475654","lat":"31.220012","category":"247","category_name":"餐饮美食","address":"上海市 淮海中路438号4F"},{"poiid":"B2094750D26EABFB4093","title":"庄源 La Finca","lon":"121.47557176192","lat":"31.219692862031","category":"100","category_name":"地中海风格菜品","address":"卢湾区黄陂南路373号(近兴业路)"},{"poiid":"B2094750DA6AA6FE499B","title":"STAGE-上海新天地","lon":"121.475151","lat":"31.217338","category":"249","category_name":"购物服务","address":null},{"poiid":"B2094757D66AA5FC419D","title":"吴记老锅底麻辣火锅 黄陂南路店","lon":"121.47667530833","lat":"31.216400943765","category":"86","category_name":"火锅店","address":"卢湾区黄陂南路577号(复兴中路合肥路间)"},{"poiid":"B2094757D465A7FE4498","title":"Fame卡拉OK会所 Fame","lon":"121.475007054","lat":"31.219595793","category":"247","category_name":"餐饮美食","address":"卢湾区兴业路123弄新天地南里商场3楼(近马当路)"},{"poiid":"B2094757D06FA6F8469C","title":"香港采蝶轩","lon":"121.47579","lat":"31.21958","category":"72","category_name":"广东菜","address":"卢湾区兴业路123弄新天地南里2号楼(近马当路)"},{"poiid":"B2094757D468A0FB499C","title":"香啡缤 新天地时尚店","lon":"121.474843","lat":"31.2171292","category":"260","category_name":"其他","address":"卢湾区马当路245号新天地时尚购物广场B129a室(近复兴中路)"},{"poiid":"B2094757D069A0F84393","title":"新天地Fame KTV","lon":"121.47507559","lat":"31.219313547","category":"170","category_name":"KTV","address":"上海卢湾区马当路123号（近兴业路）"},{"poiid":"B2094757D06AA0FD4092","title":"Urban Soup Kitchen","lon":"121.47502","lat":"31.21742","category":"94","category_name":"西餐厅","address":"卢湾区马当路280号(近自忠路)"},{"poiid":"B2094757D06FA7F5409A","title":"全洲超市","lon":"121.474375658","lat":"31.2190575772","category":"118","category_name":"超级市场","address":"卢湾区马当路222弄1-6号B1楼(近自忠路)"},{"poiid":"B2094757D66AA0F5439E","title":"乐园石头烧餐厅酒廊 Paradise Stonegrill","lon":"121.475007054","lat":"31.219595793","category":"172","category_name":"酒吧","address":"卢湾区兴业路123弄新天地南里5号楼1楼5单元(近马当路)"},{"poiid":"B2094757D069A0F54699","title":"Yogo Juice(新天地店)","lon":"121.47470973","lat":"31.217293024","category":"113","category_name":"冷饮店","address":"卢湾区马当路245号新天地时尚购物广场B128室(近复兴中路)"},{"poiid":"B2094757D568A2F9489F","title":"湖庭","lon":"121.4757531","lat":"31.21993194","category":"74","category_name":"江苏菜","address":"卢湾区黄陂南路383号(兴业路口)"},{"poiid":"B2094757D16FA4FC4993","title":"Berry bear 贝瑞熊酸奶冰激淋","lon":"121.475104738","lat":"31.219336068","category":"113","category_name":"冷饮店","address":"上海市浦东新区芳甸路1155号嘉里城B层"},{"poiid":"B2094757D068A7F8489D","title":"全州广场日本超市","lon":"121.47435","lat":"31.21843","category":"118","category_name":"超级市场","address":"上海卢湾区马当路222弄1-6号全州广场B1楼(近自忠路)"},{"poiid":"B2094757D069A4FC499B","title":"真的好海鲜餐厅(新天地店)","lon":"121.47488","lat":"31.21967","category":"260","category_name":"其他","address":"卢湾区兴业路123弄新天地广场南里1号楼(近马当路)"},{"poiid":"B2094655D26EA5FD4098","title":"STELLA LUNA(新天地店)","lon":"121.47482","lat":"31.21864","category":"247","category_name":"餐饮美食","address":"卢湾区兴业路123弄6号楼2楼19单元"},{"poiid":"B2094654DA6EABF5449A","title":"太平桥公园","lon":"121.47679","lat":"31.2197","category":"196","category_name":"公园","address":"淮海中路"},{"poiid":"B2094752D165A0FC4099","title":"猫的天空之城新天地店","lon":"121.474701","lat":"31.218201","category":"248","category_name":"生活娱乐","address":"上海黄浦区马当路245号上海新天地时尚B112"},{"poiid":"B2094750D565A2F8489E","title":"庄源 喜娜","lon":"121.475532","lat":"31.220149","category":"247","category_name":"餐饮美食","address":"卢湾区黄陂南路373号(近兴业路)"},{"poiid":"B209475CD26FA5F8489B","title":"一人前寿司专门店","lon":"121.474746","lat":"31.217882","category":"500","category_name":"未知分类","address":"上海市 马当路245号新天地时尚地下一层129室"},{"poiid":"B2094654DB65A4FA409D","title":"上海新天地","lon":"121.47503","lat":"31.21888","category":"119","category_name":"商场","address":"上海卢湾区太仓路181弄,兴业路123弄(近马当路)"},{"poiid":"B2094757D06EAAFE469A","title":"七叶和茶 新天地店","lon":"121.474699","lat":"31.218808","category":"95","category_name":"日本料理","address":"卢湾区马当路185号(自忠路口)"},{"poiid":"B2094654DB64A4F8429B","title":"小山日本料理","lon":"121.475007054","lat":"31.219595793","category":"95","category_name":"日本料理","address":"卢湾区自忠路338号新天地南里6号3楼(近马当路)"},{"poiid":"B2094753D76FAAFA449C","title":"上海滩国泰旗舰店","lon":"121.466011","lat":"31.216125","category":"249","category_name":"购物服务","address":"淮海中路868号"},{"poiid":"B209475CD564A7F84292","title":"上海滩新天地店","lon":"121.47463","lat":"31.22164","category":"119","category_name":"商场","address":"\"太仓路181弄新天地北里15号\r\n\""},{"poiid":"B209475CD564A7F8439E","title":"上海滩中信泰富店","lon":"121.45602","lat":"31.22851","category":"119","category_name":"商场","address":"\"南京西路1168号中信泰富广场，店铺号221.\r\n\""},{"poiid":"B2094757D06EAAFA4493","title":"UME国际影城（新天地店）","lon":"121.475131983","lat":"31.2193528916","category":"178","category_name":"电影院","address":"上海卢湾区兴业路123弄新天地南里6号5楼(近马当路)"},{"poiid":"B2094757D06AA1FE4599","title":"新天地","lon":"121.475463","lat":"31.21941","category":"260","category_name":"其他","address":"卢湾区太仓路181弄新天地北里内"},{"poiid":"B2094654DB64AAFE4393","title":"Pizza Marzano(新天地店)","lon":"121.47557","lat":"31.21932","category":"68","category_name":"快餐厅","address":"卢湾区黄陂南路380号(近兴业路)"},{"poiid":"B2094757D06EAAF8489C","title":"鼎泰丰(新天地店)","lon":"121.474870817","lat":"31.2190067707","category":"68","category_name":"快餐厅","address":"卢湾区兴业路123弄新天地广场南里6号楼2楼11A单元(近马当路)"},{"poiid":"B2094757D06FA2FD4198","title":"godiva café","lon":"121.47528839","lat":"31.21899414","category":"260","category_name":"其他","address":"卢湾区自忠路338号新天地南里5号106号Godiva2楼(近马当路)"},{"poiid":"B2094757D06EABF54693","title":"STAYREAL(新天地店)","lon":"121.4748631","lat":"31.2170296","category":"141","category_name":"服装鞋帽皮具店","address":"上海市马当路245号新天地时尚B101-B102"},{"poiid":"B2094757D06FA2FD419A","title":"CJW爵士酒吧","lon":"121.475242615","lat":"31.2192897797","category":"260","category_name":"其他","address":"卢湾区兴业路123弄新天地南里2号4单元(近马当路)"},{"poiid":"B2094654DB6BA4FA409B","title":"翡翠酒家(新天地店)","lon":"121.47504","lat":"31.21888","category":"72","category_name":"广东菜","address":"卢湾区兴业路123弄新天地南里6-7号2楼(近马当路)"},{"poiid":"B2094757D06FABFD4393","title":"新天地太平湖","lon":"121.47574439","lat":"31.219562847","category":"500","category_name":"未知分类","address":"上海湖滨路222号"},{"poiid":"B2094757D06FA1FE4598","title":"小南国(新天地店)","lon":"121.47489","lat":"31.21927","category":"76","category_name":"上海菜","address":"卢湾区兴业路123弄新天地南里商场2楼(近马当路)"},{"poiid":"B2094757D069A5FD449C","title":"米高餐厅","lon":"121.475007054","lat":"31.219595793","category":"72","category_name":"广东菜","address":"卢湾区兴业路123弄新天地南里6号楼3楼(近马当路)"},{"poiid":"B2094757D56DA2F5469A","title":"新天地G 酒吧","lon":"121.474958738","lat":"31.2194850711","category":"172","category_name":"酒吧","address":"上海新天地"},{"poiid":"B2094757D06BA7FF469C","title":"新天地 Luna","lon":"121.475423658","lat":"31.218935574","category":"500","category_name":"未知分类","address":"上海市黄浦区延安高架路"},{"poiid":"B2094757D06FA1FE449D","title":"赤坂亭(新天地店)","lon":"121.47503","lat":"31.2198","category":"269","category_name":"烧烤","address":"卢湾区兴业路123弄新天地南里广场6号3楼(近马当路)"},{"poiid":"B2094750D66EA5FF4192","title":"新天地。猫的天空之城","lon":"121.474761","lat":"31.218126","category":"247","category_name":"餐饮美食","address":null},{"poiid":"B2094757D06FAAF54292","title":"新天地时尚中庭","lon":"121.474863","lat":"31.21703","category":"119","category_name":"商场","address":"上海卢湾区马当路245号"},{"poiid":"B2094757D068A2F84192","title":"丰和日丽","lon":"121.474841738","lat":"31.2194980714","category":"76","category_name":"上海菜","address":"卢湾区自忠路338号新天地南里6号3楼(近马当路)"},{"poiid":"B2094654DB64AAF44398","title":"锅德港式极品肥牛海鲜火锅 新天地店 Good  Hotpot","lon":"121.47531915384","lat":"31.218654115544","category":"86","category_name":"火锅店","address":"卢湾区自忠路338号新天地南里1楼(近黄陂南路)"},{"poiid":"B2094757D06EAAF9439C","title":"Afternoon Tea 新天地店","lon":"121.475007054","lat":"31.219595793","category":"94","category_name":"西餐厅","address":"卢湾区兴业路123弄6-7号楼新天地南里商场3楼(近马当路)"},{"poiid":"B2094751D26DA3FB469A","title":"摩罗街","lon":"121.47544","lat":"31.219779","category":"72","category_name":"广东菜","address":"卢湾区兴业路123弄新天地南里6号3楼"},{"poiid":"B2094757D06FA6F5499C","title":"翠湖天地御苑","lon":"121.47715","lat":"31.21806","category":"47","category_name":"住宅区","address":"黄浦区东门路168号2楼252号(近中华路豫园)"},{"poiid":"B2094757D06AA6FF4292","title":"Lind琳德烘焙(新天地店)","lon":"121.475593658","lat":"31.2190605735","category":"112","category_name":"糕饼店","address":"卢湾区兴业路123弄新天地南里5号104室(近马当路)"},{"poiid":"B2094757D069A7FC459A","title":"Latina(新天地店)","lon":"121.47511273","lat":"31.219655074","category":"500","category_name":"未知分类","address":"上海市卢湾区淮海中路"},{"poiid":"B2094753D76DA0FD4893","title":"查厘士港式餐厅","lon":"121.475654","lat":"31.220012","category":"247","category_name":"餐饮美食","address":"上海市 淮海中路438号4F"},{"poiid":"B2094750D26EABFB4093","title":"庄源 La Finca","lon":"121.47557176192","lat":"31.219692862031","category":"100","category_name":"地中海风格菜品","address":"卢湾区黄陂南路373号(近兴业路)"},{"poiid":"B2094750DA6AA6FE499B","title":"STAGE-上海新天地","lon":"121.475151","lat":"31.217338","category":"249","category_name":"购物服务","address":null},{"poiid":"B2094757D66AA5FC419D","title":"吴记老锅底麻辣火锅 黄陂南路店","lon":"121.47667530833","lat":"31.216400943765","category":"86","category_name":"火锅店","address":"卢湾区黄陂南路577号(复兴中路合肥路间)"},{"poiid":"B2094757D465A7FE4498","title":"Fame卡拉OK会所 Fame","lon":"121.475007054","lat":"31.219595793","category":"247","category_name":"餐饮美食","address":"卢湾区兴业路123弄新天地南里商场3楼(近马当路)"},{"poiid":"B2094757D06FA6F8469C","title":"香港采蝶轩","lon":"121.47579","lat":"31.21958","category":"72","category_name":"广东菜","address":"卢湾区兴业路123弄新天地南里2号楼(近马当路)"},{"poiid":"B2094757D468A0FB499C","title":"香啡缤 新天地时尚店","lon":"121.474843","lat":"31.2171292","category":"260","category_name":"其他","address":"卢湾区马当路245号新天地时尚购物广场B129a室(近复兴中路)"},{"poiid":"B2094757D069A0F84393","title":"新天地Fame KTV","lon":"121.47507559","lat":"31.219313547","category":"170","category_name":"KTV","address":"上海卢湾区马当路123号（近兴业路）"},{"poiid":"B2094757D06AA0FD4092","title":"Urban Soup Kitchen","lon":"121.47502","lat":"31.21742","category":"94","category_name":"西餐厅","address":"卢湾区马当路280号(近自忠路)"},{"poiid":"B2094757D06FA7F5409A","title":"全洲超市","lon":"121.474375658","lat":"31.2190575772","category":"118","category_name":"超级市场","address":"卢湾区马当路222弄1-6号B1楼(近自忠路)"},{"poiid":"B2094757D66AA0F5439E","title":"乐园石头烧餐厅酒廊 Paradise Stonegrill","lon":"121.475007054","lat":"31.219595793","category":"172","category_name":"酒吧","address":"卢湾区兴业路123弄新天地南里5号楼1楼5单元(近马当路)"},{"poiid":"B2094757D069A0F54699","title":"Yogo Juice(新天地店)","lon":"121.47470973","lat":"31.217293024","category":"113","category_name":"冷饮店","address":"卢湾区马当路245号新天地时尚购物广场B128室(近复兴中路)"},{"poiid":"B2094757D568A2F9489F","title":"湖庭","lon":"121.4757531","lat":"31.21993194","category":"74","category_name":"江苏菜","address":"卢湾区黄陂南路383号(兴业路口)"},{"poiid":"B2094757D16FA4FC4993","title":"Berry bear 贝瑞熊酸奶冰激淋","lon":"121.475104738","lat":"31.219336068","category":"113","category_name":"冷饮店","address":"上海市浦东新区芳甸路1155号嘉里城B层"},{"poiid":"B2094757D068A7F8489D","title":"全州广场日本超市","lon":"121.47435","lat":"31.21843","category":"118","category_name":"超级市场","address":"上海卢湾区马当路222弄1-6号全州广场B1楼(近自忠路)"},{"poiid":"B2094757D069A4FC499B","title":"真的好海鲜餐厅(新天地店)","lon":"121.47488","lat":"31.21967","category":"260","category_name":"其他","address":"卢湾区兴业路123弄新天地广场南里1号楼(近马当路)"},{"poiid":"B2094655D26EA5FD4098","title":"STELLA LUNA(新天地店)","lon":"121.47482","lat":"31.21864","category":"247","category_name":"餐饮美食","address":"卢湾区兴业路123弄6号楼2楼19单元"},{"poiid":"B2094654DA6EABF5449A","title":"太平桥公园","lon":"121.47679","lat":"31.2197","category":"196","category_name":"公园","address":"淮海中路"},{"poiid":"B2094752D165A0FC4099","title":"猫的天空之城新天地店","lon":"121.474701","lat":"31.218201","category":"248","category_name":"生活娱乐","address":"上海黄浦区马当路245号上海新天地时尚B112"},{"poiid":"B2094750D565A2F8489E","title":"庄源 喜娜","lon":"121.475532","lat":"31.220149","category":"247","category_name":"餐饮美食","address":"卢湾区黄陂南路373号(近兴业路)"},{"poiid":"B209475CD26FA5F8489B","title":"一人前寿司专门店","lon":"121.474746","lat":"31.217882","category":"500","category_name":"未知分类","address":"上海市 马当路245号新天地时尚地下一层129室"}]