[{"poiid":"B2094757D06FA4F5469B","title":"阳光绿洲生态酒店","lon":"121.240118","lat":"31.0294","category":"76","category_name":"上海菜","address":"松江区通波路50号(近思贤路)"},{"poiid":"B2094757D06FA0F94599","title":"沪松公路农家乐","lon":"121.25937","lat":"31.03747","category":"257","category_name":"中餐厅","address":"松江区沪松公路6351号(近茸平路)"},{"poiid":"B2094655D26BA2FB439E","title":"松江新城地铁站","lon":"121.23194","lat":"31.02848","category":"36","category_name":"地铁站","address":"上海轨道交通 九号线 轨交松江新城站 9"},{"poiid":"B2094757DB6DA5F84793","title":"上海锦丰国际大酒店","lon":"121.246227622","lat":"31.035910179","category":"76","category_name":"上海菜","address":"松江区茸梅路237号锦丰国际大酒店内(近茸平路)"},{"poiid":"B2094757D068ABFE4099","title":"榕港海鲜大酒楼(松江店)","lon":"121.23506","lat":"31.03308","category":"88","category_name":"海鲜酒楼","address":"松江区谷阳北路1425弄88号(谷阳北路南青路)"},{"poiid":"B2094655D26AA0FA4592","title":"地铁松江新城站","lon":"121.23099","lat":"31.03072","category":"36","category_name":"地铁站","address":""},{"poiid":"B2094654DB64A1F44599","title":"中山广场","lon":"121.24704","lat":"31.03328","category":"201","category_name":"城市广场","address":"松江区茸梅路288弄"},{"poiid":"B2094654DB6DA4FE4398","title":"茸平苑","lon":"121.24386","lat":"31.037045","category":"47","category_name":"住宅区","address":"茸平路288弄"},{"poiid":"B2094655D36CA2F94893","title":"茸平路","lon":"121.24531","lat":"31.03539","category":"38","category_name":"公交车站","address":"上海市松江区茸平路12号(近沪松公路)"},{"poiid":"B2094757D568ABF44098","title":"哈里欧咖啡(茸梅路店)","lon":"121.246212","lat":"31.036325","category":"65","category_name":"咖啡厅","address":"茸梅路227号"},{"poiid":"B2094757D164A2FC429A","title":"上海外国语大学西外外国语学校","lon":"121.23489246","lat":"31.042756779","category":"500","category_name":"未知分类","address":"松江区文翔路1100号"},{"poiid":"B2094654DB6EA2F4469A","title":"裕盛豪园","lon":"121.244305","lat":"31.038462","category":"47","category_name":"住宅区","address":"上海市松江区谷阳北路166号"},{"poiid":"B2094757D665A3FC4098","title":"四海游龙 茸梅路店","lon":"121.24636","lat":"31.03946","category":"68","category_name":"快餐厅","address":"松江区茸梅路(近格林豪泰松江新城店)"},{"poiid":"B2094655D26FA6F94392","title":"格林豪泰酒店(松江新城店)","lon":"121.24644","lat":"31.03144","category":"216","category_name":"经济型连锁酒店","address":"松江区茸梅路215号(近茸平路)"},{"poiid":"B2094757D16DA2FB4998","title":"云峰大众4S","lon":"121.25114656","lat":"31.033345822","category":"500","category_name":"未知分类","address":"上海松江区茸兴路128号"},{"poiid":"B2094757D165AAF4459E","title":"上海市松江区中山街道办事处","lon":"121.245564","lat":"31.035541","category":"500","category_name":"未知分类","address":"上海市松江区茸平路"},{"poiid":"B2094654DB6DA4FE469A","title":"科邦工业园(茸北路)","lon":"121.24421","lat":"31.03952","category":"45","category_name":"产业园区","address":"茸北路333弄1-10号"},{"poiid":"B2094654DB69A7FA449A","title":"茸梅新村","lon":"121.2464","lat":"31.03542","category":"47","category_name":"住宅区","address":"松江区松江茸梅路155号"},{"poiid":"B2094654DB6DA4F54799","title":"上海科邦办公楼","lon":"121.24422","lat":"31.03952","category":"46","category_name":"楼宇","address":"茸北路333弄1-10号"},{"poiid":"B2094654DB64A1F4439B","title":"茸平苑(西门)","lon":"121.24273","lat":"31.03635","category":"47","category_name":"住宅区","address":""},{"poiid":"B2094654DB6EA2F4449A","title":"永翔大厦","lon":"121.242","lat":"31.0398","category":"46","category_name":"楼宇","address":"谷阳北路1500"},{"poiid":"B2094655D36CA2F9489E","title":"茸梅路","lon":"121.24674","lat":"31.03121","category":"38","category_name":"公交车站","address":""},{"poiid":"B2094654DB6EA2FB469C","title":"松江商业广场","lon":"121.241","lat":"31.0384","category":"119","category_name":"商场","address":"翔峰路371弄"},{"poiid":"B2094654DB6DA4FF439F","title":"茸一中学","lon":"121.24462","lat":"31.03212","category":"55","category_name":"中学","address":"松江区茸北镇五昆路268号"},{"poiid":"B2094757D06AA0FB459E","title":"迪豪小田园酒店","lon":"121.23508","lat":"31.02609","category":"75","category_name":"浙江菜","address":"松江区谷阳北路1027号(近思贤路)"},{"poiid":"B2094654DB6EA2F4449B","title":"名庭花苑","lon":"121.24","lat":"31.0444","category":"47","category_name":"住宅区","address":"上海市松江区新松江路259弄"},{"poiid":"B2094757D16FA2F44599","title":"大江苑","lon":"121.24307251","lat":"31.0285453796","category":"500","category_name":"未知分类","address":"上海市松江区茸龙路257弄"},{"poiid":"B2094654DB6EA2F4439E","title":"东其昌酒家","lon":"121.23316","lat":"31.03389","category":"76","category_name":"上海菜","address":"松江区松江谷阳北路371弄100号(南青路通跃路)"},{"poiid":"B2094654DB6DA4FF419F","title":"茸北农贸市场","lon":"121.24649","lat":"31.0335","category":"117","category_name":"便民商店/便利店","address":""},{"poiid":"B2094655D36CA3FD469A","title":"水岸华庭","lon":"121.23968","lat":"31.03407","category":"47","category_name":"住宅区","address":"上海市松江区通波路"},{"poiid":"B2094655D26FA4FB419E","title":"皇骐爱丽苑","lon":"121.237765","lat":"31.0375","category":"47","category_name":"住宅区","address":""},{"poiid":"B2094757D468A4FD439B","title":"富春江山里人家","lon":"121.2434284","lat":"31.0254068","category":"76","category_name":"上海菜","address":"松江区沪松路219号"},{"poiid":"B2094757D16CA3FD469C","title":"友福咖啡","lon":"121.2347618","lat":"31.0387261","category":"260","category_name":"其他","address":"松江区新松江路265号(近开元地中海)"},{"poiid":"B2094655D26BA2FF489D","title":"通波路茸平路","lon":"121.23978","lat":"31.03642","category":"38","category_name":"公交车站","address":""},{"poiid":"B2094654DB6DA4F4489C","title":"松云水苑","lon":"121.23747","lat":"31.044041","category":"47","category_name":"住宅区","address":"文翔路928弄"},{"poiid":"B2094752D465A0F4499F","title":"上海话剧艺术中心","lon":"121.238739","lat":"31.036697","category":"248","category_name":"生活娱乐","address":"安福路288号"},{"poiid":"B2094757D16AA1FA4699","title":"蜀娱养生香辣馆","lon":"121.239880767","lat":"31.0381982788","category":"247","category_name":"餐饮美食","address":"上海新松江路开元地中海广场1-096a号"},{"poiid":"B2094654DB6EA2F4459B","title":"华东师范大学松江实验中学","lon":"121.23752","lat":"31.03525","category":"55","category_name":"中学","address":"南青路100"},{"poiid":"B2094757D16CA1F9499D","title":"天萌羽毛球馆","lon":"121.250976793","lat":"31.048601684","category":"500","category_name":"未知分类","address":"松江区茸阳路250号(近茸兴路)"},{"poiid":"B2094654DB65AAF44498","title":"松江区茸北中学","lon":"121.24463","lat":"31.03192","category":"55","category_name":"中学","address":"松江区茸北镇五龙村"},{"poiid":"B2094654DB6EA2F44593","title":"永翔商业","lon":"121.2357","lat":"31.03316","category":"119","category_name":"商场","address":"松江区谷阳北路1470弄1号"},{"poiid":"B2094654DB6EA2F4459A","title":"华东师范大学松江实验中学2号门","lon":"121.23905","lat":"31.03637","category":"55","category_name":"中学","address":""},{"poiid":"B2094757D16DA6FA459B","title":"建设花园","lon":"121.23701","lat":"31.030113","category":"47","category_name":"住宅区","address":"上海市浦东新区龙东大道路3988弄"},{"poiid":"B2094654DB6DA4F5459D","title":"中国农业银行松江区中山支行","lon":"121.24698","lat":"31.03322","category":"150","category_name":"银行","address":"松江区茸北镇茸梅路288弄1-2号"},{"poiid":"B2094655D268A3F5409E","title":"松江区气象科普馆","lon":"121.23834","lat":"31.03495","category":"186","category_name":"科技馆","address":"南青路8"},{"poiid":"B2094757D16DABF9469D","title":"外门山足浴城","lon":"121.236618042","lat":"31.0363769531","category":"148","category_name":"美容美发店","address":"松江区西林北路(近北翠路)"},{"poiid":"B2094655D264A5FA469E","title":"恒杰商务广场","lon":"121.23822","lat":"31.03877","category":"46","category_name":"楼宇","address":"新松江路100号"},{"poiid":"B2094655D26DA6FD459B","title":"文景苑","lon":"121.2337","lat":"31.040943","category":"47","category_name":"住宅区","address":"上海市松江区文翔路1099弄"},{"poiid":"B2094757D068A3F5489C","title":"肯德基 KFC (松江新城店)","lon":"121.231486524","lat":"31.0362641114","category":"68","category_name":"快餐厅","address":"上海新松江路935号"},{"poiid":"B2094757D06AA4F4499A","title":"祥和花苑","lon":"121.23698","lat":"31.026249","category":"47","category_name":"住宅区","address":"上海市松江区谷阳北路1066弄"},{"poiid":"B2094757D06FA4F5469B","title":"阳光绿洲生态酒店","lon":"121.240118","lat":"31.0294","category":"76","category_name":"上海菜","address":"松江区通波路50号(近思贤路)"},{"poiid":"B2094757D06FA0F94599","title":"沪松公路农家乐","lon":"121.25937","lat":"31.03747","category":"257","category_name":"中餐厅","address":"松江区沪松公路6351号(近茸平路)"},{"poiid":"B2094655D26BA2FB439E","title":"松江新城地铁站","lon":"121.23194","lat":"31.02848","category":"36","category_name":"地铁站","address":"上海轨道交通 九号线 轨交松江新城站 9"},{"poiid":"B2094757DB6DA5F84793","title":"上海锦丰国际大酒店","lon":"121.246227622","lat":"31.035910179","category":"76","category_name":"上海菜","address":"松江区茸梅路237号锦丰国际大酒店内(近茸平路)"},{"poiid":"B2094757D068ABFE4099","title":"榕港海鲜大酒楼(松江店)","lon":"121.23506","lat":"31.03308","category":"88","category_name":"海鲜酒楼","address":"松江区谷阳北路1425弄88号(谷阳北路南青路)"},{"poiid":"B2094655D26AA0FA4592","title":"地铁松江新城站","lon":"121.23099","lat":"31.03072","category":"36","category_name":"地铁站","address":""},{"poiid":"B2094654DB64A1F44599","title":"中山广场","lon":"121.24704","lat":"31.03328","category":"201","category_name":"城市广场","address":"松江区茸梅路288弄"},{"poiid":"B2094654DB6DA4FE4398","title":"茸平苑","lon":"121.24386","lat":"31.037045","category":"47","category_name":"住宅区","address":"茸平路288弄"},{"poiid":"B2094655D36CA2F94893","title":"茸平路","lon":"121.24531","lat":"31.03539","category":"38","category_name":"公交车站","address":"上海市松江区茸平路12号(近沪松公路)"},{"poiid":"B2094757D568ABF44098","title":"哈里欧咖啡(茸梅路店)","lon":"121.246212","lat":"31.036325","category":"65","category_name":"咖啡厅","address":"茸梅路227号"},{"poiid":"B2094757D164A2FC429A","title":"上海外国语大学西外外国语学校","lon":"121.23489246","lat":"31.042756779","category":"500","category_name":"未知分类","address":"松江区文翔路1100号"},{"poiid":"B2094654DB6EA2F4469A","title":"裕盛豪园","lon":"121.244305","lat":"31.038462","category":"47","category_name":"住宅区","address":"上海市松江区谷阳北路166号"},{"poiid":"B2094757D665A3FC4098","title":"四海游龙 茸梅路店","lon":"121.24636","lat":"31.03946","category":"68","category_name":"快餐厅","address":"松江区茸梅路(近格林豪泰松江新城店)"},{"poiid":"B2094655D26FA6F94392","title":"格林豪泰酒店(松江新城店)","lon":"121.24644","lat":"31.03144","category":"216","category_name":"经济型连锁酒店","address":"松江区茸梅路215号(近茸平路)"},{"poiid":"B2094757D16DA2FB4998","title":"云峰大众4S","lon":"121.25114656","lat":"31.033345822","category":"500","category_name":"未知分类","address":"上海松江区茸兴路128号"},{"poiid":"B2094757D165AAF4459E","title":"上海市松江区中山街道办事处","lon":"121.245564","lat":"31.035541","category":"500","category_name":"未知分类","address":"上海市松江区茸平路"},{"poiid":"B2094654DB6DA4FE469A","title":"科邦工业园(茸北路)","lon":"121.24421","lat":"31.03952","category":"45","category_name":"产业园区","address":"茸北路333弄1-10号"},{"poiid":"B2094654DB69A7FA449A","title":"茸梅新村","lon":"121.2464","lat":"31.03542","category":"47","category_name":"住宅区","address":"松江区松江茸梅路155号"},{"poiid":"B2094654DB6DA4F54799","title":"上海科邦办公楼","lon":"121.24422","lat":"31.03952","category":"46","category_name":"楼宇","address":"茸北路333弄1-10号"},{"poiid":"B2094654DB64A1F4439B","title":"茸平苑(西门)","lon":"121.24273","lat":"31.03635","category":"47","category_name":"住宅区","address":""},{"poiid":"B2094654DB6EA2F4449A","title":"永翔大厦","lon":"121.242","lat":"31.0398","category":"46","category_name":"楼宇","address":"谷阳北路1500"},{"poiid":"B2094655D36CA2F9489E","title":"茸梅路","lon":"121.24674","lat":"31.03121","category":"38","category_name":"公交车站","address":""},{"poiid":"B2094654DB6EA2FB469C","title":"松江商业广场","lon":"121.241","lat":"31.0384","category":"119","category_name":"商场","address":"翔峰路371弄"},{"poiid":"B2094654DB6DA4FF439F","title":"茸一中学","lon":"121.24462","lat":"31.03212","category":"55","category_name":"中学","address":"松江区茸北镇五昆路268号"},{"poiid":"B2094757D06AA0FB459E","title":"迪豪小田园酒店","lon":"121.23508","lat":"31.02609","category":"75","category_name":"浙江菜","address":"松江区谷阳北路1027号(近思贤路)"},{"poiid":"B2094654DB6EA2F4449B","title":"名庭花苑","lon":"121.24","lat":"31.0444","category":"47","category_name":"住宅区","address":"上海市松江区新松江路259弄"},{"poiid":"B2094757D16FA2F44599","title":"大江苑","lon":"121.24307251","lat":"31.0285453796","category":"500","category_name":"未知分类","address":"上海市松江区茸龙路257弄"},{"poiid":"B2094654DB6EA2F4439E","title":"东其昌酒家","lon":"121.23316","lat":"31.03389","category":"76","category_name":"上海菜","address":"松江区松江谷阳北路371弄100号(南青路通跃路)"},{"poiid":"B2094654DB6DA4FF419F","title":"茸北农贸市场","lon":"121.24649","lat":"31.0335","category":"117","category_name":"便民商店/便利店","address":""},{"poiid":"B2094655D36CA3FD469A","title":"水岸华庭","lon":"121.23968","lat":"31.03407","category":"47","category_name":"住宅区","address":"上海市松江区通波路"},{"poiid":"B2094655D26FA4FB419E","title":"皇骐爱丽苑","lon":"121.237765","lat":"31.0375","category":"47","category_name":"住宅区","address":""},{"poiid":"B2094757D468A4FD439B","title":"富春江山里人家","lon":"121.2434284","lat":"31.0254068","category":"76","category_name":"上海菜","address":"松江区沪松路219号"},{"poiid":"B2094757D16CA3FD469C","title":"友福咖啡","lon":"121.2347618","lat":"31.0387261","category":"260","category_name":"其他","address":"松江区新松江路265号(近开元地中海)"},{"poiid":"B2094655D26BA2FF489D","title":"通波路茸平路","lon":"121.23978","lat":"31.03642","category":"38","category_name":"公交车站","address":""},{"poiid":"B2094654DB6DA4F4489C","title":"松云水苑","lon":"121.23747","lat":"31.044041","category":"47","category_name":"住宅区","address":"文翔路928弄"},{"poiid":"B2094752D465A0F4499F","title":"上海话剧艺术中心","lon":"121.238739","lat":"31.036697","category":"248","category_name":"生活娱乐","address":"安福路288号"},{"poiid":"B2094757D16AA1FA4699","title":"蜀娱养生香辣馆","lon":"121.239880767","lat":"31.0381982788","category":"247","category_name":"餐饮美食","address":"上海新松江路开元地中海广场1-096a号"},{"poiid":"B2094654DB6EA2F4459B","title":"华东师范大学松江实验中学","lon":"121.23752","lat":"31.03525","category":"55","category_name":"中学","address":"南青路100"},{"poiid":"B2094757D16CA1F9499D","title":"天萌羽毛球馆","lon":"121.250976793","lat":"31.048601684","category":"500","category_name":"未知分类","address":"松江区茸阳路250号(近茸兴路)"},{"poiid":"B2094654DB65AAF44498","title":"松江区茸北中学","lon":"121.24463","lat":"31.03192","category":"55","category_name":"中学","address":"松江区茸北镇五龙村"},{"poiid":"B2094654DB6EA2F44593","title":"永翔商业","lon":"121.2357","lat":"31.03316","category":"119","category_name":"商场","address":"松江区谷阳北路1470弄1号"},{"poiid":"B2094654DB6EA2F4459A","title":"华东师范大学松江实验中学2号门","lon":"121.23905","lat":"31.03637","category":"55","category_name":"中学","address":""},{"poiid":"B2094757D16DA6FA459B","title":"建设花园","lon":"121.23701","lat":"31.030113","category":"47","category_name":"住宅区","address":"上海市浦东新区龙东大道路3988弄"},{"poiid":"B2094654DB6DA4F5459D","title":"中国农业银行松江区中山支行","lon":"121.24698","lat":"31.03322","category":"150","category_name":"银行","address":"松江区茸北镇茸梅路288弄1-2号"},{"poiid":"B2094655D268A3F5409E","title":"松江区气象科普馆","lon":"121.23834","lat":"31.03495","category":"186","category_name":"科技馆","address":"南青路8"},{"poiid":"B2094757D16DABF9469D","title":"外门山足浴城","lon":"121.236618042","lat":"31.0363769531","category":"148","category_name":"美容美发店","address":"松江区西林北路(近北翠路)"},{"poiid":"B2094655D264A5FA469E","title":"恒杰商务广场","lon":"121.23822","lat":"31.03877","category":"46","category_name":"楼宇","address":"新松江路100号"},{"poiid":"B2094655D26DA6FD459B","title":"文景苑","lon":"121.2337","lat":"31.040943","category":"47","category_name":"住宅区","address":"上海市松江区文翔路1099弄"},{"poiid":"B2094757D068A3F5489C","title":"肯德基 KFC (松江新城店)","lon":"121.231486524","lat":"31.0362641114","category":"68","category_name":"快餐厅","address":"上海新松江路935号"},{"poiid":"B2094757D06AA4F4499A","title":"祥和花苑","lon":"121.23698","lat":"31.026249","category":"47","category_name":"住宅区","address":"上海市松江区谷阳北路1066弄"},{"poiid":"B2094757D06FA4F5469B","title":"阳光绿洲生态酒店","lon":"121.240118","lat":"31.0294","category":"76","category_name":"上海菜","address":"松江区通波路50号(近思贤路)"},{"poiid":"B2094757D06FA0F94599","title":"沪松公路农家乐","lon":"121.25937","lat":"31.03747","category":"257","category_name":"中餐厅","address":"松江区沪松公路6351号(近茸平路)"},{"poiid":"B2094655D26BA2FB439E","title":"松江新城地铁站","lon":"121.23194","lat":"31.02848","category":"36","category_name":"地铁站","address":"上海轨道交通 九号线 轨交松江新城站 9"},{"poiid":"B2094757DB6DA5F84793","title":"上海锦丰国际大酒店","lon":"121.246227622","lat":"31.035910179","category":"76","category_name":"上海菜","address":"松江区茸梅路237号锦丰国际大酒店内(近茸平路)"},{"poiid":"B2094757D068ABFE4099","title":"榕港海鲜大酒楼(松江店)","lon":"121.23506","lat":"31.03308","category":"88","category_name":"海鲜酒楼","address":"松江区谷阳北路1425弄88号(谷阳北路南青路)"},{"poiid":"B2094655D26AA0FA4592","title":"地铁松江新城站","lon":"121.23099","lat":"31.03072","category":"36","category_name":"地铁站","address":""},{"poiid":"B2094654DB64A1F44599","title":"中山广场","lon":"121.24704","lat":"31.03328","category":"201","category_name":"城市广场","address":"松江区茸梅路288弄"},{"poiid":"B2094654DB6DA4FE4398","title":"茸平苑","lon":"121.24386","lat":"31.037045","category":"47","category_name":"住宅区","address":"茸平路288弄"},{"poiid":"B2094655D36CA2F94893","title":"茸平路","lon":"121.24531","lat":"31.03539","category":"38","category_name":"公交车站","address":"上海市松江区茸平路12号(近沪松公路)"},{"poiid":"B2094757D568ABF44098","title":"哈里欧咖啡(茸梅路店)","lon":"121.246212","lat":"31.036325","category":"65","category_name":"咖啡厅","address":"茸梅路227号"},{"poiid":"B2094757D164A2FC429A","title":"上海外国语大学西外外国语学校","lon":"121.23489246","lat":"31.042756779","category":"500","category_name":"未知分类","address":"松江区文翔路1100号"},{"poiid":"B2094654DB6EA2F4469A","title":"裕盛豪园","lon":"121.244305","lat":"31.038462","category":"47","category_name":"住宅区","address":"上海市松江区谷阳北路166号"},{"poiid":"B2094757D665A3FC4098","title":"四海游龙 茸梅路店","lon":"121.24636","lat":"31.03946","category":"68","category_name":"快餐厅","address":"松江区茸梅路(近格林豪泰松江新城店)"},{"poiid":"B2094655D26FA6F94392","title":"格林豪泰酒店(松江新城店)","lon":"121.24644","lat":"31.03144","category":"216","category_name":"经济型连锁酒店","address":"松江区茸梅路215号(近茸平路)"},{"poiid":"B2094757D16DA2FB4998","title":"云峰大众4S","lon":"121.25114656","lat":"31.033345822","category":"500","category_name":"未知分类","address":"上海松江区茸兴路128号"},{"poiid":"B2094757D165AAF4459E","title":"上海市松江区中山街道办事处","lon":"121.245564","lat":"31.035541","category":"500","category_name":"未知分类","address":"上海市松江区茸平路"},{"poiid":"B2094654DB6DA4FE469A","title":"科邦工业园(茸北路)","lon":"121.24421","lat":"31.03952","category":"45","category_name":"产业园区","address":"茸北路333弄1-10号"},{"poiid":"B2094654DB69A7FA449A","title":"茸梅新村","lon":"121.2464","lat":"31.03542","category":"47","category_name":"住宅区","address":"松江区松江茸梅路155号"},{"poiid":"B2094654DB6DA4F54799","title":"上海科邦办公楼","lon":"121.24422","lat":"31.03952","category":"46","category_name":"楼宇","address":"茸北路333弄1-10号"},{"poiid":"B2094654DB64A1F4439B","title":"茸平苑(西门)","lon":"121.24273","lat":"31.03635","category":"47","category_name":"住宅区","address":""},{"poiid":"B2094654DB6EA2F4449A","title":"永翔大厦","lon":"121.242","lat":"31.0398","category":"46","category_name":"楼宇","address":"谷阳北路1500"},{"poiid":"B2094655D36CA2F9489E","title":"茸梅路","lon":"121.24674","lat":"31.03121","category":"38","category_name":"公交车站","address":""},{"poiid":"B2094654DB6EA2FB469C","title":"松江商业广场","lon":"121.241","lat":"31.0384","category":"119","category_name":"商场","address":"翔峰路371弄"},{"poiid":"B2094654DB6DA4FF439F","title":"茸一中学","lon":"121.24462","lat":"31.03212","category":"55","category_name":"中学","address":"松江区茸北镇五昆路268号"},{"poiid":"B2094757D06AA0FB459E","title":"迪豪小田园酒店","lon":"121.23508","lat":"31.02609","category":"75","category_name":"浙江菜","address":"松江区谷阳北路1027号(近思贤路)"},{"poiid":"B2094654DB6EA2F4449B","title":"名庭花苑","lon":"121.24","lat":"31.0444","category":"47","category_name":"住宅区","address":"上海市松江区新松江路259弄"},{"poiid":"B2094757D16FA2F44599","title":"大江苑","lon":"121.24307251","lat":"31.0285453796","category":"500","category_name":"未知分类","address":"上海市松江区茸龙路257弄"},{"poiid":"B2094654DB6EA2F4439E","title":"东其昌酒家","lon":"121.23316","lat":"31.03389","category":"76","category_name":"上海菜","address":"松江区松江谷阳北路371弄100号(南青路通跃路)"},{"poiid":"B2094654DB6DA4FF419F","title":"茸北农贸市场","lon":"121.24649","lat":"31.0335","category":"117","category_name":"便民商店/便利店","address":""},{"poiid":"B2094655D36CA3FD469A","title":"水岸华庭","lon":"121.23968","lat":"31.03407","category":"47","category_name":"住宅区","address":"上海市松江区通波路"},{"poiid":"B2094655D26FA4FB419E","title":"皇骐爱丽苑","lon":"121.237765","lat":"31.0375","category":"47","category_name":"住宅区","address":""},{"poiid":"B2094757D468A4FD439B","title":"富春江山里人家","lon":"121.2434284","lat":"31.0254068","category":"76","category_name":"上海菜","address":"松江区沪松路219号"},{"poiid":"B2094757D16CA3FD469C","title":"友福咖啡","lon":"121.2347618","lat":"31.0387261","category":"260","category_name":"其他","address":"松江区新松江路265号(近开元地中海)"},{"poiid":"B2094655D26BA2FF489D","title":"通波路茸平路","lon":"121.23978","lat":"31.03642","category":"38","category_name":"公交车站","address":""},{"poiid":"B2094654DB6DA4F4489C","title":"松云水苑","lon":"121.23747","lat":"31.044041","category":"47","category_name":"住宅区","address":"文翔路928弄"},{"poiid":"B2094752D465A0F4499F","title":"上海话剧艺术中心","lon":"121.238739","lat":"31.036697","category":"248","category_name":"生活娱乐","address":"安福路288号"},{"poiid":"B2094757D16AA1FA4699","title":"蜀娱养生香辣馆","lon":"121.239880767","lat":"31.0381982788","category":"247","category_name":"餐饮美食","address":"上海新松江路开元地中海广场1-096a号"},{"poiid":"B2094654DB6EA2F4459B","title":"华东师范大学松江实验中学","lon":"121.23752","lat":"31.03525","category":"55","category_name":"中学","address":"南青路100"},{"poiid":"B2094757D16CA1F9499D","title":"天萌羽毛球馆","lon":"121.250976793","lat":"31.048601684","category":"500","category_name":"未知分类","address":"松江区茸阳路250号(近茸兴路)"},{"poiid":"B2094654DB65AAF44498","title":"松江区茸北中学","lon":"121.24463","lat":"31.03192","category":"55","category_name":"中学","address":"松江区茸北镇五龙村"},{"poiid":"B2094654DB6EA2F44593","title":"永翔商业","lon":"121.2357","lat":"31.03316","category":"119","category_name":"商场","address":"松江区谷阳北路1470弄1号"},{"poiid":"B2094654DB6EA2F4459A","title":"华东师范大学松江实验中学2号门","lon":"121.23905","lat":"31.03637","category":"55","category_name":"中学","address":""},{"poiid":"B2094757D16DA6FA459B","title":"建设花园","lon":"121.23701","lat":"31.030113","category":"47","category_name":"住宅区","address":"上海市浦东新区龙东大道路3988弄"},{"poiid":"B2094654DB6DA4F5459D","title":"中国农业银行松江区中山支行","lon":"121.24698","lat":"31.03322","category":"150","category_name":"银行","address":"松江区茸北镇茸梅路288弄1-2号"},{"poiid":"B2094655D268A3F5409E","title":"松江区气象科普馆","lon":"121.23834","lat":"31.03495","category":"186","category_name":"科技馆","address":"南青路8"},{"poiid":"B2094757D16DABF9469D","title":"外门山足浴城","lon":"121.236618042","lat":"31.0363769531","category":"148","category_name":"美容美发店","address":"松江区西林北路(近北翠路)"},{"poiid":"B2094655D264A5FA469E","title":"恒杰商务广场","lon":"121.23822","lat":"31.03877","category":"46","category_name":"楼宇","address":"新松江路100号"},{"poiid":"B2094655D26DA6FD459B","title":"文景苑","lon":"121.2337","lat":"31.040943","category":"47","category_name":"住宅区","address":"上海市松江区文翔路1099弄"},{"poiid":"B2094757D068A3F5489C","title":"肯德基 KFC (松江新城店)","lon":"121.231486524","lat":"31.0362641114","category":"68","category_name":"快餐厅","address":"上海新松江路935号"},{"poiid":"B2094757D06AA4F4499A","title":"祥和花苑","lon":"121.23698","lat":"31.026249","category":"47","category_name":"住宅区","address":"上海市松江区谷阳北路1066弄"},{"poiid":"B2094757D06FA4F5469B","title":"阳光绿洲生态酒店","lon":"121.240118","lat":"31.0294","category":"76","category_name":"上海菜","address":"松江区通波路50号(近思贤路)"},{"poiid":"B2094757D06FA0F94599","title":"沪松公路农家乐","lon":"121.25937","lat":"31.03747","category":"257","category_name":"中餐厅","address":"松江区沪松公路6351号(近茸平路)"},{"poiid":"B2094655D26BA2FB439E","title":"松江新城地铁站","lon":"121.23194","lat":"31.02848","category":"36","category_name":"地铁站","address":"上海轨道交通 九号线 轨交松江新城站 9"},{"poiid":"B2094757DB6DA5F84793","title":"上海锦丰国际大酒店","lon":"121.246227622","lat":"31.035910179","category":"76","category_name":"上海菜","address":"松江区茸梅路237号锦丰国际大酒店内(近茸平路)"},{"poiid":"B2094757D068ABFE4099","title":"榕港海鲜大酒楼(松江店)","lon":"121.23506","lat":"31.03308","category":"88","category_name":"海鲜酒楼","address":"松江区谷阳北路1425弄88号(谷阳北路南青路)"},{"poiid":"B2094655D26AA0FA4592","title":"地铁松江新城站","lon":"121.23099","lat":"31.03072","category":"36","category_name":"地铁站","address":""},{"poiid":"B2094654DB64A1F44599","title":"中山广场","lon":"121.24704","lat":"31.03328","category":"201","category_name":"城市广场","address":"松江区茸梅路288弄"},{"poiid":"B2094654DB6DA4FE4398","title":"茸平苑","lon":"121.24386","lat":"31.037045","category":"47","category_name":"住宅区","address":"茸平路288弄"},{"poiid":"B2094655D36CA2F94893","title":"茸平路","lon":"121.24531","lat":"31.03539","category":"38","category_name":"公交车站","address":"上海市松江区茸平路12号(近沪松公路)"},{"poiid":"B2094757D568ABF44098","title":"哈里欧咖啡(茸梅路店)","lon":"121.246212","lat":"31.036325","category":"65","category_name":"咖啡厅","address":"茸梅路227号"},{"poiid":"B2094757D164A2FC429A","title":"上海外国语大学西外外国语学校","lon":"121.23489246","lat":"31.042756779","category":"500","category_name":"未知分类","address":"松江区文翔路1100号"},{"poiid":"B2094654DB6EA2F4469A","title":"裕盛豪园","lon":"121.244305","lat":"31.038462","category":"47","category_name":"住宅区","address":"上海市松江区谷阳北路166号"},{"poiid":"B2094757D665A3FC4098","title":"四海游龙 茸梅路店","lon":"121.24636","lat":"31.03946","category":"68","category_name":"快餐厅","address":"松江区茸梅路(近格林豪泰松江新城店)"},{"poiid":"B2094655D26FA6F94392","title":"格林豪泰酒店(松江新城店)","lon":"121.24644","lat":"31.03144","category":"216","category_name":"经济型连锁酒店","address":"松江区茸梅路215号(近茸平路)"},{"poiid":"B2094757D16DA2FB4998","title":"云峰大众4S","lon":"121.25114656","lat":"31.033345822","category":"500","category_name":"未知分类","address":"上海松江区茸兴路128号"},{"poiid":"B2094757D165AAF4459E","title":"上海市松江区中山街道办事处","lon":"121.245564","lat":"31.035541","category":"500","category_name":"未知分类","address":"上海市松江区茸平路"},{"poiid":"B2094654DB6DA4FE469A","title":"科邦工业园(茸北路)","lon":"121.24421","lat":"31.03952","category":"45","category_name":"产业园区","address":"茸北路333弄1-10号"},{"poiid":"B2094654DB69A7FA449A","title":"茸梅新村","lon":"121.2464","lat":"31.03542","category":"47","category_name":"住宅区","address":"松江区松江茸梅路155号"},{"poiid":"B2094654DB6DA4F54799","title":"上海科邦办公楼","lon":"121.24422","lat":"31.03952","category":"46","category_name":"楼宇","address":"茸北路333弄1-10号"},{"poiid":"B2094654DB64A1F4439B","title":"茸平苑(西门)","lon":"121.24273","lat":"31.03635","category":"47","category_name":"住宅区","address":""},{"poiid":"B2094654DB6EA2F4449A","title":"永翔大厦","lon":"121.242","lat":"31.0398","category":"46","category_name":"楼宇","address":"谷阳北路1500"},{"poiid":"B2094655D36CA2F9489E","title":"茸梅路","lon":"121.24674","lat":"31.03121","category":"38","category_name":"公交车站","address":""},{"poiid":"B2094654DB6EA2FB469C","title":"松江商业广场","lon":"121.241","lat":"31.0384","category":"119","category_name":"商场","address":"翔峰路371弄"},{"poiid":"B2094654DB6DA4FF439F","title":"茸一中学","lon":"121.24462","lat":"31.03212","category":"55","category_name":"中学","address":"松江区茸北镇五昆路268号"},{"poiid":"B2094757D06AA0FB459E","title":"迪豪小田园酒店","lon":"121.23508","lat":"31.02609","category":"75","category_name":"浙江菜","address":"松江区谷阳北路1027号(近思贤路)"},{"poiid":"B2094654DB6EA2F4449B","title":"名庭花苑","lon":"121.24","lat":"31.0444","category":"47","category_name":"住宅区","address":"上海市松江区新松江路259弄"},{"poiid":"B2094757D16FA2F44599","title":"大江苑","lon":"121.24307251","lat":"31.0285453796","category":"500","category_name":"未知分类","address":"上海市松江区茸龙路257弄"},{"poiid":"B2094654DB6EA2F4439E","title":"东其昌酒家","lon":"121.23316","lat":"31.03389","category":"76","category_name":"上海菜","address":"松江区松江谷阳北路371弄100号(南青路通跃路)"},{"poiid":"B2094654DB6DA4FF419F","title":"茸北农贸市场","lon":"121.24649","lat":"31.0335","category":"117","category_name":"便民商店/便利店","address":""},{"poiid":"B2094655D36CA3FD469A","title":"水岸华庭","lon":"121.23968","lat":"31.03407","category":"47","category_name":"住宅区","address":"上海市松江区通波路"},{"poiid":"B2094655D26FA4FB419E","title":"皇骐爱丽苑","lon":"121.237765","lat":"31.0375","category":"47","category_name":"住宅区","address":""},{"poiid":"B2094757D468A4FD439B","title":"富春江山里人家","lon":"121.2434284","lat":"31.0254068","category":"76","category_name":"上海菜","address":"松江区沪松路219号"},{"poiid":"B2094757D16CA3FD469C","title":"友福咖啡","lon":"121.2347618","lat":"31.0387261","category":"260","category_name":"其他","address":"松江区新松江路265号(近开元地中海)"},{"poiid":"B2094655D26BA2FF489D","title":"通波路茸平路","lon":"121.23978","lat":"31.03642","category":"38","category_name":"公交车站","address":""},{"poiid":"B2094654DB6DA4F4489C","title":"松云水苑","lon":"121.23747","lat":"31.044041","category":"47","category_name":"住宅区","address":"文翔路928弄"},{"poiid":"B2094752D465A0F4499F","title":"上海话剧艺术中心","lon":"121.238739","lat":"31.036697","category":"248","category_name":"生活娱乐","address":"安福路288号"},{"poiid":"B2094757D16AA1FA4699","title":"蜀娱养生香辣馆","lon":"121.239880767","lat":"31.0381982788","category":"247","category_name":"餐饮美食","address":"上海新松江路开元地中海广场1-096a号"},{"poiid":"B2094654DB6EA2F4459B","title":"华东师范大学松江实验中学","lon":"121.23752","lat":"31.03525","category":"55","category_name":"中学","address":"南青路100"},{"poiid":"B2094757D16CA1F9499D","title":"天萌羽毛球馆","lon":"121.250976793","lat":"31.048601684","category":"500","category_name":"未知分类","address":"松江区茸阳路250号(近茸兴路)"},{"poiid":"B2094654DB65AAF44498","title":"松江区茸北中学","lon":"121.24463","lat":"31.03192","category":"55","category_name":"中学","address":"松江区茸北镇五龙村"},{"poiid":"B2094654DB6EA2F44593","title":"永翔商业","lon":"121.2357","lat":"31.03316","category":"119","category_name":"商场","address":"松江区谷阳北路1470弄1号"},{"poiid":"B2094654DB6EA2F4459A","title":"华东师范大学松江实验中学2号门","lon":"121.23905","lat":"31.03637","category":"55","category_name":"中学","address":""},{"poiid":"B2094757D16DA6FA459B","title":"建设花园","lon":"121.23701","lat":"31.030113","category":"47","category_name":"住宅区","address":"上海市浦东新区龙东大道路3988弄"},{"poiid":"B2094654DB6DA4F5459D","title":"中国农业银行松江区中山支行","lon":"121.24698","lat":"31.03322","category":"150","category_name":"银行","address":"松江区茸北镇茸梅路288弄1-2号"},{"poiid":"B2094655D268A3F5409E","title":"松江区气象科普馆","lon":"121.23834","lat":"31.03495","category":"186","category_name":"科技馆","address":"南青路8"},{"poiid":"B2094757D16DABF9469D","title":"外门山足浴城","lon":"121.236618042","lat":"31.0363769531","category":"148","category_name":"美容美发店","address":"松江区西林北路(近北翠路)"},{"poiid":"B2094655D264A5FA469E","title":"恒杰商务广场","lon":"121.23822","lat":"31.03877","category":"46","category_name":"楼宇","address":"新松江路100号"},{"poiid":"B2094655D26DA6FD459B","title":"文景苑","lon":"121.2337","lat":"31.040943","category":"47","category_name":"住宅区","address":"上海市松江区文翔路1099弄"},{"poiid":"B2094757D068A3F5489C","title":"肯德基 KFC (松江新城店)","lon":"121.231486524","lat":"31.0362641114","category":"68","category_name":"快餐厅","address":"上海新松江路935号"},{"poiid":"B2094757D06AA4F4499A","title":"祥和花苑","lon":"121.23698","lat":"31.026249","category":"47","category_name":"住宅区","address":"上海市松江区谷阳北路1066弄"}]