[{"poiid":"B2094757D068A2F8439E","title":"紫藤宾馆","lon":"121.38381","lat":"31.00449","category":"217","category_name":"旅馆招待所","address":"上海市闵行区东川路3050号（近文井路）"},{"poiid":"B2094757D06FA5F84498","title":"上海电机学院","lon":"121.4006195","lat":"31.000602722","category":"671","category_name":"高校中心点","address":"闵行区江川路690号(近华宁路)"},{"poiid":"B2094757D06FA7F8429C","title":"华宁路地铁站","lon":"121.39286603","lat":"31.006740084","category":"36","category_name":"地铁站","address":"上海轨道交通 五号线 轨交华宁路站 5"},{"poiid":"B2094655D26FA3FD4099","title":"上海电机学院西区(文井路)","lon":"121.38424","lat":"30.99687","category":"52","category_name":"高等院校","address":"江川路690号"},{"poiid":"B2094757D068ABF4429D","title":"文井路地铁站","lon":"121.38061711","lat":"31.00346282","category":"36","category_name":"地铁站","address":"上海轨道交通 五号线 轨交文井路站 5"},{"poiid":"B2094757D06FA4FB429D","title":"强生(中国)有限公司","lon":"121.3810198","lat":"31.002128919","category":"46","category_name":"楼宇","address":"上海闵行区东川路3285号"},{"poiid":"B2094654DB6FA2F94593","title":"红旗四街坊(碧江路)","lon":"121.39949","lat":"31.01496","category":"47","category_name":"住宅区","address":"上海市闵行区华宁路"},{"poiid":"B2094654DB6FA2F9439A","title":"景谷苑(华宁路)","lon":"121.39373","lat":"31.01383","category":"47","category_name":"住宅区","address":"华宁路265弄1-70号"},{"poiid":"B2094757D069A1F8459E","title":"昆阳小区","lon":"121.37352","lat":"30.999285","category":"47","category_name":"住宅区","address":"上海市闵行区昆阳路600弄"},{"poiid":"B2094757D069A2FB499C","title":"上海三菱电梯有限公司","lon":"121.39488475","lat":"30.999481334","category":"263","category_name":"公司","address":"上海江川路811号"},{"poiid":"B2094757D16DAAF44399","title":"上海空间电源研究所","lon":"121.386919128","lat":"31.0040022676","category":"253","category_name":"校园生活","address":"上海市闵行区东川路2965号"},{"poiid":"B2094655D26EA4FC439E","title":"紫藤苑","lon":"121.3811750648","lat":"31.003812040107","category":"76","category_name":"上海菜","address":"闵行区东川路3050号紫藤宾馆1楼(近文井路)"},{"poiid":"B2094654DB6FA2FD499C","title":"古藤园","lon":"121.38732","lat":"31.00287","category":"196","category_name":"公园","address":"临沧路"},{"poiid":"B2094757D068A0FE479E","title":"上海富士施乐有限公司","lon":"121.383067","lat":"31.000004","category":"46","category_name":"楼宇","address":"上海市闵行区文井路200号"},{"poiid":"B2094757D66DABFE4592","title":"船舶数字博物馆","lon":"121.38593","lat":"31.00458","category":"179","category_name":"音乐厅","address":"闵行区东川路800号上海交通大学内(近永平路)"},{"poiid":"B2094655D36DA6FE4798","title":"文井路","lon":"121.3806","lat":"31.00349","category":"38","category_name":"公交车站","address":""},{"poiid":"B2094654DB6FA2FE449B","title":"闵行联合发展有限公司紫藤宾馆会议中心","lon":"121.38236","lat":"31.00475","category":"185","category_name":"会展中心","address":""},{"poiid":"B2094757D164A4F54099","title":"卫星工程研究所科技图书馆","lon":"121.39383","lat":"31.01351","category":"181","category_name":"图书馆","address":"闵行区华宁路251号"},{"poiid":"B2094750D06CA3F44892","title":"上海航天设备制造总厂","lon":"121.393112","lat":"31.006956","category":"263","category_name":"公司","address":"闵行区华宁路100号"},{"poiid":"B2094655D26AA0F9439F","title":"地铁文井路站","lon":"121.3806","lat":"31.00349","category":"36","category_name":"地铁站","address":""},{"poiid":"B2094757D065A3FC469B","title":"上海锅炉厂有限公司","lon":"121.391740051","lat":"31.0166698251","category":"263","category_name":"公司","address":"上海闵行区华宁路250号"},{"poiid":"B2094757D464A0FF499E","title":"龙临阁酒楼","lon":"121.40162250317","lat":"31.008949476023","category":"76","category_name":"上海菜","address":"闵行区东川路2643号(碧江路口)"},{"poiid":"B2094757D16BA0F5489C","title":"闵行开发区水生园","lon":"121.373819198","lat":"31.0022203109","category":"500","category_name":"未知分类","address":"上海东川路昆阳路。"},{"poiid":"B2094655D36CA7FC469D","title":"华宁路东川路","lon":"121.39625","lat":"31.00736","category":"38","category_name":"公交车站","address":""},{"poiid":"B2094654DB64A0F84398","title":"上海百事可乐饮料有限公司","lon":"121.38045","lat":"31.00667","category":"263","category_name":"公司","address":"闵行区文井路288号"},{"poiid":"B2094655D36CA7FF469B","title":"红旗新村","lon":"121.39501","lat":"31.0102","category":"38","category_name":"公交车站","address":""},{"poiid":"B2094655D26AA0F9439C","title":"地铁华宁路站","lon":"121.39285","lat":"31.00677","category":"36","category_name":"地铁站","address":""},{"poiid":"B2094654DB6FA2F5499B","title":"上海英联食品饮料有限公司(兰村路)","lon":"121.38296","lat":"31.00364","category":"263","category_name":"公司","address":"闵行经济技术开发区兰村路8号"},{"poiid":"B2094654DB64A0F8439B","title":"上海恒瑞医药有限公司","lon":"121.38013","lat":"31.00628","category":"263","category_name":"公司","address":"文井路279号"},{"poiid":"B2094655D36DA6FD459B","title":"华宁路","lon":"121.39285","lat":"31.00677","category":"38","category_name":"公交车站","address":""},{"poiid":"B2094757D16FABFE4592","title":"强生医疗学术中心","lon":"121.37891","lat":"30.999816","category":"500","category_name":"未知分类","address":"上海闵行区南谷路100号"},{"poiid":"B2094654DB6FA3FA429F","title":"上海美尔爽服装有限公司","lon":"121.39026","lat":"31.0064","category":"263","category_name":"公司","address":"东川路2958"},{"poiid":"B2094757D165A2FB4499","title":"强生视光学院","lon":"121.380601","lat":"31.003491","category":"500","category_name":"未知分类","address":"上海文井路地铁站下来"},{"poiid":"B2094654DB6EA0FF489A","title":"上海第一精工模塑有限公司","lon":"121.37832","lat":"31.00429","category":"263","category_name":"公司","address":"闵行开发区北斗路169号"},{"poiid":"B2094757DA65A1F8449E","title":"东川苑","lon":"121.3926143865789","lat":"31.0095046664302","category":"47","category_name":"住宅区","address":"东川路2815弄"},{"poiid":"B2094757D06BABF84693","title":"紫藤新苑","lon":"121.40006312","lat":"31.008571361","category":"47","category_name":"住宅区","address":"上海闵行区东川路2759弄"},{"poiid":"B2094654DB6EA6FC4399","title":"亨斯迈泊车场","lon":"121.37845","lat":"31.01056","category":"250","category_name":"公园户外","address":""},{"poiid":"B2094757D069A3FD4193","title":"上海电机学院西区14宿","lon":"121.38824441","lat":"30.999710732","category":"253","category_name":"校园生活","address":"上海电机学院西区14宿"},{"poiid":"B2094655D26BA2FD449B","title":"文井路南沙路","lon":"121.38299","lat":"30.99965","category":"38","category_name":"公交车站","address":""},{"poiid":"B2094757D66EA1F9439E","title":"亨斯迈聚氨酯(中国)有限公司","lon":"121.37742212","lat":"31.006718323","category":"263","category_name":"公司","address":"上海闵行区文井路452号"},{"poiid":"B2094655D36CA7FC469C","title":"华宁路景谷路","lon":"121.39404","lat":"31.01252","category":"38","category_name":"公交车站","address":""},{"poiid":"B2094757D569A1FF459B","title":"贝银大酒店","lon":"121.38304335","lat":"30.9975453","category":"76","category_name":"上海菜","address":"闵行区江川路1370号(近文井路)"},{"poiid":"B2094654DB6FA1FC409A","title":"上海强生","lon":"121.38102","lat":"31.00212","category":"263","category_name":"公司","address":"闵行区南雅路120号"},{"poiid":"B2094757D66DABF5499C","title":"上海世界联合服装有限公司","lon":"121.3751505","lat":"31.0040032","category":"46","category_name":"楼宇","address":"上海市闵行区绿春路"},{"poiid":"B2094655D36CA0FD429D","title":"景谷路","lon":"121.39363","lat":"31.01353","category":"38","category_name":"公交车站","address":""},{"poiid":"B2094757D76EA3FB489B","title":"重庆鸡公煲 景谷路店","lon":"121.39878","lat":"31.01234","category":"71","category_name":"四川菜","address":"闵行区景谷路125号红旗小学对面"},{"poiid":"B2094654DB6FA2F54898","title":"紫藤商厦","lon":"121.38336","lat":"30.99805","category":"46","category_name":"楼宇","address":"文井路105"},{"poiid":"B2094654DB6EAAFD4799","title":"交通银行上海闵行支行","lon":"121.38277","lat":"30.99943","category":"150","category_name":"银行","address":"闵行区文井路145号(南沙路文井路)"},{"poiid":"B2094757D16BABF8499E","title":"丰裕生煎(景谷路店)","lon":"121.395837128","lat":"31.0128534494","category":"68","category_name":"快餐厅","address":"闵行区景谷路207号(近华宁路)"},{"poiid":"B2094655D36CA0FA4192","title":"剑川路临沧路","lon":"121.38399","lat":"31.01609","category":"38","category_name":"公交车站","address":""},{"poiid":"B2094757D068A2F8439E","title":"紫藤宾馆","lon":"121.38381","lat":"31.00449","category":"217","category_name":"旅馆招待所","address":"上海市闵行区东川路3050号（近文井路）"},{"poiid":"B2094757D06FA5F84498","title":"上海电机学院","lon":"121.4006195","lat":"31.000602722","category":"671","category_name":"高校中心点","address":"闵行区江川路690号(近华宁路)"},{"poiid":"B2094757D06FA7F8429C","title":"华宁路地铁站","lon":"121.39286603","lat":"31.006740084","category":"36","category_name":"地铁站","address":"上海轨道交通 五号线 轨交华宁路站 5"},{"poiid":"B2094655D26FA3FD4099","title":"上海电机学院西区(文井路)","lon":"121.38424","lat":"30.99687","category":"52","category_name":"高等院校","address":"江川路690号"},{"poiid":"B2094757D068ABF4429D","title":"文井路地铁站","lon":"121.38061711","lat":"31.00346282","category":"36","category_name":"地铁站","address":"上海轨道交通 五号线 轨交文井路站 5"},{"poiid":"B2094757D06FA4FB429D","title":"强生(中国)有限公司","lon":"121.3810198","lat":"31.002128919","category":"46","category_name":"楼宇","address":"上海闵行区东川路3285号"},{"poiid":"B2094654DB6FA2F94593","title":"红旗四街坊(碧江路)","lon":"121.39949","lat":"31.01496","category":"47","category_name":"住宅区","address":"上海市闵行区华宁路"},{"poiid":"B2094654DB6FA2F9439A","title":"景谷苑(华宁路)","lon":"121.39373","lat":"31.01383","category":"47","category_name":"住宅区","address":"华宁路265弄1-70号"},{"poiid":"B2094757D069A1F8459E","title":"昆阳小区","lon":"121.37352","lat":"30.999285","category":"47","category_name":"住宅区","address":"上海市闵行区昆阳路600弄"},{"poiid":"B2094757D069A2FB499C","title":"上海三菱电梯有限公司","lon":"121.39488475","lat":"30.999481334","category":"263","category_name":"公司","address":"上海江川路811号"},{"poiid":"B2094757D16DAAF44399","title":"上海空间电源研究所","lon":"121.386919128","lat":"31.0040022676","category":"253","category_name":"校园生活","address":"上海市闵行区东川路2965号"},{"poiid":"B2094655D26EA4FC439E","title":"紫藤苑","lon":"121.3811750648","lat":"31.003812040107","category":"76","category_name":"上海菜","address":"闵行区东川路3050号紫藤宾馆1楼(近文井路)"},{"poiid":"B2094654DB6FA2FD499C","title":"古藤园","lon":"121.38732","lat":"31.00287","category":"196","category_name":"公园","address":"临沧路"},{"poiid":"B2094757D068A0FE479E","title":"上海富士施乐有限公司","lon":"121.383067","lat":"31.000004","category":"46","category_name":"楼宇","address":"上海市闵行区文井路200号"},{"poiid":"B2094757D66DABFE4592","title":"船舶数字博物馆","lon":"121.38593","lat":"31.00458","category":"179","category_name":"音乐厅","address":"闵行区东川路800号上海交通大学内(近永平路)"},{"poiid":"B2094655D36DA6FE4798","title":"文井路","lon":"121.3806","lat":"31.00349","category":"38","category_name":"公交车站","address":""},{"poiid":"B2094654DB6FA2FE449B","title":"闵行联合发展有限公司紫藤宾馆会议中心","lon":"121.38236","lat":"31.00475","category":"185","category_name":"会展中心","address":""},{"poiid":"B2094757D164A4F54099","title":"卫星工程研究所科技图书馆","lon":"121.39383","lat":"31.01351","category":"181","category_name":"图书馆","address":"闵行区华宁路251号"},{"poiid":"B2094750D06CA3F44892","title":"上海航天设备制造总厂","lon":"121.393112","lat":"31.006956","category":"263","category_name":"公司","address":"闵行区华宁路100号"},{"poiid":"B2094655D26AA0F9439F","title":"地铁文井路站","lon":"121.3806","lat":"31.00349","category":"36","category_name":"地铁站","address":""},{"poiid":"B2094757D065A3FC469B","title":"上海锅炉厂有限公司","lon":"121.391740051","lat":"31.0166698251","category":"263","category_name":"公司","address":"上海闵行区华宁路250号"},{"poiid":"B2094757D464A0FF499E","title":"龙临阁酒楼","lon":"121.40162250317","lat":"31.008949476023","category":"76","category_name":"上海菜","address":"闵行区东川路2643号(碧江路口)"},{"poiid":"B2094757D16BA0F5489C","title":"闵行开发区水生园","lon":"121.373819198","lat":"31.0022203109","category":"500","category_name":"未知分类","address":"上海东川路昆阳路。"},{"poiid":"B2094655D36CA7FC469D","title":"华宁路东川路","lon":"121.39625","lat":"31.00736","category":"38","category_name":"公交车站","address":""},{"poiid":"B2094654DB64A0F84398","title":"上海百事可乐饮料有限公司","lon":"121.38045","lat":"31.00667","category":"263","category_name":"公司","address":"闵行区文井路288号"},{"poiid":"B2094655D36CA7FF469B","title":"红旗新村","lon":"121.39501","lat":"31.0102","category":"38","category_name":"公交车站","address":""},{"poiid":"B2094655D26AA0F9439C","title":"地铁华宁路站","lon":"121.39285","lat":"31.00677","category":"36","category_name":"地铁站","address":""},{"poiid":"B2094654DB6FA2F5499B","title":"上海英联食品饮料有限公司(兰村路)","lon":"121.38296","lat":"31.00364","category":"263","category_name":"公司","address":"闵行经济技术开发区兰村路8号"},{"poiid":"B2094654DB64A0F8439B","title":"上海恒瑞医药有限公司","lon":"121.38013","lat":"31.00628","category":"263","category_name":"公司","address":"文井路279号"},{"poiid":"B2094655D36DA6FD459B","title":"华宁路","lon":"121.39285","lat":"31.00677","category":"38","category_name":"公交车站","address":""},{"poiid":"B2094757D16FABFE4592","title":"强生医疗学术中心","lon":"121.37891","lat":"30.999816","category":"500","category_name":"未知分类","address":"上海闵行区南谷路100号"},{"poiid":"B2094654DB6FA3FA429F","title":"上海美尔爽服装有限公司","lon":"121.39026","lat":"31.0064","category":"263","category_name":"公司","address":"东川路2958"},{"poiid":"B2094757D165A2FB4499","title":"强生视光学院","lon":"121.380601","lat":"31.003491","category":"500","category_name":"未知分类","address":"上海文井路地铁站下来"},{"poiid":"B2094654DB6EA0FF489A","title":"上海第一精工模塑有限公司","lon":"121.37832","lat":"31.00429","category":"263","category_name":"公司","address":"闵行开发区北斗路169号"},{"poiid":"B2094757DA65A1F8449E","title":"东川苑","lon":"121.3926143865789","lat":"31.0095046664302","category":"47","category_name":"住宅区","address":"东川路2815弄"},{"poiid":"B2094757D06BABF84693","title":"紫藤新苑","lon":"121.40006312","lat":"31.008571361","category":"47","category_name":"住宅区","address":"上海闵行区东川路2759弄"},{"poiid":"B2094654DB6EA6FC4399","title":"亨斯迈泊车场","lon":"121.37845","lat":"31.01056","category":"250","category_name":"公园户外","address":""},{"poiid":"B2094757D069A3FD4193","title":"上海电机学院西区14宿","lon":"121.38824441","lat":"30.999710732","category":"253","category_name":"校园生活","address":"上海电机学院西区14宿"},{"poiid":"B2094655D26BA2FD449B","title":"文井路南沙路","lon":"121.38299","lat":"30.99965","category":"38","category_name":"公交车站","address":""},{"poiid":"B2094757D66EA1F9439E","title":"亨斯迈聚氨酯(中国)有限公司","lon":"121.37742212","lat":"31.006718323","category":"263","category_name":"公司","address":"上海闵行区文井路452号"},{"poiid":"B2094655D36CA7FC469C","title":"华宁路景谷路","lon":"121.39404","lat":"31.01252","category":"38","category_name":"公交车站","address":""},{"poiid":"B2094757D569A1FF459B","title":"贝银大酒店","lon":"121.38304335","lat":"30.9975453","category":"76","category_name":"上海菜","address":"闵行区江川路1370号(近文井路)"},{"poiid":"B2094654DB6FA1FC409A","title":"上海强生","lon":"121.38102","lat":"31.00212","category":"263","category_name":"公司","address":"闵行区南雅路120号"},{"poiid":"B2094757D66DABF5499C","title":"上海世界联合服装有限公司","lon":"121.3751505","lat":"31.0040032","category":"46","category_name":"楼宇","address":"上海市闵行区绿春路"},{"poiid":"B2094655D36CA0FD429D","title":"景谷路","lon":"121.39363","lat":"31.01353","category":"38","category_name":"公交车站","address":""},{"poiid":"B2094757D76EA3FB489B","title":"重庆鸡公煲 景谷路店","lon":"121.39878","lat":"31.01234","category":"71","category_name":"四川菜","address":"闵行区景谷路125号红旗小学对面"},{"poiid":"B2094654DB6FA2F54898","title":"紫藤商厦","lon":"121.38336","lat":"30.99805","category":"46","category_name":"楼宇","address":"文井路105"},{"poiid":"B2094654DB6EAAFD4799","title":"交通银行上海闵行支行","lon":"121.38277","lat":"30.99943","category":"150","category_name":"银行","address":"闵行区文井路145号(南沙路文井路)"},{"poiid":"B2094757D16BABF8499E","title":"丰裕生煎(景谷路店)","lon":"121.395837128","lat":"31.0128534494","category":"68","category_name":"快餐厅","address":"闵行区景谷路207号(近华宁路)"},{"poiid":"B2094655D36CA0FA4192","title":"剑川路临沧路","lon":"121.38399","lat":"31.01609","category":"38","category_name":"公交车站","address":""},{"poiid":"B2094757D068A2F8439E","title":"紫藤宾馆","lon":"121.38381","lat":"31.00449","category":"217","category_name":"旅馆招待所","address":"上海市闵行区东川路3050号（近文井路）"},{"poiid":"B2094757D06FA5F84498","title":"上海电机学院","lon":"121.4006195","lat":"31.000602722","category":"671","category_name":"高校中心点","address":"闵行区江川路690号(近华宁路)"},{"poiid":"B2094757D06FA7F8429C","title":"华宁路地铁站","lon":"121.39286603","lat":"31.006740084","category":"36","category_name":"地铁站","address":"上海轨道交通 五号线 轨交华宁路站 5"},{"poiid":"B2094655D26FA3FD4099","title":"上海电机学院西区(文井路)","lon":"121.38424","lat":"30.99687","category":"52","category_name":"高等院校","address":"江川路690号"},{"poiid":"B2094757D068ABF4429D","title":"文井路地铁站","lon":"121.38061711","lat":"31.00346282","category":"36","category_name":"地铁站","address":"上海轨道交通 五号线 轨交文井路站 5"},{"poiid":"B2094757D06FA4FB429D","title":"强生(中国)有限公司","lon":"121.3810198","lat":"31.002128919","category":"46","category_name":"楼宇","address":"上海闵行区东川路3285号"},{"poiid":"B2094654DB6FA2F94593","title":"红旗四街坊(碧江路)","lon":"121.39949","lat":"31.01496","category":"47","category_name":"住宅区","address":"上海市闵行区华宁路"},{"poiid":"B2094654DB6FA2F9439A","title":"景谷苑(华宁路)","lon":"121.39373","lat":"31.01383","category":"47","category_name":"住宅区","address":"华宁路265弄1-70号"},{"poiid":"B2094757D069A1F8459E","title":"昆阳小区","lon":"121.37352","lat":"30.999285","category":"47","category_name":"住宅区","address":"上海市闵行区昆阳路600弄"},{"poiid":"B2094757D069A2FB499C","title":"上海三菱电梯有限公司","lon":"121.39488475","lat":"30.999481334","category":"263","category_name":"公司","address":"上海江川路811号"},{"poiid":"B2094757D16DAAF44399","title":"上海空间电源研究所","lon":"121.386919128","lat":"31.0040022676","category":"253","category_name":"校园生活","address":"上海市闵行区东川路2965号"},{"poiid":"B2094655D26EA4FC439E","title":"紫藤苑","lon":"121.3811750648","lat":"31.003812040107","category":"76","category_name":"上海菜","address":"闵行区东川路3050号紫藤宾馆1楼(近文井路)"},{"poiid":"B2094654DB6FA2FD499C","title":"古藤园","lon":"121.38732","lat":"31.00287","category":"196","category_name":"公园","address":"临沧路"},{"poiid":"B2094757D068A0FE479E","title":"上海富士施乐有限公司","lon":"121.383067","lat":"31.000004","category":"46","category_name":"楼宇","address":"上海市闵行区文井路200号"},{"poiid":"B2094757D66DABFE4592","title":"船舶数字博物馆","lon":"121.38593","lat":"31.00458","category":"179","category_name":"音乐厅","address":"闵行区东川路800号上海交通大学内(近永平路)"},{"poiid":"B2094655D36DA6FE4798","title":"文井路","lon":"121.3806","lat":"31.00349","category":"38","category_name":"公交车站","address":""},{"poiid":"B2094654DB6FA2FE449B","title":"闵行联合发展有限公司紫藤宾馆会议中心","lon":"121.38236","lat":"31.00475","category":"185","category_name":"会展中心","address":""},{"poiid":"B2094757D164A4F54099","title":"卫星工程研究所科技图书馆","lon":"121.39383","lat":"31.01351","category":"181","category_name":"图书馆","address":"闵行区华宁路251号"},{"poiid":"B2094750D06CA3F44892","title":"上海航天设备制造总厂","lon":"121.393112","lat":"31.006956","category":"263","category_name":"公司","address":"闵行区华宁路100号"},{"poiid":"B2094655D26AA0F9439F","title":"地铁文井路站","lon":"121.3806","lat":"31.00349","category":"36","category_name":"地铁站","address":""},{"poiid":"B2094757D065A3FC469B","title":"上海锅炉厂有限公司","lon":"121.391740051","lat":"31.0166698251","category":"263","category_name":"公司","address":"上海闵行区华宁路250号"},{"poiid":"B2094757D464A0FF499E","title":"龙临阁酒楼","lon":"121.40162250317","lat":"31.008949476023","category":"76","category_name":"上海菜","address":"闵行区东川路2643号(碧江路口)"},{"poiid":"B2094757D16BA0F5489C","title":"闵行开发区水生园","lon":"121.373819198","lat":"31.0022203109","category":"500","category_name":"未知分类","address":"上海东川路昆阳路。"},{"poiid":"B2094655D36CA7FC469D","title":"华宁路东川路","lon":"121.39625","lat":"31.00736","category":"38","category_name":"公交车站","address":""},{"poiid":"B2094654DB64A0F84398","title":"上海百事可乐饮料有限公司","lon":"121.38045","lat":"31.00667","category":"263","category_name":"公司","address":"闵行区文井路288号"},{"poiid":"B2094655D36CA7FF469B","title":"红旗新村","lon":"121.39501","lat":"31.0102","category":"38","category_name":"公交车站","address":""},{"poiid":"B2094655D26AA0F9439C","title":"地铁华宁路站","lon":"121.39285","lat":"31.00677","category":"36","category_name":"地铁站","address":""},{"poiid":"B2094654DB6FA2F5499B","title":"上海英联食品饮料有限公司(兰村路)","lon":"121.38296","lat":"31.00364","category":"263","category_name":"公司","address":"闵行经济技术开发区兰村路8号"},{"poiid":"B2094654DB64A0F8439B","title":"上海恒瑞医药有限公司","lon":"121.38013","lat":"31.00628","category":"263","category_name":"公司","address":"文井路279号"},{"poiid":"B2094655D36DA6FD459B","title":"华宁路","lon":"121.39285","lat":"31.00677","category":"38","category_name":"公交车站","address":""},{"poiid":"B2094757D16FABFE4592","title":"强生医疗学术中心","lon":"121.37891","lat":"30.999816","category":"500","category_name":"未知分类","address":"上海闵行区南谷路100号"},{"poiid":"B2094654DB6FA3FA429F","title":"上海美尔爽服装有限公司","lon":"121.39026","lat":"31.0064","category":"263","category_name":"公司","address":"东川路2958"},{"poiid":"B2094757D165A2FB4499","title":"强生视光学院","lon":"121.380601","lat":"31.003491","category":"500","category_name":"未知分类","address":"上海文井路地铁站下来"},{"poiid":"B2094654DB6EA0FF489A","title":"上海第一精工模塑有限公司","lon":"121.37832","lat":"31.00429","category":"263","category_name":"公司","address":"闵行开发区北斗路169号"},{"poiid":"B2094757DA65A1F8449E","title":"东川苑","lon":"121.3926143865789","lat":"31.0095046664302","category":"47","category_name":"住宅区","address":"东川路2815弄"},{"poiid":"B2094757D06BABF84693","title":"紫藤新苑","lon":"121.40006312","lat":"31.008571361","category":"47","category_name":"住宅区","address":"上海闵行区东川路2759弄"},{"poiid":"B2094654DB6EA6FC4399","title":"亨斯迈泊车场","lon":"121.37845","lat":"31.01056","category":"250","category_name":"公园户外","address":""},{"poiid":"B2094757D069A3FD4193","title":"上海电机学院西区14宿","lon":"121.38824441","lat":"30.999710732","category":"253","category_name":"校园生活","address":"上海电机学院西区14宿"},{"poiid":"B2094655D26BA2FD449B","title":"文井路南沙路","lon":"121.38299","lat":"30.99965","category":"38","category_name":"公交车站","address":""},{"poiid":"B2094757D66EA1F9439E","title":"亨斯迈聚氨酯(中国)有限公司","lon":"121.37742212","lat":"31.006718323","category":"263","category_name":"公司","address":"上海闵行区文井路452号"},{"poiid":"B2094655D36CA7FC469C","title":"华宁路景谷路","lon":"121.39404","lat":"31.01252","category":"38","category_name":"公交车站","address":""},{"poiid":"B2094757D569A1FF459B","title":"贝银大酒店","lon":"121.38304335","lat":"30.9975453","category":"76","category_name":"上海菜","address":"闵行区江川路1370号(近文井路)"},{"poiid":"B2094654DB6FA1FC409A","title":"上海强生","lon":"121.38102","lat":"31.00212","category":"263","category_name":"公司","address":"闵行区南雅路120号"},{"poiid":"B2094757D66DABF5499C","title":"上海世界联合服装有限公司","lon":"121.3751505","lat":"31.0040032","category":"46","category_name":"楼宇","address":"上海市闵行区绿春路"},{"poiid":"B2094655D36CA0FD429D","title":"景谷路","lon":"121.39363","lat":"31.01353","category":"38","category_name":"公交车站","address":""},{"poiid":"B2094757D76EA3FB489B","title":"重庆鸡公煲 景谷路店","lon":"121.39878","lat":"31.01234","category":"71","category_name":"四川菜","address":"闵行区景谷路125号红旗小学对面"},{"poiid":"B2094654DB6FA2F54898","title":"紫藤商厦","lon":"121.38336","lat":"30.99805","category":"46","category_name":"楼宇","address":"文井路105"},{"poiid":"B2094654DB6EAAFD4799","title":"交通银行上海闵行支行","lon":"121.38277","lat":"30.99943","category":"150","category_name":"银行","address":"闵行区文井路145号(南沙路文井路)"},{"poiid":"B2094757D16BABF8499E","title":"丰裕生煎(景谷路店)","lon":"121.395837128","lat":"31.0128534494","category":"68","category_name":"快餐厅","address":"闵行区景谷路207号(近华宁路)"},{"poiid":"B2094655D36CA0FA4192","title":"剑川路临沧路","lon":"121.38399","lat":"31.01609","category":"38","category_name":"公交车站","address":""},{"poiid":"B2094757D068A2F8439E","title":"紫藤宾馆","lon":"121.38381","lat":"31.00449","category":"217","category_name":"旅馆招待所","address":"上海市闵行区东川路3050号（近文井路）"},{"poiid":"B2094757D06FA5F84498","title":"上海电机学院","lon":"121.4006195","lat":"31.000602722","category":"671","category_name":"高校中心点","address":"闵行区江川路690号(近华宁路)"},{"poiid":"B2094757D06FA7F8429C","title":"华宁路地铁站","lon":"121.39286603","lat":"31.006740084","category":"36","category_name":"地铁站","address":"上海轨道交通 五号线 轨交华宁路站 5"},{"poiid":"B2094655D26FA3FD4099","title":"上海电机学院西区(文井路)","lon":"121.38424","lat":"30.99687","category":"52","category_name":"高等院校","address":"江川路690号"},{"poiid":"B2094757D068ABF4429D","title":"文井路地铁站","lon":"121.38061711","lat":"31.00346282","category":"36","category_name":"地铁站","address":"上海轨道交通 五号线 轨交文井路站 5"},{"poiid":"B2094757D06FA4FB429D","title":"强生(中国)有限公司","lon":"121.3810198","lat":"31.002128919","category":"46","category_name":"楼宇","address":"上海闵行区东川路3285号"},{"poiid":"B2094654DB6FA2F94593","title":"红旗四街坊(碧江路)","lon":"121.39949","lat":"31.01496","category":"47","category_name":"住宅区","address":"上海市闵行区华宁路"},{"poiid":"B2094654DB6FA2F9439A","title":"景谷苑(华宁路)","lon":"121.39373","lat":"31.01383","category":"47","category_name":"住宅区","address":"华宁路265弄1-70号"},{"poiid":"B2094757D069A1F8459E","title":"昆阳小区","lon":"121.37352","lat":"30.999285","category":"47","category_name":"住宅区","address":"上海市闵行区昆阳路600弄"},{"poiid":"B2094757D069A2FB499C","title":"上海三菱电梯有限公司","lon":"121.39488475","lat":"30.999481334","category":"263","category_name":"公司","address":"上海江川路811号"},{"poiid":"B2094757D16DAAF44399","title":"上海空间电源研究所","lon":"121.386919128","lat":"31.0040022676","category":"253","category_name":"校园生活","address":"上海市闵行区东川路2965号"},{"poiid":"B2094655D26EA4FC439E","title":"紫藤苑","lon":"121.3811750648","lat":"31.003812040107","category":"76","category_name":"上海菜","address":"闵行区东川路3050号紫藤宾馆1楼(近文井路)"},{"poiid":"B2094654DB6FA2FD499C","title":"古藤园","lon":"121.38732","lat":"31.00287","category":"196","category_name":"公园","address":"临沧路"},{"poiid":"B2094757D068A0FE479E","title":"上海富士施乐有限公司","lon":"121.383067","lat":"31.000004","category":"46","category_name":"楼宇","address":"上海市闵行区文井路200号"},{"poiid":"B2094757D66DABFE4592","title":"船舶数字博物馆","lon":"121.38593","lat":"31.00458","category":"179","category_name":"音乐厅","address":"闵行区东川路800号上海交通大学内(近永平路)"},{"poiid":"B2094655D36DA6FE4798","title":"文井路","lon":"121.3806","lat":"31.00349","category":"38","category_name":"公交车站","address":""},{"poiid":"B2094654DB6FA2FE449B","title":"闵行联合发展有限公司紫藤宾馆会议中心","lon":"121.38236","lat":"31.00475","category":"185","category_name":"会展中心","address":""},{"poiid":"B2094757D164A4F54099","title":"卫星工程研究所科技图书馆","lon":"121.39383","lat":"31.01351","category":"181","category_name":"图书馆","address":"闵行区华宁路251号"},{"poiid":"B2094750D06CA3F44892","title":"上海航天设备制造总厂","lon":"121.393112","lat":"31.006956","category":"263","category_name":"公司","address":"闵行区华宁路100号"},{"poiid":"B2094655D26AA0F9439F","title":"地铁文井路站","lon":"121.3806","lat":"31.00349","category":"36","category_name":"地铁站","address":""},{"poiid":"B2094757D065A3FC469B","title":"上海锅炉厂有限公司","lon":"121.391740051","lat":"31.0166698251","category":"263","category_name":"公司","address":"上海闵行区华宁路250号"},{"poiid":"B2094757D464A0FF499E","title":"龙临阁酒楼","lon":"121.40162250317","lat":"31.008949476023","category":"76","category_name":"上海菜","address":"闵行区东川路2643号(碧江路口)"},{"poiid":"B2094757D16BA0F5489C","title":"闵行开发区水生园","lon":"121.373819198","lat":"31.0022203109","category":"500","category_name":"未知分类","address":"上海东川路昆阳路。"},{"poiid":"B2094655D36CA7FC469D","title":"华宁路东川路","lon":"121.39625","lat":"31.00736","category":"38","category_name":"公交车站","address":""},{"poiid":"B2094654DB64A0F84398","title":"上海百事可乐饮料有限公司","lon":"121.38045","lat":"31.00667","category":"263","category_name":"公司","address":"闵行区文井路288号"},{"poiid":"B2094655D36CA7FF469B","title":"红旗新村","lon":"121.39501","lat":"31.0102","category":"38","category_name":"公交车站","address":""},{"poiid":"B2094655D26AA0F9439C","title":"地铁华宁路站","lon":"121.39285","lat":"31.00677","category":"36","category_name":"地铁站","address":""},{"poiid":"B2094654DB6FA2F5499B","title":"上海英联食品饮料有限公司(兰村路)","lon":"121.38296","lat":"31.00364","category":"263","category_name":"公司","address":"闵行经济技术开发区兰村路8号"},{"poiid":"B2094654DB64A0F8439B","title":"上海恒瑞医药有限公司","lon":"121.38013","lat":"31.00628","category":"263","category_name":"公司","address":"文井路279号"},{"poiid":"B2094655D36DA6FD459B","title":"华宁路","lon":"121.39285","lat":"31.00677","category":"38","category_name":"公交车站","address":""},{"poiid":"B2094757D16FABFE4592","title":"强生医疗学术中心","lon":"121.37891","lat":"30.999816","category":"500","category_name":"未知分类","address":"上海闵行区南谷路100号"},{"poiid":"B2094654DB6FA3FA429F","title":"上海美尔爽服装有限公司","lon":"121.39026","lat":"31.0064","category":"263","category_name":"公司","address":"东川路2958"},{"poiid":"B2094757D165A2FB4499","title":"强生视光学院","lon":"121.380601","lat":"31.003491","category":"500","category_name":"未知分类","address":"上海文井路地铁站下来"},{"poiid":"B2094654DB6EA0FF489A","title":"上海第一精工模塑有限公司","lon":"121.37832","lat":"31.00429","category":"263","category_name":"公司","address":"闵行开发区北斗路169号"},{"poiid":"B2094757DA65A1F8449E","title":"东川苑","lon":"121.3926143865789","lat":"31.0095046664302","category":"47","category_name":"住宅区","address":"东川路2815弄"},{"poiid":"B2094757D06BABF84693","title":"紫藤新苑","lon":"121.40006312","lat":"31.008571361","category":"47","category_name":"住宅区","address":"上海闵行区东川路2759弄"},{"poiid":"B2094654DB6EA6FC4399","title":"亨斯迈泊车场","lon":"121.37845","lat":"31.01056","category":"250","category_name":"公园户外","address":""},{"poiid":"B2094757D069A3FD4193","title":"上海电机学院西区14宿","lon":"121.38824441","lat":"30.999710732","category":"253","category_name":"校园生活","address":"上海电机学院西区14宿"},{"poiid":"B2094655D26BA2FD449B","title":"文井路南沙路","lon":"121.38299","lat":"30.99965","category":"38","category_name":"公交车站","address":""},{"poiid":"B2094757D66EA1F9439E","title":"亨斯迈聚氨酯(中国)有限公司","lon":"121.37742212","lat":"31.006718323","category":"263","category_name":"公司","address":"上海闵行区文井路452号"},{"poiid":"B2094655D36CA7FC469C","title":"华宁路景谷路","lon":"121.39404","lat":"31.01252","category":"38","category_name":"公交车站","address":""},{"poiid":"B2094757D569A1FF459B","title":"贝银大酒店","lon":"121.38304335","lat":"30.9975453","category":"76","category_name":"上海菜","address":"闵行区江川路1370号(近文井路)"},{"poiid":"B2094654DB6FA1FC409A","title":"上海强生","lon":"121.38102","lat":"31.00212","category":"263","category_name":"公司","address":"闵行区南雅路120号"},{"poiid":"B2094757D66DABF5499C","title":"上海世界联合服装有限公司","lon":"121.3751505","lat":"31.0040032","category":"46","category_name":"楼宇","address":"上海市闵行区绿春路"},{"poiid":"B2094655D36CA0FD429D","title":"景谷路","lon":"121.39363","lat":"31.01353","category":"38","category_name":"公交车站","address":""},{"poiid":"B2094757D76EA3FB489B","title":"重庆鸡公煲 景谷路店","lon":"121.39878","lat":"31.01234","category":"71","category_name":"四川菜","address":"闵行区景谷路125号红旗小学对面"},{"poiid":"B2094654DB6FA2F54898","title":"紫藤商厦","lon":"121.38336","lat":"30.99805","category":"46","category_name":"楼宇","address":"文井路105"},{"poiid":"B2094654DB6EAAFD4799","title":"交通银行上海闵行支行","lon":"121.38277","lat":"30.99943","category":"150","category_name":"银行","address":"闵行区文井路145号(南沙路文井路)"},{"poiid":"B2094757D16BABF8499E","title":"丰裕生煎(景谷路店)","lon":"121.395837128","lat":"31.0128534494","category":"68","category_name":"快餐厅","address":"闵行区景谷路207号(近华宁路)"},{"poiid":"B2094655D36CA0FA4192","title":"剑川路临沧路","lon":"121.38399","lat":"31.01609","category":"38","category_name":"公交车站","address":""}]