[{"poiid":"B2094655D26CA7F4429B","title":"复旦大学附属中山医院","lon":"121.45405","lat":"31.19857","category":"162","category_name":"医院","address":"医学院路111,136号"},{"poiid":"B2094757D06FAAFA429C","title":"复旦大学上海医学院","lon":"121.452400191","lat":"31.1976300604","category":"671","category_name":"高校中心点","address":"上海徐汇区医学院路130号"},{"poiid":"B2094655D26DA3F9449E","title":"复旦大学附属中山医院门诊急诊部","lon":"121.45333","lat":"31.19884","category":"162","category_name":"医院","address":"医学院路111、136"},{"poiid":"B2094753D76FAAFA449C","title":"上海滩国泰旗舰店","lon":"121.466011","lat":"31.216125","category":"249","category_name":"购物服务","address":"淮海中路868号"},{"poiid":"B2094757D06FA0F84793","title":"耶里夏丽 枫林店","lon":"121.4546063054","lat":"31.198207435713","category":"90","category_name":"清真餐馆","address":"徐汇区枫林路147号(近清真路)"},{"poiid":"B2094654DB64A4FC429B","title":"复旦大学枫林校区","lon":"121.45201","lat":"31.19825","category":"52","category_name":"高等院校","address":"徐汇区医学院路138号(近中山医院)"},{"poiid":"B2094655D26CA4F84898","title":"复旦大学附属中山医院住院部","lon":"121.45423","lat":"31.1975","category":"265","category_name":"知名企业","address":"枫林路180号"},{"poiid":"B2094757D06FAAFD4199","title":"孔家花园","lon":"121.453","lat":"31.1978","category":"47","category_name":"住宅区","address":"徐汇区斜土路2421号(近宛平南路)"},{"poiid":"B2094757D06FA3FF429E","title":"麦当劳(斜土路店)","lon":"121.45187","lat":"31.194","category":"68","category_name":"快餐厅","address":"徐汇区斜土路1969号(近东安路)"},{"poiid":"B2094757D064A0F94198","title":"中山医院住院部1号楼","lon":"121.454551738","lat":"31.1979389123","category":"162","category_name":"医院","address":"上海枫林路180号"},{"poiid":"B2094757D068A5FB469B","title":"复旦大学附属儿科医院(枫林路分院)","lon":"121.45477","lat":"31.19753","category":"162","category_name":"医院","address":"上海徐汇区枫林路183号(近斜土路)"},{"poiid":"B2094655D36CA6F4459E","title":"东安路斜土路","lon":"121.45272","lat":"31.19408","category":"38","category_name":"公交车站","address":""},{"poiid":"B2094757D06FAAFC4892","title":"爱邦大厦","lon":"121.454","lat":"31.1946","category":"46","category_name":"楼宇","address":"卢湾区复兴中路369号(马当路口)"},{"poiid":"B2094757D069A3FC429B","title":"安吉汽车销售","lon":"121.453248","lat":"31.193429577","category":"158","category_name":"汽车销售","address":"徐汇区东安路239号(近斜土路)"},{"poiid":"B2094757D56DA7FE499B","title":"徐家汇查餐厅","lon":"121.45405","lat":"31.19857","category":"247","category_name":"餐饮美食","address":"天钥桥路"},{"poiid":"B2094757D06FA4FB409A","title":"串串香麻辣烫(枫林路店)","lon":"121.45532","lat":"31.19775","category":"68","category_name":"快餐厅","address":"徐汇区枫林路155号(近中山医院)"},{"poiid":"B2094757D06BABF9489D","title":"四季园 Seasons' Garden","lon":"121.452327588","lat":"31.1956166433","category":"47","category_name":"住宅区","address":"上海徐汇区东安路149弄(近斜土路)"},{"poiid":"B2094757D06FA5F8409C","title":"四海游龙(东安路店)","lon":"121.45073","lat":"31.1966","category":"68","category_name":"快餐厅","address":"徐汇区东安路40号(近青松城大酒店)"},{"poiid":"B2094757D068A3FA499D","title":"中山医院住院部三号楼","lon":"121.453937593","lat":"31.1983534856","category":"162","category_name":"医院","address":"上海徐汇区枫林路180号(近医学院路)"},{"poiid":"B2094757D16EABFB4499","title":"中山医院住院8号楼","lon":"121.45390858","lat":"31.196357768","category":"162","category_name":"医院","address":"上海市徐汇区枫林路180号中山医院住院部"},{"poiid":"B2094655D36CA6F84392","title":"枫林路斜土路","lon":"121.45569","lat":"31.1961","category":"38","category_name":"公交车站","address":""},{"poiid":"B2094757D168A0FF479E","title":"复旦大学附属中山医院五号楼","lon":"121.452995311","lat":"31.1973022872","category":"162","category_name":"医院","address":"上海枫林路180号"},{"poiid":"B2094757D069A1F9419D","title":"中山医院10号楼手术室","lon":"121.453940275","lat":"31.1983488969","category":"162","category_name":"医院","address":"上海徐汇区枫林路180号(近医学院路)"},{"poiid":"B2094750D66DA1FB479C","title":"徐家汇五番街","lon":"121.451797","lat":"31.195696","category":"116","category_name":"特色商业街","address":"上海市 上海徐汇区肇嘉浜路1111号美罗城B1"},{"poiid":"B2094757D06BA3F9439E","title":"复旦大学附属中山医院急诊输液室","lon":"121.453645232","lat":"31.1989293545","category":"162","category_name":"医院","address":"徐汇区枫林路180号中山医院内(近医学院路)"},{"poiid":"B2094757D16EA1F4419F","title":"中山医院中山大讲堂","lon":"121.453364","lat":"31.196937","category":"162","category_name":"医院","address":"上海枫林路180号中山医院2号楼3楼"},{"poiid":"B2094757D06BAAFA4599","title":"中山医院住院部九号楼","lon":"121.454636586","lat":"31.1974707905","category":"500","category_name":"未知分类","address":"上海市徐汇区肇嘉浜路"},{"poiid":"B2094757D568A4FC4198","title":"中山医院新外科大楼","lon":"121.4540968","lat":"31.19750493","category":"162","category_name":"医院","address":"枫林路180号"},{"poiid":"B2094654DB6BA5F5489B","title":"复旦大学上海医学院西区(东门)","lon":"121.45078","lat":"31.19685","category":"52","category_name":"高等院校","address":"徐汇区东安路130"},{"poiid":"B2094654DA6DA5F8479E","title":"上海理工大学西南进修学院教学部","lon":"121.45331","lat":"31.19465","category":"53","category_name":"成人教育","address":"斜土路2000号"},{"poiid":"B2094757D064A0F4499F","title":"VERA唯嘉健身会所(四季园店)","lon":"121.45213758","lat":"31.195726643","category":"148","category_name":"美容美发店","address":"徐汇区东安路149弄(近斜土路)"},{"poiid":"B2094655D26FA5FE4098","title":"四季园","lon":"121.45259","lat":"31.19581","category":"47","category_name":"住宅区","address":"锦蝶苑位于徐汇斜土路2094号"},{"poiid":"B2094757D16FA1FF489E","title":"茶陵路200号","lon":"121.454373886","lat":"31.1966351741","category":"47","category_name":"住宅区","address":"上海茶陵路200号瞿溪路口"},{"poiid":"B2094757D164A2FE489E","title":"中山医院11号楼2楼CT12号机房(东芝320)","lon":"121.45354358","lat":"31.195624854","category":"162","category_name":"医院","address":"上海中山医院11号楼2楼CT12号机房(东芝320)"},{"poiid":"B2094757D06AA5FD409C","title":"复旦大学附属中山医院急诊抢救室","lon":"121.454097","lat":"31.197505","category":"162","category_name":"医院","address":"上海枫林路180号"},{"poiid":"B2094654DA6DAAFD4293","title":"中山医院特诊部","lon":"121.45515","lat":"31.19751","category":"162","category_name":"医院","address":"枫林路169-1识别"},{"poiid":"B2094757D06FA4FB4793","title":"巴士二汽斜土路停车场","lon":"121.4533081","lat":"31.194658279","category":"38","category_name":"公交车站","address":"上海徐汇区斜土路2000号"},{"poiid":"B2094753D56AA0F8479E","title":"來福士STAYREAL","lon":"121.453758","lat":"31.194503","category":"247","category_name":"餐饮美食","address":"上海市 人民廣場南京路"},{"poiid":"B2094757D464A7FB499C","title":"功德林 南丹路店 Godly","lon":"121.45329","lat":"31.19477","category":"89","category_name":"中式素餐馆","address":"徐汇区南丹路350号(近徐虹北路)"},{"poiid":"B2094757D16EA2FF499D","title":"华夏银行徐汇支行","lon":"121.453094532","lat":"31.196677316","category":"150","category_name":"银行","address":"上海徐汇区肇嘉浜路807号"},{"poiid":"B2094654DB6BA5F84199","title":"兴都大楼","lon":"121.452","lat":"31.1971","category":"46","category_name":"楼宇","address":"南丹东路18号"},{"poiid":"B2094655D269AAFC409F","title":"上广电假日酒店","lon":"121.45635","lat":"31.19592","category":"247","category_name":"餐饮美食","address":"徐汇区斜土路1646号(近枫林路)"},{"poiid":"B2094654DA6DA2F4409D","title":"爱建大厦","lon":"121.4548438111","lat":"31.195258627644","category":"46","category_name":"楼宇","address":"宛平南路590弄"},{"poiid":"B2094654DA6DAAFD439A","title":"妯娌老鸭粉丝馆枫林店","lon":"121.45495","lat":"31.19781","category":"68","category_name":"快餐厅","address":"徐汇区枫林路167号(近斜土路)"},{"poiid":"B2094757D16EA5F5499D","title":"爱和大厦","lon":"121.453","lat":"31.1943","category":"46","category_name":"楼宇","address":"上海零陵路629号"},{"poiid":"B2094654DB65A3FE4193","title":"上海电视大学西南学院教学点","lon":"121.4533","lat":"31.19464","category":"52","category_name":"高等院校","address":"徐汇区斜土路2000号(近高安路)"},{"poiid":"B2094757D165AAFB489E","title":"中山医院住院部8号楼1病区","lon":"121.452221326","lat":"31.1951340748","category":"162","category_name":"医院","address":"上海中山医院"},{"poiid":"B2094757D568A6F9419E","title":"复旦大学医学院清真餐厅","lon":"121.4507819","lat":"31.19685306","category":"68","category_name":"快餐厅","address":"徐汇区东安路130号复旦大学医学院内(近斜土路)"},{"poiid":"B2094654DA6DA2F44799","title":"农科大楼","lon":"121.452","lat":"31.1969","category":"46","category_name":"楼宇","address":"斜土路2451号"},{"poiid":"B2094654DA6DAAFC4592","title":"新天地(斜土路)","lon":"121.45468","lat":"31.19554","category":"141","category_name":"服装鞋帽皮具店","address":"斜土路1787识别"},{"poiid":"B2094655D26CA7F4429B","title":"复旦大学附属中山医院","lon":"121.45405","lat":"31.19857","category":"162","category_name":"医院","address":"医学院路111,136号"},{"poiid":"B2094757D06FAAFA429C","title":"复旦大学上海医学院","lon":"121.452400191","lat":"31.1976300604","category":"671","category_name":"高校中心点","address":"上海徐汇区医学院路130号"},{"poiid":"B2094655D26DA3F9449E","title":"复旦大学附属中山医院门诊急诊部","lon":"121.45333","lat":"31.19884","category":"162","category_name":"医院","address":"医学院路111、136"},{"poiid":"B2094753D76FAAFA449C","title":"上海滩国泰旗舰店","lon":"121.466011","lat":"31.216125","category":"249","category_name":"购物服务","address":"淮海中路868号"},{"poiid":"B2094757D06FA0F84793","title":"耶里夏丽 枫林店","lon":"121.4546063054","lat":"31.198207435713","category":"90","category_name":"清真餐馆","address":"徐汇区枫林路147号(近清真路)"},{"poiid":"B2094654DB64A4FC429B","title":"复旦大学枫林校区","lon":"121.45201","lat":"31.19825","category":"52","category_name":"高等院校","address":"徐汇区医学院路138号(近中山医院)"},{"poiid":"B2094655D26CA4F84898","title":"复旦大学附属中山医院住院部","lon":"121.45423","lat":"31.1975","category":"265","category_name":"知名企业","address":"枫林路180号"},{"poiid":"B2094757D06FAAFD4199","title":"孔家花园","lon":"121.453","lat":"31.1978","category":"47","category_name":"住宅区","address":"徐汇区斜土路2421号(近宛平南路)"},{"poiid":"B2094757D06FA3FF429E","title":"麦当劳(斜土路店)","lon":"121.45187","lat":"31.194","category":"68","category_name":"快餐厅","address":"徐汇区斜土路1969号(近东安路)"},{"poiid":"B2094757D064A0F94198","title":"中山医院住院部1号楼","lon":"121.454551738","lat":"31.1979389123","category":"162","category_name":"医院","address":"上海枫林路180号"},{"poiid":"B2094757D068A5FB469B","title":"复旦大学附属儿科医院(枫林路分院)","lon":"121.45477","lat":"31.19753","category":"162","category_name":"医院","address":"上海徐汇区枫林路183号(近斜土路)"},{"poiid":"B2094655D36CA6F4459E","title":"东安路斜土路","lon":"121.45272","lat":"31.19408","category":"38","category_name":"公交车站","address":""},{"poiid":"B2094757D06FAAFC4892","title":"爱邦大厦","lon":"121.454","lat":"31.1946","category":"46","category_name":"楼宇","address":"卢湾区复兴中路369号(马当路口)"},{"poiid":"B2094757D069A3FC429B","title":"安吉汽车销售","lon":"121.453248","lat":"31.193429577","category":"158","category_name":"汽车销售","address":"徐汇区东安路239号(近斜土路)"},{"poiid":"B2094757D56DA7FE499B","title":"徐家汇查餐厅","lon":"121.45405","lat":"31.19857","category":"247","category_name":"餐饮美食","address":"天钥桥路"},{"poiid":"B2094757D06FA4FB409A","title":"串串香麻辣烫(枫林路店)","lon":"121.45532","lat":"31.19775","category":"68","category_name":"快餐厅","address":"徐汇区枫林路155号(近中山医院)"},{"poiid":"B2094757D06BABF9489D","title":"四季园 Seasons' Garden","lon":"121.452327588","lat":"31.1956166433","category":"47","category_name":"住宅区","address":"上海徐汇区东安路149弄(近斜土路)"},{"poiid":"B2094757D06FA5F8409C","title":"四海游龙(东安路店)","lon":"121.45073","lat":"31.1966","category":"68","category_name":"快餐厅","address":"徐汇区东安路40号(近青松城大酒店)"},{"poiid":"B2094757D068A3FA499D","title":"中山医院住院部三号楼","lon":"121.453937593","lat":"31.1983534856","category":"162","category_name":"医院","address":"上海徐汇区枫林路180号(近医学院路)"},{"poiid":"B2094757D16EABFB4499","title":"中山医院住院8号楼","lon":"121.45390858","lat":"31.196357768","category":"162","category_name":"医院","address":"上海市徐汇区枫林路180号中山医院住院部"},{"poiid":"B2094655D36CA6F84392","title":"枫林路斜土路","lon":"121.45569","lat":"31.1961","category":"38","category_name":"公交车站","address":""},{"poiid":"B2094757D168A0FF479E","title":"复旦大学附属中山医院五号楼","lon":"121.452995311","lat":"31.1973022872","category":"162","category_name":"医院","address":"上海枫林路180号"},{"poiid":"B2094757D069A1F9419D","title":"中山医院10号楼手术室","lon":"121.453940275","lat":"31.1983488969","category":"162","category_name":"医院","address":"上海徐汇区枫林路180号(近医学院路)"},{"poiid":"B2094750D66DA1FB479C","title":"徐家汇五番街","lon":"121.451797","lat":"31.195696","category":"116","category_name":"特色商业街","address":"上海市 上海徐汇区肇嘉浜路1111号美罗城B1"},{"poiid":"B2094757D06BA3F9439E","title":"复旦大学附属中山医院急诊输液室","lon":"121.453645232","lat":"31.1989293545","category":"162","category_name":"医院","address":"徐汇区枫林路180号中山医院内(近医学院路)"},{"poiid":"B2094757D16EA1F4419F","title":"中山医院中山大讲堂","lon":"121.453364","lat":"31.196937","category":"162","category_name":"医院","address":"上海枫林路180号中山医院2号楼3楼"},{"poiid":"B2094757D06BAAFA4599","title":"中山医院住院部九号楼","lon":"121.454636586","lat":"31.1974707905","category":"500","category_name":"未知分类","address":"上海市徐汇区肇嘉浜路"},{"poiid":"B2094757D568A4FC4198","title":"中山医院新外科大楼","lon":"121.4540968","lat":"31.19750493","category":"162","category_name":"医院","address":"枫林路180号"},{"poiid":"B2094654DB6BA5F5489B","title":"复旦大学上海医学院西区(东门)","lon":"121.45078","lat":"31.19685","category":"52","category_name":"高等院校","address":"徐汇区东安路130"},{"poiid":"B2094654DA6DA5F8479E","title":"上海理工大学西南进修学院教学部","lon":"121.45331","lat":"31.19465","category":"53","category_name":"成人教育","address":"斜土路2000号"},{"poiid":"B2094757D064A0F4499F","title":"VERA唯嘉健身会所(四季园店)","lon":"121.45213758","lat":"31.195726643","category":"148","category_name":"美容美发店","address":"徐汇区东安路149弄(近斜土路)"},{"poiid":"B2094655D26FA5FE4098","title":"四季园","lon":"121.45259","lat":"31.19581","category":"47","category_name":"住宅区","address":"锦蝶苑位于徐汇斜土路2094号"},{"poiid":"B2094757D16FA1FF489E","title":"茶陵路200号","lon":"121.454373886","lat":"31.1966351741","category":"47","category_name":"住宅区","address":"上海茶陵路200号瞿溪路口"},{"poiid":"B2094757D164A2FE489E","title":"中山医院11号楼2楼CT12号机房(东芝320)","lon":"121.45354358","lat":"31.195624854","category":"162","category_name":"医院","address":"上海中山医院11号楼2楼CT12号机房(东芝320)"},{"poiid":"B2094757D06AA5FD409C","title":"复旦大学附属中山医院急诊抢救室","lon":"121.454097","lat":"31.197505","category":"162","category_name":"医院","address":"上海枫林路180号"},{"poiid":"B2094654DA6DAAFD4293","title":"中山医院特诊部","lon":"121.45515","lat":"31.19751","category":"162","category_name":"医院","address":"枫林路169-1识别"},{"poiid":"B2094757D06FA4FB4793","title":"巴士二汽斜土路停车场","lon":"121.4533081","lat":"31.194658279","category":"38","category_name":"公交车站","address":"上海徐汇区斜土路2000号"},{"poiid":"B2094753D56AA0F8479E","title":"來福士STAYREAL","lon":"121.453758","lat":"31.194503","category":"247","category_name":"餐饮美食","address":"上海市 人民廣場南京路"},{"poiid":"B2094757D464A7FB499C","title":"功德林 南丹路店 Godly","lon":"121.45329","lat":"31.19477","category":"89","category_name":"中式素餐馆","address":"徐汇区南丹路350号(近徐虹北路)"},{"poiid":"B2094757D16EA2FF499D","title":"华夏银行徐汇支行","lon":"121.453094532","lat":"31.196677316","category":"150","category_name":"银行","address":"上海徐汇区肇嘉浜路807号"},{"poiid":"B2094654DB6BA5F84199","title":"兴都大楼","lon":"121.452","lat":"31.1971","category":"46","category_name":"楼宇","address":"南丹东路18号"},{"poiid":"B2094655D269AAFC409F","title":"上广电假日酒店","lon":"121.45635","lat":"31.19592","category":"247","category_name":"餐饮美食","address":"徐汇区斜土路1646号(近枫林路)"},{"poiid":"B2094654DA6DA2F4409D","title":"爱建大厦","lon":"121.4548438111","lat":"31.195258627644","category":"46","category_name":"楼宇","address":"宛平南路590弄"},{"poiid":"B2094654DA6DAAFD439A","title":"妯娌老鸭粉丝馆枫林店","lon":"121.45495","lat":"31.19781","category":"68","category_name":"快餐厅","address":"徐汇区枫林路167号(近斜土路)"},{"poiid":"B2094757D16EA5F5499D","title":"爱和大厦","lon":"121.453","lat":"31.1943","category":"46","category_name":"楼宇","address":"上海零陵路629号"},{"poiid":"B2094654DB65A3FE4193","title":"上海电视大学西南学院教学点","lon":"121.4533","lat":"31.19464","category":"52","category_name":"高等院校","address":"徐汇区斜土路2000号(近高安路)"},{"poiid":"B2094757D165AAFB489E","title":"中山医院住院部8号楼1病区","lon":"121.452221326","lat":"31.1951340748","category":"162","category_name":"医院","address":"上海中山医院"},{"poiid":"B2094757D568A6F9419E","title":"复旦大学医学院清真餐厅","lon":"121.4507819","lat":"31.19685306","category":"68","category_name":"快餐厅","address":"徐汇区东安路130号复旦大学医学院内(近斜土路)"},{"poiid":"B2094654DA6DA2F44799","title":"农科大楼","lon":"121.452","lat":"31.1969","category":"46","category_name":"楼宇","address":"斜土路2451号"},{"poiid":"B2094654DA6DAAFC4592","title":"新天地(斜土路)","lon":"121.45468","lat":"31.19554","category":"141","category_name":"服装鞋帽皮具店","address":"斜土路1787识别"},{"poiid":"B2094655D26CA7F4429B","title":"复旦大学附属中山医院","lon":"121.45405","lat":"31.19857","category":"162","category_name":"医院","address":"医学院路111,136号"},{"poiid":"B2094757D06FAAFA429C","title":"复旦大学上海医学院","lon":"121.452400191","lat":"31.1976300604","category":"671","category_name":"高校中心点","address":"上海徐汇区医学院路130号"},{"poiid":"B2094655D26DA3F9449E","title":"复旦大学附属中山医院门诊急诊部","lon":"121.45333","lat":"31.19884","category":"162","category_name":"医院","address":"医学院路111、136"},{"poiid":"B2094753D76FAAFA449C","title":"上海滩国泰旗舰店","lon":"121.466011","lat":"31.216125","category":"249","category_name":"购物服务","address":"淮海中路868号"},{"poiid":"B2094757D06FA0F84793","title":"耶里夏丽 枫林店","lon":"121.4546063054","lat":"31.198207435713","category":"90","category_name":"清真餐馆","address":"徐汇区枫林路147号(近清真路)"},{"poiid":"B2094654DB64A4FC429B","title":"复旦大学枫林校区","lon":"121.45201","lat":"31.19825","category":"52","category_name":"高等院校","address":"徐汇区医学院路138号(近中山医院)"},{"poiid":"B2094655D26CA4F84898","title":"复旦大学附属中山医院住院部","lon":"121.45423","lat":"31.1975","category":"265","category_name":"知名企业","address":"枫林路180号"},{"poiid":"B2094757D06FAAFD4199","title":"孔家花园","lon":"121.453","lat":"31.1978","category":"47","category_name":"住宅区","address":"徐汇区斜土路2421号(近宛平南路)"},{"poiid":"B2094757D06FA3FF429E","title":"麦当劳(斜土路店)","lon":"121.45187","lat":"31.194","category":"68","category_name":"快餐厅","address":"徐汇区斜土路1969号(近东安路)"},{"poiid":"B2094757D064A0F94198","title":"中山医院住院部1号楼","lon":"121.454551738","lat":"31.1979389123","category":"162","category_name":"医院","address":"上海枫林路180号"},{"poiid":"B2094757D068A5FB469B","title":"复旦大学附属儿科医院(枫林路分院)","lon":"121.45477","lat":"31.19753","category":"162","category_name":"医院","address":"上海徐汇区枫林路183号(近斜土路)"},{"poiid":"B2094655D36CA6F4459E","title":"东安路斜土路","lon":"121.45272","lat":"31.19408","category":"38","category_name":"公交车站","address":""},{"poiid":"B2094757D06FAAFC4892","title":"爱邦大厦","lon":"121.454","lat":"31.1946","category":"46","category_name":"楼宇","address":"卢湾区复兴中路369号(马当路口)"},{"poiid":"B2094757D069A3FC429B","title":"安吉汽车销售","lon":"121.453248","lat":"31.193429577","category":"158","category_name":"汽车销售","address":"徐汇区东安路239号(近斜土路)"},{"poiid":"B2094757D56DA7FE499B","title":"徐家汇查餐厅","lon":"121.45405","lat":"31.19857","category":"247","category_name":"餐饮美食","address":"天钥桥路"},{"poiid":"B2094757D06FA4FB409A","title":"串串香麻辣烫(枫林路店)","lon":"121.45532","lat":"31.19775","category":"68","category_name":"快餐厅","address":"徐汇区枫林路155号(近中山医院)"},{"poiid":"B2094757D06BABF9489D","title":"四季园 Seasons' Garden","lon":"121.452327588","lat":"31.1956166433","category":"47","category_name":"住宅区","address":"上海徐汇区东安路149弄(近斜土路)"},{"poiid":"B2094757D06FA5F8409C","title":"四海游龙(东安路店)","lon":"121.45073","lat":"31.1966","category":"68","category_name":"快餐厅","address":"徐汇区东安路40号(近青松城大酒店)"},{"poiid":"B2094757D068A3FA499D","title":"中山医院住院部三号楼","lon":"121.453937593","lat":"31.1983534856","category":"162","category_name":"医院","address":"上海徐汇区枫林路180号(近医学院路)"},{"poiid":"B2094757D16EABFB4499","title":"中山医院住院8号楼","lon":"121.45390858","lat":"31.196357768","category":"162","category_name":"医院","address":"上海市徐汇区枫林路180号中山医院住院部"},{"poiid":"B2094655D36CA6F84392","title":"枫林路斜土路","lon":"121.45569","lat":"31.1961","category":"38","category_name":"公交车站","address":""},{"poiid":"B2094757D168A0FF479E","title":"复旦大学附属中山医院五号楼","lon":"121.452995311","lat":"31.1973022872","category":"162","category_name":"医院","address":"上海枫林路180号"},{"poiid":"B2094757D069A1F9419D","title":"中山医院10号楼手术室","lon":"121.453940275","lat":"31.1983488969","category":"162","category_name":"医院","address":"上海徐汇区枫林路180号(近医学院路)"},{"poiid":"B2094750D66DA1FB479C","title":"徐家汇五番街","lon":"121.451797","lat":"31.195696","category":"116","category_name":"特色商业街","address":"上海市 上海徐汇区肇嘉浜路1111号美罗城B1"},{"poiid":"B2094757D06BA3F9439E","title":"复旦大学附属中山医院急诊输液室","lon":"121.453645232","lat":"31.1989293545","category":"162","category_name":"医院","address":"徐汇区枫林路180号中山医院内(近医学院路)"},{"poiid":"B2094757D16EA1F4419F","title":"中山医院中山大讲堂","lon":"121.453364","lat":"31.196937","category":"162","category_name":"医院","address":"上海枫林路180号中山医院2号楼3楼"},{"poiid":"B2094757D06BAAFA4599","title":"中山医院住院部九号楼","lon":"121.454636586","lat":"31.1974707905","category":"500","category_name":"未知分类","address":"上海市徐汇区肇嘉浜路"},{"poiid":"B2094757D568A4FC4198","title":"中山医院新外科大楼","lon":"121.4540968","lat":"31.19750493","category":"162","category_name":"医院","address":"枫林路180号"},{"poiid":"B2094654DB6BA5F5489B","title":"复旦大学上海医学院西区(东门)","lon":"121.45078","lat":"31.19685","category":"52","category_name":"高等院校","address":"徐汇区东安路130"},{"poiid":"B2094654DA6DA5F8479E","title":"上海理工大学西南进修学院教学部","lon":"121.45331","lat":"31.19465","category":"53","category_name":"成人教育","address":"斜土路2000号"},{"poiid":"B2094757D064A0F4499F","title":"VERA唯嘉健身会所(四季园店)","lon":"121.45213758","lat":"31.195726643","category":"148","category_name":"美容美发店","address":"徐汇区东安路149弄(近斜土路)"},{"poiid":"B2094655D26FA5FE4098","title":"四季园","lon":"121.45259","lat":"31.19581","category":"47","category_name":"住宅区","address":"锦蝶苑位于徐汇斜土路2094号"},{"poiid":"B2094757D16FA1FF489E","title":"茶陵路200号","lon":"121.454373886","lat":"31.1966351741","category":"47","category_name":"住宅区","address":"上海茶陵路200号瞿溪路口"},{"poiid":"B2094757D164A2FE489E","title":"中山医院11号楼2楼CT12号机房(东芝320)","lon":"121.45354358","lat":"31.195624854","category":"162","category_name":"医院","address":"上海中山医院11号楼2楼CT12号机房(东芝320)"},{"poiid":"B2094757D06AA5FD409C","title":"复旦大学附属中山医院急诊抢救室","lon":"121.454097","lat":"31.197505","category":"162","category_name":"医院","address":"上海枫林路180号"},{"poiid":"B2094654DA6DAAFD4293","title":"中山医院特诊部","lon":"121.45515","lat":"31.19751","category":"162","category_name":"医院","address":"枫林路169-1识别"},{"poiid":"B2094757D06FA4FB4793","title":"巴士二汽斜土路停车场","lon":"121.4533081","lat":"31.194658279","category":"38","category_name":"公交车站","address":"上海徐汇区斜土路2000号"},{"poiid":"B2094753D56AA0F8479E","title":"來福士STAYREAL","lon":"121.453758","lat":"31.194503","category":"247","category_name":"餐饮美食","address":"上海市 人民廣場南京路"},{"poiid":"B2094757D464A7FB499C","title":"功德林 南丹路店 Godly","lon":"121.45329","lat":"31.19477","category":"89","category_name":"中式素餐馆","address":"徐汇区南丹路350号(近徐虹北路)"},{"poiid":"B2094757D16EA2FF499D","title":"华夏银行徐汇支行","lon":"121.453094532","lat":"31.196677316","category":"150","category_name":"银行","address":"上海徐汇区肇嘉浜路807号"},{"poiid":"B2094654DB6BA5F84199","title":"兴都大楼","lon":"121.452","lat":"31.1971","category":"46","category_name":"楼宇","address":"南丹东路18号"},{"poiid":"B2094655D269AAFC409F","title":"上广电假日酒店","lon":"121.45635","lat":"31.19592","category":"247","category_name":"餐饮美食","address":"徐汇区斜土路1646号(近枫林路)"},{"poiid":"B2094654DA6DA2F4409D","title":"爱建大厦","lon":"121.4548438111","lat":"31.195258627644","category":"46","category_name":"楼宇","address":"宛平南路590弄"},{"poiid":"B2094654DA6DAAFD439A","title":"妯娌老鸭粉丝馆枫林店","lon":"121.45495","lat":"31.19781","category":"68","category_name":"快餐厅","address":"徐汇区枫林路167号(近斜土路)"},{"poiid":"B2094757D16EA5F5499D","title":"爱和大厦","lon":"121.453","lat":"31.1943","category":"46","category_name":"楼宇","address":"上海零陵路629号"},{"poiid":"B2094654DB65A3FE4193","title":"上海电视大学西南学院教学点","lon":"121.4533","lat":"31.19464","category":"52","category_name":"高等院校","address":"徐汇区斜土路2000号(近高安路)"},{"poiid":"B2094757D165AAFB489E","title":"中山医院住院部8号楼1病区","lon":"121.452221326","lat":"31.1951340748","category":"162","category_name":"医院","address":"上海中山医院"},{"poiid":"B2094757D568A6F9419E","title":"复旦大学医学院清真餐厅","lon":"121.4507819","lat":"31.19685306","category":"68","category_name":"快餐厅","address":"徐汇区东安路130号复旦大学医学院内(近斜土路)"},{"poiid":"B2094654DA6DA2F44799","title":"农科大楼","lon":"121.452","lat":"31.1969","category":"46","category_name":"楼宇","address":"斜土路2451号"},{"poiid":"B2094654DA6DAAFC4592","title":"新天地(斜土路)","lon":"121.45468","lat":"31.19554","category":"141","category_name":"服装鞋帽皮具店","address":"斜土路1787识别"},{"poiid":"B2094655D26CA7F4429B","title":"复旦大学附属中山医院","lon":"121.45405","lat":"31.19857","category":"162","category_name":"医院","address":"医学院路111,136号"},{"poiid":"B2094757D06FAAFA429C","title":"复旦大学上海医学院","lon":"121.452400191","lat":"31.1976300604","category":"671","category_name":"高校中心点","address":"上海徐汇区医学院路130号"},{"poiid":"B2094655D26DA3F9449E","title":"复旦大学附属中山医院门诊急诊部","lon":"121.45333","lat":"31.19884","category":"162","category_name":"医院","address":"医学院路111、136"},{"poiid":"B2094753D76FAAFA449C","title":"上海滩国泰旗舰店","lon":"121.466011","lat":"31.216125","category":"249","category_name":"购物服务","address":"淮海中路868号"},{"poiid":"B2094757D06FA0F84793","title":"耶里夏丽 枫林店","lon":"121.4546063054","lat":"31.198207435713","category":"90","category_name":"清真餐馆","address":"徐汇区枫林路147号(近清真路)"},{"poiid":"B2094654DB64A4FC429B","title":"复旦大学枫林校区","lon":"121.45201","lat":"31.19825","category":"52","category_name":"高等院校","address":"徐汇区医学院路138号(近中山医院)"},{"poiid":"B2094655D26CA4F84898","title":"复旦大学附属中山医院住院部","lon":"121.45423","lat":"31.1975","category":"265","category_name":"知名企业","address":"枫林路180号"},{"poiid":"B2094757D06FAAFD4199","title":"孔家花园","lon":"121.453","lat":"31.1978","category":"47","category_name":"住宅区","address":"徐汇区斜土路2421号(近宛平南路)"},{"poiid":"B2094757D06FA3FF429E","title":"麦当劳(斜土路店)","lon":"121.45187","lat":"31.194","category":"68","category_name":"快餐厅","address":"徐汇区斜土路1969号(近东安路)"},{"poiid":"B2094757D064A0F94198","title":"中山医院住院部1号楼","lon":"121.454551738","lat":"31.1979389123","category":"162","category_name":"医院","address":"上海枫林路180号"},{"poiid":"B2094757D068A5FB469B","title":"复旦大学附属儿科医院(枫林路分院)","lon":"121.45477","lat":"31.19753","category":"162","category_name":"医院","address":"上海徐汇区枫林路183号(近斜土路)"},{"poiid":"B2094655D36CA6F4459E","title":"东安路斜土路","lon":"121.45272","lat":"31.19408","category":"38","category_name":"公交车站","address":""},{"poiid":"B2094757D06FAAFC4892","title":"爱邦大厦","lon":"121.454","lat":"31.1946","category":"46","category_name":"楼宇","address":"卢湾区复兴中路369号(马当路口)"},{"poiid":"B2094757D069A3FC429B","title":"安吉汽车销售","lon":"121.453248","lat":"31.193429577","category":"158","category_name":"汽车销售","address":"徐汇区东安路239号(近斜土路)"},{"poiid":"B2094757D56DA7FE499B","title":"徐家汇查餐厅","lon":"121.45405","lat":"31.19857","category":"247","category_name":"餐饮美食","address":"天钥桥路"},{"poiid":"B2094757D06FA4FB409A","title":"串串香麻辣烫(枫林路店)","lon":"121.45532","lat":"31.19775","category":"68","category_name":"快餐厅","address":"徐汇区枫林路155号(近中山医院)"},{"poiid":"B2094757D06BABF9489D","title":"四季园 Seasons' Garden","lon":"121.452327588","lat":"31.1956166433","category":"47","category_name":"住宅区","address":"上海徐汇区东安路149弄(近斜土路)"},{"poiid":"B2094757D06FA5F8409C","title":"四海游龙(东安路店)","lon":"121.45073","lat":"31.1966","category":"68","category_name":"快餐厅","address":"徐汇区东安路40号(近青松城大酒店)"},{"poiid":"B2094757D068A3FA499D","title":"中山医院住院部三号楼","lon":"121.453937593","lat":"31.1983534856","category":"162","category_name":"医院","address":"上海徐汇区枫林路180号(近医学院路)"},{"poiid":"B2094757D16EABFB4499","title":"中山医院住院8号楼","lon":"121.45390858","lat":"31.196357768","category":"162","category_name":"医院","address":"上海市徐汇区枫林路180号中山医院住院部"},{"poiid":"B2094655D36CA6F84392","title":"枫林路斜土路","lon":"121.45569","lat":"31.1961","category":"38","category_name":"公交车站","address":""},{"poiid":"B2094757D168A0FF479E","title":"复旦大学附属中山医院五号楼","lon":"121.452995311","lat":"31.1973022872","category":"162","category_name":"医院","address":"上海枫林路180号"},{"poiid":"B2094757D069A1F9419D","title":"中山医院10号楼手术室","lon":"121.453940275","lat":"31.1983488969","category":"162","category_name":"医院","address":"上海徐汇区枫林路180号(近医学院路)"},{"poiid":"B2094750D66DA1FB479C","title":"徐家汇五番街","lon":"121.451797","lat":"31.195696","category":"116","category_name":"特色商业街","address":"上海市 上海徐汇区肇嘉浜路1111号美罗城B1"},{"poiid":"B2094757D06BA3F9439E","title":"复旦大学附属中山医院急诊输液室","lon":"121.453645232","lat":"31.1989293545","category":"162","category_name":"医院","address":"徐汇区枫林路180号中山医院内(近医学院路)"},{"poiid":"B2094757D16EA1F4419F","title":"中山医院中山大讲堂","lon":"121.453364","lat":"31.196937","category":"162","category_name":"医院","address":"上海枫林路180号中山医院2号楼3楼"},{"poiid":"B2094757D06BAAFA4599","title":"中山医院住院部九号楼","lon":"121.454636586","lat":"31.1974707905","category":"500","category_name":"未知分类","address":"上海市徐汇区肇嘉浜路"},{"poiid":"B2094757D568A4FC4198","title":"中山医院新外科大楼","lon":"121.4540968","lat":"31.19750493","category":"162","category_name":"医院","address":"枫林路180号"},{"poiid":"B2094654DB6BA5F5489B","title":"复旦大学上海医学院西区(东门)","lon":"121.45078","lat":"31.19685","category":"52","category_name":"高等院校","address":"徐汇区东安路130"},{"poiid":"B2094654DA6DA5F8479E","title":"上海理工大学西南进修学院教学部","lon":"121.45331","lat":"31.19465","category":"53","category_name":"成人教育","address":"斜土路2000号"},{"poiid":"B2094757D064A0F4499F","title":"VERA唯嘉健身会所(四季园店)","lon":"121.45213758","lat":"31.195726643","category":"148","category_name":"美容美发店","address":"徐汇区东安路149弄(近斜土路)"},{"poiid":"B2094655D26FA5FE4098","title":"四季园","lon":"121.45259","lat":"31.19581","category":"47","category_name":"住宅区","address":"锦蝶苑位于徐汇斜土路2094号"},{"poiid":"B2094757D16FA1FF489E","title":"茶陵路200号","lon":"121.454373886","lat":"31.1966351741","category":"47","category_name":"住宅区","address":"上海茶陵路200号瞿溪路口"},{"poiid":"B2094757D164A2FE489E","title":"中山医院11号楼2楼CT12号机房(东芝320)","lon":"121.45354358","lat":"31.195624854","category":"162","category_name":"医院","address":"上海中山医院11号楼2楼CT12号机房(东芝320)"},{"poiid":"B2094757D06AA5FD409C","title":"复旦大学附属中山医院急诊抢救室","lon":"121.454097","lat":"31.197505","category":"162","category_name":"医院","address":"上海枫林路180号"},{"poiid":"B2094654DA6DAAFD4293","title":"中山医院特诊部","lon":"121.45515","lat":"31.19751","category":"162","category_name":"医院","address":"枫林路169-1识别"},{"poiid":"B2094757D06FA4FB4793","title":"巴士二汽斜土路停车场","lon":"121.4533081","lat":"31.194658279","category":"38","category_name":"公交车站","address":"上海徐汇区斜土路2000号"},{"poiid":"B2094753D56AA0F8479E","title":"來福士STAYREAL","lon":"121.453758","lat":"31.194503","category":"247","category_name":"餐饮美食","address":"上海市 人民廣場南京路"},{"poiid":"B2094757D464A7FB499C","title":"功德林 南丹路店 Godly","lon":"121.45329","lat":"31.19477","category":"89","category_name":"中式素餐馆","address":"徐汇区南丹路350号(近徐虹北路)"},{"poiid":"B2094757D16EA2FF499D","title":"华夏银行徐汇支行","lon":"121.453094532","lat":"31.196677316","category":"150","category_name":"银行","address":"上海徐汇区肇嘉浜路807号"},{"poiid":"B2094654DB6BA5F84199","title":"兴都大楼","lon":"121.452","lat":"31.1971","category":"46","category_name":"楼宇","address":"南丹东路18号"},{"poiid":"B2094655D269AAFC409F","title":"上广电假日酒店","lon":"121.45635","lat":"31.19592","category":"247","category_name":"餐饮美食","address":"徐汇区斜土路1646号(近枫林路)"},{"poiid":"B2094654DA6DA2F4409D","title":"爱建大厦","lon":"121.4548438111","lat":"31.195258627644","category":"46","category_name":"楼宇","address":"宛平南路590弄"},{"poiid":"B2094654DA6DAAFD439A","title":"妯娌老鸭粉丝馆枫林店","lon":"121.45495","lat":"31.19781","category":"68","category_name":"快餐厅","address":"徐汇区枫林路167号(近斜土路)"},{"poiid":"B2094757D16EA5F5499D","title":"爱和大厦","lon":"121.453","lat":"31.1943","category":"46","category_name":"楼宇","address":"上海零陵路629号"},{"poiid":"B2094654DB65A3FE4193","title":"上海电视大学西南学院教学点","lon":"121.4533","lat":"31.19464","category":"52","category_name":"高等院校","address":"徐汇区斜土路2000号(近高安路)"},{"poiid":"B2094757D165AAFB489E","title":"中山医院住院部8号楼1病区","lon":"121.452221326","lat":"31.1951340748","category":"162","category_name":"医院","address":"上海中山医院"},{"poiid":"B2094757D568A6F9419E","title":"复旦大学医学院清真餐厅","lon":"121.4507819","lat":"31.19685306","category":"68","category_name":"快餐厅","address":"徐汇区东安路130号复旦大学医学院内(近斜土路)"},{"poiid":"B2094654DA6DA2F44799","title":"农科大楼","lon":"121.452","lat":"31.1969","category":"46","category_name":"楼宇","address":"斜土路2451号"},{"poiid":"B2094654DA6DAAFC4592","title":"新天地(斜土路)","lon":"121.45468","lat":"31.19554","category":"141","category_name":"服装鞋帽皮具店","address":"斜土路1787识别"}]