[{"poiid":"B2094757D06FA4FD4198","title":"上海大学体育馆(宝山校区)","lon":"121.39534807","lat":"31.319450285","category":"253","category_name":"校园生活","address":"宝山区上大路99号上海大学内(近南陈路)"},{"poiid":"B2094757D06FA3F9489D","title":"上大路地铁站","lon":"121.40900643","lat":"31.314450071","category":"36","category_name":"地铁站","address":"上海轨道交通 七号线 轨交上大路站 7"},{"poiid":"B2094757D068A3F84199","title":"邦德学院","lon":"121.4019","lat":"31.3217","category":"253","category_name":"校园生活","address":"宝山区锦秋路299号(近东方国贸)"},{"poiid":"B2094655D265A1FA439D","title":"经纬城市绿洲","lon":"121.40513","lat":"31.32703","category":"47","category_name":"住宅区","address":"纬地路88弄1-107号"},{"poiid":"B2094757D064A0FA4299","title":"上海大学东区","lon":"121.39891213","lat":"31.313104353","category":"500","category_name":"未知分类","address":"上海上大路599号"},{"poiid":"B2094757D06FA2FA419F","title":"上海大学 C楼","lon":"121.39499145","lat":"31.314401314","category":"253","category_name":"校园生活","address":"上海宝山区上大路99号"},{"poiid":"B2094757D06FABFD499B","title":"上海大学 B楼","lon":"121.39523821","lat":"31.31397968","category":"253","category_name":"校园生活","address":"上海宝山区上大路99号"},{"poiid":"B2094654D465A6FD499F","title":"东方国贸新城","lon":"121.406136","lat":"31.329373","category":"248","category_name":"生活娱乐","address":"沪太路3999号"},{"poiid":"B2094654DB6AABF54998","title":"乾泽园","lon":"121.40899283552","lat":"31.316330635524","category":"47","category_name":"住宅区","address":"上海环镇北路699弄"},{"poiid":"B2094654DB6AABF5499B","title":"上大阳光乾静园","lon":"121.40745","lat":"31.31087","category":"47","category_name":"住宅区","address":"上海市宝山区上大路128弄"},{"poiid":"B2094757D06AA1FF4298","title":"上海大学伟长楼","lon":"121.39533525","lat":"31.3177140575","category":"500","category_name":"未知分类","address":"上大路99号近上海大学东门"},{"poiid":"B2094757D065A1FB499C","title":"东方国贸","lon":"121.407152","lat":"31.327869","category":"500","category_name":"未知分类","address":"宝山区沪太路3999号"},{"poiid":"B2094757D068A2F9429E","title":"上海大学 E楼","lon":"121.39420824","lat":"31.316014507","category":"500","category_name":"未知分类","address":"上海宝山区上大路99号"},{"poiid":"B2094757D068A1FA4092","title":"老盛昌苏州汤包馆(环镇北路店)","lon":"121.41023","lat":"31.30774","category":"87","category_name":"特色／地方风味餐厅","address":"宝山区场联路口(近环镇北路)"},{"poiid":"B2094757D168A0FD4492","title":"经纬城市绿洲-阳光水岸家园","lon":"121.40630425","lat":"31.3280000687","category":"252","category_name":"楼宇机构","address":"上海纬地路88弄"},{"poiid":"B2094757D469A5F94199","title":"德克士 沪太路店","lon":"121.4059498","lat":"31.3301162","category":"68","category_name":"快餐厅","address":"宝山区沪太路3987-3989号东方国贸新城1楼"},{"poiid":"B2094757D16DA2F84598","title":"鑫沪港海鲜大酒店","lon":"121.4069","lat":"31.32657","category":"76","category_name":"上海菜","address":"宝山区沪太路3677号(近东方国贸)"},{"poiid":"B2094654D465A5FD489B","title":"上大阳光乾宁园","lon":"121.40256","lat":"31.31156","category":"47","category_name":"住宅区","address":"上大路218弄1-67边门"},{"poiid":"B2094757DA6EABFB419D","title":"祥太苑","lon":"121.407123800002","lat":"31.3251989000002","category":"47","category_name":"住宅区","address":"宝山区沪太路3611弄"},{"poiid":"B2094757D069AAFC499E","title":"外环／沪太路","lon":"121.40743","lat":"31.323081","category":"260","category_name":"其他","address":"上海沪太路"},{"poiid":"B2094655D264ABFC4392","title":"名优土特产交易中心","lon":"121.40848","lat":"31.32672","category":"46","category_name":"楼宇","address":"沪太路3633号"},{"poiid":"B2094654D465A6FD429D","title":"季项宅","lon":"121.40607","lat":"31.31942","category":"47","category_name":"住宅区","address":"沪太路"},{"poiid":"B2094654DB6AABF5499E","title":"上大阳光乾恩园","lon":"121.41116007124","lat":"31.315618633581","category":"47","category_name":"住宅区","address":"环镇北路655弄"},{"poiid":"B2094752D764A2FB499C","title":"顾村公园","lon":"121.402264","lat":"31.316962","category":"250","category_name":"公园户外","address":null},{"poiid":"B2094757D66DA5FE4198","title":"新旺美食林","lon":"121.40661895","lat":"31.3183226835","category":"247","category_name":"餐饮美食","address":"上海岭南路722号"},{"poiid":"B2094757D068A3F94598","title":"南陈路地铁站","lon":"121.39719667","lat":"31.3213151126","category":"36","category_name":"地铁站","address":"上海轨道交通 七号线 轨交南陈路站 7"},{"poiid":"B2094757D068A1FB459C","title":"乾清园","lon":"121.41009","lat":"31.310429","category":"500","category_name":"未知分类","address":"上海市宝山区环镇北路152号"},{"poiid":"B2094654DB6AABF54093","title":"上海AREVA变压器有限公司(东门)","lon":"121.40663","lat":"31.32359","category":"263","category_name":"公司","address":"沪太路3588"},{"poiid":"B2094757D469A0F44699","title":"蓝淳咖啡","lon":"121.407584054","lat":"31.318202793","category":"260","category_name":"其他","address":"宝山区沪太路3777号(近祁连山路)"},{"poiid":"B2094655D36DA6FE4399","title":"上大路","lon":"121.40928","lat":"31.31367","category":"38","category_name":"公交车站","address":""},{"poiid":"B2094654D465A5FA4592","title":"红旗汽配","lon":"121.40637","lat":"31.32035","category":"248","category_name":"生活娱乐","address":"沪大汽配市场F区17号"},{"poiid":"B2094757D065AAF54998","title":"经纬集团","lon":"121.41100311","lat":"31.32513237","category":"263","category_name":"公司","address":"上海沪太路3888号"},{"poiid":"B2094654D465A5FA4499","title":"上海市联大汽配经营部","lon":"121.4062","lat":"31.32027","category":"248","category_name":"生活娱乐","address":"沪太路3198号(锦秋路48号)锦秋汽配城C区35、36号"},{"poiid":"B2094654DB65A0F94998","title":"莫泰168连锁旅店(东方国贸店)","lon":"121.40688","lat":"31.32882","category":"216","category_name":"经济型连锁酒店","address":"上海市宝山区沪太路3775号"},{"poiid":"B2094757D16FABFD4592","title":"经纬城市绿洲-观澜泓郡家园","lon":"121.40769085","lat":"31.327486758","category":"252","category_name":"楼宇机构","address":"上海纬地路358弄"},{"poiid":"B2094655D26AA0F94599","title":"地铁上大路站","lon":"121.40928","lat":"31.31367","category":"36","category_name":"地铁站","address":""},{"poiid":"B2094655D36CA0F44699","title":"环镇北路","lon":"121.4079","lat":"31.30797","category":"38","category_name":"公交车站","address":""},{"poiid":"B2094757D16EAAF5409A","title":"沪太路环镇北路","lon":"121.40765295","lat":"31.3162209434","category":"500","category_name":"未知分类","address":"上海沪太路环镇北路"},{"poiid":"B2094757D06AA2FF4198","title":"上海大学游泳馆(上大路馆)","lon":"121.3939042","lat":"31.319477768","category":"253","category_name":"校园生活","address":"宝山区上大路99号上海大学内(近南陈路)"},{"poiid":"B2094654D465A4FD4392","title":"上海市宝山区大场镇红光村","lon":"121.40933","lat":"31.32745","category":"47","category_name":"住宅区","address":"沪太路3651弄188"},{"poiid":"B2094654D465A5FE469F","title":"永福庵","lon":"121.39812","lat":"31.31739","category":"244","category_name":"寺庙道观","address":"南陈路三五一弄2"},{"poiid":"B2094654D465A6F9439C","title":"上海第二医科大学网络教育学院邦德教育中心","lon":"121.40162","lat":"31.32197","category":"52","category_name":"高等院校","address":"宝山区锦秋路299"},{"poiid":"B2094757D064A2FF449C","title":"运时大酒店(环镇北路店)","lon":"121.405586","lat":"31.308099","category":"76","category_name":"上海菜","address":"宝山区环镇北路543号(近场联路)"},{"poiid":"B2094752D06DAAFD4098","title":"万达影城","lon":"121.414062","lat":"31.327545","category":"178","category_name":"电影院","address":null},{"poiid":"B2094757D06BA3FC4892","title":"环镇北路500弄","lon":"121.412","lat":"31.3135","category":"500","category_name":"未知分类","address":"上海环镇北路500弄"},{"poiid":"B2094753D66CA1FC459D","title":"美兰湖","lon":"121.402257","lat":"31.322476","category":"500","category_name":"未知分类","address":"上海市 上海市宝山区罗芳路888号"},{"poiid":"B2094757D06AA1F4459D","title":"上海大学AJ楼","lon":"121.3967886","lat":"31.313536392","category":"253","category_name":"校园生活","address":"上海大学宝山校区"},{"poiid":"B2094757D06BA2F5449E","title":"轩乐诗(环镇北店)","lon":"121.40445555","lat":"31.307577358","category":"76","category_name":"上海菜","address":"宝山区环镇北路577号(近场联路)"},{"poiid":"B2094655D36CA7FE4398","title":"沪太路东方国贸","lon":"121.40591","lat":"31.32969","category":"38","category_name":"公交车站","address":""},{"poiid":"B2094757D16AA5FC439F","title":"上大路沪太路","lon":"121.40864895","lat":"31.313899899","category":"500","category_name":"未知分类","address":"上海市宝山区上大路"},{"poiid":"B2094757D06FA4FD4198","title":"上海大学体育馆(宝山校区)","lon":"121.39534807","lat":"31.319450285","category":"253","category_name":"校园生活","address":"宝山区上大路99号上海大学内(近南陈路)"},{"poiid":"B2094757D06FA3F9489D","title":"上大路地铁站","lon":"121.40900643","lat":"31.314450071","category":"36","category_name":"地铁站","address":"上海轨道交通 七号线 轨交上大路站 7"},{"poiid":"B2094757D068A3F84199","title":"邦德学院","lon":"121.4019","lat":"31.3217","category":"253","category_name":"校园生活","address":"宝山区锦秋路299号(近东方国贸)"},{"poiid":"B2094655D265A1FA439D","title":"经纬城市绿洲","lon":"121.40513","lat":"31.32703","category":"47","category_name":"住宅区","address":"纬地路88弄1-107号"},{"poiid":"B2094757D064A0FA4299","title":"上海大学东区","lon":"121.39891213","lat":"31.313104353","category":"500","category_name":"未知分类","address":"上海上大路599号"},{"poiid":"B2094757D06FA2FA419F","title":"上海大学 C楼","lon":"121.39499145","lat":"31.314401314","category":"253","category_name":"校园生活","address":"上海宝山区上大路99号"},{"poiid":"B2094757D06FABFD499B","title":"上海大学 B楼","lon":"121.39523821","lat":"31.31397968","category":"253","category_name":"校园生活","address":"上海宝山区上大路99号"},{"poiid":"B2094654D465A6FD499F","title":"东方国贸新城","lon":"121.406136","lat":"31.329373","category":"248","category_name":"生活娱乐","address":"沪太路3999号"},{"poiid":"B2094654DB6AABF54998","title":"乾泽园","lon":"121.40899283552","lat":"31.316330635524","category":"47","category_name":"住宅区","address":"上海环镇北路699弄"},{"poiid":"B2094654DB6AABF5499B","title":"上大阳光乾静园","lon":"121.40745","lat":"31.31087","category":"47","category_name":"住宅区","address":"上海市宝山区上大路128弄"},{"poiid":"B2094757D06AA1FF4298","title":"上海大学伟长楼","lon":"121.39533525","lat":"31.3177140575","category":"500","category_name":"未知分类","address":"上大路99号近上海大学东门"},{"poiid":"B2094757D065A1FB499C","title":"东方国贸","lon":"121.407152","lat":"31.327869","category":"500","category_name":"未知分类","address":"宝山区沪太路3999号"},{"poiid":"B2094757D068A2F9429E","title":"上海大学 E楼","lon":"121.39420824","lat":"31.316014507","category":"500","category_name":"未知分类","address":"上海宝山区上大路99号"},{"poiid":"B2094757D068A1FA4092","title":"老盛昌苏州汤包馆(环镇北路店)","lon":"121.41023","lat":"31.30774","category":"87","category_name":"特色／地方风味餐厅","address":"宝山区场联路口(近环镇北路)"},{"poiid":"B2094757D168A0FD4492","title":"经纬城市绿洲-阳光水岸家园","lon":"121.40630425","lat":"31.3280000687","category":"252","category_name":"楼宇机构","address":"上海纬地路88弄"},{"poiid":"B2094757D469A5F94199","title":"德克士 沪太路店","lon":"121.4059498","lat":"31.3301162","category":"68","category_name":"快餐厅","address":"宝山区沪太路3987-3989号东方国贸新城1楼"},{"poiid":"B2094757D16DA2F84598","title":"鑫沪港海鲜大酒店","lon":"121.4069","lat":"31.32657","category":"76","category_name":"上海菜","address":"宝山区沪太路3677号(近东方国贸)"},{"poiid":"B2094654D465A5FD489B","title":"上大阳光乾宁园","lon":"121.40256","lat":"31.31156","category":"47","category_name":"住宅区","address":"上大路218弄1-67边门"},{"poiid":"B2094757DA6EABFB419D","title":"祥太苑","lon":"121.407123800002","lat":"31.3251989000002","category":"47","category_name":"住宅区","address":"宝山区沪太路3611弄"},{"poiid":"B2094757D069AAFC499E","title":"外环／沪太路","lon":"121.40743","lat":"31.323081","category":"260","category_name":"其他","address":"上海沪太路"},{"poiid":"B2094655D264ABFC4392","title":"名优土特产交易中心","lon":"121.40848","lat":"31.32672","category":"46","category_name":"楼宇","address":"沪太路3633号"},{"poiid":"B2094654D465A6FD429D","title":"季项宅","lon":"121.40607","lat":"31.31942","category":"47","category_name":"住宅区","address":"沪太路"},{"poiid":"B2094654DB6AABF5499E","title":"上大阳光乾恩园","lon":"121.41116007124","lat":"31.315618633581","category":"47","category_name":"住宅区","address":"环镇北路655弄"},{"poiid":"B2094752D764A2FB499C","title":"顾村公园","lon":"121.402264","lat":"31.316962","category":"250","category_name":"公园户外","address":null},{"poiid":"B2094757D66DA5FE4198","title":"新旺美食林","lon":"121.40661895","lat":"31.3183226835","category":"247","category_name":"餐饮美食","address":"上海岭南路722号"},{"poiid":"B2094757D068A3F94598","title":"南陈路地铁站","lon":"121.39719667","lat":"31.3213151126","category":"36","category_name":"地铁站","address":"上海轨道交通 七号线 轨交南陈路站 7"},{"poiid":"B2094757D068A1FB459C","title":"乾清园","lon":"121.41009","lat":"31.310429","category":"500","category_name":"未知分类","address":"上海市宝山区环镇北路152号"},{"poiid":"B2094654DB6AABF54093","title":"上海AREVA变压器有限公司(东门)","lon":"121.40663","lat":"31.32359","category":"263","category_name":"公司","address":"沪太路3588"},{"poiid":"B2094757D469A0F44699","title":"蓝淳咖啡","lon":"121.407584054","lat":"31.318202793","category":"260","category_name":"其他","address":"宝山区沪太路3777号(近祁连山路)"},{"poiid":"B2094655D36DA6FE4399","title":"上大路","lon":"121.40928","lat":"31.31367","category":"38","category_name":"公交车站","address":""},{"poiid":"B2094654D465A5FA4592","title":"红旗汽配","lon":"121.40637","lat":"31.32035","category":"248","category_name":"生活娱乐","address":"沪大汽配市场F区17号"},{"poiid":"B2094757D065AAF54998","title":"经纬集团","lon":"121.41100311","lat":"31.32513237","category":"263","category_name":"公司","address":"上海沪太路3888号"},{"poiid":"B2094654D465A5FA4499","title":"上海市联大汽配经营部","lon":"121.4062","lat":"31.32027","category":"248","category_name":"生活娱乐","address":"沪太路3198号(锦秋路48号)锦秋汽配城C区35、36号"},{"poiid":"B2094654DB65A0F94998","title":"莫泰168连锁旅店(东方国贸店)","lon":"121.40688","lat":"31.32882","category":"216","category_name":"经济型连锁酒店","address":"上海市宝山区沪太路3775号"},{"poiid":"B2094757D16FABFD4592","title":"经纬城市绿洲-观澜泓郡家园","lon":"121.40769085","lat":"31.327486758","category":"252","category_name":"楼宇机构","address":"上海纬地路358弄"},{"poiid":"B2094655D26AA0F94599","title":"地铁上大路站","lon":"121.40928","lat":"31.31367","category":"36","category_name":"地铁站","address":""},{"poiid":"B2094655D36CA0F44699","title":"环镇北路","lon":"121.4079","lat":"31.30797","category":"38","category_name":"公交车站","address":""},{"poiid":"B2094757D16EAAF5409A","title":"沪太路环镇北路","lon":"121.40765295","lat":"31.3162209434","category":"500","category_name":"未知分类","address":"上海沪太路环镇北路"},{"poiid":"B2094757D06AA2FF4198","title":"上海大学游泳馆(上大路馆)","lon":"121.3939042","lat":"31.319477768","category":"253","category_name":"校园生活","address":"宝山区上大路99号上海大学内(近南陈路)"},{"poiid":"B2094654D465A4FD4392","title":"上海市宝山区大场镇红光村","lon":"121.40933","lat":"31.32745","category":"47","category_name":"住宅区","address":"沪太路3651弄188"},{"poiid":"B2094654D465A5FE469F","title":"永福庵","lon":"121.39812","lat":"31.31739","category":"244","category_name":"寺庙道观","address":"南陈路三五一弄2"},{"poiid":"B2094654D465A6F9439C","title":"上海第二医科大学网络教育学院邦德教育中心","lon":"121.40162","lat":"31.32197","category":"52","category_name":"高等院校","address":"宝山区锦秋路299"},{"poiid":"B2094757D064A2FF449C","title":"运时大酒店(环镇北路店)","lon":"121.405586","lat":"31.308099","category":"76","category_name":"上海菜","address":"宝山区环镇北路543号(近场联路)"},{"poiid":"B2094752D06DAAFD4098","title":"万达影城","lon":"121.414062","lat":"31.327545","category":"178","category_name":"电影院","address":null},{"poiid":"B2094757D06BA3FC4892","title":"环镇北路500弄","lon":"121.412","lat":"31.3135","category":"500","category_name":"未知分类","address":"上海环镇北路500弄"},{"poiid":"B2094753D66CA1FC459D","title":"美兰湖","lon":"121.402257","lat":"31.322476","category":"500","category_name":"未知分类","address":"上海市 上海市宝山区罗芳路888号"},{"poiid":"B2094757D06AA1F4459D","title":"上海大学AJ楼","lon":"121.3967886","lat":"31.313536392","category":"253","category_name":"校园生活","address":"上海大学宝山校区"},{"poiid":"B2094757D06BA2F5449E","title":"轩乐诗(环镇北店)","lon":"121.40445555","lat":"31.307577358","category":"76","category_name":"上海菜","address":"宝山区环镇北路577号(近场联路)"},{"poiid":"B2094655D36CA7FE4398","title":"沪太路东方国贸","lon":"121.40591","lat":"31.32969","category":"38","category_name":"公交车站","address":""},{"poiid":"B2094757D16AA5FC439F","title":"上大路沪太路","lon":"121.40864895","lat":"31.313899899","category":"500","category_name":"未知分类","address":"上海市宝山区上大路"},{"poiid":"B2094757D06FA4FD4198","title":"上海大学体育馆(宝山校区)","lon":"121.39534807","lat":"31.319450285","category":"253","category_name":"校园生活","address":"宝山区上大路99号上海大学内(近南陈路)"},{"poiid":"B2094757D06FA3F9489D","title":"上大路地铁站","lon":"121.40900643","lat":"31.314450071","category":"36","category_name":"地铁站","address":"上海轨道交通 七号线 轨交上大路站 7"},{"poiid":"B2094757D068A3F84199","title":"邦德学院","lon":"121.4019","lat":"31.3217","category":"253","category_name":"校园生活","address":"宝山区锦秋路299号(近东方国贸)"},{"poiid":"B2094655D265A1FA439D","title":"经纬城市绿洲","lon":"121.40513","lat":"31.32703","category":"47","category_name":"住宅区","address":"纬地路88弄1-107号"},{"poiid":"B2094757D064A0FA4299","title":"上海大学东区","lon":"121.39891213","lat":"31.313104353","category":"500","category_name":"未知分类","address":"上海上大路599号"},{"poiid":"B2094757D06FA2FA419F","title":"上海大学 C楼","lon":"121.39499145","lat":"31.314401314","category":"253","category_name":"校园生活","address":"上海宝山区上大路99号"},{"poiid":"B2094757D06FABFD499B","title":"上海大学 B楼","lon":"121.39523821","lat":"31.31397968","category":"253","category_name":"校园生活","address":"上海宝山区上大路99号"},{"poiid":"B2094654D465A6FD499F","title":"东方国贸新城","lon":"121.406136","lat":"31.329373","category":"248","category_name":"生活娱乐","address":"沪太路3999号"},{"poiid":"B2094654DB6AABF54998","title":"乾泽园","lon":"121.40899283552","lat":"31.316330635524","category":"47","category_name":"住宅区","address":"上海环镇北路699弄"},{"poiid":"B2094654DB6AABF5499B","title":"上大阳光乾静园","lon":"121.40745","lat":"31.31087","category":"47","category_name":"住宅区","address":"上海市宝山区上大路128弄"},{"poiid":"B2094757D06AA1FF4298","title":"上海大学伟长楼","lon":"121.39533525","lat":"31.3177140575","category":"500","category_name":"未知分类","address":"上大路99号近上海大学东门"},{"poiid":"B2094757D065A1FB499C","title":"东方国贸","lon":"121.407152","lat":"31.327869","category":"500","category_name":"未知分类","address":"宝山区沪太路3999号"},{"poiid":"B2094757D068A2F9429E","title":"上海大学 E楼","lon":"121.39420824","lat":"31.316014507","category":"500","category_name":"未知分类","address":"上海宝山区上大路99号"},{"poiid":"B2094757D068A1FA4092","title":"老盛昌苏州汤包馆(环镇北路店)","lon":"121.41023","lat":"31.30774","category":"87","category_name":"特色／地方风味餐厅","address":"宝山区场联路口(近环镇北路)"},{"poiid":"B2094757D168A0FD4492","title":"经纬城市绿洲-阳光水岸家园","lon":"121.40630425","lat":"31.3280000687","category":"252","category_name":"楼宇机构","address":"上海纬地路88弄"},{"poiid":"B2094757D469A5F94199","title":"德克士 沪太路店","lon":"121.4059498","lat":"31.3301162","category":"68","category_name":"快餐厅","address":"宝山区沪太路3987-3989号东方国贸新城1楼"},{"poiid":"B2094757D16DA2F84598","title":"鑫沪港海鲜大酒店","lon":"121.4069","lat":"31.32657","category":"76","category_name":"上海菜","address":"宝山区沪太路3677号(近东方国贸)"},{"poiid":"B2094654D465A5FD489B","title":"上大阳光乾宁园","lon":"121.40256","lat":"31.31156","category":"47","category_name":"住宅区","address":"上大路218弄1-67边门"},{"poiid":"B2094757DA6EABFB419D","title":"祥太苑","lon":"121.407123800002","lat":"31.3251989000002","category":"47","category_name":"住宅区","address":"宝山区沪太路3611弄"},{"poiid":"B2094757D069AAFC499E","title":"外环／沪太路","lon":"121.40743","lat":"31.323081","category":"260","category_name":"其他","address":"上海沪太路"},{"poiid":"B2094655D264ABFC4392","title":"名优土特产交易中心","lon":"121.40848","lat":"31.32672","category":"46","category_name":"楼宇","address":"沪太路3633号"},{"poiid":"B2094654D465A6FD429D","title":"季项宅","lon":"121.40607","lat":"31.31942","category":"47","category_name":"住宅区","address":"沪太路"},{"poiid":"B2094654DB6AABF5499E","title":"上大阳光乾恩园","lon":"121.41116007124","lat":"31.315618633581","category":"47","category_name":"住宅区","address":"环镇北路655弄"},{"poiid":"B2094752D764A2FB499C","title":"顾村公园","lon":"121.402264","lat":"31.316962","category":"250","category_name":"公园户外","address":null},{"poiid":"B2094757D66DA5FE4198","title":"新旺美食林","lon":"121.40661895","lat":"31.3183226835","category":"247","category_name":"餐饮美食","address":"上海岭南路722号"},{"poiid":"B2094757D068A3F94598","title":"南陈路地铁站","lon":"121.39719667","lat":"31.3213151126","category":"36","category_name":"地铁站","address":"上海轨道交通 七号线 轨交南陈路站 7"},{"poiid":"B2094757D068A1FB459C","title":"乾清园","lon":"121.41009","lat":"31.310429","category":"500","category_name":"未知分类","address":"上海市宝山区环镇北路152号"},{"poiid":"B2094654DB6AABF54093","title":"上海AREVA变压器有限公司(东门)","lon":"121.40663","lat":"31.32359","category":"263","category_name":"公司","address":"沪太路3588"},{"poiid":"B2094757D469A0F44699","title":"蓝淳咖啡","lon":"121.407584054","lat":"31.318202793","category":"260","category_name":"其他","address":"宝山区沪太路3777号(近祁连山路)"},{"poiid":"B2094655D36DA6FE4399","title":"上大路","lon":"121.40928","lat":"31.31367","category":"38","category_name":"公交车站","address":""},{"poiid":"B2094654D465A5FA4592","title":"红旗汽配","lon":"121.40637","lat":"31.32035","category":"248","category_name":"生活娱乐","address":"沪大汽配市场F区17号"},{"poiid":"B2094757D065AAF54998","title":"经纬集团","lon":"121.41100311","lat":"31.32513237","category":"263","category_name":"公司","address":"上海沪太路3888号"},{"poiid":"B2094654D465A5FA4499","title":"上海市联大汽配经营部","lon":"121.4062","lat":"31.32027","category":"248","category_name":"生活娱乐","address":"沪太路3198号(锦秋路48号)锦秋汽配城C区35、36号"},{"poiid":"B2094654DB65A0F94998","title":"莫泰168连锁旅店(东方国贸店)","lon":"121.40688","lat":"31.32882","category":"216","category_name":"经济型连锁酒店","address":"上海市宝山区沪太路3775号"},{"poiid":"B2094757D16FABFD4592","title":"经纬城市绿洲-观澜泓郡家园","lon":"121.40769085","lat":"31.327486758","category":"252","category_name":"楼宇机构","address":"上海纬地路358弄"},{"poiid":"B2094655D26AA0F94599","title":"地铁上大路站","lon":"121.40928","lat":"31.31367","category":"36","category_name":"地铁站","address":""},{"poiid":"B2094655D36CA0F44699","title":"环镇北路","lon":"121.4079","lat":"31.30797","category":"38","category_name":"公交车站","address":""},{"poiid":"B2094757D16EAAF5409A","title":"沪太路环镇北路","lon":"121.40765295","lat":"31.3162209434","category":"500","category_name":"未知分类","address":"上海沪太路环镇北路"},{"poiid":"B2094757D06AA2FF4198","title":"上海大学游泳馆(上大路馆)","lon":"121.3939042","lat":"31.319477768","category":"253","category_name":"校园生活","address":"宝山区上大路99号上海大学内(近南陈路)"},{"poiid":"B2094654D465A4FD4392","title":"上海市宝山区大场镇红光村","lon":"121.40933","lat":"31.32745","category":"47","category_name":"住宅区","address":"沪太路3651弄188"},{"poiid":"B2094654D465A5FE469F","title":"永福庵","lon":"121.39812","lat":"31.31739","category":"244","category_name":"寺庙道观","address":"南陈路三五一弄2"},{"poiid":"B2094654D465A6F9439C","title":"上海第二医科大学网络教育学院邦德教育中心","lon":"121.40162","lat":"31.32197","category":"52","category_name":"高等院校","address":"宝山区锦秋路299"},{"poiid":"B2094757D064A2FF449C","title":"运时大酒店(环镇北路店)","lon":"121.405586","lat":"31.308099","category":"76","category_name":"上海菜","address":"宝山区环镇北路543号(近场联路)"},{"poiid":"B2094752D06DAAFD4098","title":"万达影城","lon":"121.414062","lat":"31.327545","category":"178","category_name":"电影院","address":null},{"poiid":"B2094757D06BA3FC4892","title":"环镇北路500弄","lon":"121.412","lat":"31.3135","category":"500","category_name":"未知分类","address":"上海环镇北路500弄"},{"poiid":"B2094753D66CA1FC459D","title":"美兰湖","lon":"121.402257","lat":"31.322476","category":"500","category_name":"未知分类","address":"上海市 上海市宝山区罗芳路888号"},{"poiid":"B2094757D06AA1F4459D","title":"上海大学AJ楼","lon":"121.3967886","lat":"31.313536392","category":"253","category_name":"校园生活","address":"上海大学宝山校区"},{"poiid":"B2094757D06BA2F5449E","title":"轩乐诗(环镇北店)","lon":"121.40445555","lat":"31.307577358","category":"76","category_name":"上海菜","address":"宝山区环镇北路577号(近场联路)"},{"poiid":"B2094655D36CA7FE4398","title":"沪太路东方国贸","lon":"121.40591","lat":"31.32969","category":"38","category_name":"公交车站","address":""},{"poiid":"B2094757D16AA5FC439F","title":"上大路沪太路","lon":"121.40864895","lat":"31.313899899","category":"500","category_name":"未知分类","address":"上海市宝山区上大路"},{"poiid":"B2094757D06FA4FD4198","title":"上海大学体育馆(宝山校区)","lon":"121.39534807","lat":"31.319450285","category":"253","category_name":"校园生活","address":"宝山区上大路99号上海大学内(近南陈路)"},{"poiid":"B2094757D06FA3F9489D","title":"上大路地铁站","lon":"121.40900643","lat":"31.314450071","category":"36","category_name":"地铁站","address":"上海轨道交通 七号线 轨交上大路站 7"},{"poiid":"B2094757D068A3F84199","title":"邦德学院","lon":"121.4019","lat":"31.3217","category":"253","category_name":"校园生活","address":"宝山区锦秋路299号(近东方国贸)"},{"poiid":"B2094655D265A1FA439D","title":"经纬城市绿洲","lon":"121.40513","lat":"31.32703","category":"47","category_name":"住宅区","address":"纬地路88弄1-107号"},{"poiid":"B2094757D064A0FA4299","title":"上海大学东区","lon":"121.39891213","lat":"31.313104353","category":"500","category_name":"未知分类","address":"上海上大路599号"},{"poiid":"B2094757D06FA2FA419F","title":"上海大学 C楼","lon":"121.39499145","lat":"31.314401314","category":"253","category_name":"校园生活","address":"上海宝山区上大路99号"},{"poiid":"B2094757D06FABFD499B","title":"上海大学 B楼","lon":"121.39523821","lat":"31.31397968","category":"253","category_name":"校园生活","address":"上海宝山区上大路99号"},{"poiid":"B2094654D465A6FD499F","title":"东方国贸新城","lon":"121.406136","lat":"31.329373","category":"248","category_name":"生活娱乐","address":"沪太路3999号"},{"poiid":"B2094654DB6AABF54998","title":"乾泽园","lon":"121.40899283552","lat":"31.316330635524","category":"47","category_name":"住宅区","address":"上海环镇北路699弄"},{"poiid":"B2094654DB6AABF5499B","title":"上大阳光乾静园","lon":"121.40745","lat":"31.31087","category":"47","category_name":"住宅区","address":"上海市宝山区上大路128弄"},{"poiid":"B2094757D06AA1FF4298","title":"上海大学伟长楼","lon":"121.39533525","lat":"31.3177140575","category":"500","category_name":"未知分类","address":"上大路99号近上海大学东门"},{"poiid":"B2094757D065A1FB499C","title":"东方国贸","lon":"121.407152","lat":"31.327869","category":"500","category_name":"未知分类","address":"宝山区沪太路3999号"},{"poiid":"B2094757D068A2F9429E","title":"上海大学 E楼","lon":"121.39420824","lat":"31.316014507","category":"500","category_name":"未知分类","address":"上海宝山区上大路99号"},{"poiid":"B2094757D068A1FA4092","title":"老盛昌苏州汤包馆(环镇北路店)","lon":"121.41023","lat":"31.30774","category":"87","category_name":"特色／地方风味餐厅","address":"宝山区场联路口(近环镇北路)"},{"poiid":"B2094757D168A0FD4492","title":"经纬城市绿洲-阳光水岸家园","lon":"121.40630425","lat":"31.3280000687","category":"252","category_name":"楼宇机构","address":"上海纬地路88弄"},{"poiid":"B2094757D469A5F94199","title":"德克士 沪太路店","lon":"121.4059498","lat":"31.3301162","category":"68","category_name":"快餐厅","address":"宝山区沪太路3987-3989号东方国贸新城1楼"},{"poiid":"B2094757D16DA2F84598","title":"鑫沪港海鲜大酒店","lon":"121.4069","lat":"31.32657","category":"76","category_name":"上海菜","address":"宝山区沪太路3677号(近东方国贸)"},{"poiid":"B2094654D465A5FD489B","title":"上大阳光乾宁园","lon":"121.40256","lat":"31.31156","category":"47","category_name":"住宅区","address":"上大路218弄1-67边门"},{"poiid":"B2094757DA6EABFB419D","title":"祥太苑","lon":"121.407123800002","lat":"31.3251989000002","category":"47","category_name":"住宅区","address":"宝山区沪太路3611弄"},{"poiid":"B2094757D069AAFC499E","title":"外环／沪太路","lon":"121.40743","lat":"31.323081","category":"260","category_name":"其他","address":"上海沪太路"},{"poiid":"B2094655D264ABFC4392","title":"名优土特产交易中心","lon":"121.40848","lat":"31.32672","category":"46","category_name":"楼宇","address":"沪太路3633号"},{"poiid":"B2094654D465A6FD429D","title":"季项宅","lon":"121.40607","lat":"31.31942","category":"47","category_name":"住宅区","address":"沪太路"},{"poiid":"B2094654DB6AABF5499E","title":"上大阳光乾恩园","lon":"121.41116007124","lat":"31.315618633581","category":"47","category_name":"住宅区","address":"环镇北路655弄"},{"poiid":"B2094752D764A2FB499C","title":"顾村公园","lon":"121.402264","lat":"31.316962","category":"250","category_name":"公园户外","address":null},{"poiid":"B2094757D66DA5FE4198","title":"新旺美食林","lon":"121.40661895","lat":"31.3183226835","category":"247","category_name":"餐饮美食","address":"上海岭南路722号"},{"poiid":"B2094757D068A3F94598","title":"南陈路地铁站","lon":"121.39719667","lat":"31.3213151126","category":"36","category_name":"地铁站","address":"上海轨道交通 七号线 轨交南陈路站 7"},{"poiid":"B2094757D068A1FB459C","title":"乾清园","lon":"121.41009","lat":"31.310429","category":"500","category_name":"未知分类","address":"上海市宝山区环镇北路152号"},{"poiid":"B2094654DB6AABF54093","title":"上海AREVA变压器有限公司(东门)","lon":"121.40663","lat":"31.32359","category":"263","category_name":"公司","address":"沪太路3588"},{"poiid":"B2094757D469A0F44699","title":"蓝淳咖啡","lon":"121.407584054","lat":"31.318202793","category":"260","category_name":"其他","address":"宝山区沪太路3777号(近祁连山路)"},{"poiid":"B2094655D36DA6FE4399","title":"上大路","lon":"121.40928","lat":"31.31367","category":"38","category_name":"公交车站","address":""},{"poiid":"B2094654D465A5FA4592","title":"红旗汽配","lon":"121.40637","lat":"31.32035","category":"248","category_name":"生活娱乐","address":"沪大汽配市场F区17号"},{"poiid":"B2094757D065AAF54998","title":"经纬集团","lon":"121.41100311","lat":"31.32513237","category":"263","category_name":"公司","address":"上海沪太路3888号"},{"poiid":"B2094654D465A5FA4499","title":"上海市联大汽配经营部","lon":"121.4062","lat":"31.32027","category":"248","category_name":"生活娱乐","address":"沪太路3198号(锦秋路48号)锦秋汽配城C区35、36号"},{"poiid":"B2094654DB65A0F94998","title":"莫泰168连锁旅店(东方国贸店)","lon":"121.40688","lat":"31.32882","category":"216","category_name":"经济型连锁酒店","address":"上海市宝山区沪太路3775号"},{"poiid":"B2094757D16FABFD4592","title":"经纬城市绿洲-观澜泓郡家园","lon":"121.40769085","lat":"31.327486758","category":"252","category_name":"楼宇机构","address":"上海纬地路358弄"},{"poiid":"B2094655D26AA0F94599","title":"地铁上大路站","lon":"121.40928","lat":"31.31367","category":"36","category_name":"地铁站","address":""},{"poiid":"B2094655D36CA0F44699","title":"环镇北路","lon":"121.4079","lat":"31.30797","category":"38","category_name":"公交车站","address":""},{"poiid":"B2094757D16EAAF5409A","title":"沪太路环镇北路","lon":"121.40765295","lat":"31.3162209434","category":"500","category_name":"未知分类","address":"上海沪太路环镇北路"},{"poiid":"B2094757D06AA2FF4198","title":"上海大学游泳馆(上大路馆)","lon":"121.3939042","lat":"31.319477768","category":"253","category_name":"校园生活","address":"宝山区上大路99号上海大学内(近南陈路)"},{"poiid":"B2094654D465A4FD4392","title":"上海市宝山区大场镇红光村","lon":"121.40933","lat":"31.32745","category":"47","category_name":"住宅区","address":"沪太路3651弄188"},{"poiid":"B2094654D465A5FE469F","title":"永福庵","lon":"121.39812","lat":"31.31739","category":"244","category_name":"寺庙道观","address":"南陈路三五一弄2"},{"poiid":"B2094654D465A6F9439C","title":"上海第二医科大学网络教育学院邦德教育中心","lon":"121.40162","lat":"31.32197","category":"52","category_name":"高等院校","address":"宝山区锦秋路299"},{"poiid":"B2094757D064A2FF449C","title":"运时大酒店(环镇北路店)","lon":"121.405586","lat":"31.308099","category":"76","category_name":"上海菜","address":"宝山区环镇北路543号(近场联路)"},{"poiid":"B2094752D06DAAFD4098","title":"万达影城","lon":"121.414062","lat":"31.327545","category":"178","category_name":"电影院","address":null},{"poiid":"B2094757D06BA3FC4892","title":"环镇北路500弄","lon":"121.412","lat":"31.3135","category":"500","category_name":"未知分类","address":"上海环镇北路500弄"},{"poiid":"B2094753D66CA1FC459D","title":"美兰湖","lon":"121.402257","lat":"31.322476","category":"500","category_name":"未知分类","address":"上海市 上海市宝山区罗芳路888号"},{"poiid":"B2094757D06AA1F4459D","title":"上海大学AJ楼","lon":"121.3967886","lat":"31.313536392","category":"253","category_name":"校园生活","address":"上海大学宝山校区"},{"poiid":"B2094757D06BA2F5449E","title":"轩乐诗(环镇北店)","lon":"121.40445555","lat":"31.307577358","category":"76","category_name":"上海菜","address":"宝山区环镇北路577号(近场联路)"},{"poiid":"B2094655D36CA7FE4398","title":"沪太路东方国贸","lon":"121.40591","lat":"31.32969","category":"38","category_name":"公交车站","address":""},{"poiid":"B2094757D16AA5FC439F","title":"上大路沪太路","lon":"121.40864895","lat":"31.313899899","category":"500","category_name":"未知分类","address":"上海市宝山区上大路"}]