[{"poiid":"B2094654DA69A7FB4599","title":"金茂大厦","lon":"121.5124569976","lat":"31.240872238236","category":"46","category_name":"楼宇","address":"浦东新区世纪大道88号金茂大厦内(近二号线陆家嘴站)"},{"poiid":"B2094654DB6BAAF8479D","title":"环球金融中心","lon":"121.514","lat":"31.241","category":"46","category_name":"楼宇","address":"上海市浦东新区陆家嘴世纪大道8号"},{"poiid":"B2094654DA69A7FF499A","title":"上海市东方医院同济大学附属东方医院","lon":"121.51234","lat":"31.23772","category":"162","category_name":"医院","address":"浦东新区即墨路150号"},{"poiid":"B209475CD564A7F84392","title":"上海滩浦东香格里拉店","lon":"121.50058","lat":"31.23634","category":"119","category_name":"商场","address":"浦东富成路33号香格里拉酒店内大堂层"},{"poiid":"B2094655D26BA2F54792","title":"浦东大道东方医院","lon":"121.51231","lat":"31.23845","category":"162","category_name":"医院","address":""},{"poiid":"B2094655D268A3FB439E","title":"东亚银行金融大厦","lon":"121.509","lat":"31.2399","category":"46","category_name":"楼宇","address":"陆家嘴花园石桥路66号"},{"poiid":"B2094655D268A4F9409E","title":"太平金融大厦","lon":"121.51","lat":"31.2396","category":"46","category_name":"楼宇","address":"上海市浦东新区陆家嘴环路、花园石桥路"},{"poiid":"B2094757D06FA2F4419E","title":"新上海国际大厦","lon":"121.50929927","lat":"31.238815674","category":"46","category_name":"楼宇","address":"浦东南路360号，中国人民银行北侧"},{"poiid":"B2094757D06FA6FD479E","title":"工行上海分行","lon":"121.51130276","lat":"31.23914032","category":"500","category_name":"未知分类","address":"上海浦東大道9號"},{"poiid":"B2094757D06FA0F9469C","title":"汉宫","lon":"121.51043","lat":"31.238","category":"76","category_name":"上海菜","address":"浦东新区浦东南路360号新上海国际大厦8楼,48楼(近陆家嘴东路)"},{"poiid":"B2094757D06FA4FB4098","title":"中国民生银行上海总部","lon":"121.508242","lat":"31.240765","category":"260","category_name":"其他","address":"上海浦东新浦东南路100号"},{"poiid":"B2094757D06FA7F54993","title":"老山东鲁菜馆","lon":"121.510469","lat":"31.239297","category":"73","category_name":"山东菜","address":"浦东新区浦东南路379号金穗大厦6楼(近浦东大道)"},{"poiid":"B2094757D06FA7F9449C","title":"瑞慈健康管理中心(华夏银行店)","lon":"121.50933","lat":"31.2392","category":"162","category_name":"医院","address":"浦东新区浦东南路256号华夏银行大厦3楼(近浦东大道)"},{"poiid":"B2094757D068ABFF4899","title":"东方医院急诊部","lon":"121.512201667","lat":"31.237744757","category":"162","category_name":"医院","address":"上海浦东新区即墨路150号(近浦东大道)"},{"poiid":"B2094757D069A7F4429B","title":"浦东新舞台","lon":"121.51503","lat":"31.23892","category":"179","category_name":"音乐厅","address":"浦东新区浦东大道143号(南泉北路浦东大道)"},{"poiid":"B2094757D06FAAFF439E","title":"中国船舶大厦","lon":"121.510881","lat":"31.238821","category":"46","category_name":"楼宇","address":"上海市宝山区牡丹江路1228号"},{"poiid":"B2094757D06FA7FF4598","title":"小南国(国发店)","lon":"121.51072","lat":"31.23699","category":"75","category_name":"浙江菜","address":"浦东新区浦东南路500号国家开发银行4楼(近陆家嘴东路)"},{"poiid":"B2094757D068A6FD489F","title":"永华大厦","lon":"121.51416015","lat":"31.238700866","category":"46","category_name":"楼宇","address":"浦东大道138号"},{"poiid":"B2094654DB6BAAF84698","title":"上海市东方医院同济大学附属东方医院(西门)","lon":"121.51133","lat":"31.23722","category":"162","category_name":"医院","address":"即墨路150"},{"poiid":"B2094757D068A6FC449A","title":"即墨路","lon":"121.51289367","lat":"31.239175796","category":"500","category_name":"未知分类","address":"上海即墨路"},{"poiid":"B2094757D66EA3F54792","title":"中国工商银行上海市分行","lon":"121.512708738","lat":"31.2381974699","category":"500","category_name":"未知分类","address":"浦东新区浦东大道9号(东方医院对面)"},{"poiid":"B2094757D06FA3FA489F","title":"外汇管理局","lon":"121.509963989","lat":"31.2383117676","category":"500","category_name":"未知分类","address":"上海陆家嘴东路181号"},{"poiid":"B2094757D068A3F94192","title":"东北四季饺子王(浦东大道店)","lon":"121.51492","lat":"31.23906","category":"82","category_name":"东北菜","address":"上海浦东新区浦东大道143号甲(即墨路口)"},{"poiid":"B2094757D06FAAFF4693","title":"大壶春(浦东总店)","lon":"121.51408","lat":"31.23824","category":"68","category_name":"快餐厅","address":"浦东新区浦东大道136弄4-6号(近即墨路)"},{"poiid":"B2094757D06AAAFD4992","title":"上岛咖啡 陆家嘴金融店 UBC Coffee","lon":"121.51266479492","lat":"31.240152359009","category":"260","category_name":"其他","address":"浦东新区即墨路39号(近昌邑路)"},{"poiid":"B2094757D068A1F8449F","title":"鲜得来排骨年糕 浦东店","lon":"121.513548054","lat":"31.237137793","category":"68","category_name":"快餐厅","address":"浦东新区即墨路180号(近招远路东方医院旁边)"},{"poiid":"B2094654DA69A0FC449F","title":"世纪金融大厦","lon":"121.51198","lat":"31.23891","category":"46","category_name":"楼宇","address":"浦东大道9号"},{"poiid":"B2094757D06AA6FA419C","title":"东方医院体检中心","lon":"121.51287","lat":"31.23781","category":"162","category_name":"医院","address":"浦东新区即墨路150号东方医院内(近浦东大道)"},{"poiid":"B2094757D06AA2FC4098","title":"中粮海景壹号","lon":"121.51025031906","lat":"31.237009051897","category":"252","category_name":"楼宇机构","address":"上海浦东陆家嘴银城中路600弄银城中路600弄"},{"poiid":"B2094654DA69A0FC4493","title":"上船大楼","lon":"121.51326","lat":"31.23954","category":"47","category_name":"住宅区","address":"徐汇区田林路300号"},{"poiid":"B2094757D66FA2FD469F","title":"珍品粥坊","lon":"121.51384","lat":"31.23713","category":"68","category_name":"快餐厅","address":"浦东新区即墨路185号(近招远路)"},{"poiid":"B2094654DA69A0FC469A","title":"青藤阁","lon":"121.51248","lat":"31.24019","category":"66","category_name":"茶艺馆","address":"浦东新区昌邑路25号(近即墨路)"},{"poiid":"B2094757D465A3F9439D","title":"柯记港式茶餐厅","lon":"121.513903054","lat":"31.240806793","category":"72","category_name":"广东菜","address":"浦东新区昌邑路88号(近即墨路)"},{"poiid":"B2094757D06BA3FE409F","title":"东方医院输液室","lon":"121.512332","lat":"31.237727","category":"162","category_name":"医院","address":"上海东方医院急诊"},{"poiid":"B2094757D464A0F8439F","title":"汤姆杰瑞西餐酒吧 Tom and Jerry's","lon":"121.512829054","lat":"31.240417793","category":"68","category_name":"快餐厅","address":"昌邑路27号近即墨路口"},{"poiid":"B2094757D064A0F94199","title":"Chloe's","lon":"121.51385973","lat":"31.238796482","category":"94","category_name":"西餐厅","address":"浦东新区昌邑路31号(即墨路口)"},{"poiid":"B2094753D76DA2F84793","title":"上海正大广场","lon":"121.511817","lat":"31.238889","category":"500","category_name":"未知分类","address":"上海市 陆家嘴"},{"poiid":"B2094757DB6EA6FF409C","title":"上海雅客瑞园酒店公寓","lon":"121.510913","lat":"31.239889","category":"214","category_name":"四星级宾馆","address":"上海市浦东新区浦东大道3号(即墨路口北转瑞苑公寓内)"},{"poiid":"B2094757D068A3FF4899","title":"华夏银行上海分行","lon":"121.508972168","lat":"31.2394714355","category":"125","category_name":"书店","address":"上海浦东南路256号 （近东城路）"},{"poiid":"B2094654DA69A0FC479F","title":"浦江茗园","lon":"121.5135","lat":"31.241152","category":"47","category_name":"住宅区","address":"上海市浦东新区昌邑路55弄"},{"poiid":"B2094655D26AA6F8499D","title":"银行博物馆","lon":"121.51199","lat":"31.23891","category":"247","category_name":"餐饮美食","address":"1pl.deMetz1930Luxembourg"},{"poiid":"B2094654DA69A0FC4592","title":"泉宫","lon":"121.51243","lat":"31.2402","category":"149","category_name":"洗浴推拿场所","address":"即墨路37"},{"poiid":"B2094655D26BA6FA4299","title":"瑞苑公寓(北门)","lon":"121.51129","lat":"31.24024","category":"47","category_name":"住宅区","address":""},{"poiid":"B2094750DB6AAAF84392","title":"北滨江双辉广场","lon":"121.511489","lat":"31.239147","category":"250","category_name":"公园户外","address":"浦东南路到底"},{"poiid":"B2094655D26DA6F5429A","title":"上海浦东雅诗阁服务公寓(西门)","lon":"121.51084","lat":"31.23976","category":"213","category_name":"五星级宾馆","address":"浦东大道3号"},{"poiid":"B2094757D06AA1F5469C","title":"中国农业银行浦东分行","lon":"121.510352","lat":"31.239387","category":"500","category_name":"未知分类","address":"上海浦东南路377号"},{"poiid":"B2094757D168A1FD459F","title":"浦东大道浦东南路口","lon":"121.51269973","lat":"31.23823647","category":"500","category_name":"未知分类","address":"上海市浦东新区"},{"poiid":"B2094654DA69A7FF4893","title":"上海东方联合医院","lon":"121.51234","lat":"31.23773","category":"162","category_name":"医院","address":"上海浦东新区浦东南路551号"},{"poiid":"B2094757D16AA0FC419F","title":"公交車818","lon":"121.512358","lat":"31.240233","category":"500","category_name":"未知分类","address":"上海浦東陸家嘴"},{"poiid":"B209475CD16CA6F9499D","title":"正院上海公馆  Shanghai Grand mansion restaurant","lon":"121.51079559326","lat":"31.239162445068","category":"72","category_name":"广东菜","address":"商城路665号陆家嘴1885文化休闲中心C栋3-4楼近南泉北路"},{"poiid":"B2094654DA69A7FB4599","title":"金茂大厦","lon":"121.5124569976","lat":"31.240872238236","category":"46","category_name":"楼宇","address":"浦东新区世纪大道88号金茂大厦内(近二号线陆家嘴站)"},{"poiid":"B2094654DB6BAAF8479D","title":"环球金融中心","lon":"121.514","lat":"31.241","category":"46","category_name":"楼宇","address":"上海市浦东新区陆家嘴世纪大道8号"},{"poiid":"B2094654DA69A7FF499A","title":"上海市东方医院同济大学附属东方医院","lon":"121.51234","lat":"31.23772","category":"162","category_name":"医院","address":"浦东新区即墨路150号"},{"poiid":"B209475CD564A7F84392","title":"上海滩浦东香格里拉店","lon":"121.50058","lat":"31.23634","category":"119","category_name":"商场","address":"浦东富成路33号香格里拉酒店内大堂层"},{"poiid":"B2094655D26BA2F54792","title":"浦东大道东方医院","lon":"121.51231","lat":"31.23845","category":"162","category_name":"医院","address":""},{"poiid":"B2094655D268A3FB439E","title":"东亚银行金融大厦","lon":"121.509","lat":"31.2399","category":"46","category_name":"楼宇","address":"陆家嘴花园石桥路66号"},{"poiid":"B2094655D268A4F9409E","title":"太平金融大厦","lon":"121.51","lat":"31.2396","category":"46","category_name":"楼宇","address":"上海市浦东新区陆家嘴环路、花园石桥路"},{"poiid":"B2094757D06FA2F4419E","title":"新上海国际大厦","lon":"121.50929927","lat":"31.238815674","category":"46","category_name":"楼宇","address":"浦东南路360号，中国人民银行北侧"},{"poiid":"B2094757D06FA6FD479E","title":"工行上海分行","lon":"121.51130276","lat":"31.23914032","category":"500","category_name":"未知分类","address":"上海浦東大道9號"},{"poiid":"B2094757D06FA0F9469C","title":"汉宫","lon":"121.51043","lat":"31.238","category":"76","category_name":"上海菜","address":"浦东新区浦东南路360号新上海国际大厦8楼,48楼(近陆家嘴东路)"},{"poiid":"B2094757D06FA4FB4098","title":"中国民生银行上海总部","lon":"121.508242","lat":"31.240765","category":"260","category_name":"其他","address":"上海浦东新浦东南路100号"},{"poiid":"B2094757D06FA7F54993","title":"老山东鲁菜馆","lon":"121.510469","lat":"31.239297","category":"73","category_name":"山东菜","address":"浦东新区浦东南路379号金穗大厦6楼(近浦东大道)"},{"poiid":"B2094757D06FA7F9449C","title":"瑞慈健康管理中心(华夏银行店)","lon":"121.50933","lat":"31.2392","category":"162","category_name":"医院","address":"浦东新区浦东南路256号华夏银行大厦3楼(近浦东大道)"},{"poiid":"B2094757D068ABFF4899","title":"东方医院急诊部","lon":"121.512201667","lat":"31.237744757","category":"162","category_name":"医院","address":"上海浦东新区即墨路150号(近浦东大道)"},{"poiid":"B2094757D069A7F4429B","title":"浦东新舞台","lon":"121.51503","lat":"31.23892","category":"179","category_name":"音乐厅","address":"浦东新区浦东大道143号(南泉北路浦东大道)"},{"poiid":"B2094757D06FAAFF439E","title":"中国船舶大厦","lon":"121.510881","lat":"31.238821","category":"46","category_name":"楼宇","address":"上海市宝山区牡丹江路1228号"},{"poiid":"B2094757D06FA7FF4598","title":"小南国(国发店)","lon":"121.51072","lat":"31.23699","category":"75","category_name":"浙江菜","address":"浦东新区浦东南路500号国家开发银行4楼(近陆家嘴东路)"},{"poiid":"B2094757D068A6FD489F","title":"永华大厦","lon":"121.51416015","lat":"31.238700866","category":"46","category_name":"楼宇","address":"浦东大道138号"},{"poiid":"B2094654DB6BAAF84698","title":"上海市东方医院同济大学附属东方医院(西门)","lon":"121.51133","lat":"31.23722","category":"162","category_name":"医院","address":"即墨路150"},{"poiid":"B2094757D068A6FC449A","title":"即墨路","lon":"121.51289367","lat":"31.239175796","category":"500","category_name":"未知分类","address":"上海即墨路"},{"poiid":"B2094757D66EA3F54792","title":"中国工商银行上海市分行","lon":"121.512708738","lat":"31.2381974699","category":"500","category_name":"未知分类","address":"浦东新区浦东大道9号(东方医院对面)"},{"poiid":"B2094757D06FA3FA489F","title":"外汇管理局","lon":"121.509963989","lat":"31.2383117676","category":"500","category_name":"未知分类","address":"上海陆家嘴东路181号"},{"poiid":"B2094757D068A3F94192","title":"东北四季饺子王(浦东大道店)","lon":"121.51492","lat":"31.23906","category":"82","category_name":"东北菜","address":"上海浦东新区浦东大道143号甲(即墨路口)"},{"poiid":"B2094757D06FAAFF4693","title":"大壶春(浦东总店)","lon":"121.51408","lat":"31.23824","category":"68","category_name":"快餐厅","address":"浦东新区浦东大道136弄4-6号(近即墨路)"},{"poiid":"B2094757D06AAAFD4992","title":"上岛咖啡 陆家嘴金融店 UBC Coffee","lon":"121.51266479492","lat":"31.240152359009","category":"260","category_name":"其他","address":"浦东新区即墨路39号(近昌邑路)"},{"poiid":"B2094757D068A1F8449F","title":"鲜得来排骨年糕 浦东店","lon":"121.513548054","lat":"31.237137793","category":"68","category_name":"快餐厅","address":"浦东新区即墨路180号(近招远路东方医院旁边)"},{"poiid":"B2094654DA69A0FC449F","title":"世纪金融大厦","lon":"121.51198","lat":"31.23891","category":"46","category_name":"楼宇","address":"浦东大道9号"},{"poiid":"B2094757D06AA6FA419C","title":"东方医院体检中心","lon":"121.51287","lat":"31.23781","category":"162","category_name":"医院","address":"浦东新区即墨路150号东方医院内(近浦东大道)"},{"poiid":"B2094757D06AA2FC4098","title":"中粮海景壹号","lon":"121.51025031906","lat":"31.237009051897","category":"252","category_name":"楼宇机构","address":"上海浦东陆家嘴银城中路600弄银城中路600弄"},{"poiid":"B2094654DA69A0FC4493","title":"上船大楼","lon":"121.51326","lat":"31.23954","category":"47","category_name":"住宅区","address":"徐汇区田林路300号"},{"poiid":"B2094757D66FA2FD469F","title":"珍品粥坊","lon":"121.51384","lat":"31.23713","category":"68","category_name":"快餐厅","address":"浦东新区即墨路185号(近招远路)"},{"poiid":"B2094654DA69A0FC469A","title":"青藤阁","lon":"121.51248","lat":"31.24019","category":"66","category_name":"茶艺馆","address":"浦东新区昌邑路25号(近即墨路)"},{"poiid":"B2094757D465A3F9439D","title":"柯记港式茶餐厅","lon":"121.513903054","lat":"31.240806793","category":"72","category_name":"广东菜","address":"浦东新区昌邑路88号(近即墨路)"},{"poiid":"B2094757D06BA3FE409F","title":"东方医院输液室","lon":"121.512332","lat":"31.237727","category":"162","category_name":"医院","address":"上海东方医院急诊"},{"poiid":"B2094757D464A0F8439F","title":"汤姆杰瑞西餐酒吧 Tom and Jerry's","lon":"121.512829054","lat":"31.240417793","category":"68","category_name":"快餐厅","address":"昌邑路27号近即墨路口"},{"poiid":"B2094757D064A0F94199","title":"Chloe's","lon":"121.51385973","lat":"31.238796482","category":"94","category_name":"西餐厅","address":"浦东新区昌邑路31号(即墨路口)"},{"poiid":"B2094753D76DA2F84793","title":"上海正大广场","lon":"121.511817","lat":"31.238889","category":"500","category_name":"未知分类","address":"上海市 陆家嘴"},{"poiid":"B2094757DB6EA6FF409C","title":"上海雅客瑞园酒店公寓","lon":"121.510913","lat":"31.239889","category":"214","category_name":"四星级宾馆","address":"上海市浦东新区浦东大道3号(即墨路口北转瑞苑公寓内)"},{"poiid":"B2094757D068A3FF4899","title":"华夏银行上海分行","lon":"121.508972168","lat":"31.2394714355","category":"125","category_name":"书店","address":"上海浦东南路256号 （近东城路）"},{"poiid":"B2094654DA69A0FC479F","title":"浦江茗园","lon":"121.5135","lat":"31.241152","category":"47","category_name":"住宅区","address":"上海市浦东新区昌邑路55弄"},{"poiid":"B2094655D26AA6F8499D","title":"银行博物馆","lon":"121.51199","lat":"31.23891","category":"247","category_name":"餐饮美食","address":"1pl.deMetz1930Luxembourg"},{"poiid":"B2094654DA69A0FC4592","title":"泉宫","lon":"121.51243","lat":"31.2402","category":"149","category_name":"洗浴推拿场所","address":"即墨路37"},{"poiid":"B2094655D26BA6FA4299","title":"瑞苑公寓(北门)","lon":"121.51129","lat":"31.24024","category":"47","category_name":"住宅区","address":""},{"poiid":"B2094750DB6AAAF84392","title":"北滨江双辉广场","lon":"121.511489","lat":"31.239147","category":"250","category_name":"公园户外","address":"浦东南路到底"},{"poiid":"B2094655D26DA6F5429A","title":"上海浦东雅诗阁服务公寓(西门)","lon":"121.51084","lat":"31.23976","category":"213","category_name":"五星级宾馆","address":"浦东大道3号"},{"poiid":"B2094757D06AA1F5469C","title":"中国农业银行浦东分行","lon":"121.510352","lat":"31.239387","category":"500","category_name":"未知分类","address":"上海浦东南路377号"},{"poiid":"B2094757D168A1FD459F","title":"浦东大道浦东南路口","lon":"121.51269973","lat":"31.23823647","category":"500","category_name":"未知分类","address":"上海市浦东新区"},{"poiid":"B2094654DA69A7FF4893","title":"上海东方联合医院","lon":"121.51234","lat":"31.23773","category":"162","category_name":"医院","address":"上海浦东新区浦东南路551号"},{"poiid":"B2094757D16AA0FC419F","title":"公交車818","lon":"121.512358","lat":"31.240233","category":"500","category_name":"未知分类","address":"上海浦東陸家嘴"},{"poiid":"B209475CD16CA6F9499D","title":"正院上海公馆  Shanghai Grand mansion restaurant","lon":"121.51079559326","lat":"31.239162445068","category":"72","category_name":"广东菜","address":"商城路665号陆家嘴1885文化休闲中心C栋3-4楼近南泉北路"},{"poiid":"B2094654DA69A7FB4599","title":"金茂大厦","lon":"121.5124569976","lat":"31.240872238236","category":"46","category_name":"楼宇","address":"浦东新区世纪大道88号金茂大厦内(近二号线陆家嘴站)"},{"poiid":"B2094654DB6BAAF8479D","title":"环球金融中心","lon":"121.514","lat":"31.241","category":"46","category_name":"楼宇","address":"上海市浦东新区陆家嘴世纪大道8号"},{"poiid":"B2094654DA69A7FF499A","title":"上海市东方医院同济大学附属东方医院","lon":"121.51234","lat":"31.23772","category":"162","category_name":"医院","address":"浦东新区即墨路150号"},{"poiid":"B209475CD564A7F84392","title":"上海滩浦东香格里拉店","lon":"121.50058","lat":"31.23634","category":"119","category_name":"商场","address":"浦东富成路33号香格里拉酒店内大堂层"},{"poiid":"B2094655D26BA2F54792","title":"浦东大道东方医院","lon":"121.51231","lat":"31.23845","category":"162","category_name":"医院","address":""},{"poiid":"B2094655D268A3FB439E","title":"东亚银行金融大厦","lon":"121.509","lat":"31.2399","category":"46","category_name":"楼宇","address":"陆家嘴花园石桥路66号"},{"poiid":"B2094655D268A4F9409E","title":"太平金融大厦","lon":"121.51","lat":"31.2396","category":"46","category_name":"楼宇","address":"上海市浦东新区陆家嘴环路、花园石桥路"},{"poiid":"B2094757D06FA2F4419E","title":"新上海国际大厦","lon":"121.50929927","lat":"31.238815674","category":"46","category_name":"楼宇","address":"浦东南路360号，中国人民银行北侧"},{"poiid":"B2094757D06FA6FD479E","title":"工行上海分行","lon":"121.51130276","lat":"31.23914032","category":"500","category_name":"未知分类","address":"上海浦東大道9號"},{"poiid":"B2094757D06FA0F9469C","title":"汉宫","lon":"121.51043","lat":"31.238","category":"76","category_name":"上海菜","address":"浦东新区浦东南路360号新上海国际大厦8楼,48楼(近陆家嘴东路)"},{"poiid":"B2094757D06FA4FB4098","title":"中国民生银行上海总部","lon":"121.508242","lat":"31.240765","category":"260","category_name":"其他","address":"上海浦东新浦东南路100号"},{"poiid":"B2094757D06FA7F54993","title":"老山东鲁菜馆","lon":"121.510469","lat":"31.239297","category":"73","category_name":"山东菜","address":"浦东新区浦东南路379号金穗大厦6楼(近浦东大道)"},{"poiid":"B2094757D06FA7F9449C","title":"瑞慈健康管理中心(华夏银行店)","lon":"121.50933","lat":"31.2392","category":"162","category_name":"医院","address":"浦东新区浦东南路256号华夏银行大厦3楼(近浦东大道)"},{"poiid":"B2094757D068ABFF4899","title":"东方医院急诊部","lon":"121.512201667","lat":"31.237744757","category":"162","category_name":"医院","address":"上海浦东新区即墨路150号(近浦东大道)"},{"poiid":"B2094757D069A7F4429B","title":"浦东新舞台","lon":"121.51503","lat":"31.23892","category":"179","category_name":"音乐厅","address":"浦东新区浦东大道143号(南泉北路浦东大道)"},{"poiid":"B2094757D06FAAFF439E","title":"中国船舶大厦","lon":"121.510881","lat":"31.238821","category":"46","category_name":"楼宇","address":"上海市宝山区牡丹江路1228号"},{"poiid":"B2094757D06FA7FF4598","title":"小南国(国发店)","lon":"121.51072","lat":"31.23699","category":"75","category_name":"浙江菜","address":"浦东新区浦东南路500号国家开发银行4楼(近陆家嘴东路)"},{"poiid":"B2094757D068A6FD489F","title":"永华大厦","lon":"121.51416015","lat":"31.238700866","category":"46","category_name":"楼宇","address":"浦东大道138号"},{"poiid":"B2094654DB6BAAF84698","title":"上海市东方医院同济大学附属东方医院(西门)","lon":"121.51133","lat":"31.23722","category":"162","category_name":"医院","address":"即墨路150"},{"poiid":"B2094757D068A6FC449A","title":"即墨路","lon":"121.51289367","lat":"31.239175796","category":"500","category_name":"未知分类","address":"上海即墨路"},{"poiid":"B2094757D66EA3F54792","title":"中国工商银行上海市分行","lon":"121.512708738","lat":"31.2381974699","category":"500","category_name":"未知分类","address":"浦东新区浦东大道9号(东方医院对面)"},{"poiid":"B2094757D06FA3FA489F","title":"外汇管理局","lon":"121.509963989","lat":"31.2383117676","category":"500","category_name":"未知分类","address":"上海陆家嘴东路181号"},{"poiid":"B2094757D068A3F94192","title":"东北四季饺子王(浦东大道店)","lon":"121.51492","lat":"31.23906","category":"82","category_name":"东北菜","address":"上海浦东新区浦东大道143号甲(即墨路口)"},{"poiid":"B2094757D06FAAFF4693","title":"大壶春(浦东总店)","lon":"121.51408","lat":"31.23824","category":"68","category_name":"快餐厅","address":"浦东新区浦东大道136弄4-6号(近即墨路)"},{"poiid":"B2094757D06AAAFD4992","title":"上岛咖啡 陆家嘴金融店 UBC Coffee","lon":"121.51266479492","lat":"31.240152359009","category":"260","category_name":"其他","address":"浦东新区即墨路39号(近昌邑路)"},{"poiid":"B2094757D068A1F8449F","title":"鲜得来排骨年糕 浦东店","lon":"121.513548054","lat":"31.237137793","category":"68","category_name":"快餐厅","address":"浦东新区即墨路180号(近招远路东方医院旁边)"},{"poiid":"B2094654DA69A0FC449F","title":"世纪金融大厦","lon":"121.51198","lat":"31.23891","category":"46","category_name":"楼宇","address":"浦东大道9号"},{"poiid":"B2094757D06AA6FA419C","title":"东方医院体检中心","lon":"121.51287","lat":"31.23781","category":"162","category_name":"医院","address":"浦东新区即墨路150号东方医院内(近浦东大道)"},{"poiid":"B2094757D06AA2FC4098","title":"中粮海景壹号","lon":"121.51025031906","lat":"31.237009051897","category":"252","category_name":"楼宇机构","address":"上海浦东陆家嘴银城中路600弄银城中路600弄"},{"poiid":"B2094654DA69A0FC4493","title":"上船大楼","lon":"121.51326","lat":"31.23954","category":"47","category_name":"住宅区","address":"徐汇区田林路300号"},{"poiid":"B2094757D66FA2FD469F","title":"珍品粥坊","lon":"121.51384","lat":"31.23713","category":"68","category_name":"快餐厅","address":"浦东新区即墨路185号(近招远路)"},{"poiid":"B2094654DA69A0FC469A","title":"青藤阁","lon":"121.51248","lat":"31.24019","category":"66","category_name":"茶艺馆","address":"浦东新区昌邑路25号(近即墨路)"},{"poiid":"B2094757D465A3F9439D","title":"柯记港式茶餐厅","lon":"121.513903054","lat":"31.240806793","category":"72","category_name":"广东菜","address":"浦东新区昌邑路88号(近即墨路)"},{"poiid":"B2094757D06BA3FE409F","title":"东方医院输液室","lon":"121.512332","lat":"31.237727","category":"162","category_name":"医院","address":"上海东方医院急诊"},{"poiid":"B2094757D464A0F8439F","title":"汤姆杰瑞西餐酒吧 Tom and Jerry's","lon":"121.512829054","lat":"31.240417793","category":"68","category_name":"快餐厅","address":"昌邑路27号近即墨路口"},{"poiid":"B2094757D064A0F94199","title":"Chloe's","lon":"121.51385973","lat":"31.238796482","category":"94","category_name":"西餐厅","address":"浦东新区昌邑路31号(即墨路口)"},{"poiid":"B2094753D76DA2F84793","title":"上海正大广场","lon":"121.511817","lat":"31.238889","category":"500","category_name":"未知分类","address":"上海市 陆家嘴"},{"poiid":"B2094757DB6EA6FF409C","title":"上海雅客瑞园酒店公寓","lon":"121.510913","lat":"31.239889","category":"214","category_name":"四星级宾馆","address":"上海市浦东新区浦东大道3号(即墨路口北转瑞苑公寓内)"},{"poiid":"B2094757D068A3FF4899","title":"华夏银行上海分行","lon":"121.508972168","lat":"31.2394714355","category":"125","category_name":"书店","address":"上海浦东南路256号 （近东城路）"},{"poiid":"B2094654DA69A0FC479F","title":"浦江茗园","lon":"121.5135","lat":"31.241152","category":"47","category_name":"住宅区","address":"上海市浦东新区昌邑路55弄"},{"poiid":"B2094655D26AA6F8499D","title":"银行博物馆","lon":"121.51199","lat":"31.23891","category":"247","category_name":"餐饮美食","address":"1pl.deMetz1930Luxembourg"},{"poiid":"B2094654DA69A0FC4592","title":"泉宫","lon":"121.51243","lat":"31.2402","category":"149","category_name":"洗浴推拿场所","address":"即墨路37"},{"poiid":"B2094655D26BA6FA4299","title":"瑞苑公寓(北门)","lon":"121.51129","lat":"31.24024","category":"47","category_name":"住宅区","address":""},{"poiid":"B2094750DB6AAAF84392","title":"北滨江双辉广场","lon":"121.511489","lat":"31.239147","category":"250","category_name":"公园户外","address":"浦东南路到底"},{"poiid":"B2094655D26DA6F5429A","title":"上海浦东雅诗阁服务公寓(西门)","lon":"121.51084","lat":"31.23976","category":"213","category_name":"五星级宾馆","address":"浦东大道3号"},{"poiid":"B2094757D06AA1F5469C","title":"中国农业银行浦东分行","lon":"121.510352","lat":"31.239387","category":"500","category_name":"未知分类","address":"上海浦东南路377号"},{"poiid":"B2094757D168A1FD459F","title":"浦东大道浦东南路口","lon":"121.51269973","lat":"31.23823647","category":"500","category_name":"未知分类","address":"上海市浦东新区"},{"poiid":"B2094654DA69A7FF4893","title":"上海东方联合医院","lon":"121.51234","lat":"31.23773","category":"162","category_name":"医院","address":"上海浦东新区浦东南路551号"},{"poiid":"B2094757D16AA0FC419F","title":"公交車818","lon":"121.512358","lat":"31.240233","category":"500","category_name":"未知分类","address":"上海浦東陸家嘴"},{"poiid":"B209475CD16CA6F9499D","title":"正院上海公馆  Shanghai Grand mansion restaurant","lon":"121.51079559326","lat":"31.239162445068","category":"72","category_name":"广东菜","address":"商城路665号陆家嘴1885文化休闲中心C栋3-4楼近南泉北路"},{"poiid":"B2094654DA69A7FB4599","title":"金茂大厦","lon":"121.5124569976","lat":"31.240872238236","category":"46","category_name":"楼宇","address":"浦东新区世纪大道88号金茂大厦内(近二号线陆家嘴站)"},{"poiid":"B2094654DB6BAAF8479D","title":"环球金融中心","lon":"121.514","lat":"31.241","category":"46","category_name":"楼宇","address":"上海市浦东新区陆家嘴世纪大道8号"},{"poiid":"B2094654DA69A7FF499A","title":"上海市东方医院同济大学附属东方医院","lon":"121.51234","lat":"31.23772","category":"162","category_name":"医院","address":"浦东新区即墨路150号"},{"poiid":"B209475CD564A7F84392","title":"上海滩浦东香格里拉店","lon":"121.50058","lat":"31.23634","category":"119","category_name":"商场","address":"浦东富成路33号香格里拉酒店内大堂层"},{"poiid":"B2094655D26BA2F54792","title":"浦东大道东方医院","lon":"121.51231","lat":"31.23845","category":"162","category_name":"医院","address":""},{"poiid":"B2094655D268A3FB439E","title":"东亚银行金融大厦","lon":"121.509","lat":"31.2399","category":"46","category_name":"楼宇","address":"陆家嘴花园石桥路66号"},{"poiid":"B2094655D268A4F9409E","title":"太平金融大厦","lon":"121.51","lat":"31.2396","category":"46","category_name":"楼宇","address":"上海市浦东新区陆家嘴环路、花园石桥路"},{"poiid":"B2094757D06FA2F4419E","title":"新上海国际大厦","lon":"121.50929927","lat":"31.238815674","category":"46","category_name":"楼宇","address":"浦东南路360号，中国人民银行北侧"},{"poiid":"B2094757D06FA6FD479E","title":"工行上海分行","lon":"121.51130276","lat":"31.23914032","category":"500","category_name":"未知分类","address":"上海浦東大道9號"},{"poiid":"B2094757D06FA0F9469C","title":"汉宫","lon":"121.51043","lat":"31.238","category":"76","category_name":"上海菜","address":"浦东新区浦东南路360号新上海国际大厦8楼,48楼(近陆家嘴东路)"},{"poiid":"B2094757D06FA4FB4098","title":"中国民生银行上海总部","lon":"121.508242","lat":"31.240765","category":"260","category_name":"其他","address":"上海浦东新浦东南路100号"},{"poiid":"B2094757D06FA7F54993","title":"老山东鲁菜馆","lon":"121.510469","lat":"31.239297","category":"73","category_name":"山东菜","address":"浦东新区浦东南路379号金穗大厦6楼(近浦东大道)"},{"poiid":"B2094757D06FA7F9449C","title":"瑞慈健康管理中心(华夏银行店)","lon":"121.50933","lat":"31.2392","category":"162","category_name":"医院","address":"浦东新区浦东南路256号华夏银行大厦3楼(近浦东大道)"},{"poiid":"B2094757D068ABFF4899","title":"东方医院急诊部","lon":"121.512201667","lat":"31.237744757","category":"162","category_name":"医院","address":"上海浦东新区即墨路150号(近浦东大道)"},{"poiid":"B2094757D069A7F4429B","title":"浦东新舞台","lon":"121.51503","lat":"31.23892","category":"179","category_name":"音乐厅","address":"浦东新区浦东大道143号(南泉北路浦东大道)"},{"poiid":"B2094757D06FAAFF439E","title":"中国船舶大厦","lon":"121.510881","lat":"31.238821","category":"46","category_name":"楼宇","address":"上海市宝山区牡丹江路1228号"},{"poiid":"B2094757D06FA7FF4598","title":"小南国(国发店)","lon":"121.51072","lat":"31.23699","category":"75","category_name":"浙江菜","address":"浦东新区浦东南路500号国家开发银行4楼(近陆家嘴东路)"},{"poiid":"B2094757D068A6FD489F","title":"永华大厦","lon":"121.51416015","lat":"31.238700866","category":"46","category_name":"楼宇","address":"浦东大道138号"},{"poiid":"B2094654DB6BAAF84698","title":"上海市东方医院同济大学附属东方医院(西门)","lon":"121.51133","lat":"31.23722","category":"162","category_name":"医院","address":"即墨路150"},{"poiid":"B2094757D068A6FC449A","title":"即墨路","lon":"121.51289367","lat":"31.239175796","category":"500","category_name":"未知分类","address":"上海即墨路"},{"poiid":"B2094757D66EA3F54792","title":"中国工商银行上海市分行","lon":"121.512708738","lat":"31.2381974699","category":"500","category_name":"未知分类","address":"浦东新区浦东大道9号(东方医院对面)"},{"poiid":"B2094757D06FA3FA489F","title":"外汇管理局","lon":"121.509963989","lat":"31.2383117676","category":"500","category_name":"未知分类","address":"上海陆家嘴东路181号"},{"poiid":"B2094757D068A3F94192","title":"东北四季饺子王(浦东大道店)","lon":"121.51492","lat":"31.23906","category":"82","category_name":"东北菜","address":"上海浦东新区浦东大道143号甲(即墨路口)"},{"poiid":"B2094757D06FAAFF4693","title":"大壶春(浦东总店)","lon":"121.51408","lat":"31.23824","category":"68","category_name":"快餐厅","address":"浦东新区浦东大道136弄4-6号(近即墨路)"},{"poiid":"B2094757D06AAAFD4992","title":"上岛咖啡 陆家嘴金融店 UBC Coffee","lon":"121.51266479492","lat":"31.240152359009","category":"260","category_name":"其他","address":"浦东新区即墨路39号(近昌邑路)"},{"poiid":"B2094757D068A1F8449F","title":"鲜得来排骨年糕 浦东店","lon":"121.513548054","lat":"31.237137793","category":"68","category_name":"快餐厅","address":"浦东新区即墨路180号(近招远路东方医院旁边)"},{"poiid":"B2094654DA69A0FC449F","title":"世纪金融大厦","lon":"121.51198","lat":"31.23891","category":"46","category_name":"楼宇","address":"浦东大道9号"},{"poiid":"B2094757D06AA6FA419C","title":"东方医院体检中心","lon":"121.51287","lat":"31.23781","category":"162","category_name":"医院","address":"浦东新区即墨路150号东方医院内(近浦东大道)"},{"poiid":"B2094757D06AA2FC4098","title":"中粮海景壹号","lon":"121.51025031906","lat":"31.237009051897","category":"252","category_name":"楼宇机构","address":"上海浦东陆家嘴银城中路600弄银城中路600弄"},{"poiid":"B2094654DA69A0FC4493","title":"上船大楼","lon":"121.51326","lat":"31.23954","category":"47","category_name":"住宅区","address":"徐汇区田林路300号"},{"poiid":"B2094757D66FA2FD469F","title":"珍品粥坊","lon":"121.51384","lat":"31.23713","category":"68","category_name":"快餐厅","address":"浦东新区即墨路185号(近招远路)"},{"poiid":"B2094654DA69A0FC469A","title":"青藤阁","lon":"121.51248","lat":"31.24019","category":"66","category_name":"茶艺馆","address":"浦东新区昌邑路25号(近即墨路)"},{"poiid":"B2094757D465A3F9439D","title":"柯记港式茶餐厅","lon":"121.513903054","lat":"31.240806793","category":"72","category_name":"广东菜","address":"浦东新区昌邑路88号(近即墨路)"},{"poiid":"B2094757D06BA3FE409F","title":"东方医院输液室","lon":"121.512332","lat":"31.237727","category":"162","category_name":"医院","address":"上海东方医院急诊"},{"poiid":"B2094757D464A0F8439F","title":"汤姆杰瑞西餐酒吧 Tom and Jerry's","lon":"121.512829054","lat":"31.240417793","category":"68","category_name":"快餐厅","address":"昌邑路27号近即墨路口"},{"poiid":"B2094757D064A0F94199","title":"Chloe's","lon":"121.51385973","lat":"31.238796482","category":"94","category_name":"西餐厅","address":"浦东新区昌邑路31号(即墨路口)"},{"poiid":"B2094753D76DA2F84793","title":"上海正大广场","lon":"121.511817","lat":"31.238889","category":"500","category_name":"未知分类","address":"上海市 陆家嘴"},{"poiid":"B2094757DB6EA6FF409C","title":"上海雅客瑞园酒店公寓","lon":"121.510913","lat":"31.239889","category":"214","category_name":"四星级宾馆","address":"上海市浦东新区浦东大道3号(即墨路口北转瑞苑公寓内)"},{"poiid":"B2094757D068A3FF4899","title":"华夏银行上海分行","lon":"121.508972168","lat":"31.2394714355","category":"125","category_name":"书店","address":"上海浦东南路256号 （近东城路）"},{"poiid":"B2094654DA69A0FC479F","title":"浦江茗园","lon":"121.5135","lat":"31.241152","category":"47","category_name":"住宅区","address":"上海市浦东新区昌邑路55弄"},{"poiid":"B2094655D26AA6F8499D","title":"银行博物馆","lon":"121.51199","lat":"31.23891","category":"247","category_name":"餐饮美食","address":"1pl.deMetz1930Luxembourg"},{"poiid":"B2094654DA69A0FC4592","title":"泉宫","lon":"121.51243","lat":"31.2402","category":"149","category_name":"洗浴推拿场所","address":"即墨路37"},{"poiid":"B2094655D26BA6FA4299","title":"瑞苑公寓(北门)","lon":"121.51129","lat":"31.24024","category":"47","category_name":"住宅区","address":""},{"poiid":"B2094750DB6AAAF84392","title":"北滨江双辉广场","lon":"121.511489","lat":"31.239147","category":"250","category_name":"公园户外","address":"浦东南路到底"},{"poiid":"B2094655D26DA6F5429A","title":"上海浦东雅诗阁服务公寓(西门)","lon":"121.51084","lat":"31.23976","category":"213","category_name":"五星级宾馆","address":"浦东大道3号"},{"poiid":"B2094757D06AA1F5469C","title":"中国农业银行浦东分行","lon":"121.510352","lat":"31.239387","category":"500","category_name":"未知分类","address":"上海浦东南路377号"},{"poiid":"B2094757D168A1FD459F","title":"浦东大道浦东南路口","lon":"121.51269973","lat":"31.23823647","category":"500","category_name":"未知分类","address":"上海市浦东新区"},{"poiid":"B2094654DA69A7FF4893","title":"上海东方联合医院","lon":"121.51234","lat":"31.23773","category":"162","category_name":"医院","address":"上海浦东新区浦东南路551号"},{"poiid":"B2094757D16AA0FC419F","title":"公交車818","lon":"121.512358","lat":"31.240233","category":"500","category_name":"未知分类","address":"上海浦東陸家嘴"},{"poiid":"B209475CD16CA6F9499D","title":"正院上海公馆  Shanghai Grand mansion restaurant","lon":"121.51079559326","lat":"31.239162445068","category":"72","category_name":"广东菜","address":"商城路665号陆家嘴1885文化休闲中心C栋3-4楼近南泉北路"}]