[{"poiid":"B2094654DB64A4FC469D","title":"上海交通大学(闵行校区)","lon":"121.43073","lat":"31.01765","category":"671","category_name":"高校中心点","address":"闵行区东川路800号上海交通大学内(近永平路)"},{"poiid":"B2094757D06FA6F84399","title":"上海交通大学新体育馆","lon":"121.42467827","lat":"31.026720302","category":"253","category_name":"校园生活","address":"闵行区东川路800号上海交通大学北一门"},{"poiid":"B2094757D66FA1F5479C","title":"上海西南某高校","lon":"121.431708328","lat":"31.0301269045","category":"500","category_name":"未知分类","address":"上海西南小角落"},{"poiid":"B2094757D16DA3FD409A","title":"上海交通大学闵行校区宿舍","lon":"121.428428128","lat":"31.0285047711","category":"500","category_name":"未知分类","address":"上海市闵行区东川路800号"},{"poiid":"B2094655D26AA0F94392","title":"地铁东川路站","lon":"121.42009","lat":"31.01749","category":"36","category_name":"地铁站","address":""},{"poiid":"B2094757D06FA1FD4099","title":"剑川路地铁站","lon":"121.41649472","lat":"31.026177569","category":"36","category_name":"地铁站","address":"上海轨道交通 五号线 轨交剑川路站 5"},{"poiid":"B2094757D06FA0FD409E","title":"上海交通大学东上院","lon":"121.43097598","lat":"31.019636672","category":"52","category_name":"高等院校","address":"上海闵行区东川路800号上海交通大学闵行校区"},{"poiid":"B2094757D06FA4FA4499","title":"上海交通大学菁菁堂","lon":"121.42978692","lat":"31.017888915","category":"178","category_name":"电影院","address":"闵行区东川路800号上海交通大学校区"},{"poiid":"B2094757D068A3FE4199","title":"思源湖","lon":"121.430137634","lat":"31.0201702118","category":"234","category_name":"海滨浴场","address":"闵行区东川路800号上海交通大学拖鞋门内(近永平路)"},{"poiid":"B2094757D06FA2F5429F","title":"上海交大闵行校区拖鞋门","lon":"121.43095039","lat":"31.017577126","category":"500","category_name":"未知分类","address":"上海市东川路800号"},{"poiid":"B2094757D068A2F4419A","title":"交大闵行校区第四餐饮大楼","lon":"121.42695263","lat":"31.0254746275","category":"68","category_name":"快餐厅","address":"闵行区东川路800号上海交通大学内(近剑川路)"},{"poiid":"B2094757D06FA3FC4498","title":"上海交通大学包玉刚图书馆","lon":"121.43020189","lat":"31.021687445","category":"253","category_name":"校园生活","address":"上海闵行区东川路800号上海交通大学闵行校区"},{"poiid":"B2094757D06FA4FB4599","title":"上海交通大学下院","lon":"121.4311441","lat":"31.021094838","category":"253","category_name":"校园生活","address":"上海闵行区东川路800号"},{"poiid":"B2094757D06FA1F54293","title":"上海交通大学第一餐饮大楼(闵行校区)","lon":"121.43191","lat":"31.0217","category":"253","category_name":"校园生活","address":"上海闵行区东川路800号上海交通大学闵行校区"},{"poiid":"B2094757D06BA7FC449B","title":"甜魔咖啡 交大店 Timo Coffee","lon":"121.4325478","lat":"31.0178311","category":"65","category_name":"咖啡厅","address":"闵行区东川路800号上海交通大学内"},{"poiid":"B2094655D36CA6F4429B","title":"东川路地铁站","lon":"121.41901","lat":"31.01929","category":"36","category_name":"地铁站","address":""},{"poiid":"B2094757D068A3FC4499","title":"复地北桥城","lon":"121.41927","lat":"31.033833","category":"47","category_name":"住宅区","address":"同景国际城法朵Villa位于南岸茶园新区南岸新行政中心对面"},{"poiid":"B2094655D264A1FF4093","title":"千岱名墅","lon":"121.421467","lat":"31.022477","category":"47","category_name":"住宅区","address":"上海市闵行区安宁路458弄"},{"poiid":"B2094757D068A3FD409B","title":"沪金高速S4剑川路出口","lon":"121.431243","lat":"31.028693","category":"260","category_name":"其他","address":"上海沪金高速剑川路出口"},{"poiid":"B2094655D26EA0F4409F","title":"交通大学综合体育馆","lon":"121.42453","lat":"31.02665","category":"224","category_name":"综合体育馆","address":""},{"poiid":"B2094655D36CA7FD4693","title":"沪闵路剑川路","lon":"121.41749","lat":"31.02535","category":"38","category_name":"公交车站","address":""},{"poiid":"B2094757D069A4F54192","title":"上海交通大学光明体育场","lon":"121.427507","lat":"31.018782","category":"253","category_name":"校园生活","address":"上海闵行区东川路800号上海交通大学闵行校区"},{"poiid":"B2094757D068A0F94993","title":"索广电子有限公司","lon":"121.422447","lat":"31.027729","category":"46","category_name":"楼宇","address":"上海剑川路930号"},{"poiid":"B2094654DB6EAAFA4093","title":"第四餐饮大楼","lon":"121.42695","lat":"31.02548","category":"46","category_name":"楼宇","address":"闵行区东川路800号上海交通大学内(近剑川路)"},{"poiid":"B2094757D16DA4F4479D","title":"上海交通大学新体篮球场","lon":"121.4247","lat":"31.02661","category":"220","category_name":"运动场所","address":"上海闵行区东川路800号上海交通大学闵行校区"},{"poiid":"B2094757D164ABF44399","title":"街景(交大店)","lon":"121.42693138","lat":"31.025444227","category":"247","category_name":"餐饮美食","address":"闵行区东川路800号上海交通大学第四餐饮大楼门口(近剑川路)"},{"poiid":"B2094757D064A2FB4499","title":"上海交通大学材料D楼","lon":"121.42628062","lat":"31.0230760709","category":"500","category_name":"未知分类","address":"上海市闵行区东川路800号上海交通大学求实路"},{"poiid":"B2094757D06FA6FE459D","title":"鹤北新村一街坊","lon":"121.427","lat":"31.0161","category":"47","category_name":"住宅区","address":"上海市鹤庆路136弄"},{"poiid":"B2094757D168A6F8409B","title":"上海交通大学新体健身房","lon":"121.4263612","lat":"31.025947082","category":"148","category_name":"美容美发店","address":"上海闵行区剑川路附近"},{"poiid":"B2094654DB6EAAF94898","title":"易普森工业炉(上海)有限公司","lon":"121.42371","lat":"31.02518","category":"263","category_name":"公司","address":""},{"poiid":"B2094757D065A3FA4899","title":"交大华联生活中心","lon":"121.43202112","lat":"31.024255217","category":"500","category_name":"未知分类","address":"上海市闵行区东川路800号"},{"poiid":"B2094757D569A6FD459E","title":"闵行交大宿舍楼","lon":"121.42425","lat":"31.03012","category":"47","category_name":"住宅区","address":"东川路800号"},{"poiid":"B2094757D66EA3F8419E","title":"交大寝室楼","lon":"121.427572228","lat":"31.0250065992","category":"249","category_name":"购物服务","address":null},{"poiid":"B2094654DB6EAAF9489D","title":"南洋博仕欣居","lon":"121.42418","lat":"31.019089","category":"47","category_name":"住宅区","address":"上海市闵行区景谷东路99弄"},{"poiid":"B2094757D069A2FC429F","title":"上海交通大学西区64栋","lon":"121.426146507","lat":"31.0272772655","category":"253","category_name":"校园生活","address":"上海闵行区东川路800号"},{"poiid":"B2094654DB6EAAF8489D","title":"飞乐股份闵行工业园区","lon":"121.42288","lat":"31.02786","category":"45","category_name":"产业园区","address":"剑川路920"},{"poiid":"B2094750DA64A5F44898","title":"上海交通大学校医院","lon":"121.4281","lat":"31.026556","category":"162","category_name":"医院","address":"上海闵行区东川路800号上海交通大学闵行校区"},{"poiid":"B2094654DB6EAAFF429B","title":"上海交通大学环境科学与工程学院","lon":"121.42929","lat":"31.02425","category":"52","category_name":"高等院校","address":"闵行区东川路800号环境楼213室"},{"poiid":"B2094654DB6EAAF8499A","title":"剑川工业园","lon":"121.42085","lat":"31.02722","category":"45","category_name":"产业园区","address":"剑川路940"},{"poiid":"B2094757D16CA5FA449A","title":"剑川路910号","lon":"121.424225","lat":"31.02833","category":"500","category_name":"未知分类","address":"上海闵行区剑川路910号"},{"poiid":"B2094757D068A2FF429C","title":"交大闵行校区第三餐饮大楼","lon":"121.433227872","lat":"31.0267363815","category":"253","category_name":"校园生活","address":"闵行区东川路800号上海交通大学内(近永平路)"},{"poiid":"B2094654DB6AA7FF419F","title":"留园","lon":"121.43172","lat":"31.01908","category":"76","category_name":"上海菜","address":"闵行区东川路880号上海交大校内(近交通大学)"},{"poiid":"B2094654DB6EAAFA409F","title":"机械与动力工程学院","lon":"121.42869","lat":"31.024","category":"52","category_name":"高等院校","address":""},{"poiid":"B2094654DB6EAAFC4293","title":"沧源工业区","lon":"121.42451","lat":"31.0217","category":"45","category_name":"产业园区","address":""},{"poiid":"B2094757D16BA7FC429C","title":"克莉丝汀(交大闵行店)","lon":"121.42683","lat":"31.02225","category":"500","category_name":"未知分类","address":"闵行区东川路885号(近交通大学闵行校区)"},{"poiid":"B2094757D06BA2F44492","title":"校园食代(交大闵行店)","lon":"121.43094778","lat":"31.023710522","category":"247","category_name":"餐饮美食","address":"闵行区东川路800号上海交通大学华联中心(近永平路)"},{"poiid":"B2094757D16AA4FD499B","title":"上海交通大学工程训练中心","lon":"121.42820496","lat":"31.023757236","category":"500","category_name":"未知分类","address":"上海闵行区东川路800号上海交通大学闵行校区"},{"poiid":"B2094757D66FA1F8489E","title":"上海交通大学西47宿舍楼","lon":"121.42878212","lat":"31.026359727","category":"500","category_name":"未知分类","address":"上海市闵行区东川路800号"},{"poiid":"B2094757D66FA3F4479E","title":"村夫烤鱼","lon":"121.42840212","lat":"31.023275663","category":"247","category_name":"餐饮美食","address":"上海闵行区永平路(近德宏路)"},{"poiid":"B2094757D66EA0FB469F","title":"西38五楼小套间","lon":"121.428204128","lat":"31.0248296956","category":"253","category_name":"校园生活","address":"上海交通大学"},{"poiid":"B2094654DB64A4FC469D","title":"上海交通大学(闵行校区)","lon":"121.43073","lat":"31.01765","category":"671","category_name":"高校中心点","address":"闵行区东川路800号上海交通大学内(近永平路)"},{"poiid":"B2094757D06FA6F84399","title":"上海交通大学新体育馆","lon":"121.42467827","lat":"31.026720302","category":"253","category_name":"校园生活","address":"闵行区东川路800号上海交通大学北一门"},{"poiid":"B2094757D66FA1F5479C","title":"上海西南某高校","lon":"121.431708328","lat":"31.0301269045","category":"500","category_name":"未知分类","address":"上海西南小角落"},{"poiid":"B2094757D16DA3FD409A","title":"上海交通大学闵行校区宿舍","lon":"121.428428128","lat":"31.0285047711","category":"500","category_name":"未知分类","address":"上海市闵行区东川路800号"},{"poiid":"B2094655D26AA0F94392","title":"地铁东川路站","lon":"121.42009","lat":"31.01749","category":"36","category_name":"地铁站","address":""},{"poiid":"B2094757D06FA1FD4099","title":"剑川路地铁站","lon":"121.41649472","lat":"31.026177569","category":"36","category_name":"地铁站","address":"上海轨道交通 五号线 轨交剑川路站 5"},{"poiid":"B2094757D06FA0FD409E","title":"上海交通大学东上院","lon":"121.43097598","lat":"31.019636672","category":"52","category_name":"高等院校","address":"上海闵行区东川路800号上海交通大学闵行校区"},{"poiid":"B2094757D06FA4FA4499","title":"上海交通大学菁菁堂","lon":"121.42978692","lat":"31.017888915","category":"178","category_name":"电影院","address":"闵行区东川路800号上海交通大学校区"},{"poiid":"B2094757D068A3FE4199","title":"思源湖","lon":"121.430137634","lat":"31.0201702118","category":"234","category_name":"海滨浴场","address":"闵行区东川路800号上海交通大学拖鞋门内(近永平路)"},{"poiid":"B2094757D06FA2F5429F","title":"上海交大闵行校区拖鞋门","lon":"121.43095039","lat":"31.017577126","category":"500","category_name":"未知分类","address":"上海市东川路800号"},{"poiid":"B2094757D068A2F4419A","title":"交大闵行校区第四餐饮大楼","lon":"121.42695263","lat":"31.0254746275","category":"68","category_name":"快餐厅","address":"闵行区东川路800号上海交通大学内(近剑川路)"},{"poiid":"B2094757D06FA3FC4498","title":"上海交通大学包玉刚图书馆","lon":"121.43020189","lat":"31.021687445","category":"253","category_name":"校园生活","address":"上海闵行区东川路800号上海交通大学闵行校区"},{"poiid":"B2094757D06FA4FB4599","title":"上海交通大学下院","lon":"121.4311441","lat":"31.021094838","category":"253","category_name":"校园生活","address":"上海闵行区东川路800号"},{"poiid":"B2094757D06FA1F54293","title":"上海交通大学第一餐饮大楼(闵行校区)","lon":"121.43191","lat":"31.0217","category":"253","category_name":"校园生活","address":"上海闵行区东川路800号上海交通大学闵行校区"},{"poiid":"B2094757D06BA7FC449B","title":"甜魔咖啡 交大店 Timo Coffee","lon":"121.4325478","lat":"31.0178311","category":"65","category_name":"咖啡厅","address":"闵行区东川路800号上海交通大学内"},{"poiid":"B2094655D36CA6F4429B","title":"东川路地铁站","lon":"121.41901","lat":"31.01929","category":"36","category_name":"地铁站","address":""},{"poiid":"B2094757D068A3FC4499","title":"复地北桥城","lon":"121.41927","lat":"31.033833","category":"47","category_name":"住宅区","address":"同景国际城法朵Villa位于南岸茶园新区南岸新行政中心对面"},{"poiid":"B2094655D264A1FF4093","title":"千岱名墅","lon":"121.421467","lat":"31.022477","category":"47","category_name":"住宅区","address":"上海市闵行区安宁路458弄"},{"poiid":"B2094757D068A3FD409B","title":"沪金高速S4剑川路出口","lon":"121.431243","lat":"31.028693","category":"260","category_name":"其他","address":"上海沪金高速剑川路出口"},{"poiid":"B2094655D26EA0F4409F","title":"交通大学综合体育馆","lon":"121.42453","lat":"31.02665","category":"224","category_name":"综合体育馆","address":""},{"poiid":"B2094655D36CA7FD4693","title":"沪闵路剑川路","lon":"121.41749","lat":"31.02535","category":"38","category_name":"公交车站","address":""},{"poiid":"B2094757D069A4F54192","title":"上海交通大学光明体育场","lon":"121.427507","lat":"31.018782","category":"253","category_name":"校园生活","address":"上海闵行区东川路800号上海交通大学闵行校区"},{"poiid":"B2094757D068A0F94993","title":"索广电子有限公司","lon":"121.422447","lat":"31.027729","category":"46","category_name":"楼宇","address":"上海剑川路930号"},{"poiid":"B2094654DB6EAAFA4093","title":"第四餐饮大楼","lon":"121.42695","lat":"31.02548","category":"46","category_name":"楼宇","address":"闵行区东川路800号上海交通大学内(近剑川路)"},{"poiid":"B2094757D16DA4F4479D","title":"上海交通大学新体篮球场","lon":"121.4247","lat":"31.02661","category":"220","category_name":"运动场所","address":"上海闵行区东川路800号上海交通大学闵行校区"},{"poiid":"B2094757D164ABF44399","title":"街景(交大店)","lon":"121.42693138","lat":"31.025444227","category":"247","category_name":"餐饮美食","address":"闵行区东川路800号上海交通大学第四餐饮大楼门口(近剑川路)"},{"poiid":"B2094757D064A2FB4499","title":"上海交通大学材料D楼","lon":"121.42628062","lat":"31.0230760709","category":"500","category_name":"未知分类","address":"上海市闵行区东川路800号上海交通大学求实路"},{"poiid":"B2094757D06FA6FE459D","title":"鹤北新村一街坊","lon":"121.427","lat":"31.0161","category":"47","category_name":"住宅区","address":"上海市鹤庆路136弄"},{"poiid":"B2094757D168A6F8409B","title":"上海交通大学新体健身房","lon":"121.4263612","lat":"31.025947082","category":"148","category_name":"美容美发店","address":"上海闵行区剑川路附近"},{"poiid":"B2094654DB6EAAF94898","title":"易普森工业炉(上海)有限公司","lon":"121.42371","lat":"31.02518","category":"263","category_name":"公司","address":""},{"poiid":"B2094757D065A3FA4899","title":"交大华联生活中心","lon":"121.43202112","lat":"31.024255217","category":"500","category_name":"未知分类","address":"上海市闵行区东川路800号"},{"poiid":"B2094757D569A6FD459E","title":"闵行交大宿舍楼","lon":"121.42425","lat":"31.03012","category":"47","category_name":"住宅区","address":"东川路800号"},{"poiid":"B2094757D66EA3F8419E","title":"交大寝室楼","lon":"121.427572228","lat":"31.0250065992","category":"249","category_name":"购物服务","address":null},{"poiid":"B2094654DB6EAAF9489D","title":"南洋博仕欣居","lon":"121.42418","lat":"31.019089","category":"47","category_name":"住宅区","address":"上海市闵行区景谷东路99弄"},{"poiid":"B2094757D069A2FC429F","title":"上海交通大学西区64栋","lon":"121.426146507","lat":"31.0272772655","category":"253","category_name":"校园生活","address":"上海闵行区东川路800号"},{"poiid":"B2094654DB6EAAF8489D","title":"飞乐股份闵行工业园区","lon":"121.42288","lat":"31.02786","category":"45","category_name":"产业园区","address":"剑川路920"},{"poiid":"B2094750DA64A5F44898","title":"上海交通大学校医院","lon":"121.4281","lat":"31.026556","category":"162","category_name":"医院","address":"上海闵行区东川路800号上海交通大学闵行校区"},{"poiid":"B2094654DB6EAAFF429B","title":"上海交通大学环境科学与工程学院","lon":"121.42929","lat":"31.02425","category":"52","category_name":"高等院校","address":"闵行区东川路800号环境楼213室"},{"poiid":"B2094654DB6EAAF8499A","title":"剑川工业园","lon":"121.42085","lat":"31.02722","category":"45","category_name":"产业园区","address":"剑川路940"},{"poiid":"B2094757D16CA5FA449A","title":"剑川路910号","lon":"121.424225","lat":"31.02833","category":"500","category_name":"未知分类","address":"上海闵行区剑川路910号"},{"poiid":"B2094757D068A2FF429C","title":"交大闵行校区第三餐饮大楼","lon":"121.433227872","lat":"31.0267363815","category":"253","category_name":"校园生活","address":"闵行区东川路800号上海交通大学内(近永平路)"},{"poiid":"B2094654DB6AA7FF419F","title":"留园","lon":"121.43172","lat":"31.01908","category":"76","category_name":"上海菜","address":"闵行区东川路880号上海交大校内(近交通大学)"},{"poiid":"B2094654DB6EAAFA409F","title":"机械与动力工程学院","lon":"121.42869","lat":"31.024","category":"52","category_name":"高等院校","address":""},{"poiid":"B2094654DB6EAAFC4293","title":"沧源工业区","lon":"121.42451","lat":"31.0217","category":"45","category_name":"产业园区","address":""},{"poiid":"B2094757D16BA7FC429C","title":"克莉丝汀(交大闵行店)","lon":"121.42683","lat":"31.02225","category":"500","category_name":"未知分类","address":"闵行区东川路885号(近交通大学闵行校区)"},{"poiid":"B2094757D06BA2F44492","title":"校园食代(交大闵行店)","lon":"121.43094778","lat":"31.023710522","category":"247","category_name":"餐饮美食","address":"闵行区东川路800号上海交通大学华联中心(近永平路)"},{"poiid":"B2094757D16AA4FD499B","title":"上海交通大学工程训练中心","lon":"121.42820496","lat":"31.023757236","category":"500","category_name":"未知分类","address":"上海闵行区东川路800号上海交通大学闵行校区"},{"poiid":"B2094757D66FA1F8489E","title":"上海交通大学西47宿舍楼","lon":"121.42878212","lat":"31.026359727","category":"500","category_name":"未知分类","address":"上海市闵行区东川路800号"},{"poiid":"B2094757D66FA3F4479E","title":"村夫烤鱼","lon":"121.42840212","lat":"31.023275663","category":"247","category_name":"餐饮美食","address":"上海闵行区永平路(近德宏路)"},{"poiid":"B2094757D66EA0FB469F","title":"西38五楼小套间","lon":"121.428204128","lat":"31.0248296956","category":"253","category_name":"校园生活","address":"上海交通大学"},{"poiid":"B2094654DB64A4FC469D","title":"上海交通大学(闵行校区)","lon":"121.43073","lat":"31.01765","category":"671","category_name":"高校中心点","address":"闵行区东川路800号上海交通大学内(近永平路)"},{"poiid":"B2094757D06FA6F84399","title":"上海交通大学新体育馆","lon":"121.42467827","lat":"31.026720302","category":"253","category_name":"校园生活","address":"闵行区东川路800号上海交通大学北一门"},{"poiid":"B2094757D66FA1F5479C","title":"上海西南某高校","lon":"121.431708328","lat":"31.0301269045","category":"500","category_name":"未知分类","address":"上海西南小角落"},{"poiid":"B2094757D16DA3FD409A","title":"上海交通大学闵行校区宿舍","lon":"121.428428128","lat":"31.0285047711","category":"500","category_name":"未知分类","address":"上海市闵行区东川路800号"},{"poiid":"B2094655D26AA0F94392","title":"地铁东川路站","lon":"121.42009","lat":"31.01749","category":"36","category_name":"地铁站","address":""},{"poiid":"B2094757D06FA1FD4099","title":"剑川路地铁站","lon":"121.41649472","lat":"31.026177569","category":"36","category_name":"地铁站","address":"上海轨道交通 五号线 轨交剑川路站 5"},{"poiid":"B2094757D06FA0FD409E","title":"上海交通大学东上院","lon":"121.43097598","lat":"31.019636672","category":"52","category_name":"高等院校","address":"上海闵行区东川路800号上海交通大学闵行校区"},{"poiid":"B2094757D06FA4FA4499","title":"上海交通大学菁菁堂","lon":"121.42978692","lat":"31.017888915","category":"178","category_name":"电影院","address":"闵行区东川路800号上海交通大学校区"},{"poiid":"B2094757D068A3FE4199","title":"思源湖","lon":"121.430137634","lat":"31.0201702118","category":"234","category_name":"海滨浴场","address":"闵行区东川路800号上海交通大学拖鞋门内(近永平路)"},{"poiid":"B2094757D06FA2F5429F","title":"上海交大闵行校区拖鞋门","lon":"121.43095039","lat":"31.017577126","category":"500","category_name":"未知分类","address":"上海市东川路800号"},{"poiid":"B2094757D068A2F4419A","title":"交大闵行校区第四餐饮大楼","lon":"121.42695263","lat":"31.0254746275","category":"68","category_name":"快餐厅","address":"闵行区东川路800号上海交通大学内(近剑川路)"},{"poiid":"B2094757D06FA3FC4498","title":"上海交通大学包玉刚图书馆","lon":"121.43020189","lat":"31.021687445","category":"253","category_name":"校园生活","address":"上海闵行区东川路800号上海交通大学闵行校区"},{"poiid":"B2094757D06FA4FB4599","title":"上海交通大学下院","lon":"121.4311441","lat":"31.021094838","category":"253","category_name":"校园生活","address":"上海闵行区东川路800号"},{"poiid":"B2094757D06FA1F54293","title":"上海交通大学第一餐饮大楼(闵行校区)","lon":"121.43191","lat":"31.0217","category":"253","category_name":"校园生活","address":"上海闵行区东川路800号上海交通大学闵行校区"},{"poiid":"B2094757D06BA7FC449B","title":"甜魔咖啡 交大店 Timo Coffee","lon":"121.4325478","lat":"31.0178311","category":"65","category_name":"咖啡厅","address":"闵行区东川路800号上海交通大学内"},{"poiid":"B2094655D36CA6F4429B","title":"东川路地铁站","lon":"121.41901","lat":"31.01929","category":"36","category_name":"地铁站","address":""},{"poiid":"B2094757D068A3FC4499","title":"复地北桥城","lon":"121.41927","lat":"31.033833","category":"47","category_name":"住宅区","address":"同景国际城法朵Villa位于南岸茶园新区南岸新行政中心对面"},{"poiid":"B2094655D264A1FF4093","title":"千岱名墅","lon":"121.421467","lat":"31.022477","category":"47","category_name":"住宅区","address":"上海市闵行区安宁路458弄"},{"poiid":"B2094757D068A3FD409B","title":"沪金高速S4剑川路出口","lon":"121.431243","lat":"31.028693","category":"260","category_name":"其他","address":"上海沪金高速剑川路出口"},{"poiid":"B2094655D26EA0F4409F","title":"交通大学综合体育馆","lon":"121.42453","lat":"31.02665","category":"224","category_name":"综合体育馆","address":""},{"poiid":"B2094655D36CA7FD4693","title":"沪闵路剑川路","lon":"121.41749","lat":"31.02535","category":"38","category_name":"公交车站","address":""},{"poiid":"B2094757D069A4F54192","title":"上海交通大学光明体育场","lon":"121.427507","lat":"31.018782","category":"253","category_name":"校园生活","address":"上海闵行区东川路800号上海交通大学闵行校区"},{"poiid":"B2094757D068A0F94993","title":"索广电子有限公司","lon":"121.422447","lat":"31.027729","category":"46","category_name":"楼宇","address":"上海剑川路930号"},{"poiid":"B2094654DB6EAAFA4093","title":"第四餐饮大楼","lon":"121.42695","lat":"31.02548","category":"46","category_name":"楼宇","address":"闵行区东川路800号上海交通大学内(近剑川路)"},{"poiid":"B2094757D16DA4F4479D","title":"上海交通大学新体篮球场","lon":"121.4247","lat":"31.02661","category":"220","category_name":"运动场所","address":"上海闵行区东川路800号上海交通大学闵行校区"},{"poiid":"B2094757D164ABF44399","title":"街景(交大店)","lon":"121.42693138","lat":"31.025444227","category":"247","category_name":"餐饮美食","address":"闵行区东川路800号上海交通大学第四餐饮大楼门口(近剑川路)"},{"poiid":"B2094757D064A2FB4499","title":"上海交通大学材料D楼","lon":"121.42628062","lat":"31.0230760709","category":"500","category_name":"未知分类","address":"上海市闵行区东川路800号上海交通大学求实路"},{"poiid":"B2094757D06FA6FE459D","title":"鹤北新村一街坊","lon":"121.427","lat":"31.0161","category":"47","category_name":"住宅区","address":"上海市鹤庆路136弄"},{"poiid":"B2094757D168A6F8409B","title":"上海交通大学新体健身房","lon":"121.4263612","lat":"31.025947082","category":"148","category_name":"美容美发店","address":"上海闵行区剑川路附近"},{"poiid":"B2094654DB6EAAF94898","title":"易普森工业炉(上海)有限公司","lon":"121.42371","lat":"31.02518","category":"263","category_name":"公司","address":""},{"poiid":"B2094757D065A3FA4899","title":"交大华联生活中心","lon":"121.43202112","lat":"31.024255217","category":"500","category_name":"未知分类","address":"上海市闵行区东川路800号"},{"poiid":"B2094757D569A6FD459E","title":"闵行交大宿舍楼","lon":"121.42425","lat":"31.03012","category":"47","category_name":"住宅区","address":"东川路800号"},{"poiid":"B2094757D66EA3F8419E","title":"交大寝室楼","lon":"121.427572228","lat":"31.0250065992","category":"249","category_name":"购物服务","address":null},{"poiid":"B2094654DB6EAAF9489D","title":"南洋博仕欣居","lon":"121.42418","lat":"31.019089","category":"47","category_name":"住宅区","address":"上海市闵行区景谷东路99弄"},{"poiid":"B2094757D069A2FC429F","title":"上海交通大学西区64栋","lon":"121.426146507","lat":"31.0272772655","category":"253","category_name":"校园生活","address":"上海闵行区东川路800号"},{"poiid":"B2094654DB6EAAF8489D","title":"飞乐股份闵行工业园区","lon":"121.42288","lat":"31.02786","category":"45","category_name":"产业园区","address":"剑川路920"},{"poiid":"B2094750DA64A5F44898","title":"上海交通大学校医院","lon":"121.4281","lat":"31.026556","category":"162","category_name":"医院","address":"上海闵行区东川路800号上海交通大学闵行校区"},{"poiid":"B2094654DB6EAAFF429B","title":"上海交通大学环境科学与工程学院","lon":"121.42929","lat":"31.02425","category":"52","category_name":"高等院校","address":"闵行区东川路800号环境楼213室"},{"poiid":"B2094654DB6EAAF8499A","title":"剑川工业园","lon":"121.42085","lat":"31.02722","category":"45","category_name":"产业园区","address":"剑川路940"},{"poiid":"B2094757D16CA5FA449A","title":"剑川路910号","lon":"121.424225","lat":"31.02833","category":"500","category_name":"未知分类","address":"上海闵行区剑川路910号"},{"poiid":"B2094757D068A2FF429C","title":"交大闵行校区第三餐饮大楼","lon":"121.433227872","lat":"31.0267363815","category":"253","category_name":"校园生活","address":"闵行区东川路800号上海交通大学内(近永平路)"},{"poiid":"B2094654DB6AA7FF419F","title":"留园","lon":"121.43172","lat":"31.01908","category":"76","category_name":"上海菜","address":"闵行区东川路880号上海交大校内(近交通大学)"},{"poiid":"B2094654DB6EAAFA409F","title":"机械与动力工程学院","lon":"121.42869","lat":"31.024","category":"52","category_name":"高等院校","address":""},{"poiid":"B2094654DB6EAAFC4293","title":"沧源工业区","lon":"121.42451","lat":"31.0217","category":"45","category_name":"产业园区","address":""},{"poiid":"B2094757D16BA7FC429C","title":"克莉丝汀(交大闵行店)","lon":"121.42683","lat":"31.02225","category":"500","category_name":"未知分类","address":"闵行区东川路885号(近交通大学闵行校区)"},{"poiid":"B2094757D06BA2F44492","title":"校园食代(交大闵行店)","lon":"121.43094778","lat":"31.023710522","category":"247","category_name":"餐饮美食","address":"闵行区东川路800号上海交通大学华联中心(近永平路)"},{"poiid":"B2094757D16AA4FD499B","title":"上海交通大学工程训练中心","lon":"121.42820496","lat":"31.023757236","category":"500","category_name":"未知分类","address":"上海闵行区东川路800号上海交通大学闵行校区"},{"poiid":"B2094757D66FA1F8489E","title":"上海交通大学西47宿舍楼","lon":"121.42878212","lat":"31.026359727","category":"500","category_name":"未知分类","address":"上海市闵行区东川路800号"},{"poiid":"B2094757D66FA3F4479E","title":"村夫烤鱼","lon":"121.42840212","lat":"31.023275663","category":"247","category_name":"餐饮美食","address":"上海闵行区永平路(近德宏路)"},{"poiid":"B2094757D66EA0FB469F","title":"西38五楼小套间","lon":"121.428204128","lat":"31.0248296956","category":"253","category_name":"校园生活","address":"上海交通大学"},{"poiid":"B2094654DB64A4FC469D","title":"上海交通大学(闵行校区)","lon":"121.43073","lat":"31.01765","category":"671","category_name":"高校中心点","address":"闵行区东川路800号上海交通大学内(近永平路)"},{"poiid":"B2094757D06FA6F84399","title":"上海交通大学新体育馆","lon":"121.42467827","lat":"31.026720302","category":"253","category_name":"校园生活","address":"闵行区东川路800号上海交通大学北一门"},{"poiid":"B2094757D66FA1F5479C","title":"上海西南某高校","lon":"121.431708328","lat":"31.0301269045","category":"500","category_name":"未知分类","address":"上海西南小角落"},{"poiid":"B2094757D16DA3FD409A","title":"上海交通大学闵行校区宿舍","lon":"121.428428128","lat":"31.0285047711","category":"500","category_name":"未知分类","address":"上海市闵行区东川路800号"},{"poiid":"B2094655D26AA0F94392","title":"地铁东川路站","lon":"121.42009","lat":"31.01749","category":"36","category_name":"地铁站","address":""},{"poiid":"B2094757D06FA1FD4099","title":"剑川路地铁站","lon":"121.41649472","lat":"31.026177569","category":"36","category_name":"地铁站","address":"上海轨道交通 五号线 轨交剑川路站 5"},{"poiid":"B2094757D06FA0FD409E","title":"上海交通大学东上院","lon":"121.43097598","lat":"31.019636672","category":"52","category_name":"高等院校","address":"上海闵行区东川路800号上海交通大学闵行校区"},{"poiid":"B2094757D06FA4FA4499","title":"上海交通大学菁菁堂","lon":"121.42978692","lat":"31.017888915","category":"178","category_name":"电影院","address":"闵行区东川路800号上海交通大学校区"},{"poiid":"B2094757D068A3FE4199","title":"思源湖","lon":"121.430137634","lat":"31.0201702118","category":"234","category_name":"海滨浴场","address":"闵行区东川路800号上海交通大学拖鞋门内(近永平路)"},{"poiid":"B2094757D06FA2F5429F","title":"上海交大闵行校区拖鞋门","lon":"121.43095039","lat":"31.017577126","category":"500","category_name":"未知分类","address":"上海市东川路800号"},{"poiid":"B2094757D068A2F4419A","title":"交大闵行校区第四餐饮大楼","lon":"121.42695263","lat":"31.0254746275","category":"68","category_name":"快餐厅","address":"闵行区东川路800号上海交通大学内(近剑川路)"},{"poiid":"B2094757D06FA3FC4498","title":"上海交通大学包玉刚图书馆","lon":"121.43020189","lat":"31.021687445","category":"253","category_name":"校园生活","address":"上海闵行区东川路800号上海交通大学闵行校区"},{"poiid":"B2094757D06FA4FB4599","title":"上海交通大学下院","lon":"121.4311441","lat":"31.021094838","category":"253","category_name":"校园生活","address":"上海闵行区东川路800号"},{"poiid":"B2094757D06FA1F54293","title":"上海交通大学第一餐饮大楼(闵行校区)","lon":"121.43191","lat":"31.0217","category":"253","category_name":"校园生活","address":"上海闵行区东川路800号上海交通大学闵行校区"},{"poiid":"B2094757D06BA7FC449B","title":"甜魔咖啡 交大店 Timo Coffee","lon":"121.4325478","lat":"31.0178311","category":"65","category_name":"咖啡厅","address":"闵行区东川路800号上海交通大学内"},{"poiid":"B2094655D36CA6F4429B","title":"东川路地铁站","lon":"121.41901","lat":"31.01929","category":"36","category_name":"地铁站","address":""},{"poiid":"B2094757D068A3FC4499","title":"复地北桥城","lon":"121.41927","lat":"31.033833","category":"47","category_name":"住宅区","address":"同景国际城法朵Villa位于南岸茶园新区南岸新行政中心对面"},{"poiid":"B2094655D264A1FF4093","title":"千岱名墅","lon":"121.421467","lat":"31.022477","category":"47","category_name":"住宅区","address":"上海市闵行区安宁路458弄"},{"poiid":"B2094757D068A3FD409B","title":"沪金高速S4剑川路出口","lon":"121.431243","lat":"31.028693","category":"260","category_name":"其他","address":"上海沪金高速剑川路出口"},{"poiid":"B2094655D26EA0F4409F","title":"交通大学综合体育馆","lon":"121.42453","lat":"31.02665","category":"224","category_name":"综合体育馆","address":""},{"poiid":"B2094655D36CA7FD4693","title":"沪闵路剑川路","lon":"121.41749","lat":"31.02535","category":"38","category_name":"公交车站","address":""},{"poiid":"B2094757D069A4F54192","title":"上海交通大学光明体育场","lon":"121.427507","lat":"31.018782","category":"253","category_name":"校园生活","address":"上海闵行区东川路800号上海交通大学闵行校区"},{"poiid":"B2094757D068A0F94993","title":"索广电子有限公司","lon":"121.422447","lat":"31.027729","category":"46","category_name":"楼宇","address":"上海剑川路930号"},{"poiid":"B2094654DB6EAAFA4093","title":"第四餐饮大楼","lon":"121.42695","lat":"31.02548","category":"46","category_name":"楼宇","address":"闵行区东川路800号上海交通大学内(近剑川路)"},{"poiid":"B2094757D16DA4F4479D","title":"上海交通大学新体篮球场","lon":"121.4247","lat":"31.02661","category":"220","category_name":"运动场所","address":"上海闵行区东川路800号上海交通大学闵行校区"},{"poiid":"B2094757D164ABF44399","title":"街景(交大店)","lon":"121.42693138","lat":"31.025444227","category":"247","category_name":"餐饮美食","address":"闵行区东川路800号上海交通大学第四餐饮大楼门口(近剑川路)"},{"poiid":"B2094757D064A2FB4499","title":"上海交通大学材料D楼","lon":"121.42628062","lat":"31.0230760709","category":"500","category_name":"未知分类","address":"上海市闵行区东川路800号上海交通大学求实路"},{"poiid":"B2094757D06FA6FE459D","title":"鹤北新村一街坊","lon":"121.427","lat":"31.0161","category":"47","category_name":"住宅区","address":"上海市鹤庆路136弄"},{"poiid":"B2094757D168A6F8409B","title":"上海交通大学新体健身房","lon":"121.4263612","lat":"31.025947082","category":"148","category_name":"美容美发店","address":"上海闵行区剑川路附近"},{"poiid":"B2094654DB6EAAF94898","title":"易普森工业炉(上海)有限公司","lon":"121.42371","lat":"31.02518","category":"263","category_name":"公司","address":""},{"poiid":"B2094757D065A3FA4899","title":"交大华联生活中心","lon":"121.43202112","lat":"31.024255217","category":"500","category_name":"未知分类","address":"上海市闵行区东川路800号"},{"poiid":"B2094757D569A6FD459E","title":"闵行交大宿舍楼","lon":"121.42425","lat":"31.03012","category":"47","category_name":"住宅区","address":"东川路800号"},{"poiid":"B2094757D66EA3F8419E","title":"交大寝室楼","lon":"121.427572228","lat":"31.0250065992","category":"249","category_name":"购物服务","address":null},{"poiid":"B2094654DB6EAAF9489D","title":"南洋博仕欣居","lon":"121.42418","lat":"31.019089","category":"47","category_name":"住宅区","address":"上海市闵行区景谷东路99弄"},{"poiid":"B2094757D069A2FC429F","title":"上海交通大学西区64栋","lon":"121.426146507","lat":"31.0272772655","category":"253","category_name":"校园生活","address":"上海闵行区东川路800号"},{"poiid":"B2094654DB6EAAF8489D","title":"飞乐股份闵行工业园区","lon":"121.42288","lat":"31.02786","category":"45","category_name":"产业园区","address":"剑川路920"},{"poiid":"B2094750DA64A5F44898","title":"上海交通大学校医院","lon":"121.4281","lat":"31.026556","category":"162","category_name":"医院","address":"上海闵行区东川路800号上海交通大学闵行校区"},{"poiid":"B2094654DB6EAAFF429B","title":"上海交通大学环境科学与工程学院","lon":"121.42929","lat":"31.02425","category":"52","category_name":"高等院校","address":"闵行区东川路800号环境楼213室"},{"poiid":"B2094654DB6EAAF8499A","title":"剑川工业园","lon":"121.42085","lat":"31.02722","category":"45","category_name":"产业园区","address":"剑川路940"},{"poiid":"B2094757D16CA5FA449A","title":"剑川路910号","lon":"121.424225","lat":"31.02833","category":"500","category_name":"未知分类","address":"上海闵行区剑川路910号"},{"poiid":"B2094757D068A2FF429C","title":"交大闵行校区第三餐饮大楼","lon":"121.433227872","lat":"31.0267363815","category":"253","category_name":"校园生活","address":"闵行区东川路800号上海交通大学内(近永平路)"},{"poiid":"B2094654DB6AA7FF419F","title":"留园","lon":"121.43172","lat":"31.01908","category":"76","category_name":"上海菜","address":"闵行区东川路880号上海交大校内(近交通大学)"},{"poiid":"B2094654DB6EAAFA409F","title":"机械与动力工程学院","lon":"121.42869","lat":"31.024","category":"52","category_name":"高等院校","address":""},{"poiid":"B2094654DB6EAAFC4293","title":"沧源工业区","lon":"121.42451","lat":"31.0217","category":"45","category_name":"产业园区","address":""},{"poiid":"B2094757D16BA7FC429C","title":"克莉丝汀(交大闵行店)","lon":"121.42683","lat":"31.02225","category":"500","category_name":"未知分类","address":"闵行区东川路885号(近交通大学闵行校区)"},{"poiid":"B2094757D06BA2F44492","title":"校园食代(交大闵行店)","lon":"121.43094778","lat":"31.023710522","category":"247","category_name":"餐饮美食","address":"闵行区东川路800号上海交通大学华联中心(近永平路)"},{"poiid":"B2094757D16AA4FD499B","title":"上海交通大学工程训练中心","lon":"121.42820496","lat":"31.023757236","category":"500","category_name":"未知分类","address":"上海闵行区东川路800号上海交通大学闵行校区"},{"poiid":"B2094757D66FA1F8489E","title":"上海交通大学西47宿舍楼","lon":"121.42878212","lat":"31.026359727","category":"500","category_name":"未知分类","address":"上海市闵行区东川路800号"},{"poiid":"B2094757D66FA3F4479E","title":"村夫烤鱼","lon":"121.42840212","lat":"31.023275663","category":"247","category_name":"餐饮美食","address":"上海闵行区永平路(近德宏路)"},{"poiid":"B2094757D66EA0FB469F","title":"西38五楼小套间","lon":"121.428204128","lat":"31.0248296956","category":"253","category_name":"校园生活","address":"上海交通大学"}]