[{"poiid":"B2094757D06FA2FA449D","title":"上海世博会博物馆 - 上海世博会纪念展","lon":"121.48130635","lat":"31.1936099525","category":"182","category_name":"博物馆","address":"卢湾区局门路原世博会城市足迹馆内(近龙华东路)"},{"poiid":"B2094757D16CA2FF439C","title":"新富港中心I座","lon":"121.482165824","lat":"31.1968062719","category":"46","category_name":"楼宇","address":"上海市卢湾区蒙自路763号"},{"poiid":"B2094751D46FA1F9439B","title":"小团圆甜品","lon":"121.477386","lat":"31.198929","category":"247","category_name":"餐饮美食","address":"瞿溪路汇暻广场"},{"poiid":"B2094753D76FAAFA449C","title":"上海滩国泰旗舰店","lon":"121.466011","lat":"31.216125","category":"249","category_name":"购物服务","address":"淮海中路868号"},{"poiid":"B209475CD564A7F84292","title":"上海滩新天地店","lon":"121.47463","lat":"31.22164","category":"119","category_name":"商场","address":"\"太仓路181弄新天地北里15号\r\n\""},{"poiid":"B2094750DA6AABFB4293","title":"汇暻生活广场","lon":"121.47724395700834","lat":"31.198751495772107","category":"248","category_name":"生活娱乐","address":"上海市黄浦区瞿溪路988号"},{"poiid":"B2094654DA68A7FB489D","title":"上海市公安局卢湾分局(中山南一路)","lon":"121.482","lat":"31.19939","category":"248","category_name":"生活娱乐","address":"中山南一路599"},{"poiid":"B2094654DA6DA4FA419D","title":"卢湾城市花园","lon":"121.4775","lat":"31.19385","category":"47","category_name":"住宅区","address":"上海市卢湾区鲁班路738弄"},{"poiid":"B2094753D568ABFE479F","title":"风云电竞馆","lon":"121.479003","lat":"31.194408","category":"500","category_name":"未知分类","address":"上海市 鲁班路899号"},{"poiid":"B2094654DA6DA4FA429B","title":"紫荆新苑","lon":"121.47836","lat":"31.192335","category":"47","category_name":"住宅区","address":"紫荆新苑位于卢湾鲁班路797号"},{"poiid":"B209475CD664A6FC409C","title":"辣府滨江店","lon":"121.481399","lat":"31.195335","category":"500","category_name":"未知分类","address":"上海市 卢湾区打浦路603号"},{"poiid":"B2094750DB65A1FF4092","title":"江边城外巫山烤全鱼","lon":"121.479843","lat":"31.195262","category":"247","category_name":"餐饮美食","address":"金陵东路"},{"poiid":"B2094655D268ABFF419A","title":"内环鲁班路立交桥","lon":"121.47785","lat":"31.1974","category":"250","category_name":"公园户外","address":""},{"poiid":"B2094757D068ABFE4499","title":"上海卢工邮币卡交易市场","lon":"121.482825715","lat":"31.2002586785","category":"134","category_name":"古玩字画店","address":"卢湾区局门路600号(局门路中山南一路)"},{"poiid":"B2094655D264A2FD479B","title":"自由广场","lon":"121.47981","lat":"31.19517","category":"201","category_name":"城市广场","address":"上海世博园区"},{"poiid":"B2094655D26AA0F9489E","title":"地铁卢浦大桥站","lon":"121.48238","lat":"31.19623","category":"36","category_name":"地铁站","address":""},{"poiid":"B2094655D26BA1F4449D","title":"鲁班路","lon":"121.47952","lat":"31.19795","category":"38","category_name":"公交车站","address":""},{"poiid":"B2094757D068A1F5419F","title":"世博园一号门","lon":"121.48098064","lat":"31.194694578","category":"260","category_name":"其他","address":"上海世博园一号门鲁班路出入口"},{"poiid":"B209475DD06EA0F94399","title":"香草香草云南原生态火锅","lon":"121.479568","lat":"31.19663","category":"247","category_name":"餐饮美食","address":"上海市 上海市黄浦区瞿溪路988号汇暻生活广场6A四层"},{"poiid":"B2094750DA6AAAF9499C","title":"GYOTOU渔藤寿司","lon":"121.477096","lat":"31.198917","category":"95","category_name":"日本料理","address":"卢湾区鲁班路615号汇暻生活广场1楼"},{"poiid":"B2094654DA68A7F44093","title":"江南新苑","lon":"121.47919","lat":"31.198936","category":"47","category_name":"住宅区","address":"瞿溪路926弄3-9号、中山南一路721弄1-2号"},{"poiid":"B2094654DA6DA4F9439D","title":"卢湾区教师进修学院附属中山学校(东门)","lon":"121.47768","lat":"31.19597","category":"678","category_name":"学校大门","address":"鲁班路618"},{"poiid":"B209475CD46EA5F4449B","title":"爱丽舍宫韩国高端礼堂","lon":"121.481152","lat":"31.193035","category":"265","category_name":"知名企业","address":"黄浦区局门路801号（近蒙自路）"},{"poiid":"B2094654DA68A7FA439D","title":"鲁班大楼","lon":"121.47838","lat":"31.197166","category":"47","category_name":"住宅区","address":"鲁班路721弄1-2号"},{"poiid":"B2094751D56CA4F54999","title":"麦当劳(汇暻广场店)","lon":"121.47801","lat":"31.19953","category":"68","category_name":"快餐厅","address":"卢湾区瞿溪路968号汇暻生活广场1楼(近鲁班路)"},{"poiid":"B2094655D26EA1FB439F","title":"卢浦大桥观光平台","lon":"121.47928","lat":"31.19279","category":"250","category_name":"公园户外","address":"鲁班路909"},{"poiid":"B2094750DB6FA6FB469F","title":"山姆会员店","lon":"121.480545","lat":"31.194852","category":"249","category_name":"购物服务","address":"高科西路2110号"},{"poiid":"B2094757D66DA3F44493","title":"来福仕和平影都","lon":"121.483822738","lat":"31.1938715257","category":"500","category_name":"未知分类","address":"上海市黄浦区南京西路"},{"poiid":"B2094757D065A6FC479B","title":"地铁十三号线(已暂停营运)","lon":"121.481882","lat":"31.193804","category":"36","category_name":"地铁站","address":"上海马当路 - 世博大道 轨道交通十三号线 轨交 13"},{"poiid":"B2094750D66FA2FC4998","title":"威尔士健身俱乐部（汇景天地店）","lon":"121.47776","lat":"31.198797","category":"248","category_name":"生活娱乐","address":"瞿溪路968号"},{"poiid":"B2094757DA64ABFF4992","title":"新富港中心","lon":"121.481527","lat":"31.197614","category":"252","category_name":"楼宇机构","address":"胶南市珠海东路288号"},{"poiid":"B2094654DA6DA4FA4198","title":"世博林绿地","lon":"121.47683","lat":"31.1967","category":"196","category_name":"公园","address":"卢湾区鲁班路(打浦路瞿溪路)"},{"poiid":"B2094757D06FA4F94099","title":"世博会城市足迹馆","lon":"121.48432","lat":"31.19455","category":"260","category_name":"其他","address":"上海世博会D片区"},{"poiid":"B2094751D56BA4FA479F","title":"上海歌城","lon":"121.480165","lat":"31.191962","category":"170","category_name":"KTV","address":"昌里路337号浦东商场4层"},{"poiid":"B209475CD16EA4F8419E","title":"辣府","lon":"121.478958","lat":"31.1928","category":"247","category_name":"餐饮美食","address":"上海市 打浦路603号"},{"poiid":"B2094654DA6DA4FA419B","title":"世博林绿地公共运动场","lon":"121.47682","lat":"31.19649","category":"220","category_name":"运动场所","address":""},{"poiid":"B2094757D169A5FD4892","title":"奥林幼儿园","lon":"121.47755","lat":"31.19821","category":"57","category_name":"幼儿园","address":"卢湾区瞿溪路1072弄35号(近鲁班路)"},{"poiid":"B2094655D26BA1F94999","title":"蒙自路中山南一路","lon":"121.48027","lat":"31.20013","category":"38","category_name":"公交车站","address":""},{"poiid":"B209475CDB6BA2FD4993","title":"万岛","lon":"121.480049","lat":"31.194213","category":"500","category_name":"未知分类","address":"上海市 四川中路33号"},{"poiid":"B2094757D16FAAF44799","title":"253路公交车终点站","lon":"121.477762","lat":"31.197251","category":"38","category_name":"公交车站","address":"上海鲁班路中山南一路"},{"poiid":"B209475DD464A3FE4493","title":"上海梅赛德斯-奔驰文化中心","lon":"121.478187","lat":"31.197416","category":"248","category_name":"生活娱乐","address":"上海市 浦东新区"},{"poiid":"B209475CDA64A0FD409A","title":"食之秘（汇暻店）","lon":"121.481994","lat":"31.197282","category":"500","category_name":"未知分类","address":"上海市 上海市瞿溪路988号汇暻生活广场1楼"},{"poiid":"B2094750DB69AAFE499B","title":"汇璟生活广场","lon":"121.482192","lat":"31.196895","category":"248","category_name":"生活娱乐","address":"鲁班路瞿溪路"},{"poiid":"B2094757D069A7FC4193","title":"阿三烤鸭丰盛酒家","lon":"121.4805979","lat":"31.200152402","category":"68","category_name":"快餐厅","address":"卢湾区局门路521号(瞿溪路口)"},{"poiid":"B2094655D26CA4F9489C","title":"卢湾区教师进修学院附属中山学校(上海雷卡勃针纺织品有限公司北)","lon":"121.4773","lat":"31.19577","category":"55","category_name":"中学","address":"卢湾区鲁班路618号(近中山南一路)"},{"poiid":"B2094655D265AAFB479E","title":"卢湾公安分局交通警察支队事故违章审理科","lon":"121.47891","lat":"31.19736","category":"250","category_name":"公园户外","address":"中山南一路800"},{"poiid":"B209475CD46DA4FB469C","title":"风云电竞馆","lon":"121.481163","lat":"31.193283","category":"500","category_name":"未知分类","address":"上海市 上海市黄浦区鲁班路往南到底（近龙华东路），风云电竞馆。"},{"poiid":"B2094655D268A5FB489F","title":"鲁班大楼(西门)","lon":"121.47824","lat":"31.19681","category":"47","category_name":"住宅区","address":"鲁班路"},{"poiid":"B2094654DA68A7FB489E","title":"重矿大厦(局门路)","lon":"121.48281","lat":"31.19965","category":"46","category_name":"楼宇","address":"局门路620"},{"poiid":"B2094654DA68A7FA449E","title":"卢湾公安分局交通警察支队机动中队","lon":"121.47902","lat":"31.19757","category":"250","category_name":"公园户外","address":"中山南一路800"},{"poiid":"B2094757D06FA2FA449D","title":"上海世博会博物馆 - 上海世博会纪念展","lon":"121.48130635","lat":"31.1936099525","category":"182","category_name":"博物馆","address":"卢湾区局门路原世博会城市足迹馆内(近龙华东路)"},{"poiid":"B2094757D16CA2FF439C","title":"新富港中心I座","lon":"121.482165824","lat":"31.1968062719","category":"46","category_name":"楼宇","address":"上海市卢湾区蒙自路763号"},{"poiid":"B2094751D46FA1F9439B","title":"小团圆甜品","lon":"121.477386","lat":"31.198929","category":"247","category_name":"餐饮美食","address":"瞿溪路汇暻广场"},{"poiid":"B2094753D76FAAFA449C","title":"上海滩国泰旗舰店","lon":"121.466011","lat":"31.216125","category":"249","category_name":"购物服务","address":"淮海中路868号"},{"poiid":"B209475CD564A7F84292","title":"上海滩新天地店","lon":"121.47463","lat":"31.22164","category":"119","category_name":"商场","address":"\"太仓路181弄新天地北里15号\r\n\""},{"poiid":"B2094750DA6AABFB4293","title":"汇暻生活广场","lon":"121.47724395700834","lat":"31.198751495772107","category":"248","category_name":"生活娱乐","address":"上海市黄浦区瞿溪路988号"},{"poiid":"B2094654DA68A7FB489D","title":"上海市公安局卢湾分局(中山南一路)","lon":"121.482","lat":"31.19939","category":"248","category_name":"生活娱乐","address":"中山南一路599"},{"poiid":"B2094654DA6DA4FA419D","title":"卢湾城市花园","lon":"121.4775","lat":"31.19385","category":"47","category_name":"住宅区","address":"上海市卢湾区鲁班路738弄"},{"poiid":"B2094753D568ABFE479F","title":"风云电竞馆","lon":"121.479003","lat":"31.194408","category":"500","category_name":"未知分类","address":"上海市 鲁班路899号"},{"poiid":"B2094654DA6DA4FA429B","title":"紫荆新苑","lon":"121.47836","lat":"31.192335","category":"47","category_name":"住宅区","address":"紫荆新苑位于卢湾鲁班路797号"},{"poiid":"B209475CD664A6FC409C","title":"辣府滨江店","lon":"121.481399","lat":"31.195335","category":"500","category_name":"未知分类","address":"上海市 卢湾区打浦路603号"},{"poiid":"B2094750DB65A1FF4092","title":"江边城外巫山烤全鱼","lon":"121.479843","lat":"31.195262","category":"247","category_name":"餐饮美食","address":"金陵东路"},{"poiid":"B2094655D268ABFF419A","title":"内环鲁班路立交桥","lon":"121.47785","lat":"31.1974","category":"250","category_name":"公园户外","address":""},{"poiid":"B2094757D068ABFE4499","title":"上海卢工邮币卡交易市场","lon":"121.482825715","lat":"31.2002586785","category":"134","category_name":"古玩字画店","address":"卢湾区局门路600号(局门路中山南一路)"},{"poiid":"B2094655D264A2FD479B","title":"自由广场","lon":"121.47981","lat":"31.19517","category":"201","category_name":"城市广场","address":"上海世博园区"},{"poiid":"B2094655D26AA0F9489E","title":"地铁卢浦大桥站","lon":"121.48238","lat":"31.19623","category":"36","category_name":"地铁站","address":""},{"poiid":"B2094655D26BA1F4449D","title":"鲁班路","lon":"121.47952","lat":"31.19795","category":"38","category_name":"公交车站","address":""},{"poiid":"B2094757D068A1F5419F","title":"世博园一号门","lon":"121.48098064","lat":"31.194694578","category":"260","category_name":"其他","address":"上海世博园一号门鲁班路出入口"},{"poiid":"B209475DD06EA0F94399","title":"香草香草云南原生态火锅","lon":"121.479568","lat":"31.19663","category":"247","category_name":"餐饮美食","address":"上海市 上海市黄浦区瞿溪路988号汇暻生活广场6A四层"},{"poiid":"B2094750DA6AAAF9499C","title":"GYOTOU渔藤寿司","lon":"121.477096","lat":"31.198917","category":"95","category_name":"日本料理","address":"卢湾区鲁班路615号汇暻生活广场1楼"},{"poiid":"B2094654DA68A7F44093","title":"江南新苑","lon":"121.47919","lat":"31.198936","category":"47","category_name":"住宅区","address":"瞿溪路926弄3-9号、中山南一路721弄1-2号"},{"poiid":"B2094654DA6DA4F9439D","title":"卢湾区教师进修学院附属中山学校(东门)","lon":"121.47768","lat":"31.19597","category":"678","category_name":"学校大门","address":"鲁班路618"},{"poiid":"B209475CD46EA5F4449B","title":"爱丽舍宫韩国高端礼堂","lon":"121.481152","lat":"31.193035","category":"265","category_name":"知名企业","address":"黄浦区局门路801号（近蒙自路）"},{"poiid":"B2094654DA68A7FA439D","title":"鲁班大楼","lon":"121.47838","lat":"31.197166","category":"47","category_name":"住宅区","address":"鲁班路721弄1-2号"},{"poiid":"B2094751D56CA4F54999","title":"麦当劳(汇暻广场店)","lon":"121.47801","lat":"31.19953","category":"68","category_name":"快餐厅","address":"卢湾区瞿溪路968号汇暻生活广场1楼(近鲁班路)"},{"poiid":"B2094655D26EA1FB439F","title":"卢浦大桥观光平台","lon":"121.47928","lat":"31.19279","category":"250","category_name":"公园户外","address":"鲁班路909"},{"poiid":"B2094750DB6FA6FB469F","title":"山姆会员店","lon":"121.480545","lat":"31.194852","category":"249","category_name":"购物服务","address":"高科西路2110号"},{"poiid":"B2094757D66DA3F44493","title":"来福仕和平影都","lon":"121.483822738","lat":"31.1938715257","category":"500","category_name":"未知分类","address":"上海市黄浦区南京西路"},{"poiid":"B2094757D065A6FC479B","title":"地铁十三号线(已暂停营运)","lon":"121.481882","lat":"31.193804","category":"36","category_name":"地铁站","address":"上海马当路 - 世博大道 轨道交通十三号线 轨交 13"},{"poiid":"B2094750D66FA2FC4998","title":"威尔士健身俱乐部（汇景天地店）","lon":"121.47776","lat":"31.198797","category":"248","category_name":"生活娱乐","address":"瞿溪路968号"},{"poiid":"B2094757DA64ABFF4992","title":"新富港中心","lon":"121.481527","lat":"31.197614","category":"252","category_name":"楼宇机构","address":"胶南市珠海东路288号"},{"poiid":"B2094654DA6DA4FA4198","title":"世博林绿地","lon":"121.47683","lat":"31.1967","category":"196","category_name":"公园","address":"卢湾区鲁班路(打浦路瞿溪路)"},{"poiid":"B2094757D06FA4F94099","title":"世博会城市足迹馆","lon":"121.48432","lat":"31.19455","category":"260","category_name":"其他","address":"上海世博会D片区"},{"poiid":"B2094751D56BA4FA479F","title":"上海歌城","lon":"121.480165","lat":"31.191962","category":"170","category_name":"KTV","address":"昌里路337号浦东商场4层"},{"poiid":"B209475CD16EA4F8419E","title":"辣府","lon":"121.478958","lat":"31.1928","category":"247","category_name":"餐饮美食","address":"上海市 打浦路603号"},{"poiid":"B2094654DA6DA4FA419B","title":"世博林绿地公共运动场","lon":"121.47682","lat":"31.19649","category":"220","category_name":"运动场所","address":""},{"poiid":"B2094757D169A5FD4892","title":"奥林幼儿园","lon":"121.47755","lat":"31.19821","category":"57","category_name":"幼儿园","address":"卢湾区瞿溪路1072弄35号(近鲁班路)"},{"poiid":"B2094655D26BA1F94999","title":"蒙自路中山南一路","lon":"121.48027","lat":"31.20013","category":"38","category_name":"公交车站","address":""},{"poiid":"B209475CDB6BA2FD4993","title":"万岛","lon":"121.480049","lat":"31.194213","category":"500","category_name":"未知分类","address":"上海市 四川中路33号"},{"poiid":"B2094757D16FAAF44799","title":"253路公交车终点站","lon":"121.477762","lat":"31.197251","category":"38","category_name":"公交车站","address":"上海鲁班路中山南一路"},{"poiid":"B209475DD464A3FE4493","title":"上海梅赛德斯-奔驰文化中心","lon":"121.478187","lat":"31.197416","category":"248","category_name":"生活娱乐","address":"上海市 浦东新区"},{"poiid":"B209475CDA64A0FD409A","title":"食之秘（汇暻店）","lon":"121.481994","lat":"31.197282","category":"500","category_name":"未知分类","address":"上海市 上海市瞿溪路988号汇暻生活广场1楼"},{"poiid":"B2094750DB69AAFE499B","title":"汇璟生活广场","lon":"121.482192","lat":"31.196895","category":"248","category_name":"生活娱乐","address":"鲁班路瞿溪路"},{"poiid":"B2094757D069A7FC4193","title":"阿三烤鸭丰盛酒家","lon":"121.4805979","lat":"31.200152402","category":"68","category_name":"快餐厅","address":"卢湾区局门路521号(瞿溪路口)"},{"poiid":"B2094655D26CA4F9489C","title":"卢湾区教师进修学院附属中山学校(上海雷卡勃针纺织品有限公司北)","lon":"121.4773","lat":"31.19577","category":"55","category_name":"中学","address":"卢湾区鲁班路618号(近中山南一路)"},{"poiid":"B2094655D265AAFB479E","title":"卢湾公安分局交通警察支队事故违章审理科","lon":"121.47891","lat":"31.19736","category":"250","category_name":"公园户外","address":"中山南一路800"},{"poiid":"B209475CD46DA4FB469C","title":"风云电竞馆","lon":"121.481163","lat":"31.193283","category":"500","category_name":"未知分类","address":"上海市 上海市黄浦区鲁班路往南到底（近龙华东路），风云电竞馆。"},{"poiid":"B2094655D268A5FB489F","title":"鲁班大楼(西门)","lon":"121.47824","lat":"31.19681","category":"47","category_name":"住宅区","address":"鲁班路"},{"poiid":"B2094654DA68A7FB489E","title":"重矿大厦(局门路)","lon":"121.48281","lat":"31.19965","category":"46","category_name":"楼宇","address":"局门路620"},{"poiid":"B2094654DA68A7FA449E","title":"卢湾公安分局交通警察支队机动中队","lon":"121.47902","lat":"31.19757","category":"250","category_name":"公园户外","address":"中山南一路800"},{"poiid":"B2094757D06FA2FA449D","title":"上海世博会博物馆 - 上海世博会纪念展","lon":"121.48130635","lat":"31.1936099525","category":"182","category_name":"博物馆","address":"卢湾区局门路原世博会城市足迹馆内(近龙华东路)"},{"poiid":"B2094757D16CA2FF439C","title":"新富港中心I座","lon":"121.482165824","lat":"31.1968062719","category":"46","category_name":"楼宇","address":"上海市卢湾区蒙自路763号"},{"poiid":"B2094751D46FA1F9439B","title":"小团圆甜品","lon":"121.477386","lat":"31.198929","category":"247","category_name":"餐饮美食","address":"瞿溪路汇暻广场"},{"poiid":"B2094753D76FAAFA449C","title":"上海滩国泰旗舰店","lon":"121.466011","lat":"31.216125","category":"249","category_name":"购物服务","address":"淮海中路868号"},{"poiid":"B209475CD564A7F84292","title":"上海滩新天地店","lon":"121.47463","lat":"31.22164","category":"119","category_name":"商场","address":"\"太仓路181弄新天地北里15号\r\n\""},{"poiid":"B2094750DA6AABFB4293","title":"汇暻生活广场","lon":"121.47724395700834","lat":"31.198751495772107","category":"248","category_name":"生活娱乐","address":"上海市黄浦区瞿溪路988号"},{"poiid":"B2094654DA68A7FB489D","title":"上海市公安局卢湾分局(中山南一路)","lon":"121.482","lat":"31.19939","category":"248","category_name":"生活娱乐","address":"中山南一路599"},{"poiid":"B2094654DA6DA4FA419D","title":"卢湾城市花园","lon":"121.4775","lat":"31.19385","category":"47","category_name":"住宅区","address":"上海市卢湾区鲁班路738弄"},{"poiid":"B2094753D568ABFE479F","title":"风云电竞馆","lon":"121.479003","lat":"31.194408","category":"500","category_name":"未知分类","address":"上海市 鲁班路899号"},{"poiid":"B2094654DA6DA4FA429B","title":"紫荆新苑","lon":"121.47836","lat":"31.192335","category":"47","category_name":"住宅区","address":"紫荆新苑位于卢湾鲁班路797号"},{"poiid":"B209475CD664A6FC409C","title":"辣府滨江店","lon":"121.481399","lat":"31.195335","category":"500","category_name":"未知分类","address":"上海市 卢湾区打浦路603号"},{"poiid":"B2094750DB65A1FF4092","title":"江边城外巫山烤全鱼","lon":"121.479843","lat":"31.195262","category":"247","category_name":"餐饮美食","address":"金陵东路"},{"poiid":"B2094655D268ABFF419A","title":"内环鲁班路立交桥","lon":"121.47785","lat":"31.1974","category":"250","category_name":"公园户外","address":""},{"poiid":"B2094757D068ABFE4499","title":"上海卢工邮币卡交易市场","lon":"121.482825715","lat":"31.2002586785","category":"134","category_name":"古玩字画店","address":"卢湾区局门路600号(局门路中山南一路)"},{"poiid":"B2094655D264A2FD479B","title":"自由广场","lon":"121.47981","lat":"31.19517","category":"201","category_name":"城市广场","address":"上海世博园区"},{"poiid":"B2094655D26AA0F9489E","title":"地铁卢浦大桥站","lon":"121.48238","lat":"31.19623","category":"36","category_name":"地铁站","address":""},{"poiid":"B2094655D26BA1F4449D","title":"鲁班路","lon":"121.47952","lat":"31.19795","category":"38","category_name":"公交车站","address":""},{"poiid":"B2094757D068A1F5419F","title":"世博园一号门","lon":"121.48098064","lat":"31.194694578","category":"260","category_name":"其他","address":"上海世博园一号门鲁班路出入口"},{"poiid":"B209475DD06EA0F94399","title":"香草香草云南原生态火锅","lon":"121.479568","lat":"31.19663","category":"247","category_name":"餐饮美食","address":"上海市 上海市黄浦区瞿溪路988号汇暻生活广场6A四层"},{"poiid":"B2094750DA6AAAF9499C","title":"GYOTOU渔藤寿司","lon":"121.477096","lat":"31.198917","category":"95","category_name":"日本料理","address":"卢湾区鲁班路615号汇暻生活广场1楼"},{"poiid":"B2094654DA68A7F44093","title":"江南新苑","lon":"121.47919","lat":"31.198936","category":"47","category_name":"住宅区","address":"瞿溪路926弄3-9号、中山南一路721弄1-2号"},{"poiid":"B2094654DA6DA4F9439D","title":"卢湾区教师进修学院附属中山学校(东门)","lon":"121.47768","lat":"31.19597","category":"678","category_name":"学校大门","address":"鲁班路618"},{"poiid":"B209475CD46EA5F4449B","title":"爱丽舍宫韩国高端礼堂","lon":"121.481152","lat":"31.193035","category":"265","category_name":"知名企业","address":"黄浦区局门路801号（近蒙自路）"},{"poiid":"B2094654DA68A7FA439D","title":"鲁班大楼","lon":"121.47838","lat":"31.197166","category":"47","category_name":"住宅区","address":"鲁班路721弄1-2号"},{"poiid":"B2094751D56CA4F54999","title":"麦当劳(汇暻广场店)","lon":"121.47801","lat":"31.19953","category":"68","category_name":"快餐厅","address":"卢湾区瞿溪路968号汇暻生活广场1楼(近鲁班路)"},{"poiid":"B2094655D26EA1FB439F","title":"卢浦大桥观光平台","lon":"121.47928","lat":"31.19279","category":"250","category_name":"公园户外","address":"鲁班路909"},{"poiid":"B2094750DB6FA6FB469F","title":"山姆会员店","lon":"121.480545","lat":"31.194852","category":"249","category_name":"购物服务","address":"高科西路2110号"},{"poiid":"B2094757D66DA3F44493","title":"来福仕和平影都","lon":"121.483822738","lat":"31.1938715257","category":"500","category_name":"未知分类","address":"上海市黄浦区南京西路"},{"poiid":"B2094757D065A6FC479B","title":"地铁十三号线(已暂停营运)","lon":"121.481882","lat":"31.193804","category":"36","category_name":"地铁站","address":"上海马当路 - 世博大道 轨道交通十三号线 轨交 13"},{"poiid":"B2094750D66FA2FC4998","title":"威尔士健身俱乐部（汇景天地店）","lon":"121.47776","lat":"31.198797","category":"248","category_name":"生活娱乐","address":"瞿溪路968号"},{"poiid":"B2094757DA64ABFF4992","title":"新富港中心","lon":"121.481527","lat":"31.197614","category":"252","category_name":"楼宇机构","address":"胶南市珠海东路288号"},{"poiid":"B2094654DA6DA4FA4198","title":"世博林绿地","lon":"121.47683","lat":"31.1967","category":"196","category_name":"公园","address":"卢湾区鲁班路(打浦路瞿溪路)"},{"poiid":"B2094757D06FA4F94099","title":"世博会城市足迹馆","lon":"121.48432","lat":"31.19455","category":"260","category_name":"其他","address":"上海世博会D片区"},{"poiid":"B2094751D56BA4FA479F","title":"上海歌城","lon":"121.480165","lat":"31.191962","category":"170","category_name":"KTV","address":"昌里路337号浦东商场4层"},{"poiid":"B209475CD16EA4F8419E","title":"辣府","lon":"121.478958","lat":"31.1928","category":"247","category_name":"餐饮美食","address":"上海市 打浦路603号"},{"poiid":"B2094654DA6DA4FA419B","title":"世博林绿地公共运动场","lon":"121.47682","lat":"31.19649","category":"220","category_name":"运动场所","address":""},{"poiid":"B2094757D169A5FD4892","title":"奥林幼儿园","lon":"121.47755","lat":"31.19821","category":"57","category_name":"幼儿园","address":"卢湾区瞿溪路1072弄35号(近鲁班路)"},{"poiid":"B2094655D26BA1F94999","title":"蒙自路中山南一路","lon":"121.48027","lat":"31.20013","category":"38","category_name":"公交车站","address":""},{"poiid":"B209475CDB6BA2FD4993","title":"万岛","lon":"121.480049","lat":"31.194213","category":"500","category_name":"未知分类","address":"上海市 四川中路33号"},{"poiid":"B2094757D16FAAF44799","title":"253路公交车终点站","lon":"121.477762","lat":"31.197251","category":"38","category_name":"公交车站","address":"上海鲁班路中山南一路"},{"poiid":"B209475DD464A3FE4493","title":"上海梅赛德斯-奔驰文化中心","lon":"121.478187","lat":"31.197416","category":"248","category_name":"生活娱乐","address":"上海市 浦东新区"},{"poiid":"B209475CDA64A0FD409A","title":"食之秘（汇暻店）","lon":"121.481994","lat":"31.197282","category":"500","category_name":"未知分类","address":"上海市 上海市瞿溪路988号汇暻生活广场1楼"},{"poiid":"B2094750DB69AAFE499B","title":"汇璟生活广场","lon":"121.482192","lat":"31.196895","category":"248","category_name":"生活娱乐","address":"鲁班路瞿溪路"},{"poiid":"B2094757D069A7FC4193","title":"阿三烤鸭丰盛酒家","lon":"121.4805979","lat":"31.200152402","category":"68","category_name":"快餐厅","address":"卢湾区局门路521号(瞿溪路口)"},{"poiid":"B2094655D26CA4F9489C","title":"卢湾区教师进修学院附属中山学校(上海雷卡勃针纺织品有限公司北)","lon":"121.4773","lat":"31.19577","category":"55","category_name":"中学","address":"卢湾区鲁班路618号(近中山南一路)"},{"poiid":"B2094655D265AAFB479E","title":"卢湾公安分局交通警察支队事故违章审理科","lon":"121.47891","lat":"31.19736","category":"250","category_name":"公园户外","address":"中山南一路800"},{"poiid":"B209475CD46DA4FB469C","title":"风云电竞馆","lon":"121.481163","lat":"31.193283","category":"500","category_name":"未知分类","address":"上海市 上海市黄浦区鲁班路往南到底（近龙华东路），风云电竞馆。"},{"poiid":"B2094655D268A5FB489F","title":"鲁班大楼(西门)","lon":"121.47824","lat":"31.19681","category":"47","category_name":"住宅区","address":"鲁班路"},{"poiid":"B2094654DA68A7FB489E","title":"重矿大厦(局门路)","lon":"121.48281","lat":"31.19965","category":"46","category_name":"楼宇","address":"局门路620"},{"poiid":"B2094654DA68A7FA449E","title":"卢湾公安分局交通警察支队机动中队","lon":"121.47902","lat":"31.19757","category":"250","category_name":"公园户外","address":"中山南一路800"}]