[{"poiid":"B2094655D36DA0FB4098","title":"殷行路包头路","lon":"121.53734","lat":"31.3283","category":"38","category_name":"公交车站","address":""},{"poiid":"B2094757D06FA3FB449A","title":"城市名园","lon":"121.5383","lat":"31.330715","category":"47","category_name":"住宅区","address":"上海市金山区朱泾镇亭枫公路4089号"},{"poiid":"B2094655D36DA7F9439D","title":"中原路殷行路","lon":"121.53208","lat":"31.32731","category":"38","category_name":"公交车站","address":""},{"poiid":"B2094757D06AA2FC469D","title":"上海市电力公司教育培训中心","lon":"121.5287321","lat":"31.336349801","category":"500","category_name":"未知分类","address":"上海市杨浦区闸殷路60弄15号"},{"poiid":"B2094757D069A2FC459B","title":"繁江酒楼(包头路店)","lon":"121.53788","lat":"31.33031","category":"76","category_name":"上海菜","address":"杨浦区包头路1135号(近国伟路)"},{"poiid":"B2094757D069AAF4489A","title":"城市庭园","lon":"121.53517","lat":"31.332256","category":"47","category_name":"住宅区","address":"上海国伟路138弄"},{"poiid":"B2094757D068A6FB409B","title":"开鲁四村","lon":"121.53042","lat":"31.327255","category":"252","category_name":"楼宇机构","address":"上海市杨浦区开鲁路"},{"poiid":"B2094654D56FA0FB4692","title":"豪享来上海开鲁店","lon":"121.5333","lat":"31.3264","category":"247","category_name":"餐饮美食","address":"上海杨浦区开鲁路360号"},{"poiid":"B2094757D66CA0F44192","title":"城市方园小区","lon":"121.5357084","lat":"31.3314635","category":"500","category_name":"未知分类","address":"上海市杨浦区国伟路100弄"},{"poiid":"B2094757D06AA4F5499F","title":"上海市中原中学","lon":"121.53044673","lat":"31.327812835","category":"55","category_name":"中学","address":"上海市杨浦区开鲁六村50号"},{"poiid":"B2094654D568A2F84193","title":"中原纪联小区","lon":"121.53245","lat":"31.330212","category":"47","category_name":"住宅区","address":"中原路990弄"},{"poiid":"B2094757D06FA2FF479A","title":"殷行路","lon":"121.52777099","lat":"31.328643798","category":"260","category_name":"其他","address":"上海杨浦区殷行路"},{"poiid":"B2094757D06FA0F94493","title":"开鲁二村","lon":"121.533","lat":"31.3291","category":"252","category_name":"楼宇机构","address":"上海市杨浦区开鲁二村"},{"poiid":"B2094757D069A0F94593","title":"绅士缘桌球棋牌俱乐部","lon":"121.53115933","lat":"31.330743404","category":"248","category_name":"生活娱乐","address":"杨浦区殷行路652号3楼(近中原路)"},{"poiid":"B2094757D06BA0FE419C","title":"水电新村","lon":"121.52902","lat":"31.335836","category":"47","category_name":"住宅区","address":"闸殷路90弄"},{"poiid":"B2094757D568A0F4419C","title":"智汇商务楼","lon":"121.533165","lat":"31.334285","category":"46","category_name":"楼宇","address":"上海市杨浦区国伟路135号"},{"poiid":"B2094757D06BABFC449F","title":"和记渔村 军工路店","lon":"121.54169","lat":"31.33249","category":"76","category_name":"上海菜","address":"杨浦区军工路2866号美食广场1号"},{"poiid":"B2094757D06FA5F5489F","title":"兴浦小区","lon":"121.530461","lat":"31.334979","category":"47","category_name":"住宅区","address":"上海闸殷路81弄"},{"poiid":"B2094757D068A2F9439B","title":"殷行社区卫生服务中心","lon":"121.537663","lat":"31.327707","category":"162","category_name":"医院","address":"上海杨浦区包头路959号"},{"poiid":"B2094655D26BA4F94998","title":"新杭城大酒店","lon":"121.53046","lat":"31.32853","category":"76","category_name":"上海菜","address":"杨浦区殷行路700号(近中原路)"},{"poiid":"B2094654D56FA0FB469E","title":"工农二村(开鲁路)","lon":"121.53456","lat":"31.32596","category":"47","category_name":"住宅区","address":"喔里巷"},{"poiid":"B2094757D06BA0FB4292","title":"上海梦想","lon":"121.52923","lat":"31.33321","category":"179","category_name":"音乐厅","address":"上海杨浦区闸殷路180号  "},{"poiid":"B2094757D068AAFB4099","title":"闸二小区","lon":"121.531042703","lat":"31.3304330775","category":"47","category_name":"住宅区","address":"上海殷行路650弄 ﹠闸殷路181弄 ﹠闸殷路195弄"},{"poiid":"B2094757D069A5FA4392","title":"8號線殷行車庫","lon":"121.537021203","lat":"31.3338366487","category":"500","category_name":"未知分类","address":"上海8號線殷行車庫"},{"poiid":"B2094757D068A1FF459A","title":"国民桌球","lon":"121.53222","lat":"31.32825","category":"248","category_name":"生活娱乐","address":"杨浦区殷行路(近中原路)"},{"poiid":"B2094655D26BA6FF479D","title":"新江湾城雍景苑一期","lon":"121.5286","lat":"31.33354","category":"47","category_name":"住宅区","address":"上海市杨浦区闸殷路180号"},{"poiid":"B2094655D36DA7FD409C","title":"闸殷路","lon":"121.52921","lat":"31.33476","category":"38","category_name":"公交车站","address":""},{"poiid":"B2094757D16BA7F5499D","title":"轨道交通殷行路基地","lon":"121.535492103","lat":"31.3334787412","category":"500","category_name":"未知分类","address":"上海国伟路106号"},{"poiid":"B2094757D069AAF5439C","title":"中原一村小区","lon":"121.5379936","lat":"31.332739065","category":"47","category_name":"住宅区","address":"上海杨浦区国伟路"},{"poiid":"B2094654D568A2F94693","title":"殷行路470弄小区","lon":"121.53635","lat":"31.32844","category":"47","category_name":"住宅区","address":"上海市杨浦区殷行路包头路"},{"poiid":"B2094654D568A2F84998","title":"杨浦都市工业经济园区","lon":"121.53756","lat":"31.33063","category":"45","category_name":"产业园区","address":"包头路1135"},{"poiid":"B2094757D465A0F4429C","title":"老同兴苏州汤包馆","lon":"121.53836","lat":"31.32658","category":"68","category_name":"快餐厅","address":"杨浦区包头路978号(近殷行路)"},{"poiid":"B2094750DA68A4FE489C","title":"虹口足球场","lon":"121.535","lat":"31.33147","category":"220","category_name":"运动场所","address":null},{"poiid":"B2094654D46BA3F54392","title":"五角场客运站","lon":"121.5308","lat":"31.33203","category":"35","category_name":"长途汽车站","address":"杨浦区国伟路456号(近闸殷路)"},{"poiid":"B2094757D16AA4F8429C","title":"智汇商务","lon":"121.535067103","lat":"31.3317297046","category":"500","category_name":"未知分类","address":"上海国伟路135号"},{"poiid":"B2094750DB69A2FB489B","title":"五角场万达","lon":"121.536224","lat":"31.328439","category":"500","category_name":"未知分类","address":null},{"poiid":"B2094753D26DA7FB409A","title":"长海医院","lon":"121.531755","lat":"31.335532","category":"162","category_name":"医院","address":"上海市 长海路"},{"poiid":"B2094752DB6CABF4479C","title":"五角场万达电影城","lon":"121.536451","lat":"31.333299","category":"500","category_name":"未知分类","address":"上海市 淞沪路"},{"poiid":"B2094654D56FA1F54499","title":"世界路151弄住宅小区","lon":"121.532","lat":"31.3294","category":"47","category_name":"住宅区","address":"世界路151弄1-19号"},{"poiid":"B2094654D568A2F9419D","title":"老崇明排档","lon":"121.53217","lat":"31.32913","category":"257","category_name":"中餐厅","address":"杨浦区市光路1166号(包头路口)"},{"poiid":"B2094757D06FA5FB459B","title":"殷行路310弄","lon":"121.539127","lat":"31.32899","category":"252","category_name":"楼宇机构","address":"杨浦区殷行路310弄"},{"poiid":"B2094757D468A6FE479C","title":"老四烧烤 殷行路店","lon":"121.532485054","lat":"31.328716793","category":"68","category_name":"快餐厅","address":"杨浦区殷行路(近中原路)"},{"poiid":"B2094654D56FA0F94193","title":"烧烤王","lon":"121.537563","lat":"31.328793","category":"68","category_name":"快餐厅","address":"杨浦区殷行路485号(近包头路)"},{"poiid":"B2094654D46BA3F5449A","title":"国伟宾馆","lon":"121.53103","lat":"31.33201","category":"250","category_name":"公园户外","address":"国伟路452"},{"poiid":"B2094757D66AA4F5469D","title":"银星涮羊坊","lon":"121.5348","lat":"31.32501","category":"86","category_name":"火锅店","address":"杨浦区开鲁路328号"},{"poiid":"B2094757D16FA7F9409E","title":"中原路警署","lon":"121.531839103","lat":"31.3309236877","category":"500","category_name":"未知分类","address":"上海市杨浦区中原路1111号"},{"poiid":"B2094757D16BA5F8489E","title":"奇瑞四平汽车修理厂","lon":"121.5329358","lat":"31.330927487","category":"163","category_name":"4S店","address":"上海国伟路(五角场长途汽车站内)"},{"poiid":"B2094757D469A1F9419B","title":"南京灌汤包 殷行路店","lon":"121.53761","lat":"31.32825","category":"68","category_name":"快餐厅","address":"杨浦区殷行路484-3号(近包头路)"},{"poiid":"B2094654D56FA0FB409C","title":"新小英饭店","lon":"121.537856054","lat":"31.327666793","category":"76","category_name":"上海菜","address":"杨浦区包头路929号之1(工农公园旁)"},{"poiid":"B2094654D46BA3F54292","title":"临江路轮渡站","lon":"121.5326","lat":"31.3405","category":"34","category_name":"港口码头","address":"军工路"},{"poiid":"B2094655D36DA0FB4098","title":"殷行路包头路","lon":"121.53734","lat":"31.3283","category":"38","category_name":"公交车站","address":""},{"poiid":"B2094757D06FA3FB449A","title":"城市名园","lon":"121.5383","lat":"31.330715","category":"47","category_name":"住宅区","address":"上海市金山区朱泾镇亭枫公路4089号"},{"poiid":"B2094655D36DA7F9439D","title":"中原路殷行路","lon":"121.53208","lat":"31.32731","category":"38","category_name":"公交车站","address":""},{"poiid":"B2094757D06AA2FC469D","title":"上海市电力公司教育培训中心","lon":"121.5287321","lat":"31.336349801","category":"500","category_name":"未知分类","address":"上海市杨浦区闸殷路60弄15号"},{"poiid":"B2094757D069A2FC459B","title":"繁江酒楼(包头路店)","lon":"121.53788","lat":"31.33031","category":"76","category_name":"上海菜","address":"杨浦区包头路1135号(近国伟路)"},{"poiid":"B2094757D069AAF4489A","title":"城市庭园","lon":"121.53517","lat":"31.332256","category":"47","category_name":"住宅区","address":"上海国伟路138弄"},{"poiid":"B2094757D068A6FB409B","title":"开鲁四村","lon":"121.53042","lat":"31.327255","category":"252","category_name":"楼宇机构","address":"上海市杨浦区开鲁路"},{"poiid":"B2094654D56FA0FB4692","title":"豪享来上海开鲁店","lon":"121.5333","lat":"31.3264","category":"247","category_name":"餐饮美食","address":"上海杨浦区开鲁路360号"},{"poiid":"B2094757D66CA0F44192","title":"城市方园小区","lon":"121.5357084","lat":"31.3314635","category":"500","category_name":"未知分类","address":"上海市杨浦区国伟路100弄"},{"poiid":"B2094757D06AA4F5499F","title":"上海市中原中学","lon":"121.53044673","lat":"31.327812835","category":"55","category_name":"中学","address":"上海市杨浦区开鲁六村50号"},{"poiid":"B2094654D568A2F84193","title":"中原纪联小区","lon":"121.53245","lat":"31.330212","category":"47","category_name":"住宅区","address":"中原路990弄"},{"poiid":"B2094757D06FA2FF479A","title":"殷行路","lon":"121.52777099","lat":"31.328643798","category":"260","category_name":"其他","address":"上海杨浦区殷行路"},{"poiid":"B2094757D06FA0F94493","title":"开鲁二村","lon":"121.533","lat":"31.3291","category":"252","category_name":"楼宇机构","address":"上海市杨浦区开鲁二村"},{"poiid":"B2094757D069A0F94593","title":"绅士缘桌球棋牌俱乐部","lon":"121.53115933","lat":"31.330743404","category":"248","category_name":"生活娱乐","address":"杨浦区殷行路652号3楼(近中原路)"},{"poiid":"B2094757D06BA0FE419C","title":"水电新村","lon":"121.52902","lat":"31.335836","category":"47","category_name":"住宅区","address":"闸殷路90弄"},{"poiid":"B2094757D568A0F4419C","title":"智汇商务楼","lon":"121.533165","lat":"31.334285","category":"46","category_name":"楼宇","address":"上海市杨浦区国伟路135号"},{"poiid":"B2094757D06BABFC449F","title":"和记渔村 军工路店","lon":"121.54169","lat":"31.33249","category":"76","category_name":"上海菜","address":"杨浦区军工路2866号美食广场1号"},{"poiid":"B2094757D06FA5F5489F","title":"兴浦小区","lon":"121.530461","lat":"31.334979","category":"47","category_name":"住宅区","address":"上海闸殷路81弄"},{"poiid":"B2094757D068A2F9439B","title":"殷行社区卫生服务中心","lon":"121.537663","lat":"31.327707","category":"162","category_name":"医院","address":"上海杨浦区包头路959号"},{"poiid":"B2094655D26BA4F94998","title":"新杭城大酒店","lon":"121.53046","lat":"31.32853","category":"76","category_name":"上海菜","address":"杨浦区殷行路700号(近中原路)"},{"poiid":"B2094654D56FA0FB469E","title":"工农二村(开鲁路)","lon":"121.53456","lat":"31.32596","category":"47","category_name":"住宅区","address":"喔里巷"},{"poiid":"B2094757D06BA0FB4292","title":"上海梦想","lon":"121.52923","lat":"31.33321","category":"179","category_name":"音乐厅","address":"上海杨浦区闸殷路180号  "},{"poiid":"B2094757D068AAFB4099","title":"闸二小区","lon":"121.531042703","lat":"31.3304330775","category":"47","category_name":"住宅区","address":"上海殷行路650弄 ﹠闸殷路181弄 ﹠闸殷路195弄"},{"poiid":"B2094757D069A5FA4392","title":"8號線殷行車庫","lon":"121.537021203","lat":"31.3338366487","category":"500","category_name":"未知分类","address":"上海8號線殷行車庫"},{"poiid":"B2094757D068A1FF459A","title":"国民桌球","lon":"121.53222","lat":"31.32825","category":"248","category_name":"生活娱乐","address":"杨浦区殷行路(近中原路)"},{"poiid":"B2094655D26BA6FF479D","title":"新江湾城雍景苑一期","lon":"121.5286","lat":"31.33354","category":"47","category_name":"住宅区","address":"上海市杨浦区闸殷路180号"},{"poiid":"B2094655D36DA7FD409C","title":"闸殷路","lon":"121.52921","lat":"31.33476","category":"38","category_name":"公交车站","address":""},{"poiid":"B2094757D16BA7F5499D","title":"轨道交通殷行路基地","lon":"121.535492103","lat":"31.3334787412","category":"500","category_name":"未知分类","address":"上海国伟路106号"},{"poiid":"B2094757D069AAF5439C","title":"中原一村小区","lon":"121.5379936","lat":"31.332739065","category":"47","category_name":"住宅区","address":"上海杨浦区国伟路"},{"poiid":"B2094654D568A2F94693","title":"殷行路470弄小区","lon":"121.53635","lat":"31.32844","category":"47","category_name":"住宅区","address":"上海市杨浦区殷行路包头路"},{"poiid":"B2094654D568A2F84998","title":"杨浦都市工业经济园区","lon":"121.53756","lat":"31.33063","category":"45","category_name":"产业园区","address":"包头路1135"},{"poiid":"B2094757D465A0F4429C","title":"老同兴苏州汤包馆","lon":"121.53836","lat":"31.32658","category":"68","category_name":"快餐厅","address":"杨浦区包头路978号(近殷行路)"},{"poiid":"B2094750DA68A4FE489C","title":"虹口足球场","lon":"121.535","lat":"31.33147","category":"220","category_name":"运动场所","address":null},{"poiid":"B2094654D46BA3F54392","title":"五角场客运站","lon":"121.5308","lat":"31.33203","category":"35","category_name":"长途汽车站","address":"杨浦区国伟路456号(近闸殷路)"},{"poiid":"B2094757D16AA4F8429C","title":"智汇商务","lon":"121.535067103","lat":"31.3317297046","category":"500","category_name":"未知分类","address":"上海国伟路135号"},{"poiid":"B2094750DB69A2FB489B","title":"五角场万达","lon":"121.536224","lat":"31.328439","category":"500","category_name":"未知分类","address":null},{"poiid":"B2094753D26DA7FB409A","title":"长海医院","lon":"121.531755","lat":"31.335532","category":"162","category_name":"医院","address":"上海市 长海路"},{"poiid":"B2094752DB6CABF4479C","title":"五角场万达电影城","lon":"121.536451","lat":"31.333299","category":"500","category_name":"未知分类","address":"上海市 淞沪路"},{"poiid":"B2094654D56FA1F54499","title":"世界路151弄住宅小区","lon":"121.532","lat":"31.3294","category":"47","category_name":"住宅区","address":"世界路151弄1-19号"},{"poiid":"B2094654D568A2F9419D","title":"老崇明排档","lon":"121.53217","lat":"31.32913","category":"257","category_name":"中餐厅","address":"杨浦区市光路1166号(包头路口)"},{"poiid":"B2094757D06FA5FB459B","title":"殷行路310弄","lon":"121.539127","lat":"31.32899","category":"252","category_name":"楼宇机构","address":"杨浦区殷行路310弄"},{"poiid":"B2094757D468A6FE479C","title":"老四烧烤 殷行路店","lon":"121.532485054","lat":"31.328716793","category":"68","category_name":"快餐厅","address":"杨浦区殷行路(近中原路)"},{"poiid":"B2094654D56FA0F94193","title":"烧烤王","lon":"121.537563","lat":"31.328793","category":"68","category_name":"快餐厅","address":"杨浦区殷行路485号(近包头路)"},{"poiid":"B2094654D46BA3F5449A","title":"国伟宾馆","lon":"121.53103","lat":"31.33201","category":"250","category_name":"公园户外","address":"国伟路452"},{"poiid":"B2094757D66AA4F5469D","title":"银星涮羊坊","lon":"121.5348","lat":"31.32501","category":"86","category_name":"火锅店","address":"杨浦区开鲁路328号"},{"poiid":"B2094757D16FA7F9409E","title":"中原路警署","lon":"121.531839103","lat":"31.3309236877","category":"500","category_name":"未知分类","address":"上海市杨浦区中原路1111号"},{"poiid":"B2094757D16BA5F8489E","title":"奇瑞四平汽车修理厂","lon":"121.5329358","lat":"31.330927487","category":"163","category_name":"4S店","address":"上海国伟路(五角场长途汽车站内)"},{"poiid":"B2094757D469A1F9419B","title":"南京灌汤包 殷行路店","lon":"121.53761","lat":"31.32825","category":"68","category_name":"快餐厅","address":"杨浦区殷行路484-3号(近包头路)"},{"poiid":"B2094654D56FA0FB409C","title":"新小英饭店","lon":"121.537856054","lat":"31.327666793","category":"76","category_name":"上海菜","address":"杨浦区包头路929号之1(工农公园旁)"},{"poiid":"B2094654D46BA3F54292","title":"临江路轮渡站","lon":"121.5326","lat":"31.3405","category":"34","category_name":"港口码头","address":"军工路"},{"poiid":"B2094655D36DA0FB4098","title":"殷行路包头路","lon":"121.53734","lat":"31.3283","category":"38","category_name":"公交车站","address":""},{"poiid":"B2094757D06FA3FB449A","title":"城市名园","lon":"121.5383","lat":"31.330715","category":"47","category_name":"住宅区","address":"上海市金山区朱泾镇亭枫公路4089号"},{"poiid":"B2094655D36DA7F9439D","title":"中原路殷行路","lon":"121.53208","lat":"31.32731","category":"38","category_name":"公交车站","address":""},{"poiid":"B2094757D06AA2FC469D","title":"上海市电力公司教育培训中心","lon":"121.5287321","lat":"31.336349801","category":"500","category_name":"未知分类","address":"上海市杨浦区闸殷路60弄15号"},{"poiid":"B2094757D069A2FC459B","title":"繁江酒楼(包头路店)","lon":"121.53788","lat":"31.33031","category":"76","category_name":"上海菜","address":"杨浦区包头路1135号(近国伟路)"},{"poiid":"B2094757D069AAF4489A","title":"城市庭园","lon":"121.53517","lat":"31.332256","category":"47","category_name":"住宅区","address":"上海国伟路138弄"},{"poiid":"B2094757D068A6FB409B","title":"开鲁四村","lon":"121.53042","lat":"31.327255","category":"252","category_name":"楼宇机构","address":"上海市杨浦区开鲁路"},{"poiid":"B2094654D56FA0FB4692","title":"豪享来上海开鲁店","lon":"121.5333","lat":"31.3264","category":"247","category_name":"餐饮美食","address":"上海杨浦区开鲁路360号"},{"poiid":"B2094757D66CA0F44192","title":"城市方园小区","lon":"121.5357084","lat":"31.3314635","category":"500","category_name":"未知分类","address":"上海市杨浦区国伟路100弄"},{"poiid":"B2094757D06AA4F5499F","title":"上海市中原中学","lon":"121.53044673","lat":"31.327812835","category":"55","category_name":"中学","address":"上海市杨浦区开鲁六村50号"},{"poiid":"B2094654D568A2F84193","title":"中原纪联小区","lon":"121.53245","lat":"31.330212","category":"47","category_name":"住宅区","address":"中原路990弄"},{"poiid":"B2094757D06FA2FF479A","title":"殷行路","lon":"121.52777099","lat":"31.328643798","category":"260","category_name":"其他","address":"上海杨浦区殷行路"},{"poiid":"B2094757D06FA0F94493","title":"开鲁二村","lon":"121.533","lat":"31.3291","category":"252","category_name":"楼宇机构","address":"上海市杨浦区开鲁二村"},{"poiid":"B2094757D069A0F94593","title":"绅士缘桌球棋牌俱乐部","lon":"121.53115933","lat":"31.330743404","category":"248","category_name":"生活娱乐","address":"杨浦区殷行路652号3楼(近中原路)"},{"poiid":"B2094757D06BA0FE419C","title":"水电新村","lon":"121.52902","lat":"31.335836","category":"47","category_name":"住宅区","address":"闸殷路90弄"},{"poiid":"B2094757D568A0F4419C","title":"智汇商务楼","lon":"121.533165","lat":"31.334285","category":"46","category_name":"楼宇","address":"上海市杨浦区国伟路135号"},{"poiid":"B2094757D06BABFC449F","title":"和记渔村 军工路店","lon":"121.54169","lat":"31.33249","category":"76","category_name":"上海菜","address":"杨浦区军工路2866号美食广场1号"},{"poiid":"B2094757D06FA5F5489F","title":"兴浦小区","lon":"121.530461","lat":"31.334979","category":"47","category_name":"住宅区","address":"上海闸殷路81弄"},{"poiid":"B2094757D068A2F9439B","title":"殷行社区卫生服务中心","lon":"121.537663","lat":"31.327707","category":"162","category_name":"医院","address":"上海杨浦区包头路959号"},{"poiid":"B2094655D26BA4F94998","title":"新杭城大酒店","lon":"121.53046","lat":"31.32853","category":"76","category_name":"上海菜","address":"杨浦区殷行路700号(近中原路)"},{"poiid":"B2094654D56FA0FB469E","title":"工农二村(开鲁路)","lon":"121.53456","lat":"31.32596","category":"47","category_name":"住宅区","address":"喔里巷"},{"poiid":"B2094757D06BA0FB4292","title":"上海梦想","lon":"121.52923","lat":"31.33321","category":"179","category_name":"音乐厅","address":"上海杨浦区闸殷路180号  "},{"poiid":"B2094757D068AAFB4099","title":"闸二小区","lon":"121.531042703","lat":"31.3304330775","category":"47","category_name":"住宅区","address":"上海殷行路650弄 ﹠闸殷路181弄 ﹠闸殷路195弄"},{"poiid":"B2094757D069A5FA4392","title":"8號線殷行車庫","lon":"121.537021203","lat":"31.3338366487","category":"500","category_name":"未知分类","address":"上海8號線殷行車庫"},{"poiid":"B2094757D068A1FF459A","title":"国民桌球","lon":"121.53222","lat":"31.32825","category":"248","category_name":"生活娱乐","address":"杨浦区殷行路(近中原路)"},{"poiid":"B2094655D26BA6FF479D","title":"新江湾城雍景苑一期","lon":"121.5286","lat":"31.33354","category":"47","category_name":"住宅区","address":"上海市杨浦区闸殷路180号"},{"poiid":"B2094655D36DA7FD409C","title":"闸殷路","lon":"121.52921","lat":"31.33476","category":"38","category_name":"公交车站","address":""},{"poiid":"B2094757D16BA7F5499D","title":"轨道交通殷行路基地","lon":"121.535492103","lat":"31.3334787412","category":"500","category_name":"未知分类","address":"上海国伟路106号"},{"poiid":"B2094757D069AAF5439C","title":"中原一村小区","lon":"121.5379936","lat":"31.332739065","category":"47","category_name":"住宅区","address":"上海杨浦区国伟路"},{"poiid":"B2094654D568A2F94693","title":"殷行路470弄小区","lon":"121.53635","lat":"31.32844","category":"47","category_name":"住宅区","address":"上海市杨浦区殷行路包头路"},{"poiid":"B2094654D568A2F84998","title":"杨浦都市工业经济园区","lon":"121.53756","lat":"31.33063","category":"45","category_name":"产业园区","address":"包头路1135"},{"poiid":"B2094757D465A0F4429C","title":"老同兴苏州汤包馆","lon":"121.53836","lat":"31.32658","category":"68","category_name":"快餐厅","address":"杨浦区包头路978号(近殷行路)"},{"poiid":"B2094750DA68A4FE489C","title":"虹口足球场","lon":"121.535","lat":"31.33147","category":"220","category_name":"运动场所","address":null},{"poiid":"B2094654D46BA3F54392","title":"五角场客运站","lon":"121.5308","lat":"31.33203","category":"35","category_name":"长途汽车站","address":"杨浦区国伟路456号(近闸殷路)"},{"poiid":"B2094757D16AA4F8429C","title":"智汇商务","lon":"121.535067103","lat":"31.3317297046","category":"500","category_name":"未知分类","address":"上海国伟路135号"},{"poiid":"B2094750DB69A2FB489B","title":"五角场万达","lon":"121.536224","lat":"31.328439","category":"500","category_name":"未知分类","address":null},{"poiid":"B2094753D26DA7FB409A","title":"长海医院","lon":"121.531755","lat":"31.335532","category":"162","category_name":"医院","address":"上海市 长海路"},{"poiid":"B2094752DB6CABF4479C","title":"五角场万达电影城","lon":"121.536451","lat":"31.333299","category":"500","category_name":"未知分类","address":"上海市 淞沪路"},{"poiid":"B2094654D56FA1F54499","title":"世界路151弄住宅小区","lon":"121.532","lat":"31.3294","category":"47","category_name":"住宅区","address":"世界路151弄1-19号"},{"poiid":"B2094654D568A2F9419D","title":"老崇明排档","lon":"121.53217","lat":"31.32913","category":"257","category_name":"中餐厅","address":"杨浦区市光路1166号(包头路口)"},{"poiid":"B2094757D06FA5FB459B","title":"殷行路310弄","lon":"121.539127","lat":"31.32899","category":"252","category_name":"楼宇机构","address":"杨浦区殷行路310弄"},{"poiid":"B2094757D468A6FE479C","title":"老四烧烤 殷行路店","lon":"121.532485054","lat":"31.328716793","category":"68","category_name":"快餐厅","address":"杨浦区殷行路(近中原路)"},{"poiid":"B2094654D56FA0F94193","title":"烧烤王","lon":"121.537563","lat":"31.328793","category":"68","category_name":"快餐厅","address":"杨浦区殷行路485号(近包头路)"},{"poiid":"B2094654D46BA3F5449A","title":"国伟宾馆","lon":"121.53103","lat":"31.33201","category":"250","category_name":"公园户外","address":"国伟路452"},{"poiid":"B2094757D66AA4F5469D","title":"银星涮羊坊","lon":"121.5348","lat":"31.32501","category":"86","category_name":"火锅店","address":"杨浦区开鲁路328号"},{"poiid":"B2094757D16FA7F9409E","title":"中原路警署","lon":"121.531839103","lat":"31.3309236877","category":"500","category_name":"未知分类","address":"上海市杨浦区中原路1111号"},{"poiid":"B2094757D16BA5F8489E","title":"奇瑞四平汽车修理厂","lon":"121.5329358","lat":"31.330927487","category":"163","category_name":"4S店","address":"上海国伟路(五角场长途汽车站内)"},{"poiid":"B2094757D469A1F9419B","title":"南京灌汤包 殷行路店","lon":"121.53761","lat":"31.32825","category":"68","category_name":"快餐厅","address":"杨浦区殷行路484-3号(近包头路)"},{"poiid":"B2094654D56FA0FB409C","title":"新小英饭店","lon":"121.537856054","lat":"31.327666793","category":"76","category_name":"上海菜","address":"杨浦区包头路929号之1(工农公园旁)"},{"poiid":"B2094654D46BA3F54292","title":"临江路轮渡站","lon":"121.5326","lat":"31.3405","category":"34","category_name":"港口码头","address":"军工路"},{"poiid":"B2094655D36DA0FB4098","title":"殷行路包头路","lon":"121.53734","lat":"31.3283","category":"38","category_name":"公交车站","address":""},{"poiid":"B2094757D06FA3FB449A","title":"城市名园","lon":"121.5383","lat":"31.330715","category":"47","category_name":"住宅区","address":"上海市金山区朱泾镇亭枫公路4089号"},{"poiid":"B2094655D36DA7F9439D","title":"中原路殷行路","lon":"121.53208","lat":"31.32731","category":"38","category_name":"公交车站","address":""},{"poiid":"B2094757D06AA2FC469D","title":"上海市电力公司教育培训中心","lon":"121.5287321","lat":"31.336349801","category":"500","category_name":"未知分类","address":"上海市杨浦区闸殷路60弄15号"},{"poiid":"B2094757D069A2FC459B","title":"繁江酒楼(包头路店)","lon":"121.53788","lat":"31.33031","category":"76","category_name":"上海菜","address":"杨浦区包头路1135号(近国伟路)"},{"poiid":"B2094757D069AAF4489A","title":"城市庭园","lon":"121.53517","lat":"31.332256","category":"47","category_name":"住宅区","address":"上海国伟路138弄"},{"poiid":"B2094757D068A6FB409B","title":"开鲁四村","lon":"121.53042","lat":"31.327255","category":"252","category_name":"楼宇机构","address":"上海市杨浦区开鲁路"},{"poiid":"B2094654D56FA0FB4692","title":"豪享来上海开鲁店","lon":"121.5333","lat":"31.3264","category":"247","category_name":"餐饮美食","address":"上海杨浦区开鲁路360号"},{"poiid":"B2094757D66CA0F44192","title":"城市方园小区","lon":"121.5357084","lat":"31.3314635","category":"500","category_name":"未知分类","address":"上海市杨浦区国伟路100弄"},{"poiid":"B2094757D06AA4F5499F","title":"上海市中原中学","lon":"121.53044673","lat":"31.327812835","category":"55","category_name":"中学","address":"上海市杨浦区开鲁六村50号"},{"poiid":"B2094654D568A2F84193","title":"中原纪联小区","lon":"121.53245","lat":"31.330212","category":"47","category_name":"住宅区","address":"中原路990弄"},{"poiid":"B2094757D06FA2FF479A","title":"殷行路","lon":"121.52777099","lat":"31.328643798","category":"260","category_name":"其他","address":"上海杨浦区殷行路"},{"poiid":"B2094757D06FA0F94493","title":"开鲁二村","lon":"121.533","lat":"31.3291","category":"252","category_name":"楼宇机构","address":"上海市杨浦区开鲁二村"},{"poiid":"B2094757D069A0F94593","title":"绅士缘桌球棋牌俱乐部","lon":"121.53115933","lat":"31.330743404","category":"248","category_name":"生活娱乐","address":"杨浦区殷行路652号3楼(近中原路)"},{"poiid":"B2094757D06BA0FE419C","title":"水电新村","lon":"121.52902","lat":"31.335836","category":"47","category_name":"住宅区","address":"闸殷路90弄"},{"poiid":"B2094757D568A0F4419C","title":"智汇商务楼","lon":"121.533165","lat":"31.334285","category":"46","category_name":"楼宇","address":"上海市杨浦区国伟路135号"},{"poiid":"B2094757D06BABFC449F","title":"和记渔村 军工路店","lon":"121.54169","lat":"31.33249","category":"76","category_name":"上海菜","address":"杨浦区军工路2866号美食广场1号"},{"poiid":"B2094757D06FA5F5489F","title":"兴浦小区","lon":"121.530461","lat":"31.334979","category":"47","category_name":"住宅区","address":"上海闸殷路81弄"},{"poiid":"B2094757D068A2F9439B","title":"殷行社区卫生服务中心","lon":"121.537663","lat":"31.327707","category":"162","category_name":"医院","address":"上海杨浦区包头路959号"},{"poiid":"B2094655D26BA4F94998","title":"新杭城大酒店","lon":"121.53046","lat":"31.32853","category":"76","category_name":"上海菜","address":"杨浦区殷行路700号(近中原路)"},{"poiid":"B2094654D56FA0FB469E","title":"工农二村(开鲁路)","lon":"121.53456","lat":"31.32596","category":"47","category_name":"住宅区","address":"喔里巷"},{"poiid":"B2094757D06BA0FB4292","title":"上海梦想","lon":"121.52923","lat":"31.33321","category":"179","category_name":"音乐厅","address":"上海杨浦区闸殷路180号  "},{"poiid":"B2094757D068AAFB4099","title":"闸二小区","lon":"121.531042703","lat":"31.3304330775","category":"47","category_name":"住宅区","address":"上海殷行路650弄 ﹠闸殷路181弄 ﹠闸殷路195弄"},{"poiid":"B2094757D069A5FA4392","title":"8號線殷行車庫","lon":"121.537021203","lat":"31.3338366487","category":"500","category_name":"未知分类","address":"上海8號線殷行車庫"},{"poiid":"B2094757D068A1FF459A","title":"国民桌球","lon":"121.53222","lat":"31.32825","category":"248","category_name":"生活娱乐","address":"杨浦区殷行路(近中原路)"},{"poiid":"B2094655D26BA6FF479D","title":"新江湾城雍景苑一期","lon":"121.5286","lat":"31.33354","category":"47","category_name":"住宅区","address":"上海市杨浦区闸殷路180号"},{"poiid":"B2094655D36DA7FD409C","title":"闸殷路","lon":"121.52921","lat":"31.33476","category":"38","category_name":"公交车站","address":""},{"poiid":"B2094757D16BA7F5499D","title":"轨道交通殷行路基地","lon":"121.535492103","lat":"31.3334787412","category":"500","category_name":"未知分类","address":"上海国伟路106号"},{"poiid":"B2094757D069AAF5439C","title":"中原一村小区","lon":"121.5379936","lat":"31.332739065","category":"47","category_name":"住宅区","address":"上海杨浦区国伟路"},{"poiid":"B2094654D568A2F94693","title":"殷行路470弄小区","lon":"121.53635","lat":"31.32844","category":"47","category_name":"住宅区","address":"上海市杨浦区殷行路包头路"},{"poiid":"B2094654D568A2F84998","title":"杨浦都市工业经济园区","lon":"121.53756","lat":"31.33063","category":"45","category_name":"产业园区","address":"包头路1135"},{"poiid":"B2094757D465A0F4429C","title":"老同兴苏州汤包馆","lon":"121.53836","lat":"31.32658","category":"68","category_name":"快餐厅","address":"杨浦区包头路978号(近殷行路)"},{"poiid":"B2094750DA68A4FE489C","title":"虹口足球场","lon":"121.535","lat":"31.33147","category":"220","category_name":"运动场所","address":null},{"poiid":"B2094654D46BA3F54392","title":"五角场客运站","lon":"121.5308","lat":"31.33203","category":"35","category_name":"长途汽车站","address":"杨浦区国伟路456号(近闸殷路)"},{"poiid":"B2094757D16AA4F8429C","title":"智汇商务","lon":"121.535067103","lat":"31.3317297046","category":"500","category_name":"未知分类","address":"上海国伟路135号"},{"poiid":"B2094750DB69A2FB489B","title":"五角场万达","lon":"121.536224","lat":"31.328439","category":"500","category_name":"未知分类","address":null},{"poiid":"B2094753D26DA7FB409A","title":"长海医院","lon":"121.531755","lat":"31.335532","category":"162","category_name":"医院","address":"上海市 长海路"},{"poiid":"B2094752DB6CABF4479C","title":"五角场万达电影城","lon":"121.536451","lat":"31.333299","category":"500","category_name":"未知分类","address":"上海市 淞沪路"},{"poiid":"B2094654D56FA1F54499","title":"世界路151弄住宅小区","lon":"121.532","lat":"31.3294","category":"47","category_name":"住宅区","address":"世界路151弄1-19号"},{"poiid":"B2094654D568A2F9419D","title":"老崇明排档","lon":"121.53217","lat":"31.32913","category":"257","category_name":"中餐厅","address":"杨浦区市光路1166号(包头路口)"},{"poiid":"B2094757D06FA5FB459B","title":"殷行路310弄","lon":"121.539127","lat":"31.32899","category":"252","category_name":"楼宇机构","address":"杨浦区殷行路310弄"},{"poiid":"B2094757D468A6FE479C","title":"老四烧烤 殷行路店","lon":"121.532485054","lat":"31.328716793","category":"68","category_name":"快餐厅","address":"杨浦区殷行路(近中原路)"},{"poiid":"B2094654D56FA0F94193","title":"烧烤王","lon":"121.537563","lat":"31.328793","category":"68","category_name":"快餐厅","address":"杨浦区殷行路485号(近包头路)"},{"poiid":"B2094654D46BA3F5449A","title":"国伟宾馆","lon":"121.53103","lat":"31.33201","category":"250","category_name":"公园户外","address":"国伟路452"},{"poiid":"B2094757D66AA4F5469D","title":"银星涮羊坊","lon":"121.5348","lat":"31.32501","category":"86","category_name":"火锅店","address":"杨浦区开鲁路328号"},{"poiid":"B2094757D16FA7F9409E","title":"中原路警署","lon":"121.531839103","lat":"31.3309236877","category":"500","category_name":"未知分类","address":"上海市杨浦区中原路1111号"},{"poiid":"B2094757D16BA5F8489E","title":"奇瑞四平汽车修理厂","lon":"121.5329358","lat":"31.330927487","category":"163","category_name":"4S店","address":"上海国伟路(五角场长途汽车站内)"},{"poiid":"B2094757D469A1F9419B","title":"南京灌汤包 殷行路店","lon":"121.53761","lat":"31.32825","category":"68","category_name":"快餐厅","address":"杨浦区殷行路484-3号(近包头路)"},{"poiid":"B2094654D56FA0FB409C","title":"新小英饭店","lon":"121.537856054","lat":"31.327666793","category":"76","category_name":"上海菜","address":"杨浦区包头路929号之1(工农公园旁)"},{"poiid":"B2094654D46BA3F54292","title":"临江路轮渡站","lon":"121.5326","lat":"31.3405","category":"34","category_name":"港口码头","address":"军工路"}]