[{"poiid":"B2094757D06FA1F84199","title":"普陀山海鲜酒店(杨浦店)","lon":"121.53589","lat":"31.27026","category":"76","category_name":"上海菜","address":"杨浦区长阳路1689号(近临青路)"},{"poiid":"B2094757D06EAAFC4899","title":"欧尚(长阳店)","lon":"121.53784281","lat":"31.270000386","category":"118","category_name":"超级市场","address":"杨浦区长阳路1750号(近临青路)"},{"poiid":"B2094655D26AABFE479A","title":"骏莱海鲜鱼港长阳路店","lon":"121.53392","lat":"31.27025","category":"75","category_name":"浙江菜","address":"杨浦区长阳路1681号长阳休闲广场(近临青路)"},{"poiid":"B2094757D06FA5F44592","title":"海上大富豪","lon":"121.5346","lat":"31.26956","category":"76","category_name":"上海菜","address":"杨浦区长阳路1673号(近黄兴路)"},{"poiid":"B2094757D06FA3F54199","title":"玛格萝妮披萨屋(长阳店)","lon":"121.53761545","lat":"31.2703714628","category":"94","category_name":"西餐厅","address":"杨浦区长阳路1750号欧尚超市1楼(长阳路临青路)"},{"poiid":"B2094757D068A0F4499C","title":"怡乡春竹海鲜姿造","lon":"121.53539507","lat":"31.265842893","category":"500","category_name":"未知分类","address":"杨浦区宁国路313号龙泽大厦(近河间路)"},{"poiid":"B2094757D06FA0FE4193","title":"侬好蛙干锅传奇 长阳路店","lon":"121.533125","lat":"31.268983","category":"71","category_name":"四川菜","address":"杨浦区长阳路1675-1号(近黄兴路)"},{"poiid":"B2094757D06FA6FF4992","title":"新宋记香辣蟹(长阳路店)","lon":"121.53487","lat":"31.26971","category":"71","category_name":"四川菜","address":"杨浦区长阳路1675号(近临青路)"},{"poiid":"B2094757D068ABFD429E","title":"大家乐","lon":"121.537260103","lat":"31.270840431","category":"68","category_name":"快餐厅","address":"杨浦区长阳路1750号欧尚超市1楼"},{"poiid":"B2094757D66EA1FB439D","title":"复地四季广场","lon":"121.5346811","lat":"31.266643343","category":"500","category_name":"未知分类","address":"虹口区长阳路1568号(近平凉路)"},{"poiid":"B2094757D068A3FF4992","title":"阿拉宁波菜(长阳路店)","lon":"121.53525","lat":"31.26989","category":"75","category_name":"浙江菜","address":"杨浦区长阳路1681号(近黄兴路)"},{"poiid":"B2094757D06FA5F5439E","title":"味千拉面(长阳路店)","lon":"121.53798","lat":"31.27054","category":"95","category_name":"日本料理","address":"上海杨浦区长阳路1750号欧尚超市1楼(近临青路)"},{"poiid":"B2094750DB6BA6FC4998","title":"香逸火锅","lon":"121.533882","lat":"31.26967","category":"86","category_name":"火锅店","address":"杨浦区长阳路1665号(近黄兴路)"},{"poiid":"B2094655D36CA3F4489A","title":"品味食尚","lon":"121.53634","lat":"31.27081","category":"76","category_name":"上海菜","address":"杨浦区长阳路1777号(近临青路)"},{"poiid":"B2094757D16DA3F9449A","title":"乡村大院","lon":"121.5341391","lat":"31.270370421","category":"87","category_name":"特色／地方风味餐厅","address":"杨浦区长阳路1681号(近黄兴路)"},{"poiid":"B2094757D468A4FC4898","title":"小绍兴 长阳店","lon":"121.53008311795","lat":"31.268363145559","category":"68","category_name":"快餐厅","address":"杨浦区长阳路1527号(近眉州路)"},{"poiid":"B2094757D06FABF4459B","title":"红宝石(长阳路店)","lon":"121.536239","lat":"31.270758","category":"67","category_name":"甜品店","address":"杨浦区长阳路1687号(临青路口)"},{"poiid":"B2094757D069A1F8409F","title":"海尚佳园","lon":"121.536","lat":"31.268885","category":"500","category_name":"未知分类","address":"上海市杨浦区长阳路1658弄"},{"poiid":"B2094750D664ABFA4098","title":"一町寿司","lon":"121.534","lat":"31.2693","category":"95","category_name":"日本料理","address":"杨浦区长阳路1634号(近欧尚)"},{"poiid":"B2094757D068A5FA439A","title":"豪享来上海平凉店","lon":"121.532","lat":"31.267","category":"247","category_name":"餐饮美食","address":"上海杨浦区平凉路1055号一楼"},{"poiid":"B2094757D06FA7FB489D","title":"85度C(长阳店)","lon":"121.53736","lat":"31.27063","category":"112","category_name":"糕饼店","address":"杨浦区长阳路1750号欧尚超市1楼(近临青路)"},{"poiid":"B2094751D46AA5FA4992","title":"上海麦当劳欧尚（长阳路）店","lon":"121.5324969","lat":"31.2710649","category":"247","category_name":"餐饮美食","address":"龙口路165号"},{"poiid":"B2094757D465A3FD469D","title":"小猪头自助火锅烧烤","lon":"121.536239","lat":"31.270758","category":"247","category_name":"餐饮美食","address":"杨浦区长阳路1687号长阳休闲商务广场内(欧尚超市斜对面)"},{"poiid":"B2094757D069A0FC489C","title":"MD酒吧","lon":"121.53183","lat":"31.26777","category":"260","category_name":"其他","address":"杨浦区长阳路1514号(近黄兴路)"},{"poiid":"B2094757D069A4F5409F","title":"复地四季广场","lon":"121.5310836","lat":"31.271541945","category":"250","category_name":"公园户外","address":"上海宁国路503号"},{"poiid":"B2094654D568A2FD489E","title":"名汇粤菜馆","lon":"121.53621","lat":"31.2713","category":"72","category_name":"广东菜","address":"杨浦区长阳路1717号(近临青路)"},{"poiid":"B2094757D068A6F9499B","title":"长阳路黄兴路","lon":"121.533312321","lat":"31.2691304987","category":"500","category_name":"未知分类","address":"上海凯兴苑"},{"poiid":"B2094655D26EA0F44499","title":"速8酒店(长盈店)","lon":"121.53351","lat":"31.27009","category":"216","category_name":"经济型连锁酒店","address":"上海市杨浦区长阳路1665号"},{"poiid":"B2094757DB68A5F4479B","title":"尚口海鲜","lon":"121.5324808","lat":"31.268392","category":"86","category_name":"火锅店","address":"杨浦区长阳路1568号四季广场9幢(宁国路口)"},{"poiid":"B2094654D568A2FD4892","title":"华晶宾馆","lon":"121.53611","lat":"31.27071","category":"214","category_name":"四星级宾馆","address":"杨浦区长阳路1687号(近临青路)"},{"poiid":"B2094757D06BABF5419B","title":"长阳路黄兴路站(公交22,33,843,868,934,申川)","lon":"121.53361209","lat":"31.269530837","category":"38","category_name":"公交车站","address":"上海市杨浦区长阳路黄兴路"},{"poiid":"B2094757D06AA0FB469D","title":"杨浦区疾病预防控制中心","lon":"121.532124","lat":"31.269023","category":"902","category_name":"楼宇机构","address":"杨浦区长阳路1565号"},{"poiid":"B2094654DB64A6FE499E","title":"格林豪泰(上海北外滩店)","lon":"121.53823","lat":"31.27098","category":"216","category_name":"经济型连锁酒店","address":"上海市杨浦区长阳路1800号"},{"poiid":"B2094654DB69A5FF4692","title":"苏宁电器(长阳路店)","lon":"121.53491","lat":"31.27026","category":"138","category_name":"家电电子卖场","address":"杨浦区长阳路1681号(近临青路)"},{"poiid":"B2094757D06AA2FE479B","title":"杨浦区少年宫","lon":"121.53434","lat":"31.26835","category":"179","category_name":"音乐厅","address":"上海杨浦区宁国路526号(近长阳路)  "},{"poiid":"B2094757D065A7FC4592","title":"上海远洋运输有限公司","lon":"121.532231","lat":"31.268753","category":"46","category_name":"楼宇","address":"上海长阳路1555号"},{"poiid":"B2094750D664A1F5449E","title":"老火粥庄","lon":"121.531","lat":"31.268","category":"68","category_name":"快餐厅","address":"杨浦区长阳路1514号(近四季广场)"},{"poiid":"B2094654D568A2FE409F","title":"中国移动长阳路营业厅","lon":"121.5347","lat":"31.27013","category":"151","category_name":"电讯营业厅","address":"杨浦区长阳路1677号(近黄兴路)"},{"poiid":"B2094757D66EA4FA4898","title":"欧尚","lon":"121.534174803","lat":"31.268734587","category":"249","category_name":"购物服务","address":"上海玛格罗尼"},{"poiid":"B2094752D26BA3FE4493","title":"大家乐香港茶餐厅","lon":"121.534134","lat":"31.26973","category":"247","category_name":"餐饮美食","address":"上海市杨浦区长阳路"},{"poiid":"B2094757D468A7FA419D","title":"欧味多 长阳路店","lon":"121.535617","lat":"31.270615","category":"68","category_name":"快餐厅","address":"杨浦区长阳路1750号欧尚超市2楼(近临青路)"},{"poiid":"B209475DD26FAAF8429B","title":"红树林影院","lon":"121.537322","lat":"31.27041","category":"178","category_name":"电影院","address":"上海市 杨浦区长阳路1750号三楼"},{"poiid":"B2094654DB6BA2F4479A","title":"浦罡小区","lon":"121.5365","lat":"31.271664","category":"47","category_name":"住宅区","address":"上海长阳路1841弄"},{"poiid":"B2094655D269A4F44093","title":"好地方足道","lon":"121.53351","lat":"31.27009","category":"247","category_name":"餐饮美食","address":"杨浦区长阳路1665号(近黄兴路)"},{"poiid":"B2094757D16CA5FE4793","title":"忆香•沪菜","lon":"121.533762103","lat":"31.2693774004","category":"500","category_name":"未知分类","address":"上海杨浦区长阳路1655号"},{"poiid":"B2094757D16AA7FA4792","title":"上海移动长阳路营业厅","lon":"121.5343848","lat":"31.269451397","category":"150","category_name":"银行","address":"上海市杨浦区长阳路1677号"},{"poiid":"B2094654D56FA4FB409C","title":"正宗重庆麻辣烫(临青路)","lon":"121.53652","lat":"31.27025","category":"68","category_name":"快餐厅","address":"杨浦区临青路669号(近长阳路)"},{"poiid":"B2094654D56FABFF439D","title":"中国联通长阳路营业厅","lon":"121.53585","lat":"31.26998","category":"151","category_name":"电讯营业厅","address":"上海市杨浦区长阳路1696号(近临青路)"},{"poiid":"B2094654D56FABFE4998","title":"民办阳浦小学","lon":"121.53591","lat":"31.26679","category":"56","category_name":"小学","address":"杨浦区河间路379号(河间路宁国路)"},{"poiid":"B2094655D269ABF84398","title":"健神桑拿会所","lon":"121.53354","lat":"31.26941","category":"247","category_name":"餐饮美食","address":"杨浦区长阳路1623号(近黄兴路)"},{"poiid":"B2094757D06FA1F84199","title":"普陀山海鲜酒店(杨浦店)","lon":"121.53589","lat":"31.27026","category":"76","category_name":"上海菜","address":"杨浦区长阳路1689号(近临青路)"},{"poiid":"B2094757D06EAAFC4899","title":"欧尚(长阳店)","lon":"121.53784281","lat":"31.270000386","category":"118","category_name":"超级市场","address":"杨浦区长阳路1750号(近临青路)"},{"poiid":"B2094655D26AABFE479A","title":"骏莱海鲜鱼港长阳路店","lon":"121.53392","lat":"31.27025","category":"75","category_name":"浙江菜","address":"杨浦区长阳路1681号长阳休闲广场(近临青路)"},{"poiid":"B2094757D06FA5F44592","title":"海上大富豪","lon":"121.5346","lat":"31.26956","category":"76","category_name":"上海菜","address":"杨浦区长阳路1673号(近黄兴路)"},{"poiid":"B2094757D06FA3F54199","title":"玛格萝妮披萨屋(长阳店)","lon":"121.53761545","lat":"31.2703714628","category":"94","category_name":"西餐厅","address":"杨浦区长阳路1750号欧尚超市1楼(长阳路临青路)"},{"poiid":"B2094757D068A0F4499C","title":"怡乡春竹海鲜姿造","lon":"121.53539507","lat":"31.265842893","category":"500","category_name":"未知分类","address":"杨浦区宁国路313号龙泽大厦(近河间路)"},{"poiid":"B2094757D06FA0FE4193","title":"侬好蛙干锅传奇 长阳路店","lon":"121.533125","lat":"31.268983","category":"71","category_name":"四川菜","address":"杨浦区长阳路1675-1号(近黄兴路)"},{"poiid":"B2094757D06FA6FF4992","title":"新宋记香辣蟹(长阳路店)","lon":"121.53487","lat":"31.26971","category":"71","category_name":"四川菜","address":"杨浦区长阳路1675号(近临青路)"},{"poiid":"B2094757D068ABFD429E","title":"大家乐","lon":"121.537260103","lat":"31.270840431","category":"68","category_name":"快餐厅","address":"杨浦区长阳路1750号欧尚超市1楼"},{"poiid":"B2094757D66EA1FB439D","title":"复地四季广场","lon":"121.5346811","lat":"31.266643343","category":"500","category_name":"未知分类","address":"虹口区长阳路1568号(近平凉路)"},{"poiid":"B2094757D068A3FF4992","title":"阿拉宁波菜(长阳路店)","lon":"121.53525","lat":"31.26989","category":"75","category_name":"浙江菜","address":"杨浦区长阳路1681号(近黄兴路)"},{"poiid":"B2094757D06FA5F5439E","title":"味千拉面(长阳路店)","lon":"121.53798","lat":"31.27054","category":"95","category_name":"日本料理","address":"上海杨浦区长阳路1750号欧尚超市1楼(近临青路)"},{"poiid":"B2094750DB6BA6FC4998","title":"香逸火锅","lon":"121.533882","lat":"31.26967","category":"86","category_name":"火锅店","address":"杨浦区长阳路1665号(近黄兴路)"},{"poiid":"B2094655D36CA3F4489A","title":"品味食尚","lon":"121.53634","lat":"31.27081","category":"76","category_name":"上海菜","address":"杨浦区长阳路1777号(近临青路)"},{"poiid":"B2094757D16DA3F9449A","title":"乡村大院","lon":"121.5341391","lat":"31.270370421","category":"87","category_name":"特色／地方风味餐厅","address":"杨浦区长阳路1681号(近黄兴路)"},{"poiid":"B2094757D468A4FC4898","title":"小绍兴 长阳店","lon":"121.53008311795","lat":"31.268363145559","category":"68","category_name":"快餐厅","address":"杨浦区长阳路1527号(近眉州路)"},{"poiid":"B2094757D06FABF4459B","title":"红宝石(长阳路店)","lon":"121.536239","lat":"31.270758","category":"67","category_name":"甜品店","address":"杨浦区长阳路1687号(临青路口)"},{"poiid":"B2094757D069A1F8409F","title":"海尚佳园","lon":"121.536","lat":"31.268885","category":"500","category_name":"未知分类","address":"上海市杨浦区长阳路1658弄"},{"poiid":"B2094750D664ABFA4098","title":"一町寿司","lon":"121.534","lat":"31.2693","category":"95","category_name":"日本料理","address":"杨浦区长阳路1634号(近欧尚)"},{"poiid":"B2094757D068A5FA439A","title":"豪享来上海平凉店","lon":"121.532","lat":"31.267","category":"247","category_name":"餐饮美食","address":"上海杨浦区平凉路1055号一楼"},{"poiid":"B2094757D06FA7FB489D","title":"85度C(长阳店)","lon":"121.53736","lat":"31.27063","category":"112","category_name":"糕饼店","address":"杨浦区长阳路1750号欧尚超市1楼(近临青路)"},{"poiid":"B2094751D46AA5FA4992","title":"上海麦当劳欧尚（长阳路）店","lon":"121.5324969","lat":"31.2710649","category":"247","category_name":"餐饮美食","address":"龙口路165号"},{"poiid":"B2094757D465A3FD469D","title":"小猪头自助火锅烧烤","lon":"121.536239","lat":"31.270758","category":"247","category_name":"餐饮美食","address":"杨浦区长阳路1687号长阳休闲商务广场内(欧尚超市斜对面)"},{"poiid":"B2094757D069A0FC489C","title":"MD酒吧","lon":"121.53183","lat":"31.26777","category":"260","category_name":"其他","address":"杨浦区长阳路1514号(近黄兴路)"},{"poiid":"B2094757D069A4F5409F","title":"复地四季广场","lon":"121.5310836","lat":"31.271541945","category":"250","category_name":"公园户外","address":"上海宁国路503号"},{"poiid":"B2094654D568A2FD489E","title":"名汇粤菜馆","lon":"121.53621","lat":"31.2713","category":"72","category_name":"广东菜","address":"杨浦区长阳路1717号(近临青路)"},{"poiid":"B2094757D068A6F9499B","title":"长阳路黄兴路","lon":"121.533312321","lat":"31.2691304987","category":"500","category_name":"未知分类","address":"上海凯兴苑"},{"poiid":"B2094655D26EA0F44499","title":"速8酒店(长盈店)","lon":"121.53351","lat":"31.27009","category":"216","category_name":"经济型连锁酒店","address":"上海市杨浦区长阳路1665号"},{"poiid":"B2094757DB68A5F4479B","title":"尚口海鲜","lon":"121.5324808","lat":"31.268392","category":"86","category_name":"火锅店","address":"杨浦区长阳路1568号四季广场9幢(宁国路口)"},{"poiid":"B2094654D568A2FD4892","title":"华晶宾馆","lon":"121.53611","lat":"31.27071","category":"214","category_name":"四星级宾馆","address":"杨浦区长阳路1687号(近临青路)"},{"poiid":"B2094757D06BABF5419B","title":"长阳路黄兴路站(公交22,33,843,868,934,申川)","lon":"121.53361209","lat":"31.269530837","category":"38","category_name":"公交车站","address":"上海市杨浦区长阳路黄兴路"},{"poiid":"B2094757D06AA0FB469D","title":"杨浦区疾病预防控制中心","lon":"121.532124","lat":"31.269023","category":"902","category_name":"楼宇机构","address":"杨浦区长阳路1565号"},{"poiid":"B2094654DB64A6FE499E","title":"格林豪泰(上海北外滩店)","lon":"121.53823","lat":"31.27098","category":"216","category_name":"经济型连锁酒店","address":"上海市杨浦区长阳路1800号"},{"poiid":"B2094654DB69A5FF4692","title":"苏宁电器(长阳路店)","lon":"121.53491","lat":"31.27026","category":"138","category_name":"家电电子卖场","address":"杨浦区长阳路1681号(近临青路)"},{"poiid":"B2094757D06AA2FE479B","title":"杨浦区少年宫","lon":"121.53434","lat":"31.26835","category":"179","category_name":"音乐厅","address":"上海杨浦区宁国路526号(近长阳路)  "},{"poiid":"B2094757D065A7FC4592","title":"上海远洋运输有限公司","lon":"121.532231","lat":"31.268753","category":"46","category_name":"楼宇","address":"上海长阳路1555号"},{"poiid":"B2094750D664A1F5449E","title":"老火粥庄","lon":"121.531","lat":"31.268","category":"68","category_name":"快餐厅","address":"杨浦区长阳路1514号(近四季广场)"},{"poiid":"B2094654D568A2FE409F","title":"中国移动长阳路营业厅","lon":"121.5347","lat":"31.27013","category":"151","category_name":"电讯营业厅","address":"杨浦区长阳路1677号(近黄兴路)"},{"poiid":"B2094757D66EA4FA4898","title":"欧尚","lon":"121.534174803","lat":"31.268734587","category":"249","category_name":"购物服务","address":"上海玛格罗尼"},{"poiid":"B2094752D26BA3FE4493","title":"大家乐香港茶餐厅","lon":"121.534134","lat":"31.26973","category":"247","category_name":"餐饮美食","address":"上海市杨浦区长阳路"},{"poiid":"B2094757D468A7FA419D","title":"欧味多 长阳路店","lon":"121.535617","lat":"31.270615","category":"68","category_name":"快餐厅","address":"杨浦区长阳路1750号欧尚超市2楼(近临青路)"},{"poiid":"B209475DD26FAAF8429B","title":"红树林影院","lon":"121.537322","lat":"31.27041","category":"178","category_name":"电影院","address":"上海市 杨浦区长阳路1750号三楼"},{"poiid":"B2094654DB6BA2F4479A","title":"浦罡小区","lon":"121.5365","lat":"31.271664","category":"47","category_name":"住宅区","address":"上海长阳路1841弄"},{"poiid":"B2094655D269A4F44093","title":"好地方足道","lon":"121.53351","lat":"31.27009","category":"247","category_name":"餐饮美食","address":"杨浦区长阳路1665号(近黄兴路)"},{"poiid":"B2094757D16CA5FE4793","title":"忆香•沪菜","lon":"121.533762103","lat":"31.2693774004","category":"500","category_name":"未知分类","address":"上海杨浦区长阳路1655号"},{"poiid":"B2094757D16AA7FA4792","title":"上海移动长阳路营业厅","lon":"121.5343848","lat":"31.269451397","category":"150","category_name":"银行","address":"上海市杨浦区长阳路1677号"},{"poiid":"B2094654D56FA4FB409C","title":"正宗重庆麻辣烫(临青路)","lon":"121.53652","lat":"31.27025","category":"68","category_name":"快餐厅","address":"杨浦区临青路669号(近长阳路)"},{"poiid":"B2094654D56FABFF439D","title":"中国联通长阳路营业厅","lon":"121.53585","lat":"31.26998","category":"151","category_name":"电讯营业厅","address":"上海市杨浦区长阳路1696号(近临青路)"},{"poiid":"B2094654D56FABFE4998","title":"民办阳浦小学","lon":"121.53591","lat":"31.26679","category":"56","category_name":"小学","address":"杨浦区河间路379号(河间路宁国路)"},{"poiid":"B2094655D269ABF84398","title":"健神桑拿会所","lon":"121.53354","lat":"31.26941","category":"247","category_name":"餐饮美食","address":"杨浦区长阳路1623号(近黄兴路)"},{"poiid":"B2094757D06FA1F84199","title":"普陀山海鲜酒店(杨浦店)","lon":"121.53589","lat":"31.27026","category":"76","category_name":"上海菜","address":"杨浦区长阳路1689号(近临青路)"},{"poiid":"B2094757D06EAAFC4899","title":"欧尚(长阳店)","lon":"121.53784281","lat":"31.270000386","category":"118","category_name":"超级市场","address":"杨浦区长阳路1750号(近临青路)"},{"poiid":"B2094655D26AABFE479A","title":"骏莱海鲜鱼港长阳路店","lon":"121.53392","lat":"31.27025","category":"75","category_name":"浙江菜","address":"杨浦区长阳路1681号长阳休闲广场(近临青路)"},{"poiid":"B2094757D06FA5F44592","title":"海上大富豪","lon":"121.5346","lat":"31.26956","category":"76","category_name":"上海菜","address":"杨浦区长阳路1673号(近黄兴路)"},{"poiid":"B2094757D06FA3F54199","title":"玛格萝妮披萨屋(长阳店)","lon":"121.53761545","lat":"31.2703714628","category":"94","category_name":"西餐厅","address":"杨浦区长阳路1750号欧尚超市1楼(长阳路临青路)"},{"poiid":"B2094757D068A0F4499C","title":"怡乡春竹海鲜姿造","lon":"121.53539507","lat":"31.265842893","category":"500","category_name":"未知分类","address":"杨浦区宁国路313号龙泽大厦(近河间路)"},{"poiid":"B2094757D06FA0FE4193","title":"侬好蛙干锅传奇 长阳路店","lon":"121.533125","lat":"31.268983","category":"71","category_name":"四川菜","address":"杨浦区长阳路1675-1号(近黄兴路)"},{"poiid":"B2094757D06FA6FF4992","title":"新宋记香辣蟹(长阳路店)","lon":"121.53487","lat":"31.26971","category":"71","category_name":"四川菜","address":"杨浦区长阳路1675号(近临青路)"},{"poiid":"B2094757D068ABFD429E","title":"大家乐","lon":"121.537260103","lat":"31.270840431","category":"68","category_name":"快餐厅","address":"杨浦区长阳路1750号欧尚超市1楼"},{"poiid":"B2094757D66EA1FB439D","title":"复地四季广场","lon":"121.5346811","lat":"31.266643343","category":"500","category_name":"未知分类","address":"虹口区长阳路1568号(近平凉路)"},{"poiid":"B2094757D068A3FF4992","title":"阿拉宁波菜(长阳路店)","lon":"121.53525","lat":"31.26989","category":"75","category_name":"浙江菜","address":"杨浦区长阳路1681号(近黄兴路)"},{"poiid":"B2094757D06FA5F5439E","title":"味千拉面(长阳路店)","lon":"121.53798","lat":"31.27054","category":"95","category_name":"日本料理","address":"上海杨浦区长阳路1750号欧尚超市1楼(近临青路)"},{"poiid":"B2094750DB6BA6FC4998","title":"香逸火锅","lon":"121.533882","lat":"31.26967","category":"86","category_name":"火锅店","address":"杨浦区长阳路1665号(近黄兴路)"},{"poiid":"B2094655D36CA3F4489A","title":"品味食尚","lon":"121.53634","lat":"31.27081","category":"76","category_name":"上海菜","address":"杨浦区长阳路1777号(近临青路)"},{"poiid":"B2094757D16DA3F9449A","title":"乡村大院","lon":"121.5341391","lat":"31.270370421","category":"87","category_name":"特色／地方风味餐厅","address":"杨浦区长阳路1681号(近黄兴路)"},{"poiid":"B2094757D468A4FC4898","title":"小绍兴 长阳店","lon":"121.53008311795","lat":"31.268363145559","category":"68","category_name":"快餐厅","address":"杨浦区长阳路1527号(近眉州路)"},{"poiid":"B2094757D06FABF4459B","title":"红宝石(长阳路店)","lon":"121.536239","lat":"31.270758","category":"67","category_name":"甜品店","address":"杨浦区长阳路1687号(临青路口)"},{"poiid":"B2094757D069A1F8409F","title":"海尚佳园","lon":"121.536","lat":"31.268885","category":"500","category_name":"未知分类","address":"上海市杨浦区长阳路1658弄"},{"poiid":"B2094750D664ABFA4098","title":"一町寿司","lon":"121.534","lat":"31.2693","category":"95","category_name":"日本料理","address":"杨浦区长阳路1634号(近欧尚)"},{"poiid":"B2094757D068A5FA439A","title":"豪享来上海平凉店","lon":"121.532","lat":"31.267","category":"247","category_name":"餐饮美食","address":"上海杨浦区平凉路1055号一楼"},{"poiid":"B2094757D06FA7FB489D","title":"85度C(长阳店)","lon":"121.53736","lat":"31.27063","category":"112","category_name":"糕饼店","address":"杨浦区长阳路1750号欧尚超市1楼(近临青路)"},{"poiid":"B2094751D46AA5FA4992","title":"上海麦当劳欧尚（长阳路）店","lon":"121.5324969","lat":"31.2710649","category":"247","category_name":"餐饮美食","address":"龙口路165号"},{"poiid":"B2094757D465A3FD469D","title":"小猪头自助火锅烧烤","lon":"121.536239","lat":"31.270758","category":"247","category_name":"餐饮美食","address":"杨浦区长阳路1687号长阳休闲商务广场内(欧尚超市斜对面)"},{"poiid":"B2094757D069A0FC489C","title":"MD酒吧","lon":"121.53183","lat":"31.26777","category":"260","category_name":"其他","address":"杨浦区长阳路1514号(近黄兴路)"},{"poiid":"B2094757D069A4F5409F","title":"复地四季广场","lon":"121.5310836","lat":"31.271541945","category":"250","category_name":"公园户外","address":"上海宁国路503号"},{"poiid":"B2094654D568A2FD489E","title":"名汇粤菜馆","lon":"121.53621","lat":"31.2713","category":"72","category_name":"广东菜","address":"杨浦区长阳路1717号(近临青路)"},{"poiid":"B2094757D068A6F9499B","title":"长阳路黄兴路","lon":"121.533312321","lat":"31.2691304987","category":"500","category_name":"未知分类","address":"上海凯兴苑"},{"poiid":"B2094655D26EA0F44499","title":"速8酒店(长盈店)","lon":"121.53351","lat":"31.27009","category":"216","category_name":"经济型连锁酒店","address":"上海市杨浦区长阳路1665号"},{"poiid":"B2094757DB68A5F4479B","title":"尚口海鲜","lon":"121.5324808","lat":"31.268392","category":"86","category_name":"火锅店","address":"杨浦区长阳路1568号四季广场9幢(宁国路口)"},{"poiid":"B2094654D568A2FD4892","title":"华晶宾馆","lon":"121.53611","lat":"31.27071","category":"214","category_name":"四星级宾馆","address":"杨浦区长阳路1687号(近临青路)"},{"poiid":"B2094757D06BABF5419B","title":"长阳路黄兴路站(公交22,33,843,868,934,申川)","lon":"121.53361209","lat":"31.269530837","category":"38","category_name":"公交车站","address":"上海市杨浦区长阳路黄兴路"},{"poiid":"B2094757D06AA0FB469D","title":"杨浦区疾病预防控制中心","lon":"121.532124","lat":"31.269023","category":"902","category_name":"楼宇机构","address":"杨浦区长阳路1565号"},{"poiid":"B2094654DB64A6FE499E","title":"格林豪泰(上海北外滩店)","lon":"121.53823","lat":"31.27098","category":"216","category_name":"经济型连锁酒店","address":"上海市杨浦区长阳路1800号"},{"poiid":"B2094654DB69A5FF4692","title":"苏宁电器(长阳路店)","lon":"121.53491","lat":"31.27026","category":"138","category_name":"家电电子卖场","address":"杨浦区长阳路1681号(近临青路)"},{"poiid":"B2094757D06AA2FE479B","title":"杨浦区少年宫","lon":"121.53434","lat":"31.26835","category":"179","category_name":"音乐厅","address":"上海杨浦区宁国路526号(近长阳路)  "},{"poiid":"B2094757D065A7FC4592","title":"上海远洋运输有限公司","lon":"121.532231","lat":"31.268753","category":"46","category_name":"楼宇","address":"上海长阳路1555号"},{"poiid":"B2094750D664A1F5449E","title":"老火粥庄","lon":"121.531","lat":"31.268","category":"68","category_name":"快餐厅","address":"杨浦区长阳路1514号(近四季广场)"},{"poiid":"B2094654D568A2FE409F","title":"中国移动长阳路营业厅","lon":"121.5347","lat":"31.27013","category":"151","category_name":"电讯营业厅","address":"杨浦区长阳路1677号(近黄兴路)"},{"poiid":"B2094757D66EA4FA4898","title":"欧尚","lon":"121.534174803","lat":"31.268734587","category":"249","category_name":"购物服务","address":"上海玛格罗尼"},{"poiid":"B2094752D26BA3FE4493","title":"大家乐香港茶餐厅","lon":"121.534134","lat":"31.26973","category":"247","category_name":"餐饮美食","address":"上海市杨浦区长阳路"},{"poiid":"B2094757D468A7FA419D","title":"欧味多 长阳路店","lon":"121.535617","lat":"31.270615","category":"68","category_name":"快餐厅","address":"杨浦区长阳路1750号欧尚超市2楼(近临青路)"},{"poiid":"B209475DD26FAAF8429B","title":"红树林影院","lon":"121.537322","lat":"31.27041","category":"178","category_name":"电影院","address":"上海市 杨浦区长阳路1750号三楼"},{"poiid":"B2094654DB6BA2F4479A","title":"浦罡小区","lon":"121.5365","lat":"31.271664","category":"47","category_name":"住宅区","address":"上海长阳路1841弄"},{"poiid":"B2094655D269A4F44093","title":"好地方足道","lon":"121.53351","lat":"31.27009","category":"247","category_name":"餐饮美食","address":"杨浦区长阳路1665号(近黄兴路)"},{"poiid":"B2094757D16CA5FE4793","title":"忆香•沪菜","lon":"121.533762103","lat":"31.2693774004","category":"500","category_name":"未知分类","address":"上海杨浦区长阳路1655号"},{"poiid":"B2094757D16AA7FA4792","title":"上海移动长阳路营业厅","lon":"121.5343848","lat":"31.269451397","category":"150","category_name":"银行","address":"上海市杨浦区长阳路1677号"},{"poiid":"B2094654D56FA4FB409C","title":"正宗重庆麻辣烫(临青路)","lon":"121.53652","lat":"31.27025","category":"68","category_name":"快餐厅","address":"杨浦区临青路669号(近长阳路)"},{"poiid":"B2094654D56FABFF439D","title":"中国联通长阳路营业厅","lon":"121.53585","lat":"31.26998","category":"151","category_name":"电讯营业厅","address":"上海市杨浦区长阳路1696号(近临青路)"},{"poiid":"B2094654D56FABFE4998","title":"民办阳浦小学","lon":"121.53591","lat":"31.26679","category":"56","category_name":"小学","address":"杨浦区河间路379号(河间路宁国路)"},{"poiid":"B2094655D269ABF84398","title":"健神桑拿会所","lon":"121.53354","lat":"31.26941","category":"247","category_name":"餐饮美食","address":"杨浦区长阳路1623号(近黄兴路)"},{"poiid":"B2094757D06FA1F84199","title":"普陀山海鲜酒店(杨浦店)","lon":"121.53589","lat":"31.27026","category":"76","category_name":"上海菜","address":"杨浦区长阳路1689号(近临青路)"},{"poiid":"B2094757D06EAAFC4899","title":"欧尚(长阳店)","lon":"121.53784281","lat":"31.270000386","category":"118","category_name":"超级市场","address":"杨浦区长阳路1750号(近临青路)"},{"poiid":"B2094655D26AABFE479A","title":"骏莱海鲜鱼港长阳路店","lon":"121.53392","lat":"31.27025","category":"75","category_name":"浙江菜","address":"杨浦区长阳路1681号长阳休闲广场(近临青路)"},{"poiid":"B2094757D06FA5F44592","title":"海上大富豪","lon":"121.5346","lat":"31.26956","category":"76","category_name":"上海菜","address":"杨浦区长阳路1673号(近黄兴路)"},{"poiid":"B2094757D06FA3F54199","title":"玛格萝妮披萨屋(长阳店)","lon":"121.53761545","lat":"31.2703714628","category":"94","category_name":"西餐厅","address":"杨浦区长阳路1750号欧尚超市1楼(长阳路临青路)"},{"poiid":"B2094757D068A0F4499C","title":"怡乡春竹海鲜姿造","lon":"121.53539507","lat":"31.265842893","category":"500","category_name":"未知分类","address":"杨浦区宁国路313号龙泽大厦(近河间路)"},{"poiid":"B2094757D06FA0FE4193","title":"侬好蛙干锅传奇 长阳路店","lon":"121.533125","lat":"31.268983","category":"71","category_name":"四川菜","address":"杨浦区长阳路1675-1号(近黄兴路)"},{"poiid":"B2094757D06FA6FF4992","title":"新宋记香辣蟹(长阳路店)","lon":"121.53487","lat":"31.26971","category":"71","category_name":"四川菜","address":"杨浦区长阳路1675号(近临青路)"},{"poiid":"B2094757D068ABFD429E","title":"大家乐","lon":"121.537260103","lat":"31.270840431","category":"68","category_name":"快餐厅","address":"杨浦区长阳路1750号欧尚超市1楼"},{"poiid":"B2094757D66EA1FB439D","title":"复地四季广场","lon":"121.5346811","lat":"31.266643343","category":"500","category_name":"未知分类","address":"虹口区长阳路1568号(近平凉路)"},{"poiid":"B2094757D068A3FF4992","title":"阿拉宁波菜(长阳路店)","lon":"121.53525","lat":"31.26989","category":"75","category_name":"浙江菜","address":"杨浦区长阳路1681号(近黄兴路)"},{"poiid":"B2094757D06FA5F5439E","title":"味千拉面(长阳路店)","lon":"121.53798","lat":"31.27054","category":"95","category_name":"日本料理","address":"上海杨浦区长阳路1750号欧尚超市1楼(近临青路)"},{"poiid":"B2094750DB6BA6FC4998","title":"香逸火锅","lon":"121.533882","lat":"31.26967","category":"86","category_name":"火锅店","address":"杨浦区长阳路1665号(近黄兴路)"},{"poiid":"B2094655D36CA3F4489A","title":"品味食尚","lon":"121.53634","lat":"31.27081","category":"76","category_name":"上海菜","address":"杨浦区长阳路1777号(近临青路)"},{"poiid":"B2094757D16DA3F9449A","title":"乡村大院","lon":"121.5341391","lat":"31.270370421","category":"87","category_name":"特色／地方风味餐厅","address":"杨浦区长阳路1681号(近黄兴路)"},{"poiid":"B2094757D468A4FC4898","title":"小绍兴 长阳店","lon":"121.53008311795","lat":"31.268363145559","category":"68","category_name":"快餐厅","address":"杨浦区长阳路1527号(近眉州路)"},{"poiid":"B2094757D06FABF4459B","title":"红宝石(长阳路店)","lon":"121.536239","lat":"31.270758","category":"67","category_name":"甜品店","address":"杨浦区长阳路1687号(临青路口)"},{"poiid":"B2094757D069A1F8409F","title":"海尚佳园","lon":"121.536","lat":"31.268885","category":"500","category_name":"未知分类","address":"上海市杨浦区长阳路1658弄"},{"poiid":"B2094750D664ABFA4098","title":"一町寿司","lon":"121.534","lat":"31.2693","category":"95","category_name":"日本料理","address":"杨浦区长阳路1634号(近欧尚)"},{"poiid":"B2094757D068A5FA439A","title":"豪享来上海平凉店","lon":"121.532","lat":"31.267","category":"247","category_name":"餐饮美食","address":"上海杨浦区平凉路1055号一楼"},{"poiid":"B2094757D06FA7FB489D","title":"85度C(长阳店)","lon":"121.53736","lat":"31.27063","category":"112","category_name":"糕饼店","address":"杨浦区长阳路1750号欧尚超市1楼(近临青路)"},{"poiid":"B2094751D46AA5FA4992","title":"上海麦当劳欧尚（长阳路）店","lon":"121.5324969","lat":"31.2710649","category":"247","category_name":"餐饮美食","address":"龙口路165号"},{"poiid":"B2094757D465A3FD469D","title":"小猪头自助火锅烧烤","lon":"121.536239","lat":"31.270758","category":"247","category_name":"餐饮美食","address":"杨浦区长阳路1687号长阳休闲商务广场内(欧尚超市斜对面)"},{"poiid":"B2094757D069A0FC489C","title":"MD酒吧","lon":"121.53183","lat":"31.26777","category":"260","category_name":"其他","address":"杨浦区长阳路1514号(近黄兴路)"},{"poiid":"B2094757D069A4F5409F","title":"复地四季广场","lon":"121.5310836","lat":"31.271541945","category":"250","category_name":"公园户外","address":"上海宁国路503号"},{"poiid":"B2094654D568A2FD489E","title":"名汇粤菜馆","lon":"121.53621","lat":"31.2713","category":"72","category_name":"广东菜","address":"杨浦区长阳路1717号(近临青路)"},{"poiid":"B2094757D068A6F9499B","title":"长阳路黄兴路","lon":"121.533312321","lat":"31.2691304987","category":"500","category_name":"未知分类","address":"上海凯兴苑"},{"poiid":"B2094655D26EA0F44499","title":"速8酒店(长盈店)","lon":"121.53351","lat":"31.27009","category":"216","category_name":"经济型连锁酒店","address":"上海市杨浦区长阳路1665号"},{"poiid":"B2094757DB68A5F4479B","title":"尚口海鲜","lon":"121.5324808","lat":"31.268392","category":"86","category_name":"火锅店","address":"杨浦区长阳路1568号四季广场9幢(宁国路口)"},{"poiid":"B2094654D568A2FD4892","title":"华晶宾馆","lon":"121.53611","lat":"31.27071","category":"214","category_name":"四星级宾馆","address":"杨浦区长阳路1687号(近临青路)"},{"poiid":"B2094757D06BABF5419B","title":"长阳路黄兴路站(公交22,33,843,868,934,申川)","lon":"121.53361209","lat":"31.269530837","category":"38","category_name":"公交车站","address":"上海市杨浦区长阳路黄兴路"},{"poiid":"B2094757D06AA0FB469D","title":"杨浦区疾病预防控制中心","lon":"121.532124","lat":"31.269023","category":"902","category_name":"楼宇机构","address":"杨浦区长阳路1565号"},{"poiid":"B2094654DB64A6FE499E","title":"格林豪泰(上海北外滩店)","lon":"121.53823","lat":"31.27098","category":"216","category_name":"经济型连锁酒店","address":"上海市杨浦区长阳路1800号"},{"poiid":"B2094654DB69A5FF4692","title":"苏宁电器(长阳路店)","lon":"121.53491","lat":"31.27026","category":"138","category_name":"家电电子卖场","address":"杨浦区长阳路1681号(近临青路)"},{"poiid":"B2094757D06AA2FE479B","title":"杨浦区少年宫","lon":"121.53434","lat":"31.26835","category":"179","category_name":"音乐厅","address":"上海杨浦区宁国路526号(近长阳路)  "},{"poiid":"B2094757D065A7FC4592","title":"上海远洋运输有限公司","lon":"121.532231","lat":"31.268753","category":"46","category_name":"楼宇","address":"上海长阳路1555号"},{"poiid":"B2094750D664A1F5449E","title":"老火粥庄","lon":"121.531","lat":"31.268","category":"68","category_name":"快餐厅","address":"杨浦区长阳路1514号(近四季广场)"},{"poiid":"B2094654D568A2FE409F","title":"中国移动长阳路营业厅","lon":"121.5347","lat":"31.27013","category":"151","category_name":"电讯营业厅","address":"杨浦区长阳路1677号(近黄兴路)"},{"poiid":"B2094757D66EA4FA4898","title":"欧尚","lon":"121.534174803","lat":"31.268734587","category":"249","category_name":"购物服务","address":"上海玛格罗尼"},{"poiid":"B2094752D26BA3FE4493","title":"大家乐香港茶餐厅","lon":"121.534134","lat":"31.26973","category":"247","category_name":"餐饮美食","address":"上海市杨浦区长阳路"},{"poiid":"B2094757D468A7FA419D","title":"欧味多 长阳路店","lon":"121.535617","lat":"31.270615","category":"68","category_name":"快餐厅","address":"杨浦区长阳路1750号欧尚超市2楼(近临青路)"},{"poiid":"B209475DD26FAAF8429B","title":"红树林影院","lon":"121.537322","lat":"31.27041","category":"178","category_name":"电影院","address":"上海市 杨浦区长阳路1750号三楼"},{"poiid":"B2094654DB6BA2F4479A","title":"浦罡小区","lon":"121.5365","lat":"31.271664","category":"47","category_name":"住宅区","address":"上海长阳路1841弄"},{"poiid":"B2094655D269A4F44093","title":"好地方足道","lon":"121.53351","lat":"31.27009","category":"247","category_name":"餐饮美食","address":"杨浦区长阳路1665号(近黄兴路)"},{"poiid":"B2094757D16CA5FE4793","title":"忆香•沪菜","lon":"121.533762103","lat":"31.2693774004","category":"500","category_name":"未知分类","address":"上海杨浦区长阳路1655号"},{"poiid":"B2094757D16AA7FA4792","title":"上海移动长阳路营业厅","lon":"121.5343848","lat":"31.269451397","category":"150","category_name":"银行","address":"上海市杨浦区长阳路1677号"},{"poiid":"B2094654D56FA4FB409C","title":"正宗重庆麻辣烫(临青路)","lon":"121.53652","lat":"31.27025","category":"68","category_name":"快餐厅","address":"杨浦区临青路669号(近长阳路)"},{"poiid":"B2094654D56FABFF439D","title":"中国联通长阳路营业厅","lon":"121.53585","lat":"31.26998","category":"151","category_name":"电讯营业厅","address":"上海市杨浦区长阳路1696号(近临青路)"},{"poiid":"B2094654D56FABFE4998","title":"民办阳浦小学","lon":"121.53591","lat":"31.26679","category":"56","category_name":"小学","address":"杨浦区河间路379号(河间路宁国路)"},{"poiid":"B2094655D269ABF84398","title":"健神桑拿会所","lon":"121.53354","lat":"31.26941","category":"247","category_name":"餐饮美食","address":"杨浦区长阳路1623号(近黄兴路)"}]