[{"poiid":"B2094757D06FA3FD419E","title":"上海体育学院","lon":"121.52434","lat":"31.31238","category":"671","category_name":"高校中心点","address":"杨浦区长海路345号上海体育学院内(近嫩江路)"},{"poiid":"B2094654D56FABF54198","title":"上海长海医院","lon":"121.5256","lat":"31.30936","category":"162","category_name":"医院","address":"上海杨浦区长海路168-174号(长海路)"},{"poiid":"B2094654D56FAAFC4499","title":"上海体育学院学生宿舍区","lon":"121.52332","lat":"31.31174","category":"47","category_name":"住宅区","address":"恒仁路200"},{"poiid":"B2094757D068A7F4469B","title":"长海医院住院部","lon":"121.527867794","lat":"31.3088527016","category":"162","category_name":"医院","address":"上海杨浦区长海路174号(中原路)"},{"poiid":"B2094757D16BABFC429D","title":"第二军医大学校园","lon":"121.5283081","lat":"31.309152232","category":"500","category_name":"未知分类","address":"上海市杨浦区长海路174号"},{"poiid":"B2094757D068A1FD4699","title":"第二军医大学附属东方肝胆外科医院","lon":"121.52937","lat":"31.30994","category":"162","category_name":"医院","address":"杨浦区长海路225号(近中原路)"},{"poiid":"B2094757D06FA4FD4393","title":"上海体育学院综合馆","lon":"121.52752","lat":"31.30951","category":"221","category_name":"健身中心","address":"杨浦区长海路345号上海体育学院内(近嫩江路)"},{"poiid":"B2094757D06FA4F8419D","title":"洋人阿婆(国和路店)","lon":"121.52795","lat":"31.31779","category":"76","category_name":"上海菜","address":"杨浦区国和路1017号(近世界路)"},{"poiid":"B2094757D06FA6FA4793","title":"国和一村","lon":"121.52715","lat":"31.316456","category":"47","category_name":"住宅区","address":"上海杨浦区国和路"},{"poiid":"B2094757D068A4F94099","title":"肯德基 KFC (长海店)","lon":"121.52692775","lat":"31.309974424","category":"68","category_name":"快餐厅","address":"杨浦区长海路361号(近嫩江路)"},{"poiid":"B2094750D76EABFD459D","title":"小笠原家の私厨料理","lon":"121.53","lat":"31.3153","category":"95","category_name":"日本料理","address":"杨浦区嫩江路国和一村20号102室B(近中原路嫩江路)"},{"poiid":"B2094757D069A3FD469E","title":"85度C(长海店)","lon":"121.5244098","lat":"31.3096843","category":"112","category_name":"糕饼店","address":"杨浦区长海路469号(近恒仁路)"},{"poiid":"B2094654D56FAAFC449D","title":"永和大王(长海路)","lon":"121.52509","lat":"31.30982","category":"68","category_name":"快餐厅","address":"杨浦区长海路399号(近长海医院)"},{"poiid":"B2094757D06AA0F8429F","title":"上海体育学院足球场","lon":"121.52598","lat":"31.31292","category":"220","category_name":"运动场所","address":"杨浦区长海路399号(近长海医院)"},{"poiid":"B2094757D068A0FB459E","title":"红宝石(长海路店)","lon":"121.52468","lat":"31.309458","category":"67","category_name":"甜品店","address":"杨浦区长海路268号(近长海医院)"},{"poiid":"B2094757D168A5F54892","title":"世和园","lon":"121.52389","lat":"31.317127","category":"500","category_name":"未知分类","address":"上海市杨浦区世界路43弄"},{"poiid":"B2094757D06AA1F5479B","title":"老北京涮羊锅","lon":"121.5266481","lat":"31.317619409","category":"247","category_name":"餐饮美食","address":"上海市杨浦区国和路(世界路)东方名城对面"},{"poiid":"B2094655D26DA4F5429F","title":"中国武术博物馆","lon":"121.52751","lat":"31.31417","category":"182","category_name":"博物馆","address":"上海市杨浦区长海路399号"},{"poiid":"B2094757D16CA2FD4499","title":"长海路","lon":"121.523313103","lat":"31.3106352631","category":"500","category_name":"未知分类","address":"上海市杨浦区长海路"},{"poiid":"B2094654D56FA0F8449B","title":"大成面馆","lon":"121.52645","lat":"31.31816","category":"68","category_name":"快餐厅","address":"杨浦区国和路1005号(近世界路)"},{"poiid":"B2094750DA68A5FE449D","title":"上海体育学院新图书馆","lon":"121.526687","lat":"31.314319","category":"253","category_name":"校园生活","address":"清源环路650号"},{"poiid":"B2094752D26CA1F8459E","title":"缘徽大酒店","lon":"121.52581","lat":"31.314832","category":"247","category_name":"餐饮美食","address":"杨浦区国和路709号中原城市广场1座3楼(近民庆路)"},{"poiid":"B2094654D56FAAFC499A","title":"长海一村","lon":"121.53006","lat":"31.311691","category":"47","category_name":"住宅区","address":"长海一村1-62号"},{"poiid":"B2094655D26CA5FD409A","title":"政立路80弄住宅小区","lon":"121.52672840442","lat":"31.313394914427","category":"47","category_name":"住宅区","address":"政立路80弄1-18号"},{"poiid":"B2094654D56FAAFD4398","title":"皇马酒家","lon":"121.52534","lat":"31.31451","category":"76","category_name":"上海菜","address":"杨浦区嫩江路(近体育学院)"},{"poiid":"B2094655D26FA0FC4293","title":"兰生复旦中学(嫩江路)","lon":"121.52652","lat":"31.31527","category":"55","category_name":"中学","address":"杨浦区世界路8号(近嫩江路)"},{"poiid":"B2094654DB6BA2FB409D","title":"上海体育学院宿舍区(二号门)","lon":"121.52229","lat":"31.31236","category":"52","category_name":"高等院校","address":"杨浦区清源环路531"},{"poiid":"B2094757D06BA7FB419A","title":"上海体育学院 篮球馆","lon":"121.525613","lat":"31.311424","category":"500","category_name":"未知分类","address":"上海长海路399号"},{"poiid":"B2094750D768A0F54793","title":"喜达石锅饭","lon":"121.525","lat":"31.3098","category":"96","category_name":"韩国料理","address":"杨浦区长海路437号(近长海医院)"},{"poiid":"B2094757D068A2FB459B","title":"国和路特色烧烤王","lon":"121.52764","lat":"31.31779","category":"257","category_name":"中餐厅","address":"上海杨浦区国和路1013号旁(近世界路)"},{"poiid":"B2094757D66BA6FF4292","title":"真功夫 长海路店","lon":"121.528162","lat":"31.309826","category":"68","category_name":"快餐厅","address":"杨浦区长海路长海医院门口"},{"poiid":"B2094655D26FA6FF429F","title":"中原路99弄小区","lon":"121.53087","lat":"31.3136","category":"47","category_name":"住宅区","address":""},{"poiid":"B2094757D065A1FE459B","title":"诸葛烤鱼 世界路店","lon":"121.52572","lat":"31.3176","category":"71","category_name":"四川菜","address":"杨浦区世界路55号(国和路口)"},{"poiid":"B2094757D069A3FF459F","title":"一兆韦德(嫩江路店)","lon":"121.52994","lat":"31.31417","category":"221","category_name":"健身中心","address":"上海杨浦区嫩江路1155号(近中原路)  "},{"poiid":"B2094750DB6DA4FC409C","title":"上海体育学院室内田径馆","lon":"121.52553907934566","lat":"31.313592044214204","category":"220","category_name":"运动场所","address":"杨浦区恒仁路350号"},{"poiid":"B2094654D56FAAFD4498","title":"上海体育学院运动项目训练中心","lon":"121.52571","lat":"31.31319","category":"190","category_name":"培训机构","address":"清源环路650"},{"poiid":"B2094750D26DA4FF449A","title":"宁波小厨","lon":"121.523316","lat":"31.312532","category":"75","category_name":"浙江菜","address":"杨浦区清源环路588号(上海市体育学院西门近恒仁路)"},{"poiid":"B2094757D66DA3FE429E","title":"上海体育学院附属竞技体育学校","lon":"121.523432","lat":"31.313966","category":"253","category_name":"校园生活","address":"上海恒仁路300号"},{"poiid":"B2094757D06FAAFF409B","title":"明丰阳光苑","lon":"121.52362","lat":"31.315937","category":"252","category_name":"楼宇机构","address":"上海市杨浦区政立路1585号(逸仙路)"},{"poiid":"B2094654DB65A6FA4692","title":"上海体育学院附属竞技体育学校(东门)","lon":"121.52371","lat":"31.31379","category":"52","category_name":"高等院校","address":"杨浦区恒仁路300"},{"poiid":"B2094655D26EA3F84893","title":"长海二村(中原路)","lon":"121.52898","lat":"31.31246","category":"47","category_name":"住宅区","address":""},{"poiid":"B2094655D36CA5F9459F","title":"地铁长海医院站","lon":"121.52765","lat":"31.30965","category":"38","category_name":"公交车站","address":""},{"poiid":"B2094751D46AA7F8499B","title":"民星幼稚园","lon":"121.5276073","lat":"31.3134017","category":"253","category_name":"校园生活","address":"上海市包头路300弄6号"},{"poiid":"B2094753D268A6FD4592","title":"阿木龙虾","lon":"121.524243","lat":"31.314577","category":"247","category_name":"餐饮美食","address":"上海市 包头南路79号"},{"poiid":"B2094757D06AABFD4893","title":"上海体育学院游泳馆","lon":"121.52718","lat":"31.30937","category":"253","category_name":"校园生活","address":"杨浦区长海路345号上海体育学院综合馆1楼(近嫩江路)"},{"poiid":"B2094654D56FAAFC4493","title":"上海体育学院(南门)","lon":"121.52511","lat":"31.30989","category":"656","category_name":"大门","address":"杨浦区长海路399"},{"poiid":"B2094654D56FA0FE489B","title":"No.1酒吧","lon":"121.52557","lat":"31.31523","category":"172","category_name":"酒吧","address":""},{"poiid":"B2094655D26CA5FE4799","title":"黑山路8弄小区","lon":"121.52902544803","lat":"31.313727543352","category":"47","category_name":"住宅区","address":"黑山路8弄"},{"poiid":"B2094655D264A5F5489D","title":"锁林食府","lon":"121.52574510473","lat":"31.317243565065","category":"76","category_name":"上海菜","address":"杨浦区世界路15弄明丰阳光院附近(近国和路)"},{"poiid":"B2094654D56FABF4489C","title":"政立路6弄住宅小区","lon":"121.53","lat":"31.3137","category":"47","category_name":"住宅区","address":"政立路6弄1-27号"},{"poiid":"B2094757D06FA3FD419E","title":"上海体育学院","lon":"121.52434","lat":"31.31238","category":"671","category_name":"高校中心点","address":"杨浦区长海路345号上海体育学院内(近嫩江路)"},{"poiid":"B2094654D56FABF54198","title":"上海长海医院","lon":"121.5256","lat":"31.30936","category":"162","category_name":"医院","address":"上海杨浦区长海路168-174号(长海路)"},{"poiid":"B2094654D56FAAFC4499","title":"上海体育学院学生宿舍区","lon":"121.52332","lat":"31.31174","category":"47","category_name":"住宅区","address":"恒仁路200"},{"poiid":"B2094757D068A7F4469B","title":"长海医院住院部","lon":"121.527867794","lat":"31.3088527016","category":"162","category_name":"医院","address":"上海杨浦区长海路174号(中原路)"},{"poiid":"B2094757D16BABFC429D","title":"第二军医大学校园","lon":"121.5283081","lat":"31.309152232","category":"500","category_name":"未知分类","address":"上海市杨浦区长海路174号"},{"poiid":"B2094757D068A1FD4699","title":"第二军医大学附属东方肝胆外科医院","lon":"121.52937","lat":"31.30994","category":"162","category_name":"医院","address":"杨浦区长海路225号(近中原路)"},{"poiid":"B2094757D06FA4FD4393","title":"上海体育学院综合馆","lon":"121.52752","lat":"31.30951","category":"221","category_name":"健身中心","address":"杨浦区长海路345号上海体育学院内(近嫩江路)"},{"poiid":"B2094757D06FA4F8419D","title":"洋人阿婆(国和路店)","lon":"121.52795","lat":"31.31779","category":"76","category_name":"上海菜","address":"杨浦区国和路1017号(近世界路)"},{"poiid":"B2094757D06FA6FA4793","title":"国和一村","lon":"121.52715","lat":"31.316456","category":"47","category_name":"住宅区","address":"上海杨浦区国和路"},{"poiid":"B2094757D068A4F94099","title":"肯德基 KFC (长海店)","lon":"121.52692775","lat":"31.309974424","category":"68","category_name":"快餐厅","address":"杨浦区长海路361号(近嫩江路)"},{"poiid":"B2094750D76EABFD459D","title":"小笠原家の私厨料理","lon":"121.53","lat":"31.3153","category":"95","category_name":"日本料理","address":"杨浦区嫩江路国和一村20号102室B(近中原路嫩江路)"},{"poiid":"B2094757D069A3FD469E","title":"85度C(长海店)","lon":"121.5244098","lat":"31.3096843","category":"112","category_name":"糕饼店","address":"杨浦区长海路469号(近恒仁路)"},{"poiid":"B2094654D56FAAFC449D","title":"永和大王(长海路)","lon":"121.52509","lat":"31.30982","category":"68","category_name":"快餐厅","address":"杨浦区长海路399号(近长海医院)"},{"poiid":"B2094757D06AA0F8429F","title":"上海体育学院足球场","lon":"121.52598","lat":"31.31292","category":"220","category_name":"运动场所","address":"杨浦区长海路399号(近长海医院)"},{"poiid":"B2094757D068A0FB459E","title":"红宝石(长海路店)","lon":"121.52468","lat":"31.309458","category":"67","category_name":"甜品店","address":"杨浦区长海路268号(近长海医院)"},{"poiid":"B2094757D168A5F54892","title":"世和园","lon":"121.52389","lat":"31.317127","category":"500","category_name":"未知分类","address":"上海市杨浦区世界路43弄"},{"poiid":"B2094757D06AA1F5479B","title":"老北京涮羊锅","lon":"121.5266481","lat":"31.317619409","category":"247","category_name":"餐饮美食","address":"上海市杨浦区国和路(世界路)东方名城对面"},{"poiid":"B2094655D26DA4F5429F","title":"中国武术博物馆","lon":"121.52751","lat":"31.31417","category":"182","category_name":"博物馆","address":"上海市杨浦区长海路399号"},{"poiid":"B2094757D16CA2FD4499","title":"长海路","lon":"121.523313103","lat":"31.3106352631","category":"500","category_name":"未知分类","address":"上海市杨浦区长海路"},{"poiid":"B2094654D56FA0F8449B","title":"大成面馆","lon":"121.52645","lat":"31.31816","category":"68","category_name":"快餐厅","address":"杨浦区国和路1005号(近世界路)"},{"poiid":"B2094750DA68A5FE449D","title":"上海体育学院新图书馆","lon":"121.526687","lat":"31.314319","category":"253","category_name":"校园生活","address":"清源环路650号"},{"poiid":"B2094752D26CA1F8459E","title":"缘徽大酒店","lon":"121.52581","lat":"31.314832","category":"247","category_name":"餐饮美食","address":"杨浦区国和路709号中原城市广场1座3楼(近民庆路)"},{"poiid":"B2094654D56FAAFC499A","title":"长海一村","lon":"121.53006","lat":"31.311691","category":"47","category_name":"住宅区","address":"长海一村1-62号"},{"poiid":"B2094655D26CA5FD409A","title":"政立路80弄住宅小区","lon":"121.52672840442","lat":"31.313394914427","category":"47","category_name":"住宅区","address":"政立路80弄1-18号"},{"poiid":"B2094654D56FAAFD4398","title":"皇马酒家","lon":"121.52534","lat":"31.31451","category":"76","category_name":"上海菜","address":"杨浦区嫩江路(近体育学院)"},{"poiid":"B2094655D26FA0FC4293","title":"兰生复旦中学(嫩江路)","lon":"121.52652","lat":"31.31527","category":"55","category_name":"中学","address":"杨浦区世界路8号(近嫩江路)"},{"poiid":"B2094654DB6BA2FB409D","title":"上海体育学院宿舍区(二号门)","lon":"121.52229","lat":"31.31236","category":"52","category_name":"高等院校","address":"杨浦区清源环路531"},{"poiid":"B2094757D06BA7FB419A","title":"上海体育学院 篮球馆","lon":"121.525613","lat":"31.311424","category":"500","category_name":"未知分类","address":"上海长海路399号"},{"poiid":"B2094750D768A0F54793","title":"喜达石锅饭","lon":"121.525","lat":"31.3098","category":"96","category_name":"韩国料理","address":"杨浦区长海路437号(近长海医院)"},{"poiid":"B2094757D068A2FB459B","title":"国和路特色烧烤王","lon":"121.52764","lat":"31.31779","category":"257","category_name":"中餐厅","address":"上海杨浦区国和路1013号旁(近世界路)"},{"poiid":"B2094757D66BA6FF4292","title":"真功夫 长海路店","lon":"121.528162","lat":"31.309826","category":"68","category_name":"快餐厅","address":"杨浦区长海路长海医院门口"},{"poiid":"B2094655D26FA6FF429F","title":"中原路99弄小区","lon":"121.53087","lat":"31.3136","category":"47","category_name":"住宅区","address":""},{"poiid":"B2094757D065A1FE459B","title":"诸葛烤鱼 世界路店","lon":"121.52572","lat":"31.3176","category":"71","category_name":"四川菜","address":"杨浦区世界路55号(国和路口)"},{"poiid":"B2094757D069A3FF459F","title":"一兆韦德(嫩江路店)","lon":"121.52994","lat":"31.31417","category":"221","category_name":"健身中心","address":"上海杨浦区嫩江路1155号(近中原路)  "},{"poiid":"B2094750DB6DA4FC409C","title":"上海体育学院室内田径馆","lon":"121.52553907934566","lat":"31.313592044214204","category":"220","category_name":"运动场所","address":"杨浦区恒仁路350号"},{"poiid":"B2094654D56FAAFD4498","title":"上海体育学院运动项目训练中心","lon":"121.52571","lat":"31.31319","category":"190","category_name":"培训机构","address":"清源环路650"},{"poiid":"B2094750D26DA4FF449A","title":"宁波小厨","lon":"121.523316","lat":"31.312532","category":"75","category_name":"浙江菜","address":"杨浦区清源环路588号(上海市体育学院西门近恒仁路)"},{"poiid":"B2094757D66DA3FE429E","title":"上海体育学院附属竞技体育学校","lon":"121.523432","lat":"31.313966","category":"253","category_name":"校园生活","address":"上海恒仁路300号"},{"poiid":"B2094757D06FAAFF409B","title":"明丰阳光苑","lon":"121.52362","lat":"31.315937","category":"252","category_name":"楼宇机构","address":"上海市杨浦区政立路1585号(逸仙路)"},{"poiid":"B2094654DB65A6FA4692","title":"上海体育学院附属竞技体育学校(东门)","lon":"121.52371","lat":"31.31379","category":"52","category_name":"高等院校","address":"杨浦区恒仁路300"},{"poiid":"B2094655D26EA3F84893","title":"长海二村(中原路)","lon":"121.52898","lat":"31.31246","category":"47","category_name":"住宅区","address":""},{"poiid":"B2094655D36CA5F9459F","title":"地铁长海医院站","lon":"121.52765","lat":"31.30965","category":"38","category_name":"公交车站","address":""},{"poiid":"B2094751D46AA7F8499B","title":"民星幼稚园","lon":"121.5276073","lat":"31.3134017","category":"253","category_name":"校园生活","address":"上海市包头路300弄6号"},{"poiid":"B2094753D268A6FD4592","title":"阿木龙虾","lon":"121.524243","lat":"31.314577","category":"247","category_name":"餐饮美食","address":"上海市 包头南路79号"},{"poiid":"B2094757D06AABFD4893","title":"上海体育学院游泳馆","lon":"121.52718","lat":"31.30937","category":"253","category_name":"校园生活","address":"杨浦区长海路345号上海体育学院综合馆1楼(近嫩江路)"},{"poiid":"B2094654D56FAAFC4493","title":"上海体育学院(南门)","lon":"121.52511","lat":"31.30989","category":"656","category_name":"大门","address":"杨浦区长海路399"},{"poiid":"B2094654D56FA0FE489B","title":"No.1酒吧","lon":"121.52557","lat":"31.31523","category":"172","category_name":"酒吧","address":""},{"poiid":"B2094655D26CA5FE4799","title":"黑山路8弄小区","lon":"121.52902544803","lat":"31.313727543352","category":"47","category_name":"住宅区","address":"黑山路8弄"},{"poiid":"B2094655D264A5F5489D","title":"锁林食府","lon":"121.52574510473","lat":"31.317243565065","category":"76","category_name":"上海菜","address":"杨浦区世界路15弄明丰阳光院附近(近国和路)"},{"poiid":"B2094654D56FABF4489C","title":"政立路6弄住宅小区","lon":"121.53","lat":"31.3137","category":"47","category_name":"住宅区","address":"政立路6弄1-27号"},{"poiid":"B2094757D06FA3FD419E","title":"上海体育学院","lon":"121.52434","lat":"31.31238","category":"671","category_name":"高校中心点","address":"杨浦区长海路345号上海体育学院内(近嫩江路)"},{"poiid":"B2094654D56FABF54198","title":"上海长海医院","lon":"121.5256","lat":"31.30936","category":"162","category_name":"医院","address":"上海杨浦区长海路168-174号(长海路)"},{"poiid":"B2094654D56FAAFC4499","title":"上海体育学院学生宿舍区","lon":"121.52332","lat":"31.31174","category":"47","category_name":"住宅区","address":"恒仁路200"},{"poiid":"B2094757D068A7F4469B","title":"长海医院住院部","lon":"121.527867794","lat":"31.3088527016","category":"162","category_name":"医院","address":"上海杨浦区长海路174号(中原路)"},{"poiid":"B2094757D16BABFC429D","title":"第二军医大学校园","lon":"121.5283081","lat":"31.309152232","category":"500","category_name":"未知分类","address":"上海市杨浦区长海路174号"},{"poiid":"B2094757D068A1FD4699","title":"第二军医大学附属东方肝胆外科医院","lon":"121.52937","lat":"31.30994","category":"162","category_name":"医院","address":"杨浦区长海路225号(近中原路)"},{"poiid":"B2094757D06FA4FD4393","title":"上海体育学院综合馆","lon":"121.52752","lat":"31.30951","category":"221","category_name":"健身中心","address":"杨浦区长海路345号上海体育学院内(近嫩江路)"},{"poiid":"B2094757D06FA4F8419D","title":"洋人阿婆(国和路店)","lon":"121.52795","lat":"31.31779","category":"76","category_name":"上海菜","address":"杨浦区国和路1017号(近世界路)"},{"poiid":"B2094757D06FA6FA4793","title":"国和一村","lon":"121.52715","lat":"31.316456","category":"47","category_name":"住宅区","address":"上海杨浦区国和路"},{"poiid":"B2094757D068A4F94099","title":"肯德基 KFC (长海店)","lon":"121.52692775","lat":"31.309974424","category":"68","category_name":"快餐厅","address":"杨浦区长海路361号(近嫩江路)"},{"poiid":"B2094750D76EABFD459D","title":"小笠原家の私厨料理","lon":"121.53","lat":"31.3153","category":"95","category_name":"日本料理","address":"杨浦区嫩江路国和一村20号102室B(近中原路嫩江路)"},{"poiid":"B2094757D069A3FD469E","title":"85度C(长海店)","lon":"121.5244098","lat":"31.3096843","category":"112","category_name":"糕饼店","address":"杨浦区长海路469号(近恒仁路)"},{"poiid":"B2094654D56FAAFC449D","title":"永和大王(长海路)","lon":"121.52509","lat":"31.30982","category":"68","category_name":"快餐厅","address":"杨浦区长海路399号(近长海医院)"},{"poiid":"B2094757D06AA0F8429F","title":"上海体育学院足球场","lon":"121.52598","lat":"31.31292","category":"220","category_name":"运动场所","address":"杨浦区长海路399号(近长海医院)"},{"poiid":"B2094757D068A0FB459E","title":"红宝石(长海路店)","lon":"121.52468","lat":"31.309458","category":"67","category_name":"甜品店","address":"杨浦区长海路268号(近长海医院)"},{"poiid":"B2094757D168A5F54892","title":"世和园","lon":"121.52389","lat":"31.317127","category":"500","category_name":"未知分类","address":"上海市杨浦区世界路43弄"},{"poiid":"B2094757D06AA1F5479B","title":"老北京涮羊锅","lon":"121.5266481","lat":"31.317619409","category":"247","category_name":"餐饮美食","address":"上海市杨浦区国和路(世界路)东方名城对面"},{"poiid":"B2094655D26DA4F5429F","title":"中国武术博物馆","lon":"121.52751","lat":"31.31417","category":"182","category_name":"博物馆","address":"上海市杨浦区长海路399号"},{"poiid":"B2094757D16CA2FD4499","title":"长海路","lon":"121.523313103","lat":"31.3106352631","category":"500","category_name":"未知分类","address":"上海市杨浦区长海路"},{"poiid":"B2094654D56FA0F8449B","title":"大成面馆","lon":"121.52645","lat":"31.31816","category":"68","category_name":"快餐厅","address":"杨浦区国和路1005号(近世界路)"},{"poiid":"B2094750DA68A5FE449D","title":"上海体育学院新图书馆","lon":"121.526687","lat":"31.314319","category":"253","category_name":"校园生活","address":"清源环路650号"},{"poiid":"B2094752D26CA1F8459E","title":"缘徽大酒店","lon":"121.52581","lat":"31.314832","category":"247","category_name":"餐饮美食","address":"杨浦区国和路709号中原城市广场1座3楼(近民庆路)"},{"poiid":"B2094654D56FAAFC499A","title":"长海一村","lon":"121.53006","lat":"31.311691","category":"47","category_name":"住宅区","address":"长海一村1-62号"},{"poiid":"B2094655D26CA5FD409A","title":"政立路80弄住宅小区","lon":"121.52672840442","lat":"31.313394914427","category":"47","category_name":"住宅区","address":"政立路80弄1-18号"},{"poiid":"B2094654D56FAAFD4398","title":"皇马酒家","lon":"121.52534","lat":"31.31451","category":"76","category_name":"上海菜","address":"杨浦区嫩江路(近体育学院)"},{"poiid":"B2094655D26FA0FC4293","title":"兰生复旦中学(嫩江路)","lon":"121.52652","lat":"31.31527","category":"55","category_name":"中学","address":"杨浦区世界路8号(近嫩江路)"},{"poiid":"B2094654DB6BA2FB409D","title":"上海体育学院宿舍区(二号门)","lon":"121.52229","lat":"31.31236","category":"52","category_name":"高等院校","address":"杨浦区清源环路531"},{"poiid":"B2094757D06BA7FB419A","title":"上海体育学院 篮球馆","lon":"121.525613","lat":"31.311424","category":"500","category_name":"未知分类","address":"上海长海路399号"},{"poiid":"B2094750D768A0F54793","title":"喜达石锅饭","lon":"121.525","lat":"31.3098","category":"96","category_name":"韩国料理","address":"杨浦区长海路437号(近长海医院)"},{"poiid":"B2094757D068A2FB459B","title":"国和路特色烧烤王","lon":"121.52764","lat":"31.31779","category":"257","category_name":"中餐厅","address":"上海杨浦区国和路1013号旁(近世界路)"},{"poiid":"B2094757D66BA6FF4292","title":"真功夫 长海路店","lon":"121.528162","lat":"31.309826","category":"68","category_name":"快餐厅","address":"杨浦区长海路长海医院门口"},{"poiid":"B2094655D26FA6FF429F","title":"中原路99弄小区","lon":"121.53087","lat":"31.3136","category":"47","category_name":"住宅区","address":""},{"poiid":"B2094757D065A1FE459B","title":"诸葛烤鱼 世界路店","lon":"121.52572","lat":"31.3176","category":"71","category_name":"四川菜","address":"杨浦区世界路55号(国和路口)"},{"poiid":"B2094757D069A3FF459F","title":"一兆韦德(嫩江路店)","lon":"121.52994","lat":"31.31417","category":"221","category_name":"健身中心","address":"上海杨浦区嫩江路1155号(近中原路)  "},{"poiid":"B2094750DB6DA4FC409C","title":"上海体育学院室内田径馆","lon":"121.52553907934566","lat":"31.313592044214204","category":"220","category_name":"运动场所","address":"杨浦区恒仁路350号"},{"poiid":"B2094654D56FAAFD4498","title":"上海体育学院运动项目训练中心","lon":"121.52571","lat":"31.31319","category":"190","category_name":"培训机构","address":"清源环路650"},{"poiid":"B2094750D26DA4FF449A","title":"宁波小厨","lon":"121.523316","lat":"31.312532","category":"75","category_name":"浙江菜","address":"杨浦区清源环路588号(上海市体育学院西门近恒仁路)"},{"poiid":"B2094757D66DA3FE429E","title":"上海体育学院附属竞技体育学校","lon":"121.523432","lat":"31.313966","category":"253","category_name":"校园生活","address":"上海恒仁路300号"},{"poiid":"B2094757D06FAAFF409B","title":"明丰阳光苑","lon":"121.52362","lat":"31.315937","category":"252","category_name":"楼宇机构","address":"上海市杨浦区政立路1585号(逸仙路)"},{"poiid":"B2094654DB65A6FA4692","title":"上海体育学院附属竞技体育学校(东门)","lon":"121.52371","lat":"31.31379","category":"52","category_name":"高等院校","address":"杨浦区恒仁路300"},{"poiid":"B2094655D26EA3F84893","title":"长海二村(中原路)","lon":"121.52898","lat":"31.31246","category":"47","category_name":"住宅区","address":""},{"poiid":"B2094655D36CA5F9459F","title":"地铁长海医院站","lon":"121.52765","lat":"31.30965","category":"38","category_name":"公交车站","address":""},{"poiid":"B2094751D46AA7F8499B","title":"民星幼稚园","lon":"121.5276073","lat":"31.3134017","category":"253","category_name":"校园生活","address":"上海市包头路300弄6号"},{"poiid":"B2094753D268A6FD4592","title":"阿木龙虾","lon":"121.524243","lat":"31.314577","category":"247","category_name":"餐饮美食","address":"上海市 包头南路79号"},{"poiid":"B2094757D06AABFD4893","title":"上海体育学院游泳馆","lon":"121.52718","lat":"31.30937","category":"253","category_name":"校园生活","address":"杨浦区长海路345号上海体育学院综合馆1楼(近嫩江路)"},{"poiid":"B2094654D56FAAFC4493","title":"上海体育学院(南门)","lon":"121.52511","lat":"31.30989","category":"656","category_name":"大门","address":"杨浦区长海路399"},{"poiid":"B2094654D56FA0FE489B","title":"No.1酒吧","lon":"121.52557","lat":"31.31523","category":"172","category_name":"酒吧","address":""},{"poiid":"B2094655D26CA5FE4799","title":"黑山路8弄小区","lon":"121.52902544803","lat":"31.313727543352","category":"47","category_name":"住宅区","address":"黑山路8弄"},{"poiid":"B2094655D264A5F5489D","title":"锁林食府","lon":"121.52574510473","lat":"31.317243565065","category":"76","category_name":"上海菜","address":"杨浦区世界路15弄明丰阳光院附近(近国和路)"},{"poiid":"B2094654D56FABF4489C","title":"政立路6弄住宅小区","lon":"121.53","lat":"31.3137","category":"47","category_name":"住宅区","address":"政立路6弄1-27号"}]