[{"poiid":"B2094655D26EA2FB4099","title":"迪美购物中心","lon":"121.48","lat":"31.2347","category":"119","category_name":"商场","address":"黄浦区人民大道221号(近武胜路)"},{"poiid":"B2094654DA68A3FB469F","title":"上海大剧院","lon":"121.471968","lat":"31.230142","category":"180","category_name":"剧场","address":"黄浦区人民大道300号(近人民广场)"},{"poiid":"B2094654DB65A5FF4492","title":"上海博物馆","lon":"121.47549","lat":"31.22836","category":"182","category_name":"博物馆","address":"黄浦区人民大道201号"},{"poiid":"B2094753D76FAAFA449C","title":"上海滩国泰旗舰店","lon":"121.466011","lat":"31.216125","category":"249","category_name":"购物服务","address":"淮海中路868号"},{"poiid":"B209475CD564A7F84292","title":"上海滩新天地店","lon":"121.47463","lat":"31.22164","category":"119","category_name":"商场","address":"\"太仓路181弄新天地北里15号\r\n\""},{"poiid":"B209475CD564A7F8439E","title":"上海滩中信泰富店","lon":"121.45602","lat":"31.22851","category":"119","category_name":"商场","address":"\"南京西路1168号中信泰富广场，店铺号221.\r\n\""},{"poiid":"B209475CD564A7F84392","title":"上海滩浦东香格里拉店","lon":"121.50058","lat":"31.23634","category":"119","category_name":"商场","address":"浦东富成路33号香格里拉酒店内大堂层"},{"poiid":"B2094757D66FA6FA489D","title":"满记甜品 迪美店","lon":"121.47513","lat":"31.22758","category":"67","category_name":"甜品店","address":"黄浦区武胜路218号迪美购物中心224-1店铺(近人民大道)"},{"poiid":"B2094757D06EAAFF4592","title":"葡京茶餐厅(迪美店)","lon":"121.47341","lat":"31.22841","category":"72","category_name":"广东菜","address":"黄浦区人民大道221号迪美购物中心224-3号铺(近武胜路)"},{"poiid":"B2094757D66FA6FB419C","title":"风云再起动漫娱乐中心(上海人民广场店)","lon":"121.47352917109686","lat":"31.22873113574779","category":"173","category_name":"游戏厅","address":"上海市黄浦区人民大道221号迪美广场负一楼227-229#"},{"poiid":"B2094757D06FA3FC409B","title":"人民广场喷水池","lon":"121.474562569","lat":"31.2293389019","category":"250","category_name":"公园户外","address":"上海黄浦区人民广场博物馆前"},{"poiid":"B2094757D06EAAFF4898","title":"呷哺呷哺 黄浦迪美店","lon":"121.471745","lat":"31.228894","category":"86","category_name":"火锅店","address":"人民大道221号B1楼迪美购物中心近武胜路"},{"poiid":"B2094757D064A3FD449F","title":"一号线人民广场站","lon":"121.472942738","lat":"31.2278892502","category":"500","category_name":"未知分类","address":"上海轨道交通1，2，8号线"},{"poiid":"B2094757D06FA3F4439E","title":"上海市人民政府","lon":"121.47373199","lat":"31.230110168","category":"260","category_name":"其他","address":"上海人民大道200号"},{"poiid":"B2094757D06FA7F94199","title":"市政大厦","lon":"121.472011","lat":"31.226881","category":"46","category_name":"楼宇","address":"上海市黄浦区大沽路100号"},{"poiid":"B2094757DB68AAFA4693","title":"一线烫捞 香港名店街店","lon":"121.4740761","lat":"31.2297022","category":"68","category_name":"快餐厅","address":"黄浦区人民大道9-99号香港名店街45B-55号商铺(近人民广场)"},{"poiid":"B2094757D068A3F54292","title":"二百永新大厦","lon":"121.472368","lat":"31.226048","category":"46","category_name":"楼宇","address":"上海淮海中路887号"},{"poiid":"B2094757D06FA2FB4899","title":"冰期时代(迪美店)","lon":"121.47475","lat":"31.22708","category":"113","category_name":"冷饮店","address":"黄浦区人民大道221号迪美购物中心225号商铺(近武胜路)"},{"poiid":"B2094757D06FA0FB4893","title":"马威斯HAIR IN SALON(迪美店)","lon":"121.473351","lat":"31.2285","category":"148","category_name":"美容美发店","address":"上海黄浦区人民大道221号迪美购物中心kfc旁"},{"poiid":"B2094757D06FA0FD459E","title":"味千拉面(迪美店)","lon":"121.47302","lat":"31.22833","category":"95","category_name":"日本料理","address":"黄浦区人民大道221号迪美购物中心内(近武胜路)"},{"poiid":"B2094757D068A2FF429B","title":"电信大楼","lon":"121.473292093","lat":"31.226889133","category":"46","category_name":"楼宇","address":"上海武胜路333号"},{"poiid":"B2094654DB6BABFE4598","title":"马克西姆西餐厅 Maxim's","lon":"121.47126716885","lat":"31.228677607786","category":"97","category_name":"法式菜品餐厅","address":"黄陂北路200号上海大剧院1楼近人民大道"},{"poiid":"B2094757D56DABF5419F","title":"中山公园龙之梦","lon":"121.47514343261719","lat":"31.227481631987086","category":"251","category_name":"出行住宿","address":"上海 上海市 中山公园龙之梦"},{"poiid":"B2094757D06FA7F8489E","title":"DQ冰雪皇后(迪美店)","lon":"121.47378","lat":"31.22833","category":"113","category_name":"冷饮店","address":"黄浦区武胜路218号迪美购物中心(近人民广场)"},{"poiid":"B2094757D068A7FA4792","title":"延中广场公园","lon":"121.474751441","lat":"31.2255222197","category":"196","category_name":"公园","address":"上海延安中路金陵中路间"},{"poiid":"B2094757D06FA7FE4198","title":"武胜路人民广场站(公交112,123,145,952,952B终)","lon":"121.474035682","lat":"31.2269005782","category":"38","category_name":"公交车站","address":"上海市黄浦区武胜路黄陂北路"},{"poiid":"B2094752D365A2F84093","title":"西贝西北菜","lon":"121.473495","lat":"31.229059","category":"247","category_name":"餐饮美食","address":"南京东路"},{"poiid":"B2094750D26DA1FF459A","title":"上海广场（原无限度广场）","lon":"121.4739733622222","lat":"31.22735138333332","category":"119","category_name":"商场","address":"上海淮海中路138号"},{"poiid":"B2094757D164A5F54398","title":"望星空宴会厅","lon":"121.47267073","lat":"31.226613223","category":"247","category_name":"餐饮美食","address":"上海大剧院八楼"},{"poiid":"B2094757D16EA6FA469B","title":"满记甜品","lon":"121.47375594","lat":"31.227703196","category":"247","category_name":"餐饮美食","address":"上海南京路"},{"poiid":"B2094750DB6DABFB459C","title":"风云再起","lon":"121.474792","lat":"31.227998","category":"248","category_name":"生活娱乐","address":"黄浦区人民大道221号迪美购物中心B1楼(近武胜路)"},{"poiid":"B2094757D068A4F9409E","title":"上海市黄浦区人民法院","lon":"121.47189331","lat":"31.225976944","category":"608","category_name":"法院","address":"上海市延安东路1234号"},{"poiid":"B2094757DA64AAF44398","title":"M&S cafe","lon":"121.473258","lat":"31.227341","category":"247","category_name":"餐饮美食","address":"上海市淮海中路96号金钟广场M&S内"},{"poiid":"B2094757D069A2FD429E","title":"电信世界","lon":"121.47264099","lat":"31.226232528","category":"151","category_name":"电讯营业厅","address":"上海黄浦区延安东路1200号"},{"poiid":"B2094750DB6DA7FB489B","title":"上海歌城","lon":"121.475082","lat":"31.2259","category":"170","category_name":"KTV","address":null},{"poiid":"B2094750DB65A1FB469E","title":"西藏中路168号都市总部大楼","lon":"121.474624","lat":"31.228435","category":"252","category_name":"楼宇机构","address":"西藏中路168号都市总部大楼"},{"poiid":"B2094757D068A0F54892","title":"林记小厨","lon":"121.470973738","lat":"31.2274302404","category":"247","category_name":"餐饮美食","address":"上海黄浦区黄陂北路227号中区广场二楼"},{"poiid":"B2094753D26EA1FC409A","title":"虹口足球场","lon":"121.474482","lat":"31.229645","category":"220","category_name":"运动场所","address":"上海市 东江湾路444号"},{"poiid":"B2094753D26DA0FD4298","title":"揽香","lon":"121.474487","lat":"31.22551","category":"247","category_name":"餐饮美食","address":"上海市 上海市淮海中路381号中环广场3楼"},{"poiid":"B2094757D068A7FA409D","title":"果留仙(迪美店)","lon":"121.475614338","lat":"31.227692246","category":"500","category_name":"未知分类","address":"上海市黄浦区迪美购物中心内"},{"poiid":"B2094655D26EABFB4099","title":"上海电信世界大厦","lon":"121.47264","lat":"31.22622","category":"46","category_name":"楼宇","address":"延安东路1200"},{"poiid":"B2094654DA68A3FB4199","title":"黄浦政法大楼","lon":"121.47194","lat":"31.22642","category":"68","category_name":"快餐厅","address":"黄浦区大沽路123号2楼(近重庆北路)"},{"poiid":"B2094750D56EA7F8439D","title":"梅塞德斯奔驰文化中心","lon":"121.474609","lat":"31.226078","category":"500","category_name":"未知分类","address":null},{"poiid":"B2094750DB6DAAFB499D","title":"江边城外巫山烤全鱼","lon":"121.4754","lat":"31.2287","category":"247","category_name":"餐饮美食","address":null},{"poiid":"B2094757D164A2FE429A","title":"上海博物馆餐厅","lon":"121.47394","lat":"31.22995","category":"68","category_name":"快餐厅","address":"黄浦区人民大道201号上海博物馆侧(近武胜路)  "},{"poiid":"B2094757D06BA4FD459D","title":"粉色妈妈(迪美店)","lon":"121.47473273","lat":"31.228789269","category":"67","category_name":"甜品店","address":"黄浦区武胜路218号迪美购物中心(屈臣氏对面11月1号开张)"},{"poiid":"B2094757D06FA7FD419A","title":"西树泡芙(国金中心店)","lon":"121.4740912","lat":"31.227401666","category":"67","category_name":"甜品店","address":"上海浦东新区世纪大道8号国金中心商场LG2"},{"poiid":"B209475DD16EAAF5469F","title":"清水日本料理（仙乐斯店）","lon":"121.473731","lat":"31.229269","category":"500","category_name":"未知分类","address":"上海市 南京西路388号仙乐斯广场3楼309-311室(黄坡北路口)"},{"poiid":"B2094654D564A5FA429C","title":"鑫兴大厦","lon":"121.473","lat":"31.229","category":"46","category_name":"楼宇","address":"上海巨鹿路137号"},{"poiid":"B2094655D265A6F9429A","title":"妯娌老鸭粉丝 武胜路店","lon":"121.471829054","lat":"31.227370793","category":"68","category_name":"快餐厅","address":"黄浦区武胜路237号(普安路延安东路)"},{"poiid":"B2094655D26EA2FB4099","title":"迪美购物中心","lon":"121.48","lat":"31.2347","category":"119","category_name":"商场","address":"黄浦区人民大道221号(近武胜路)"},{"poiid":"B2094654DA68A3FB469F","title":"上海大剧院","lon":"121.471968","lat":"31.230142","category":"180","category_name":"剧场","address":"黄浦区人民大道300号(近人民广场)"},{"poiid":"B2094654DB65A5FF4492","title":"上海博物馆","lon":"121.47549","lat":"31.22836","category":"182","category_name":"博物馆","address":"黄浦区人民大道201号"},{"poiid":"B2094753D76FAAFA449C","title":"上海滩国泰旗舰店","lon":"121.466011","lat":"31.216125","category":"249","category_name":"购物服务","address":"淮海中路868号"},{"poiid":"B209475CD564A7F84292","title":"上海滩新天地店","lon":"121.47463","lat":"31.22164","category":"119","category_name":"商场","address":"\"太仓路181弄新天地北里15号\r\n\""},{"poiid":"B209475CD564A7F8439E","title":"上海滩中信泰富店","lon":"121.45602","lat":"31.22851","category":"119","category_name":"商场","address":"\"南京西路1168号中信泰富广场，店铺号221.\r\n\""},{"poiid":"B209475CD564A7F84392","title":"上海滩浦东香格里拉店","lon":"121.50058","lat":"31.23634","category":"119","category_name":"商场","address":"浦东富成路33号香格里拉酒店内大堂层"},{"poiid":"B2094757D66FA6FA489D","title":"满记甜品 迪美店","lon":"121.47513","lat":"31.22758","category":"67","category_name":"甜品店","address":"黄浦区武胜路218号迪美购物中心224-1店铺(近人民大道)"},{"poiid":"B2094757D06EAAFF4592","title":"葡京茶餐厅(迪美店)","lon":"121.47341","lat":"31.22841","category":"72","category_name":"广东菜","address":"黄浦区人民大道221号迪美购物中心224-3号铺(近武胜路)"},{"poiid":"B2094757D66FA6FB419C","title":"风云再起动漫娱乐中心(上海人民广场店)","lon":"121.47352917109686","lat":"31.22873113574779","category":"173","category_name":"游戏厅","address":"上海市黄浦区人民大道221号迪美广场负一楼227-229#"},{"poiid":"B2094757D06FA3FC409B","title":"人民广场喷水池","lon":"121.474562569","lat":"31.2293389019","category":"250","category_name":"公园户外","address":"上海黄浦区人民广场博物馆前"},{"poiid":"B2094757D06EAAFF4898","title":"呷哺呷哺 黄浦迪美店","lon":"121.471745","lat":"31.228894","category":"86","category_name":"火锅店","address":"人民大道221号B1楼迪美购物中心近武胜路"},{"poiid":"B2094757D064A3FD449F","title":"一号线人民广场站","lon":"121.472942738","lat":"31.2278892502","category":"500","category_name":"未知分类","address":"上海轨道交通1，2，8号线"},{"poiid":"B2094757D06FA3F4439E","title":"上海市人民政府","lon":"121.47373199","lat":"31.230110168","category":"260","category_name":"其他","address":"上海人民大道200号"},{"poiid":"B2094757D06FA7F94199","title":"市政大厦","lon":"121.472011","lat":"31.226881","category":"46","category_name":"楼宇","address":"上海市黄浦区大沽路100号"},{"poiid":"B2094757DB68AAFA4693","title":"一线烫捞 香港名店街店","lon":"121.4740761","lat":"31.2297022","category":"68","category_name":"快餐厅","address":"黄浦区人民大道9-99号香港名店街45B-55号商铺(近人民广场)"},{"poiid":"B2094757D068A3F54292","title":"二百永新大厦","lon":"121.472368","lat":"31.226048","category":"46","category_name":"楼宇","address":"上海淮海中路887号"},{"poiid":"B2094757D06FA2FB4899","title":"冰期时代(迪美店)","lon":"121.47475","lat":"31.22708","category":"113","category_name":"冷饮店","address":"黄浦区人民大道221号迪美购物中心225号商铺(近武胜路)"},{"poiid":"B2094757D06FA0FB4893","title":"马威斯HAIR IN SALON(迪美店)","lon":"121.473351","lat":"31.2285","category":"148","category_name":"美容美发店","address":"上海黄浦区人民大道221号迪美购物中心kfc旁"},{"poiid":"B2094757D06FA0FD459E","title":"味千拉面(迪美店)","lon":"121.47302","lat":"31.22833","category":"95","category_name":"日本料理","address":"黄浦区人民大道221号迪美购物中心内(近武胜路)"},{"poiid":"B2094757D068A2FF429B","title":"电信大楼","lon":"121.473292093","lat":"31.226889133","category":"46","category_name":"楼宇","address":"上海武胜路333号"},{"poiid":"B2094654DB6BABFE4598","title":"马克西姆西餐厅 Maxim's","lon":"121.47126716885","lat":"31.228677607786","category":"97","category_name":"法式菜品餐厅","address":"黄陂北路200号上海大剧院1楼近人民大道"},{"poiid":"B2094757D56DABF5419F","title":"中山公园龙之梦","lon":"121.47514343261719","lat":"31.227481631987086","category":"251","category_name":"出行住宿","address":"上海 上海市 中山公园龙之梦"},{"poiid":"B2094757D06FA7F8489E","title":"DQ冰雪皇后(迪美店)","lon":"121.47378","lat":"31.22833","category":"113","category_name":"冷饮店","address":"黄浦区武胜路218号迪美购物中心(近人民广场)"},{"poiid":"B2094757D068A7FA4792","title":"延中广场公园","lon":"121.474751441","lat":"31.2255222197","category":"196","category_name":"公园","address":"上海延安中路金陵中路间"},{"poiid":"B2094757D06FA7FE4198","title":"武胜路人民广场站(公交112,123,145,952,952B终)","lon":"121.474035682","lat":"31.2269005782","category":"38","category_name":"公交车站","address":"上海市黄浦区武胜路黄陂北路"},{"poiid":"B2094752D365A2F84093","title":"西贝西北菜","lon":"121.473495","lat":"31.229059","category":"247","category_name":"餐饮美食","address":"南京东路"},{"poiid":"B2094750D26DA1FF459A","title":"上海广场（原无限度广场）","lon":"121.4739733622222","lat":"31.22735138333332","category":"119","category_name":"商场","address":"上海淮海中路138号"},{"poiid":"B2094757D164A5F54398","title":"望星空宴会厅","lon":"121.47267073","lat":"31.226613223","category":"247","category_name":"餐饮美食","address":"上海大剧院八楼"},{"poiid":"B2094757D16EA6FA469B","title":"满记甜品","lon":"121.47375594","lat":"31.227703196","category":"247","category_name":"餐饮美食","address":"上海南京路"},{"poiid":"B2094750DB6DABFB459C","title":"风云再起","lon":"121.474792","lat":"31.227998","category":"248","category_name":"生活娱乐","address":"黄浦区人民大道221号迪美购物中心B1楼(近武胜路)"},{"poiid":"B2094757D068A4F9409E","title":"上海市黄浦区人民法院","lon":"121.47189331","lat":"31.225976944","category":"608","category_name":"法院","address":"上海市延安东路1234号"},{"poiid":"B2094757DA64AAF44398","title":"M&S cafe","lon":"121.473258","lat":"31.227341","category":"247","category_name":"餐饮美食","address":"上海市淮海中路96号金钟广场M&S内"},{"poiid":"B2094757D069A2FD429E","title":"电信世界","lon":"121.47264099","lat":"31.226232528","category":"151","category_name":"电讯营业厅","address":"上海黄浦区延安东路1200号"},{"poiid":"B2094750DB6DA7FB489B","title":"上海歌城","lon":"121.475082","lat":"31.2259","category":"170","category_name":"KTV","address":null},{"poiid":"B2094750DB65A1FB469E","title":"西藏中路168号都市总部大楼","lon":"121.474624","lat":"31.228435","category":"252","category_name":"楼宇机构","address":"西藏中路168号都市总部大楼"},{"poiid":"B2094757D068A0F54892","title":"林记小厨","lon":"121.470973738","lat":"31.2274302404","category":"247","category_name":"餐饮美食","address":"上海黄浦区黄陂北路227号中区广场二楼"},{"poiid":"B2094753D26EA1FC409A","title":"虹口足球场","lon":"121.474482","lat":"31.229645","category":"220","category_name":"运动场所","address":"上海市 东江湾路444号"},{"poiid":"B2094753D26DA0FD4298","title":"揽香","lon":"121.474487","lat":"31.22551","category":"247","category_name":"餐饮美食","address":"上海市 上海市淮海中路381号中环广场3楼"},{"poiid":"B2094757D068A7FA409D","title":"果留仙(迪美店)","lon":"121.475614338","lat":"31.227692246","category":"500","category_name":"未知分类","address":"上海市黄浦区迪美购物中心内"},{"poiid":"B2094655D26EABFB4099","title":"上海电信世界大厦","lon":"121.47264","lat":"31.22622","category":"46","category_name":"楼宇","address":"延安东路1200"},{"poiid":"B2094654DA68A3FB4199","title":"黄浦政法大楼","lon":"121.47194","lat":"31.22642","category":"68","category_name":"快餐厅","address":"黄浦区大沽路123号2楼(近重庆北路)"},{"poiid":"B2094750D56EA7F8439D","title":"梅塞德斯奔驰文化中心","lon":"121.474609","lat":"31.226078","category":"500","category_name":"未知分类","address":null},{"poiid":"B2094750DB6DAAFB499D","title":"江边城外巫山烤全鱼","lon":"121.4754","lat":"31.2287","category":"247","category_name":"餐饮美食","address":null},{"poiid":"B2094757D164A2FE429A","title":"上海博物馆餐厅","lon":"121.47394","lat":"31.22995","category":"68","category_name":"快餐厅","address":"黄浦区人民大道201号上海博物馆侧(近武胜路)  "},{"poiid":"B2094757D06BA4FD459D","title":"粉色妈妈(迪美店)","lon":"121.47473273","lat":"31.228789269","category":"67","category_name":"甜品店","address":"黄浦区武胜路218号迪美购物中心(屈臣氏对面11月1号开张)"},{"poiid":"B2094757D06FA7FD419A","title":"西树泡芙(国金中心店)","lon":"121.4740912","lat":"31.227401666","category":"67","category_name":"甜品店","address":"上海浦东新区世纪大道8号国金中心商场LG2"},{"poiid":"B209475DD16EAAF5469F","title":"清水日本料理（仙乐斯店）","lon":"121.473731","lat":"31.229269","category":"500","category_name":"未知分类","address":"上海市 南京西路388号仙乐斯广场3楼309-311室(黄坡北路口)"},{"poiid":"B2094654D564A5FA429C","title":"鑫兴大厦","lon":"121.473","lat":"31.229","category":"46","category_name":"楼宇","address":"上海巨鹿路137号"},{"poiid":"B2094655D265A6F9429A","title":"妯娌老鸭粉丝 武胜路店","lon":"121.471829054","lat":"31.227370793","category":"68","category_name":"快餐厅","address":"黄浦区武胜路237号(普安路延安东路)"},{"poiid":"B2094655D26EA2FB4099","title":"迪美购物中心","lon":"121.48","lat":"31.2347","category":"119","category_name":"商场","address":"黄浦区人民大道221号(近武胜路)"},{"poiid":"B2094654DA68A3FB469F","title":"上海大剧院","lon":"121.471968","lat":"31.230142","category":"180","category_name":"剧场","address":"黄浦区人民大道300号(近人民广场)"},{"poiid":"B2094654DB65A5FF4492","title":"上海博物馆","lon":"121.47549","lat":"31.22836","category":"182","category_name":"博物馆","address":"黄浦区人民大道201号"},{"poiid":"B2094753D76FAAFA449C","title":"上海滩国泰旗舰店","lon":"121.466011","lat":"31.216125","category":"249","category_name":"购物服务","address":"淮海中路868号"},{"poiid":"B209475CD564A7F84292","title":"上海滩新天地店","lon":"121.47463","lat":"31.22164","category":"119","category_name":"商场","address":"\"太仓路181弄新天地北里15号\r\n\""},{"poiid":"B209475CD564A7F8439E","title":"上海滩中信泰富店","lon":"121.45602","lat":"31.22851","category":"119","category_name":"商场","address":"\"南京西路1168号中信泰富广场，店铺号221.\r\n\""},{"poiid":"B209475CD564A7F84392","title":"上海滩浦东香格里拉店","lon":"121.50058","lat":"31.23634","category":"119","category_name":"商场","address":"浦东富成路33号香格里拉酒店内大堂层"},{"poiid":"B2094757D66FA6FA489D","title":"满记甜品 迪美店","lon":"121.47513","lat":"31.22758","category":"67","category_name":"甜品店","address":"黄浦区武胜路218号迪美购物中心224-1店铺(近人民大道)"},{"poiid":"B2094757D06EAAFF4592","title":"葡京茶餐厅(迪美店)","lon":"121.47341","lat":"31.22841","category":"72","category_name":"广东菜","address":"黄浦区人民大道221号迪美购物中心224-3号铺(近武胜路)"},{"poiid":"B2094757D66FA6FB419C","title":"风云再起动漫娱乐中心(上海人民广场店)","lon":"121.47352917109686","lat":"31.22873113574779","category":"173","category_name":"游戏厅","address":"上海市黄浦区人民大道221号迪美广场负一楼227-229#"},{"poiid":"B2094757D06FA3FC409B","title":"人民广场喷水池","lon":"121.474562569","lat":"31.2293389019","category":"250","category_name":"公园户外","address":"上海黄浦区人民广场博物馆前"},{"poiid":"B2094757D06EAAFF4898","title":"呷哺呷哺 黄浦迪美店","lon":"121.471745","lat":"31.228894","category":"86","category_name":"火锅店","address":"人民大道221号B1楼迪美购物中心近武胜路"},{"poiid":"B2094757D064A3FD449F","title":"一号线人民广场站","lon":"121.472942738","lat":"31.2278892502","category":"500","category_name":"未知分类","address":"上海轨道交通1，2，8号线"},{"poiid":"B2094757D06FA3F4439E","title":"上海市人民政府","lon":"121.47373199","lat":"31.230110168","category":"260","category_name":"其他","address":"上海人民大道200号"},{"poiid":"B2094757D06FA7F94199","title":"市政大厦","lon":"121.472011","lat":"31.226881","category":"46","category_name":"楼宇","address":"上海市黄浦区大沽路100号"},{"poiid":"B2094757DB68AAFA4693","title":"一线烫捞 香港名店街店","lon":"121.4740761","lat":"31.2297022","category":"68","category_name":"快餐厅","address":"黄浦区人民大道9-99号香港名店街45B-55号商铺(近人民广场)"},{"poiid":"B2094757D068A3F54292","title":"二百永新大厦","lon":"121.472368","lat":"31.226048","category":"46","category_name":"楼宇","address":"上海淮海中路887号"},{"poiid":"B2094757D06FA2FB4899","title":"冰期时代(迪美店)","lon":"121.47475","lat":"31.22708","category":"113","category_name":"冷饮店","address":"黄浦区人民大道221号迪美购物中心225号商铺(近武胜路)"},{"poiid":"B2094757D06FA0FB4893","title":"马威斯HAIR IN SALON(迪美店)","lon":"121.473351","lat":"31.2285","category":"148","category_name":"美容美发店","address":"上海黄浦区人民大道221号迪美购物中心kfc旁"},{"poiid":"B2094757D06FA0FD459E","title":"味千拉面(迪美店)","lon":"121.47302","lat":"31.22833","category":"95","category_name":"日本料理","address":"黄浦区人民大道221号迪美购物中心内(近武胜路)"},{"poiid":"B2094757D068A2FF429B","title":"电信大楼","lon":"121.473292093","lat":"31.226889133","category":"46","category_name":"楼宇","address":"上海武胜路333号"},{"poiid":"B2094654DB6BABFE4598","title":"马克西姆西餐厅 Maxim's","lon":"121.47126716885","lat":"31.228677607786","category":"97","category_name":"法式菜品餐厅","address":"黄陂北路200号上海大剧院1楼近人民大道"},{"poiid":"B2094757D56DABF5419F","title":"中山公园龙之梦","lon":"121.47514343261719","lat":"31.227481631987086","category":"251","category_name":"出行住宿","address":"上海 上海市 中山公园龙之梦"},{"poiid":"B2094757D06FA7F8489E","title":"DQ冰雪皇后(迪美店)","lon":"121.47378","lat":"31.22833","category":"113","category_name":"冷饮店","address":"黄浦区武胜路218号迪美购物中心(近人民广场)"},{"poiid":"B2094757D068A7FA4792","title":"延中广场公园","lon":"121.474751441","lat":"31.2255222197","category":"196","category_name":"公园","address":"上海延安中路金陵中路间"},{"poiid":"B2094757D06FA7FE4198","title":"武胜路人民广场站(公交112,123,145,952,952B终)","lon":"121.474035682","lat":"31.2269005782","category":"38","category_name":"公交车站","address":"上海市黄浦区武胜路黄陂北路"},{"poiid":"B2094752D365A2F84093","title":"西贝西北菜","lon":"121.473495","lat":"31.229059","category":"247","category_name":"餐饮美食","address":"南京东路"},{"poiid":"B2094750D26DA1FF459A","title":"上海广场（原无限度广场）","lon":"121.4739733622222","lat":"31.22735138333332","category":"119","category_name":"商场","address":"上海淮海中路138号"},{"poiid":"B2094757D164A5F54398","title":"望星空宴会厅","lon":"121.47267073","lat":"31.226613223","category":"247","category_name":"餐饮美食","address":"上海大剧院八楼"},{"poiid":"B2094757D16EA6FA469B","title":"满记甜品","lon":"121.47375594","lat":"31.227703196","category":"247","category_name":"餐饮美食","address":"上海南京路"},{"poiid":"B2094750DB6DABFB459C","title":"风云再起","lon":"121.474792","lat":"31.227998","category":"248","category_name":"生活娱乐","address":"黄浦区人民大道221号迪美购物中心B1楼(近武胜路)"},{"poiid":"B2094757D068A4F9409E","title":"上海市黄浦区人民法院","lon":"121.47189331","lat":"31.225976944","category":"608","category_name":"法院","address":"上海市延安东路1234号"},{"poiid":"B2094757DA64AAF44398","title":"M&S cafe","lon":"121.473258","lat":"31.227341","category":"247","category_name":"餐饮美食","address":"上海市淮海中路96号金钟广场M&S内"},{"poiid":"B2094757D069A2FD429E","title":"电信世界","lon":"121.47264099","lat":"31.226232528","category":"151","category_name":"电讯营业厅","address":"上海黄浦区延安东路1200号"},{"poiid":"B2094750DB6DA7FB489B","title":"上海歌城","lon":"121.475082","lat":"31.2259","category":"170","category_name":"KTV","address":null},{"poiid":"B2094750DB65A1FB469E","title":"西藏中路168号都市总部大楼","lon":"121.474624","lat":"31.228435","category":"252","category_name":"楼宇机构","address":"西藏中路168号都市总部大楼"},{"poiid":"B2094757D068A0F54892","title":"林记小厨","lon":"121.470973738","lat":"31.2274302404","category":"247","category_name":"餐饮美食","address":"上海黄浦区黄陂北路227号中区广场二楼"},{"poiid":"B2094753D26EA1FC409A","title":"虹口足球场","lon":"121.474482","lat":"31.229645","category":"220","category_name":"运动场所","address":"上海市 东江湾路444号"},{"poiid":"B2094753D26DA0FD4298","title":"揽香","lon":"121.474487","lat":"31.22551","category":"247","category_name":"餐饮美食","address":"上海市 上海市淮海中路381号中环广场3楼"},{"poiid":"B2094757D068A7FA409D","title":"果留仙(迪美店)","lon":"121.475614338","lat":"31.227692246","category":"500","category_name":"未知分类","address":"上海市黄浦区迪美购物中心内"},{"poiid":"B2094655D26EABFB4099","title":"上海电信世界大厦","lon":"121.47264","lat":"31.22622","category":"46","category_name":"楼宇","address":"延安东路1200"},{"poiid":"B2094654DA68A3FB4199","title":"黄浦政法大楼","lon":"121.47194","lat":"31.22642","category":"68","category_name":"快餐厅","address":"黄浦区大沽路123号2楼(近重庆北路)"},{"poiid":"B2094750D56EA7F8439D","title":"梅塞德斯奔驰文化中心","lon":"121.474609","lat":"31.226078","category":"500","category_name":"未知分类","address":null},{"poiid":"B2094750DB6DAAFB499D","title":"江边城外巫山烤全鱼","lon":"121.4754","lat":"31.2287","category":"247","category_name":"餐饮美食","address":null},{"poiid":"B2094757D164A2FE429A","title":"上海博物馆餐厅","lon":"121.47394","lat":"31.22995","category":"68","category_name":"快餐厅","address":"黄浦区人民大道201号上海博物馆侧(近武胜路)  "},{"poiid":"B2094757D06BA4FD459D","title":"粉色妈妈(迪美店)","lon":"121.47473273","lat":"31.228789269","category":"67","category_name":"甜品店","address":"黄浦区武胜路218号迪美购物中心(屈臣氏对面11月1号开张)"},{"poiid":"B2094757D06FA7FD419A","title":"西树泡芙(国金中心店)","lon":"121.4740912","lat":"31.227401666","category":"67","category_name":"甜品店","address":"上海浦东新区世纪大道8号国金中心商场LG2"},{"poiid":"B209475DD16EAAF5469F","title":"清水日本料理（仙乐斯店）","lon":"121.473731","lat":"31.229269","category":"500","category_name":"未知分类","address":"上海市 南京西路388号仙乐斯广场3楼309-311室(黄坡北路口)"},{"poiid":"B2094654D564A5FA429C","title":"鑫兴大厦","lon":"121.473","lat":"31.229","category":"46","category_name":"楼宇","address":"上海巨鹿路137号"},{"poiid":"B2094655D265A6F9429A","title":"妯娌老鸭粉丝 武胜路店","lon":"121.471829054","lat":"31.227370793","category":"68","category_name":"快餐厅","address":"黄浦区武胜路237号(普安路延安东路)"},{"poiid":"B2094655D26EA2FB4099","title":"迪美购物中心","lon":"121.48","lat":"31.2347","category":"119","category_name":"商场","address":"黄浦区人民大道221号(近武胜路)"},{"poiid":"B2094654DA68A3FB469F","title":"上海大剧院","lon":"121.471968","lat":"31.230142","category":"180","category_name":"剧场","address":"黄浦区人民大道300号(近人民广场)"},{"poiid":"B2094654DB65A5FF4492","title":"上海博物馆","lon":"121.47549","lat":"31.22836","category":"182","category_name":"博物馆","address":"黄浦区人民大道201号"},{"poiid":"B2094753D76FAAFA449C","title":"上海滩国泰旗舰店","lon":"121.466011","lat":"31.216125","category":"249","category_name":"购物服务","address":"淮海中路868号"},{"poiid":"B209475CD564A7F84292","title":"上海滩新天地店","lon":"121.47463","lat":"31.22164","category":"119","category_name":"商场","address":"\"太仓路181弄新天地北里15号\r\n\""},{"poiid":"B209475CD564A7F8439E","title":"上海滩中信泰富店","lon":"121.45602","lat":"31.22851","category":"119","category_name":"商场","address":"\"南京西路1168号中信泰富广场，店铺号221.\r\n\""},{"poiid":"B209475CD564A7F84392","title":"上海滩浦东香格里拉店","lon":"121.50058","lat":"31.23634","category":"119","category_name":"商场","address":"浦东富成路33号香格里拉酒店内大堂层"},{"poiid":"B2094757D66FA6FA489D","title":"满记甜品 迪美店","lon":"121.47513","lat":"31.22758","category":"67","category_name":"甜品店","address":"黄浦区武胜路218号迪美购物中心224-1店铺(近人民大道)"},{"poiid":"B2094757D06EAAFF4592","title":"葡京茶餐厅(迪美店)","lon":"121.47341","lat":"31.22841","category":"72","category_name":"广东菜","address":"黄浦区人民大道221号迪美购物中心224-3号铺(近武胜路)"},{"poiid":"B2094757D66FA6FB419C","title":"风云再起动漫娱乐中心(上海人民广场店)","lon":"121.47352917109686","lat":"31.22873113574779","category":"173","category_name":"游戏厅","address":"上海市黄浦区人民大道221号迪美广场负一楼227-229#"},{"poiid":"B2094757D06FA3FC409B","title":"人民广场喷水池","lon":"121.474562569","lat":"31.2293389019","category":"250","category_name":"公园户外","address":"上海黄浦区人民广场博物馆前"},{"poiid":"B2094757D06EAAFF4898","title":"呷哺呷哺 黄浦迪美店","lon":"121.471745","lat":"31.228894","category":"86","category_name":"火锅店","address":"人民大道221号B1楼迪美购物中心近武胜路"},{"poiid":"B2094757D064A3FD449F","title":"一号线人民广场站","lon":"121.472942738","lat":"31.2278892502","category":"500","category_name":"未知分类","address":"上海轨道交通1，2，8号线"},{"poiid":"B2094757D06FA3F4439E","title":"上海市人民政府","lon":"121.47373199","lat":"31.230110168","category":"260","category_name":"其他","address":"上海人民大道200号"},{"poiid":"B2094757D06FA7F94199","title":"市政大厦","lon":"121.472011","lat":"31.226881","category":"46","category_name":"楼宇","address":"上海市黄浦区大沽路100号"},{"poiid":"B2094757DB68AAFA4693","title":"一线烫捞 香港名店街店","lon":"121.4740761","lat":"31.2297022","category":"68","category_name":"快餐厅","address":"黄浦区人民大道9-99号香港名店街45B-55号商铺(近人民广场)"},{"poiid":"B2094757D068A3F54292","title":"二百永新大厦","lon":"121.472368","lat":"31.226048","category":"46","category_name":"楼宇","address":"上海淮海中路887号"},{"poiid":"B2094757D06FA2FB4899","title":"冰期时代(迪美店)","lon":"121.47475","lat":"31.22708","category":"113","category_name":"冷饮店","address":"黄浦区人民大道221号迪美购物中心225号商铺(近武胜路)"},{"poiid":"B2094757D06FA0FB4893","title":"马威斯HAIR IN SALON(迪美店)","lon":"121.473351","lat":"31.2285","category":"148","category_name":"美容美发店","address":"上海黄浦区人民大道221号迪美购物中心kfc旁"},{"poiid":"B2094757D06FA0FD459E","title":"味千拉面(迪美店)","lon":"121.47302","lat":"31.22833","category":"95","category_name":"日本料理","address":"黄浦区人民大道221号迪美购物中心内(近武胜路)"},{"poiid":"B2094757D068A2FF429B","title":"电信大楼","lon":"121.473292093","lat":"31.226889133","category":"46","category_name":"楼宇","address":"上海武胜路333号"},{"poiid":"B2094654DB6BABFE4598","title":"马克西姆西餐厅 Maxim's","lon":"121.47126716885","lat":"31.228677607786","category":"97","category_name":"法式菜品餐厅","address":"黄陂北路200号上海大剧院1楼近人民大道"},{"poiid":"B2094757D56DABF5419F","title":"中山公园龙之梦","lon":"121.47514343261719","lat":"31.227481631987086","category":"251","category_name":"出行住宿","address":"上海 上海市 中山公园龙之梦"},{"poiid":"B2094757D06FA7F8489E","title":"DQ冰雪皇后(迪美店)","lon":"121.47378","lat":"31.22833","category":"113","category_name":"冷饮店","address":"黄浦区武胜路218号迪美购物中心(近人民广场)"},{"poiid":"B2094757D068A7FA4792","title":"延中广场公园","lon":"121.474751441","lat":"31.2255222197","category":"196","category_name":"公园","address":"上海延安中路金陵中路间"},{"poiid":"B2094757D06FA7FE4198","title":"武胜路人民广场站(公交112,123,145,952,952B终)","lon":"121.474035682","lat":"31.2269005782","category":"38","category_name":"公交车站","address":"上海市黄浦区武胜路黄陂北路"},{"poiid":"B2094752D365A2F84093","title":"西贝西北菜","lon":"121.473495","lat":"31.229059","category":"247","category_name":"餐饮美食","address":"南京东路"},{"poiid":"B2094750D26DA1FF459A","title":"上海广场（原无限度广场）","lon":"121.4739733622222","lat":"31.22735138333332","category":"119","category_name":"商场","address":"上海淮海中路138号"},{"poiid":"B2094757D164A5F54398","title":"望星空宴会厅","lon":"121.47267073","lat":"31.226613223","category":"247","category_name":"餐饮美食","address":"上海大剧院八楼"},{"poiid":"B2094757D16EA6FA469B","title":"满记甜品","lon":"121.47375594","lat":"31.227703196","category":"247","category_name":"餐饮美食","address":"上海南京路"},{"poiid":"B2094750DB6DABFB459C","title":"风云再起","lon":"121.474792","lat":"31.227998","category":"248","category_name":"生活娱乐","address":"黄浦区人民大道221号迪美购物中心B1楼(近武胜路)"},{"poiid":"B2094757D068A4F9409E","title":"上海市黄浦区人民法院","lon":"121.47189331","lat":"31.225976944","category":"608","category_name":"法院","address":"上海市延安东路1234号"},{"poiid":"B2094757DA64AAF44398","title":"M&S cafe","lon":"121.473258","lat":"31.227341","category":"247","category_name":"餐饮美食","address":"上海市淮海中路96号金钟广场M&S内"},{"poiid":"B2094757D069A2FD429E","title":"电信世界","lon":"121.47264099","lat":"31.226232528","category":"151","category_name":"电讯营业厅","address":"上海黄浦区延安东路1200号"},{"poiid":"B2094750DB6DA7FB489B","title":"上海歌城","lon":"121.475082","lat":"31.2259","category":"170","category_name":"KTV","address":null},{"poiid":"B2094750DB65A1FB469E","title":"西藏中路168号都市总部大楼","lon":"121.474624","lat":"31.228435","category":"252","category_name":"楼宇机构","address":"西藏中路168号都市总部大楼"},{"poiid":"B2094757D068A0F54892","title":"林记小厨","lon":"121.470973738","lat":"31.2274302404","category":"247","category_name":"餐饮美食","address":"上海黄浦区黄陂北路227号中区广场二楼"},{"poiid":"B2094753D26EA1FC409A","title":"虹口足球场","lon":"121.474482","lat":"31.229645","category":"220","category_name":"运动场所","address":"上海市 东江湾路444号"},{"poiid":"B2094753D26DA0FD4298","title":"揽香","lon":"121.474487","lat":"31.22551","category":"247","category_name":"餐饮美食","address":"上海市 上海市淮海中路381号中环广场3楼"},{"poiid":"B2094757D068A7FA409D","title":"果留仙(迪美店)","lon":"121.475614338","lat":"31.227692246","category":"500","category_name":"未知分类","address":"上海市黄浦区迪美购物中心内"},{"poiid":"B2094655D26EABFB4099","title":"上海电信世界大厦","lon":"121.47264","lat":"31.22622","category":"46","category_name":"楼宇","address":"延安东路1200"},{"poiid":"B2094654DA68A3FB4199","title":"黄浦政法大楼","lon":"121.47194","lat":"31.22642","category":"68","category_name":"快餐厅","address":"黄浦区大沽路123号2楼(近重庆北路)"},{"poiid":"B2094750D56EA7F8439D","title":"梅塞德斯奔驰文化中心","lon":"121.474609","lat":"31.226078","category":"500","category_name":"未知分类","address":null},{"poiid":"B2094750DB6DAAFB499D","title":"江边城外巫山烤全鱼","lon":"121.4754","lat":"31.2287","category":"247","category_name":"餐饮美食","address":null},{"poiid":"B2094757D164A2FE429A","title":"上海博物馆餐厅","lon":"121.47394","lat":"31.22995","category":"68","category_name":"快餐厅","address":"黄浦区人民大道201号上海博物馆侧(近武胜路)  "},{"poiid":"B2094757D06BA4FD459D","title":"粉色妈妈(迪美店)","lon":"121.47473273","lat":"31.228789269","category":"67","category_name":"甜品店","address":"黄浦区武胜路218号迪美购物中心(屈臣氏对面11月1号开张)"},{"poiid":"B2094757D06FA7FD419A","title":"西树泡芙(国金中心店)","lon":"121.4740912","lat":"31.227401666","category":"67","category_name":"甜品店","address":"上海浦东新区世纪大道8号国金中心商场LG2"},{"poiid":"B209475DD16EAAF5469F","title":"清水日本料理（仙乐斯店）","lon":"121.473731","lat":"31.229269","category":"500","category_name":"未知分类","address":"上海市 南京西路388号仙乐斯广场3楼309-311室(黄坡北路口)"},{"poiid":"B2094654D564A5FA429C","title":"鑫兴大厦","lon":"121.473","lat":"31.229","category":"46","category_name":"楼宇","address":"上海巨鹿路137号"},{"poiid":"B2094655D265A6F9429A","title":"妯娌老鸭粉丝 武胜路店","lon":"121.471829054","lat":"31.227370793","category":"68","category_name":"快餐厅","address":"黄浦区武胜路237号(普安路延安东路)"}]