[{"poiid":"B2094757D06FA0FD4498","title":"上海大众汽车三厂","lon":"121.18375172","lat":"31.2878409011","category":"46","category_name":"楼宇","address":"上海嘉定区曹安公路5288号"},{"poiid":"B2094757D068A0F9429F","title":"汽车博览公园","lon":"121.17890148","lat":"31.279719137","category":"196","category_name":"公园","address":"嘉定区安亭博园路7001号"},{"poiid":"B2094757D06FA7FF4993","title":"上海汽车会展中心","lon":"121.16795928","lat":"31.278010673","category":"260","category_name":"其他","address":"嘉定区安亭博园路7575号"},{"poiid":"B2094757D16FABFB479C","title":"嘉亭荟城市生活广场","lon":"121.165837289","lat":"31.2809907347","category":"500","category_name":"未知分类","address":"嘉定区墨玉南路1055号"},{"poiid":"B2094757D06FA7FF499B","title":"上海汽车城地铁站","lon":"121.18055783","lat":"31.285682395","category":"36","category_name":"地铁站","address":"上海轨道交通 十一号线 轨交上海汽车城站 11"},{"poiid":"B2094757D66EA2FC479C","title":"上海颖奕高尔夫皇冠假日酒店","lon":"121.19218601165676","lat":"31.272550158135264","category":"214","category_name":"四星级宾馆","address":"上海市嘉定区博园路6555号"},{"poiid":"B2094757D06FA5F54892","title":"汽车博物馆","lon":"121.17047944","lat":"31.278213122","category":"182","category_name":"博物馆","address":"嘉定区安亭博园路7565号(近墨玉南路)"},{"poiid":"B2094654D46BA0FF4793","title":"上海汽车集团股份有限公司","lon":"121.18931","lat":"31.2774","category":"263","category_name":"公司","address":"上海市嘉定区安研路201号"},{"poiid":"B2094654D46BA0FF4899","title":"上海国际汽车城大厦","lon":"121.172","lat":"31.2875","category":"46","category_name":"楼宇","address":"上海市嘉定区安亭镇墨玉南路888号"},{"poiid":"B2094654DB65A0F4409F","title":"上海大众汽车二厂","lon":"121.17913","lat":"31.29665","category":"263","category_name":"公司","address":"昌吉路82"},{"poiid":"B2094655D36CA4FD469C","title":"安亭镇","lon":"121.16529","lat":"31.29153","category":"38","category_name":"公交车站","address":""},{"poiid":"B2094757D06FA6F44093","title":"安亭新镇","lon":"121.17115377","lat":"31.27022459","category":"47","category_name":"住宅区","address":"安亭镇北安德路255号"},{"poiid":"B2094757D06FA3F9499A","title":"台商庙会","lon":"121.1678981","lat":"31.2805262","category":"91","category_name":"台湾菜","address":"嘉定区博园路7575号(近汽车城)"},{"poiid":"B2094757D06BA6FB499D","title":"上海颖奕安亭高尔夫俱乐部","lon":"121.190217789","lat":"31.2716796532","category":"500","category_name":"未知分类","address":"上海市嘉定区安亭镇博园路6555号201824"},{"poiid":"B2094655D36DA6FE449B","title":"上海汽车城","lon":"121.18056","lat":"31.28567","category":"38","category_name":"公交车站","address":""},{"poiid":"B2094654D46BA2F8459B","title":"国家机动车产品质量监督检验中心(上海)","lon":"121.18338","lat":"31.28162","category":"250","category_name":"公园户外","address":"于田南路68"},{"poiid":"B2094757D164A3FC499A","title":"新城尚上城","lon":"121.182289889","lat":"31.285235322","category":"47","category_name":"住宅区","address":"上海嘉定安亭安谐路8弄16号"},{"poiid":"B2094757D06AA3FF4899","title":"景怡轩中餐厅","lon":"121.17162","lat":"31.283","category":"76","category_name":"上海菜","address":"嘉定区安驰路569号(近国际汽车城)"},{"poiid":"B2094757D064A6FD469C","title":"大众汽车三厂食堂","lon":"121.18436","lat":"31.28741","category":"68","category_name":"快餐厅","address":"嘉定区曹安公路5288号大众汽车三厂"},{"poiid":"B2094654DB65A3FE4492","title":"上海机动车检测中心","lon":"121.18338","lat":"31.28162","category":"250","category_name":"公园户外","address":"于田南路68"},{"poiid":"B2094757D064A3F94299","title":"上海大众二厂","lon":"121.181262789","lat":"31.2940439032","category":"500","category_name":"未知分类","address":"上海昌吉路81号"},{"poiid":"B2094654DB65A2F4419A","title":"上海国际汽车城","lon":"121.17235","lat":"31.28267","category":"158","category_name":"汽车销售","address":"安驰路569号"},{"poiid":"B2094757D06AA7FE4493","title":"a corner cafe","lon":"121.182784789","lat":"31.284654185","category":"500","category_name":"未知分类","address":"台北八德路四段106巷2弄1號1F"},{"poiid":"B2094757D16FA3FA449D","title":"世贸汽车销售公司","lon":"121.1815431","lat":"31.28563136","category":"500","category_name":"未知分类","address":"上海安亭安驰路"},{"poiid":"B2094654D46BA2F8449F","title":"上海泰士杰汽车销售有限公司","lon":"121.17946","lat":"31.28459","category":"158","category_name":"汽车销售","address":"嘉定区安驰路266号(近米泉南路)"},{"poiid":"B2094757D56CA6FA469C","title":"芋贵人甜品店 嘉定老街店","lon":"121.1759783","lat":"31.2845251","category":"67","category_name":"甜品店","address":"东大街457号近博乐路"},{"poiid":"B2094654D46BA2F94992","title":"上海协通驰骋","lon":"121.17823","lat":"31.28475","category":"159","category_name":"汽车维修","address":"安亭镇安驰路278号"},{"poiid":"B2094655D36CA5FB479B","title":"博园路于田路","lon":"121.17979","lat":"31.28042","category":"38","category_name":"公交车站","address":""},{"poiid":"B2094654DB64A4FC439C","title":"上海世贸汽车贸易有限公司","lon":"121.18391","lat":"31.28354","category":"158","category_name":"汽车销售","address":"嘉定区嘉定区安驰路8号(安亭国际汽车城内)"},{"poiid":"B2094757D16CA3F84993","title":"上海大众汽车发动机一厂","lon":"121.188883589","lat":"31.2991148075","category":"500","category_name":"未知分类","address":"上海于田路昌吉路"},{"poiid":"B2094757D66DA7F54599","title":"海伦小区食堂","lon":"121.17920628","lat":"31.288300885","category":"247","category_name":"餐饮美食","address":"上海市嘉定区嘉朱公路汇旺东路"},{"poiid":"B2094654DB64A4FF449D","title":"上海沃路捷汽车服务有限公司","lon":"121.18391","lat":"31.28354","category":"159","category_name":"汽车维修","address":"嘉定区安驰路8号(安亭国际汽车城内)"},{"poiid":"B2094654D46BA0FF489A","title":"上海汽车集团股份有限公司技术中心","lon":"121.18931","lat":"31.2774","category":"191","category_name":"科研机构","address":"安研路201号"},{"poiid":"B2094655D36CA5FB4799","title":"博园路米泉南路","lon":"121.17505","lat":"31.28233","category":"38","category_name":"公交车站","address":""},{"poiid":"B2094654DB69A6FC479D","title":"巴黎时光","lon":"121.17556","lat":"31.2858","category":"47","category_name":"住宅区","address":"宝山区凇南路459号"},{"poiid":"B2094654DB65A2F9409A","title":"魏玛原墅","lon":"121.185","lat":"31.2769","category":"47","category_name":"住宅区","address":"安礼路118弄"},{"poiid":"B2094757D064A3FC489E","title":"舍弗勒集团","lon":"121.1938899","lat":"31.27754","category":"46","category_name":"楼宇","address":"上海市嘉定区安亭镇安拓路1号"},{"poiid":"B2094757D168A1FC419C","title":"建华面馆","lon":"121.182495289","lat":"31.2896199122","category":"247","category_name":"餐饮美食","address":"上海近郊嘉定区安亭镇昌吉路  "},{"poiid":"B2094654D46BA0FB4599","title":"上海博泽汽车部件有限公司","lon":"121.17816","lat":"31.2866","category":"263","category_name":"公司","address":"塔山路585"},{"poiid":"B2094757D06AA3F54998","title":"上海汽车动力总成大楼","lon":"121.19175638","lat":"31.279763642","category":"46","category_name":"楼宇","address":"上海安研路201号"},{"poiid":"B2094757D06BA1F5499C","title":"上海浦东汽车城","lon":"121.18547058","lat":"31.284980773","category":"500","category_name":"未知分类","address":"上海11号线"},{"poiid":"B2094655D26FA2FB4198","title":"上海捷路沃汽车服务有限公司安亭分公司","lon":"121.1848","lat":"31.28367","category":"158","category_name":"汽车销售","address":"嘉定区安弛路8号(安亭国际汽车城内)"},{"poiid":"B2094757D064ABFB499A","title":"上海汽车1号研发楼","lon":"121.189918835","lat":"31.2778144305","category":"46","category_name":"楼宇","address":"上海市嘉定区安研路201号"},{"poiid":"B2094655D36DA1FF419E","title":"塔山路桥","lon":"121.17808","lat":"31.28892","category":"250","category_name":"公园户外","address":""},{"poiid":"B2094655D26FA1FA4893","title":"上海汽车博览公园(东门)","lon":"121.17947","lat":"31.27985","category":"158","category_name":"汽车销售","address":"博园路7001、7555"},{"poiid":"B2094655D264A5FF419C","title":"大众汽车二厂食堂","lon":"121.18029","lat":"31.29506","category":"68","category_name":"快餐厅","address":"嘉定区昌吉路82号上海大众汽车二厂(近塔山路)"},{"poiid":"B2094757D16FA4FF409D","title":"上海汽车2号研发楼","lon":"121.190345837","lat":"31.2785464292","category":"46","category_name":"楼宇","address":"上海市嘉定区安研路201号"},{"poiid":"B2094757D66EA1FF4398","title":"上海国际汽车城发展有限公司","lon":"121.178594","lat":"31.289554","category":"500","category_name":"未知分类","address":"上海安亭镇安驰路569号"},{"poiid":"B2094757D164A1FB429F","title":"阿国饭店","lon":"121.175922289","lat":"31.2912679461","category":"257","category_name":"中餐厅","address":"嘉定区安亭镇米泉路(昌吉路米泉路)"},{"poiid":"B2094757D16FA4F9489F","title":"东昌奥迪","lon":"121.17187328","lat":"31.283128778","category":"263","category_name":"公司","address":"上海博园路"},{"poiid":"B2094757D06FA0FD4498","title":"上海大众汽车三厂","lon":"121.18375172","lat":"31.2878409011","category":"46","category_name":"楼宇","address":"上海嘉定区曹安公路5288号"},{"poiid":"B2094757D068A0F9429F","title":"汽车博览公园","lon":"121.17890148","lat":"31.279719137","category":"196","category_name":"公园","address":"嘉定区安亭博园路7001号"},{"poiid":"B2094757D06FA7FF4993","title":"上海汽车会展中心","lon":"121.16795928","lat":"31.278010673","category":"260","category_name":"其他","address":"嘉定区安亭博园路7575号"},{"poiid":"B2094757D16FABFB479C","title":"嘉亭荟城市生活广场","lon":"121.165837289","lat":"31.2809907347","category":"500","category_name":"未知分类","address":"嘉定区墨玉南路1055号"},{"poiid":"B2094757D06FA7FF499B","title":"上海汽车城地铁站","lon":"121.18055783","lat":"31.285682395","category":"36","category_name":"地铁站","address":"上海轨道交通 十一号线 轨交上海汽车城站 11"},{"poiid":"B2094757D66EA2FC479C","title":"上海颖奕高尔夫皇冠假日酒店","lon":"121.19218601165676","lat":"31.272550158135264","category":"214","category_name":"四星级宾馆","address":"上海市嘉定区博园路6555号"},{"poiid":"B2094757D06FA5F54892","title":"汽车博物馆","lon":"121.17047944","lat":"31.278213122","category":"182","category_name":"博物馆","address":"嘉定区安亭博园路7565号(近墨玉南路)"},{"poiid":"B2094654D46BA0FF4793","title":"上海汽车集团股份有限公司","lon":"121.18931","lat":"31.2774","category":"263","category_name":"公司","address":"上海市嘉定区安研路201号"},{"poiid":"B2094654D46BA0FF4899","title":"上海国际汽车城大厦","lon":"121.172","lat":"31.2875","category":"46","category_name":"楼宇","address":"上海市嘉定区安亭镇墨玉南路888号"},{"poiid":"B2094654DB65A0F4409F","title":"上海大众汽车二厂","lon":"121.17913","lat":"31.29665","category":"263","category_name":"公司","address":"昌吉路82"},{"poiid":"B2094655D36CA4FD469C","title":"安亭镇","lon":"121.16529","lat":"31.29153","category":"38","category_name":"公交车站","address":""},{"poiid":"B2094757D06FA6F44093","title":"安亭新镇","lon":"121.17115377","lat":"31.27022459","category":"47","category_name":"住宅区","address":"安亭镇北安德路255号"},{"poiid":"B2094757D06FA3F9499A","title":"台商庙会","lon":"121.1678981","lat":"31.2805262","category":"91","category_name":"台湾菜","address":"嘉定区博园路7575号(近汽车城)"},{"poiid":"B2094757D06BA6FB499D","title":"上海颖奕安亭高尔夫俱乐部","lon":"121.190217789","lat":"31.2716796532","category":"500","category_name":"未知分类","address":"上海市嘉定区安亭镇博园路6555号201824"},{"poiid":"B2094655D36DA6FE449B","title":"上海汽车城","lon":"121.18056","lat":"31.28567","category":"38","category_name":"公交车站","address":""},{"poiid":"B2094654D46BA2F8459B","title":"国家机动车产品质量监督检验中心(上海)","lon":"121.18338","lat":"31.28162","category":"250","category_name":"公园户外","address":"于田南路68"},{"poiid":"B2094757D164A3FC499A","title":"新城尚上城","lon":"121.182289889","lat":"31.285235322","category":"47","category_name":"住宅区","address":"上海嘉定安亭安谐路8弄16号"},{"poiid":"B2094757D06AA3FF4899","title":"景怡轩中餐厅","lon":"121.17162","lat":"31.283","category":"76","category_name":"上海菜","address":"嘉定区安驰路569号(近国际汽车城)"},{"poiid":"B2094757D064A6FD469C","title":"大众汽车三厂食堂","lon":"121.18436","lat":"31.28741","category":"68","category_name":"快餐厅","address":"嘉定区曹安公路5288号大众汽车三厂"},{"poiid":"B2094654DB65A3FE4492","title":"上海机动车检测中心","lon":"121.18338","lat":"31.28162","category":"250","category_name":"公园户外","address":"于田南路68"},{"poiid":"B2094757D064A3F94299","title":"上海大众二厂","lon":"121.181262789","lat":"31.2940439032","category":"500","category_name":"未知分类","address":"上海昌吉路81号"},{"poiid":"B2094654DB65A2F4419A","title":"上海国际汽车城","lon":"121.17235","lat":"31.28267","category":"158","category_name":"汽车销售","address":"安驰路569号"},{"poiid":"B2094757D06AA7FE4493","title":"a corner cafe","lon":"121.182784789","lat":"31.284654185","category":"500","category_name":"未知分类","address":"台北八德路四段106巷2弄1號1F"},{"poiid":"B2094757D16FA3FA449D","title":"世贸汽车销售公司","lon":"121.1815431","lat":"31.28563136","category":"500","category_name":"未知分类","address":"上海安亭安驰路"},{"poiid":"B2094654D46BA2F8449F","title":"上海泰士杰汽车销售有限公司","lon":"121.17946","lat":"31.28459","category":"158","category_name":"汽车销售","address":"嘉定区安驰路266号(近米泉南路)"},{"poiid":"B2094757D56CA6FA469C","title":"芋贵人甜品店 嘉定老街店","lon":"121.1759783","lat":"31.2845251","category":"67","category_name":"甜品店","address":"东大街457号近博乐路"},{"poiid":"B2094654D46BA2F94992","title":"上海协通驰骋","lon":"121.17823","lat":"31.28475","category":"159","category_name":"汽车维修","address":"安亭镇安驰路278号"},{"poiid":"B2094655D36CA5FB479B","title":"博园路于田路","lon":"121.17979","lat":"31.28042","category":"38","category_name":"公交车站","address":""},{"poiid":"B2094654DB64A4FC439C","title":"上海世贸汽车贸易有限公司","lon":"121.18391","lat":"31.28354","category":"158","category_name":"汽车销售","address":"嘉定区嘉定区安驰路8号(安亭国际汽车城内)"},{"poiid":"B2094757D16CA3F84993","title":"上海大众汽车发动机一厂","lon":"121.188883589","lat":"31.2991148075","category":"500","category_name":"未知分类","address":"上海于田路昌吉路"},{"poiid":"B2094757D66DA7F54599","title":"海伦小区食堂","lon":"121.17920628","lat":"31.288300885","category":"247","category_name":"餐饮美食","address":"上海市嘉定区嘉朱公路汇旺东路"},{"poiid":"B2094654DB64A4FF449D","title":"上海沃路捷汽车服务有限公司","lon":"121.18391","lat":"31.28354","category":"159","category_name":"汽车维修","address":"嘉定区安驰路8号(安亭国际汽车城内)"},{"poiid":"B2094654D46BA0FF489A","title":"上海汽车集团股份有限公司技术中心","lon":"121.18931","lat":"31.2774","category":"191","category_name":"科研机构","address":"安研路201号"},{"poiid":"B2094655D36CA5FB4799","title":"博园路米泉南路","lon":"121.17505","lat":"31.28233","category":"38","category_name":"公交车站","address":""},{"poiid":"B2094654DB69A6FC479D","title":"巴黎时光","lon":"121.17556","lat":"31.2858","category":"47","category_name":"住宅区","address":"宝山区凇南路459号"},{"poiid":"B2094654DB65A2F9409A","title":"魏玛原墅","lon":"121.185","lat":"31.2769","category":"47","category_name":"住宅区","address":"安礼路118弄"},{"poiid":"B2094757D064A3FC489E","title":"舍弗勒集团","lon":"121.1938899","lat":"31.27754","category":"46","category_name":"楼宇","address":"上海市嘉定区安亭镇安拓路1号"},{"poiid":"B2094757D168A1FC419C","title":"建华面馆","lon":"121.182495289","lat":"31.2896199122","category":"247","category_name":"餐饮美食","address":"上海近郊嘉定区安亭镇昌吉路  "},{"poiid":"B2094654D46BA0FB4599","title":"上海博泽汽车部件有限公司","lon":"121.17816","lat":"31.2866","category":"263","category_name":"公司","address":"塔山路585"},{"poiid":"B2094757D06AA3F54998","title":"上海汽车动力总成大楼","lon":"121.19175638","lat":"31.279763642","category":"46","category_name":"楼宇","address":"上海安研路201号"},{"poiid":"B2094757D06BA1F5499C","title":"上海浦东汽车城","lon":"121.18547058","lat":"31.284980773","category":"500","category_name":"未知分类","address":"上海11号线"},{"poiid":"B2094655D26FA2FB4198","title":"上海捷路沃汽车服务有限公司安亭分公司","lon":"121.1848","lat":"31.28367","category":"158","category_name":"汽车销售","address":"嘉定区安弛路8号(安亭国际汽车城内)"},{"poiid":"B2094757D064ABFB499A","title":"上海汽车1号研发楼","lon":"121.189918835","lat":"31.2778144305","category":"46","category_name":"楼宇","address":"上海市嘉定区安研路201号"},{"poiid":"B2094655D36DA1FF419E","title":"塔山路桥","lon":"121.17808","lat":"31.28892","category":"250","category_name":"公园户外","address":""},{"poiid":"B2094655D26FA1FA4893","title":"上海汽车博览公园(东门)","lon":"121.17947","lat":"31.27985","category":"158","category_name":"汽车销售","address":"博园路7001、7555"},{"poiid":"B2094655D264A5FF419C","title":"大众汽车二厂食堂","lon":"121.18029","lat":"31.29506","category":"68","category_name":"快餐厅","address":"嘉定区昌吉路82号上海大众汽车二厂(近塔山路)"},{"poiid":"B2094757D16FA4FF409D","title":"上海汽车2号研发楼","lon":"121.190345837","lat":"31.2785464292","category":"46","category_name":"楼宇","address":"上海市嘉定区安研路201号"},{"poiid":"B2094757D66EA1FF4398","title":"上海国际汽车城发展有限公司","lon":"121.178594","lat":"31.289554","category":"500","category_name":"未知分类","address":"上海安亭镇安驰路569号"},{"poiid":"B2094757D164A1FB429F","title":"阿国饭店","lon":"121.175922289","lat":"31.2912679461","category":"257","category_name":"中餐厅","address":"嘉定区安亭镇米泉路(昌吉路米泉路)"},{"poiid":"B2094757D16FA4F9489F","title":"东昌奥迪","lon":"121.17187328","lat":"31.283128778","category":"263","category_name":"公司","address":"上海博园路"},{"poiid":"B2094757D06FA0FD4498","title":"上海大众汽车三厂","lon":"121.18375172","lat":"31.2878409011","category":"46","category_name":"楼宇","address":"上海嘉定区曹安公路5288号"},{"poiid":"B2094757D068A0F9429F","title":"汽车博览公园","lon":"121.17890148","lat":"31.279719137","category":"196","category_name":"公园","address":"嘉定区安亭博园路7001号"},{"poiid":"B2094757D06FA7FF4993","title":"上海汽车会展中心","lon":"121.16795928","lat":"31.278010673","category":"260","category_name":"其他","address":"嘉定区安亭博园路7575号"},{"poiid":"B2094757D16FABFB479C","title":"嘉亭荟城市生活广场","lon":"121.165837289","lat":"31.2809907347","category":"500","category_name":"未知分类","address":"嘉定区墨玉南路1055号"},{"poiid":"B2094757D06FA7FF499B","title":"上海汽车城地铁站","lon":"121.18055783","lat":"31.285682395","category":"36","category_name":"地铁站","address":"上海轨道交通 十一号线 轨交上海汽车城站 11"},{"poiid":"B2094757D66EA2FC479C","title":"上海颖奕高尔夫皇冠假日酒店","lon":"121.19218601165676","lat":"31.272550158135264","category":"214","category_name":"四星级宾馆","address":"上海市嘉定区博园路6555号"},{"poiid":"B2094757D06FA5F54892","title":"汽车博物馆","lon":"121.17047944","lat":"31.278213122","category":"182","category_name":"博物馆","address":"嘉定区安亭博园路7565号(近墨玉南路)"},{"poiid":"B2094654D46BA0FF4793","title":"上海汽车集团股份有限公司","lon":"121.18931","lat":"31.2774","category":"263","category_name":"公司","address":"上海市嘉定区安研路201号"},{"poiid":"B2094654D46BA0FF4899","title":"上海国际汽车城大厦","lon":"121.172","lat":"31.2875","category":"46","category_name":"楼宇","address":"上海市嘉定区安亭镇墨玉南路888号"},{"poiid":"B2094654DB65A0F4409F","title":"上海大众汽车二厂","lon":"121.17913","lat":"31.29665","category":"263","category_name":"公司","address":"昌吉路82"},{"poiid":"B2094655D36CA4FD469C","title":"安亭镇","lon":"121.16529","lat":"31.29153","category":"38","category_name":"公交车站","address":""},{"poiid":"B2094757D06FA6F44093","title":"安亭新镇","lon":"121.17115377","lat":"31.27022459","category":"47","category_name":"住宅区","address":"安亭镇北安德路255号"},{"poiid":"B2094757D06FA3F9499A","title":"台商庙会","lon":"121.1678981","lat":"31.2805262","category":"91","category_name":"台湾菜","address":"嘉定区博园路7575号(近汽车城)"},{"poiid":"B2094757D06BA6FB499D","title":"上海颖奕安亭高尔夫俱乐部","lon":"121.190217789","lat":"31.2716796532","category":"500","category_name":"未知分类","address":"上海市嘉定区安亭镇博园路6555号201824"},{"poiid":"B2094655D36DA6FE449B","title":"上海汽车城","lon":"121.18056","lat":"31.28567","category":"38","category_name":"公交车站","address":""},{"poiid":"B2094654D46BA2F8459B","title":"国家机动车产品质量监督检验中心(上海)","lon":"121.18338","lat":"31.28162","category":"250","category_name":"公园户外","address":"于田南路68"},{"poiid":"B2094757D164A3FC499A","title":"新城尚上城","lon":"121.182289889","lat":"31.285235322","category":"47","category_name":"住宅区","address":"上海嘉定安亭安谐路8弄16号"},{"poiid":"B2094757D06AA3FF4899","title":"景怡轩中餐厅","lon":"121.17162","lat":"31.283","category":"76","category_name":"上海菜","address":"嘉定区安驰路569号(近国际汽车城)"},{"poiid":"B2094757D064A6FD469C","title":"大众汽车三厂食堂","lon":"121.18436","lat":"31.28741","category":"68","category_name":"快餐厅","address":"嘉定区曹安公路5288号大众汽车三厂"},{"poiid":"B2094654DB65A3FE4492","title":"上海机动车检测中心","lon":"121.18338","lat":"31.28162","category":"250","category_name":"公园户外","address":"于田南路68"},{"poiid":"B2094757D064A3F94299","title":"上海大众二厂","lon":"121.181262789","lat":"31.2940439032","category":"500","category_name":"未知分类","address":"上海昌吉路81号"},{"poiid":"B2094654DB65A2F4419A","title":"上海国际汽车城","lon":"121.17235","lat":"31.28267","category":"158","category_name":"汽车销售","address":"安驰路569号"},{"poiid":"B2094757D06AA7FE4493","title":"a corner cafe","lon":"121.182784789","lat":"31.284654185","category":"500","category_name":"未知分类","address":"台北八德路四段106巷2弄1號1F"},{"poiid":"B2094757D16FA3FA449D","title":"世贸汽车销售公司","lon":"121.1815431","lat":"31.28563136","category":"500","category_name":"未知分类","address":"上海安亭安驰路"},{"poiid":"B2094654D46BA2F8449F","title":"上海泰士杰汽车销售有限公司","lon":"121.17946","lat":"31.28459","category":"158","category_name":"汽车销售","address":"嘉定区安驰路266号(近米泉南路)"},{"poiid":"B2094757D56CA6FA469C","title":"芋贵人甜品店 嘉定老街店","lon":"121.1759783","lat":"31.2845251","category":"67","category_name":"甜品店","address":"东大街457号近博乐路"},{"poiid":"B2094654D46BA2F94992","title":"上海协通驰骋","lon":"121.17823","lat":"31.28475","category":"159","category_name":"汽车维修","address":"安亭镇安驰路278号"},{"poiid":"B2094655D36CA5FB479B","title":"博园路于田路","lon":"121.17979","lat":"31.28042","category":"38","category_name":"公交车站","address":""},{"poiid":"B2094654DB64A4FC439C","title":"上海世贸汽车贸易有限公司","lon":"121.18391","lat":"31.28354","category":"158","category_name":"汽车销售","address":"嘉定区嘉定区安驰路8号(安亭国际汽车城内)"},{"poiid":"B2094757D16CA3F84993","title":"上海大众汽车发动机一厂","lon":"121.188883589","lat":"31.2991148075","category":"500","category_name":"未知分类","address":"上海于田路昌吉路"},{"poiid":"B2094757D66DA7F54599","title":"海伦小区食堂","lon":"121.17920628","lat":"31.288300885","category":"247","category_name":"餐饮美食","address":"上海市嘉定区嘉朱公路汇旺东路"},{"poiid":"B2094654DB64A4FF449D","title":"上海沃路捷汽车服务有限公司","lon":"121.18391","lat":"31.28354","category":"159","category_name":"汽车维修","address":"嘉定区安驰路8号(安亭国际汽车城内)"},{"poiid":"B2094654D46BA0FF489A","title":"上海汽车集团股份有限公司技术中心","lon":"121.18931","lat":"31.2774","category":"191","category_name":"科研机构","address":"安研路201号"},{"poiid":"B2094655D36CA5FB4799","title":"博园路米泉南路","lon":"121.17505","lat":"31.28233","category":"38","category_name":"公交车站","address":""},{"poiid":"B2094654DB69A6FC479D","title":"巴黎时光","lon":"121.17556","lat":"31.2858","category":"47","category_name":"住宅区","address":"宝山区凇南路459号"},{"poiid":"B2094654DB65A2F9409A","title":"魏玛原墅","lon":"121.185","lat":"31.2769","category":"47","category_name":"住宅区","address":"安礼路118弄"},{"poiid":"B2094757D064A3FC489E","title":"舍弗勒集团","lon":"121.1938899","lat":"31.27754","category":"46","category_name":"楼宇","address":"上海市嘉定区安亭镇安拓路1号"},{"poiid":"B2094757D168A1FC419C","title":"建华面馆","lon":"121.182495289","lat":"31.2896199122","category":"247","category_name":"餐饮美食","address":"上海近郊嘉定区安亭镇昌吉路  "},{"poiid":"B2094654D46BA0FB4599","title":"上海博泽汽车部件有限公司","lon":"121.17816","lat":"31.2866","category":"263","category_name":"公司","address":"塔山路585"},{"poiid":"B2094757D06AA3F54998","title":"上海汽车动力总成大楼","lon":"121.19175638","lat":"31.279763642","category":"46","category_name":"楼宇","address":"上海安研路201号"},{"poiid":"B2094757D06BA1F5499C","title":"上海浦东汽车城","lon":"121.18547058","lat":"31.284980773","category":"500","category_name":"未知分类","address":"上海11号线"},{"poiid":"B2094655D26FA2FB4198","title":"上海捷路沃汽车服务有限公司安亭分公司","lon":"121.1848","lat":"31.28367","category":"158","category_name":"汽车销售","address":"嘉定区安弛路8号(安亭国际汽车城内)"},{"poiid":"B2094757D064ABFB499A","title":"上海汽车1号研发楼","lon":"121.189918835","lat":"31.2778144305","category":"46","category_name":"楼宇","address":"上海市嘉定区安研路201号"},{"poiid":"B2094655D36DA1FF419E","title":"塔山路桥","lon":"121.17808","lat":"31.28892","category":"250","category_name":"公园户外","address":""},{"poiid":"B2094655D26FA1FA4893","title":"上海汽车博览公园(东门)","lon":"121.17947","lat":"31.27985","category":"158","category_name":"汽车销售","address":"博园路7001、7555"},{"poiid":"B2094655D264A5FF419C","title":"大众汽车二厂食堂","lon":"121.18029","lat":"31.29506","category":"68","category_name":"快餐厅","address":"嘉定区昌吉路82号上海大众汽车二厂(近塔山路)"},{"poiid":"B2094757D16FA4FF409D","title":"上海汽车2号研发楼","lon":"121.190345837","lat":"31.2785464292","category":"46","category_name":"楼宇","address":"上海市嘉定区安研路201号"},{"poiid":"B2094757D66EA1FF4398","title":"上海国际汽车城发展有限公司","lon":"121.178594","lat":"31.289554","category":"500","category_name":"未知分类","address":"上海安亭镇安驰路569号"},{"poiid":"B2094757D164A1FB429F","title":"阿国饭店","lon":"121.175922289","lat":"31.2912679461","category":"257","category_name":"中餐厅","address":"嘉定区安亭镇米泉路(昌吉路米泉路)"},{"poiid":"B2094757D16FA4F9489F","title":"东昌奥迪","lon":"121.17187328","lat":"31.283128778","category":"263","category_name":"公司","address":"上海博园路"},{"poiid":"B2094757D06FA0FD4498","title":"上海大众汽车三厂","lon":"121.18375172","lat":"31.2878409011","category":"46","category_name":"楼宇","address":"上海嘉定区曹安公路5288号"},{"poiid":"B2094757D068A0F9429F","title":"汽车博览公园","lon":"121.17890148","lat":"31.279719137","category":"196","category_name":"公园","address":"嘉定区安亭博园路7001号"},{"poiid":"B2094757D06FA7FF4993","title":"上海汽车会展中心","lon":"121.16795928","lat":"31.278010673","category":"260","category_name":"其他","address":"嘉定区安亭博园路7575号"},{"poiid":"B2094757D16FABFB479C","title":"嘉亭荟城市生活广场","lon":"121.165837289","lat":"31.2809907347","category":"500","category_name":"未知分类","address":"嘉定区墨玉南路1055号"},{"poiid":"B2094757D06FA7FF499B","title":"上海汽车城地铁站","lon":"121.18055783","lat":"31.285682395","category":"36","category_name":"地铁站","address":"上海轨道交通 十一号线 轨交上海汽车城站 11"},{"poiid":"B2094757D66EA2FC479C","title":"上海颖奕高尔夫皇冠假日酒店","lon":"121.19218601165676","lat":"31.272550158135264","category":"214","category_name":"四星级宾馆","address":"上海市嘉定区博园路6555号"},{"poiid":"B2094757D06FA5F54892","title":"汽车博物馆","lon":"121.17047944","lat":"31.278213122","category":"182","category_name":"博物馆","address":"嘉定区安亭博园路7565号(近墨玉南路)"},{"poiid":"B2094654D46BA0FF4793","title":"上海汽车集团股份有限公司","lon":"121.18931","lat":"31.2774","category":"263","category_name":"公司","address":"上海市嘉定区安研路201号"},{"poiid":"B2094654D46BA0FF4899","title":"上海国际汽车城大厦","lon":"121.172","lat":"31.2875","category":"46","category_name":"楼宇","address":"上海市嘉定区安亭镇墨玉南路888号"},{"poiid":"B2094654DB65A0F4409F","title":"上海大众汽车二厂","lon":"121.17913","lat":"31.29665","category":"263","category_name":"公司","address":"昌吉路82"},{"poiid":"B2094655D36CA4FD469C","title":"安亭镇","lon":"121.16529","lat":"31.29153","category":"38","category_name":"公交车站","address":""},{"poiid":"B2094757D06FA6F44093","title":"安亭新镇","lon":"121.17115377","lat":"31.27022459","category":"47","category_name":"住宅区","address":"安亭镇北安德路255号"},{"poiid":"B2094757D06FA3F9499A","title":"台商庙会","lon":"121.1678981","lat":"31.2805262","category":"91","category_name":"台湾菜","address":"嘉定区博园路7575号(近汽车城)"},{"poiid":"B2094757D06BA6FB499D","title":"上海颖奕安亭高尔夫俱乐部","lon":"121.190217789","lat":"31.2716796532","category":"500","category_name":"未知分类","address":"上海市嘉定区安亭镇博园路6555号201824"},{"poiid":"B2094655D36DA6FE449B","title":"上海汽车城","lon":"121.18056","lat":"31.28567","category":"38","category_name":"公交车站","address":""},{"poiid":"B2094654D46BA2F8459B","title":"国家机动车产品质量监督检验中心(上海)","lon":"121.18338","lat":"31.28162","category":"250","category_name":"公园户外","address":"于田南路68"},{"poiid":"B2094757D164A3FC499A","title":"新城尚上城","lon":"121.182289889","lat":"31.285235322","category":"47","category_name":"住宅区","address":"上海嘉定安亭安谐路8弄16号"},{"poiid":"B2094757D06AA3FF4899","title":"景怡轩中餐厅","lon":"121.17162","lat":"31.283","category":"76","category_name":"上海菜","address":"嘉定区安驰路569号(近国际汽车城)"},{"poiid":"B2094757D064A6FD469C","title":"大众汽车三厂食堂","lon":"121.18436","lat":"31.28741","category":"68","category_name":"快餐厅","address":"嘉定区曹安公路5288号大众汽车三厂"},{"poiid":"B2094654DB65A3FE4492","title":"上海机动车检测中心","lon":"121.18338","lat":"31.28162","category":"250","category_name":"公园户外","address":"于田南路68"},{"poiid":"B2094757D064A3F94299","title":"上海大众二厂","lon":"121.181262789","lat":"31.2940439032","category":"500","category_name":"未知分类","address":"上海昌吉路81号"},{"poiid":"B2094654DB65A2F4419A","title":"上海国际汽车城","lon":"121.17235","lat":"31.28267","category":"158","category_name":"汽车销售","address":"安驰路569号"},{"poiid":"B2094757D06AA7FE4493","title":"a corner cafe","lon":"121.182784789","lat":"31.284654185","category":"500","category_name":"未知分类","address":"台北八德路四段106巷2弄1號1F"},{"poiid":"B2094757D16FA3FA449D","title":"世贸汽车销售公司","lon":"121.1815431","lat":"31.28563136","category":"500","category_name":"未知分类","address":"上海安亭安驰路"},{"poiid":"B2094654D46BA2F8449F","title":"上海泰士杰汽车销售有限公司","lon":"121.17946","lat":"31.28459","category":"158","category_name":"汽车销售","address":"嘉定区安驰路266号(近米泉南路)"},{"poiid":"B2094757D56CA6FA469C","title":"芋贵人甜品店 嘉定老街店","lon":"121.1759783","lat":"31.2845251","category":"67","category_name":"甜品店","address":"东大街457号近博乐路"},{"poiid":"B2094654D46BA2F94992","title":"上海协通驰骋","lon":"121.17823","lat":"31.28475","category":"159","category_name":"汽车维修","address":"安亭镇安驰路278号"},{"poiid":"B2094655D36CA5FB479B","title":"博园路于田路","lon":"121.17979","lat":"31.28042","category":"38","category_name":"公交车站","address":""},{"poiid":"B2094654DB64A4FC439C","title":"上海世贸汽车贸易有限公司","lon":"121.18391","lat":"31.28354","category":"158","category_name":"汽车销售","address":"嘉定区嘉定区安驰路8号(安亭国际汽车城内)"},{"poiid":"B2094757D16CA3F84993","title":"上海大众汽车发动机一厂","lon":"121.188883589","lat":"31.2991148075","category":"500","category_name":"未知分类","address":"上海于田路昌吉路"},{"poiid":"B2094757D66DA7F54599","title":"海伦小区食堂","lon":"121.17920628","lat":"31.288300885","category":"247","category_name":"餐饮美食","address":"上海市嘉定区嘉朱公路汇旺东路"},{"poiid":"B2094654DB64A4FF449D","title":"上海沃路捷汽车服务有限公司","lon":"121.18391","lat":"31.28354","category":"159","category_name":"汽车维修","address":"嘉定区安驰路8号(安亭国际汽车城内)"},{"poiid":"B2094654D46BA0FF489A","title":"上海汽车集团股份有限公司技术中心","lon":"121.18931","lat":"31.2774","category":"191","category_name":"科研机构","address":"安研路201号"},{"poiid":"B2094655D36CA5FB4799","title":"博园路米泉南路","lon":"121.17505","lat":"31.28233","category":"38","category_name":"公交车站","address":""},{"poiid":"B2094654DB69A6FC479D","title":"巴黎时光","lon":"121.17556","lat":"31.2858","category":"47","category_name":"住宅区","address":"宝山区凇南路459号"},{"poiid":"B2094654DB65A2F9409A","title":"魏玛原墅","lon":"121.185","lat":"31.2769","category":"47","category_name":"住宅区","address":"安礼路118弄"},{"poiid":"B2094757D064A3FC489E","title":"舍弗勒集团","lon":"121.1938899","lat":"31.27754","category":"46","category_name":"楼宇","address":"上海市嘉定区安亭镇安拓路1号"},{"poiid":"B2094757D168A1FC419C","title":"建华面馆","lon":"121.182495289","lat":"31.2896199122","category":"247","category_name":"餐饮美食","address":"上海近郊嘉定区安亭镇昌吉路  "},{"poiid":"B2094654D46BA0FB4599","title":"上海博泽汽车部件有限公司","lon":"121.17816","lat":"31.2866","category":"263","category_name":"公司","address":"塔山路585"},{"poiid":"B2094757D06AA3F54998","title":"上海汽车动力总成大楼","lon":"121.19175638","lat":"31.279763642","category":"46","category_name":"楼宇","address":"上海安研路201号"},{"poiid":"B2094757D06BA1F5499C","title":"上海浦东汽车城","lon":"121.18547058","lat":"31.284980773","category":"500","category_name":"未知分类","address":"上海11号线"},{"poiid":"B2094655D26FA2FB4198","title":"上海捷路沃汽车服务有限公司安亭分公司","lon":"121.1848","lat":"31.28367","category":"158","category_name":"汽车销售","address":"嘉定区安弛路8号(安亭国际汽车城内)"},{"poiid":"B2094757D064ABFB499A","title":"上海汽车1号研发楼","lon":"121.189918835","lat":"31.2778144305","category":"46","category_name":"楼宇","address":"上海市嘉定区安研路201号"},{"poiid":"B2094655D36DA1FF419E","title":"塔山路桥","lon":"121.17808","lat":"31.28892","category":"250","category_name":"公园户外","address":""},{"poiid":"B2094655D26FA1FA4893","title":"上海汽车博览公园(东门)","lon":"121.17947","lat":"31.27985","category":"158","category_name":"汽车销售","address":"博园路7001、7555"},{"poiid":"B2094655D264A5FF419C","title":"大众汽车二厂食堂","lon":"121.18029","lat":"31.29506","category":"68","category_name":"快餐厅","address":"嘉定区昌吉路82号上海大众汽车二厂(近塔山路)"},{"poiid":"B2094757D16FA4FF409D","title":"上海汽车2号研发楼","lon":"121.190345837","lat":"31.2785464292","category":"46","category_name":"楼宇","address":"上海市嘉定区安研路201号"},{"poiid":"B2094757D66EA1FF4398","title":"上海国际汽车城发展有限公司","lon":"121.178594","lat":"31.289554","category":"500","category_name":"未知分类","address":"上海安亭镇安驰路569号"},{"poiid":"B2094757D164A1FB429F","title":"阿国饭店","lon":"121.175922289","lat":"31.2912679461","category":"257","category_name":"中餐厅","address":"嘉定区安亭镇米泉路(昌吉路米泉路)"},{"poiid":"B2094757D16FA4F9489F","title":"东昌奥迪","lon":"121.17187328","lat":"31.283128778","category":"263","category_name":"公司","address":"上海博园路"}]