[{"poiid":"B2094757D06FA3F8429C","title":"淮海路","lon":"121.46398412","lat":"31.222631868","category":"260","category_name":"其他","address":"上海淮海路"},{"poiid":"B2094757D06EAAFA459D","title":"NAPOLEON  CHOCOLATE  BAR","lon":"121.4623558","lat":"31.222834","category":"67","category_name":"甜品店","address":"卢湾区巨鹿路242-2号(近瑞金一路)"},{"poiid":"B2094757D06FA2F4439B","title":"上海市中医医院(石门分院)","lon":"121.4631687","lat":"31.225289","category":"162","category_name":"医院","address":"静安区石门一路67弄1号(近大沽路)"},{"poiid":"B2094753D76FAAFA449C","title":"上海滩国泰旗舰店","lon":"121.466011","lat":"31.216125","category":"249","category_name":"购物服务","address":"淮海中路868号"},{"poiid":"B209475CD564A7F84292","title":"上海滩新天地店","lon":"121.47463","lat":"31.22164","category":"119","category_name":"商场","address":"\"太仓路181弄新天地北里15号\r\n\""},{"poiid":"B209475CD564A7F8439E","title":"上海滩中信泰富店","lon":"121.45602","lat":"31.22851","category":"119","category_name":"商场","address":"\"南京西路1168号中信泰富广场，店铺号221.\r\n\""},{"poiid":"B2094757D068A6F8419C","title":"慧公馆(巨鹿店)","lon":"121.46450224421505","lat":"31.223237790045474","category":"72","category_name":"广东菜","address":"卢湾区巨鹿路168号(近成都南路)"},{"poiid":"B2094757D064AAFF4898","title":"韩国艺匠婚纱摄影","lon":"121.460858238","lat":"31.2248422003","category":"611","category_name":"照相馆","address":"长宁区江苏路40号（近长宁路）"},{"poiid":"B2094757D068A3F9479B","title":"娘惹情(大沽路店)","lon":"121.46488","lat":"31.22493","category":"110","category_name":"其他亚洲菜","address":"静安区大沽路417号(近成都北路)"},{"poiid":"B2094757D068A3FE4699","title":"天天周末(巨鹿路店)","lon":"121.46443","lat":"31.22252","category":"173","category_name":"游戏厅","address":"卢湾区巨鹿路227号(近瑞金一路)"},{"poiid":"B2094654DB6BA6FC499A","title":"天手古舞 巨鹿路店 tentekomai","lon":"121.46271864293","lat":"31.222867030754","category":"95","category_name":"日本料理","address":"卢湾区巨鹿路242号(近瑞金一路)"},{"poiid":"B2094757D06EAAFC4399","title":"宝丽亚酒吧","lon":"121.46395","lat":"31.22278","category":"260","category_name":"其他","address":"卢湾区巨鹿路158号大同坊内(近成都南路)"},{"poiid":"B2094757D06EAAF44893","title":"DIY  SWEET","lon":"121.460994","lat":"31.225128","category":"67","category_name":"甜品店","address":"升平街15号近茂名北路"},{"poiid":"B2094654DA6CA2F54993","title":"萄醉(大沽路)","lon":"121.46442","lat":"31.2255","category":"94","category_name":"西餐厅","address":"静安区大沽路462号(近石门一路)"},{"poiid":"B2094757D068A0F54492","title":"中凯豪生酒店","lon":"121.46336","lat":"31.22589","category":"217","category_name":"旅馆招待所","address":"上海静安区石门一路118号(威海路口)  "},{"poiid":"B2094654D564ABF4449C","title":"襄阳大楼","lon":"121.462","lat":"31.2247","category":"46","category_name":"楼宇","address":"昌平区回龙观镇国际信息产业基地高新二街"},{"poiid":"B2094654DA6CA1F9479F","title":"上海市中医医院门诊部","lon":"121.4627","lat":"31.22518","category":"162","category_name":"医院","address":"石门一路67弄1乙"},{"poiid":"B2094757D66BA3F94593","title":"香料艺术印度餐厅 大沽路店 Masala Art","lon":"121.4643078311","lat":"31.225489783646","category":"102","category_name":"印度风味","address":"静安区大沽路397号(近成都北路)"},{"poiid":"B2094757D66FA7FF469A","title":"陕西大厦商务酒店","lon":"121.462763238","lat":"31.2241532706","category":"500","category_name":"未知分类","address":"静安区延安中路658号(近陕西北路)"},{"poiid":"B2094753DB68A4FE449E","title":"七克拉素食咖啡","lon":"121.462837","lat":"31.22306","category":"500","category_name":"未知分类","address":"上海市 巨鹿路242号"},{"poiid":"B2094750D664A6FD489C","title":"瑞美尔特面包房(石门一路店)","lon":"121.463","lat":"31.2262","category":"112","category_name":"糕饼店","address":"静安区石门一路88号(近威海路)"},{"poiid":"B2094757DB6CABF5469D","title":"1号线徐家汇站","lon":"121.462175","lat":"31.224322","category":"627","category_name":"一般地点标志","address":"徐家汇"},{"poiid":"B2094757D06AA2F4439E","title":"尧尧蟹王","lon":"121.463202738","lat":"31.2231531493","category":"257","category_name":"中餐厅","address":"卢湾区巨鹿路237-241号(近瑞金一路)"},{"poiid":"B2094757D66CA2F9499B","title":"龙之介炉端烧","lon":"121.46268673","lat":"31.222569136","category":"247","category_name":"餐饮美食","address":"上海市静安区巨鹿路"},{"poiid":"B2094751D569A0FB429F","title":"光明村大饭店","lon":"121.464417","lat":"31.223201","category":"247","category_name":"餐饮美食","address":"淮海路"},{"poiid":"B2094757D068A6FC489A","title":"名车酷精细洗车","lon":"121.463938","lat":"31.222979","category":"158","category_name":"汽车销售","address":"上海市卢湾区巨鹿路168号大同坊地下车库"},{"poiid":"B209475CD76CA7F4479C","title":"一风堂","lon":"121.462356","lat":"31.225759","category":"500","category_name":"未知分类","address":"上海市 静安区吴江路169号1层142号"},{"poiid":"B2094757D064ABFF4092","title":"秦粤轩","lon":"121.46102","lat":"31.22384","category":"84","category_name":"西北菜","address":"静安区延安中路658号陕西大厦商务酒店4楼(近茂名北路)"},{"poiid":"B2094757D464A7F9459D","title":"沧浪亭 静安店","lon":"121.463390054","lat":"31.225013793","category":"87","category_name":"特色／地方风味餐厅","address":"静安区大沽路509号(近石门一路)"},{"poiid":"B209475CDB65A0FB429F","title":"七克拉素食咖啡馆","lon":"121.463272","lat":"31.223033","category":"500","category_name":"未知分类","address":"上海市 卢湾区巨鹿路242"},{"poiid":"B209475CD565A4F54793","title":"HARU KITCHEN","lon":"121.461441","lat":"31.223556","category":"500","category_name":"未知分类","address":"上海市 陝西北路66號"},{"poiid":"B2094757D064AAFD489C","title":"五季坊保健会所","lon":"121.462259","lat":"31.223408","category":"149","category_name":"洗浴推拿场所","address":"徐汇区襄阳北路100号2楼(近淮海中路)"},{"poiid":"B2094757D068AAF44792","title":"海中鲜有机火锅","lon":"121.46323703","lat":"31.222325851","category":"86","category_name":"火锅店","address":"卢湾区长乐路398号(茂名南路口)"},{"poiid":"B2094757D16FA6F44593","title":"瑞金一路","lon":"121.46307173","lat":"31.222166128","category":"500","category_name":"未知分类","address":"上海市瑞金一路近巨鹿路"},{"poiid":"B2094654DA6CA1F94999","title":"上尊国际商务中心","lon":"121.46261","lat":"31.22426","category":"46","category_name":"楼宇","address":"上海市虹口区四川北路1318号"},{"poiid":"B2094655D265A6FE489F","title":"上海汽车工业大厦配套工程综合楼(Shanghai)","lon":"121.46284","lat":"31.22605","category":"46","category_name":"楼宇","address":"石门一路89号"},{"poiid":"B2094655D26AA0F44692","title":"哈达瑜伽会所茂名南路店","lon":"121.46102","lat":"31.22355","category":"247","category_name":"餐饮美食","address":"卢湾区茂名南路1号(近陕西南路)"},{"poiid":"B2094654DA6CA1FC4793","title":"多福里","lon":"121.46441","lat":"31.22471","category":"47","category_name":"住宅区","address":"延安中路504弄7-62号"},{"poiid":"B2094757D06BAAF8419F","title":"心一代(大沽路店)","lon":"121.46383","lat":"31.22479","category":"68","category_name":"快餐厅","address":"静安区大沽路547-3号(近石门一路)"},{"poiid":"B2094655D26DA3FC419F","title":"陕西大厦(延安中路)","lon":"121.46134","lat":"31.22422","category":"46","category_name":"楼宇","address":"延安中路658"},{"poiid":"B2094654DA6CA1F9479C","title":"上海市名老中医诊疗所","lon":"121.4627","lat":"31.22519","category":"162","category_name":"医院","address":"石门一路67弄1乙"},{"poiid":"B2094750D768A3FE4293","title":"杜六房茶餐部","lon":"121.464","lat":"31.2252","category":"72","category_name":"广东菜","address":"静安区大沽路517号-519号(石门一路口)"},{"poiid":"B2094655D36DA0F84292","title":"延安中路石门一路","lon":"121.46273","lat":"31.2241","category":"38","category_name":"公交车站","address":""},{"poiid":"B2094753D464AAF9489B","title":"夏沫咖啡馆","lon":"121.46199","lat":"31.224294","category":"65","category_name":"咖啡厅","address":"上海市 上海市延安中路632弄8号"},{"poiid":"B2094757D664AAFA449F","title":"阿牛嫂桂林米粉 大沽路店","lon":"121.463638054","lat":"31.225131793","category":"68","category_name":"快餐厅","address":"静安区大沽路545号(近石门一路)"},{"poiid":"B2094655D26CAAF9469F","title":"延安中路大型公共绿地静安段","lon":"121.46611","lat":"31.22468333","category":"196","category_name":"公园","address":""},{"poiid":"B2094757D06AA0FC4899","title":"Mio cafe","lon":"121.46308173","lat":"31.224672181","category":"260","category_name":"其他","address":"静安区延安中路632弄8号"},{"poiid":"B2094654DA6DA6FB409F","title":"金环大厦","lon":"121.46219688287","lat":"31.222356106824","category":"46","category_name":"楼宇","address":"襄阳南路485,489"},{"poiid":"B2094757D66AA6F5449B","title":"Beedees Coffee & Bar","lon":"121.464358054","lat":"31.224930793","category":"172","category_name":"酒吧","address":"静安区大沽路433号(近石门一路)"},{"poiid":"B2094753D56EABFC4193","title":"东方明珠","lon":"121.462242","lat":"31.224424","category":"500","category_name":"未知分类","address":"上海市 外滩"},{"poiid":"B2094757D06FA3F8429C","title":"淮海路","lon":"121.46398412","lat":"31.222631868","category":"260","category_name":"其他","address":"上海淮海路"},{"poiid":"B2094757D06EAAFA459D","title":"NAPOLEON  CHOCOLATE  BAR","lon":"121.4623558","lat":"31.222834","category":"67","category_name":"甜品店","address":"卢湾区巨鹿路242-2号(近瑞金一路)"},{"poiid":"B2094757D06FA2F4439B","title":"上海市中医医院(石门分院)","lon":"121.4631687","lat":"31.225289","category":"162","category_name":"医院","address":"静安区石门一路67弄1号(近大沽路)"},{"poiid":"B2094753D76FAAFA449C","title":"上海滩国泰旗舰店","lon":"121.466011","lat":"31.216125","category":"249","category_name":"购物服务","address":"淮海中路868号"},{"poiid":"B209475CD564A7F84292","title":"上海滩新天地店","lon":"121.47463","lat":"31.22164","category":"119","category_name":"商场","address":"\"太仓路181弄新天地北里15号\r\n\""},{"poiid":"B209475CD564A7F8439E","title":"上海滩中信泰富店","lon":"121.45602","lat":"31.22851","category":"119","category_name":"商场","address":"\"南京西路1168号中信泰富广场，店铺号221.\r\n\""},{"poiid":"B2094757D068A6F8419C","title":"慧公馆(巨鹿店)","lon":"121.46450224421505","lat":"31.223237790045474","category":"72","category_name":"广东菜","address":"卢湾区巨鹿路168号(近成都南路)"},{"poiid":"B2094757D064AAFF4898","title":"韩国艺匠婚纱摄影","lon":"121.460858238","lat":"31.2248422003","category":"611","category_name":"照相馆","address":"长宁区江苏路40号（近长宁路）"},{"poiid":"B2094757D068A3F9479B","title":"娘惹情(大沽路店)","lon":"121.46488","lat":"31.22493","category":"110","category_name":"其他亚洲菜","address":"静安区大沽路417号(近成都北路)"},{"poiid":"B2094757D068A3FE4699","title":"天天周末(巨鹿路店)","lon":"121.46443","lat":"31.22252","category":"173","category_name":"游戏厅","address":"卢湾区巨鹿路227号(近瑞金一路)"},{"poiid":"B2094654DB6BA6FC499A","title":"天手古舞 巨鹿路店 tentekomai","lon":"121.46271864293","lat":"31.222867030754","category":"95","category_name":"日本料理","address":"卢湾区巨鹿路242号(近瑞金一路)"},{"poiid":"B2094757D06EAAFC4399","title":"宝丽亚酒吧","lon":"121.46395","lat":"31.22278","category":"260","category_name":"其他","address":"卢湾区巨鹿路158号大同坊内(近成都南路)"},{"poiid":"B2094757D06EAAF44893","title":"DIY  SWEET","lon":"121.460994","lat":"31.225128","category":"67","category_name":"甜品店","address":"升平街15号近茂名北路"},{"poiid":"B2094654DA6CA2F54993","title":"萄醉(大沽路)","lon":"121.46442","lat":"31.2255","category":"94","category_name":"西餐厅","address":"静安区大沽路462号(近石门一路)"},{"poiid":"B2094757D068A0F54492","title":"中凯豪生酒店","lon":"121.46336","lat":"31.22589","category":"217","category_name":"旅馆招待所","address":"上海静安区石门一路118号(威海路口)  "},{"poiid":"B2094654D564ABF4449C","title":"襄阳大楼","lon":"121.462","lat":"31.2247","category":"46","category_name":"楼宇","address":"昌平区回龙观镇国际信息产业基地高新二街"},{"poiid":"B2094654DA6CA1F9479F","title":"上海市中医医院门诊部","lon":"121.4627","lat":"31.22518","category":"162","category_name":"医院","address":"石门一路67弄1乙"},{"poiid":"B2094757D66BA3F94593","title":"香料艺术印度餐厅 大沽路店 Masala Art","lon":"121.4643078311","lat":"31.225489783646","category":"102","category_name":"印度风味","address":"静安区大沽路397号(近成都北路)"},{"poiid":"B2094757D66FA7FF469A","title":"陕西大厦商务酒店","lon":"121.462763238","lat":"31.2241532706","category":"500","category_name":"未知分类","address":"静安区延安中路658号(近陕西北路)"},{"poiid":"B2094753DB68A4FE449E","title":"七克拉素食咖啡","lon":"121.462837","lat":"31.22306","category":"500","category_name":"未知分类","address":"上海市 巨鹿路242号"},{"poiid":"B2094750D664A6FD489C","title":"瑞美尔特面包房(石门一路店)","lon":"121.463","lat":"31.2262","category":"112","category_name":"糕饼店","address":"静安区石门一路88号(近威海路)"},{"poiid":"B2094757DB6CABF5469D","title":"1号线徐家汇站","lon":"121.462175","lat":"31.224322","category":"627","category_name":"一般地点标志","address":"徐家汇"},{"poiid":"B2094757D06AA2F4439E","title":"尧尧蟹王","lon":"121.463202738","lat":"31.2231531493","category":"257","category_name":"中餐厅","address":"卢湾区巨鹿路237-241号(近瑞金一路)"},{"poiid":"B2094757D66CA2F9499B","title":"龙之介炉端烧","lon":"121.46268673","lat":"31.222569136","category":"247","category_name":"餐饮美食","address":"上海市静安区巨鹿路"},{"poiid":"B2094751D569A0FB429F","title":"光明村大饭店","lon":"121.464417","lat":"31.223201","category":"247","category_name":"餐饮美食","address":"淮海路"},{"poiid":"B2094757D068A6FC489A","title":"名车酷精细洗车","lon":"121.463938","lat":"31.222979","category":"158","category_name":"汽车销售","address":"上海市卢湾区巨鹿路168号大同坊地下车库"},{"poiid":"B209475CD76CA7F4479C","title":"一风堂","lon":"121.462356","lat":"31.225759","category":"500","category_name":"未知分类","address":"上海市 静安区吴江路169号1层142号"},{"poiid":"B2094757D064ABFF4092","title":"秦粤轩","lon":"121.46102","lat":"31.22384","category":"84","category_name":"西北菜","address":"静安区延安中路658号陕西大厦商务酒店4楼(近茂名北路)"},{"poiid":"B2094757D464A7F9459D","title":"沧浪亭 静安店","lon":"121.463390054","lat":"31.225013793","category":"87","category_name":"特色／地方风味餐厅","address":"静安区大沽路509号(近石门一路)"},{"poiid":"B209475CDB65A0FB429F","title":"七克拉素食咖啡馆","lon":"121.463272","lat":"31.223033","category":"500","category_name":"未知分类","address":"上海市 卢湾区巨鹿路242"},{"poiid":"B209475CD565A4F54793","title":"HARU KITCHEN","lon":"121.461441","lat":"31.223556","category":"500","category_name":"未知分类","address":"上海市 陝西北路66號"},{"poiid":"B2094757D064AAFD489C","title":"五季坊保健会所","lon":"121.462259","lat":"31.223408","category":"149","category_name":"洗浴推拿场所","address":"徐汇区襄阳北路100号2楼(近淮海中路)"},{"poiid":"B2094757D068AAF44792","title":"海中鲜有机火锅","lon":"121.46323703","lat":"31.222325851","category":"86","category_name":"火锅店","address":"卢湾区长乐路398号(茂名南路口)"},{"poiid":"B2094757D16FA6F44593","title":"瑞金一路","lon":"121.46307173","lat":"31.222166128","category":"500","category_name":"未知分类","address":"上海市瑞金一路近巨鹿路"},{"poiid":"B2094654DA6CA1F94999","title":"上尊国际商务中心","lon":"121.46261","lat":"31.22426","category":"46","category_name":"楼宇","address":"上海市虹口区四川北路1318号"},{"poiid":"B2094655D265A6FE489F","title":"上海汽车工业大厦配套工程综合楼(Shanghai)","lon":"121.46284","lat":"31.22605","category":"46","category_name":"楼宇","address":"石门一路89号"},{"poiid":"B2094655D26AA0F44692","title":"哈达瑜伽会所茂名南路店","lon":"121.46102","lat":"31.22355","category":"247","category_name":"餐饮美食","address":"卢湾区茂名南路1号(近陕西南路)"},{"poiid":"B2094654DA6CA1FC4793","title":"多福里","lon":"121.46441","lat":"31.22471","category":"47","category_name":"住宅区","address":"延安中路504弄7-62号"},{"poiid":"B2094757D06BAAF8419F","title":"心一代(大沽路店)","lon":"121.46383","lat":"31.22479","category":"68","category_name":"快餐厅","address":"静安区大沽路547-3号(近石门一路)"},{"poiid":"B2094655D26DA3FC419F","title":"陕西大厦(延安中路)","lon":"121.46134","lat":"31.22422","category":"46","category_name":"楼宇","address":"延安中路658"},{"poiid":"B2094654DA6CA1F9479C","title":"上海市名老中医诊疗所","lon":"121.4627","lat":"31.22519","category":"162","category_name":"医院","address":"石门一路67弄1乙"},{"poiid":"B2094750D768A3FE4293","title":"杜六房茶餐部","lon":"121.464","lat":"31.2252","category":"72","category_name":"广东菜","address":"静安区大沽路517号-519号(石门一路口)"},{"poiid":"B2094655D36DA0F84292","title":"延安中路石门一路","lon":"121.46273","lat":"31.2241","category":"38","category_name":"公交车站","address":""},{"poiid":"B2094753D464AAF9489B","title":"夏沫咖啡馆","lon":"121.46199","lat":"31.224294","category":"65","category_name":"咖啡厅","address":"上海市 上海市延安中路632弄8号"},{"poiid":"B2094757D664AAFA449F","title":"阿牛嫂桂林米粉 大沽路店","lon":"121.463638054","lat":"31.225131793","category":"68","category_name":"快餐厅","address":"静安区大沽路545号(近石门一路)"},{"poiid":"B2094655D26CAAF9469F","title":"延安中路大型公共绿地静安段","lon":"121.46611","lat":"31.22468333","category":"196","category_name":"公园","address":""},{"poiid":"B2094757D06AA0FC4899","title":"Mio cafe","lon":"121.46308173","lat":"31.224672181","category":"260","category_name":"其他","address":"静安区延安中路632弄8号"},{"poiid":"B2094654DA6DA6FB409F","title":"金环大厦","lon":"121.46219688287","lat":"31.222356106824","category":"46","category_name":"楼宇","address":"襄阳南路485,489"},{"poiid":"B2094757D66AA6F5449B","title":"Beedees Coffee & Bar","lon":"121.464358054","lat":"31.224930793","category":"172","category_name":"酒吧","address":"静安区大沽路433号(近石门一路)"},{"poiid":"B2094753D56EABFC4193","title":"东方明珠","lon":"121.462242","lat":"31.224424","category":"500","category_name":"未知分类","address":"上海市 外滩"},{"poiid":"B2094757D06FA3F8429C","title":"淮海路","lon":"121.46398412","lat":"31.222631868","category":"260","category_name":"其他","address":"上海淮海路"},{"poiid":"B2094757D06EAAFA459D","title":"NAPOLEON  CHOCOLATE  BAR","lon":"121.4623558","lat":"31.222834","category":"67","category_name":"甜品店","address":"卢湾区巨鹿路242-2号(近瑞金一路)"},{"poiid":"B2094757D06FA2F4439B","title":"上海市中医医院(石门分院)","lon":"121.4631687","lat":"31.225289","category":"162","category_name":"医院","address":"静安区石门一路67弄1号(近大沽路)"},{"poiid":"B2094753D76FAAFA449C","title":"上海滩国泰旗舰店","lon":"121.466011","lat":"31.216125","category":"249","category_name":"购物服务","address":"淮海中路868号"},{"poiid":"B209475CD564A7F84292","title":"上海滩新天地店","lon":"121.47463","lat":"31.22164","category":"119","category_name":"商场","address":"\"太仓路181弄新天地北里15号\r\n\""},{"poiid":"B209475CD564A7F8439E","title":"上海滩中信泰富店","lon":"121.45602","lat":"31.22851","category":"119","category_name":"商场","address":"\"南京西路1168号中信泰富广场，店铺号221.\r\n\""},{"poiid":"B2094757D068A6F8419C","title":"慧公馆(巨鹿店)","lon":"121.46450224421505","lat":"31.223237790045474","category":"72","category_name":"广东菜","address":"卢湾区巨鹿路168号(近成都南路)"},{"poiid":"B2094757D064AAFF4898","title":"韩国艺匠婚纱摄影","lon":"121.460858238","lat":"31.2248422003","category":"611","category_name":"照相馆","address":"长宁区江苏路40号（近长宁路）"},{"poiid":"B2094757D068A3F9479B","title":"娘惹情(大沽路店)","lon":"121.46488","lat":"31.22493","category":"110","category_name":"其他亚洲菜","address":"静安区大沽路417号(近成都北路)"},{"poiid":"B2094757D068A3FE4699","title":"天天周末(巨鹿路店)","lon":"121.46443","lat":"31.22252","category":"173","category_name":"游戏厅","address":"卢湾区巨鹿路227号(近瑞金一路)"},{"poiid":"B2094654DB6BA6FC499A","title":"天手古舞 巨鹿路店 tentekomai","lon":"121.46271864293","lat":"31.222867030754","category":"95","category_name":"日本料理","address":"卢湾区巨鹿路242号(近瑞金一路)"},{"poiid":"B2094757D06EAAFC4399","title":"宝丽亚酒吧","lon":"121.46395","lat":"31.22278","category":"260","category_name":"其他","address":"卢湾区巨鹿路158号大同坊内(近成都南路)"},{"poiid":"B2094757D06EAAF44893","title":"DIY  SWEET","lon":"121.460994","lat":"31.225128","category":"67","category_name":"甜品店","address":"升平街15号近茂名北路"},{"poiid":"B2094654DA6CA2F54993","title":"萄醉(大沽路)","lon":"121.46442","lat":"31.2255","category":"94","category_name":"西餐厅","address":"静安区大沽路462号(近石门一路)"},{"poiid":"B2094757D068A0F54492","title":"中凯豪生酒店","lon":"121.46336","lat":"31.22589","category":"217","category_name":"旅馆招待所","address":"上海静安区石门一路118号(威海路口)  "},{"poiid":"B2094654D564ABF4449C","title":"襄阳大楼","lon":"121.462","lat":"31.2247","category":"46","category_name":"楼宇","address":"昌平区回龙观镇国际信息产业基地高新二街"},{"poiid":"B2094654DA6CA1F9479F","title":"上海市中医医院门诊部","lon":"121.4627","lat":"31.22518","category":"162","category_name":"医院","address":"石门一路67弄1乙"},{"poiid":"B2094757D66BA3F94593","title":"香料艺术印度餐厅 大沽路店 Masala Art","lon":"121.4643078311","lat":"31.225489783646","category":"102","category_name":"印度风味","address":"静安区大沽路397号(近成都北路)"},{"poiid":"B2094757D66FA7FF469A","title":"陕西大厦商务酒店","lon":"121.462763238","lat":"31.2241532706","category":"500","category_name":"未知分类","address":"静安区延安中路658号(近陕西北路)"},{"poiid":"B2094753DB68A4FE449E","title":"七克拉素食咖啡","lon":"121.462837","lat":"31.22306","category":"500","category_name":"未知分类","address":"上海市 巨鹿路242号"},{"poiid":"B2094750D664A6FD489C","title":"瑞美尔特面包房(石门一路店)","lon":"121.463","lat":"31.2262","category":"112","category_name":"糕饼店","address":"静安区石门一路88号(近威海路)"},{"poiid":"B2094757DB6CABF5469D","title":"1号线徐家汇站","lon":"121.462175","lat":"31.224322","category":"627","category_name":"一般地点标志","address":"徐家汇"},{"poiid":"B2094757D06AA2F4439E","title":"尧尧蟹王","lon":"121.463202738","lat":"31.2231531493","category":"257","category_name":"中餐厅","address":"卢湾区巨鹿路237-241号(近瑞金一路)"},{"poiid":"B2094757D66CA2F9499B","title":"龙之介炉端烧","lon":"121.46268673","lat":"31.222569136","category":"247","category_name":"餐饮美食","address":"上海市静安区巨鹿路"},{"poiid":"B2094751D569A0FB429F","title":"光明村大饭店","lon":"121.464417","lat":"31.223201","category":"247","category_name":"餐饮美食","address":"淮海路"},{"poiid":"B2094757D068A6FC489A","title":"名车酷精细洗车","lon":"121.463938","lat":"31.222979","category":"158","category_name":"汽车销售","address":"上海市卢湾区巨鹿路168号大同坊地下车库"},{"poiid":"B209475CD76CA7F4479C","title":"一风堂","lon":"121.462356","lat":"31.225759","category":"500","category_name":"未知分类","address":"上海市 静安区吴江路169号1层142号"},{"poiid":"B2094757D064ABFF4092","title":"秦粤轩","lon":"121.46102","lat":"31.22384","category":"84","category_name":"西北菜","address":"静安区延安中路658号陕西大厦商务酒店4楼(近茂名北路)"},{"poiid":"B2094757D464A7F9459D","title":"沧浪亭 静安店","lon":"121.463390054","lat":"31.225013793","category":"87","category_name":"特色／地方风味餐厅","address":"静安区大沽路509号(近石门一路)"},{"poiid":"B209475CDB65A0FB429F","title":"七克拉素食咖啡馆","lon":"121.463272","lat":"31.223033","category":"500","category_name":"未知分类","address":"上海市 卢湾区巨鹿路242"},{"poiid":"B209475CD565A4F54793","title":"HARU KITCHEN","lon":"121.461441","lat":"31.223556","category":"500","category_name":"未知分类","address":"上海市 陝西北路66號"},{"poiid":"B2094757D064AAFD489C","title":"五季坊保健会所","lon":"121.462259","lat":"31.223408","category":"149","category_name":"洗浴推拿场所","address":"徐汇区襄阳北路100号2楼(近淮海中路)"},{"poiid":"B2094757D068AAF44792","title":"海中鲜有机火锅","lon":"121.46323703","lat":"31.222325851","category":"86","category_name":"火锅店","address":"卢湾区长乐路398号(茂名南路口)"},{"poiid":"B2094757D16FA6F44593","title":"瑞金一路","lon":"121.46307173","lat":"31.222166128","category":"500","category_name":"未知分类","address":"上海市瑞金一路近巨鹿路"},{"poiid":"B2094654DA6CA1F94999","title":"上尊国际商务中心","lon":"121.46261","lat":"31.22426","category":"46","category_name":"楼宇","address":"上海市虹口区四川北路1318号"},{"poiid":"B2094655D265A6FE489F","title":"上海汽车工业大厦配套工程综合楼(Shanghai)","lon":"121.46284","lat":"31.22605","category":"46","category_name":"楼宇","address":"石门一路89号"},{"poiid":"B2094655D26AA0F44692","title":"哈达瑜伽会所茂名南路店","lon":"121.46102","lat":"31.22355","category":"247","category_name":"餐饮美食","address":"卢湾区茂名南路1号(近陕西南路)"},{"poiid":"B2094654DA6CA1FC4793","title":"多福里","lon":"121.46441","lat":"31.22471","category":"47","category_name":"住宅区","address":"延安中路504弄7-62号"},{"poiid":"B2094757D06BAAF8419F","title":"心一代(大沽路店)","lon":"121.46383","lat":"31.22479","category":"68","category_name":"快餐厅","address":"静安区大沽路547-3号(近石门一路)"},{"poiid":"B2094655D26DA3FC419F","title":"陕西大厦(延安中路)","lon":"121.46134","lat":"31.22422","category":"46","category_name":"楼宇","address":"延安中路658"},{"poiid":"B2094654DA6CA1F9479C","title":"上海市名老中医诊疗所","lon":"121.4627","lat":"31.22519","category":"162","category_name":"医院","address":"石门一路67弄1乙"},{"poiid":"B2094750D768A3FE4293","title":"杜六房茶餐部","lon":"121.464","lat":"31.2252","category":"72","category_name":"广东菜","address":"静安区大沽路517号-519号(石门一路口)"},{"poiid":"B2094655D36DA0F84292","title":"延安中路石门一路","lon":"121.46273","lat":"31.2241","category":"38","category_name":"公交车站","address":""},{"poiid":"B2094753D464AAF9489B","title":"夏沫咖啡馆","lon":"121.46199","lat":"31.224294","category":"65","category_name":"咖啡厅","address":"上海市 上海市延安中路632弄8号"},{"poiid":"B2094757D664AAFA449F","title":"阿牛嫂桂林米粉 大沽路店","lon":"121.463638054","lat":"31.225131793","category":"68","category_name":"快餐厅","address":"静安区大沽路545号(近石门一路)"},{"poiid":"B2094655D26CAAF9469F","title":"延安中路大型公共绿地静安段","lon":"121.46611","lat":"31.22468333","category":"196","category_name":"公园","address":""},{"poiid":"B2094757D06AA0FC4899","title":"Mio cafe","lon":"121.46308173","lat":"31.224672181","category":"260","category_name":"其他","address":"静安区延安中路632弄8号"},{"poiid":"B2094654DA6DA6FB409F","title":"金环大厦","lon":"121.46219688287","lat":"31.222356106824","category":"46","category_name":"楼宇","address":"襄阳南路485,489"},{"poiid":"B2094757D66AA6F5449B","title":"Beedees Coffee & Bar","lon":"121.464358054","lat":"31.224930793","category":"172","category_name":"酒吧","address":"静安区大沽路433号(近石门一路)"},{"poiid":"B2094753D56EABFC4193","title":"东方明珠","lon":"121.462242","lat":"31.224424","category":"500","category_name":"未知分类","address":"上海市 外滩"},{"poiid":"B2094757D06FA3F8429C","title":"淮海路","lon":"121.46398412","lat":"31.222631868","category":"260","category_name":"其他","address":"上海淮海路"},{"poiid":"B2094757D06EAAFA459D","title":"NAPOLEON  CHOCOLATE  BAR","lon":"121.4623558","lat":"31.222834","category":"67","category_name":"甜品店","address":"卢湾区巨鹿路242-2号(近瑞金一路)"},{"poiid":"B2094757D06FA2F4439B","title":"上海市中医医院(石门分院)","lon":"121.4631687","lat":"31.225289","category":"162","category_name":"医院","address":"静安区石门一路67弄1号(近大沽路)"},{"poiid":"B2094753D76FAAFA449C","title":"上海滩国泰旗舰店","lon":"121.466011","lat":"31.216125","category":"249","category_name":"购物服务","address":"淮海中路868号"},{"poiid":"B209475CD564A7F84292","title":"上海滩新天地店","lon":"121.47463","lat":"31.22164","category":"119","category_name":"商场","address":"\"太仓路181弄新天地北里15号\r\n\""},{"poiid":"B209475CD564A7F8439E","title":"上海滩中信泰富店","lon":"121.45602","lat":"31.22851","category":"119","category_name":"商场","address":"\"南京西路1168号中信泰富广场，店铺号221.\r\n\""},{"poiid":"B2094757D068A6F8419C","title":"慧公馆(巨鹿店)","lon":"121.46450224421505","lat":"31.223237790045474","category":"72","category_name":"广东菜","address":"卢湾区巨鹿路168号(近成都南路)"},{"poiid":"B2094757D064AAFF4898","title":"韩国艺匠婚纱摄影","lon":"121.460858238","lat":"31.2248422003","category":"611","category_name":"照相馆","address":"长宁区江苏路40号（近长宁路）"},{"poiid":"B2094757D068A3F9479B","title":"娘惹情(大沽路店)","lon":"121.46488","lat":"31.22493","category":"110","category_name":"其他亚洲菜","address":"静安区大沽路417号(近成都北路)"},{"poiid":"B2094757D068A3FE4699","title":"天天周末(巨鹿路店)","lon":"121.46443","lat":"31.22252","category":"173","category_name":"游戏厅","address":"卢湾区巨鹿路227号(近瑞金一路)"},{"poiid":"B2094654DB6BA6FC499A","title":"天手古舞 巨鹿路店 tentekomai","lon":"121.46271864293","lat":"31.222867030754","category":"95","category_name":"日本料理","address":"卢湾区巨鹿路242号(近瑞金一路)"},{"poiid":"B2094757D06EAAFC4399","title":"宝丽亚酒吧","lon":"121.46395","lat":"31.22278","category":"260","category_name":"其他","address":"卢湾区巨鹿路158号大同坊内(近成都南路)"},{"poiid":"B2094757D06EAAF44893","title":"DIY  SWEET","lon":"121.460994","lat":"31.225128","category":"67","category_name":"甜品店","address":"升平街15号近茂名北路"},{"poiid":"B2094654DA6CA2F54993","title":"萄醉(大沽路)","lon":"121.46442","lat":"31.2255","category":"94","category_name":"西餐厅","address":"静安区大沽路462号(近石门一路)"},{"poiid":"B2094757D068A0F54492","title":"中凯豪生酒店","lon":"121.46336","lat":"31.22589","category":"217","category_name":"旅馆招待所","address":"上海静安区石门一路118号(威海路口)  "},{"poiid":"B2094654D564ABF4449C","title":"襄阳大楼","lon":"121.462","lat":"31.2247","category":"46","category_name":"楼宇","address":"昌平区回龙观镇国际信息产业基地高新二街"},{"poiid":"B2094654DA6CA1F9479F","title":"上海市中医医院门诊部","lon":"121.4627","lat":"31.22518","category":"162","category_name":"医院","address":"石门一路67弄1乙"},{"poiid":"B2094757D66BA3F94593","title":"香料艺术印度餐厅 大沽路店 Masala Art","lon":"121.4643078311","lat":"31.225489783646","category":"102","category_name":"印度风味","address":"静安区大沽路397号(近成都北路)"},{"poiid":"B2094757D66FA7FF469A","title":"陕西大厦商务酒店","lon":"121.462763238","lat":"31.2241532706","category":"500","category_name":"未知分类","address":"静安区延安中路658号(近陕西北路)"},{"poiid":"B2094753DB68A4FE449E","title":"七克拉素食咖啡","lon":"121.462837","lat":"31.22306","category":"500","category_name":"未知分类","address":"上海市 巨鹿路242号"},{"poiid":"B2094750D664A6FD489C","title":"瑞美尔特面包房(石门一路店)","lon":"121.463","lat":"31.2262","category":"112","category_name":"糕饼店","address":"静安区石门一路88号(近威海路)"},{"poiid":"B2094757DB6CABF5469D","title":"1号线徐家汇站","lon":"121.462175","lat":"31.224322","category":"627","category_name":"一般地点标志","address":"徐家汇"},{"poiid":"B2094757D06AA2F4439E","title":"尧尧蟹王","lon":"121.463202738","lat":"31.2231531493","category":"257","category_name":"中餐厅","address":"卢湾区巨鹿路237-241号(近瑞金一路)"},{"poiid":"B2094757D66CA2F9499B","title":"龙之介炉端烧","lon":"121.46268673","lat":"31.222569136","category":"247","category_name":"餐饮美食","address":"上海市静安区巨鹿路"},{"poiid":"B2094751D569A0FB429F","title":"光明村大饭店","lon":"121.464417","lat":"31.223201","category":"247","category_name":"餐饮美食","address":"淮海路"},{"poiid":"B2094757D068A6FC489A","title":"名车酷精细洗车","lon":"121.463938","lat":"31.222979","category":"158","category_name":"汽车销售","address":"上海市卢湾区巨鹿路168号大同坊地下车库"},{"poiid":"B209475CD76CA7F4479C","title":"一风堂","lon":"121.462356","lat":"31.225759","category":"500","category_name":"未知分类","address":"上海市 静安区吴江路169号1层142号"},{"poiid":"B2094757D064ABFF4092","title":"秦粤轩","lon":"121.46102","lat":"31.22384","category":"84","category_name":"西北菜","address":"静安区延安中路658号陕西大厦商务酒店4楼(近茂名北路)"},{"poiid":"B2094757D464A7F9459D","title":"沧浪亭 静安店","lon":"121.463390054","lat":"31.225013793","category":"87","category_name":"特色／地方风味餐厅","address":"静安区大沽路509号(近石门一路)"},{"poiid":"B209475CDB65A0FB429F","title":"七克拉素食咖啡馆","lon":"121.463272","lat":"31.223033","category":"500","category_name":"未知分类","address":"上海市 卢湾区巨鹿路242"},{"poiid":"B209475CD565A4F54793","title":"HARU KITCHEN","lon":"121.461441","lat":"31.223556","category":"500","category_name":"未知分类","address":"上海市 陝西北路66號"},{"poiid":"B2094757D064AAFD489C","title":"五季坊保健会所","lon":"121.462259","lat":"31.223408","category":"149","category_name":"洗浴推拿场所","address":"徐汇区襄阳北路100号2楼(近淮海中路)"},{"poiid":"B2094757D068AAF44792","title":"海中鲜有机火锅","lon":"121.46323703","lat":"31.222325851","category":"86","category_name":"火锅店","address":"卢湾区长乐路398号(茂名南路口)"},{"poiid":"B2094757D16FA6F44593","title":"瑞金一路","lon":"121.46307173","lat":"31.222166128","category":"500","category_name":"未知分类","address":"上海市瑞金一路近巨鹿路"},{"poiid":"B2094654DA6CA1F94999","title":"上尊国际商务中心","lon":"121.46261","lat":"31.22426","category":"46","category_name":"楼宇","address":"上海市虹口区四川北路1318号"},{"poiid":"B2094655D265A6FE489F","title":"上海汽车工业大厦配套工程综合楼(Shanghai)","lon":"121.46284","lat":"31.22605","category":"46","category_name":"楼宇","address":"石门一路89号"},{"poiid":"B2094655D26AA0F44692","title":"哈达瑜伽会所茂名南路店","lon":"121.46102","lat":"31.22355","category":"247","category_name":"餐饮美食","address":"卢湾区茂名南路1号(近陕西南路)"},{"poiid":"B2094654DA6CA1FC4793","title":"多福里","lon":"121.46441","lat":"31.22471","category":"47","category_name":"住宅区","address":"延安中路504弄7-62号"},{"poiid":"B2094757D06BAAF8419F","title":"心一代(大沽路店)","lon":"121.46383","lat":"31.22479","category":"68","category_name":"快餐厅","address":"静安区大沽路547-3号(近石门一路)"},{"poiid":"B2094655D26DA3FC419F","title":"陕西大厦(延安中路)","lon":"121.46134","lat":"31.22422","category":"46","category_name":"楼宇","address":"延安中路658"},{"poiid":"B2094654DA6CA1F9479C","title":"上海市名老中医诊疗所","lon":"121.4627","lat":"31.22519","category":"162","category_name":"医院","address":"石门一路67弄1乙"},{"poiid":"B2094750D768A3FE4293","title":"杜六房茶餐部","lon":"121.464","lat":"31.2252","category":"72","category_name":"广东菜","address":"静安区大沽路517号-519号(石门一路口)"},{"poiid":"B2094655D36DA0F84292","title":"延安中路石门一路","lon":"121.46273","lat":"31.2241","category":"38","category_name":"公交车站","address":""},{"poiid":"B2094753D464AAF9489B","title":"夏沫咖啡馆","lon":"121.46199","lat":"31.224294","category":"65","category_name":"咖啡厅","address":"上海市 上海市延安中路632弄8号"},{"poiid":"B2094757D664AAFA449F","title":"阿牛嫂桂林米粉 大沽路店","lon":"121.463638054","lat":"31.225131793","category":"68","category_name":"快餐厅","address":"静安区大沽路545号(近石门一路)"},{"poiid":"B2094655D26CAAF9469F","title":"延安中路大型公共绿地静安段","lon":"121.46611","lat":"31.22468333","category":"196","category_name":"公园","address":""},{"poiid":"B2094757D06AA0FC4899","title":"Mio cafe","lon":"121.46308173","lat":"31.224672181","category":"260","category_name":"其他","address":"静安区延安中路632弄8号"},{"poiid":"B2094654DA6DA6FB409F","title":"金环大厦","lon":"121.46219688287","lat":"31.222356106824","category":"46","category_name":"楼宇","address":"襄阳南路485,489"},{"poiid":"B2094757D66AA6F5449B","title":"Beedees Coffee & Bar","lon":"121.464358054","lat":"31.224930793","category":"172","category_name":"酒吧","address":"静安区大沽路433号(近石门一路)"},{"poiid":"B2094753D56EABFC4193","title":"东方明珠","lon":"121.462242","lat":"31.224424","category":"500","category_name":"未知分类","address":"上海市 外滩"}]