[{"poiid":"B2094757D66BA6FE469E","title":"星巴克(瑞虹店)","lon":"121.4976846","lat":"31.2613082","category":"260","category_name":"其他","address":"虹口区临平路133弄瑞虹新城内(近飞虹路)"},{"poiid":"B2094750D365A4F94493","title":"顺风大酒店(瑞虹路店)","lon":"121.4979346984253","lat":"31.261761356687256","category":"75","category_name":"浙江菜","address":"虹口区瑞虹路116号瑞虹坊2楼(近临平北路)"},{"poiid":"B2094757D06FA4F4429F","title":"必胜客(瑞虹新城店)","lon":"121.4997061","lat":"31.260814221","category":"68","category_name":"快餐厅","address":"虹口区临平路133弄瑞虹生活广场1层17-18单元(近飞虹路)"},{"poiid":"B209475CD564A7F84392","title":"上海滩浦东香格里拉店","lon":"121.50058","lat":"31.23634","category":"119","category_name":"商场","address":"浦东富成路33号香格里拉酒店内大堂层"},{"poiid":"B2094757D06FA3FA489E","title":"瑞虹新城一期","lon":"121.495416194","lat":"31.263365933","category":"47","category_name":"住宅区","address":"上海市虹口区临平路333号"},{"poiid":"B2094757D464A7F94198","title":"捞王猪肚鸡（临平店）","lon":"121.499637","lat":"31.259866","category":"247","category_name":"餐饮美食","address":"虹口区公平路761号"},{"poiid":"B2094757D06FA7F5479F","title":"味千拉面(瑞虹店)","lon":"121.49963849","lat":"31.260690978","category":"95","category_name":"日本料理","address":"虹口区临平路133弄瑞虹生活广场1楼13-14号(近飞虹路)"},{"poiid":"B2094751D264A6F9439B","title":"La Tagliatella 纯意堂","lon":"121.498318","lat":"31.262375","category":"98","category_name":"意式菜品餐厅","address":"虹口区飞虹支路118号(近地铁4号线临平路站)"},{"poiid":"B2094757D66FA6FA4598","title":"临平路地铁站","lon":"121.50087513","lat":"31.260837738","category":"36","category_name":"地铁站","address":"上海轨道交通,四号线,轨交临平路站,轻轨,4"},{"poiid":"B2094654DB65A6FC469D","title":"易买得(瑞虹店)","lon":"121.49843","lat":"31.26181","category":"118","category_name":"超级市场","address":"虹口区临平路133弄瑞虹生活广场内(近飞虹路)"},{"poiid":"B2094654DB6BA3F9449C","title":"一茶一坐 瑞虹店","lon":"121.49391","lat":"31.26285","category":"260","category_name":"其他","address":"虹口区临平路123号瑞虹新城二期商场1-2楼(近飞虹路)"},{"poiid":"B2094750D26AA0F4409F","title":"大家乐香港新一代茶餐厅瑞虹店","lon":"121.498779","lat":"31.262537","category":"247","category_name":"餐饮美食","address":"瑞虹路（瑞虹坊）"},{"poiid":"B2094757D06FA7FB499C","title":"DQ冰雪皇后(瑞虹店)","lon":"121.499096647","lat":"31.2608406891","category":"113","category_name":"冷饮店","address":"虹口区临平路123号瑞虹生活广场1楼(近飞虹路)"},{"poiid":"B2094750D26AA3FB439F","title":"costa瑞虹店","lon":"121.498443","lat":"31.261707","category":"162","category_name":"医院","address":"虹口区临平路225号瑞虹坊内(近瑞虹新城二期)"},{"poiid":"B2094655D26EABFC499E","title":"七十三家房客(虹口店)","lon":"121.49871","lat":"31.26097","category":"76","category_name":"上海菜","address":"虹口区临平路133弄瑞虹生活广场2楼(近飞虹路)"},{"poiid":"B2094750D26CA3FE459B","title":"唐韵秦风 瑞虹路店","lon":"121.49840354919","lat":"31.261897695753","category":"84","category_name":"西北菜","address":"虹口区瑞虹路138号瑞虹坊2楼(近临平路)"},{"poiid":"B2094757D06FA5FE499F","title":"巴黎贝甜(临平店)","lon":"121.49867","lat":"31.26073","category":"67","category_name":"甜品店","address":"虹口区临平路133弄瑞虹生活广场1楼33单元(近飞虹路)"},{"poiid":"B2094757D16FA6FF4793","title":"韩礼美食","lon":"121.501349603","lat":"31.2618257426","category":"96","category_name":"韩国料理","address":"虹口区飞虹路115号(近地铁四号线临平路站1号口)"},{"poiid":"B2094757D06FA6FC469F","title":"肯德基 KFC (瑞虹店)","lon":"121.49935","lat":"31.260692","category":"68","category_name":"快餐厅","address":"临平路123号近天宝路"},{"poiid":"B2094757DA69A2F44692","title":"牡丹亭--精品湘菜","lon":"121.49775232302","lat":"31.261720377328","category":"77","category_name":"湖南菜","address":"虹口区瑞虹路134号1楼(近临平路)"},{"poiid":"B2094757DA6EAAF8439C","title":"深井大叔港式烧腊(瑞虹生活广场店)","lon":"121.49768","lat":"31.2613","category":"72","category_name":"广东菜","address":"虹口区临平路133弄瑞虹生活广场1-01室(近天宝路)"},{"poiid":"B2094757D46FA3FF4292","title":"85度C 临平店","lon":"121.496640054","lat":"31.262250793","category":"67","category_name":"甜品店","address":"虹口区临平路327号(近天宝路)"},{"poiid":"B2094757D065A2F54992","title":"木子麻雀","lon":"121.495811103","lat":"31.2608422221","category":"500","category_name":"未知分类","address":"上海市虹口区物化路"},{"poiid":"B2094655D26DA6FA4993","title":"继光中学","lon":"121.49786","lat":"31.25904","category":"55","category_name":"中学","address":"虹口区高阳路690号(近临平路)"},{"poiid":"B2094757D068A5FE4992","title":"邵福楼(物华路店)","lon":"121.4967","lat":"31.259759","category":"76","category_name":"上海菜","address":"虹口区物华路73号渡边物华园附楼(近海拉尔路)"},{"poiid":"B2094750DB65A5FA4592","title":"纯意堂 La Tagliatella","lon":"121.49851","lat":"31.26251","category":"94","category_name":"西餐厅","address":"虹口区瑞虹路138号瑞虹坊2区(近天虹路)"},{"poiid":"B2094757D069AAF8469C","title":"紫彩寿司(瑞虹店)","lon":"121.499736","lat":"31.259650277","category":"95","category_name":"日本料理","address":"虹口区临平路133弄瑞虹新城内南广场1-06(近瑞虹生活广场)"},{"poiid":"B2094757D06FA0F84898","title":"一茶一座（瑞虹店）","lon":"121.4993515","lat":"31.26114273","category":"47","category_name":"住宅区","address":"上海虹口区临平路瑞虹生活广场"},{"poiid":"B2094751D46DA0FD4098","title":"鱼跃川味小馆","lon":"121.49791","lat":"31.26228","category":"71","category_name":"四川菜","address":"虹口区瑞虹路128号(近天虹路)"},{"poiid":"B2094757D069AAF8429F","title":"虹口现代公寓","lon":"121.49509","lat":"31.261597","category":"500","category_name":"未知分类","address":"上海市虹口区天宝路66弄"},{"poiid":"B2094757D164A7F5469B","title":"瑞虹新城","lon":"121.495373","lat":"31.263544","category":"47","category_name":"住宅区","address":"虹口区临平路333号"},{"poiid":"B2094757D069A1FA4492","title":"云酒楼","lon":"121.49545","lat":"31.26243","category":"260","category_name":"其他","address":"上海虹口区临平路303号(近天宝路瑞虹新城一期)  "},{"poiid":"B2094757D465A1FE489F","title":"九龙冰室 Kowloon Ice House","lon":"121.498579054","lat":"31.261225793","category":"72","category_name":"广东菜","address":"临平路123号瑞虹生活广场2-22单元"},{"poiid":"B2094654DB6BA3F8499A","title":"春草堂足道","lon":"121.49593","lat":"31.26154","category":"149","category_name":"洗浴推拿场所","address":""},{"poiid":"B2094757D069A0F94792","title":"临平路小吃摊","lon":"121.495465773","lat":"31.2624106022","category":"68","category_name":"快餐厅","address":"虹口区临平路333号瑞虹一期对面(近天宝路)"},{"poiid":"B2094750D668AAF5449A","title":"大家乐香港新一代茶餐厅","lon":"121.498474","lat":"31.261953","category":"247","category_name":"餐饮美食","address":"瑞虹路"},{"poiid":"B2094757D06FA4FF4293","title":"快乐柠檬(瑞虹生活广场店)","lon":"121.498966","lat":"31.259488","category":"113","category_name":"冷饮店","address":"上海临平路123号"},{"poiid":"B2094757D16DA6FF409D","title":"临平路天宝路口","lon":"121.495831103","lat":"31.261654239","category":"500","category_name":"未知分类","address":"上海市虹口区临平北路"},{"poiid":"B2094757D068A0FE4393","title":"金太子形象设计(临平路店)","lon":"121.49985","lat":"31.25948","category":"148","category_name":"美容美发店","address":"上海虹口区临平路22号(近飞虹路)"},{"poiid":"B2094654D56DAAFB4392","title":"瑞虹生活广场(北门)","lon":"121.49872","lat":"31.26098","category":"119","category_name":"商场","address":"临平路123"},{"poiid":"B2094753D46CA2FC4893","title":"哈根达斯（瑞虹店）","lon":"121.498756","lat":"31.260826","category":"263","category_name":"公司","address":"上海市 上海虹口区瑞虹生活广场"},{"poiid":"B2094757D465ABFE469C","title":"重庆鸡公煲 临平路店","lon":"121.494897054","lat":"31.262573793","category":"71","category_name":"四川菜","address":"虹口区临平路78号(近天宝路)"},{"poiid":"B2094757D469A0F84092","title":"卡乐杯 瑞虹生活广场店","lon":"121.497712","lat":"31.2612903","category":"113","category_name":"冷饮店","address":"虹口区临平路133弄瑞虹生活广场易买得超市出口处"},{"poiid":"B2094655D36CA3FB499D","title":"毛家湘菜","lon":"121.49622","lat":"31.26126","category":"77","category_name":"湖南菜","address":"虹口区天宝路65号(近物华路)"},{"poiid":"B2094751D26BA5FB489A","title":"瑞虹新城璟庭","lon":"121.496855","lat":"31.2619","category":"47","category_name":"住宅区","address":"虹口区临平路225号(近瑞虹路)"},{"poiid":"B2094757D069A0FD429D","title":"德笼馆 物华店","lon":"121.497431054","lat":"31.258773793","category":"68","category_name":"快餐厅","address":"虹口区物华路73号(海拉尔路口)"},{"poiid":"B2094757D069ABFB439A","title":"上海市税务局虹口分局","lon":"121.49753844","lat":"31.26145376","category":"500","category_name":"未知分类","address":"上海虹口区临平北路35号"},{"poiid":"B2094751DA64A6F84492","title":"呷哺呷哺瑞虹新城店","lon":"121.499328","lat":"31.261074","category":"247","category_name":"餐饮美食","address":null},{"poiid":"B2094753D165A4F4489D","title":"文艺小榴芒","lon":"121.497156","lat":"31.261861","category":"247","category_name":"餐饮美食","address":"上海市 临平路"},{"poiid":"B2094750DB6DA4FB449F","title":"思妍丽","lon":"121.498581","lat":"31.262558","category":"248","category_name":"生活娱乐","address":"虹口区瑞虹路150号瑞虹坊1楼(近临平路)"},{"poiid":"B2094757D66BA6FE469E","title":"星巴克(瑞虹店)","lon":"121.4976846","lat":"31.2613082","category":"260","category_name":"其他","address":"虹口区临平路133弄瑞虹新城内(近飞虹路)"},{"poiid":"B2094750D365A4F94493","title":"顺风大酒店(瑞虹路店)","lon":"121.4979346984253","lat":"31.261761356687256","category":"75","category_name":"浙江菜","address":"虹口区瑞虹路116号瑞虹坊2楼(近临平北路)"},{"poiid":"B2094757D06FA4F4429F","title":"必胜客(瑞虹新城店)","lon":"121.4997061","lat":"31.260814221","category":"68","category_name":"快餐厅","address":"虹口区临平路133弄瑞虹生活广场1层17-18单元(近飞虹路)"},{"poiid":"B209475CD564A7F84392","title":"上海滩浦东香格里拉店","lon":"121.50058","lat":"31.23634","category":"119","category_name":"商场","address":"浦东富成路33号香格里拉酒店内大堂层"},{"poiid":"B2094757D06FA3FA489E","title":"瑞虹新城一期","lon":"121.495416194","lat":"31.263365933","category":"47","category_name":"住宅区","address":"上海市虹口区临平路333号"},{"poiid":"B2094757D464A7F94198","title":"捞王猪肚鸡（临平店）","lon":"121.499637","lat":"31.259866","category":"247","category_name":"餐饮美食","address":"虹口区公平路761号"},{"poiid":"B2094757D06FA7F5479F","title":"味千拉面(瑞虹店)","lon":"121.49963849","lat":"31.260690978","category":"95","category_name":"日本料理","address":"虹口区临平路133弄瑞虹生活广场1楼13-14号(近飞虹路)"},{"poiid":"B2094751D264A6F9439B","title":"La Tagliatella 纯意堂","lon":"121.498318","lat":"31.262375","category":"98","category_name":"意式菜品餐厅","address":"虹口区飞虹支路118号(近地铁4号线临平路站)"},{"poiid":"B2094757D66FA6FA4598","title":"临平路地铁站","lon":"121.50087513","lat":"31.260837738","category":"36","category_name":"地铁站","address":"上海轨道交通,四号线,轨交临平路站,轻轨,4"},{"poiid":"B2094654DB65A6FC469D","title":"易买得(瑞虹店)","lon":"121.49843","lat":"31.26181","category":"118","category_name":"超级市场","address":"虹口区临平路133弄瑞虹生活广场内(近飞虹路)"},{"poiid":"B2094654DB6BA3F9449C","title":"一茶一坐 瑞虹店","lon":"121.49391","lat":"31.26285","category":"260","category_name":"其他","address":"虹口区临平路123号瑞虹新城二期商场1-2楼(近飞虹路)"},{"poiid":"B2094750D26AA0F4409F","title":"大家乐香港新一代茶餐厅瑞虹店","lon":"121.498779","lat":"31.262537","category":"247","category_name":"餐饮美食","address":"瑞虹路（瑞虹坊）"},{"poiid":"B2094757D06FA7FB499C","title":"DQ冰雪皇后(瑞虹店)","lon":"121.499096647","lat":"31.2608406891","category":"113","category_name":"冷饮店","address":"虹口区临平路123号瑞虹生活广场1楼(近飞虹路)"},{"poiid":"B2094750D26AA3FB439F","title":"costa瑞虹店","lon":"121.498443","lat":"31.261707","category":"162","category_name":"医院","address":"虹口区临平路225号瑞虹坊内(近瑞虹新城二期)"},{"poiid":"B2094655D26EABFC499E","title":"七十三家房客(虹口店)","lon":"121.49871","lat":"31.26097","category":"76","category_name":"上海菜","address":"虹口区临平路133弄瑞虹生活广场2楼(近飞虹路)"},{"poiid":"B2094750D26CA3FE459B","title":"唐韵秦风 瑞虹路店","lon":"121.49840354919","lat":"31.261897695753","category":"84","category_name":"西北菜","address":"虹口区瑞虹路138号瑞虹坊2楼(近临平路)"},{"poiid":"B2094757D06FA5FE499F","title":"巴黎贝甜(临平店)","lon":"121.49867","lat":"31.26073","category":"67","category_name":"甜品店","address":"虹口区临平路133弄瑞虹生活广场1楼33单元(近飞虹路)"},{"poiid":"B2094757D16FA6FF4793","title":"韩礼美食","lon":"121.501349603","lat":"31.2618257426","category":"96","category_name":"韩国料理","address":"虹口区飞虹路115号(近地铁四号线临平路站1号口)"},{"poiid":"B2094757D06FA6FC469F","title":"肯德基 KFC (瑞虹店)","lon":"121.49935","lat":"31.260692","category":"68","category_name":"快餐厅","address":"临平路123号近天宝路"},{"poiid":"B2094757DA69A2F44692","title":"牡丹亭--精品湘菜","lon":"121.49775232302","lat":"31.261720377328","category":"77","category_name":"湖南菜","address":"虹口区瑞虹路134号1楼(近临平路)"},{"poiid":"B2094757DA6EAAF8439C","title":"深井大叔港式烧腊(瑞虹生活广场店)","lon":"121.49768","lat":"31.2613","category":"72","category_name":"广东菜","address":"虹口区临平路133弄瑞虹生活广场1-01室(近天宝路)"},{"poiid":"B2094757D46FA3FF4292","title":"85度C 临平店","lon":"121.496640054","lat":"31.262250793","category":"67","category_name":"甜品店","address":"虹口区临平路327号(近天宝路)"},{"poiid":"B2094757D065A2F54992","title":"木子麻雀","lon":"121.495811103","lat":"31.2608422221","category":"500","category_name":"未知分类","address":"上海市虹口区物化路"},{"poiid":"B2094655D26DA6FA4993","title":"继光中学","lon":"121.49786","lat":"31.25904","category":"55","category_name":"中学","address":"虹口区高阳路690号(近临平路)"},{"poiid":"B2094757D068A5FE4992","title":"邵福楼(物华路店)","lon":"121.4967","lat":"31.259759","category":"76","category_name":"上海菜","address":"虹口区物华路73号渡边物华园附楼(近海拉尔路)"},{"poiid":"B2094750DB65A5FA4592","title":"纯意堂 La Tagliatella","lon":"121.49851","lat":"31.26251","category":"94","category_name":"西餐厅","address":"虹口区瑞虹路138号瑞虹坊2区(近天虹路)"},{"poiid":"B2094757D069AAF8469C","title":"紫彩寿司(瑞虹店)","lon":"121.499736","lat":"31.259650277","category":"95","category_name":"日本料理","address":"虹口区临平路133弄瑞虹新城内南广场1-06(近瑞虹生活广场)"},{"poiid":"B2094757D06FA0F84898","title":"一茶一座（瑞虹店）","lon":"121.4993515","lat":"31.26114273","category":"47","category_name":"住宅区","address":"上海虹口区临平路瑞虹生活广场"},{"poiid":"B2094751D46DA0FD4098","title":"鱼跃川味小馆","lon":"121.49791","lat":"31.26228","category":"71","category_name":"四川菜","address":"虹口区瑞虹路128号(近天虹路)"},{"poiid":"B2094757D069AAF8429F","title":"虹口现代公寓","lon":"121.49509","lat":"31.261597","category":"500","category_name":"未知分类","address":"上海市虹口区天宝路66弄"},{"poiid":"B2094757D164A7F5469B","title":"瑞虹新城","lon":"121.495373","lat":"31.263544","category":"47","category_name":"住宅区","address":"虹口区临平路333号"},{"poiid":"B2094757D069A1FA4492","title":"云酒楼","lon":"121.49545","lat":"31.26243","category":"260","category_name":"其他","address":"上海虹口区临平路303号(近天宝路瑞虹新城一期)  "},{"poiid":"B2094757D465A1FE489F","title":"九龙冰室 Kowloon Ice House","lon":"121.498579054","lat":"31.261225793","category":"72","category_name":"广东菜","address":"临平路123号瑞虹生活广场2-22单元"},{"poiid":"B2094654DB6BA3F8499A","title":"春草堂足道","lon":"121.49593","lat":"31.26154","category":"149","category_name":"洗浴推拿场所","address":""},{"poiid":"B2094757D069A0F94792","title":"临平路小吃摊","lon":"121.495465773","lat":"31.2624106022","category":"68","category_name":"快餐厅","address":"虹口区临平路333号瑞虹一期对面(近天宝路)"},{"poiid":"B2094750D668AAF5449A","title":"大家乐香港新一代茶餐厅","lon":"121.498474","lat":"31.261953","category":"247","category_name":"餐饮美食","address":"瑞虹路"},{"poiid":"B2094757D06FA4FF4293","title":"快乐柠檬(瑞虹生活广场店)","lon":"121.498966","lat":"31.259488","category":"113","category_name":"冷饮店","address":"上海临平路123号"},{"poiid":"B2094757D16DA6FF409D","title":"临平路天宝路口","lon":"121.495831103","lat":"31.261654239","category":"500","category_name":"未知分类","address":"上海市虹口区临平北路"},{"poiid":"B2094757D068A0FE4393","title":"金太子形象设计(临平路店)","lon":"121.49985","lat":"31.25948","category":"148","category_name":"美容美发店","address":"上海虹口区临平路22号(近飞虹路)"},{"poiid":"B2094654D56DAAFB4392","title":"瑞虹生活广场(北门)","lon":"121.49872","lat":"31.26098","category":"119","category_name":"商场","address":"临平路123"},{"poiid":"B2094753D46CA2FC4893","title":"哈根达斯（瑞虹店）","lon":"121.498756","lat":"31.260826","category":"263","category_name":"公司","address":"上海市 上海虹口区瑞虹生活广场"},{"poiid":"B2094757D465ABFE469C","title":"重庆鸡公煲 临平路店","lon":"121.494897054","lat":"31.262573793","category":"71","category_name":"四川菜","address":"虹口区临平路78号(近天宝路)"},{"poiid":"B2094757D469A0F84092","title":"卡乐杯 瑞虹生活广场店","lon":"121.497712","lat":"31.2612903","category":"113","category_name":"冷饮店","address":"虹口区临平路133弄瑞虹生活广场易买得超市出口处"},{"poiid":"B2094655D36CA3FB499D","title":"毛家湘菜","lon":"121.49622","lat":"31.26126","category":"77","category_name":"湖南菜","address":"虹口区天宝路65号(近物华路)"},{"poiid":"B2094751D26BA5FB489A","title":"瑞虹新城璟庭","lon":"121.496855","lat":"31.2619","category":"47","category_name":"住宅区","address":"虹口区临平路225号(近瑞虹路)"},{"poiid":"B2094757D069A0FD429D","title":"德笼馆 物华店","lon":"121.497431054","lat":"31.258773793","category":"68","category_name":"快餐厅","address":"虹口区物华路73号(海拉尔路口)"},{"poiid":"B2094757D069ABFB439A","title":"上海市税务局虹口分局","lon":"121.49753844","lat":"31.26145376","category":"500","category_name":"未知分类","address":"上海虹口区临平北路35号"},{"poiid":"B2094751DA64A6F84492","title":"呷哺呷哺瑞虹新城店","lon":"121.499328","lat":"31.261074","category":"247","category_name":"餐饮美食","address":null},{"poiid":"B2094753D165A4F4489D","title":"文艺小榴芒","lon":"121.497156","lat":"31.261861","category":"247","category_name":"餐饮美食","address":"上海市 临平路"},{"poiid":"B2094750DB6DA4FB449F","title":"思妍丽","lon":"121.498581","lat":"31.262558","category":"248","category_name":"生活娱乐","address":"虹口区瑞虹路150号瑞虹坊1楼(近临平路)"},{"poiid":"B2094757D66BA6FE469E","title":"星巴克(瑞虹店)","lon":"121.4976846","lat":"31.2613082","category":"260","category_name":"其他","address":"虹口区临平路133弄瑞虹新城内(近飞虹路)"},{"poiid":"B2094750D365A4F94493","title":"顺风大酒店(瑞虹路店)","lon":"121.4979346984253","lat":"31.261761356687256","category":"75","category_name":"浙江菜","address":"虹口区瑞虹路116号瑞虹坊2楼(近临平北路)"},{"poiid":"B2094757D06FA4F4429F","title":"必胜客(瑞虹新城店)","lon":"121.4997061","lat":"31.260814221","category":"68","category_name":"快餐厅","address":"虹口区临平路133弄瑞虹生活广场1层17-18单元(近飞虹路)"},{"poiid":"B209475CD564A7F84392","title":"上海滩浦东香格里拉店","lon":"121.50058","lat":"31.23634","category":"119","category_name":"商场","address":"浦东富成路33号香格里拉酒店内大堂层"},{"poiid":"B2094757D06FA3FA489E","title":"瑞虹新城一期","lon":"121.495416194","lat":"31.263365933","category":"47","category_name":"住宅区","address":"上海市虹口区临平路333号"},{"poiid":"B2094757D464A7F94198","title":"捞王猪肚鸡（临平店）","lon":"121.499637","lat":"31.259866","category":"247","category_name":"餐饮美食","address":"虹口区公平路761号"},{"poiid":"B2094757D06FA7F5479F","title":"味千拉面(瑞虹店)","lon":"121.49963849","lat":"31.260690978","category":"95","category_name":"日本料理","address":"虹口区临平路133弄瑞虹生活广场1楼13-14号(近飞虹路)"},{"poiid":"B2094751D264A6F9439B","title":"La Tagliatella 纯意堂","lon":"121.498318","lat":"31.262375","category":"98","category_name":"意式菜品餐厅","address":"虹口区飞虹支路118号(近地铁4号线临平路站)"},{"poiid":"B2094757D66FA6FA4598","title":"临平路地铁站","lon":"121.50087513","lat":"31.260837738","category":"36","category_name":"地铁站","address":"上海轨道交通,四号线,轨交临平路站,轻轨,4"},{"poiid":"B2094654DB65A6FC469D","title":"易买得(瑞虹店)","lon":"121.49843","lat":"31.26181","category":"118","category_name":"超级市场","address":"虹口区临平路133弄瑞虹生活广场内(近飞虹路)"},{"poiid":"B2094654DB6BA3F9449C","title":"一茶一坐 瑞虹店","lon":"121.49391","lat":"31.26285","category":"260","category_name":"其他","address":"虹口区临平路123号瑞虹新城二期商场1-2楼(近飞虹路)"},{"poiid":"B2094750D26AA0F4409F","title":"大家乐香港新一代茶餐厅瑞虹店","lon":"121.498779","lat":"31.262537","category":"247","category_name":"餐饮美食","address":"瑞虹路（瑞虹坊）"},{"poiid":"B2094757D06FA7FB499C","title":"DQ冰雪皇后(瑞虹店)","lon":"121.499096647","lat":"31.2608406891","category":"113","category_name":"冷饮店","address":"虹口区临平路123号瑞虹生活广场1楼(近飞虹路)"},{"poiid":"B2094750D26AA3FB439F","title":"costa瑞虹店","lon":"121.498443","lat":"31.261707","category":"162","category_name":"医院","address":"虹口区临平路225号瑞虹坊内(近瑞虹新城二期)"},{"poiid":"B2094655D26EABFC499E","title":"七十三家房客(虹口店)","lon":"121.49871","lat":"31.26097","category":"76","category_name":"上海菜","address":"虹口区临平路133弄瑞虹生活广场2楼(近飞虹路)"},{"poiid":"B2094750D26CA3FE459B","title":"唐韵秦风 瑞虹路店","lon":"121.49840354919","lat":"31.261897695753","category":"84","category_name":"西北菜","address":"虹口区瑞虹路138号瑞虹坊2楼(近临平路)"},{"poiid":"B2094757D06FA5FE499F","title":"巴黎贝甜(临平店)","lon":"121.49867","lat":"31.26073","category":"67","category_name":"甜品店","address":"虹口区临平路133弄瑞虹生活广场1楼33单元(近飞虹路)"},{"poiid":"B2094757D16FA6FF4793","title":"韩礼美食","lon":"121.501349603","lat":"31.2618257426","category":"96","category_name":"韩国料理","address":"虹口区飞虹路115号(近地铁四号线临平路站1号口)"},{"poiid":"B2094757D06FA6FC469F","title":"肯德基 KFC (瑞虹店)","lon":"121.49935","lat":"31.260692","category":"68","category_name":"快餐厅","address":"临平路123号近天宝路"},{"poiid":"B2094757DA69A2F44692","title":"牡丹亭--精品湘菜","lon":"121.49775232302","lat":"31.261720377328","category":"77","category_name":"湖南菜","address":"虹口区瑞虹路134号1楼(近临平路)"},{"poiid":"B2094757DA6EAAF8439C","title":"深井大叔港式烧腊(瑞虹生活广场店)","lon":"121.49768","lat":"31.2613","category":"72","category_name":"广东菜","address":"虹口区临平路133弄瑞虹生活广场1-01室(近天宝路)"},{"poiid":"B2094757D46FA3FF4292","title":"85度C 临平店","lon":"121.496640054","lat":"31.262250793","category":"67","category_name":"甜品店","address":"虹口区临平路327号(近天宝路)"},{"poiid":"B2094757D065A2F54992","title":"木子麻雀","lon":"121.495811103","lat":"31.2608422221","category":"500","category_name":"未知分类","address":"上海市虹口区物化路"},{"poiid":"B2094655D26DA6FA4993","title":"继光中学","lon":"121.49786","lat":"31.25904","category":"55","category_name":"中学","address":"虹口区高阳路690号(近临平路)"},{"poiid":"B2094757D068A5FE4992","title":"邵福楼(物华路店)","lon":"121.4967","lat":"31.259759","category":"76","category_name":"上海菜","address":"虹口区物华路73号渡边物华园附楼(近海拉尔路)"},{"poiid":"B2094750DB65A5FA4592","title":"纯意堂 La Tagliatella","lon":"121.49851","lat":"31.26251","category":"94","category_name":"西餐厅","address":"虹口区瑞虹路138号瑞虹坊2区(近天虹路)"},{"poiid":"B2094757D069AAF8469C","title":"紫彩寿司(瑞虹店)","lon":"121.499736","lat":"31.259650277","category":"95","category_name":"日本料理","address":"虹口区临平路133弄瑞虹新城内南广场1-06(近瑞虹生活广场)"},{"poiid":"B2094757D06FA0F84898","title":"一茶一座（瑞虹店）","lon":"121.4993515","lat":"31.26114273","category":"47","category_name":"住宅区","address":"上海虹口区临平路瑞虹生活广场"},{"poiid":"B2094751D46DA0FD4098","title":"鱼跃川味小馆","lon":"121.49791","lat":"31.26228","category":"71","category_name":"四川菜","address":"虹口区瑞虹路128号(近天虹路)"},{"poiid":"B2094757D069AAF8429F","title":"虹口现代公寓","lon":"121.49509","lat":"31.261597","category":"500","category_name":"未知分类","address":"上海市虹口区天宝路66弄"},{"poiid":"B2094757D164A7F5469B","title":"瑞虹新城","lon":"121.495373","lat":"31.263544","category":"47","category_name":"住宅区","address":"虹口区临平路333号"},{"poiid":"B2094757D069A1FA4492","title":"云酒楼","lon":"121.49545","lat":"31.26243","category":"260","category_name":"其他","address":"上海虹口区临平路303号(近天宝路瑞虹新城一期)  "},{"poiid":"B2094757D465A1FE489F","title":"九龙冰室 Kowloon Ice House","lon":"121.498579054","lat":"31.261225793","category":"72","category_name":"广东菜","address":"临平路123号瑞虹生活广场2-22单元"},{"poiid":"B2094654DB6BA3F8499A","title":"春草堂足道","lon":"121.49593","lat":"31.26154","category":"149","category_name":"洗浴推拿场所","address":""},{"poiid":"B2094757D069A0F94792","title":"临平路小吃摊","lon":"121.495465773","lat":"31.2624106022","category":"68","category_name":"快餐厅","address":"虹口区临平路333号瑞虹一期对面(近天宝路)"},{"poiid":"B2094750D668AAF5449A","title":"大家乐香港新一代茶餐厅","lon":"121.498474","lat":"31.261953","category":"247","category_name":"餐饮美食","address":"瑞虹路"},{"poiid":"B2094757D06FA4FF4293","title":"快乐柠檬(瑞虹生活广场店)","lon":"121.498966","lat":"31.259488","category":"113","category_name":"冷饮店","address":"上海临平路123号"},{"poiid":"B2094757D16DA6FF409D","title":"临平路天宝路口","lon":"121.495831103","lat":"31.261654239","category":"500","category_name":"未知分类","address":"上海市虹口区临平北路"},{"poiid":"B2094757D068A0FE4393","title":"金太子形象设计(临平路店)","lon":"121.49985","lat":"31.25948","category":"148","category_name":"美容美发店","address":"上海虹口区临平路22号(近飞虹路)"},{"poiid":"B2094654D56DAAFB4392","title":"瑞虹生活广场(北门)","lon":"121.49872","lat":"31.26098","category":"119","category_name":"商场","address":"临平路123"},{"poiid":"B2094753D46CA2FC4893","title":"哈根达斯（瑞虹店）","lon":"121.498756","lat":"31.260826","category":"263","category_name":"公司","address":"上海市 上海虹口区瑞虹生活广场"},{"poiid":"B2094757D465ABFE469C","title":"重庆鸡公煲 临平路店","lon":"121.494897054","lat":"31.262573793","category":"71","category_name":"四川菜","address":"虹口区临平路78号(近天宝路)"},{"poiid":"B2094757D469A0F84092","title":"卡乐杯 瑞虹生活广场店","lon":"121.497712","lat":"31.2612903","category":"113","category_name":"冷饮店","address":"虹口区临平路133弄瑞虹生活广场易买得超市出口处"},{"poiid":"B2094655D36CA3FB499D","title":"毛家湘菜","lon":"121.49622","lat":"31.26126","category":"77","category_name":"湖南菜","address":"虹口区天宝路65号(近物华路)"},{"poiid":"B2094751D26BA5FB489A","title":"瑞虹新城璟庭","lon":"121.496855","lat":"31.2619","category":"47","category_name":"住宅区","address":"虹口区临平路225号(近瑞虹路)"},{"poiid":"B2094757D069A0FD429D","title":"德笼馆 物华店","lon":"121.497431054","lat":"31.258773793","category":"68","category_name":"快餐厅","address":"虹口区物华路73号(海拉尔路口)"},{"poiid":"B2094757D069ABFB439A","title":"上海市税务局虹口分局","lon":"121.49753844","lat":"31.26145376","category":"500","category_name":"未知分类","address":"上海虹口区临平北路35号"},{"poiid":"B2094751DA64A6F84492","title":"呷哺呷哺瑞虹新城店","lon":"121.499328","lat":"31.261074","category":"247","category_name":"餐饮美食","address":null},{"poiid":"B2094753D165A4F4489D","title":"文艺小榴芒","lon":"121.497156","lat":"31.261861","category":"247","category_name":"餐饮美食","address":"上海市 临平路"},{"poiid":"B2094750DB6DA4FB449F","title":"思妍丽","lon":"121.498581","lat":"31.262558","category":"248","category_name":"生活娱乐","address":"虹口区瑞虹路150号瑞虹坊1楼(近临平路)"},{"poiid":"B2094757D66BA6FE469E","title":"星巴克(瑞虹店)","lon":"121.4976846","lat":"31.2613082","category":"260","category_name":"其他","address":"虹口区临平路133弄瑞虹新城内(近飞虹路)"},{"poiid":"B2094750D365A4F94493","title":"顺风大酒店(瑞虹路店)","lon":"121.4979346984253","lat":"31.261761356687256","category":"75","category_name":"浙江菜","address":"虹口区瑞虹路116号瑞虹坊2楼(近临平北路)"},{"poiid":"B2094757D06FA4F4429F","title":"必胜客(瑞虹新城店)","lon":"121.4997061","lat":"31.260814221","category":"68","category_name":"快餐厅","address":"虹口区临平路133弄瑞虹生活广场1层17-18单元(近飞虹路)"},{"poiid":"B209475CD564A7F84392","title":"上海滩浦东香格里拉店","lon":"121.50058","lat":"31.23634","category":"119","category_name":"商场","address":"浦东富成路33号香格里拉酒店内大堂层"},{"poiid":"B2094757D06FA3FA489E","title":"瑞虹新城一期","lon":"121.495416194","lat":"31.263365933","category":"47","category_name":"住宅区","address":"上海市虹口区临平路333号"},{"poiid":"B2094757D464A7F94198","title":"捞王猪肚鸡（临平店）","lon":"121.499637","lat":"31.259866","category":"247","category_name":"餐饮美食","address":"虹口区公平路761号"},{"poiid":"B2094757D06FA7F5479F","title":"味千拉面(瑞虹店)","lon":"121.49963849","lat":"31.260690978","category":"95","category_name":"日本料理","address":"虹口区临平路133弄瑞虹生活广场1楼13-14号(近飞虹路)"},{"poiid":"B2094751D264A6F9439B","title":"La Tagliatella 纯意堂","lon":"121.498318","lat":"31.262375","category":"98","category_name":"意式菜品餐厅","address":"虹口区飞虹支路118号(近地铁4号线临平路站)"},{"poiid":"B2094757D66FA6FA4598","title":"临平路地铁站","lon":"121.50087513","lat":"31.260837738","category":"36","category_name":"地铁站","address":"上海轨道交通,四号线,轨交临平路站,轻轨,4"},{"poiid":"B2094654DB65A6FC469D","title":"易买得(瑞虹店)","lon":"121.49843","lat":"31.26181","category":"118","category_name":"超级市场","address":"虹口区临平路133弄瑞虹生活广场内(近飞虹路)"},{"poiid":"B2094654DB6BA3F9449C","title":"一茶一坐 瑞虹店","lon":"121.49391","lat":"31.26285","category":"260","category_name":"其他","address":"虹口区临平路123号瑞虹新城二期商场1-2楼(近飞虹路)"},{"poiid":"B2094750D26AA0F4409F","title":"大家乐香港新一代茶餐厅瑞虹店","lon":"121.498779","lat":"31.262537","category":"247","category_name":"餐饮美食","address":"瑞虹路（瑞虹坊）"},{"poiid":"B2094757D06FA7FB499C","title":"DQ冰雪皇后(瑞虹店)","lon":"121.499096647","lat":"31.2608406891","category":"113","category_name":"冷饮店","address":"虹口区临平路123号瑞虹生活广场1楼(近飞虹路)"},{"poiid":"B2094750D26AA3FB439F","title":"costa瑞虹店","lon":"121.498443","lat":"31.261707","category":"162","category_name":"医院","address":"虹口区临平路225号瑞虹坊内(近瑞虹新城二期)"},{"poiid":"B2094655D26EABFC499E","title":"七十三家房客(虹口店)","lon":"121.49871","lat":"31.26097","category":"76","category_name":"上海菜","address":"虹口区临平路133弄瑞虹生活广场2楼(近飞虹路)"},{"poiid":"B2094750D26CA3FE459B","title":"唐韵秦风 瑞虹路店","lon":"121.49840354919","lat":"31.261897695753","category":"84","category_name":"西北菜","address":"虹口区瑞虹路138号瑞虹坊2楼(近临平路)"},{"poiid":"B2094757D06FA5FE499F","title":"巴黎贝甜(临平店)","lon":"121.49867","lat":"31.26073","category":"67","category_name":"甜品店","address":"虹口区临平路133弄瑞虹生活广场1楼33单元(近飞虹路)"},{"poiid":"B2094757D16FA6FF4793","title":"韩礼美食","lon":"121.501349603","lat":"31.2618257426","category":"96","category_name":"韩国料理","address":"虹口区飞虹路115号(近地铁四号线临平路站1号口)"},{"poiid":"B2094757D06FA6FC469F","title":"肯德基 KFC (瑞虹店)","lon":"121.49935","lat":"31.260692","category":"68","category_name":"快餐厅","address":"临平路123号近天宝路"},{"poiid":"B2094757DA69A2F44692","title":"牡丹亭--精品湘菜","lon":"121.49775232302","lat":"31.261720377328","category":"77","category_name":"湖南菜","address":"虹口区瑞虹路134号1楼(近临平路)"},{"poiid":"B2094757DA6EAAF8439C","title":"深井大叔港式烧腊(瑞虹生活广场店)","lon":"121.49768","lat":"31.2613","category":"72","category_name":"广东菜","address":"虹口区临平路133弄瑞虹生活广场1-01室(近天宝路)"},{"poiid":"B2094757D46FA3FF4292","title":"85度C 临平店","lon":"121.496640054","lat":"31.262250793","category":"67","category_name":"甜品店","address":"虹口区临平路327号(近天宝路)"},{"poiid":"B2094757D065A2F54992","title":"木子麻雀","lon":"121.495811103","lat":"31.2608422221","category":"500","category_name":"未知分类","address":"上海市虹口区物化路"},{"poiid":"B2094655D26DA6FA4993","title":"继光中学","lon":"121.49786","lat":"31.25904","category":"55","category_name":"中学","address":"虹口区高阳路690号(近临平路)"},{"poiid":"B2094757D068A5FE4992","title":"邵福楼(物华路店)","lon":"121.4967","lat":"31.259759","category":"76","category_name":"上海菜","address":"虹口区物华路73号渡边物华园附楼(近海拉尔路)"},{"poiid":"B2094750DB65A5FA4592","title":"纯意堂 La Tagliatella","lon":"121.49851","lat":"31.26251","category":"94","category_name":"西餐厅","address":"虹口区瑞虹路138号瑞虹坊2区(近天虹路)"},{"poiid":"B2094757D069AAF8469C","title":"紫彩寿司(瑞虹店)","lon":"121.499736","lat":"31.259650277","category":"95","category_name":"日本料理","address":"虹口区临平路133弄瑞虹新城内南广场1-06(近瑞虹生活广场)"},{"poiid":"B2094757D06FA0F84898","title":"一茶一座（瑞虹店）","lon":"121.4993515","lat":"31.26114273","category":"47","category_name":"住宅区","address":"上海虹口区临平路瑞虹生活广场"},{"poiid":"B2094751D46DA0FD4098","title":"鱼跃川味小馆","lon":"121.49791","lat":"31.26228","category":"71","category_name":"四川菜","address":"虹口区瑞虹路128号(近天虹路)"},{"poiid":"B2094757D069AAF8429F","title":"虹口现代公寓","lon":"121.49509","lat":"31.261597","category":"500","category_name":"未知分类","address":"上海市虹口区天宝路66弄"},{"poiid":"B2094757D164A7F5469B","title":"瑞虹新城","lon":"121.495373","lat":"31.263544","category":"47","category_name":"住宅区","address":"虹口区临平路333号"},{"poiid":"B2094757D069A1FA4492","title":"云酒楼","lon":"121.49545","lat":"31.26243","category":"260","category_name":"其他","address":"上海虹口区临平路303号(近天宝路瑞虹新城一期)  "},{"poiid":"B2094757D465A1FE489F","title":"九龙冰室 Kowloon Ice House","lon":"121.498579054","lat":"31.261225793","category":"72","category_name":"广东菜","address":"临平路123号瑞虹生活广场2-22单元"},{"poiid":"B2094654DB6BA3F8499A","title":"春草堂足道","lon":"121.49593","lat":"31.26154","category":"149","category_name":"洗浴推拿场所","address":""},{"poiid":"B2094757D069A0F94792","title":"临平路小吃摊","lon":"121.495465773","lat":"31.2624106022","category":"68","category_name":"快餐厅","address":"虹口区临平路333号瑞虹一期对面(近天宝路)"},{"poiid":"B2094750D668AAF5449A","title":"大家乐香港新一代茶餐厅","lon":"121.498474","lat":"31.261953","category":"247","category_name":"餐饮美食","address":"瑞虹路"},{"poiid":"B2094757D06FA4FF4293","title":"快乐柠檬(瑞虹生活广场店)","lon":"121.498966","lat":"31.259488","category":"113","category_name":"冷饮店","address":"上海临平路123号"},{"poiid":"B2094757D16DA6FF409D","title":"临平路天宝路口","lon":"121.495831103","lat":"31.261654239","category":"500","category_name":"未知分类","address":"上海市虹口区临平北路"},{"poiid":"B2094757D068A0FE4393","title":"金太子形象设计(临平路店)","lon":"121.49985","lat":"31.25948","category":"148","category_name":"美容美发店","address":"上海虹口区临平路22号(近飞虹路)"},{"poiid":"B2094654D56DAAFB4392","title":"瑞虹生活广场(北门)","lon":"121.49872","lat":"31.26098","category":"119","category_name":"商场","address":"临平路123"},{"poiid":"B2094753D46CA2FC4893","title":"哈根达斯（瑞虹店）","lon":"121.498756","lat":"31.260826","category":"263","category_name":"公司","address":"上海市 上海虹口区瑞虹生活广场"},{"poiid":"B2094757D465ABFE469C","title":"重庆鸡公煲 临平路店","lon":"121.494897054","lat":"31.262573793","category":"71","category_name":"四川菜","address":"虹口区临平路78号(近天宝路)"},{"poiid":"B2094757D469A0F84092","title":"卡乐杯 瑞虹生活广场店","lon":"121.497712","lat":"31.2612903","category":"113","category_name":"冷饮店","address":"虹口区临平路133弄瑞虹生活广场易买得超市出口处"},{"poiid":"B2094655D36CA3FB499D","title":"毛家湘菜","lon":"121.49622","lat":"31.26126","category":"77","category_name":"湖南菜","address":"虹口区天宝路65号(近物华路)"},{"poiid":"B2094751D26BA5FB489A","title":"瑞虹新城璟庭","lon":"121.496855","lat":"31.2619","category":"47","category_name":"住宅区","address":"虹口区临平路225号(近瑞虹路)"},{"poiid":"B2094757D069A0FD429D","title":"德笼馆 物华店","lon":"121.497431054","lat":"31.258773793","category":"68","category_name":"快餐厅","address":"虹口区物华路73号(海拉尔路口)"},{"poiid":"B2094757D069ABFB439A","title":"上海市税务局虹口分局","lon":"121.49753844","lat":"31.26145376","category":"500","category_name":"未知分类","address":"上海虹口区临平北路35号"},{"poiid":"B2094751DA64A6F84492","title":"呷哺呷哺瑞虹新城店","lon":"121.499328","lat":"31.261074","category":"247","category_name":"餐饮美食","address":null},{"poiid":"B2094753D165A4F4489D","title":"文艺小榴芒","lon":"121.497156","lat":"31.261861","category":"247","category_name":"餐饮美食","address":"上海市 临平路"},{"poiid":"B2094750DB6DA4FB449F","title":"思妍丽","lon":"121.498581","lat":"31.262558","category":"248","category_name":"生活娱乐","address":"虹口区瑞虹路150号瑞虹坊1楼(近临平路)"}]