[{"poiid":"B2094757D16EA6FA4798","title":"颐和华城","lon":"121.40109895","lat":"31.2758011708","category":"47","category_name":"住宅区","address":"上海市普陀区武威路479弄"},{"poiid":"B2094757D06FA4FD4092","title":"康泰新城","lon":"121.404544","lat":"31.2801","category":"47","category_name":"住宅区","address":"上海华灵西路1885弄37号702"},{"poiid":"B2094757D06FA2FB4098","title":"晋元高级中学","lon":"121.3983","lat":"31.26996","category":"55","category_name":"中学","address":"普陀区新村路2169号(近大华万里城)"},{"poiid":"B2094757D065AAF4439E","title":"小南国海之源日式温泉(万里店)","lon":"121.40134595","lat":"31.2694990504","category":"500","category_name":"未知分类","address":"上海普陀区真金路239号(近新村路)"},{"poiid":"B2094757D06FA3FA419B","title":"愉景华庭","lon":"121.40168195","lat":"31.271195067","category":"47","category_name":"住宅区","address":"上海新村路2003弄"},{"poiid":"B2094757D06FABFE469C","title":"祥和星宇花园","lon":"121.39809388","lat":"31.2802769342","category":"47","category_name":"住宅区","address":"上海市闸北区康宁路616弄"},{"poiid":"B2094757D06FA7FB429C","title":"莲花公寓","lon":"121.403","lat":"31.284836","category":"47","category_name":"住宅区","address":"上海真北路3725弄"},{"poiid":"B2094757D064A6F5489F","title":"恒盛鼎城华公馆","lon":"121.39661883554","lat":"31.283067185","category":"500","category_name":"未知分类","address":"普陀区武威东路788弄(近桃浦西路)"},{"poiid":"B2094757D065A0FD439E","title":"金鑫花园","lon":"121.40401","lat":"31.278749","category":"47","category_name":"住宅区","address":"上海华灵路1900弄"},{"poiid":"B2094757D16CA7F5449A","title":"冠松大众","lon":"121.39540495","lat":"31.2721101003","category":"158","category_name":"汽车销售","address":"上海市普陀区真北路3045号"},{"poiid":"B2094655D36CA6FC449B","title":"古浪路真北路","lon":"121.39992","lat":"31.28123","category":"38","category_name":"公交车站","address":""},{"poiid":"B2094757D165A0FF409A","title":"晋元高级中学附属学校(分部)","lon":"121.39993905","lat":"31.2790335325","category":"500","category_name":"未知分类","address":"上海武威东路570号"},{"poiid":"B2094757D06AABFA409E","title":"冠松别克","lon":"121.39691995","lat":"31.274100138","category":"163","category_name":"4S店","address":"上海市普陀区真北路3045号"},{"poiid":"B2094757D664AAFB419D","title":"老绍兴三黄鸡酒家 富水路店","lon":"121.40014","lat":"31.27246","category":"75","category_name":"浙江菜","address":"普陀区富水路517号(近万泉路)"},{"poiid":"B2094654D465A2F84893","title":"复地太阳城","lon":"121.39957","lat":"31.28284","category":"47","category_name":"住宅区","address":"上海市普陀区古浪路108弄"},{"poiid":"B2094757D569A7F8429C","title":"祥和星宇花园一期","lon":"121.399085","lat":"31.281255","category":"47","category_name":"住宅区","address":"上海市普陀区古浪路55号"},{"poiid":"B2094757D16AA5F94693","title":"中环名品公馆","lon":"121.39634084","lat":"31.281997811","category":"500","category_name":"未知分类","address":"上海市古浪路真大路"},{"poiid":"B2094753D164A4F54292","title":"星巴克（大华店）","lon":"121.406594","lat":"31.27334","category":"500","category_name":"未知分类","address":"上海市 真华路第三空间一楼（近大华二路）"},{"poiid":"B2094654D464AAFC4293","title":"景露会议中心","lon":"121.40063","lat":"31.27838","category":"185","category_name":"会展中心","address":"真北路3508"},{"poiid":"B2094757D064A2FD4099","title":"上海平治汽车贸易有限公司(梅塞德斯-奔驰商用汽车代理)","lon":"121.39708095","lat":"31.2753651624","category":"500","category_name":"未知分类","address":"普陀区真北路3251号(近古浪路)"},{"poiid":"B2094757D06AA4F8419E","title":"凯旋华庭","lon":"121.40443","lat":"31.272333","category":"47","category_name":"住宅区","address":"上海市普陀区真金路457弄"},{"poiid":"B2094655D26BA7F9429E","title":"古竹里","lon":"121.39628","lat":"31.275","category":"47","category_name":"住宅区","address":"普陀区真北路3233号(近123吉曼酒店)"},{"poiid":"B2094654D464AAFC4292","title":"上海市公安局铁路公安处交通警察支队","lon":"121.40063","lat":"31.27838","category":"250","category_name":"公园户外","address":"真北路3508"},{"poiid":"B2094757D568A4F4429D","title":"复地美墅","lon":"121.40052","lat":"31.28134111","category":"47","category_name":"住宅区","address":"复地美墅位于普陀古浪路8号真北路口"},{"poiid":"B2094654D464AAFC4298","title":"世纪华联超市真北店","lon":"121.4002","lat":"31.2786","category":"117","category_name":"便民商店/便利店","address":""},{"poiid":"B2094654D465A2FF4092","title":"康泰新城(南门)","lon":"121.40454","lat":"31.28009","category":"656","category_name":"大门","address":"华灵路1895弄、1885弄"},{"poiid":"B2094654D465A2F9459B","title":"晋元高级中学附属学校","lon":"121.40566","lat":"31.27204","category":"55","category_name":"中学","address":"真金路512号"},{"poiid":"B2094654D464AAFC439F","title":"上海华安汽车销售有限公司(真北路)","lon":"121.39979","lat":"31.27828","category":"159","category_name":"汽车维修","address":"普陀区真北路3482号(华灵路口)"},{"poiid":"B2094757D464A0FA4592","title":"亚珠大酒楼","lon":"121.39679560797","lat":"31.275054967738","category":"88","category_name":"海鲜酒楼","address":"普陀区真北路3187号(近星云经济园区)"},{"poiid":"B2094757D569A3FD489F","title":"路易芬尼名媛SPA会馆","lon":"121.40194092","lat":"31.27621555","category":"148","category_name":"美容美发店","address":"武威东路428号"},{"poiid":"B2094757D06FA5F5449E","title":"蓝郡","lon":"121.40401","lat":"31.274359","category":"47","category_name":"住宅区","address":"上海普陀区武威东路479弄（颐和华城）"},{"poiid":"B2094654D464ABF5449F","title":"童的梦艺术幼儿园","lon":"121.40301","lat":"31.27234","category":"57","category_name":"幼儿园","address":"富水路385"},{"poiid":"B2094757D66DA6FC4692","title":"中环路","lon":"121.39959302","lat":"31.275414438","category":"500","category_name":"未知分类","address":"上海广粤路下口"},{"poiid":"B2094757D165A3F84099","title":"天语汽修","lon":"121.39829795","lat":"31.277644206","category":"163","category_name":"4S店","address":"上海真北路3319号，武威东路"},{"poiid":"B2094757D568A1FB499C","title":"好又多","lon":"121.40168674","lat":"31.2757723","category":"117","category_name":"便民商店/便利店","address":"武威东路469"},{"poiid":"B2094757D165A0FC439F","title":"长城汽车4s店","lon":"121.39935295","lat":"31.2781392154","category":"500","category_name":"未知分类","address":"上海真北路3482号"},{"poiid":"B2094654D464ABF5439C","title":"大华·愉景华庭","lon":"121.40081","lat":"31.27091","category":"47","category_name":"住宅区","address":"上海市普陀区新村路2003号"},{"poiid":"B2094757D569A7FF469F","title":"赵家小吃","lon":"121.40410021","lat":"31.2761263","category":"260","category_name":"其他","address":"宝山区武威东路312号(近真金路)"},{"poiid":"B2094654D464AAFC4699","title":"普陀星云经济区","lon":"121.39546","lat":"31.27491","category":"45","category_name":"产业园区","address":"真北路3199、3370号"},{"poiid":"B2094655D26EA5F9449B","title":"欧洛主题健身会所(普陀店)","lon":"121.40145","lat":"31.27593","category":"221","category_name":"健身中心","address":"普陀区武威东路477号"},{"poiid":"B2094654D464AAFC429D","title":"上海铁路公安处教育培训中心","lon":"121.40064","lat":"31.27838","category":"190","category_name":"培训机构","address":"真北路3508"},{"poiid":"B2094757D16DA6F8469C","title":"亚珠海鲜大酒楼","lon":"121.395746","lat":"31.274186","category":"247","category_name":"餐饮美食","address":"上海市普陀区真北路3187号"},{"poiid":"B2094757D16DA3FA469A","title":"万里一期","lon":"121.40112895","lat":"31.273997136","category":"47","category_name":"住宅区","address":"上海市普陀区新村路1881弄"},{"poiid":"B2094655D26AA1F8479E","title":"大众俱乐部挑战者汽车装饰有限公司","lon":"121.40323","lat":"31.27988","category":"247","category_name":"餐饮美食","address":"宝山区华灵路1920号(近真金路)"},{"poiid":"B2094750D564A4F54892","title":"愉景华庭写字楼","lon":"121.400685","lat":"31.270903","category":"46","category_name":"楼宇","address":"宝山区富水路480号"},{"poiid":"B2094757D068ABFB449A","title":"真北路","lon":"121.39625695","lat":"31.2741121385","category":"500","category_name":"未知分类","address":"上海真北路"},{"poiid":"B2094654DB69A5FB479B","title":"重庆鸡公煲 华灵路店","lon":"121.40556263515","lat":"31.279131427041","category":"247","category_name":"餐饮美食","address":"宝山区华灵路1303号"},{"poiid":"B2094654DB6AABFF4593","title":"全家(武威东路)","lon":"121.40621","lat":"31.27647","category":"117","category_name":"便民商店/便利店","address":""},{"poiid":"B2094654D464AAFC4993","title":"吉曼大厦","lon":"121.39609","lat":"31.27498","category":"46","category_name":"楼宇","address":""},{"poiid":"B2094757D065A3FF469D","title":"车生活养护公馆","lon":"121.39788287","lat":"31.276459423","category":"500","category_name":"未知分类","address":"普陀区真北路3370号"},{"poiid":"B2094757D16EA6FA4798","title":"颐和华城","lon":"121.40109895","lat":"31.2758011708","category":"47","category_name":"住宅区","address":"上海市普陀区武威路479弄"},{"poiid":"B2094757D06FA4FD4092","title":"康泰新城","lon":"121.404544","lat":"31.2801","category":"47","category_name":"住宅区","address":"上海华灵西路1885弄37号702"},{"poiid":"B2094757D06FA2FB4098","title":"晋元高级中学","lon":"121.3983","lat":"31.26996","category":"55","category_name":"中学","address":"普陀区新村路2169号(近大华万里城)"},{"poiid":"B2094757D065AAF4439E","title":"小南国海之源日式温泉(万里店)","lon":"121.40134595","lat":"31.2694990504","category":"500","category_name":"未知分类","address":"上海普陀区真金路239号(近新村路)"},{"poiid":"B2094757D06FA3FA419B","title":"愉景华庭","lon":"121.40168195","lat":"31.271195067","category":"47","category_name":"住宅区","address":"上海新村路2003弄"},{"poiid":"B2094757D06FABFE469C","title":"祥和星宇花园","lon":"121.39809388","lat":"31.2802769342","category":"47","category_name":"住宅区","address":"上海市闸北区康宁路616弄"},{"poiid":"B2094757D06FA7FB429C","title":"莲花公寓","lon":"121.403","lat":"31.284836","category":"47","category_name":"住宅区","address":"上海真北路3725弄"},{"poiid":"B2094757D064A6F5489F","title":"恒盛鼎城华公馆","lon":"121.39661883554","lat":"31.283067185","category":"500","category_name":"未知分类","address":"普陀区武威东路788弄(近桃浦西路)"},{"poiid":"B2094757D065A0FD439E","title":"金鑫花园","lon":"121.40401","lat":"31.278749","category":"47","category_name":"住宅区","address":"上海华灵路1900弄"},{"poiid":"B2094757D16CA7F5449A","title":"冠松大众","lon":"121.39540495","lat":"31.2721101003","category":"158","category_name":"汽车销售","address":"上海市普陀区真北路3045号"},{"poiid":"B2094655D36CA6FC449B","title":"古浪路真北路","lon":"121.39992","lat":"31.28123","category":"38","category_name":"公交车站","address":""},{"poiid":"B2094757D165A0FF409A","title":"晋元高级中学附属学校(分部)","lon":"121.39993905","lat":"31.2790335325","category":"500","category_name":"未知分类","address":"上海武威东路570号"},{"poiid":"B2094757D06AABFA409E","title":"冠松别克","lon":"121.39691995","lat":"31.274100138","category":"163","category_name":"4S店","address":"上海市普陀区真北路3045号"},{"poiid":"B2094757D664AAFB419D","title":"老绍兴三黄鸡酒家 富水路店","lon":"121.40014","lat":"31.27246","category":"75","category_name":"浙江菜","address":"普陀区富水路517号(近万泉路)"},{"poiid":"B2094654D465A2F84893","title":"复地太阳城","lon":"121.39957","lat":"31.28284","category":"47","category_name":"住宅区","address":"上海市普陀区古浪路108弄"},{"poiid":"B2094757D569A7F8429C","title":"祥和星宇花园一期","lon":"121.399085","lat":"31.281255","category":"47","category_name":"住宅区","address":"上海市普陀区古浪路55号"},{"poiid":"B2094757D16AA5F94693","title":"中环名品公馆","lon":"121.39634084","lat":"31.281997811","category":"500","category_name":"未知分类","address":"上海市古浪路真大路"},{"poiid":"B2094753D164A4F54292","title":"星巴克（大华店）","lon":"121.406594","lat":"31.27334","category":"500","category_name":"未知分类","address":"上海市 真华路第三空间一楼（近大华二路）"},{"poiid":"B2094654D464AAFC4293","title":"景露会议中心","lon":"121.40063","lat":"31.27838","category":"185","category_name":"会展中心","address":"真北路3508"},{"poiid":"B2094757D064A2FD4099","title":"上海平治汽车贸易有限公司(梅塞德斯-奔驰商用汽车代理)","lon":"121.39708095","lat":"31.2753651624","category":"500","category_name":"未知分类","address":"普陀区真北路3251号(近古浪路)"},{"poiid":"B2094757D06AA4F8419E","title":"凯旋华庭","lon":"121.40443","lat":"31.272333","category":"47","category_name":"住宅区","address":"上海市普陀区真金路457弄"},{"poiid":"B2094655D26BA7F9429E","title":"古竹里","lon":"121.39628","lat":"31.275","category":"47","category_name":"住宅区","address":"普陀区真北路3233号(近123吉曼酒店)"},{"poiid":"B2094654D464AAFC4292","title":"上海市公安局铁路公安处交通警察支队","lon":"121.40063","lat":"31.27838","category":"250","category_name":"公园户外","address":"真北路3508"},{"poiid":"B2094757D568A4F4429D","title":"复地美墅","lon":"121.40052","lat":"31.28134111","category":"47","category_name":"住宅区","address":"复地美墅位于普陀古浪路8号真北路口"},{"poiid":"B2094654D464AAFC4298","title":"世纪华联超市真北店","lon":"121.4002","lat":"31.2786","category":"117","category_name":"便民商店/便利店","address":""},{"poiid":"B2094654D465A2FF4092","title":"康泰新城(南门)","lon":"121.40454","lat":"31.28009","category":"656","category_name":"大门","address":"华灵路1895弄、1885弄"},{"poiid":"B2094654D465A2F9459B","title":"晋元高级中学附属学校","lon":"121.40566","lat":"31.27204","category":"55","category_name":"中学","address":"真金路512号"},{"poiid":"B2094654D464AAFC439F","title":"上海华安汽车销售有限公司(真北路)","lon":"121.39979","lat":"31.27828","category":"159","category_name":"汽车维修","address":"普陀区真北路3482号(华灵路口)"},{"poiid":"B2094757D464A0FA4592","title":"亚珠大酒楼","lon":"121.39679560797","lat":"31.275054967738","category":"88","category_name":"海鲜酒楼","address":"普陀区真北路3187号(近星云经济园区)"},{"poiid":"B2094757D569A3FD489F","title":"路易芬尼名媛SPA会馆","lon":"121.40194092","lat":"31.27621555","category":"148","category_name":"美容美发店","address":"武威东路428号"},{"poiid":"B2094757D06FA5F5449E","title":"蓝郡","lon":"121.40401","lat":"31.274359","category":"47","category_name":"住宅区","address":"上海普陀区武威东路479弄（颐和华城）"},{"poiid":"B2094654D464ABF5449F","title":"童的梦艺术幼儿园","lon":"121.40301","lat":"31.27234","category":"57","category_name":"幼儿园","address":"富水路385"},{"poiid":"B2094757D66DA6FC4692","title":"中环路","lon":"121.39959302","lat":"31.275414438","category":"500","category_name":"未知分类","address":"上海广粤路下口"},{"poiid":"B2094757D165A3F84099","title":"天语汽修","lon":"121.39829795","lat":"31.277644206","category":"163","category_name":"4S店","address":"上海真北路3319号，武威东路"},{"poiid":"B2094757D568A1FB499C","title":"好又多","lon":"121.40168674","lat":"31.2757723","category":"117","category_name":"便民商店/便利店","address":"武威东路469"},{"poiid":"B2094757D165A0FC439F","title":"长城汽车4s店","lon":"121.39935295","lat":"31.2781392154","category":"500","category_name":"未知分类","address":"上海真北路3482号"},{"poiid":"B2094654D464ABF5439C","title":"大华·愉景华庭","lon":"121.40081","lat":"31.27091","category":"47","category_name":"住宅区","address":"上海市普陀区新村路2003号"},{"poiid":"B2094757D569A7FF469F","title":"赵家小吃","lon":"121.40410021","lat":"31.2761263","category":"260","category_name":"其他","address":"宝山区武威东路312号(近真金路)"},{"poiid":"B2094654D464AAFC4699","title":"普陀星云经济区","lon":"121.39546","lat":"31.27491","category":"45","category_name":"产业园区","address":"真北路3199、3370号"},{"poiid":"B2094655D26EA5F9449B","title":"欧洛主题健身会所(普陀店)","lon":"121.40145","lat":"31.27593","category":"221","category_name":"健身中心","address":"普陀区武威东路477号"},{"poiid":"B2094654D464AAFC429D","title":"上海铁路公安处教育培训中心","lon":"121.40064","lat":"31.27838","category":"190","category_name":"培训机构","address":"真北路3508"},{"poiid":"B2094757D16DA6F8469C","title":"亚珠海鲜大酒楼","lon":"121.395746","lat":"31.274186","category":"247","category_name":"餐饮美食","address":"上海市普陀区真北路3187号"},{"poiid":"B2094757D16DA3FA469A","title":"万里一期","lon":"121.40112895","lat":"31.273997136","category":"47","category_name":"住宅区","address":"上海市普陀区新村路1881弄"},{"poiid":"B2094655D26AA1F8479E","title":"大众俱乐部挑战者汽车装饰有限公司","lon":"121.40323","lat":"31.27988","category":"247","category_name":"餐饮美食","address":"宝山区华灵路1920号(近真金路)"},{"poiid":"B2094750D564A4F54892","title":"愉景华庭写字楼","lon":"121.400685","lat":"31.270903","category":"46","category_name":"楼宇","address":"宝山区富水路480号"},{"poiid":"B2094757D068ABFB449A","title":"真北路","lon":"121.39625695","lat":"31.2741121385","category":"500","category_name":"未知分类","address":"上海真北路"},{"poiid":"B2094654DB69A5FB479B","title":"重庆鸡公煲 华灵路店","lon":"121.40556263515","lat":"31.279131427041","category":"247","category_name":"餐饮美食","address":"宝山区华灵路1303号"},{"poiid":"B2094654DB6AABFF4593","title":"全家(武威东路)","lon":"121.40621","lat":"31.27647","category":"117","category_name":"便民商店/便利店","address":""},{"poiid":"B2094654D464AAFC4993","title":"吉曼大厦","lon":"121.39609","lat":"31.27498","category":"46","category_name":"楼宇","address":""},{"poiid":"B2094757D065A3FF469D","title":"车生活养护公馆","lon":"121.39788287","lat":"31.276459423","category":"500","category_name":"未知分类","address":"普陀区真北路3370号"},{"poiid":"B2094757D16EA6FA4798","title":"颐和华城","lon":"121.40109895","lat":"31.2758011708","category":"47","category_name":"住宅区","address":"上海市普陀区武威路479弄"},{"poiid":"B2094757D06FA4FD4092","title":"康泰新城","lon":"121.404544","lat":"31.2801","category":"47","category_name":"住宅区","address":"上海华灵西路1885弄37号702"},{"poiid":"B2094757D06FA2FB4098","title":"晋元高级中学","lon":"121.3983","lat":"31.26996","category":"55","category_name":"中学","address":"普陀区新村路2169号(近大华万里城)"},{"poiid":"B2094757D065AAF4439E","title":"小南国海之源日式温泉(万里店)","lon":"121.40134595","lat":"31.2694990504","category":"500","category_name":"未知分类","address":"上海普陀区真金路239号(近新村路)"},{"poiid":"B2094757D06FA3FA419B","title":"愉景华庭","lon":"121.40168195","lat":"31.271195067","category":"47","category_name":"住宅区","address":"上海新村路2003弄"},{"poiid":"B2094757D06FABFE469C","title":"祥和星宇花园","lon":"121.39809388","lat":"31.2802769342","category":"47","category_name":"住宅区","address":"上海市闸北区康宁路616弄"},{"poiid":"B2094757D06FA7FB429C","title":"莲花公寓","lon":"121.403","lat":"31.284836","category":"47","category_name":"住宅区","address":"上海真北路3725弄"},{"poiid":"B2094757D064A6F5489F","title":"恒盛鼎城华公馆","lon":"121.39661883554","lat":"31.283067185","category":"500","category_name":"未知分类","address":"普陀区武威东路788弄(近桃浦西路)"},{"poiid":"B2094757D065A0FD439E","title":"金鑫花园","lon":"121.40401","lat":"31.278749","category":"47","category_name":"住宅区","address":"上海华灵路1900弄"},{"poiid":"B2094757D16CA7F5449A","title":"冠松大众","lon":"121.39540495","lat":"31.2721101003","category":"158","category_name":"汽车销售","address":"上海市普陀区真北路3045号"},{"poiid":"B2094655D36CA6FC449B","title":"古浪路真北路","lon":"121.39992","lat":"31.28123","category":"38","category_name":"公交车站","address":""},{"poiid":"B2094757D165A0FF409A","title":"晋元高级中学附属学校(分部)","lon":"121.39993905","lat":"31.2790335325","category":"500","category_name":"未知分类","address":"上海武威东路570号"},{"poiid":"B2094757D06AABFA409E","title":"冠松别克","lon":"121.39691995","lat":"31.274100138","category":"163","category_name":"4S店","address":"上海市普陀区真北路3045号"},{"poiid":"B2094757D664AAFB419D","title":"老绍兴三黄鸡酒家 富水路店","lon":"121.40014","lat":"31.27246","category":"75","category_name":"浙江菜","address":"普陀区富水路517号(近万泉路)"},{"poiid":"B2094654D465A2F84893","title":"复地太阳城","lon":"121.39957","lat":"31.28284","category":"47","category_name":"住宅区","address":"上海市普陀区古浪路108弄"},{"poiid":"B2094757D569A7F8429C","title":"祥和星宇花园一期","lon":"121.399085","lat":"31.281255","category":"47","category_name":"住宅区","address":"上海市普陀区古浪路55号"},{"poiid":"B2094757D16AA5F94693","title":"中环名品公馆","lon":"121.39634084","lat":"31.281997811","category":"500","category_name":"未知分类","address":"上海市古浪路真大路"},{"poiid":"B2094753D164A4F54292","title":"星巴克（大华店）","lon":"121.406594","lat":"31.27334","category":"500","category_name":"未知分类","address":"上海市 真华路第三空间一楼（近大华二路）"},{"poiid":"B2094654D464AAFC4293","title":"景露会议中心","lon":"121.40063","lat":"31.27838","category":"185","category_name":"会展中心","address":"真北路3508"},{"poiid":"B2094757D064A2FD4099","title":"上海平治汽车贸易有限公司(梅塞德斯-奔驰商用汽车代理)","lon":"121.39708095","lat":"31.2753651624","category":"500","category_name":"未知分类","address":"普陀区真北路3251号(近古浪路)"},{"poiid":"B2094757D06AA4F8419E","title":"凯旋华庭","lon":"121.40443","lat":"31.272333","category":"47","category_name":"住宅区","address":"上海市普陀区真金路457弄"},{"poiid":"B2094655D26BA7F9429E","title":"古竹里","lon":"121.39628","lat":"31.275","category":"47","category_name":"住宅区","address":"普陀区真北路3233号(近123吉曼酒店)"},{"poiid":"B2094654D464AAFC4292","title":"上海市公安局铁路公安处交通警察支队","lon":"121.40063","lat":"31.27838","category":"250","category_name":"公园户外","address":"真北路3508"},{"poiid":"B2094757D568A4F4429D","title":"复地美墅","lon":"121.40052","lat":"31.28134111","category":"47","category_name":"住宅区","address":"复地美墅位于普陀古浪路8号真北路口"},{"poiid":"B2094654D464AAFC4298","title":"世纪华联超市真北店","lon":"121.4002","lat":"31.2786","category":"117","category_name":"便民商店/便利店","address":""},{"poiid":"B2094654D465A2FF4092","title":"康泰新城(南门)","lon":"121.40454","lat":"31.28009","category":"656","category_name":"大门","address":"华灵路1895弄、1885弄"},{"poiid":"B2094654D465A2F9459B","title":"晋元高级中学附属学校","lon":"121.40566","lat":"31.27204","category":"55","category_name":"中学","address":"真金路512号"},{"poiid":"B2094654D464AAFC439F","title":"上海华安汽车销售有限公司(真北路)","lon":"121.39979","lat":"31.27828","category":"159","category_name":"汽车维修","address":"普陀区真北路3482号(华灵路口)"},{"poiid":"B2094757D464A0FA4592","title":"亚珠大酒楼","lon":"121.39679560797","lat":"31.275054967738","category":"88","category_name":"海鲜酒楼","address":"普陀区真北路3187号(近星云经济园区)"},{"poiid":"B2094757D569A3FD489F","title":"路易芬尼名媛SPA会馆","lon":"121.40194092","lat":"31.27621555","category":"148","category_name":"美容美发店","address":"武威东路428号"},{"poiid":"B2094757D06FA5F5449E","title":"蓝郡","lon":"121.40401","lat":"31.274359","category":"47","category_name":"住宅区","address":"上海普陀区武威东路479弄（颐和华城）"},{"poiid":"B2094654D464ABF5449F","title":"童的梦艺术幼儿园","lon":"121.40301","lat":"31.27234","category":"57","category_name":"幼儿园","address":"富水路385"},{"poiid":"B2094757D66DA6FC4692","title":"中环路","lon":"121.39959302","lat":"31.275414438","category":"500","category_name":"未知分类","address":"上海广粤路下口"},{"poiid":"B2094757D165A3F84099","title":"天语汽修","lon":"121.39829795","lat":"31.277644206","category":"163","category_name":"4S店","address":"上海真北路3319号，武威东路"},{"poiid":"B2094757D568A1FB499C","title":"好又多","lon":"121.40168674","lat":"31.2757723","category":"117","category_name":"便民商店/便利店","address":"武威东路469"},{"poiid":"B2094757D165A0FC439F","title":"长城汽车4s店","lon":"121.39935295","lat":"31.2781392154","category":"500","category_name":"未知分类","address":"上海真北路3482号"},{"poiid":"B2094654D464ABF5439C","title":"大华·愉景华庭","lon":"121.40081","lat":"31.27091","category":"47","category_name":"住宅区","address":"上海市普陀区新村路2003号"},{"poiid":"B2094757D569A7FF469F","title":"赵家小吃","lon":"121.40410021","lat":"31.2761263","category":"260","category_name":"其他","address":"宝山区武威东路312号(近真金路)"},{"poiid":"B2094654D464AAFC4699","title":"普陀星云经济区","lon":"121.39546","lat":"31.27491","category":"45","category_name":"产业园区","address":"真北路3199、3370号"},{"poiid":"B2094655D26EA5F9449B","title":"欧洛主题健身会所(普陀店)","lon":"121.40145","lat":"31.27593","category":"221","category_name":"健身中心","address":"普陀区武威东路477号"},{"poiid":"B2094654D464AAFC429D","title":"上海铁路公安处教育培训中心","lon":"121.40064","lat":"31.27838","category":"190","category_name":"培训机构","address":"真北路3508"},{"poiid":"B2094757D16DA6F8469C","title":"亚珠海鲜大酒楼","lon":"121.395746","lat":"31.274186","category":"247","category_name":"餐饮美食","address":"上海市普陀区真北路3187号"},{"poiid":"B2094757D16DA3FA469A","title":"万里一期","lon":"121.40112895","lat":"31.273997136","category":"47","category_name":"住宅区","address":"上海市普陀区新村路1881弄"},{"poiid":"B2094655D26AA1F8479E","title":"大众俱乐部挑战者汽车装饰有限公司","lon":"121.40323","lat":"31.27988","category":"247","category_name":"餐饮美食","address":"宝山区华灵路1920号(近真金路)"},{"poiid":"B2094750D564A4F54892","title":"愉景华庭写字楼","lon":"121.400685","lat":"31.270903","category":"46","category_name":"楼宇","address":"宝山区富水路480号"},{"poiid":"B2094757D068ABFB449A","title":"真北路","lon":"121.39625695","lat":"31.2741121385","category":"500","category_name":"未知分类","address":"上海真北路"},{"poiid":"B2094654DB69A5FB479B","title":"重庆鸡公煲 华灵路店","lon":"121.40556263515","lat":"31.279131427041","category":"247","category_name":"餐饮美食","address":"宝山区华灵路1303号"},{"poiid":"B2094654DB6AABFF4593","title":"全家(武威东路)","lon":"121.40621","lat":"31.27647","category":"117","category_name":"便民商店/便利店","address":""},{"poiid":"B2094654D464AAFC4993","title":"吉曼大厦","lon":"121.39609","lat":"31.27498","category":"46","category_name":"楼宇","address":""},{"poiid":"B2094757D065A3FF469D","title":"车生活养护公馆","lon":"121.39788287","lat":"31.276459423","category":"500","category_name":"未知分类","address":"普陀区真北路3370号"},{"poiid":"B2094757D16EA6FA4798","title":"颐和华城","lon":"121.40109895","lat":"31.2758011708","category":"47","category_name":"住宅区","address":"上海市普陀区武威路479弄"},{"poiid":"B2094757D06FA4FD4092","title":"康泰新城","lon":"121.404544","lat":"31.2801","category":"47","category_name":"住宅区","address":"上海华灵西路1885弄37号702"},{"poiid":"B2094757D06FA2FB4098","title":"晋元高级中学","lon":"121.3983","lat":"31.26996","category":"55","category_name":"中学","address":"普陀区新村路2169号(近大华万里城)"},{"poiid":"B2094757D065AAF4439E","title":"小南国海之源日式温泉(万里店)","lon":"121.40134595","lat":"31.2694990504","category":"500","category_name":"未知分类","address":"上海普陀区真金路239号(近新村路)"},{"poiid":"B2094757D06FA3FA419B","title":"愉景华庭","lon":"121.40168195","lat":"31.271195067","category":"47","category_name":"住宅区","address":"上海新村路2003弄"},{"poiid":"B2094757D06FABFE469C","title":"祥和星宇花园","lon":"121.39809388","lat":"31.2802769342","category":"47","category_name":"住宅区","address":"上海市闸北区康宁路616弄"},{"poiid":"B2094757D06FA7FB429C","title":"莲花公寓","lon":"121.403","lat":"31.284836","category":"47","category_name":"住宅区","address":"上海真北路3725弄"},{"poiid":"B2094757D064A6F5489F","title":"恒盛鼎城华公馆","lon":"121.39661883554","lat":"31.283067185","category":"500","category_name":"未知分类","address":"普陀区武威东路788弄(近桃浦西路)"},{"poiid":"B2094757D065A0FD439E","title":"金鑫花园","lon":"121.40401","lat":"31.278749","category":"47","category_name":"住宅区","address":"上海华灵路1900弄"},{"poiid":"B2094757D16CA7F5449A","title":"冠松大众","lon":"121.39540495","lat":"31.2721101003","category":"158","category_name":"汽车销售","address":"上海市普陀区真北路3045号"},{"poiid":"B2094655D36CA6FC449B","title":"古浪路真北路","lon":"121.39992","lat":"31.28123","category":"38","category_name":"公交车站","address":""},{"poiid":"B2094757D165A0FF409A","title":"晋元高级中学附属学校(分部)","lon":"121.39993905","lat":"31.2790335325","category":"500","category_name":"未知分类","address":"上海武威东路570号"},{"poiid":"B2094757D06AABFA409E","title":"冠松别克","lon":"121.39691995","lat":"31.274100138","category":"163","category_name":"4S店","address":"上海市普陀区真北路3045号"},{"poiid":"B2094757D664AAFB419D","title":"老绍兴三黄鸡酒家 富水路店","lon":"121.40014","lat":"31.27246","category":"75","category_name":"浙江菜","address":"普陀区富水路517号(近万泉路)"},{"poiid":"B2094654D465A2F84893","title":"复地太阳城","lon":"121.39957","lat":"31.28284","category":"47","category_name":"住宅区","address":"上海市普陀区古浪路108弄"},{"poiid":"B2094757D569A7F8429C","title":"祥和星宇花园一期","lon":"121.399085","lat":"31.281255","category":"47","category_name":"住宅区","address":"上海市普陀区古浪路55号"},{"poiid":"B2094757D16AA5F94693","title":"中环名品公馆","lon":"121.39634084","lat":"31.281997811","category":"500","category_name":"未知分类","address":"上海市古浪路真大路"},{"poiid":"B2094753D164A4F54292","title":"星巴克（大华店）","lon":"121.406594","lat":"31.27334","category":"500","category_name":"未知分类","address":"上海市 真华路第三空间一楼（近大华二路）"},{"poiid":"B2094654D464AAFC4293","title":"景露会议中心","lon":"121.40063","lat":"31.27838","category":"185","category_name":"会展中心","address":"真北路3508"},{"poiid":"B2094757D064A2FD4099","title":"上海平治汽车贸易有限公司(梅塞德斯-奔驰商用汽车代理)","lon":"121.39708095","lat":"31.2753651624","category":"500","category_name":"未知分类","address":"普陀区真北路3251号(近古浪路)"},{"poiid":"B2094757D06AA4F8419E","title":"凯旋华庭","lon":"121.40443","lat":"31.272333","category":"47","category_name":"住宅区","address":"上海市普陀区真金路457弄"},{"poiid":"B2094655D26BA7F9429E","title":"古竹里","lon":"121.39628","lat":"31.275","category":"47","category_name":"住宅区","address":"普陀区真北路3233号(近123吉曼酒店)"},{"poiid":"B2094654D464AAFC4292","title":"上海市公安局铁路公安处交通警察支队","lon":"121.40063","lat":"31.27838","category":"250","category_name":"公园户外","address":"真北路3508"},{"poiid":"B2094757D568A4F4429D","title":"复地美墅","lon":"121.40052","lat":"31.28134111","category":"47","category_name":"住宅区","address":"复地美墅位于普陀古浪路8号真北路口"},{"poiid":"B2094654D464AAFC4298","title":"世纪华联超市真北店","lon":"121.4002","lat":"31.2786","category":"117","category_name":"便民商店/便利店","address":""},{"poiid":"B2094654D465A2FF4092","title":"康泰新城(南门)","lon":"121.40454","lat":"31.28009","category":"656","category_name":"大门","address":"华灵路1895弄、1885弄"},{"poiid":"B2094654D465A2F9459B","title":"晋元高级中学附属学校","lon":"121.40566","lat":"31.27204","category":"55","category_name":"中学","address":"真金路512号"},{"poiid":"B2094654D464AAFC439F","title":"上海华安汽车销售有限公司(真北路)","lon":"121.39979","lat":"31.27828","category":"159","category_name":"汽车维修","address":"普陀区真北路3482号(华灵路口)"},{"poiid":"B2094757D464A0FA4592","title":"亚珠大酒楼","lon":"121.39679560797","lat":"31.275054967738","category":"88","category_name":"海鲜酒楼","address":"普陀区真北路3187号(近星云经济园区)"},{"poiid":"B2094757D569A3FD489F","title":"路易芬尼名媛SPA会馆","lon":"121.40194092","lat":"31.27621555","category":"148","category_name":"美容美发店","address":"武威东路428号"},{"poiid":"B2094757D06FA5F5449E","title":"蓝郡","lon":"121.40401","lat":"31.274359","category":"47","category_name":"住宅区","address":"上海普陀区武威东路479弄（颐和华城）"},{"poiid":"B2094654D464ABF5449F","title":"童的梦艺术幼儿园","lon":"121.40301","lat":"31.27234","category":"57","category_name":"幼儿园","address":"富水路385"},{"poiid":"B2094757D66DA6FC4692","title":"中环路","lon":"121.39959302","lat":"31.275414438","category":"500","category_name":"未知分类","address":"上海广粤路下口"},{"poiid":"B2094757D165A3F84099","title":"天语汽修","lon":"121.39829795","lat":"31.277644206","category":"163","category_name":"4S店","address":"上海真北路3319号，武威东路"},{"poiid":"B2094757D568A1FB499C","title":"好又多","lon":"121.40168674","lat":"31.2757723","category":"117","category_name":"便民商店/便利店","address":"武威东路469"},{"poiid":"B2094757D165A0FC439F","title":"长城汽车4s店","lon":"121.39935295","lat":"31.2781392154","category":"500","category_name":"未知分类","address":"上海真北路3482号"},{"poiid":"B2094654D464ABF5439C","title":"大华·愉景华庭","lon":"121.40081","lat":"31.27091","category":"47","category_name":"住宅区","address":"上海市普陀区新村路2003号"},{"poiid":"B2094757D569A7FF469F","title":"赵家小吃","lon":"121.40410021","lat":"31.2761263","category":"260","category_name":"其他","address":"宝山区武威东路312号(近真金路)"},{"poiid":"B2094654D464AAFC4699","title":"普陀星云经济区","lon":"121.39546","lat":"31.27491","category":"45","category_name":"产业园区","address":"真北路3199、3370号"},{"poiid":"B2094655D26EA5F9449B","title":"欧洛主题健身会所(普陀店)","lon":"121.40145","lat":"31.27593","category":"221","category_name":"健身中心","address":"普陀区武威东路477号"},{"poiid":"B2094654D464AAFC429D","title":"上海铁路公安处教育培训中心","lon":"121.40064","lat":"31.27838","category":"190","category_name":"培训机构","address":"真北路3508"},{"poiid":"B2094757D16DA6F8469C","title":"亚珠海鲜大酒楼","lon":"121.395746","lat":"31.274186","category":"247","category_name":"餐饮美食","address":"上海市普陀区真北路3187号"},{"poiid":"B2094757D16DA3FA469A","title":"万里一期","lon":"121.40112895","lat":"31.273997136","category":"47","category_name":"住宅区","address":"上海市普陀区新村路1881弄"},{"poiid":"B2094655D26AA1F8479E","title":"大众俱乐部挑战者汽车装饰有限公司","lon":"121.40323","lat":"31.27988","category":"247","category_name":"餐饮美食","address":"宝山区华灵路1920号(近真金路)"},{"poiid":"B2094750D564A4F54892","title":"愉景华庭写字楼","lon":"121.400685","lat":"31.270903","category":"46","category_name":"楼宇","address":"宝山区富水路480号"},{"poiid":"B2094757D068ABFB449A","title":"真北路","lon":"121.39625695","lat":"31.2741121385","category":"500","category_name":"未知分类","address":"上海真北路"},{"poiid":"B2094654DB69A5FB479B","title":"重庆鸡公煲 华灵路店","lon":"121.40556263515","lat":"31.279131427041","category":"247","category_name":"餐饮美食","address":"宝山区华灵路1303号"},{"poiid":"B2094654DB6AABFF4593","title":"全家(武威东路)","lon":"121.40621","lat":"31.27647","category":"117","category_name":"便民商店/便利店","address":""},{"poiid":"B2094654D464AAFC4993","title":"吉曼大厦","lon":"121.39609","lat":"31.27498","category":"46","category_name":"楼宇","address":""},{"poiid":"B2094757D065A3FF469D","title":"车生活养护公馆","lon":"121.39788287","lat":"31.276459423","category":"500","category_name":"未知分类","address":"普陀区真北路3370号"}]