[{"poiid":"B2094757D069A6F84293","title":"沈湖生态农庄","lon":"121.559176","lat":"31.05299","category":"247","category_name":"餐饮美食","address":"上海航头镇牌楼村"},{"poiid":"B2094750D66FA0FF439C","title":"浦江玫瑰园","lon":"121.55423807327","lat":"31.045134300237","category":"250","category_name":"公园户外","address":"闵行区浦江镇先新路41号"},{"poiid":"B2094757D068A0F44093","title":"水语人家","lon":"121.54162","lat":"31.049992","category":"252","category_name":"楼宇机构","address":"上海浦涛路768弄"},{"poiid":"B2094757D06AAAFB449E","title":"浦江镇体育中心","lon":"121.536940009","lat":"31.0564950577","category":"500","category_name":"未知分类","address":"闵行区江玮路269号(近浦江二中北侧)"},{"poiid":"B2094757D069ABF54593","title":"博雅苑","lon":"121.539087","lat":"31.05645","category":"47","category_name":"住宅区","address":"闵行区召楼路2056弄"},{"poiid":"B2094757D069AAF84492","title":"瑞和新苑","lon":"121.538303009","lat":"31.0484398827","category":"47","category_name":"住宅区","address":"上海市闵行区江航路"},{"poiid":"B2094751D369ABFD429B","title":"沈湖生态农庄农家乐","lon":"121.54659","lat":"31.0501","category":"76","category_name":"上海菜","address":"浦东新区航头镇牌楼村汇驰路388号(浦涛路口)"},{"poiid":"B2094757D068ABFF489F","title":"虹浦新城","lon":"121.53542","lat":"31.047377","category":"47","category_name":"住宅区","address":"上海浦涛路501,505弄"},{"poiid":"B2094751D568A6FC4798","title":"南鱼咖啡","lon":"121.536152","lat":"31.060772","category":"247","category_name":"餐饮美食","address":"上海闵行区浦江镇江文路559弄36号［kfc隔壁］"},{"poiid":"B2094757D065A4FA469D","title":"浦江宝邸","lon":"121.53938","lat":"31.060217","category":"47","category_name":"住宅区","address":"上海闵行区江文路330弄57号"},{"poiid":"B2094757D06BA4F44192","title":"闵浦新苑6村","lon":"121.53520217","lat":"31.059463394","category":"47","category_name":"住宅区","address":"上海市闵行区浦江镇江玮路298弄"},{"poiid":"B2094757D069A5FE439F","title":"浦江丽都","lon":"121.53684","lat":"31.05422","category":"252","category_name":"楼宇机构","address":"上海市闵行区浦连路"},{"poiid":"B2094655D264A7F94998","title":"浦航新城博雅苑","lon":"121.540672","lat":"31.050935","category":"47","category_name":"住宅区","address":"闵行区浦连路150弄、召楼路2056弄"},{"poiid":"B2094655D26BA1FD4793","title":"牌楼13组","lon":"121.55807","lat":"31.05342","category":"38","category_name":"公交车站","address":""},{"poiid":"B2094655D264A0F9499A","title":"浦航新城(瑞和新苑)","lon":"121.53624","lat":"31.04992","category":"47","category_name":"住宅区","address":"江航路60弄"},{"poiid":"B2094751D26CA6F54999","title":"肯德基（浦江镇店）","lon":"121.534759","lat":"31.061233","category":"68","category_name":"快餐厅","address":"闵行区浦江镇江文路589号(近江玮路)"},{"poiid":"B2094750D269A0F4479F","title":"中虹浦江苑","lon":"121.542579","lat":"31.04685","category":"500","category_name":"未知分类","address":"闵行区"},{"poiid":"B2094655D26BA1FD489A","title":"牌楼20组","lon":"121.55933","lat":"31.05313","category":"38","category_name":"公交车站","address":""},{"poiid":"B2094655D26BA1FD4898","title":"牌楼村委","lon":"121.5601","lat":"31.05199","category":"38","category_name":"公交车站","address":""},{"poiid":"B2094757D065A7FC449F","title":"浦涛路 瑞和新苑","lon":"121.53823164","lat":"31.047809719","category":"252","category_name":"楼宇机构","address":"上海市闵行区浦涛路"},{"poiid":"B2094655D26BA2F54098","title":"浦连路召楼路","lon":"121.53662","lat":"31.05435","category":"38","category_name":"公交车站","address":""},{"poiid":"B2094750D565A5FA4693","title":"清风人家","lon":"121.535308","lat":"31.060588","category":"66","category_name":"茶艺馆","address":"闵行区浦江镇江文路559弄8号(近三鲁公路)"},{"poiid":"B2094757D66CA3FB469B","title":"公交174浦涛路三鲁路站","lon":"121.54047755","lat":"31.050737152","category":"500","category_name":"未知分类","address":"上海浦江镇浦涛路三鲁路"},{"poiid":"B2094757D164AAFA4893","title":"阿德哥鱼庄","lon":"121.541218445","lat":"31.0333179962","category":"247","category_name":"餐饮美食","address":"上海闵行区浦江镇先新路579"},{"poiid":"B2094655D26BA1FD489B","title":"牌楼3组","lon":"121.56291","lat":"31.05165","category":"38","category_name":"公交车站","address":""},{"poiid":"B2094655D26BA2F4489B","title":"浦涛路江航路","lon":"121.53657","lat":"31.04739","category":"38","category_name":"公交车站","address":""},{"poiid":"B209475CD568A2F4429A","title":"浦江馨都","lon":"121.539543","lat":"31.043594","category":"47","category_name":"住宅区","address":"上海市 闵行区先新路"},{"poiid":"B2094757D16DA0F9409D","title":"S32申嘉湖高速航头服务区","lon":"121.55104619","lat":"31.0630413471","category":"260","category_name":"其他","address":"上海浦东新区S32申嘉湖高速航头服务区"},{"poiid":"B2094655D26DA6F44698","title":"汇颂南苑","lon":"121.53203","lat":"31.050186","category":"47","category_name":"住宅区","address":"浦连路789弄1-36号"},{"poiid":"B2094655D26BA2F44898","title":"浦涛路三鲁路","lon":"121.53127","lat":"31.04642","category":"38","category_name":"公交车站","address":""},{"poiid":"B2094757D16EA6F94698","title":"万达广场(周浦店)","lon":"121.565420246","lat":"31.0601465437","category":"500","category_name":"未知分类","address":"上海浦东新区年家浜路518号(近沪南公路)"},{"poiid":"B2094655D36DA2FD409B","title":"S32航头服务区","lon":"121.54963","lat":"31.06208","category":"250","category_name":"公园户外","address":""},{"poiid":"B2094757D16BA1FC409D","title":"中虹浦江苑","lon":"121.56789814","lat":"31.054806816","category":"47","category_name":"住宅区","address":"上海浦江镇浦涛路"},{"poiid":"B2094750D16AA7FE4192","title":"欣佳宝坻","lon":"121.539138","lat":"31.048971","category":"627","category_name":"一般地点标志","address":"闵驰二路59弄"},{"poiid":"B2094655D36CA0F94392","title":"江航路闵瑞路","lon":"121.53595","lat":"31.05172","category":"38","category_name":"公交车站","address":""},{"poiid":"B2094757D06BA7F54193","title":"金硕河畔","lon":"121.535225","lat":"31.044552","category":"500","category_name":"未知分类","address":"上海江协路51弄"},{"poiid":"B2094655D36DA3F4499D","title":"肇沥港桥","lon":"121.5536","lat":"31.03868","category":"250","category_name":"公园户外","address":""},{"poiid":"B2094757D16AA7FA4193","title":"传奇火锅","lon":"121.558928246","lat":"31.0605655536","category":"247","category_name":"餐饮美食","address":"上海浦东御青路1039号"},{"poiid":"B2094655D36CA0F8469B","title":"江玮路江文路","lon":"121.53438","lat":"31.06005","category":"38","category_name":"公交车站","address":""},{"poiid":"B2094655D26BA2F5409B","title":"浦连路三鲁路","lon":"121.53349","lat":"31.05136","category":"38","category_name":"公交车站","address":""},{"poiid":"B209475CD36EAAFC489D","title":"鹤丰庄园度假村","lon":"121.56404","lat":"31.05887","category":"87","category_name":"特色／地方风味餐厅","address":"南汇航头镇鹤立西路牌楼村13组490号(近三鲁公路)"},{"poiid":"B2094655D264A5FC409F","title":"航头服务区","lon":"121.55101","lat":"31.0634","category":"250","category_name":"公园户外","address":""},{"poiid":"B2094655D264A1FB459A","title":"闵行区浦江第二中学","lon":"121.53389","lat":"31.05757","category":"55","category_name":"中学","address":""},{"poiid":"B2094751D46BA5FD4493","title":"博雅苑二期","lon":"121.5456379","lat":"31.0648359","category":"47","category_name":"住宅区","address":"上海市闵行区浦连路汇驰路"},{"poiid":"B2094757D569A0FC419C","title":"申能汇颂苑(浦江镇1号地块)","lon":"121.531255","lat":"31.05069083","category":"47","category_name":"住宅区","address":"上海闵行区浦连路789弄"},{"poiid":"B2094757D66FA3FA469B","title":"名都古城","lon":"121.53966","lat":"31.059648126","category":"500","category_name":"未知分类","address":"上海古羊路1129号  名都城  名都俱乐部1f"},{"poiid":"B2094655D36CA0F9409B","title":"江文路召楼路","lon":"121.53653","lat":"31.06121","category":"38","category_name":"公交车站","address":""},{"poiid":"B2094753DA6AA7FC459C","title":"蜗牛奶茶","lon":"121.536743","lat":"31.060832","category":"247","category_name":"餐饮美食","address":"上海市 闵行区浦江镇江文路559弄56-1"},{"poiid":"B2094655D36DA3F44993","title":"向阳河桥","lon":"121.53336","lat":"31.05132","category":"250","category_name":"公园户外","address":""},{"poiid":"B2094757D568A4FB4993","title":"浦江镇201-A2地块配套商品房","lon":"121.5360228","lat":"31.06089167","category":"47","category_name":"住宅区","address":"江玮路298弄"},{"poiid":"B2094757D069A6F84293","title":"沈湖生态农庄","lon":"121.559176","lat":"31.05299","category":"247","category_name":"餐饮美食","address":"上海航头镇牌楼村"},{"poiid":"B2094750D66FA0FF439C","title":"浦江玫瑰园","lon":"121.55423807327","lat":"31.045134300237","category":"250","category_name":"公园户外","address":"闵行区浦江镇先新路41号"},{"poiid":"B2094757D068A0F44093","title":"水语人家","lon":"121.54162","lat":"31.049992","category":"252","category_name":"楼宇机构","address":"上海浦涛路768弄"},{"poiid":"B2094757D06AAAFB449E","title":"浦江镇体育中心","lon":"121.536940009","lat":"31.0564950577","category":"500","category_name":"未知分类","address":"闵行区江玮路269号(近浦江二中北侧)"},{"poiid":"B2094757D069ABF54593","title":"博雅苑","lon":"121.539087","lat":"31.05645","category":"47","category_name":"住宅区","address":"闵行区召楼路2056弄"},{"poiid":"B2094757D069AAF84492","title":"瑞和新苑","lon":"121.538303009","lat":"31.0484398827","category":"47","category_name":"住宅区","address":"上海市闵行区江航路"},{"poiid":"B2094751D369ABFD429B","title":"沈湖生态农庄农家乐","lon":"121.54659","lat":"31.0501","category":"76","category_name":"上海菜","address":"浦东新区航头镇牌楼村汇驰路388号(浦涛路口)"},{"poiid":"B2094757D068ABFF489F","title":"虹浦新城","lon":"121.53542","lat":"31.047377","category":"47","category_name":"住宅区","address":"上海浦涛路501,505弄"},{"poiid":"B2094751D568A6FC4798","title":"南鱼咖啡","lon":"121.536152","lat":"31.060772","category":"247","category_name":"餐饮美食","address":"上海闵行区浦江镇江文路559弄36号［kfc隔壁］"},{"poiid":"B2094757D065A4FA469D","title":"浦江宝邸","lon":"121.53938","lat":"31.060217","category":"47","category_name":"住宅区","address":"上海闵行区江文路330弄57号"},{"poiid":"B2094757D06BA4F44192","title":"闵浦新苑6村","lon":"121.53520217","lat":"31.059463394","category":"47","category_name":"住宅区","address":"上海市闵行区浦江镇江玮路298弄"},{"poiid":"B2094757D069A5FE439F","title":"浦江丽都","lon":"121.53684","lat":"31.05422","category":"252","category_name":"楼宇机构","address":"上海市闵行区浦连路"},{"poiid":"B2094655D264A7F94998","title":"浦航新城博雅苑","lon":"121.540672","lat":"31.050935","category":"47","category_name":"住宅区","address":"闵行区浦连路150弄、召楼路2056弄"},{"poiid":"B2094655D26BA1FD4793","title":"牌楼13组","lon":"121.55807","lat":"31.05342","category":"38","category_name":"公交车站","address":""},{"poiid":"B2094655D264A0F9499A","title":"浦航新城(瑞和新苑)","lon":"121.53624","lat":"31.04992","category":"47","category_name":"住宅区","address":"江航路60弄"},{"poiid":"B2094751D26CA6F54999","title":"肯德基（浦江镇店）","lon":"121.534759","lat":"31.061233","category":"68","category_name":"快餐厅","address":"闵行区浦江镇江文路589号(近江玮路)"},{"poiid":"B2094750D269A0F4479F","title":"中虹浦江苑","lon":"121.542579","lat":"31.04685","category":"500","category_name":"未知分类","address":"闵行区"},{"poiid":"B2094655D26BA1FD489A","title":"牌楼20组","lon":"121.55933","lat":"31.05313","category":"38","category_name":"公交车站","address":""},{"poiid":"B2094655D26BA1FD4898","title":"牌楼村委","lon":"121.5601","lat":"31.05199","category":"38","category_name":"公交车站","address":""},{"poiid":"B2094757D065A7FC449F","title":"浦涛路 瑞和新苑","lon":"121.53823164","lat":"31.047809719","category":"252","category_name":"楼宇机构","address":"上海市闵行区浦涛路"},{"poiid":"B2094655D26BA2F54098","title":"浦连路召楼路","lon":"121.53662","lat":"31.05435","category":"38","category_name":"公交车站","address":""},{"poiid":"B2094750D565A5FA4693","title":"清风人家","lon":"121.535308","lat":"31.060588","category":"66","category_name":"茶艺馆","address":"闵行区浦江镇江文路559弄8号(近三鲁公路)"},{"poiid":"B2094757D66CA3FB469B","title":"公交174浦涛路三鲁路站","lon":"121.54047755","lat":"31.050737152","category":"500","category_name":"未知分类","address":"上海浦江镇浦涛路三鲁路"},{"poiid":"B2094757D164AAFA4893","title":"阿德哥鱼庄","lon":"121.541218445","lat":"31.0333179962","category":"247","category_name":"餐饮美食","address":"上海闵行区浦江镇先新路579"},{"poiid":"B2094655D26BA1FD489B","title":"牌楼3组","lon":"121.56291","lat":"31.05165","category":"38","category_name":"公交车站","address":""},{"poiid":"B2094655D26BA2F4489B","title":"浦涛路江航路","lon":"121.53657","lat":"31.04739","category":"38","category_name":"公交车站","address":""},{"poiid":"B209475CD568A2F4429A","title":"浦江馨都","lon":"121.539543","lat":"31.043594","category":"47","category_name":"住宅区","address":"上海市 闵行区先新路"},{"poiid":"B2094757D16DA0F9409D","title":"S32申嘉湖高速航头服务区","lon":"121.55104619","lat":"31.0630413471","category":"260","category_name":"其他","address":"上海浦东新区S32申嘉湖高速航头服务区"},{"poiid":"B2094655D26DA6F44698","title":"汇颂南苑","lon":"121.53203","lat":"31.050186","category":"47","category_name":"住宅区","address":"浦连路789弄1-36号"},{"poiid":"B2094655D26BA2F44898","title":"浦涛路三鲁路","lon":"121.53127","lat":"31.04642","category":"38","category_name":"公交车站","address":""},{"poiid":"B2094757D16EA6F94698","title":"万达广场(周浦店)","lon":"121.565420246","lat":"31.0601465437","category":"500","category_name":"未知分类","address":"上海浦东新区年家浜路518号(近沪南公路)"},{"poiid":"B2094655D36DA2FD409B","title":"S32航头服务区","lon":"121.54963","lat":"31.06208","category":"250","category_name":"公园户外","address":""},{"poiid":"B2094757D16BA1FC409D","title":"中虹浦江苑","lon":"121.56789814","lat":"31.054806816","category":"47","category_name":"住宅区","address":"上海浦江镇浦涛路"},{"poiid":"B2094750D16AA7FE4192","title":"欣佳宝坻","lon":"121.539138","lat":"31.048971","category":"627","category_name":"一般地点标志","address":"闵驰二路59弄"},{"poiid":"B2094655D36CA0F94392","title":"江航路闵瑞路","lon":"121.53595","lat":"31.05172","category":"38","category_name":"公交车站","address":""},{"poiid":"B2094757D06BA7F54193","title":"金硕河畔","lon":"121.535225","lat":"31.044552","category":"500","category_name":"未知分类","address":"上海江协路51弄"},{"poiid":"B2094655D36DA3F4499D","title":"肇沥港桥","lon":"121.5536","lat":"31.03868","category":"250","category_name":"公园户外","address":""},{"poiid":"B2094757D16AA7FA4193","title":"传奇火锅","lon":"121.558928246","lat":"31.0605655536","category":"247","category_name":"餐饮美食","address":"上海浦东御青路1039号"},{"poiid":"B2094655D36CA0F8469B","title":"江玮路江文路","lon":"121.53438","lat":"31.06005","category":"38","category_name":"公交车站","address":""},{"poiid":"B2094655D26BA2F5409B","title":"浦连路三鲁路","lon":"121.53349","lat":"31.05136","category":"38","category_name":"公交车站","address":""},{"poiid":"B209475CD36EAAFC489D","title":"鹤丰庄园度假村","lon":"121.56404","lat":"31.05887","category":"87","category_name":"特色／地方风味餐厅","address":"南汇航头镇鹤立西路牌楼村13组490号(近三鲁公路)"},{"poiid":"B2094655D264A5FC409F","title":"航头服务区","lon":"121.55101","lat":"31.0634","category":"250","category_name":"公园户外","address":""},{"poiid":"B2094655D264A1FB459A","title":"闵行区浦江第二中学","lon":"121.53389","lat":"31.05757","category":"55","category_name":"中学","address":""},{"poiid":"B2094751D46BA5FD4493","title":"博雅苑二期","lon":"121.5456379","lat":"31.0648359","category":"47","category_name":"住宅区","address":"上海市闵行区浦连路汇驰路"},{"poiid":"B2094757D569A0FC419C","title":"申能汇颂苑(浦江镇1号地块)","lon":"121.531255","lat":"31.05069083","category":"47","category_name":"住宅区","address":"上海闵行区浦连路789弄"},{"poiid":"B2094757D66FA3FA469B","title":"名都古城","lon":"121.53966","lat":"31.059648126","category":"500","category_name":"未知分类","address":"上海古羊路1129号  名都城  名都俱乐部1f"},{"poiid":"B2094655D36CA0F9409B","title":"江文路召楼路","lon":"121.53653","lat":"31.06121","category":"38","category_name":"公交车站","address":""},{"poiid":"B2094753DA6AA7FC459C","title":"蜗牛奶茶","lon":"121.536743","lat":"31.060832","category":"247","category_name":"餐饮美食","address":"上海市 闵行区浦江镇江文路559弄56-1"},{"poiid":"B2094655D36DA3F44993","title":"向阳河桥","lon":"121.53336","lat":"31.05132","category":"250","category_name":"公园户外","address":""},{"poiid":"B2094757D568A4FB4993","title":"浦江镇201-A2地块配套商品房","lon":"121.5360228","lat":"31.06089167","category":"47","category_name":"住宅区","address":"江玮路298弄"}]