[{"poiid":"B2094654DA6FA7FF4699","title":"海龙海鲜舫","lon":"121.50199","lat":"31.23107","category":"72","category_name":"广东菜","address":"浦东新区东昌路1号(近富城路拾步街)"},{"poiid":"B2094654DA6FA7FE419B","title":"上海宝莱纳餐厅滨江店","lon":"121.49861","lat":"31.23409","category":"94","category_name":"西餐厅","address":"浦东新区滨江大道2967号滨江风光亭"},{"poiid":"B2094757D06FA6FC429D","title":"外滩新十六铺","lon":"121.498305","lat":"31.227433","category":"234","category_name":"海滨浴场","address":"上海中山东二路531号"},{"poiid":"B209475CD564A7F84292","title":"上海滩新天地店","lon":"121.47463","lat":"31.22164","category":"119","category_name":"商场","address":"\"太仓路181弄新天地北里15号\r\n\""},{"poiid":"B209475CD564A7F84392","title":"上海滩浦东香格里拉店","lon":"121.50058","lat":"31.23634","category":"119","category_name":"商场","address":"浦东富成路33号香格里拉酒店内大堂层"},{"poiid":"B2094757D06EAAFA489F","title":"上海外滩英迪格酒店 (Hotel Indigo)","lon":"121.499735","lat":"31.226432","category":"217","category_name":"旅馆招待所","address":"黄浦区中山东二路585号(近东门路)"},{"poiid":"B2094757D06FA2FC499B","title":"唐朝酒店(未来店)","lon":"121.50054","lat":"31.23481","category":"72","category_name":"广东菜","address":"浦东新区陆家嘴环路166号未来资产大厦2-3楼(近香格里拉大酒店)"},{"poiid":"B2094750D26BAAFD439C","title":"正大广场陆家嘴西路168号","lon":"121.501686","lat":"31.234832","category":"249","category_name":"购物服务","address":"正大广场陆家嘴西路168号"},{"poiid":"B2094757D06FA1FA4399","title":"外滩游艇会","lon":"121.50381","lat":"31.23071","category":"260","category_name":"其他","address":"浦东新区滨江大道3510号(近东昌路渡口)"},{"poiid":"B2094757D06FA7FC4598","title":"东昌路轮渡站","lon":"121.50315135","lat":"31.230164847","category":"35","category_name":"长途汽车站","address":"上海浦东新区东昌路1号"},{"poiid":"B2094757D06FA0FE479A","title":"汤臣一品","lon":"121.50127","lat":"31.233383","category":"47","category_name":"住宅区","address":"朝阳区东四环慈云寺桥东北角,向东400米路南"},{"poiid":"B2094757D06FA1F5479D","title":"震旦国际大楼","lon":"121.499293","lat":"31.234784","category":"46","category_name":"楼宇","address":"上海浦东新区富城路99号"},{"poiid":"B2094757D568A6FE449D","title":"松鹤楼(外滩店)","lon":"121.49712782","lat":"31.22868273","category":"76","category_name":"上海菜","address":"黄浦区中山东二路505号(近外马路)"},{"poiid":"B2094757D06FA2F9439E","title":"香格里拉怡咖啡","lon":"121.4992","lat":"31.2349","category":"268","category_name":"自助","address":"浦东新区富城路33号香格里拉大酒店紫金楼2楼(近名商路)"},{"poiid":"B2094757D068ABFD489C","title":"Kaefer滨江壹号","lon":"121.50282273","lat":"31.232060339","category":"47","category_name":"住宅区","address":"浦东新区滨江大道富城路拾步街由隆花园(近花园石桥路)"},{"poiid":"B2094654DB64ABF9439A","title":"震旦艺术博物馆","lon":"121.49929","lat":"31.23478","category":"182","category_name":"博物馆","address":"富城路99号震旦国际大楼1层"},{"poiid":"B2094757D16AA3FA449F","title":"紅磡體育館","lon":"121.50024373","lat":"31.234377388","category":"500","category_name":"未知分类","address":"香港尖沙咀東紅磡體育館"},{"poiid":"B2094757D16FA0FF4092","title":"小南国(十六铺店)","lon":"121.500050938","lat":"31.2274259403","category":"76","category_name":"上海菜","address":"黄浦区中山东二路565号A楼(近东门路)"},{"poiid":"B2094750D569ABF4429A","title":"蒗葶泰式酒吧餐厅","lon":"121.501908","lat":"31.234731","category":"172","category_name":"酒吧","address":"世纪大道100号环球金融中心301室"},{"poiid":"B2094757D165A7F54999","title":"花旗银行大厦","lon":"121.500979701","lat":"31.2332134973","category":"46","category_name":"楼宇","address":"上海浦东新区花园石桥路33号"},{"poiid":"B2094757D06FA6FC4993","title":"晶浦会","lon":"121.49999","lat":"31.23362","category":"72","category_name":"广东菜","address":"上海浦东新区花园石桥路33号花旗集团大厦4楼(近富城路)  "},{"poiid":"B2094751DA64A4FF489F","title":"炉边谈情","lon":"121.5009","lat":"31.234146","category":"247","category_name":"餐饮美食","address":"正大广场六楼"},{"poiid":"B2094655D36CA7FD4293","title":"花园石桥路陆家嘴环路(正大广场)","lon":"121.50115","lat":"31.23482","category":"38","category_name":"公交车站","address":""},{"poiid":"B2094750D66CAAFD4092","title":"vini angeli","lon":"121.500816","lat":"31.235115","category":"94","category_name":"西餐厅","address":"浦东新区陆家嘴西路168号正大广场8楼(近东方明珠)"},{"poiid":"B2094757D06AA2FD4298","title":"龙皇酒家","lon":"121.49882273","lat":"31.227382239","category":"72","category_name":"广东菜","address":"黄浦区中山东二路535号十六铺B栋楼(外马路中山东二路)"},{"poiid":"B2094757D069A6FE449C","title":"十六铺码头边","lon":"121.49703768","lat":"31.228610509","category":"500","category_name":"未知分类","address":"上海市,上海中山东二路"},{"poiid":"B2094757D06AAAF9489E","title":"宏豪浦江一号","lon":"121.504989","lat":"31.228434","category":"72","category_name":"广东菜","address":"浦东新区滨江大道3788号(近商城路)"},{"poiid":"B2094757D06FA0F8499E","title":"交通银行上海分行","lon":"121.50114678","lat":"31.225955549","category":"46","category_name":"楼宇","address":"上海中山南路99号"},{"poiid":"B2094757D068A6F4499F","title":"君悦轩(花园石桥店)","lon":"121.50239","lat":"31.23334","category":"72","category_name":"广东菜","address":"浦东新区花园石桥路66号东亚银行金融大厦3楼(近陆家嘴环路)"},{"poiid":"B2094757D468ABF54699","title":"星巴克 花旗大厦店 Starbucks Cafe","lon":"121.500050054","lat":"31.234238793","category":"65","category_name":"咖啡厅","address":"浦东新区花园石桥路33号花旗集团大厦1楼(近富城路)"},{"poiid":"B2094757D16CA2F9439C","title":"浦之舟会所","lon":"121.503476638","lat":"31.2286266659","category":"500","category_name":"未知分类","address":"上海陆家嘴滨江大道3688号"},{"poiid":"B2094757D068A5F9429C","title":"福佑商厦","lon":"121.498","lat":"31.2336","category":"119","category_name":"商场","address":"黄浦区福佑路225号(近旧校场路)"},{"poiid":"B2094750D268A7F8449E","title":"滨江一号","lon":"121.501441","lat":"31.231658","category":"247","category_name":"餐饮美食","address":"浦东新区滨江一号滨江富城路拾步街由隆花园(近石桥路)"},{"poiid":"B2094757D16CAAFB489F","title":"浦东金贸君悦酒店","lon":"121.50241173","lat":"31.230401303","category":"217","category_name":"旅馆招待所","address":"上海市浦东新区富城路"},{"poiid":"B2094757D66DA3F5479B","title":"HM","lon":"121.501574738","lat":"31.2351244044","category":"249","category_name":"购物服务","address":"上海正大广场店"},{"poiid":"B2094757D06FA7FD4592","title":"网鱼网咖(张杨店)","lon":"121.49722426","lat":"31.229141715","category":"173","category_name":"游戏厅","address":"浦东新区张杨路640号3楼A座(近第一八佰伴)"},{"poiid":"B2094757D16BA4F54592","title":"STELLA LUNA(国金店)","lon":"121.501676738","lat":"31.2345953931","category":"500","category_name":"未知分类","address":"上海ifc国金商场"},{"poiid":"B2094750D669A4FA4799","title":"3D魔幻趣味馆","lon":"121.50164","lat":"31.235158","category":"248","category_name":"生活娱乐","address":"浦东新区滨江大道2789号外滩观光隧道B2楼"},{"poiid":"B2094757D568A0FE499A","title":"Ben Sherman(正大广场)","lon":"121.5011139","lat":"31.23467667","category":"249","category_name":"购物服务","address":"陆家嘴环路168号正大广场1层novo内"},{"poiid":"B2094757D06FA4F9449C","title":"轮渡线(东金线轮渡)","lon":"121.50343","lat":"31.22978","category":"260","category_name":"其他","address":"东昌路渡口－金陵东路渡口(滨江大道东昌路)"},{"poiid":"B2094757D16DA5FB459D","title":"MJ  club","lon":"121.499573738","lat":"31.2269042292","category":"500","category_name":"未知分类","address":"上海市黄浦区中山南二路501号"},{"poiid":"B2094757D06AA0FD429D","title":"滩万 Nadaman","lon":"121.49900980442","lat":"31.23552245249","category":"95","category_name":"日本料理","address":"浦东新区富城路33号香格里拉大酒店紫金楼2楼(近名商路)"},{"poiid":"B2094757D16AA1FF429E","title":"满记甜品","lon":"121.501566738","lat":"31.2345643925","category":"247","category_name":"餐饮美食","address":"上海市浦东新区陆家嘴西路"},{"poiid":"B2094750DA64A4FA449C","title":"外滩22号之一克拉的梦想","lon":"121.499397","lat":"31.234285","category":"248","category_name":"生活娱乐","address":"中山东二路22号"},{"poiid":"B2094753DA6BA0F8469F","title":"MIZZI CAFE","lon":"121.500015","lat":"31.234008","category":"500","category_name":"未知分类","address":"上海市 富城路182号"},{"poiid":"B2094757D06BA1F5409E","title":"Red dot","lon":"121.50023266","lat":"31.23302297","category":"500","category_name":"未知分类","address":"上海滨江大道"},{"poiid":"B2094757D064A7F4449D","title":"葡丽蛋挞工坊","lon":"121.50174227","lat":"31.230888794","category":"67","category_name":"甜品店","address":"浦东新区世纪大道8号国金中心商场LG2-10号商铺(近东泰路)"},{"poiid":"B2094757D66CA0FD479E","title":"松鹤楼游船码头","lon":"121.502754738","lat":"31.2317393323","category":"500","category_name":"未知分类","address":"上海中山东二路505号"},{"poiid":"B2094655D26BA1F4409A","title":"陆家嘴环路花园石桥路(汤臣一品)","lon":"121.50118","lat":"31.2345","category":"38","category_name":"公交车站","address":""},{"poiid":"B2094750DA68A5F4449D","title":"金贸君悦大酒店","lon":"121.502555","lat":"31.234514","category":"500","category_name":"未知分类","address":null},{"poiid":"B2094757D16EA5FA4293","title":"安薇塔","lon":"121.502328738","lat":"31.2342943867","category":"500","category_name":"未知分类","address":"上海市 国金中心 LG2"},{"poiid":"B2094655D26FA3F9499C","title":"花旗银行(中国)上海分行","lon":"121.50032","lat":"31.23387","category":"150","category_name":"银行","address":"上海浦东新区花园石桥路33号花旗集团大厦1楼29到35楼"},{"poiid":"B2094757D068A6FF499C","title":"Reddot Bar","lon":"121.49853515","lat":"31.233560562","category":"172","category_name":"酒吧","address":"上海浦东滨江大道"},{"poiid":"B2094750DA6FA6F94592","title":"星巴克 未来资产大厦","lon":"121.500724","lat":"31.235221","category":"247","category_name":"餐饮美食","address":null},{"poiid":"B2094750DB69ABFC4298","title":"汇尊滨江酒店","lon":"121.502197","lat":"31.22969","category":"76","category_name":"上海菜","address":"浦东新区滨江大道3528号(近富城路)"},{"poiid":"B209475DD16DA7FC479A","title":"Deli Leisure","lon":"121.50035","lat":"31.233242","category":"500","category_name":"未知分类","address":"上海市 富城路184号"},{"poiid":"B2094757D164A3FB4699","title":"望香园（正大店）","lon":"121.50157181","lat":"31.233032489","category":"247","category_name":"餐饮美食","address":"上海正大广场四层"},{"poiid":"B2094654DA6EA4FC489D","title":"埃力生国际大厦","lon":"121.502","lat":"31.2333","category":"46","category_name":"楼宇","address":"上海市黄浦区南京东路409-459号"},{"poiid":"B2094757D064ABF94193","title":"THE RITZ CARLTON HOTEL PUDONG","lon":"121.49812147","lat":"31.23062966","category":"500","category_name":"未知分类","address":"上海浦东陆家嘴世纪大道8号上海国金中心"},{"poiid":"B2094757D064A6FB429E","title":"拜耳中国","lon":"121.500485","lat":"31.233757","category":"46","category_name":"楼宇","address":"上海花园石桥路33号花旗大厦18F"},{"poiid":"B2094654DB6BABFC429E","title":"上海鹏利辉盛阁公寓(银城中路)","lon":"121.50334","lat":"31.23164","category":"47","category_name":"住宅区","address":"上海市浦东新区陆家嘴银城中路600弄1号（陆家嘴环路）"},{"poiid":"B2094750DA6AAAFC459B","title":"广州蕉叶餐厅","lon":"121.501556","lat":"31.234323","category":"500","category_name":"未知分类","address":"浦東新區陸家嘴西路168號正大廣場西樓零"},{"poiid":"B2094751D568A4FB499E","title":"莫尓顿牛排坊","lon":"121.501602","lat":"31.234329","category":"247","category_name":"餐饮美食","address":null},{"poiid":"B2094757D069A3F8489B","title":"烟波亭 花旗大厦店","lon":"121.500050054","lat":"31.234238793","category":"68","category_name":"快餐厅","address":"浦东新区花园石桥路33号花旗大厦B1楼(近富城路)"},{"poiid":"B2094753D66BA0FF459D","title":"东方明珠","lon":"121.501342","lat":"31.230253","category":"500","category_name":"未知分类","address":"上海市 上海外滩"},{"poiid":"B2094757D064AAFF459E","title":"HELLO KITTY主题纪念展","lon":"121.501556738","lat":"31.2344773906","category":"500","category_name":"未知分类","address":"上海正大广场4楼"},{"poiid":"B2094654DB65A4FE4693","title":"轮渡广场","lon":"121.50301","lat":"31.23069","category":"201","category_name":"城市广场","address":""},{"poiid":"B2094757D065A2FB459F","title":"浦城路商城路","lon":"121.50125223","lat":"31.228805336","category":"500","category_name":"未知分类","address":"上海浦东新区"},{"poiid":"B2094752D165A2FD4998","title":"滨江一号Kafer","lon":"121.501466","lat":"31.231733","category":"500","category_name":"未知分类","address":null},{"poiid":"B2094757D66DAAFE419E","title":"筷食通","lon":"121.501685738","lat":"31.2343513879","category":"68","category_name":"快餐厅","address":"浦东新区世纪大道8号上海国金中心LG2楼(近东泰路)"},{"poiid":"B2094757D065A7F9469C","title":"花旗大厦花旗银行","lon":"121.50367547","lat":"31.231474696","category":"500","category_name":"未知分类","address":"上海市"},{"poiid":"B2094655D36CA6FF4198","title":"富城路东昌路(渡口)","lon":"121.50296","lat":"31.23103","category":"38","category_name":"公交车站","address":""},{"poiid":"B2094655D36DA6FF449E","title":"东昌路","lon":"121.50382","lat":"31.23039","category":"38","category_name":"公交车站","address":""},{"poiid":"B2094757D068AAF4469D","title":"唐朝地下员工休闲餐厅","lon":"121.50067","lat":"31.23525","category":"68","category_name":"快餐厅","address":"浦东新区陆家嘴环路166号未来资产大厦B1楼(陆家嘴环路名商路)"},{"poiid":"B2094757D168A4FD4592","title":"船长2号","lon":"121.50327773","lat":"31.23165333","category":"247","category_name":"餐饮美食","address":"黄浦区延安东路外滩船长号游轮码头(中山东二路中山东一路)"},{"poiid":"B2094757D065A7FA409B","title":"东方航空花旗大厦营业厅","lon":"121.50066073","lat":"31.23352937","category":"150","category_name":"银行","address":"上海市浦东新区花旗大厦二楼"},{"poiid":"B2094750D768A6F4439D","title":"SnowBar","lon":"121.502","lat":"31.2318","category":"269","category_name":"烧烤","address":"滨江一号滨江富城路拾步街由隆花园(近石桥路)"},{"poiid":"B209475CD46DABF44992","title":"上海东方艺术中心","lon":"121.501998","lat":"31.230325","category":"500","category_name":"未知分类","address":"上海市 丁香路425号"},{"poiid":"B2094757D164ABF9459F","title":"未来资产大厦35F唐朝","lon":"121.500797938","lat":"31.2346435941","category":"500","category_name":"未知分类","address":"上海陆家嘴环路166号"},{"poiid":"B2094654DB69ABF5469F","title":"新元素(花旗大厦店)","lon":"121.50052","lat":"31.23405","category":"111","category_name":"休闲餐饮场所","address":"花园石桥路33号花旗集团大厦1楼城市超市专柜近银城中路"},{"poiid":"B2094757DB6CA5F5489D","title":"联通陆家嘴旗舰厅","lon":"121.4996290791505","lat":"31.2285919943293","category":"249","category_name":"购物服务","address":"世纪大道55号东方浮庭3层"},{"poiid":"B2094757D468A5FC4699","title":"果之满满（震旦店）","lon":"121.499636","lat":"31.234484","category":"67","category_name":"甜品店","address":"浦东新区富城路99号震旦国际大厦B1楼05单元(近银城中路)"},{"poiid":"B2094655D36DA0FB419A","title":"银城中路陆家嘴环路(环球中心)","lon":"121.50436","lat":"31.23193","category":"38","category_name":"公交车站","address":""},{"poiid":"B2094751DB65A2FF429E","title":"檬泰泰国餐厅","lon":"121.4998","lat":"31.23369","category":"99","category_name":"泰国／越南菜品餐厅","address":"浦东新区花园石桥路33号花旗集团大厦2楼(近陆家嘴环路)"},{"poiid":"B2094757D06FAAFB409B","title":"洲际酒店集团IHG大中华区总部","lon":"121.500273","lat":"31.233868","category":"46","category_name":"楼宇","address":"上海浦东新区花园石桥路33号花旗集团大厦22楼"},{"poiid":"B209475CD76DA7FC469B","title":"樂新皇朝","lon":"121.502548","lat":"31.23476","category":"500","category_name":"未知分类","address":"上海市 上海ifc商場L3-36"},{"poiid":"B2094655D26BA0FF4093","title":"汤臣海景","lon":"121.50141","lat":"31.23313","category":"47","category_name":"住宅区","address":"花园石桥路28弄"},{"poiid":"B2094654DB65A7F94092","title":"城市超市(滨江店)","lon":"121.50001","lat":"31.2339","category":"118","category_name":"超级市场","address":"浦东新区陆家嘴花园石桥路33号(近富城路)"},{"poiid":"B2094757D169A3FD4899","title":"烟波亭(东亚银行)","lon":"121.50180473","lat":"31.23399238","category":"68","category_name":"快餐厅","address":"浦东新区花园石桥路66号东亚银行大厦2楼(近陆家嘴环路)"},{"poiid":"B2094757D464A7FF489D","title":"加纳小屋","lon":"121.500050054","lat":"31.234238793","category":"95","category_name":"日本料理","address":"浦东新区石桥路33号花旗集团大厦1楼大厅内(花园石桥路陆家嘴环路)"},{"poiid":"B2094750DB69ABF54692","title":"华懋阁 cathay room","lon":"121.498527","lat":"31.234003","category":"247","category_name":"餐饮美食","address":"外滩 和平饭店"},{"poiid":"B2094655D36CA7FD4399","title":"花园石桥路富城路","lon":"121.5005","lat":"31.23337","category":"38","category_name":"公交车站","address":""},{"poiid":"B2094757D468A6FF409D","title":"赛百味 花旗大厦店 Subway","lon":"121.5009738616","lat":"31.23419426575","category":"94","category_name":"西餐厅","address":"浦东新区花园石桥路33号花旗集团大厦1楼(近富城路)"},{"poiid":"B2094757D568A5F44292","title":"鹏利海景公寓","lon":"121.5034558","lat":"31.23157278","category":"47","category_name":"住宅区","address":"上海浦东新区东昌路、银城路交界处"},{"poiid":"B2094750DA65A4F5469B","title":"上海东方明珠","lon":"121.502182","lat":"31.235002","category":"250","category_name":"公园户外","address":"上海市上海浦东新区世纪大道"},{"poiid":"B2094752D06EAAFC409E","title":"大光明电影院","lon":"121.499716","lat":"31.227753","category":"178","category_name":"电影院","address":"西藏北路"},{"poiid":"B2094655D26BA1FB4993","title":"陆家嘴环路花园石桥路","lon":"121.50118","lat":"31.23468","category":"38","category_name":"公交车站","address":""},{"poiid":"B2094752D46FA6FC4492","title":"炉边情谈","lon":"121.499578","lat":"31.231521","category":"500","category_name":"未知分类","address":"正大广场"},{"poiid":"B2094753D765AAF44193","title":"悠乐餐厅","lon":"121.500236","lat":"31.233409","category":"500","category_name":"未知分类","address":"上海市 富城路148号"},{"poiid":"B2094757DB6FA3F84099","title":"淮海路一号酒吧","lon":"121.4966975953756","lat":"31.22976648979435","category":"248","category_name":"生活娱乐","address":"淮海路柳荫路"},{"poiid":"B2094753D56EA3F4439B","title":"和平饭店","lon":"121.49768","lat":"31.232227","category":"247","category_name":"餐饮美食","address":"上海市 南京东路20号"},{"poiid":"B2094750DB68A1F84699","title":"滨江大道  哈根达斯","lon":"121.497482","lat":"31.227943","category":"247","category_name":"餐饮美食","address":null},{"poiid":"B2094757D06AA1F4479B","title":"烟波亭 震旦店","lon":"121.49904","lat":"31.23478","category":"68","category_name":"快餐厅","address":"浦东新区富城路99号震旦国际大楼B1楼(近名商路)"},{"poiid":"B2094757D165A6FE409D","title":"富城路拾步街","lon":"121.50227","lat":"31.231618","category":"500","category_name":"未知分类","address":"上海富城路拾步街"},{"poiid":"B2094757D065A4F44998","title":"上海轮渡","lon":"121.50332107","lat":"31.230911647","category":"260","category_name":"其他","address":"上海浦东--浦西"},{"poiid":"B2094750DA64A0FE4299","title":"正大广场 避风塘","lon":"121.50164","lat":"31.23439","category":"247","category_name":"餐饮美食","address":"陆家嘴"},{"poiid":"B2094655D26DA2FE4499","title":"空调渡轮候船室","lon":"121.50301","lat":"31.23036","category":"208","category_name":"休闲场所","address":""},{"poiid":"B2094757D169AAF54599","title":"haagen dazs","lon":"121.49856567","lat":"31.231763839","category":"500","category_name":"未知分类","address":"上海滨江大道"},{"poiid":"B2094757D064A0FF429E","title":"NuSoup震旦店","lon":"121.499714","lat":"31.234802677","category":"68","category_name":"快餐厅","address":"浦东新区富城路99号震旦国际大厦B1楼(近正大广场)"},{"poiid":"B2094752D46CA3F94392","title":"陆家嘴环路未来资产大厦","lon":"121.500338","lat":"31.235001","category":"252","category_name":"楼宇机构","address":"浦东新区陆家嘴环路166号"},{"poiid":"B2094757D569A1F5489B","title":"上海外滩商城","lon":"121.4990039","lat":"31.22648778","category":"46","category_name":"楼宇","address":"行宫位于沈河北站一路41号"},{"poiid":"B2094655D26BA7FA4398","title":"汤臣一品(西北一门)","lon":"121.50121","lat":"31.23371","category":"48","category_name":"楼宇大门","address":""},{"poiid":"B2094750DA65A4F5469F","title":"上海南京东路","lon":"121.502197","lat":"31.235021","category":"500","category_name":"未知分类","address":null},{"poiid":"B2094655D268A6FF4892","title":"寿司","lon":"121.5003","lat":"31.23388","category":"95","category_name":"日本料理","address":"花园石桥路33号花旗大厦2楼近陆家嘴环路"},{"poiid":"B2094757D16DA5FC439D","title":"莎莎咖啡厅","lon":"121.50290714","lat":"31.227360288","category":"65","category_name":"咖啡厅","address":"浦东新区商城路335号2楼(浦城路口)"},{"poiid":"B2094753DA6BA5FF4299","title":"东方明珠","lon":"121.504028","lat":"31.230518","category":"500","category_name":"未知分类","address":"上海市 上海市外滩"},{"poiid":"B209475CDB6FA1FD4792","title":"王品牛排正大店","lon":"121.500381","lat":"31.234445","category":"500","category_name":"未知分类","address":"上海市 正大广场"},{"poiid":"B2094752DB69A4FC439B","title":"陆家嘴太平金融大厦","lon":"121.502619","lat":"31.234456","category":"500","category_name":"未知分类","address":"上海市 银城中路488号"},{"poiid":"B2094757D16AA6FA4698","title":"泓叶精菜馆","lon":"121.498124446","lat":"31.2285007716","category":"247","category_name":"餐饮美食","address":"上海金桥国际"},{"poiid":"B2094757DA65A7FA4793","title":"喜多屋正大广场店","lon":"121.5021563796351","lat":"31.22654869585129","category":"500","category_name":"未知分类","address":"正大广场"},{"poiid":"B2094757D16AA6F9499B","title":"秋风之墩主题录音棚","lon":"121.50322853","lat":"31.230609408","category":"500","category_name":"未知分类","address":"上海南京西路580号南证大厦3007室"},{"poiid":"B2094654DB64A6F8479A","title":"浦东夜上海","lon":"121.50029","lat":"31.23388","category":"257","category_name":"中餐厅","address":"花园石桥路33号花旗集团大厦3层"},{"poiid":"B2094757D065A1FF469C","title":"中国工商银行(正大广场支行)","lon":"121.4997843","lat":"31.229258146","category":"260","category_name":"其他","address":"浦东新区陆家嘴西路168号正大广场B1楼09-10号铺(近东方明珠)"},{"poiid":"B2094654DA6FA7FF4593","title":"汤臣一品(西北门)","lon":"121.50096","lat":"31.23358","category":"656","category_name":"大门","address":"花园石桥路28"},{"poiid":"B209475CD76FA0F8489F","title":"mizzi","lon":"121.500045","lat":"31.233633","category":"500","category_name":"未知分类","address":"上海市 滨江富城路182号"},{"poiid":"B2094655D269AAFA4498","title":"9519名酒坊","lon":"121.50052","lat":"31.23405","category":"247","category_name":"餐饮美食","address":"浦东新区花园石桥路33号花旗集团大厦1楼(近富城路)"},{"poiid":"B209475DD668A3F8489A","title":"Blue Frog","lon":"121.502326","lat":"31.234304","category":"247","category_name":"餐饮美食","address":"上海市 陆家嘴"},{"poiid":"B2094757D56CABFF4898","title":"庆会楼 陆家嘴店","lon":"121.500980054","lat":"31.234651793","category":"247","category_name":"餐饮美食","address":"陆家嘴环路166号未来资产大厦裙楼2楼近花园石桥路"},{"poiid":"B2094757D064A5F54899","title":"中信银行股份有限公司上海分行","lon":"121.49958033","lat":"31.234320187","category":"500","category_name":"未知分类","address":"上海富城路99号震旦国际大楼"},{"poiid":"B2094757D069A3FC429E","title":"Nice Club","lon":"121.49956973","lat":"31.227036232","category":"172","category_name":"酒吧","address":"上海市黄浦区中山东二路575号"},{"poiid":"B2094752DB6AAAFF4793","title":"黄浦江上","lon":"121.5022","lat":"31.227974","category":"500","category_name":"未知分类","address":"上海市 黄浦江上"},{"poiid":"B209475CD765A6FA469B","title":"华公馆","lon":"121.502799","lat":"31.234403","category":"247","category_name":"餐饮美食","address":"上海市 国金"},{"poiid":"B2094757D165A7F8469C","title":"十六铺美食美客","lon":"121.497693738","lat":"31.228069254","category":"247","category_name":"餐饮美食","address":"上海十六铺地下美食美客"},{"poiid":"B209475CDA65ABFF429C","title":"Friday星期五餐厅","lon":"121.500343","lat":"31.23402","category":"500","category_name":"未知分类","address":"上海市 富城路16号"},{"poiid":"B2094655D265A5FB4098","title":"喜士多便利(未来店)","lon":"121.50109","lat":"31.2347","category":"117","category_name":"便民商店/便利店","address":"浦东新区陆家嘴环路166号未来资产大厦B1楼"},{"poiid":"B209475CD265ABF44099","title":"RIVIERA 松鹤楼  RIVIERA SONGHELOU","lon":"121.49907","lat":"31.22677","category":"95","category_name":"日本料理","address":"中山东二路505号C幢近新开河路"},{"poiid":"B2094752DA6AAAF8499F","title":"上海环球金融大厦","lon":"121.504135","lat":"31.231482","category":"252","category_name":"楼宇机构","address":"上海市 上海市陆家嘴Z4-1号"},{"poiid":"B2094654DA6FA7FF4798","title":"浦东公安分局交通警察支队二大队东方明珠中队","lon":"121.50157","lat":"31.23463","category":"250","category_name":"公园户外","address":"花园石桥路39号"},{"poiid":"B209475CD26DA4F4479C","title":"黄浦江上","lon":"121.498931","lat":"31.233236","category":"500","category_name":"未知分类","address":"上海市 外滩"},{"poiid":"B2094753D46AA6F4429E","title":"中国海关","lon":"121.504631","lat":"31.232267","category":"500","category_name":"未知分类","address":"上海市 陆家嘴西路"},{"poiid":"B2094753DA64A2FB409D","title":"mizzi","lon":"121.504486","lat":"31.23162","category":"500","category_name":"未知分类","address":"上海市 滨江大道"},{"poiid":"B2094655D268A4F9409D","title":"东亚银行(中国)(陆家嘴环路)","lon":"121.50238","lat":"31.2339","category":"150","category_name":"银行","address":""},{"poiid":"B2094750DA6CA2FD409D","title":"浦東正大廣場","lon":"121.500061","lat":"31.226211","category":"500","category_name":"未知分类","address":null},{"poiid":"B2094655D26EA7FB429B","title":"东门路渡口","lon":"121.50077","lat":"31.22607","category":"34","category_name":"港口码头","address":""},{"poiid":"B2094750D26EAAFB499B","title":"金灿灿游轮 宴会厅","lon":"121.500245","lat":"31.226056","category":"76","category_name":"上海菜","address":"中山南路171号上海十六铺水上旅游中心近盐码头街"},{"poiid":"B2094654DA6FA7FF469E","title":"汤臣一品(东门)","lon":"121.50225","lat":"31.23289","category":"656","category_name":"大门","address":""},{"poiid":"B209475CDB6CA1FD429C","title":"Ashley","lon":"121.50016","lat":"31.233819","category":"500","category_name":"未知分类","address":"上海市 正大廣場8F"},{"poiid":"B2094753D569A2F4469A","title":"上海外滩","lon":"121.496902","lat":"31.232303","category":"500","category_name":"未知分类","address":"上海市 上海外滩"},{"poiid":"B2094752DB6AAAFF4993","title":"黄浦江上","lon":"121.49699","lat":"31.232151","category":"500","category_name":"未知分类","address":"上海市 黄浦江上"},{"poiid":"B2094757D66EA5FD459D","title":"申迪集团","lon":"121.504628738","lat":"31.2300922972","category":"500","category_name":"未知分类","address":"上海浦明路8号"},{"poiid":"B209475CD16DABF84593","title":"唐朝大酒店 未来店","lon":"121.500747","lat":"31.235201","category":"72","category_name":"广东菜","address":"陆家嘴环路166号未来资产大厦2-3楼近花园石桥路"},{"poiid":"B2094757D065A1FB409D","title":"懒洋洋的午休时间","lon":"121.50024952","lat":"31.226373487","category":"247","category_name":"餐饮美食","address":"上海不是在打瞌睡就是在等待瞌睡虫…嗷～"},{"poiid":"B209475CD76FA0FA419A","title":"上海金茂君悦大酒店","lon":"121.50093","lat":"31.235084","category":"500","category_name":"未知分类","address":"上海市 浦东金茂大厦"},{"poiid":"B2094751D264ABF8489C","title":"谷歌广告上海有限公司","lon":"121.50266","lat":"31.2339101","category":"252","category_name":"楼宇机构","address":"浦东新区世纪大道100号环球金融中心"},{"poiid":"B2094757D16BA0FC419A","title":"十六浦面料市场","lon":"121.500525348","lat":"31.2273779893","category":"249","category_name":"购物服务","address":"上海十六浦"},{"poiid":"B2094752D064A0FA4792","title":"猫屎咖啡","lon":"121.500909","lat":"31.234893","category":"247","category_name":"餐饮美食","address":"陆家嘴西路168号（正大广场）"},{"poiid":"B2094757D16FA2FC419C","title":"华一银行","lon":"121.50234813","lat":"31.233630952","category":"150","category_name":"银行","address":"浦东新区浦东南路360号新上海国际大厦1楼(东城路浦东南路)"},{"poiid":"B2094654DA6FA7FF4292","title":"拜耳(中国)有限公司","lon":"121.5003","lat":"31.23388","category":"263","category_name":"公司","address":"花园石桥路33号花旗集团大厦18层"},{"poiid":"B2094757D06AA5FF469D","title":"上海市锦天城律师事务所","lon":"121.50011693","lat":"31.234439139","category":"623","category_name":"律师事务所","address":"上海市浦东新区花园石桥路33号花旗集团大厦14楼"},{"poiid":"B2094655D264A7FA439E","title":"中粮·海景壹号(西门)","lon":"121.5029","lat":"31.23202","category":"656","category_name":"大门","address":""},{"poiid":"B209475CD66BA0F4489E","title":"Ashley","lon":"121.50283","lat":"31.234369","category":"500","category_name":"未知分类","address":"上海市 正大广场8F"},{"poiid":"B2094757D66CA0FF489A","title":"圣火纹身","lon":"121.498955738","lat":"31.2272672369","category":"148","category_name":"美容美发店","address":"上海方浜中路104号"},{"poiid":"B209475DD26EA1F4489D","title":"PASTA MANIA","lon":"121.501869","lat":"31.234209","category":"500","category_name":"未知分类","address":"上海市 正大广场3F"},{"poiid":"B2094757D16EA2FB479B","title":"富都世博停车场","lon":"121.5014274","lat":"31.234136883","category":"500","category_name":"未知分类","address":"上海富城路"},{"poiid":"B2094655D26DA2F4479A","title":"江苏银行上海分行","lon":"121.49977","lat":"31.23444","category":"150","category_name":"银行","address":"富城路99震旦国际大厦7层"},{"poiid":"B2094750DB69ABFC469F","title":"王品台塑牛排正大店","lon":"121.500549","lat":"31.234346","category":"500","category_name":"未知分类","address":null},{"poiid":"B2094654DA6FA7FF469D","title":"上海鹏利辉盛阁公寓(西门)","lon":"121.50294","lat":"31.23202","category":"656","category_name":"大门","address":"上海市浦东新区陆家嘴银城中路600弄1号（陆家嘴环路）"},{"poiid":"B209475CD665AAF4429E","title":"震旦博物馆","lon":"121.50151","lat":"31.23442","category":"500","category_name":"未知分类","address":"上海市 富城路99"},{"poiid":"B2094753D56CA7FD4293","title":"TGI Fridays","lon":"121.502578","lat":"31.234197","category":"500","category_name":"未知分类","address":"上海市 富城路16号"},{"poiid":"B2094750D66CABF54598","title":"苏浙总汇","lon":"121.501953","lat":"31.234817","category":"249","category_name":"购物服务","address":null},{"poiid":"B2094757D16FA5FC4992","title":"东亚银行金融大厦前台","lon":"121.50287273","lat":"31.23446739","category":"500","category_name":"未知分类","address":"上海花园石桥66号东亚银行金融大厦大堂前台。"},{"poiid":"B2094753D76CA6FF4399","title":"金轩","lon":"121.501502","lat":"31.234588","category":"500","category_name":"未知分类","address":"上海市 53"},{"poiid":"B2094654DA6FA7FF459C","title":"花旗环球金融亚洲有限公司上海代表处","lon":"121.5003","lat":"31.23388","category":"263","category_name":"公司","address":"花园石桥路33号花旗集团大厦34层"},{"poiid":"B2094654DA6FA7FF4293","title":"拜耳医药保健有限公司上海办事处","lon":"121.50029","lat":"31.23388","category":"263","category_name":"公司","address":"花园石桥路33号花旗集团大厦18层"},{"poiid":"B2094757D16AAAF8409A","title":"C 车","lon":"121.504373738","lat":"31.2322783437","category":"249","category_name":"购物服务","address":null},{"poiid":"B2094654DA6FA7FF459F","title":"金元比联基金管理有限公司","lon":"121.50029","lat":"31.23388","category":"263","category_name":"公司","address":"花园石桥路33号花旗集团大厦3608"},{"poiid":"B2094654DA6FA7FF439C","title":"洲际酒店集团","lon":"121.50028","lat":"31.23388","category":"263","category_name":"公司","address":"花园石桥路33号花旗集团大厦22层"},{"poiid":"B2094654DA6FA7FF4198","title":"中国东方航空公司上海售票处","lon":"121.50029","lat":"31.23388","category":"28","category_name":"飞机票代售点","address":"浦东新区花园石桥路33号花旗大厦2楼(近富城路)"},{"poiid":"B2094757DA69A1FC469F","title":"震旦集团AURORA","lon":"121.49929","lat":"31.23478","category":"645","category_name":"机构及其他类公司","address":"富城路99号震旦国际大楼"},{"poiid":"B2094655D26DA2F4479B","title":"中国人民银行上海总部","lon":"121.49967","lat":"31.23463","category":"150","category_name":"银行","address":"富城路99震旦国际大厦29-32层"},{"poiid":"B2094751D06CA6FF4699","title":"汤臣一品停车场","lon":"121.501181","lat":"31.23357","category":"262","category_name":"停车场","address":"上海市,浦东新区,花园石桥路"},{"poiid":"B2094654DA6FA7FE4198","title":"震旦办公家具设备展示厅","lon":"121.49968","lat":"31.23462","category":"123","category_name":"家具建材市场","address":"富城路99号震旦大厦10层"},{"poiid":"B2094655D26EA6FD499F","title":"东外滩国际会所","lon":"121.49929","lat":"31.23478","category":"221","category_name":"健身中心","address":"富城路99号震旦国际大厦裙楼5-6楼近陆家嘴西路"},{"poiid":"B209475DD36FA4FF479C","title":"italian tomato cafe ifc","lon":"121.500122","lat":"31.234954","category":"500","category_name":"未知分类","address":"上海市 世纪大道8号国金中心商场LG2-C3"},{"poiid":"B2094757D66DA4FA4699","title":"NUCAFE","lon":"121.49944273","lat":"31.234096382","category":"260","category_name":"其他","address":"浦东新区富城路99号B1楼(近名商路)"},{"poiid":"B2094654DA6FA7FF479B","title":"上海鹏利辉盛阁公寓(东门)","lon":"121.50374","lat":"31.23191","category":"656","category_name":"大门","address":"上海市浦东新区陆家嘴银城中路600弄1号（陆家嘴环路）"},{"poiid":"B2094751D26DA4F5429F","title":"富民路","lon":"121.500335","lat":"31.234979","category":"500","category_name":"未知分类","address":null},{"poiid":"B2094757D66FA7F84492","title":"5楼AKB专柜","lon":"121.50162473","lat":"31.234576392","category":"500","category_name":"未知分类","address":null},{"poiid":"B2094654DB6BABFC419A","title":"兴业银行上海陆家嘴支行","lon":"121.49969","lat":"31.23463","category":"150","category_name":"银行","address":"富城路99号震旦国际大厦附楼1层"},{"poiid":"B2094752D265A5F54493","title":"正大广场正大厅","lon":"121.501697","lat":"31.234907","category":"252","category_name":"楼宇机构","address":null},{"poiid":"B2094757D16AAAF84298","title":"汇添富基金管理有限公司","lon":"121.50065238","lat":"31.234637178","category":"263","category_name":"公司","address":"富城路99号震旦大厦21层,8层03-04"},{"poiid":"B2094752D068A7FA4598","title":"正大广场","lon":"121.501646","lat":"31.23448","category":"500","category_name":"未知分类","address":null},{"poiid":"B2094655D26BA7F5429E","title":"南洋商业银行","lon":"121.5003","lat":"31.23503","category":"150","category_name":"银行","address":"上海浦东新区陆家嘴环路166号未来资产大厦"},{"poiid":"B2094757D66DA5F4489F","title":"公主馋(桃林路店)","lon":"121.50288873","lat":"31.234655394","category":"500","category_name":"未知分类","address":"上海市浦东新区桃林路1111号 近灵山路"},{"poiid":"B2094654DA6FA7FE429F","title":"Aurora City","lon":"121.49967","lat":"31.23463","category":"263","category_name":"公司","address":"富城路99号震旦大厦10层"},{"poiid":"B2094654DA6FA7FE439E","title":"上海联油国际贸易有限公司","lon":"121.49967","lat":"31.23463","category":"263","category_name":"公司","address":"富城路99号震旦大厦16层02"},{"poiid":"B2094757DA6FA3F4479B","title":"永达陆虎捷豹展厅","lon":"121.503273100002","lat":"31.2346271000001","category":"249","category_name":"购物服务","address":"浦东新区花园石桥路"},{"poiid":"B2094654DA69A1F5439A","title":"盛大金磐(西门)","lon":"121.50459","lat":"31.23167","category":"656","category_name":"大门","address":"东泰路200弄"},{"poiid":"B2094654DA6FA7FE4393","title":"上投摩根基金管理有限公司","lon":"121.49967","lat":"31.23463","category":"219","category_name":"其他","address":"富城路99号震旦大厦20层"},{"poiid":"B2094752D36FA3F4429F","title":"香格里拉大酒店","lon":"121.498592","lat":"31.234425","category":"500","category_name":"未知分类","address":null},{"poiid":"B2094654DB6BABFC419B","title":"国海富兰克林基金管理有限公司","lon":"121.49968","lat":"31.23463","category":"219","category_name":"其他","address":"富城路99号震旦大厦17层01、18层01-02、04"},{"poiid":"B2094757D169AAFD429C","title":"中国建设银行(南外滩支行)","lon":"121.499781738","lat":"31.2261034455","category":"260","category_name":"其他","address":"上海黄浦区中山南路1068号  "}]