[{"poiid":"B2094654DA6AA3FE479D","title":"上海浦东游泳馆","lon":"121.50572","lat":"31.18856","category":"231","category_name":"游泳馆","address":"浦东新区浦东南路3669号"},{"poiid":"B2094757D168AAF4469C","title":"上海世博园","lon":"121.506916","lat":"31.193412","category":"500","category_name":"未知分类","address":"中国上海"},{"poiid":"B2094757D06FA7FA4093","title":"浦东游泳馆新羽毛球馆","lon":"121.505721806","lat":"31.1885572023","category":"220","category_name":"运动场所","address":"浦东新区浦东南路3669号浦东游泳馆南门内(近沂林路)"},{"poiid":"B2094757D468AAFE419C","title":"蜀府 世博店","lon":"121.50602","lat":"31.19398","category":"71","category_name":"四川菜","address":"浦东新区世博大道1200号梅赛德斯奔驰中心6楼"},{"poiid":"B2094757D06FA5F9429C","title":"多利萝玛(Tony Roma's)","lon":"121.5040196","lat":"31.196038751","category":"94","category_name":"西餐厅","address":"浦东新区世博村B地块雪野路1057号B9-101C室(近沂南路)"},{"poiid":"B2094655D26BA2F54492","title":"浦东南路华丰路","lon":"121.50691","lat":"31.19281","category":"38","category_name":"公交车站","address":""},{"poiid":"B2094757D069A6FB4698","title":"汉庭快捷浦东南路店(原世博村店)","lon":"121.50672","lat":"31.19234","category":"217","category_name":"旅馆招待所","address":"上海浦东新区浦东南路3500号(近华丰路)  "},{"poiid":"B2094757D065A0FD4493","title":"Bubba's Texas-style BBQ(世博村店)","lon":"121.504977","lat":"31.196236","category":"94","category_name":"西餐厅","address":"浦东新区雪野路240号(近沂南路)"},{"poiid":"B2094654DB65A7FA4298","title":"格林豪泰上海世博园酒店","lon":"121.50691","lat":"31.19341","category":"216","category_name":"经济型连锁酒店","address":"上海市浦东新区浦东南路3500号(近南码头路)"},{"poiid":"B2094654DA6AA3F9439C","title":"世博大厦","lon":"121.50595","lat":"31.1911","category":"46","category_name":"楼宇","address":"上海浦东南路3588号"},{"poiid":"B2094757D068ABFF499D","title":"客家小厨 临沂路店","lon":"121.51342","lat":"31.19523","category":"72","category_name":"广东菜","address":"浦东新区临沂路213号(近南码头路)"},{"poiid":"B2094753D46CA6F4459C","title":"梅赛德斯奔驰文化中心","lon":"121.507537","lat":"31.193929","category":"500","category_name":"未知分类","address":"上海市 上海世博园"},{"poiid":"B2094757D065A0FB499D","title":"丰华园","lon":"121.51013573","lat":"31.188650414","category":"500","category_name":"未知分类","address":"上海市浦东新区东方路"},{"poiid":"B2094654DA6AA3FE4599","title":"宏博坊海鲜大酒楼","lon":"121.50926","lat":"31.18887","category":"88","category_name":"海鲜酒楼","address":"浦东新区东方路3641号(近临沂路)"},{"poiid":"B2094655D26FA7FB4299","title":"港机新村","lon":"121.50813","lat":"31.191181","category":"47","category_name":"住宅区","address":"上海浦东南路东方路口"},{"poiid":"B2094757D068ABFE4999","title":"上海世博东湖公寓酒店","lon":"121.505364591","lat":"31.1967514842","category":"217","category_name":"旅馆招待所","address":"浦东新区雪野路999号"},{"poiid":"B2094757D06FA5F54299","title":"临沂五村","lon":"121.510414","lat":"31.190658","category":"47","category_name":"住宅区","address":"临沂路381弄1号-29号"},{"poiid":"B2094757D06FA4FB4492","title":"上海世博会事务协调局","lon":"121.50553894","lat":"31.191095352","category":"46","category_name":"楼宇","address":"上海浦东南路3588号"},{"poiid":"B2094757D068A4F5479C","title":"临沂三村","lon":"121.51024543","lat":"31.194138391","category":"47","category_name":"住宅区","address":"上海南码头路450弄"},{"poiid":"B2094655D36CA7FD419B","title":"华丰路临沂路","lon":"121.50745","lat":"31.19218","category":"38","category_name":"公交车站","address":"上海市浦东新区华丰路"},{"poiid":"B2094757D069A3FF459A","title":"临沂公园","lon":"121.50754","lat":"31.18913","category":"196","category_name":"公园","address":"浦东新区东方路3683号(近浦东南路)"},{"poiid":"B2094654DA6AA3FE499E","title":"上海乔家栅小吃世界No.10","lon":"121.50607","lat":"31.19061","category":"68","category_name":"快餐厅","address":"浦东新区浦东南路3633号(东方路口)"},{"poiid":"B2094750D56DA1F44698","title":"浦南医院","lon":"121.510131","lat":"31.192165","category":"162","category_name":"医院","address":"南码头路519号"},{"poiid":"B2094655D36CA3F5489A","title":"中国2010上海世博会纪念品展示厅","lon":"121.50587","lat":"31.19149","category":"183","category_name":"展览馆","address":"上海世博园区"},{"poiid":"B2094751D268A6FA489A","title":"上海地产集团办公楼","lon":"121.506034","lat":"31.19392","category":"46","category_name":"楼宇","address":"浦东新区雪野路928号"},{"poiid":"B2094757D16FA2F5439F","title":"南码头街道图书馆","lon":"121.507202148","lat":"31.1920814514","category":"181","category_name":"图书馆","address":"上海南码头路400号一楼（近浦东南路，南码头市民中心内）"},{"poiid":"B2094655D26FAAF9469F","title":"华丰路50弄小区(侧门)","lon":"121.50729","lat":"31.192","category":"47","category_name":"住宅区","address":"华丰路50弄11"},{"poiid":"B2094757D16BA2FF419B","title":"周南线浦东南路华丰路站","lon":"121.507839","lat":"31.191936","category":"38","category_name":"公交车站","address":"上海市浦东新区浦东南路近华丰路"},{"poiid":"B2094654DA6AA3FF4592","title":"好德便利No.263","lon":"121.50783","lat":"31.1922","category":"117","category_name":"便民商店/便利店","address":"华丰路15"},{"poiid":"B2094655D26FAAF9469C","title":"华丰路50弄小区","lon":"121.50713","lat":"31.19177","category":"47","category_name":"住宅区","address":"华丰路50弄11"},{"poiid":"B2094654DA6AA3F9429D","title":"江天宾馆","lon":"121.50792","lat":"31.19542","category":"215","category_name":"三星级宾馆","address":"浦东新区浦东南路3456号(近南码头路)"},{"poiid":"B2094757D568A2FB449D","title":"上岛咖啡(世博店)","lon":"121.506687829999","lat":"31.19289686","category":"260","category_name":"其他","address":"浦东新区浦东南路3500号(近世博园区)"},{"poiid":"B2094757D464A7F8459F","title":"CAFE  2009","lon":"121.506331054","lat":"31.192509793","category":"65","category_name":"咖啡厅","address":"浦东新区浦东南路3631号(世博大厦对面)"},{"poiid":"B2094655D268A4FE499D","title":"华丰小区(侧门)","lon":"121.50758","lat":"31.19243","category":"47","category_name":"住宅区","address":""},{"poiid":"B2094750D26EA2FA4093","title":"大悦城","lon":"121.503593","lat":"31.190885","category":"500","category_name":"未知分类","address":"西藏南路曲阜路"},{"poiid":"B2094655D26FAAF9469E","title":"华丰路50弄小区(边门)","lon":"121.50666","lat":"31.19178","category":"47","category_name":"住宅区","address":"华丰路50弄"},{"poiid":"B2094655D268A4F4489E","title":"华丰小区","lon":"121.50775","lat":"31.192738","category":"47","category_name":"住宅区","address":"华丰路51弄"},{"poiid":"B2094654DA6AA3FF4092","title":"南码头社区文化中心","lon":"121.50719","lat":"31.192","category":"188","category_name":"文化宫","address":"华丰路12"},{"poiid":"B2094757D168A6F8409C","title":"克莉丝汀 临沂路店","lon":"121.508729054","lat":"31.191602793","category":"112","category_name":"糕饼店","address":"浦东新区临沂路366号(近华丰路)"},{"poiid":"B2094757D164A4FC469C","title":"老宅","lon":"121.506881738","lat":"31.1912491698","category":"47","category_name":"住宅区","address":"上海Dr.Q之家"},{"poiid":"B2094757D065A3FD4392","title":"上海振华重工(集团)股份有限公司","lon":"121.507832584","lat":"31.1942854768","category":"263","category_name":"公司","address":"上海浦东南路3470号"},{"poiid":"B2094757DB6DA6FA499F","title":"富驿时尚酒店(上海世博展览馆店)(雅鑫商务酒店)","lon":"121.508285","lat":"31.194472","category":"214","category_name":"四星级宾馆","address":"上海市浦东新区靠近浦东南路3500号(近华丰路)"},{"poiid":"B2094757D069A6F5459E","title":"华丰路576路车站","lon":"121.507005","lat":"31.192889","category":"500","category_name":"未知分类","address":"上海华丰路浦东南路，955、576、82、818、981、177、周南綫公車站"},{"poiid":"B2094757D16FA1FF4599","title":"亮亮老北京热气涮羊肉","lon":"121.51156","lat":"31.19376","category":"86","category_name":"火锅店","address":"浦东新区临沂路213号(临沂路南码头路)"},{"poiid":"B2094757D068A2F4479A","title":"南码头社区市民中心","lon":"121.50903","lat":"31.19601","category":"260","category_name":"其他","address":"浦东新区南码头路400号(近浦东南路)"},{"poiid":"B2094655D265ABF44899","title":"媒体注册中心","lon":"121.50519","lat":"31.19173","category":"185","category_name":"会展中心","address":"上海世博园区"},{"poiid":"B2094757D169A6F9429E","title":"Masala Art(雪野路店)","lon":"121.50549158","lat":"31.195461483","category":"102","category_name":"印度风味","address":"浦东新区世博村雪野路1057号101b(近世博大道)"},{"poiid":"B2094655D26DA7F44798","title":"华丰新苑(西门)","lon":"121.50923","lat":"31.19165","category":"47","category_name":"住宅区","address":"临沂路339弄1-3号"},{"poiid":"B2094654DA6AA3FF439F","title":"姜姐小菜","lon":"121.50938","lat":"31.19065","category":"76","category_name":"上海菜","address":"浦东新区临沂路383号(近华丰路)"},{"poiid":"B2094655D265A1F8489A","title":"和谐广场","lon":"121.50688","lat":"31.19387","category":"201","category_name":"城市广场","address":"上海世博园区"},{"poiid":"B2094654DA6AA3FE479D","title":"上海浦东游泳馆","lon":"121.50572","lat":"31.18856","category":"231","category_name":"游泳馆","address":"浦东新区浦东南路3669号"},{"poiid":"B2094757D168AAF4469C","title":"上海世博园","lon":"121.506916","lat":"31.193412","category":"500","category_name":"未知分类","address":"中国上海"},{"poiid":"B2094757D06FA7FA4093","title":"浦东游泳馆新羽毛球馆","lon":"121.505721806","lat":"31.1885572023","category":"220","category_name":"运动场所","address":"浦东新区浦东南路3669号浦东游泳馆南门内(近沂林路)"},{"poiid":"B2094757D468AAFE419C","title":"蜀府 世博店","lon":"121.50602","lat":"31.19398","category":"71","category_name":"四川菜","address":"浦东新区世博大道1200号梅赛德斯奔驰中心6楼"},{"poiid":"B2094757D06FA5F9429C","title":"多利萝玛(Tony Roma's)","lon":"121.5040196","lat":"31.196038751","category":"94","category_name":"西餐厅","address":"浦东新区世博村B地块雪野路1057号B9-101C室(近沂南路)"},{"poiid":"B2094655D26BA2F54492","title":"浦东南路华丰路","lon":"121.50691","lat":"31.19281","category":"38","category_name":"公交车站","address":""},{"poiid":"B2094757D069A6FB4698","title":"汉庭快捷浦东南路店(原世博村店)","lon":"121.50672","lat":"31.19234","category":"217","category_name":"旅馆招待所","address":"上海浦东新区浦东南路3500号(近华丰路)  "},{"poiid":"B2094757D065A0FD4493","title":"Bubba's Texas-style BBQ(世博村店)","lon":"121.504977","lat":"31.196236","category":"94","category_name":"西餐厅","address":"浦东新区雪野路240号(近沂南路)"},{"poiid":"B2094654DB65A7FA4298","title":"格林豪泰上海世博园酒店","lon":"121.50691","lat":"31.19341","category":"216","category_name":"经济型连锁酒店","address":"上海市浦东新区浦东南路3500号(近南码头路)"},{"poiid":"B2094654DA6AA3F9439C","title":"世博大厦","lon":"121.50595","lat":"31.1911","category":"46","category_name":"楼宇","address":"上海浦东南路3588号"},{"poiid":"B2094757D068ABFF499D","title":"客家小厨 临沂路店","lon":"121.51342","lat":"31.19523","category":"72","category_name":"广东菜","address":"浦东新区临沂路213号(近南码头路)"},{"poiid":"B2094753D46CA6F4459C","title":"梅赛德斯奔驰文化中心","lon":"121.507537","lat":"31.193929","category":"500","category_name":"未知分类","address":"上海市 上海世博园"},{"poiid":"B2094757D065A0FB499D","title":"丰华园","lon":"121.51013573","lat":"31.188650414","category":"500","category_name":"未知分类","address":"上海市浦东新区东方路"},{"poiid":"B2094654DA6AA3FE4599","title":"宏博坊海鲜大酒楼","lon":"121.50926","lat":"31.18887","category":"88","category_name":"海鲜酒楼","address":"浦东新区东方路3641号(近临沂路)"},{"poiid":"B2094655D26FA7FB4299","title":"港机新村","lon":"121.50813","lat":"31.191181","category":"47","category_name":"住宅区","address":"上海浦东南路东方路口"},{"poiid":"B2094757D068ABFE4999","title":"上海世博东湖公寓酒店","lon":"121.505364591","lat":"31.1967514842","category":"217","category_name":"旅馆招待所","address":"浦东新区雪野路999号"},{"poiid":"B2094757D06FA5F54299","title":"临沂五村","lon":"121.510414","lat":"31.190658","category":"47","category_name":"住宅区","address":"临沂路381弄1号-29号"},{"poiid":"B2094757D06FA4FB4492","title":"上海世博会事务协调局","lon":"121.50553894","lat":"31.191095352","category":"46","category_name":"楼宇","address":"上海浦东南路3588号"},{"poiid":"B2094757D068A4F5479C","title":"临沂三村","lon":"121.51024543","lat":"31.194138391","category":"47","category_name":"住宅区","address":"上海南码头路450弄"},{"poiid":"B2094655D36CA7FD419B","title":"华丰路临沂路","lon":"121.50745","lat":"31.19218","category":"38","category_name":"公交车站","address":"上海市浦东新区华丰路"},{"poiid":"B2094757D069A3FF459A","title":"临沂公园","lon":"121.50754","lat":"31.18913","category":"196","category_name":"公园","address":"浦东新区东方路3683号(近浦东南路)"},{"poiid":"B2094654DA6AA3FE499E","title":"上海乔家栅小吃世界No.10","lon":"121.50607","lat":"31.19061","category":"68","category_name":"快餐厅","address":"浦东新区浦东南路3633号(东方路口)"},{"poiid":"B2094750D56DA1F44698","title":"浦南医院","lon":"121.510131","lat":"31.192165","category":"162","category_name":"医院","address":"南码头路519号"},{"poiid":"B2094655D36CA3F5489A","title":"中国2010上海世博会纪念品展示厅","lon":"121.50587","lat":"31.19149","category":"183","category_name":"展览馆","address":"上海世博园区"},{"poiid":"B2094751D268A6FA489A","title":"上海地产集团办公楼","lon":"121.506034","lat":"31.19392","category":"46","category_name":"楼宇","address":"浦东新区雪野路928号"},{"poiid":"B2094757D16FA2F5439F","title":"南码头街道图书馆","lon":"121.507202148","lat":"31.1920814514","category":"181","category_name":"图书馆","address":"上海南码头路400号一楼（近浦东南路，南码头市民中心内）"},{"poiid":"B2094655D26FAAF9469F","title":"华丰路50弄小区(侧门)","lon":"121.50729","lat":"31.192","category":"47","category_name":"住宅区","address":"华丰路50弄11"},{"poiid":"B2094757D16BA2FF419B","title":"周南线浦东南路华丰路站","lon":"121.507839","lat":"31.191936","category":"38","category_name":"公交车站","address":"上海市浦东新区浦东南路近华丰路"},{"poiid":"B2094654DA6AA3FF4592","title":"好德便利No.263","lon":"121.50783","lat":"31.1922","category":"117","category_name":"便民商店/便利店","address":"华丰路15"},{"poiid":"B2094655D26FAAF9469C","title":"华丰路50弄小区","lon":"121.50713","lat":"31.19177","category":"47","category_name":"住宅区","address":"华丰路50弄11"},{"poiid":"B2094654DA6AA3F9429D","title":"江天宾馆","lon":"121.50792","lat":"31.19542","category":"215","category_name":"三星级宾馆","address":"浦东新区浦东南路3456号(近南码头路)"},{"poiid":"B2094757D568A2FB449D","title":"上岛咖啡(世博店)","lon":"121.506687829999","lat":"31.19289686","category":"260","category_name":"其他","address":"浦东新区浦东南路3500号(近世博园区)"},{"poiid":"B2094757D464A7F8459F","title":"CAFE  2009","lon":"121.506331054","lat":"31.192509793","category":"65","category_name":"咖啡厅","address":"浦东新区浦东南路3631号(世博大厦对面)"},{"poiid":"B2094655D268A4FE499D","title":"华丰小区(侧门)","lon":"121.50758","lat":"31.19243","category":"47","category_name":"住宅区","address":""},{"poiid":"B2094750D26EA2FA4093","title":"大悦城","lon":"121.503593","lat":"31.190885","category":"500","category_name":"未知分类","address":"西藏南路曲阜路"},{"poiid":"B2094655D26FAAF9469E","title":"华丰路50弄小区(边门)","lon":"121.50666","lat":"31.19178","category":"47","category_name":"住宅区","address":"华丰路50弄"},{"poiid":"B2094655D268A4F4489E","title":"华丰小区","lon":"121.50775","lat":"31.192738","category":"47","category_name":"住宅区","address":"华丰路51弄"},{"poiid":"B2094654DA6AA3FF4092","title":"南码头社区文化中心","lon":"121.50719","lat":"31.192","category":"188","category_name":"文化宫","address":"华丰路12"},{"poiid":"B2094757D168A6F8409C","title":"克莉丝汀 临沂路店","lon":"121.508729054","lat":"31.191602793","category":"112","category_name":"糕饼店","address":"浦东新区临沂路366号(近华丰路)"},{"poiid":"B2094757D164A4FC469C","title":"老宅","lon":"121.506881738","lat":"31.1912491698","category":"47","category_name":"住宅区","address":"上海Dr.Q之家"},{"poiid":"B2094757D065A3FD4392","title":"上海振华重工(集团)股份有限公司","lon":"121.507832584","lat":"31.1942854768","category":"263","category_name":"公司","address":"上海浦东南路3470号"},{"poiid":"B2094757DB6DA6FA499F","title":"富驿时尚酒店(上海世博展览馆店)(雅鑫商务酒店)","lon":"121.508285","lat":"31.194472","category":"214","category_name":"四星级宾馆","address":"上海市浦东新区靠近浦东南路3500号(近华丰路)"},{"poiid":"B2094757D069A6F5459E","title":"华丰路576路车站","lon":"121.507005","lat":"31.192889","category":"500","category_name":"未知分类","address":"上海华丰路浦东南路，955、576、82、818、981、177、周南綫公車站"},{"poiid":"B2094757D16FA1FF4599","title":"亮亮老北京热气涮羊肉","lon":"121.51156","lat":"31.19376","category":"86","category_name":"火锅店","address":"浦东新区临沂路213号(临沂路南码头路)"},{"poiid":"B2094757D068A2F4479A","title":"南码头社区市民中心","lon":"121.50903","lat":"31.19601","category":"260","category_name":"其他","address":"浦东新区南码头路400号(近浦东南路)"},{"poiid":"B2094655D265ABF44899","title":"媒体注册中心","lon":"121.50519","lat":"31.19173","category":"185","category_name":"会展中心","address":"上海世博园区"},{"poiid":"B2094757D169A6F9429E","title":"Masala Art(雪野路店)","lon":"121.50549158","lat":"31.195461483","category":"102","category_name":"印度风味","address":"浦东新区世博村雪野路1057号101b(近世博大道)"},{"poiid":"B2094655D26DA7F44798","title":"华丰新苑(西门)","lon":"121.50923","lat":"31.19165","category":"47","category_name":"住宅区","address":"临沂路339弄1-3号"},{"poiid":"B2094654DA6AA3FF439F","title":"姜姐小菜","lon":"121.50938","lat":"31.19065","category":"76","category_name":"上海菜","address":"浦东新区临沂路383号(近华丰路)"},{"poiid":"B2094655D265A1F8489A","title":"和谐广场","lon":"121.50688","lat":"31.19387","category":"201","category_name":"城市广场","address":"上海世博园区"},{"poiid":"B2094654DA6AA3FE479D","title":"上海浦东游泳馆","lon":"121.50572","lat":"31.18856","category":"231","category_name":"游泳馆","address":"浦东新区浦东南路3669号"},{"poiid":"B2094757D168AAF4469C","title":"上海世博园","lon":"121.506916","lat":"31.193412","category":"500","category_name":"未知分类","address":"中国上海"},{"poiid":"B2094757D06FA7FA4093","title":"浦东游泳馆新羽毛球馆","lon":"121.505721806","lat":"31.1885572023","category":"220","category_name":"运动场所","address":"浦东新区浦东南路3669号浦东游泳馆南门内(近沂林路)"},{"poiid":"B2094757D468AAFE419C","title":"蜀府 世博店","lon":"121.50602","lat":"31.19398","category":"71","category_name":"四川菜","address":"浦东新区世博大道1200号梅赛德斯奔驰中心6楼"},{"poiid":"B2094757D06FA5F9429C","title":"多利萝玛(Tony Roma's)","lon":"121.5040196","lat":"31.196038751","category":"94","category_name":"西餐厅","address":"浦东新区世博村B地块雪野路1057号B9-101C室(近沂南路)"},{"poiid":"B2094655D26BA2F54492","title":"浦东南路华丰路","lon":"121.50691","lat":"31.19281","category":"38","category_name":"公交车站","address":""},{"poiid":"B2094757D069A6FB4698","title":"汉庭快捷浦东南路店(原世博村店)","lon":"121.50672","lat":"31.19234","category":"217","category_name":"旅馆招待所","address":"上海浦东新区浦东南路3500号(近华丰路)  "},{"poiid":"B2094757D065A0FD4493","title":"Bubba's Texas-style BBQ(世博村店)","lon":"121.504977","lat":"31.196236","category":"94","category_name":"西餐厅","address":"浦东新区雪野路240号(近沂南路)"},{"poiid":"B2094654DB65A7FA4298","title":"格林豪泰上海世博园酒店","lon":"121.50691","lat":"31.19341","category":"216","category_name":"经济型连锁酒店","address":"上海市浦东新区浦东南路3500号(近南码头路)"},{"poiid":"B2094654DA6AA3F9439C","title":"世博大厦","lon":"121.50595","lat":"31.1911","category":"46","category_name":"楼宇","address":"上海浦东南路3588号"},{"poiid":"B2094757D068ABFF499D","title":"客家小厨 临沂路店","lon":"121.51342","lat":"31.19523","category":"72","category_name":"广东菜","address":"浦东新区临沂路213号(近南码头路)"},{"poiid":"B2094753D46CA6F4459C","title":"梅赛德斯奔驰文化中心","lon":"121.507537","lat":"31.193929","category":"500","category_name":"未知分类","address":"上海市 上海世博园"},{"poiid":"B2094757D065A0FB499D","title":"丰华园","lon":"121.51013573","lat":"31.188650414","category":"500","category_name":"未知分类","address":"上海市浦东新区东方路"},{"poiid":"B2094654DA6AA3FE4599","title":"宏博坊海鲜大酒楼","lon":"121.50926","lat":"31.18887","category":"88","category_name":"海鲜酒楼","address":"浦东新区东方路3641号(近临沂路)"},{"poiid":"B2094655D26FA7FB4299","title":"港机新村","lon":"121.50813","lat":"31.191181","category":"47","category_name":"住宅区","address":"上海浦东南路东方路口"},{"poiid":"B2094757D068ABFE4999","title":"上海世博东湖公寓酒店","lon":"121.505364591","lat":"31.1967514842","category":"217","category_name":"旅馆招待所","address":"浦东新区雪野路999号"},{"poiid":"B2094757D06FA5F54299","title":"临沂五村","lon":"121.510414","lat":"31.190658","category":"47","category_name":"住宅区","address":"临沂路381弄1号-29号"},{"poiid":"B2094757D06FA4FB4492","title":"上海世博会事务协调局","lon":"121.50553894","lat":"31.191095352","category":"46","category_name":"楼宇","address":"上海浦东南路3588号"},{"poiid":"B2094757D068A4F5479C","title":"临沂三村","lon":"121.51024543","lat":"31.194138391","category":"47","category_name":"住宅区","address":"上海南码头路450弄"},{"poiid":"B2094655D36CA7FD419B","title":"华丰路临沂路","lon":"121.50745","lat":"31.19218","category":"38","category_name":"公交车站","address":"上海市浦东新区华丰路"},{"poiid":"B2094757D069A3FF459A","title":"临沂公园","lon":"121.50754","lat":"31.18913","category":"196","category_name":"公园","address":"浦东新区东方路3683号(近浦东南路)"},{"poiid":"B2094654DA6AA3FE499E","title":"上海乔家栅小吃世界No.10","lon":"121.50607","lat":"31.19061","category":"68","category_name":"快餐厅","address":"浦东新区浦东南路3633号(东方路口)"},{"poiid":"B2094750D56DA1F44698","title":"浦南医院","lon":"121.510131","lat":"31.192165","category":"162","category_name":"医院","address":"南码头路519号"},{"poiid":"B2094655D36CA3F5489A","title":"中国2010上海世博会纪念品展示厅","lon":"121.50587","lat":"31.19149","category":"183","category_name":"展览馆","address":"上海世博园区"},{"poiid":"B2094751D268A6FA489A","title":"上海地产集团办公楼","lon":"121.506034","lat":"31.19392","category":"46","category_name":"楼宇","address":"浦东新区雪野路928号"},{"poiid":"B2094757D16FA2F5439F","title":"南码头街道图书馆","lon":"121.507202148","lat":"31.1920814514","category":"181","category_name":"图书馆","address":"上海南码头路400号一楼（近浦东南路，南码头市民中心内）"},{"poiid":"B2094655D26FAAF9469F","title":"华丰路50弄小区(侧门)","lon":"121.50729","lat":"31.192","category":"47","category_name":"住宅区","address":"华丰路50弄11"},{"poiid":"B2094757D16BA2FF419B","title":"周南线浦东南路华丰路站","lon":"121.507839","lat":"31.191936","category":"38","category_name":"公交车站","address":"上海市浦东新区浦东南路近华丰路"},{"poiid":"B2094654DA6AA3FF4592","title":"好德便利No.263","lon":"121.50783","lat":"31.1922","category":"117","category_name":"便民商店/便利店","address":"华丰路15"},{"poiid":"B2094655D26FAAF9469C","title":"华丰路50弄小区","lon":"121.50713","lat":"31.19177","category":"47","category_name":"住宅区","address":"华丰路50弄11"},{"poiid":"B2094654DA6AA3F9429D","title":"江天宾馆","lon":"121.50792","lat":"31.19542","category":"215","category_name":"三星级宾馆","address":"浦东新区浦东南路3456号(近南码头路)"},{"poiid":"B2094757D568A2FB449D","title":"上岛咖啡(世博店)","lon":"121.506687829999","lat":"31.19289686","category":"260","category_name":"其他","address":"浦东新区浦东南路3500号(近世博园区)"},{"poiid":"B2094757D464A7F8459F","title":"CAFE  2009","lon":"121.506331054","lat":"31.192509793","category":"65","category_name":"咖啡厅","address":"浦东新区浦东南路3631号(世博大厦对面)"},{"poiid":"B2094655D268A4FE499D","title":"华丰小区(侧门)","lon":"121.50758","lat":"31.19243","category":"47","category_name":"住宅区","address":""},{"poiid":"B2094750D26EA2FA4093","title":"大悦城","lon":"121.503593","lat":"31.190885","category":"500","category_name":"未知分类","address":"西藏南路曲阜路"},{"poiid":"B2094655D26FAAF9469E","title":"华丰路50弄小区(边门)","lon":"121.50666","lat":"31.19178","category":"47","category_name":"住宅区","address":"华丰路50弄"},{"poiid":"B2094655D268A4F4489E","title":"华丰小区","lon":"121.50775","lat":"31.192738","category":"47","category_name":"住宅区","address":"华丰路51弄"},{"poiid":"B2094654DA6AA3FF4092","title":"南码头社区文化中心","lon":"121.50719","lat":"31.192","category":"188","category_name":"文化宫","address":"华丰路12"},{"poiid":"B2094757D168A6F8409C","title":"克莉丝汀 临沂路店","lon":"121.508729054","lat":"31.191602793","category":"112","category_name":"糕饼店","address":"浦东新区临沂路366号(近华丰路)"},{"poiid":"B2094757D164A4FC469C","title":"老宅","lon":"121.506881738","lat":"31.1912491698","category":"47","category_name":"住宅区","address":"上海Dr.Q之家"},{"poiid":"B2094757D065A3FD4392","title":"上海振华重工(集团)股份有限公司","lon":"121.507832584","lat":"31.1942854768","category":"263","category_name":"公司","address":"上海浦东南路3470号"},{"poiid":"B2094757DB6DA6FA499F","title":"富驿时尚酒店(上海世博展览馆店)(雅鑫商务酒店)","lon":"121.508285","lat":"31.194472","category":"214","category_name":"四星级宾馆","address":"上海市浦东新区靠近浦东南路3500号(近华丰路)"},{"poiid":"B2094757D069A6F5459E","title":"华丰路576路车站","lon":"121.507005","lat":"31.192889","category":"500","category_name":"未知分类","address":"上海华丰路浦东南路，955、576、82、818、981、177、周南綫公車站"},{"poiid":"B2094757D16FA1FF4599","title":"亮亮老北京热气涮羊肉","lon":"121.51156","lat":"31.19376","category":"86","category_name":"火锅店","address":"浦东新区临沂路213号(临沂路南码头路)"},{"poiid":"B2094757D068A2F4479A","title":"南码头社区市民中心","lon":"121.50903","lat":"31.19601","category":"260","category_name":"其他","address":"浦东新区南码头路400号(近浦东南路)"},{"poiid":"B2094655D265ABF44899","title":"媒体注册中心","lon":"121.50519","lat":"31.19173","category":"185","category_name":"会展中心","address":"上海世博园区"},{"poiid":"B2094757D169A6F9429E","title":"Masala Art(雪野路店)","lon":"121.50549158","lat":"31.195461483","category":"102","category_name":"印度风味","address":"浦东新区世博村雪野路1057号101b(近世博大道)"},{"poiid":"B2094655D26DA7F44798","title":"华丰新苑(西门)","lon":"121.50923","lat":"31.19165","category":"47","category_name":"住宅区","address":"临沂路339弄1-3号"},{"poiid":"B2094654DA6AA3FF439F","title":"姜姐小菜","lon":"121.50938","lat":"31.19065","category":"76","category_name":"上海菜","address":"浦东新区临沂路383号(近华丰路)"},{"poiid":"B2094655D265A1F8489A","title":"和谐广场","lon":"121.50688","lat":"31.19387","category":"201","category_name":"城市广场","address":"上海世博园区"},{"poiid":"B2094654DA6AA3FE479D","title":"上海浦东游泳馆","lon":"121.50572","lat":"31.18856","category":"231","category_name":"游泳馆","address":"浦东新区浦东南路3669号"},{"poiid":"B2094757D168AAF4469C","title":"上海世博园","lon":"121.506916","lat":"31.193412","category":"500","category_name":"未知分类","address":"中国上海"},{"poiid":"B2094757D06FA7FA4093","title":"浦东游泳馆新羽毛球馆","lon":"121.505721806","lat":"31.1885572023","category":"220","category_name":"运动场所","address":"浦东新区浦东南路3669号浦东游泳馆南门内(近沂林路)"},{"poiid":"B2094757D468AAFE419C","title":"蜀府 世博店","lon":"121.50602","lat":"31.19398","category":"71","category_name":"四川菜","address":"浦东新区世博大道1200号梅赛德斯奔驰中心6楼"},{"poiid":"B2094757D06FA5F9429C","title":"多利萝玛(Tony Roma's)","lon":"121.5040196","lat":"31.196038751","category":"94","category_name":"西餐厅","address":"浦东新区世博村B地块雪野路1057号B9-101C室(近沂南路)"},{"poiid":"B2094655D26BA2F54492","title":"浦东南路华丰路","lon":"121.50691","lat":"31.19281","category":"38","category_name":"公交车站","address":""},{"poiid":"B2094757D069A6FB4698","title":"汉庭快捷浦东南路店(原世博村店)","lon":"121.50672","lat":"31.19234","category":"217","category_name":"旅馆招待所","address":"上海浦东新区浦东南路3500号(近华丰路)  "},{"poiid":"B2094757D065A0FD4493","title":"Bubba's Texas-style BBQ(世博村店)","lon":"121.504977","lat":"31.196236","category":"94","category_name":"西餐厅","address":"浦东新区雪野路240号(近沂南路)"},{"poiid":"B2094654DB65A7FA4298","title":"格林豪泰上海世博园酒店","lon":"121.50691","lat":"31.19341","category":"216","category_name":"经济型连锁酒店","address":"上海市浦东新区浦东南路3500号(近南码头路)"},{"poiid":"B2094654DA6AA3F9439C","title":"世博大厦","lon":"121.50595","lat":"31.1911","category":"46","category_name":"楼宇","address":"上海浦东南路3588号"},{"poiid":"B2094757D068ABFF499D","title":"客家小厨 临沂路店","lon":"121.51342","lat":"31.19523","category":"72","category_name":"广东菜","address":"浦东新区临沂路213号(近南码头路)"},{"poiid":"B2094753D46CA6F4459C","title":"梅赛德斯奔驰文化中心","lon":"121.507537","lat":"31.193929","category":"500","category_name":"未知分类","address":"上海市 上海世博园"},{"poiid":"B2094757D065A0FB499D","title":"丰华园","lon":"121.51013573","lat":"31.188650414","category":"500","category_name":"未知分类","address":"上海市浦东新区东方路"},{"poiid":"B2094654DA6AA3FE4599","title":"宏博坊海鲜大酒楼","lon":"121.50926","lat":"31.18887","category":"88","category_name":"海鲜酒楼","address":"浦东新区东方路3641号(近临沂路)"},{"poiid":"B2094655D26FA7FB4299","title":"港机新村","lon":"121.50813","lat":"31.191181","category":"47","category_name":"住宅区","address":"上海浦东南路东方路口"},{"poiid":"B2094757D068ABFE4999","title":"上海世博东湖公寓酒店","lon":"121.505364591","lat":"31.1967514842","category":"217","category_name":"旅馆招待所","address":"浦东新区雪野路999号"},{"poiid":"B2094757D06FA5F54299","title":"临沂五村","lon":"121.510414","lat":"31.190658","category":"47","category_name":"住宅区","address":"临沂路381弄1号-29号"},{"poiid":"B2094757D06FA4FB4492","title":"上海世博会事务协调局","lon":"121.50553894","lat":"31.191095352","category":"46","category_name":"楼宇","address":"上海浦东南路3588号"},{"poiid":"B2094757D068A4F5479C","title":"临沂三村","lon":"121.51024543","lat":"31.194138391","category":"47","category_name":"住宅区","address":"上海南码头路450弄"},{"poiid":"B2094655D36CA7FD419B","title":"华丰路临沂路","lon":"121.50745","lat":"31.19218","category":"38","category_name":"公交车站","address":"上海市浦东新区华丰路"},{"poiid":"B2094757D069A3FF459A","title":"临沂公园","lon":"121.50754","lat":"31.18913","category":"196","category_name":"公园","address":"浦东新区东方路3683号(近浦东南路)"},{"poiid":"B2094654DA6AA3FE499E","title":"上海乔家栅小吃世界No.10","lon":"121.50607","lat":"31.19061","category":"68","category_name":"快餐厅","address":"浦东新区浦东南路3633号(东方路口)"},{"poiid":"B2094750D56DA1F44698","title":"浦南医院","lon":"121.510131","lat":"31.192165","category":"162","category_name":"医院","address":"南码头路519号"},{"poiid":"B2094655D36CA3F5489A","title":"中国2010上海世博会纪念品展示厅","lon":"121.50587","lat":"31.19149","category":"183","category_name":"展览馆","address":"上海世博园区"},{"poiid":"B2094751D268A6FA489A","title":"上海地产集团办公楼","lon":"121.506034","lat":"31.19392","category":"46","category_name":"楼宇","address":"浦东新区雪野路928号"},{"poiid":"B2094757D16FA2F5439F","title":"南码头街道图书馆","lon":"121.507202148","lat":"31.1920814514","category":"181","category_name":"图书馆","address":"上海南码头路400号一楼（近浦东南路，南码头市民中心内）"},{"poiid":"B2094655D26FAAF9469F","title":"华丰路50弄小区(侧门)","lon":"121.50729","lat":"31.192","category":"47","category_name":"住宅区","address":"华丰路50弄11"},{"poiid":"B2094757D16BA2FF419B","title":"周南线浦东南路华丰路站","lon":"121.507839","lat":"31.191936","category":"38","category_name":"公交车站","address":"上海市浦东新区浦东南路近华丰路"},{"poiid":"B2094654DA6AA3FF4592","title":"好德便利No.263","lon":"121.50783","lat":"31.1922","category":"117","category_name":"便民商店/便利店","address":"华丰路15"},{"poiid":"B2094655D26FAAF9469C","title":"华丰路50弄小区","lon":"121.50713","lat":"31.19177","category":"47","category_name":"住宅区","address":"华丰路50弄11"},{"poiid":"B2094654DA6AA3F9429D","title":"江天宾馆","lon":"121.50792","lat":"31.19542","category":"215","category_name":"三星级宾馆","address":"浦东新区浦东南路3456号(近南码头路)"},{"poiid":"B2094757D568A2FB449D","title":"上岛咖啡(世博店)","lon":"121.506687829999","lat":"31.19289686","category":"260","category_name":"其他","address":"浦东新区浦东南路3500号(近世博园区)"},{"poiid":"B2094757D464A7F8459F","title":"CAFE  2009","lon":"121.506331054","lat":"31.192509793","category":"65","category_name":"咖啡厅","address":"浦东新区浦东南路3631号(世博大厦对面)"},{"poiid":"B2094655D268A4FE499D","title":"华丰小区(侧门)","lon":"121.50758","lat":"31.19243","category":"47","category_name":"住宅区","address":""},{"poiid":"B2094750D26EA2FA4093","title":"大悦城","lon":"121.503593","lat":"31.190885","category":"500","category_name":"未知分类","address":"西藏南路曲阜路"},{"poiid":"B2094655D26FAAF9469E","title":"华丰路50弄小区(边门)","lon":"121.50666","lat":"31.19178","category":"47","category_name":"住宅区","address":"华丰路50弄"},{"poiid":"B2094655D268A4F4489E","title":"华丰小区","lon":"121.50775","lat":"31.192738","category":"47","category_name":"住宅区","address":"华丰路51弄"},{"poiid":"B2094654DA6AA3FF4092","title":"南码头社区文化中心","lon":"121.50719","lat":"31.192","category":"188","category_name":"文化宫","address":"华丰路12"},{"poiid":"B2094757D168A6F8409C","title":"克莉丝汀 临沂路店","lon":"121.508729054","lat":"31.191602793","category":"112","category_name":"糕饼店","address":"浦东新区临沂路366号(近华丰路)"},{"poiid":"B2094757D164A4FC469C","title":"老宅","lon":"121.506881738","lat":"31.1912491698","category":"47","category_name":"住宅区","address":"上海Dr.Q之家"},{"poiid":"B2094757D065A3FD4392","title":"上海振华重工(集团)股份有限公司","lon":"121.507832584","lat":"31.1942854768","category":"263","category_name":"公司","address":"上海浦东南路3470号"},{"poiid":"B2094757DB6DA6FA499F","title":"富驿时尚酒店(上海世博展览馆店)(雅鑫商务酒店)","lon":"121.508285","lat":"31.194472","category":"214","category_name":"四星级宾馆","address":"上海市浦东新区靠近浦东南路3500号(近华丰路)"},{"poiid":"B2094757D069A6F5459E","title":"华丰路576路车站","lon":"121.507005","lat":"31.192889","category":"500","category_name":"未知分类","address":"上海华丰路浦东南路，955、576、82、818、981、177、周南綫公車站"},{"poiid":"B2094757D16FA1FF4599","title":"亮亮老北京热气涮羊肉","lon":"121.51156","lat":"31.19376","category":"86","category_name":"火锅店","address":"浦东新区临沂路213号(临沂路南码头路)"},{"poiid":"B2094757D068A2F4479A","title":"南码头社区市民中心","lon":"121.50903","lat":"31.19601","category":"260","category_name":"其他","address":"浦东新区南码头路400号(近浦东南路)"},{"poiid":"B2094655D265ABF44899","title":"媒体注册中心","lon":"121.50519","lat":"31.19173","category":"185","category_name":"会展中心","address":"上海世博园区"},{"poiid":"B2094757D169A6F9429E","title":"Masala Art(雪野路店)","lon":"121.50549158","lat":"31.195461483","category":"102","category_name":"印度风味","address":"浦东新区世博村雪野路1057号101b(近世博大道)"},{"poiid":"B2094655D26DA7F44798","title":"华丰新苑(西门)","lon":"121.50923","lat":"31.19165","category":"47","category_name":"住宅区","address":"临沂路339弄1-3号"},{"poiid":"B2094654DA6AA3FF439F","title":"姜姐小菜","lon":"121.50938","lat":"31.19065","category":"76","category_name":"上海菜","address":"浦东新区临沂路383号(近华丰路)"},{"poiid":"B2094655D265A1F8489A","title":"和谐广场","lon":"121.50688","lat":"31.19387","category":"201","category_name":"城市广场","address":"上海世博园区"}]