[{"poiid":"B2094655D26AA1F54299","title":"金钱豹大酒店宴会厅","lon":"121.37585","lat":"31.18871","category":"247","category_name":"餐饮美食","address":"长宁区延安西路3162号金钱豹大酒店3-6楼(近虹中路)查看地图"},{"poiid":"B2094757D06FA3F4449F","title":"万豪虹桥大酒店","lon":"121.3769","lat":"31.19163","category":"213","category_name":"五星级宾馆","address":"上海长宁区虹桥路2270号(近剑河路)  "},{"poiid":"B2094757D06FA2F4499D","title":"新农庄(剑河路总店)","lon":"121.3761","lat":"31.1905","category":"76","category_name":"上海菜","address":"长宁区剑河路2396号(近延安路高架)"},{"poiid":"B2094750D268A1FF4599","title":"虹桥机场1号航站楼","lon":"121.374694","lat":"31.194229","category":"21","category_name":"飞机场","address":"长宁区虹桥路2550号"},{"poiid":"B2094757D06FA3FC4599","title":"上海动物园地铁站","lon":"121.36693938","lat":"31.19022555","category":"36","category_name":"地铁站","address":"上海轨道交通 十号线 轨交上海动物园站 10"},{"poiid":"B2094757D06FA2FF4093","title":"星巴克(虹桥万豪店)","lon":"121.376118","lat":"31.191415","category":"260","category_name":"其他","address":"长宁区虹桥路2268号虹桥商务楼1楼B-C段(近剑河路)"},{"poiid":"B2094757D069A3FB4592","title":"龙柏新村","lon":"121.375949","lat":"31.188958","category":"47","category_name":"住宅区","address":"上海闵行区红松路"},{"poiid":"B2094655D36CA5FE499D","title":"程家桥路","lon":"121.37315","lat":"31.18759","category":"38","category_name":"公交车站","address":""},{"poiid":"B2094750D268A6FE429B","title":"金钱豹 延安西路店","lon":"121.37327828084","lat":"31.187941439535","category":"268","category_name":"自助","address":"长宁区延安西路3162号(近虹中路)"},{"poiid":"B2094757D068A1FC459E","title":"天鹅轩","lon":"121.36951","lat":"31.1903","category":"75","category_name":"浙江菜","address":"长宁区虹桥路2395号(近虹井路)查看地图"},{"poiid":"B2094757D06AA0FB4099","title":"人民公社农家菜","lon":"121.37031","lat":"31.19103","category":"87","category_name":"特色／地方风味餐厅","address":"长宁区哈密路2028号(近虹桥路)"},{"poiid":"B2094655D26BAAFF449E","title":"虹桥万豪酒店","lon":"121.37589","lat":"31.191","category":"250","category_name":"公园户外","address":"虹桥路2270号"},{"poiid":"B2094751DA65A4FD4399","title":"酒藏","lon":"121.371378","lat":"31.192276","category":"247","category_name":"餐饮美食","address":"长宁区剑河路(近延安西路)"},{"poiid":"B2094757D068A0F94393","title":"国际农业展览馆","lon":"121.37689","lat":"31.19202","category":"179","category_name":"音乐厅","address":"长宁区虹桥路2268号(近剑河路)"},{"poiid":"B2094757D168A2F4429D","title":"六井品位料理","lon":"121.37132058","lat":"31.1877376","category":"95","category_name":"日本料理","address":"长宁区延安西路3300号(近虹井路)"},{"poiid":"B2094757D16BA5FE4592","title":"申德医院","lon":"121.37451","lat":"31.19124","category":"162","category_name":"医院","address":"长宁区虹桥路2281号(近剑河路)"},{"poiid":"B2094757D66BA4F5419C","title":"pizzasun","lon":"121.36725256124","lat":"31.189778276359","category":"94","category_name":"西餐厅","address":"长宁区虹井路989号(近虹桥路)"},{"poiid":"B2094757DB6DA5F84698","title":"布丁酒店连锁（上海虹桥机场店）","lon":"121.371323168","lat":"31.190602543","category":"216","category_name":"经济型连锁酒店","address":"长宁区虹桥路2323号(哈密路口)"},{"poiid":"B2094655D269A4F5439A","title":"宝隆居家酒店哈密路店","lon":"121.36978","lat":"31.19221","category":"247","category_name":"餐饮美食","address":"上海市长宁区哈密路2010号（近虹桥路）"},{"poiid":"B2094757D465A4FA4392","title":"万豪虹桥大酒店 宴会厅","lon":"121.375667054","lat":"31.191734793","category":"76","category_name":"上海菜","address":"长宁区虹桥路2270号万豪虹桥大酒店(近剑河路)"},{"poiid":"B2094654DB64A7F4439B","title":"上海万豪虹桥大酒店(北门)","lon":"121.37609","lat":"31.19191","category":"656","category_name":"大门","address":"上海市长宁区虹桥路2270号（近剑河路）"},{"poiid":"B2094654D569AAFD4293","title":"张泾小区","lon":"121.37108","lat":"31.194754","category":"47","category_name":"住宅区","address":"上海剑河路2001弄"},{"poiid":"B2094654D569AAFB479B","title":"鲍鱼火锅","lon":"121.37622","lat":"31.19035","category":"86","category_name":"火锅店","address":"长宁区剑河路2378号(近延安西路)"},{"poiid":"B2094654D569AAFC4593","title":"程桥一村","lon":"121.37116","lat":"31.191307","category":"47","category_name":"住宅区","address":"虹桥路2335号"},{"poiid":"B2094757D06BA6FA429B","title":"壹柒零羊蝎子特色火锅","lon":"121.372319054","lat":"31.187211793","category":"86","category_name":"火锅店","address":"闵行区程家桥路170号(近延安路)"},{"poiid":"B2094757D069A1F84092","title":"包旺锅贴(程家桥路店)","lon":"121.37243156","lat":"31.188730883","category":"68","category_name":"快餐厅","address":"闵行区程家桥路56号(近虹桥路)"},{"poiid":"B2094654DB65A5F8499D","title":"民族饭店","lon":"121.36988401349","lat":"31.190987998811","category":"96","category_name":"韩国料理","address":"长宁区哈密路2028号(近虹桥路)"},{"poiid":"B2094757D16DA4F4439B","title":"金钱豹大酒店麒麟厅","lon":"121.37543958","lat":"31.189067626","category":"217","category_name":"旅馆招待所","address":"上海延安西路3162号6楼"},{"poiid":"B2094655D36CA7F84598","title":"虹桥路程家桥路","lon":"121.37359","lat":"31.19097","category":"38","category_name":"公交车站","address":""},{"poiid":"B2094654D569A5FE4692","title":"上海宝京精品酒店","lon":"121.3714","lat":"31.18723","category":"250","category_name":"公园户外","address":"长宁区延安西路3300号(程家桥路虹井路之间)"},{"poiid":"B2094654D569AAFC469A","title":"哈密路幼儿园","lon":"121.37035","lat":"31.19156","category":"57","category_name":"幼儿园","address":"哈密路2016号"},{"poiid":"B2094757D16CA6F94399","title":"57路程家桥站","lon":"121.3720366","lat":"31.190434","category":"38","category_name":"公交车站","address":"上海虹桥路程家桥路"},{"poiid":"B2094752D569A2FC4392","title":"酒藏","lon":"121.373023","lat":"31.190862","category":"247","category_name":"餐饮美食","address":"剑河路2378号"},{"poiid":"B2094757D164A3FA489A","title":"第一笼(平溪路店)","lon":"121.37038","lat":"31.19225","category":"247","category_name":"餐饮美食","address":"上海长宁区平溪路(近哈密路)  "},{"poiid":"B2094757D76CA0FC429E","title":"来伊份 程家桥路店","lon":"121.37232","lat":"31.18962","category":"68","category_name":"快餐厅","address":"闵行区程家桥路68号(近虹桥路)"},{"poiid":"B2094757D569A7FB469C","title":"绿谷餐厅","lon":"121.3695794","lat":"31.19295667","category":"247","category_name":"餐饮美食","address":"长宁区哈密路1500号(近虹桥路)"},{"poiid":"B2094654D569A6FE459F","title":"华都公寓","lon":"121.371402","lat":"31.189735","category":"47","category_name":"住宅区","address":"黄桦路422弄1-13号"},{"poiid":"B2094757D66AA0F84193","title":"银子楼","lon":"121.372053","lat":"31.189044","category":"76","category_name":"上海菜","address":"长宁区程家桥路100号(近延安西路)"},{"poiid":"B2094757D064A5F4419A","title":"全家便利(程家桥店)","lon":"121.371920585","lat":"31.1901732756","category":"117","category_name":"便民商店/便利店","address":"上海市长宁区程家桥路4号"},{"poiid":"B2094757D16FA7F8429E","title":"哈密幼儿园","lon":"121.37007","lat":"31.19113","category":"57","category_name":"幼儿园","address":"长宁区哈密路2016号(近虹桥路)"},{"poiid":"B2094654D569AAFD4199","title":"印度/巴基斯坦烧烤餐厅","lon":"121.37212","lat":"31.19311","category":"102","category_name":"印度风味","address":""},{"poiid":"B2094655D36CA7F8449D","title":"虹桥路剑河路","lon":"121.37458","lat":"31.19135","category":"38","category_name":"公交车站","address":""},{"poiid":"B2094757D169A0F4479E","title":"519路公交车站","lon":"121.373596","lat":"31.190974","category":"38","category_name":"公交车站","address":"上海虹桥路程家桥路"},{"poiid":"B2094757D469A3F4499A","title":"曼哈顿扒房 Manhattan Steakhouse","lon":"121.375667054","lat":"31.191734793","category":"94","category_name":"西餐厅","address":"长宁区虹桥路2270号万豪虹桥大酒店2楼(近剑河路)"},{"poiid":"B2094654DB69A6F9469E","title":"金虹桥商务大厦","lon":"121.3759","lat":"31.19057","category":"46","category_name":"楼宇","address":"南开滨海高新技术产业开发区华苑产业区兰苑路2号西侧(海泰大厦对面)"},{"poiid":"B2094654D569AAFC4599","title":"良友(哈密路)","lon":"121.3701","lat":"31.19092","category":"117","category_name":"便民商店/便利店","address":"闵行区程家桥路277号"},{"poiid":"B2094655D26DA5F9419F","title":"好德No.503","lon":"121.37013","lat":"31.19073","category":"117","category_name":"便民商店/便利店","address":"哈密路2048"},{"poiid":"B2094654DB6BA1F54398","title":"汉庭快捷(虹桥店)","lon":"121.37427","lat":"31.18721","category":"216","category_name":"经济型连锁酒店","address":"闵行区程家桥路181号延安西路高架南侧(近金汇路程家桥路)"},{"poiid":"B2094654DB6BA0FD489F","title":"快客No.6166","lon":"121.37194","lat":"31.19334","category":"117","category_name":"便民商店/便利店","address":"平溪路43识别"},{"poiid":"B2094654D569AAFC469B","title":"香港美食粗菜馆","lon":"121.36996","lat":"31.19172","category":"257","category_name":"中餐厅","address":"哈密路2010号"},{"poiid":"B2094655D26AA1F54299","title":"金钱豹大酒店宴会厅","lon":"121.37585","lat":"31.18871","category":"247","category_name":"餐饮美食","address":"长宁区延安西路3162号金钱豹大酒店3-6楼(近虹中路)查看地图"},{"poiid":"B2094757D06FA3F4449F","title":"万豪虹桥大酒店","lon":"121.3769","lat":"31.19163","category":"213","category_name":"五星级宾馆","address":"上海长宁区虹桥路2270号(近剑河路)  "},{"poiid":"B2094757D06FA2F4499D","title":"新农庄(剑河路总店)","lon":"121.3761","lat":"31.1905","category":"76","category_name":"上海菜","address":"长宁区剑河路2396号(近延安路高架)"},{"poiid":"B2094750D268A1FF4599","title":"虹桥机场1号航站楼","lon":"121.374694","lat":"31.194229","category":"21","category_name":"飞机场","address":"长宁区虹桥路2550号"},{"poiid":"B2094757D06FA3FC4599","title":"上海动物园地铁站","lon":"121.36693938","lat":"31.19022555","category":"36","category_name":"地铁站","address":"上海轨道交通 十号线 轨交上海动物园站 10"},{"poiid":"B2094757D06FA2FF4093","title":"星巴克(虹桥万豪店)","lon":"121.376118","lat":"31.191415","category":"260","category_name":"其他","address":"长宁区虹桥路2268号虹桥商务楼1楼B-C段(近剑河路)"},{"poiid":"B2094757D069A3FB4592","title":"龙柏新村","lon":"121.375949","lat":"31.188958","category":"47","category_name":"住宅区","address":"上海闵行区红松路"},{"poiid":"B2094655D36CA5FE499D","title":"程家桥路","lon":"121.37315","lat":"31.18759","category":"38","category_name":"公交车站","address":""},{"poiid":"B2094750D268A6FE429B","title":"金钱豹 延安西路店","lon":"121.37327828084","lat":"31.187941439535","category":"268","category_name":"自助","address":"长宁区延安西路3162号(近虹中路)"},{"poiid":"B2094757D068A1FC459E","title":"天鹅轩","lon":"121.36951","lat":"31.1903","category":"75","category_name":"浙江菜","address":"长宁区虹桥路2395号(近虹井路)查看地图"},{"poiid":"B2094757D06AA0FB4099","title":"人民公社农家菜","lon":"121.37031","lat":"31.19103","category":"87","category_name":"特色／地方风味餐厅","address":"长宁区哈密路2028号(近虹桥路)"},{"poiid":"B2094655D26BAAFF449E","title":"虹桥万豪酒店","lon":"121.37589","lat":"31.191","category":"250","category_name":"公园户外","address":"虹桥路2270号"},{"poiid":"B2094751DA65A4FD4399","title":"酒藏","lon":"121.371378","lat":"31.192276","category":"247","category_name":"餐饮美食","address":"长宁区剑河路(近延安西路)"},{"poiid":"B2094757D068A0F94393","title":"国际农业展览馆","lon":"121.37689","lat":"31.19202","category":"179","category_name":"音乐厅","address":"长宁区虹桥路2268号(近剑河路)"},{"poiid":"B2094757D168A2F4429D","title":"六井品位料理","lon":"121.37132058","lat":"31.1877376","category":"95","category_name":"日本料理","address":"长宁区延安西路3300号(近虹井路)"},{"poiid":"B2094757D16BA5FE4592","title":"申德医院","lon":"121.37451","lat":"31.19124","category":"162","category_name":"医院","address":"长宁区虹桥路2281号(近剑河路)"},{"poiid":"B2094757D66BA4F5419C","title":"pizzasun","lon":"121.36725256124","lat":"31.189778276359","category":"94","category_name":"西餐厅","address":"长宁区虹井路989号(近虹桥路)"},{"poiid":"B2094757DB6DA5F84698","title":"布丁酒店连锁（上海虹桥机场店）","lon":"121.371323168","lat":"31.190602543","category":"216","category_name":"经济型连锁酒店","address":"长宁区虹桥路2323号(哈密路口)"},{"poiid":"B2094655D269A4F5439A","title":"宝隆居家酒店哈密路店","lon":"121.36978","lat":"31.19221","category":"247","category_name":"餐饮美食","address":"上海市长宁区哈密路2010号（近虹桥路）"},{"poiid":"B2094757D465A4FA4392","title":"万豪虹桥大酒店 宴会厅","lon":"121.375667054","lat":"31.191734793","category":"76","category_name":"上海菜","address":"长宁区虹桥路2270号万豪虹桥大酒店(近剑河路)"},{"poiid":"B2094654DB64A7F4439B","title":"上海万豪虹桥大酒店(北门)","lon":"121.37609","lat":"31.19191","category":"656","category_name":"大门","address":"上海市长宁区虹桥路2270号（近剑河路）"},{"poiid":"B2094654D569AAFD4293","title":"张泾小区","lon":"121.37108","lat":"31.194754","category":"47","category_name":"住宅区","address":"上海剑河路2001弄"},{"poiid":"B2094654D569AAFB479B","title":"鲍鱼火锅","lon":"121.37622","lat":"31.19035","category":"86","category_name":"火锅店","address":"长宁区剑河路2378号(近延安西路)"},{"poiid":"B2094654D569AAFC4593","title":"程桥一村","lon":"121.37116","lat":"31.191307","category":"47","category_name":"住宅区","address":"虹桥路2335号"},{"poiid":"B2094757D06BA6FA429B","title":"壹柒零羊蝎子特色火锅","lon":"121.372319054","lat":"31.187211793","category":"86","category_name":"火锅店","address":"闵行区程家桥路170号(近延安路)"},{"poiid":"B2094757D069A1F84092","title":"包旺锅贴(程家桥路店)","lon":"121.37243156","lat":"31.188730883","category":"68","category_name":"快餐厅","address":"闵行区程家桥路56号(近虹桥路)"},{"poiid":"B2094654DB65A5F8499D","title":"民族饭店","lon":"121.36988401349","lat":"31.190987998811","category":"96","category_name":"韩国料理","address":"长宁区哈密路2028号(近虹桥路)"},{"poiid":"B2094757D16DA4F4439B","title":"金钱豹大酒店麒麟厅","lon":"121.37543958","lat":"31.189067626","category":"217","category_name":"旅馆招待所","address":"上海延安西路3162号6楼"},{"poiid":"B2094655D36CA7F84598","title":"虹桥路程家桥路","lon":"121.37359","lat":"31.19097","category":"38","category_name":"公交车站","address":""},{"poiid":"B2094654D569A5FE4692","title":"上海宝京精品酒店","lon":"121.3714","lat":"31.18723","category":"250","category_name":"公园户外","address":"长宁区延安西路3300号(程家桥路虹井路之间)"},{"poiid":"B2094654D569AAFC469A","title":"哈密路幼儿园","lon":"121.37035","lat":"31.19156","category":"57","category_name":"幼儿园","address":"哈密路2016号"},{"poiid":"B2094757D16CA6F94399","title":"57路程家桥站","lon":"121.3720366","lat":"31.190434","category":"38","category_name":"公交车站","address":"上海虹桥路程家桥路"},{"poiid":"B2094752D569A2FC4392","title":"酒藏","lon":"121.373023","lat":"31.190862","category":"247","category_name":"餐饮美食","address":"剑河路2378号"},{"poiid":"B2094757D164A3FA489A","title":"第一笼(平溪路店)","lon":"121.37038","lat":"31.19225","category":"247","category_name":"餐饮美食","address":"上海长宁区平溪路(近哈密路)  "},{"poiid":"B2094757D76CA0FC429E","title":"来伊份 程家桥路店","lon":"121.37232","lat":"31.18962","category":"68","category_name":"快餐厅","address":"闵行区程家桥路68号(近虹桥路)"},{"poiid":"B2094757D569A7FB469C","title":"绿谷餐厅","lon":"121.3695794","lat":"31.19295667","category":"247","category_name":"餐饮美食","address":"长宁区哈密路1500号(近虹桥路)"},{"poiid":"B2094654D569A6FE459F","title":"华都公寓","lon":"121.371402","lat":"31.189735","category":"47","category_name":"住宅区","address":"黄桦路422弄1-13号"},{"poiid":"B2094757D66AA0F84193","title":"银子楼","lon":"121.372053","lat":"31.189044","category":"76","category_name":"上海菜","address":"长宁区程家桥路100号(近延安西路)"},{"poiid":"B2094757D064A5F4419A","title":"全家便利(程家桥店)","lon":"121.371920585","lat":"31.1901732756","category":"117","category_name":"便民商店/便利店","address":"上海市长宁区程家桥路4号"},{"poiid":"B2094757D16FA7F8429E","title":"哈密幼儿园","lon":"121.37007","lat":"31.19113","category":"57","category_name":"幼儿园","address":"长宁区哈密路2016号(近虹桥路)"},{"poiid":"B2094654D569AAFD4199","title":"印度/巴基斯坦烧烤餐厅","lon":"121.37212","lat":"31.19311","category":"102","category_name":"印度风味","address":""},{"poiid":"B2094655D36CA7F8449D","title":"虹桥路剑河路","lon":"121.37458","lat":"31.19135","category":"38","category_name":"公交车站","address":""},{"poiid":"B2094757D169A0F4479E","title":"519路公交车站","lon":"121.373596","lat":"31.190974","category":"38","category_name":"公交车站","address":"上海虹桥路程家桥路"},{"poiid":"B2094757D469A3F4499A","title":"曼哈顿扒房 Manhattan Steakhouse","lon":"121.375667054","lat":"31.191734793","category":"94","category_name":"西餐厅","address":"长宁区虹桥路2270号万豪虹桥大酒店2楼(近剑河路)"},{"poiid":"B2094654DB69A6F9469E","title":"金虹桥商务大厦","lon":"121.3759","lat":"31.19057","category":"46","category_name":"楼宇","address":"南开滨海高新技术产业开发区华苑产业区兰苑路2号西侧(海泰大厦对面)"},{"poiid":"B2094654D569AAFC4599","title":"良友(哈密路)","lon":"121.3701","lat":"31.19092","category":"117","category_name":"便民商店/便利店","address":"闵行区程家桥路277号"},{"poiid":"B2094655D26DA5F9419F","title":"好德No.503","lon":"121.37013","lat":"31.19073","category":"117","category_name":"便民商店/便利店","address":"哈密路2048"},{"poiid":"B2094654DB6BA1F54398","title":"汉庭快捷(虹桥店)","lon":"121.37427","lat":"31.18721","category":"216","category_name":"经济型连锁酒店","address":"闵行区程家桥路181号延安西路高架南侧(近金汇路程家桥路)"},{"poiid":"B2094654DB6BA0FD489F","title":"快客No.6166","lon":"121.37194","lat":"31.19334","category":"117","category_name":"便民商店/便利店","address":"平溪路43识别"},{"poiid":"B2094654D569AAFC469B","title":"香港美食粗菜馆","lon":"121.36996","lat":"31.19172","category":"257","category_name":"中餐厅","address":"哈密路2010号"},{"poiid":"B2094655D26AA1F54299","title":"金钱豹大酒店宴会厅","lon":"121.37585","lat":"31.18871","category":"247","category_name":"餐饮美食","address":"长宁区延安西路3162号金钱豹大酒店3-6楼(近虹中路)查看地图"},{"poiid":"B2094757D06FA3F4449F","title":"万豪虹桥大酒店","lon":"121.3769","lat":"31.19163","category":"213","category_name":"五星级宾馆","address":"上海长宁区虹桥路2270号(近剑河路)  "},{"poiid":"B2094757D06FA2F4499D","title":"新农庄(剑河路总店)","lon":"121.3761","lat":"31.1905","category":"76","category_name":"上海菜","address":"长宁区剑河路2396号(近延安路高架)"},{"poiid":"B2094750D268A1FF4599","title":"虹桥机场1号航站楼","lon":"121.374694","lat":"31.194229","category":"21","category_name":"飞机场","address":"长宁区虹桥路2550号"},{"poiid":"B2094757D06FA3FC4599","title":"上海动物园地铁站","lon":"121.36693938","lat":"31.19022555","category":"36","category_name":"地铁站","address":"上海轨道交通 十号线 轨交上海动物园站 10"},{"poiid":"B2094757D06FA2FF4093","title":"星巴克(虹桥万豪店)","lon":"121.376118","lat":"31.191415","category":"260","category_name":"其他","address":"长宁区虹桥路2268号虹桥商务楼1楼B-C段(近剑河路)"},{"poiid":"B2094757D069A3FB4592","title":"龙柏新村","lon":"121.375949","lat":"31.188958","category":"47","category_name":"住宅区","address":"上海闵行区红松路"},{"poiid":"B2094655D36CA5FE499D","title":"程家桥路","lon":"121.37315","lat":"31.18759","category":"38","category_name":"公交车站","address":""},{"poiid":"B2094750D268A6FE429B","title":"金钱豹 延安西路店","lon":"121.37327828084","lat":"31.187941439535","category":"268","category_name":"自助","address":"长宁区延安西路3162号(近虹中路)"},{"poiid":"B2094757D068A1FC459E","title":"天鹅轩","lon":"121.36951","lat":"31.1903","category":"75","category_name":"浙江菜","address":"长宁区虹桥路2395号(近虹井路)查看地图"},{"poiid":"B2094757D06AA0FB4099","title":"人民公社农家菜","lon":"121.37031","lat":"31.19103","category":"87","category_name":"特色／地方风味餐厅","address":"长宁区哈密路2028号(近虹桥路)"},{"poiid":"B2094655D26BAAFF449E","title":"虹桥万豪酒店","lon":"121.37589","lat":"31.191","category":"250","category_name":"公园户外","address":"虹桥路2270号"},{"poiid":"B2094751DA65A4FD4399","title":"酒藏","lon":"121.371378","lat":"31.192276","category":"247","category_name":"餐饮美食","address":"长宁区剑河路(近延安西路)"},{"poiid":"B2094757D068A0F94393","title":"国际农业展览馆","lon":"121.37689","lat":"31.19202","category":"179","category_name":"音乐厅","address":"长宁区虹桥路2268号(近剑河路)"},{"poiid":"B2094757D168A2F4429D","title":"六井品位料理","lon":"121.37132058","lat":"31.1877376","category":"95","category_name":"日本料理","address":"长宁区延安西路3300号(近虹井路)"},{"poiid":"B2094757D16BA5FE4592","title":"申德医院","lon":"121.37451","lat":"31.19124","category":"162","category_name":"医院","address":"长宁区虹桥路2281号(近剑河路)"},{"poiid":"B2094757D66BA4F5419C","title":"pizzasun","lon":"121.36725256124","lat":"31.189778276359","category":"94","category_name":"西餐厅","address":"长宁区虹井路989号(近虹桥路)"},{"poiid":"B2094757DB6DA5F84698","title":"布丁酒店连锁（上海虹桥机场店）","lon":"121.371323168","lat":"31.190602543","category":"216","category_name":"经济型连锁酒店","address":"长宁区虹桥路2323号(哈密路口)"},{"poiid":"B2094655D269A4F5439A","title":"宝隆居家酒店哈密路店","lon":"121.36978","lat":"31.19221","category":"247","category_name":"餐饮美食","address":"上海市长宁区哈密路2010号（近虹桥路）"},{"poiid":"B2094757D465A4FA4392","title":"万豪虹桥大酒店 宴会厅","lon":"121.375667054","lat":"31.191734793","category":"76","category_name":"上海菜","address":"长宁区虹桥路2270号万豪虹桥大酒店(近剑河路)"},{"poiid":"B2094654DB64A7F4439B","title":"上海万豪虹桥大酒店(北门)","lon":"121.37609","lat":"31.19191","category":"656","category_name":"大门","address":"上海市长宁区虹桥路2270号（近剑河路）"},{"poiid":"B2094654D569AAFD4293","title":"张泾小区","lon":"121.37108","lat":"31.194754","category":"47","category_name":"住宅区","address":"上海剑河路2001弄"},{"poiid":"B2094654D569AAFB479B","title":"鲍鱼火锅","lon":"121.37622","lat":"31.19035","category":"86","category_name":"火锅店","address":"长宁区剑河路2378号(近延安西路)"},{"poiid":"B2094654D569AAFC4593","title":"程桥一村","lon":"121.37116","lat":"31.191307","category":"47","category_name":"住宅区","address":"虹桥路2335号"},{"poiid":"B2094757D06BA6FA429B","title":"壹柒零羊蝎子特色火锅","lon":"121.372319054","lat":"31.187211793","category":"86","category_name":"火锅店","address":"闵行区程家桥路170号(近延安路)"},{"poiid":"B2094757D069A1F84092","title":"包旺锅贴(程家桥路店)","lon":"121.37243156","lat":"31.188730883","category":"68","category_name":"快餐厅","address":"闵行区程家桥路56号(近虹桥路)"},{"poiid":"B2094654DB65A5F8499D","title":"民族饭店","lon":"121.36988401349","lat":"31.190987998811","category":"96","category_name":"韩国料理","address":"长宁区哈密路2028号(近虹桥路)"},{"poiid":"B2094757D16DA4F4439B","title":"金钱豹大酒店麒麟厅","lon":"121.37543958","lat":"31.189067626","category":"217","category_name":"旅馆招待所","address":"上海延安西路3162号6楼"},{"poiid":"B2094655D36CA7F84598","title":"虹桥路程家桥路","lon":"121.37359","lat":"31.19097","category":"38","category_name":"公交车站","address":""},{"poiid":"B2094654D569A5FE4692","title":"上海宝京精品酒店","lon":"121.3714","lat":"31.18723","category":"250","category_name":"公园户外","address":"长宁区延安西路3300号(程家桥路虹井路之间)"},{"poiid":"B2094654D569AAFC469A","title":"哈密路幼儿园","lon":"121.37035","lat":"31.19156","category":"57","category_name":"幼儿园","address":"哈密路2016号"},{"poiid":"B2094757D16CA6F94399","title":"57路程家桥站","lon":"121.3720366","lat":"31.190434","category":"38","category_name":"公交车站","address":"上海虹桥路程家桥路"},{"poiid":"B2094752D569A2FC4392","title":"酒藏","lon":"121.373023","lat":"31.190862","category":"247","category_name":"餐饮美食","address":"剑河路2378号"},{"poiid":"B2094757D164A3FA489A","title":"第一笼(平溪路店)","lon":"121.37038","lat":"31.19225","category":"247","category_name":"餐饮美食","address":"上海长宁区平溪路(近哈密路)  "},{"poiid":"B2094757D76CA0FC429E","title":"来伊份 程家桥路店","lon":"121.37232","lat":"31.18962","category":"68","category_name":"快餐厅","address":"闵行区程家桥路68号(近虹桥路)"},{"poiid":"B2094757D569A7FB469C","title":"绿谷餐厅","lon":"121.3695794","lat":"31.19295667","category":"247","category_name":"餐饮美食","address":"长宁区哈密路1500号(近虹桥路)"},{"poiid":"B2094654D569A6FE459F","title":"华都公寓","lon":"121.371402","lat":"31.189735","category":"47","category_name":"住宅区","address":"黄桦路422弄1-13号"},{"poiid":"B2094757D66AA0F84193","title":"银子楼","lon":"121.372053","lat":"31.189044","category":"76","category_name":"上海菜","address":"长宁区程家桥路100号(近延安西路)"},{"poiid":"B2094757D064A5F4419A","title":"全家便利(程家桥店)","lon":"121.371920585","lat":"31.1901732756","category":"117","category_name":"便民商店/便利店","address":"上海市长宁区程家桥路4号"},{"poiid":"B2094757D16FA7F8429E","title":"哈密幼儿园","lon":"121.37007","lat":"31.19113","category":"57","category_name":"幼儿园","address":"长宁区哈密路2016号(近虹桥路)"},{"poiid":"B2094654D569AAFD4199","title":"印度/巴基斯坦烧烤餐厅","lon":"121.37212","lat":"31.19311","category":"102","category_name":"印度风味","address":""},{"poiid":"B2094655D36CA7F8449D","title":"虹桥路剑河路","lon":"121.37458","lat":"31.19135","category":"38","category_name":"公交车站","address":""},{"poiid":"B2094757D169A0F4479E","title":"519路公交车站","lon":"121.373596","lat":"31.190974","category":"38","category_name":"公交车站","address":"上海虹桥路程家桥路"},{"poiid":"B2094757D469A3F4499A","title":"曼哈顿扒房 Manhattan Steakhouse","lon":"121.375667054","lat":"31.191734793","category":"94","category_name":"西餐厅","address":"长宁区虹桥路2270号万豪虹桥大酒店2楼(近剑河路)"},{"poiid":"B2094654DB69A6F9469E","title":"金虹桥商务大厦","lon":"121.3759","lat":"31.19057","category":"46","category_name":"楼宇","address":"南开滨海高新技术产业开发区华苑产业区兰苑路2号西侧(海泰大厦对面)"},{"poiid":"B2094654D569AAFC4599","title":"良友(哈密路)","lon":"121.3701","lat":"31.19092","category":"117","category_name":"便民商店/便利店","address":"闵行区程家桥路277号"},{"poiid":"B2094655D26DA5F9419F","title":"好德No.503","lon":"121.37013","lat":"31.19073","category":"117","category_name":"便民商店/便利店","address":"哈密路2048"},{"poiid":"B2094654DB6BA1F54398","title":"汉庭快捷(虹桥店)","lon":"121.37427","lat":"31.18721","category":"216","category_name":"经济型连锁酒店","address":"闵行区程家桥路181号延安西路高架南侧(近金汇路程家桥路)"},{"poiid":"B2094654DB6BA0FD489F","title":"快客No.6166","lon":"121.37194","lat":"31.19334","category":"117","category_name":"便民商店/便利店","address":"平溪路43识别"},{"poiid":"B2094654D569AAFC469B","title":"香港美食粗菜馆","lon":"121.36996","lat":"31.19172","category":"257","category_name":"中餐厅","address":"哈密路2010号"},{"poiid":"B2094655D26AA1F54299","title":"金钱豹大酒店宴会厅","lon":"121.37585","lat":"31.18871","category":"247","category_name":"餐饮美食","address":"长宁区延安西路3162号金钱豹大酒店3-6楼(近虹中路)查看地图"},{"poiid":"B2094757D06FA3F4449F","title":"万豪虹桥大酒店","lon":"121.3769","lat":"31.19163","category":"213","category_name":"五星级宾馆","address":"上海长宁区虹桥路2270号(近剑河路)  "},{"poiid":"B2094757D06FA2F4499D","title":"新农庄(剑河路总店)","lon":"121.3761","lat":"31.1905","category":"76","category_name":"上海菜","address":"长宁区剑河路2396号(近延安路高架)"},{"poiid":"B2094750D268A1FF4599","title":"虹桥机场1号航站楼","lon":"121.374694","lat":"31.194229","category":"21","category_name":"飞机场","address":"长宁区虹桥路2550号"},{"poiid":"B2094757D06FA3FC4599","title":"上海动物园地铁站","lon":"121.36693938","lat":"31.19022555","category":"36","category_name":"地铁站","address":"上海轨道交通 十号线 轨交上海动物园站 10"},{"poiid":"B2094757D06FA2FF4093","title":"星巴克(虹桥万豪店)","lon":"121.376118","lat":"31.191415","category":"260","category_name":"其他","address":"长宁区虹桥路2268号虹桥商务楼1楼B-C段(近剑河路)"},{"poiid":"B2094757D069A3FB4592","title":"龙柏新村","lon":"121.375949","lat":"31.188958","category":"47","category_name":"住宅区","address":"上海闵行区红松路"},{"poiid":"B2094655D36CA5FE499D","title":"程家桥路","lon":"121.37315","lat":"31.18759","category":"38","category_name":"公交车站","address":""},{"poiid":"B2094750D268A6FE429B","title":"金钱豹 延安西路店","lon":"121.37327828084","lat":"31.187941439535","category":"268","category_name":"自助","address":"长宁区延安西路3162号(近虹中路)"},{"poiid":"B2094757D068A1FC459E","title":"天鹅轩","lon":"121.36951","lat":"31.1903","category":"75","category_name":"浙江菜","address":"长宁区虹桥路2395号(近虹井路)查看地图"},{"poiid":"B2094757D06AA0FB4099","title":"人民公社农家菜","lon":"121.37031","lat":"31.19103","category":"87","category_name":"特色／地方风味餐厅","address":"长宁区哈密路2028号(近虹桥路)"},{"poiid":"B2094655D26BAAFF449E","title":"虹桥万豪酒店","lon":"121.37589","lat":"31.191","category":"250","category_name":"公园户外","address":"虹桥路2270号"},{"poiid":"B2094751DA65A4FD4399","title":"酒藏","lon":"121.371378","lat":"31.192276","category":"247","category_name":"餐饮美食","address":"长宁区剑河路(近延安西路)"},{"poiid":"B2094757D068A0F94393","title":"国际农业展览馆","lon":"121.37689","lat":"31.19202","category":"179","category_name":"音乐厅","address":"长宁区虹桥路2268号(近剑河路)"},{"poiid":"B2094757D168A2F4429D","title":"六井品位料理","lon":"121.37132058","lat":"31.1877376","category":"95","category_name":"日本料理","address":"长宁区延安西路3300号(近虹井路)"},{"poiid":"B2094757D16BA5FE4592","title":"申德医院","lon":"121.37451","lat":"31.19124","category":"162","category_name":"医院","address":"长宁区虹桥路2281号(近剑河路)"},{"poiid":"B2094757D66BA4F5419C","title":"pizzasun","lon":"121.36725256124","lat":"31.189778276359","category":"94","category_name":"西餐厅","address":"长宁区虹井路989号(近虹桥路)"},{"poiid":"B2094757DB6DA5F84698","title":"布丁酒店连锁（上海虹桥机场店）","lon":"121.371323168","lat":"31.190602543","category":"216","category_name":"经济型连锁酒店","address":"长宁区虹桥路2323号(哈密路口)"},{"poiid":"B2094655D269A4F5439A","title":"宝隆居家酒店哈密路店","lon":"121.36978","lat":"31.19221","category":"247","category_name":"餐饮美食","address":"上海市长宁区哈密路2010号（近虹桥路）"},{"poiid":"B2094757D465A4FA4392","title":"万豪虹桥大酒店 宴会厅","lon":"121.375667054","lat":"31.191734793","category":"76","category_name":"上海菜","address":"长宁区虹桥路2270号万豪虹桥大酒店(近剑河路)"},{"poiid":"B2094654DB64A7F4439B","title":"上海万豪虹桥大酒店(北门)","lon":"121.37609","lat":"31.19191","category":"656","category_name":"大门","address":"上海市长宁区虹桥路2270号（近剑河路）"},{"poiid":"B2094654D569AAFD4293","title":"张泾小区","lon":"121.37108","lat":"31.194754","category":"47","category_name":"住宅区","address":"上海剑河路2001弄"},{"poiid":"B2094654D569AAFB479B","title":"鲍鱼火锅","lon":"121.37622","lat":"31.19035","category":"86","category_name":"火锅店","address":"长宁区剑河路2378号(近延安西路)"},{"poiid":"B2094654D569AAFC4593","title":"程桥一村","lon":"121.37116","lat":"31.191307","category":"47","category_name":"住宅区","address":"虹桥路2335号"},{"poiid":"B2094757D06BA6FA429B","title":"壹柒零羊蝎子特色火锅","lon":"121.372319054","lat":"31.187211793","category":"86","category_name":"火锅店","address":"闵行区程家桥路170号(近延安路)"},{"poiid":"B2094757D069A1F84092","title":"包旺锅贴(程家桥路店)","lon":"121.37243156","lat":"31.188730883","category":"68","category_name":"快餐厅","address":"闵行区程家桥路56号(近虹桥路)"},{"poiid":"B2094654DB65A5F8499D","title":"民族饭店","lon":"121.36988401349","lat":"31.190987998811","category":"96","category_name":"韩国料理","address":"长宁区哈密路2028号(近虹桥路)"},{"poiid":"B2094757D16DA4F4439B","title":"金钱豹大酒店麒麟厅","lon":"121.37543958","lat":"31.189067626","category":"217","category_name":"旅馆招待所","address":"上海延安西路3162号6楼"},{"poiid":"B2094655D36CA7F84598","title":"虹桥路程家桥路","lon":"121.37359","lat":"31.19097","category":"38","category_name":"公交车站","address":""},{"poiid":"B2094654D569A5FE4692","title":"上海宝京精品酒店","lon":"121.3714","lat":"31.18723","category":"250","category_name":"公园户外","address":"长宁区延安西路3300号(程家桥路虹井路之间)"},{"poiid":"B2094654D569AAFC469A","title":"哈密路幼儿园","lon":"121.37035","lat":"31.19156","category":"57","category_name":"幼儿园","address":"哈密路2016号"},{"poiid":"B2094757D16CA6F94399","title":"57路程家桥站","lon":"121.3720366","lat":"31.190434","category":"38","category_name":"公交车站","address":"上海虹桥路程家桥路"},{"poiid":"B2094752D569A2FC4392","title":"酒藏","lon":"121.373023","lat":"31.190862","category":"247","category_name":"餐饮美食","address":"剑河路2378号"},{"poiid":"B2094757D164A3FA489A","title":"第一笼(平溪路店)","lon":"121.37038","lat":"31.19225","category":"247","category_name":"餐饮美食","address":"上海长宁区平溪路(近哈密路)  "},{"poiid":"B2094757D76CA0FC429E","title":"来伊份 程家桥路店","lon":"121.37232","lat":"31.18962","category":"68","category_name":"快餐厅","address":"闵行区程家桥路68号(近虹桥路)"},{"poiid":"B2094757D569A7FB469C","title":"绿谷餐厅","lon":"121.3695794","lat":"31.19295667","category":"247","category_name":"餐饮美食","address":"长宁区哈密路1500号(近虹桥路)"},{"poiid":"B2094654D569A6FE459F","title":"华都公寓","lon":"121.371402","lat":"31.189735","category":"47","category_name":"住宅区","address":"黄桦路422弄1-13号"},{"poiid":"B2094757D66AA0F84193","title":"银子楼","lon":"121.372053","lat":"31.189044","category":"76","category_name":"上海菜","address":"长宁区程家桥路100号(近延安西路)"},{"poiid":"B2094757D064A5F4419A","title":"全家便利(程家桥店)","lon":"121.371920585","lat":"31.1901732756","category":"117","category_name":"便民商店/便利店","address":"上海市长宁区程家桥路4号"},{"poiid":"B2094757D16FA7F8429E","title":"哈密幼儿园","lon":"121.37007","lat":"31.19113","category":"57","category_name":"幼儿园","address":"长宁区哈密路2016号(近虹桥路)"},{"poiid":"B2094654D569AAFD4199","title":"印度/巴基斯坦烧烤餐厅","lon":"121.37212","lat":"31.19311","category":"102","category_name":"印度风味","address":""},{"poiid":"B2094655D36CA7F8449D","title":"虹桥路剑河路","lon":"121.37458","lat":"31.19135","category":"38","category_name":"公交车站","address":""},{"poiid":"B2094757D169A0F4479E","title":"519路公交车站","lon":"121.373596","lat":"31.190974","category":"38","category_name":"公交车站","address":"上海虹桥路程家桥路"},{"poiid":"B2094757D469A3F4499A","title":"曼哈顿扒房 Manhattan Steakhouse","lon":"121.375667054","lat":"31.191734793","category":"94","category_name":"西餐厅","address":"长宁区虹桥路2270号万豪虹桥大酒店2楼(近剑河路)"},{"poiid":"B2094654DB69A6F9469E","title":"金虹桥商务大厦","lon":"121.3759","lat":"31.19057","category":"46","category_name":"楼宇","address":"南开滨海高新技术产业开发区华苑产业区兰苑路2号西侧(海泰大厦对面)"},{"poiid":"B2094654D569AAFC4599","title":"良友(哈密路)","lon":"121.3701","lat":"31.19092","category":"117","category_name":"便民商店/便利店","address":"闵行区程家桥路277号"},{"poiid":"B2094655D26DA5F9419F","title":"好德No.503","lon":"121.37013","lat":"31.19073","category":"117","category_name":"便民商店/便利店","address":"哈密路2048"},{"poiid":"B2094654DB6BA1F54398","title":"汉庭快捷(虹桥店)","lon":"121.37427","lat":"31.18721","category":"216","category_name":"经济型连锁酒店","address":"闵行区程家桥路181号延安西路高架南侧(近金汇路程家桥路)"},{"poiid":"B2094654DB6BA0FD489F","title":"快客No.6166","lon":"121.37194","lat":"31.19334","category":"117","category_name":"便民商店/便利店","address":"平溪路43识别"},{"poiid":"B2094654D569AAFC469B","title":"香港美食粗菜馆","lon":"121.36996","lat":"31.19172","category":"257","category_name":"中餐厅","address":"哈密路2010号"}]