[{"poiid":"B2094655D26DA4FF449B","title":"汉泰东南亚风味餐厅 大宁店 Hantai Asia Restaurant","lon":"121.45094299316","lat":"31.274131774902","category":"99","category_name":"泰国／越南菜品餐厅","address":"闸北区共和新路1998号大宁国际商业广场11栋4楼(近大宁路)"},{"poiid":"B2094751D36DAAF4489C","title":"江边城外烤全鱼(大宁店)","lon":"121.4512","lat":"31.27438","category":"71","category_name":"四川菜","address":"闸北区共和新路2008号大宁国际广场12座4楼(近大宁路预计10月初开业)"},{"poiid":"B2094655D26AA1F5429C","title":"上海大宁福朋喜来登酒店 (Four Points by Sheraton Shanghai, Daning)","lon":"121.45194","lat":"31.27383","category":"214","category_name":"四星级宾馆","address":"闸北区共和新路1928号大宁福朋喜来登酒店7楼(近大宁路)"},{"poiid":"B2094654D464A4FD419A","title":"蓝蛙(大宁店)","lon":"121.45227","lat":"31.27396","category":"260","category_name":"其他","address":"闸北区共和新路1918号大宁国际广场6幢102A-103A室(近大宁路)"},{"poiid":"B2094750D76FA2F4489A","title":"伊秀手握寿司(大宁国际店)","lon":"121.452","lat":"31.2747","category":"95","category_name":"日本料理","address":"闸北区共和新路1998号大宁国际商业广场9幢ELD301室"},{"poiid":"B2094750D26AABFF4793","title":"西九巷","lon":"121.45198","lat":"31.274692","category":"247","category_name":"餐饮美食","address":"闸北区共和新路1988号大宁国际商业广场10座2楼"},{"poiid":"B2094757D165ABF44193","title":"西贝","lon":"121.45177595","lat":"31.2742341408","category":"500","category_name":"未知分类","address":"上海市大宁国际商业广场"},{"poiid":"B2094757D06FA3FD4899","title":"吉旺港式茶餐厅 大宁店","lon":"121.454133054","lat":"31.273266793","category":"72","category_name":"广东菜","address":"闸北区共和新路1968号大宁国际商业广场12幢大润发5楼(近大宁路)"},{"poiid":"B2094757D068A1FD449A","title":"川食公馆(大宁国际)","lon":"121.45238295","lat":"31.272960116","category":"71","category_name":"四川菜","address":"闸北区共和新路2008号大宁国际广场12号楼5楼美食世界(近大宁路)"},{"poiid":"B2094654D464A4FE419C","title":"雍丰酒家","lon":"121.45117","lat":"31.27446","category":"72","category_name":"广东菜","address":"闸北区共和新路2008号大宁国际商业广场12幢大润发6楼(近大宁路)"},{"poiid":"B2094655D26CA1F54992","title":"巴贝拉(大宁店)","lon":"121.45159","lat":"31.2746","category":"94","category_name":"西餐厅","address":"闸北区共和新路1998号大宁国际商业广场11幢5楼501-502室(近大宁路)"},{"poiid":"B2094654D464A4FC499E","title":"大润发(宁和小区东北)","lon":"121.45095","lat":"31.27424","category":"118","category_name":"超级市场","address":"上海闸北区共和新路2008号大宁商业广场(近大宁路)"},{"poiid":"B2094757D16AA0FA4592","title":"十味观","lon":"121.45187195","lat":"31.2740421372","category":"247","category_name":"餐饮美食","address":"上海大宁国际"},{"poiid":"B2094750D66CA7F9479B","title":"大宁国际-西九巷","lon":"121.452331","lat":"31.273462","category":"247","category_name":"餐饮美食","address":"大宁路共和新路"},{"poiid":"B2094654D464A4FD409F","title":"汉堡王 大宁店 Burger King","lon":"121.454133054","lat":"31.273266793","category":"68","category_name":"快餐厅","address":"闸北区共和新路1978号大宁国际商业广场内9E1栋(近大宁路)"},{"poiid":"B2094655D26EA2FA4693","title":"蝶翠轩(大宁路)","lon":"121.45118","lat":"31.27446","category":"76","category_name":"上海菜","address":"闸北区共和新路2008号大宁国际商业广场12幢喜来登大酒店5楼(近大宁路)"},{"poiid":"B2094757D06FA6F5409D","title":"永乐苑","lon":"121.452","lat":"31.2729","category":"47","category_name":"住宅区","address":"上海市闸北区延长中路800弄"},{"poiid":"B2094655D26CA0F54499","title":"大宁国际商业广场12座","lon":"121.45118","lat":"31.27446","category":"119","category_name":"商场","address":"共和新路1988号"},{"poiid":"B2094757D66DA3F5429E","title":"西贝西北民间菜","lon":"121.45199395","lat":"31.2741551393","category":"500","category_name":"未知分类","address":"上海市万荣路"},{"poiid":"B2094654DB6AABFE409C","title":"荷风轩铁板料理","lon":"121.45119","lat":"31.27445","category":"87","category_name":"特色／地方风味餐厅","address":"闸北区共和新路2008号大润发超市5楼美食广场(近大宁路)"},{"poiid":"B2094655D26BA3FA4093","title":"蔡家食谱福朋喜来登店","lon":"121.45194","lat":"31.27383","category":"76","category_name":"上海菜","address":"闸北区共和新路1928号大宁福朋喜来登酒店1楼(近大宁路)"},{"poiid":"B2094757D16DABFE429F","title":"blue frog","lon":"121.45232295","lat":"31.274087138","category":"500","category_name":"未知分类","address":"上海市闸北区大宁路"},{"poiid":"B2094757D068A0F44398","title":"绿色丽园","lon":"121.44861","lat":"31.27446","category":"500","category_name":"未知分类","address":"上海闸北区大宁路667弄"},{"poiid":"B2094757D069A4FE429F","title":"1001赞生活牛肉面","lon":"121.45210295","lat":"31.274066137","category":"247","category_name":"餐饮美食","address":"上海市闸北区共和新路2008号大宁国际12座大润发购物广场5楼"},{"poiid":"B2094655D26CA1F5499C","title":"大宁国际商业广场2座(星汇上影大宁影城东)","lon":"121.45274","lat":"31.27351","category":"119","category_name":"商场","address":"共和新路1988号"},{"poiid":"B2094655D26CA1F5499D","title":"大宁国际商业广场11座","lon":"121.45159","lat":"31.2746","category":"119","category_name":"商场","address":"共和新路1988号"},{"poiid":"B2094757D069A3F5499D","title":"宁和小区","lon":"121.45047","lat":"31.273413","category":"47","category_name":"住宅区","address":"上海市闸北区大宁路"},{"poiid":"B2094757D06BA0FE4492","title":"福朋喜来登酒店咖啡厅","lon":"121.45165","lat":"31.27351","category":"247","category_name":"餐饮美食","address":"上海闸北区共和新路1928号大宁福朋喜来登酒店1楼(近大宁路)"},{"poiid":"B2094757D064A3FC4799","title":"小绍兴(大宁店)","lon":"121.45252995","lat":"31.2740421372","category":"68","category_name":"快餐厅","address":"闸北区共和新路1968号大宁国际商业广场6栋3楼(近大宁路)"},{"poiid":"B2094654D464A4FC4899","title":"上海市闸北区实验小学","lon":"121.44842","lat":"31.2727","category":"56","category_name":"小学","address":"闸北区大宁路670号(近万荣路)"},{"poiid":"B209475DD06FA3FC419D","title":"银乐迪","lon":"121.451568","lat":"31.273834","category":"500","category_name":"未知分类","address":"上海市 大宁囤际购物中心"},{"poiid":"B2094752D064A7FE409A","title":"Cafe Lugo","lon":"121.452652","lat":"31.272385","category":"247","category_name":"餐饮美食","address":"大宁国际"},{"poiid":"B2094654D464A4FD449D","title":"韩乡园烧烤","lon":"121.45117","lat":"31.27445","category":"87","category_name":"特色／地方风味餐厅","address":"共和新路1988号大宁国际商业广场12座5层518"},{"poiid":"B2094757D069A1F4409B","title":"面包新语 大宁店 BreadTalk","lon":"121.454133054","lat":"31.273266793","category":"67","category_name":"甜品店","address":"闸北区共和新路1978号大宁国际商业广场E1D-102-103号商铺(近大宁路)"},{"poiid":"B2094752D56CA3F5409F","title":"满记甜品","lon":"121.449895","lat":"31.272536","category":"247","category_name":"餐饮美食","address":"大宁国际商业广场"},{"poiid":"B2094655D26CA0FD4798","title":"大宁路660弄","lon":"121.44906","lat":"31.27259","category":"47","category_name":"住宅区","address":"大宁路660弄"},{"poiid":"B209475CD16BA6FE409D","title":"银乐迪","lon":"121.451881","lat":"31.274368","category":"500","category_name":"未知分类","address":"上海市 大宁国际"},{"poiid":"B2094757D465A4F8449D","title":"佳宁渔村","lon":"121.450887054","lat":"31.274721793","category":"76","category_name":"上海菜","address":"闸北区大宁路603号(共和新路口)"},{"poiid":"B2094654D464A4FC499B","title":"重庆鸡公煲(大宁路)","lon":"121.44889","lat":"31.273","category":"71","category_name":"四川菜","address":"闸北区大宁路(近大宁国际)"},{"poiid":"B2094757D069A0FE4699","title":"东东炭火烧肉","lon":"121.45246995","lat":"31.273772132","category":"247","category_name":"餐饮美食","address":"上海市闸北区共和新路1918号大宁商业广场6(e4)幢102d室"},{"poiid":"B2094751D26CA0F5449C","title":"江边城外大宁店","lon":"121.452262","lat":"31.27355","category":"500","category_name":"未知分类","address":null},{"poiid":"B2094757D664A6FE429B","title":"良鹰美食小吃","lon":"121.45111856237","lat":"31.269886308693","category":"247","category_name":"餐饮美食","address":"延长路450号近南北高架"},{"poiid":"B2094757D16CA5FF489D","title":"第十人民医院手术室","lon":"121.45295685","lat":"31.2718946961","category":"162","category_name":"医院","address":"上海延长中路301号"},{"poiid":"B2094757D66BA1FE499E","title":"克莉丝汀 大宁店","lon":"121.448170054","lat":"31.273026793","category":"112","category_name":"糕饼店","address":"闸北区大宁路607号(共和新路口)"},{"poiid":"B2094757DA64A5FD409A","title":"老盛兴汤包馆（延长店）","lon":"121.4474727330801","lat":"31.27240860047699","category":"247","category_name":"餐饮美食","address":"延长路430号"},{"poiid":"B2094750DB69A6F9449A","title":"江边城外烤鱼","lon":"121.452056","lat":"31.274051","category":"247","category_name":"餐饮美食","address":null},{"poiid":"B209475CD76CA7F84599","title":"山间堂民间瓦缸煨汤馆（大宁国际店）","lon":"121.452186","lat":"31.274166","category":"500","category_name":"未知分类","address":"上海市 闸北区共和新路1868号大宁国际商业广场12座5楼"},{"poiid":"B2094654D464A5F5409F","title":"建银曙光","lon":"121.45237576523","lat":"31.273387873028","category":"47","category_name":"住宅区","address":"延长中路400弄"},{"poiid":"B2094757D569A2FF419D","title":"Five Plus(上海大宁福朋喜来登集团酒店东北)","lon":"121.45219374","lat":"31.27408556","category":"141","category_name":"服装鞋帽皮具店","address":"中国上海市闸北区"},{"poiid":"B2094757D068A6F84693","title":"Nike工厂店(共和新路店)","lon":"121.45122","lat":"31.27395","category":"140","category_name":"体育用品店","address":"上海闸北区共和新路2008号大润发1楼(近大宁路)"},{"poiid":"B2094655D26DA4FF449B","title":"汉泰东南亚风味餐厅 大宁店 Hantai Asia Restaurant","lon":"121.45094299316","lat":"31.274131774902","category":"99","category_name":"泰国／越南菜品餐厅","address":"闸北区共和新路1998号大宁国际商业广场11栋4楼(近大宁路)"},{"poiid":"B2094751D36DAAF4489C","title":"江边城外烤全鱼(大宁店)","lon":"121.4512","lat":"31.27438","category":"71","category_name":"四川菜","address":"闸北区共和新路2008号大宁国际广场12座4楼(近大宁路预计10月初开业)"},{"poiid":"B2094655D26AA1F5429C","title":"上海大宁福朋喜来登酒店 (Four Points by Sheraton Shanghai, Daning)","lon":"121.45194","lat":"31.27383","category":"214","category_name":"四星级宾馆","address":"闸北区共和新路1928号大宁福朋喜来登酒店7楼(近大宁路)"},{"poiid":"B2094654D464A4FD419A","title":"蓝蛙(大宁店)","lon":"121.45227","lat":"31.27396","category":"260","category_name":"其他","address":"闸北区共和新路1918号大宁国际广场6幢102A-103A室(近大宁路)"},{"poiid":"B2094750D76FA2F4489A","title":"伊秀手握寿司(大宁国际店)","lon":"121.452","lat":"31.2747","category":"95","category_name":"日本料理","address":"闸北区共和新路1998号大宁国际商业广场9幢ELD301室"},{"poiid":"B2094750D26AABFF4793","title":"西九巷","lon":"121.45198","lat":"31.274692","category":"247","category_name":"餐饮美食","address":"闸北区共和新路1988号大宁国际商业广场10座2楼"},{"poiid":"B2094757D165ABF44193","title":"西贝","lon":"121.45177595","lat":"31.2742341408","category":"500","category_name":"未知分类","address":"上海市大宁国际商业广场"},{"poiid":"B2094757D06FA3FD4899","title":"吉旺港式茶餐厅 大宁店","lon":"121.454133054","lat":"31.273266793","category":"72","category_name":"广东菜","address":"闸北区共和新路1968号大宁国际商业广场12幢大润发5楼(近大宁路)"},{"poiid":"B2094757D068A1FD449A","title":"川食公馆(大宁国际)","lon":"121.45238295","lat":"31.272960116","category":"71","category_name":"四川菜","address":"闸北区共和新路2008号大宁国际广场12号楼5楼美食世界(近大宁路)"},{"poiid":"B2094654D464A4FE419C","title":"雍丰酒家","lon":"121.45117","lat":"31.27446","category":"72","category_name":"广东菜","address":"闸北区共和新路2008号大宁国际商业广场12幢大润发6楼(近大宁路)"},{"poiid":"B2094655D26CA1F54992","title":"巴贝拉(大宁店)","lon":"121.45159","lat":"31.2746","category":"94","category_name":"西餐厅","address":"闸北区共和新路1998号大宁国际商业广场11幢5楼501-502室(近大宁路)"},{"poiid":"B2094654D464A4FC499E","title":"大润发(宁和小区东北)","lon":"121.45095","lat":"31.27424","category":"118","category_name":"超级市场","address":"上海闸北区共和新路2008号大宁商业广场(近大宁路)"},{"poiid":"B2094757D16AA0FA4592","title":"十味观","lon":"121.45187195","lat":"31.2740421372","category":"247","category_name":"餐饮美食","address":"上海大宁国际"},{"poiid":"B2094750D66CA7F9479B","title":"大宁国际-西九巷","lon":"121.452331","lat":"31.273462","category":"247","category_name":"餐饮美食","address":"大宁路共和新路"},{"poiid":"B2094654D464A4FD409F","title":"汉堡王 大宁店 Burger King","lon":"121.454133054","lat":"31.273266793","category":"68","category_name":"快餐厅","address":"闸北区共和新路1978号大宁国际商业广场内9E1栋(近大宁路)"},{"poiid":"B2094655D26EA2FA4693","title":"蝶翠轩(大宁路)","lon":"121.45118","lat":"31.27446","category":"76","category_name":"上海菜","address":"闸北区共和新路2008号大宁国际商业广场12幢喜来登大酒店5楼(近大宁路)"},{"poiid":"B2094757D06FA6F5409D","title":"永乐苑","lon":"121.452","lat":"31.2729","category":"47","category_name":"住宅区","address":"上海市闸北区延长中路800弄"},{"poiid":"B2094655D26CA0F54499","title":"大宁国际商业广场12座","lon":"121.45118","lat":"31.27446","category":"119","category_name":"商场","address":"共和新路1988号"},{"poiid":"B2094757D66DA3F5429E","title":"西贝西北民间菜","lon":"121.45199395","lat":"31.2741551393","category":"500","category_name":"未知分类","address":"上海市万荣路"},{"poiid":"B2094654DB6AABFE409C","title":"荷风轩铁板料理","lon":"121.45119","lat":"31.27445","category":"87","category_name":"特色／地方风味餐厅","address":"闸北区共和新路2008号大润发超市5楼美食广场(近大宁路)"},{"poiid":"B2094655D26BA3FA4093","title":"蔡家食谱福朋喜来登店","lon":"121.45194","lat":"31.27383","category":"76","category_name":"上海菜","address":"闸北区共和新路1928号大宁福朋喜来登酒店1楼(近大宁路)"},{"poiid":"B2094757D16DABFE429F","title":"blue frog","lon":"121.45232295","lat":"31.274087138","category":"500","category_name":"未知分类","address":"上海市闸北区大宁路"},{"poiid":"B2094757D068A0F44398","title":"绿色丽园","lon":"121.44861","lat":"31.27446","category":"500","category_name":"未知分类","address":"上海闸北区大宁路667弄"},{"poiid":"B2094757D069A4FE429F","title":"1001赞生活牛肉面","lon":"121.45210295","lat":"31.274066137","category":"247","category_name":"餐饮美食","address":"上海市闸北区共和新路2008号大宁国际12座大润发购物广场5楼"},{"poiid":"B2094655D26CA1F5499C","title":"大宁国际商业广场2座(星汇上影大宁影城东)","lon":"121.45274","lat":"31.27351","category":"119","category_name":"商场","address":"共和新路1988号"},{"poiid":"B2094655D26CA1F5499D","title":"大宁国际商业广场11座","lon":"121.45159","lat":"31.2746","category":"119","category_name":"商场","address":"共和新路1988号"},{"poiid":"B2094757D069A3F5499D","title":"宁和小区","lon":"121.45047","lat":"31.273413","category":"47","category_name":"住宅区","address":"上海市闸北区大宁路"},{"poiid":"B2094757D06BA0FE4492","title":"福朋喜来登酒店咖啡厅","lon":"121.45165","lat":"31.27351","category":"247","category_name":"餐饮美食","address":"上海闸北区共和新路1928号大宁福朋喜来登酒店1楼(近大宁路)"},{"poiid":"B2094757D064A3FC4799","title":"小绍兴(大宁店)","lon":"121.45252995","lat":"31.2740421372","category":"68","category_name":"快餐厅","address":"闸北区共和新路1968号大宁国际商业广场6栋3楼(近大宁路)"},{"poiid":"B2094654D464A4FC4899","title":"上海市闸北区实验小学","lon":"121.44842","lat":"31.2727","category":"56","category_name":"小学","address":"闸北区大宁路670号(近万荣路)"},{"poiid":"B209475DD06FA3FC419D","title":"银乐迪","lon":"121.451568","lat":"31.273834","category":"500","category_name":"未知分类","address":"上海市 大宁囤际购物中心"},{"poiid":"B2094752D064A7FE409A","title":"Cafe Lugo","lon":"121.452652","lat":"31.272385","category":"247","category_name":"餐饮美食","address":"大宁国际"},{"poiid":"B2094654D464A4FD449D","title":"韩乡园烧烤","lon":"121.45117","lat":"31.27445","category":"87","category_name":"特色／地方风味餐厅","address":"共和新路1988号大宁国际商业广场12座5层518"},{"poiid":"B2094757D069A1F4409B","title":"面包新语 大宁店 BreadTalk","lon":"121.454133054","lat":"31.273266793","category":"67","category_name":"甜品店","address":"闸北区共和新路1978号大宁国际商业广场E1D-102-103号商铺(近大宁路)"},{"poiid":"B2094752D56CA3F5409F","title":"满记甜品","lon":"121.449895","lat":"31.272536","category":"247","category_name":"餐饮美食","address":"大宁国际商业广场"},{"poiid":"B2094655D26CA0FD4798","title":"大宁路660弄","lon":"121.44906","lat":"31.27259","category":"47","category_name":"住宅区","address":"大宁路660弄"},{"poiid":"B209475CD16BA6FE409D","title":"银乐迪","lon":"121.451881","lat":"31.274368","category":"500","category_name":"未知分类","address":"上海市 大宁国际"},{"poiid":"B2094757D465A4F8449D","title":"佳宁渔村","lon":"121.450887054","lat":"31.274721793","category":"76","category_name":"上海菜","address":"闸北区大宁路603号(共和新路口)"},{"poiid":"B2094654D464A4FC499B","title":"重庆鸡公煲(大宁路)","lon":"121.44889","lat":"31.273","category":"71","category_name":"四川菜","address":"闸北区大宁路(近大宁国际)"},{"poiid":"B2094757D069A0FE4699","title":"东东炭火烧肉","lon":"121.45246995","lat":"31.273772132","category":"247","category_name":"餐饮美食","address":"上海市闸北区共和新路1918号大宁商业广场6(e4)幢102d室"},{"poiid":"B2094751D26CA0F5449C","title":"江边城外大宁店","lon":"121.452262","lat":"31.27355","category":"500","category_name":"未知分类","address":null},{"poiid":"B2094757D664A6FE429B","title":"良鹰美食小吃","lon":"121.45111856237","lat":"31.269886308693","category":"247","category_name":"餐饮美食","address":"延长路450号近南北高架"},{"poiid":"B2094757D16CA5FF489D","title":"第十人民医院手术室","lon":"121.45295685","lat":"31.2718946961","category":"162","category_name":"医院","address":"上海延长中路301号"},{"poiid":"B2094757D66BA1FE499E","title":"克莉丝汀 大宁店","lon":"121.448170054","lat":"31.273026793","category":"112","category_name":"糕饼店","address":"闸北区大宁路607号(共和新路口)"},{"poiid":"B2094757DA64A5FD409A","title":"老盛兴汤包馆（延长店）","lon":"121.4474727330801","lat":"31.27240860047699","category":"247","category_name":"餐饮美食","address":"延长路430号"},{"poiid":"B2094750DB69A6F9449A","title":"江边城外烤鱼","lon":"121.452056","lat":"31.274051","category":"247","category_name":"餐饮美食","address":null},{"poiid":"B209475CD76CA7F84599","title":"山间堂民间瓦缸煨汤馆（大宁国际店）","lon":"121.452186","lat":"31.274166","category":"500","category_name":"未知分类","address":"上海市 闸北区共和新路1868号大宁国际商业广场12座5楼"},{"poiid":"B2094654D464A5F5409F","title":"建银曙光","lon":"121.45237576523","lat":"31.273387873028","category":"47","category_name":"住宅区","address":"延长中路400弄"},{"poiid":"B2094757D569A2FF419D","title":"Five Plus(上海大宁福朋喜来登集团酒店东北)","lon":"121.45219374","lat":"31.27408556","category":"141","category_name":"服装鞋帽皮具店","address":"中国上海市闸北区"},{"poiid":"B2094757D068A6F84693","title":"Nike工厂店(共和新路店)","lon":"121.45122","lat":"31.27395","category":"140","category_name":"体育用品店","address":"上海闸北区共和新路2008号大润发1楼(近大宁路)"},{"poiid":"B2094655D26DA4FF449B","title":"汉泰东南亚风味餐厅 大宁店 Hantai Asia Restaurant","lon":"121.45094299316","lat":"31.274131774902","category":"99","category_name":"泰国／越南菜品餐厅","address":"闸北区共和新路1998号大宁国际商业广场11栋4楼(近大宁路)"},{"poiid":"B2094751D36DAAF4489C","title":"江边城外烤全鱼(大宁店)","lon":"121.4512","lat":"31.27438","category":"71","category_name":"四川菜","address":"闸北区共和新路2008号大宁国际广场12座4楼(近大宁路预计10月初开业)"},{"poiid":"B2094655D26AA1F5429C","title":"上海大宁福朋喜来登酒店 (Four Points by Sheraton Shanghai, Daning)","lon":"121.45194","lat":"31.27383","category":"214","category_name":"四星级宾馆","address":"闸北区共和新路1928号大宁福朋喜来登酒店7楼(近大宁路)"},{"poiid":"B2094654D464A4FD419A","title":"蓝蛙(大宁店)","lon":"121.45227","lat":"31.27396","category":"260","category_name":"其他","address":"闸北区共和新路1918号大宁国际广场6幢102A-103A室(近大宁路)"},{"poiid":"B2094750D76FA2F4489A","title":"伊秀手握寿司(大宁国际店)","lon":"121.452","lat":"31.2747","category":"95","category_name":"日本料理","address":"闸北区共和新路1998号大宁国际商业广场9幢ELD301室"},{"poiid":"B2094750D26AABFF4793","title":"西九巷","lon":"121.45198","lat":"31.274692","category":"247","category_name":"餐饮美食","address":"闸北区共和新路1988号大宁国际商业广场10座2楼"},{"poiid":"B2094757D165ABF44193","title":"西贝","lon":"121.45177595","lat":"31.2742341408","category":"500","category_name":"未知分类","address":"上海市大宁国际商业广场"},{"poiid":"B2094757D06FA3FD4899","title":"吉旺港式茶餐厅 大宁店","lon":"121.454133054","lat":"31.273266793","category":"72","category_name":"广东菜","address":"闸北区共和新路1968号大宁国际商业广场12幢大润发5楼(近大宁路)"},{"poiid":"B2094757D068A1FD449A","title":"川食公馆(大宁国际)","lon":"121.45238295","lat":"31.272960116","category":"71","category_name":"四川菜","address":"闸北区共和新路2008号大宁国际广场12号楼5楼美食世界(近大宁路)"},{"poiid":"B2094654D464A4FE419C","title":"雍丰酒家","lon":"121.45117","lat":"31.27446","category":"72","category_name":"广东菜","address":"闸北区共和新路2008号大宁国际商业广场12幢大润发6楼(近大宁路)"},{"poiid":"B2094655D26CA1F54992","title":"巴贝拉(大宁店)","lon":"121.45159","lat":"31.2746","category":"94","category_name":"西餐厅","address":"闸北区共和新路1998号大宁国际商业广场11幢5楼501-502室(近大宁路)"},{"poiid":"B2094654D464A4FC499E","title":"大润发(宁和小区东北)","lon":"121.45095","lat":"31.27424","category":"118","category_name":"超级市场","address":"上海闸北区共和新路2008号大宁商业广场(近大宁路)"},{"poiid":"B2094757D16AA0FA4592","title":"十味观","lon":"121.45187195","lat":"31.2740421372","category":"247","category_name":"餐饮美食","address":"上海大宁国际"},{"poiid":"B2094750D66CA7F9479B","title":"大宁国际-西九巷","lon":"121.452331","lat":"31.273462","category":"247","category_name":"餐饮美食","address":"大宁路共和新路"},{"poiid":"B2094654D464A4FD409F","title":"汉堡王 大宁店 Burger King","lon":"121.454133054","lat":"31.273266793","category":"68","category_name":"快餐厅","address":"闸北区共和新路1978号大宁国际商业广场内9E1栋(近大宁路)"},{"poiid":"B2094655D26EA2FA4693","title":"蝶翠轩(大宁路)","lon":"121.45118","lat":"31.27446","category":"76","category_name":"上海菜","address":"闸北区共和新路2008号大宁国际商业广场12幢喜来登大酒店5楼(近大宁路)"},{"poiid":"B2094757D06FA6F5409D","title":"永乐苑","lon":"121.452","lat":"31.2729","category":"47","category_name":"住宅区","address":"上海市闸北区延长中路800弄"},{"poiid":"B2094655D26CA0F54499","title":"大宁国际商业广场12座","lon":"121.45118","lat":"31.27446","category":"119","category_name":"商场","address":"共和新路1988号"},{"poiid":"B2094757D66DA3F5429E","title":"西贝西北民间菜","lon":"121.45199395","lat":"31.2741551393","category":"500","category_name":"未知分类","address":"上海市万荣路"},{"poiid":"B2094654DB6AABFE409C","title":"荷风轩铁板料理","lon":"121.45119","lat":"31.27445","category":"87","category_name":"特色／地方风味餐厅","address":"闸北区共和新路2008号大润发超市5楼美食广场(近大宁路)"},{"poiid":"B2094655D26BA3FA4093","title":"蔡家食谱福朋喜来登店","lon":"121.45194","lat":"31.27383","category":"76","category_name":"上海菜","address":"闸北区共和新路1928号大宁福朋喜来登酒店1楼(近大宁路)"},{"poiid":"B2094757D16DABFE429F","title":"blue frog","lon":"121.45232295","lat":"31.274087138","category":"500","category_name":"未知分类","address":"上海市闸北区大宁路"},{"poiid":"B2094757D068A0F44398","title":"绿色丽园","lon":"121.44861","lat":"31.27446","category":"500","category_name":"未知分类","address":"上海闸北区大宁路667弄"},{"poiid":"B2094757D069A4FE429F","title":"1001赞生活牛肉面","lon":"121.45210295","lat":"31.274066137","category":"247","category_name":"餐饮美食","address":"上海市闸北区共和新路2008号大宁国际12座大润发购物广场5楼"},{"poiid":"B2094655D26CA1F5499C","title":"大宁国际商业广场2座(星汇上影大宁影城东)","lon":"121.45274","lat":"31.27351","category":"119","category_name":"商场","address":"共和新路1988号"},{"poiid":"B2094655D26CA1F5499D","title":"大宁国际商业广场11座","lon":"121.45159","lat":"31.2746","category":"119","category_name":"商场","address":"共和新路1988号"},{"poiid":"B2094757D069A3F5499D","title":"宁和小区","lon":"121.45047","lat":"31.273413","category":"47","category_name":"住宅区","address":"上海市闸北区大宁路"},{"poiid":"B2094757D06BA0FE4492","title":"福朋喜来登酒店咖啡厅","lon":"121.45165","lat":"31.27351","category":"247","category_name":"餐饮美食","address":"上海闸北区共和新路1928号大宁福朋喜来登酒店1楼(近大宁路)"},{"poiid":"B2094757D064A3FC4799","title":"小绍兴(大宁店)","lon":"121.45252995","lat":"31.2740421372","category":"68","category_name":"快餐厅","address":"闸北区共和新路1968号大宁国际商业广场6栋3楼(近大宁路)"},{"poiid":"B2094654D464A4FC4899","title":"上海市闸北区实验小学","lon":"121.44842","lat":"31.2727","category":"56","category_name":"小学","address":"闸北区大宁路670号(近万荣路)"},{"poiid":"B209475DD06FA3FC419D","title":"银乐迪","lon":"121.451568","lat":"31.273834","category":"500","category_name":"未知分类","address":"上海市 大宁囤际购物中心"},{"poiid":"B2094752D064A7FE409A","title":"Cafe Lugo","lon":"121.452652","lat":"31.272385","category":"247","category_name":"餐饮美食","address":"大宁国际"},{"poiid":"B2094654D464A4FD449D","title":"韩乡园烧烤","lon":"121.45117","lat":"31.27445","category":"87","category_name":"特色／地方风味餐厅","address":"共和新路1988号大宁国际商业广场12座5层518"},{"poiid":"B2094757D069A1F4409B","title":"面包新语 大宁店 BreadTalk","lon":"121.454133054","lat":"31.273266793","category":"67","category_name":"甜品店","address":"闸北区共和新路1978号大宁国际商业广场E1D-102-103号商铺(近大宁路)"},{"poiid":"B2094752D56CA3F5409F","title":"满记甜品","lon":"121.449895","lat":"31.272536","category":"247","category_name":"餐饮美食","address":"大宁国际商业广场"},{"poiid":"B2094655D26CA0FD4798","title":"大宁路660弄","lon":"121.44906","lat":"31.27259","category":"47","category_name":"住宅区","address":"大宁路660弄"},{"poiid":"B209475CD16BA6FE409D","title":"银乐迪","lon":"121.451881","lat":"31.274368","category":"500","category_name":"未知分类","address":"上海市 大宁国际"},{"poiid":"B2094757D465A4F8449D","title":"佳宁渔村","lon":"121.450887054","lat":"31.274721793","category":"76","category_name":"上海菜","address":"闸北区大宁路603号(共和新路口)"},{"poiid":"B2094654D464A4FC499B","title":"重庆鸡公煲(大宁路)","lon":"121.44889","lat":"31.273","category":"71","category_name":"四川菜","address":"闸北区大宁路(近大宁国际)"},{"poiid":"B2094757D069A0FE4699","title":"东东炭火烧肉","lon":"121.45246995","lat":"31.273772132","category":"247","category_name":"餐饮美食","address":"上海市闸北区共和新路1918号大宁商业广场6(e4)幢102d室"},{"poiid":"B2094751D26CA0F5449C","title":"江边城外大宁店","lon":"121.452262","lat":"31.27355","category":"500","category_name":"未知分类","address":null},{"poiid":"B2094757D664A6FE429B","title":"良鹰美食小吃","lon":"121.45111856237","lat":"31.269886308693","category":"247","category_name":"餐饮美食","address":"延长路450号近南北高架"},{"poiid":"B2094757D16CA5FF489D","title":"第十人民医院手术室","lon":"121.45295685","lat":"31.2718946961","category":"162","category_name":"医院","address":"上海延长中路301号"},{"poiid":"B2094757D66BA1FE499E","title":"克莉丝汀 大宁店","lon":"121.448170054","lat":"31.273026793","category":"112","category_name":"糕饼店","address":"闸北区大宁路607号(共和新路口)"},{"poiid":"B2094757DA64A5FD409A","title":"老盛兴汤包馆（延长店）","lon":"121.4474727330801","lat":"31.27240860047699","category":"247","category_name":"餐饮美食","address":"延长路430号"},{"poiid":"B2094750DB69A6F9449A","title":"江边城外烤鱼","lon":"121.452056","lat":"31.274051","category":"247","category_name":"餐饮美食","address":null},{"poiid":"B209475CD76CA7F84599","title":"山间堂民间瓦缸煨汤馆（大宁国际店）","lon":"121.452186","lat":"31.274166","category":"500","category_name":"未知分类","address":"上海市 闸北区共和新路1868号大宁国际商业广场12座5楼"},{"poiid":"B2094654D464A5F5409F","title":"建银曙光","lon":"121.45237576523","lat":"31.273387873028","category":"47","category_name":"住宅区","address":"延长中路400弄"},{"poiid":"B2094757D569A2FF419D","title":"Five Plus(上海大宁福朋喜来登集团酒店东北)","lon":"121.45219374","lat":"31.27408556","category":"141","category_name":"服装鞋帽皮具店","address":"中国上海市闸北区"},{"poiid":"B2094757D068A6F84693","title":"Nike工厂店(共和新路店)","lon":"121.45122","lat":"31.27395","category":"140","category_name":"体育用品店","address":"上海闸北区共和新路2008号大润发1楼(近大宁路)"}]