[{"poiid":"B2094654DB65A4F4449F","title":"大润发杨浦店","lon":"121.52198","lat":"31.28889","category":"118","category_name":"超级市场","address":"杨浦区黄兴路1618号(近国权路)"},{"poiid":"B2094757D068A3FC4992","title":"五角场800号","lon":"121.52526855","lat":"31.294179916","category":"47","category_name":"住宅区","address":"南开滨海高新技术产业开发区华苑产业区兰苑路2号西侧(海泰大厦对面)"},{"poiid":"B2094757D06FA4F44399","title":"必胜客(黄兴大润发店)","lon":"121.521587","lat":"31.289531","category":"68","category_name":"快餐厅","address":"杨浦区黄兴路1618号大润发附近(近国顺东路)"},{"poiid":"B2094654DB6BA2F8499A","title":"文化佳园","lon":"121.52584","lat":"31.289118","category":"47","category_name":"住宅区","address":"上海市杨浦区黄兴路1618号"},{"poiid":"B2094757D06FAAF9449A","title":"现场酒吧","lon":"121.524631","lat":"31.293843","category":"172","category_name":"酒吧","address":"杨浦区国顺东路800号黄兴公园内(近双阳北路)"},{"poiid":"B2094757D06FA1FE449E","title":"肯德基 KFC (大润发店)","lon":"121.521554","lat":"31.288011","category":"68","category_name":"快餐厅","address":"杨浦区黄兴路1616号大润发1楼(近国权路)"},{"poiid":"B2094654D56EA4FA469F","title":"财富国际广场","lon":"121.52492531799","lat":"31.294047836057","category":"46","category_name":"楼宇","address":"上海市奉贤区南奉公路8515,8519号"},{"poiid":"B2094757D068A7F8429F","title":"天空音乐城","lon":"121.529710745","lat":"31.2878488008","category":"170","category_name":"KTV","address":"杨浦区永吉路9号翰昌天地4楼(近松花江路)"},{"poiid":"B2094757D06FA5FA439D","title":"DQ冰雪皇后(黄兴店)","lon":"121.52171","lat":"31.28903","category":"113","category_name":"冷饮店","address":"普陀区金沙江路1685号农工商118店1楼(近真北路)"},{"poiid":"B2094757D065A6F44598","title":"大润发","lon":"121.52683823","lat":"31.287860914","category":"500","category_name":"未知分类","address":"上海黄兴路"},{"poiid":"B2094655D26BA3F8409F","title":"康师傅私房牛肉面 黄兴店","lon":"121.522009054","lat":"31.288231793","category":"68","category_name":"快餐厅","address":"杨浦区黄兴路1618号大润发1楼(近国权路)"},{"poiid":"B2094757D465ABF4419B","title":"争鲜回转寿司 黄兴路店","lon":"121.522009054","lat":"31.288231793","category":"95","category_name":"日本料理","address":"杨浦区黄兴路1618号大润发超市1楼(近国权路)"},{"poiid":"B2094757D068A6F9459F","title":"繁江酒楼(靖宇中路店)","lon":"121.52969","lat":"31.28539","category":"76","category_name":"上海菜","address":"杨浦区靖宇中路60号(近双阳路口)"},{"poiid":"B2094757D064A6FE4798","title":"万里山川","lon":"121.52288001","lat":"31.292956187","category":"95","category_name":"日本料理","address":"杨浦区国定东路41号(近翔殷路)"},{"poiid":"B2094757D569A1FB4993","title":"味千拉面(黄兴路店)","lon":"121.521586999998","lat":"31.2895309999998","category":"95","category_name":"日本料理","address":"杨浦区黄兴路1618号大润发1楼商店街67号(近国权路)"},{"poiid":"B2094654D56FA6F54699","title":"顺角轩酒店","lon":"121.52155","lat":"31.28801","category":"82","category_name":"东北菜","address":"杨浦区黄兴路1616号百安居内(近国权路)"},{"poiid":"B2094655D26DA5FE4492","title":"新纪元国际广场","lon":"121.527","lat":"31.2925","category":"46","category_name":"楼宇","address":"上海市杨浦区黄兴路1599号"},{"poiid":"B2094757D068AAF54799","title":"新招鲜本地鸡窝(靖宇中路店)","lon":"121.52742","lat":"31.284466","category":"86","category_name":"火锅店","address":"杨浦区靖宇中路120号(近沧州路)"},{"poiid":"B2094757D06FA6FC4292","title":"百安居(杨浦店)","lon":"121.52203","lat":"31.2869","category":"123","category_name":"家具建材市场","address":"杨浦区黄兴路1616号(近国权路)"},{"poiid":"B2094654D56FA6F54892","title":"黄兴公园(西门)","lon":"121.52723","lat":"31.29103","category":"656","category_name":"大门","address":"双阳北路59"},{"poiid":"B2094655D26AA6F8489F","title":"800艺术区","lon":"121.52526","lat":"31.29418","category":"247","category_name":"餐饮美食","address":"杨浦区国顺东路800号黄兴公园东楼(近双阳北路)"},{"poiid":"B2094751D56BA4FE4399","title":"江南公社","lon":"121.530746","lat":"31.291198","category":"247","category_name":"餐饮美食","address":"杨浦区靖宇中路280号"},{"poiid":"B2094655D26AA6FE469B","title":"上岛咖啡 黄兴路店 UBC Coffee","lon":"121.522009054","lat":"31.288231793","category":"247","category_name":"餐饮美食","address":"杨浦区黄兴路1618号大润发超市1楼(近国权路)"},{"poiid":"B2094757D068ABF9439F","title":"大娘水饺(杨浦店)","lon":"121.521969215","lat":"31.2889596944","category":"68","category_name":"快餐厅","address":"杨浦区黄兴路1618号大润发超市内(近国权路)"},{"poiid":"B2094654D56FA6F4499B","title":"双花公寓","lon":"121.52742","lat":"31.288017","category":"47","category_name":"住宅区","address":"双阳路666弄"},{"poiid":"B2094757D06FA4F54293","title":"凤城四村","lon":"121.528","lat":"31.2891","category":"252","category_name":"楼宇机构","address":"上海黄兴路抚顺路"},{"poiid":"B2094757D06BA6FE439B","title":"控江二村小学(本部)","lon":"121.52853","lat":"31.2874","category":"56","category_name":"小学","address":"杨浦区双阳路650号(双阳路松花江路)"},{"poiid":"B2094757D06BA4FA4498","title":"味之都 黄兴店","lon":"121.522009054","lat":"31.288231793","category":"68","category_name":"快餐厅","address":"杨浦区黄兴路1618号大润发超市内1楼(近国权路)"},{"poiid":"B2094654DB6BA2F8489D","title":"公园3000·黄兴花园","lon":"121.524105","lat":"31.2917125","category":"47","category_name":"住宅区","address":"双阳北路288弄"},{"poiid":"B2094654DB6BA2F84899","title":"苏宁电器(黄兴路店)","lon":"121.52175","lat":"31.28775","category":"138","category_name":"家电电子卖场","address":"上海杨浦区黄兴路1616号(近国权路)"},{"poiid":"B2094757D06FABF8409E","title":"85度C(黄兴店)","lon":"121.521587","lat":"31.289531","category":"112","category_name":"糕饼店","address":"杨浦区黄兴路1618号大润发1楼(近国权路)"},{"poiid":"B2094654D56FA6F54792","title":"公园3000·黄兴花园(国顺东路)","lon":"121.52431","lat":"31.29144","category":"47","category_name":"住宅区","address":"国顺东路889"},{"poiid":"B2094654D56FA6F5499B","title":"浪情咖啡","lon":"121.52563","lat":"31.29036","category":"65","category_name":"咖啡厅","address":"国权东路85"},{"poiid":"B2094757D06BA5FB499B","title":"福瑞私房菜","lon":"121.524067","lat":"31.293404","category":"247","category_name":"餐饮美食","address":"国顺东路800号西楼1-3楼近黄兴路"},{"poiid":"B2094655D264A2FA4892","title":"秀域健康美容机构","lon":"121.52669","lat":"31.29062","category":"148","category_name":"美容美发店","address":"国权东路25"},{"poiid":"B2094757DB6CABF9479B","title":"松江大学城","lon":"121.526643","lat":"31.289737","category":"500","category_name":"未知分类","address":"文汇路"},{"poiid":"B2094757D16AABFF409F","title":"岳阳阁湘菜馆","lon":"121.5265011","lat":"31.292032874","category":"77","category_name":"湖南菜","address":"杨浦区国顺东路800号艺术园区东楼1116号商铺(近双阳路)"},{"poiid":"B2094757D064A3F44493","title":"中和堂茶馆","lon":"121.525752","lat":"31.294305","category":"247","category_name":"餐饮美食","address":"上海国顺东路800号"},{"poiid":"B2094654DB6BA2F8479C","title":"双阳小区(西门)","lon":"121.52805","lat":"31.28854","category":"47","category_name":"住宅区","address":"双阳路665号"},{"poiid":"B2094655D265AAFE4198","title":"千味拉面杨浦店","lon":"121.52406","lat":"31.28997","category":"95","category_name":"日本料理","address":"国权东路119-1识别"},{"poiid":"B2094654DB6BA2F84793","title":"松花小区(南门)","lon":"121.5268","lat":"31.28743","category":"47","category_name":"住宅区","address":"松花江路930"},{"poiid":"B2094654D56FA6F5499D","title":"快客(国权东路)","lon":"121.52469","lat":"31.29013","category":"117","category_name":"便民商店/便利店","address":"国权东路105"},{"poiid":"B2094654DB6BA2F8479D","title":"双花公寓(东门)","lon":"121.52776","lat":"31.28814","category":"47","category_name":"住宅区","address":"双阳路666弄"},{"poiid":"B2094757D069A0FB4699","title":"松苑小区","lon":"121.52485","lat":"31.287096","category":"47","category_name":"住宅区","address":"上海松花江路1160弄"},{"poiid":"B2094655D26EA7FF409E","title":"全家便利店(国权店)","lon":"121.52456","lat":"31.29027","category":"117","category_name":"便民商店/便利店","address":"宝山区国权东路95号1层"},{"poiid":"B2094654D56FA5FD4398","title":"好德No.3077","lon":"121.52835","lat":"31.28782","category":"117","category_name":"便民商店/便利店","address":""},{"poiid":"B2094654D56FA5FC409F","title":"春草堂足道(国权东路)","lon":"121.52387","lat":"31.28991","category":"149","category_name":"洗浴推拿场所","address":"国权东路121-2"},{"poiid":"B209475DD16BA2FE419A","title":"小南国花园酒店","lon":"121.528518","lat":"31.288389","category":"500","category_name":"未知分类","address":"上海市 黄兴路"},{"poiid":"B2094655D26FA0FC499C","title":"双阳小区","lon":"121.5283","lat":"31.288605","category":"47","category_name":"住宅区","address":"双阳路665号"},{"poiid":"B2094655D26FA7FE4598","title":"松苑小区(南门)","lon":"121.52481","lat":"31.28673","category":"47","category_name":"住宅区","address":"松花江路1160弄"},{"poiid":"B2094654DB65A4F4449F","title":"大润发杨浦店","lon":"121.52198","lat":"31.28889","category":"118","category_name":"超级市场","address":"杨浦区黄兴路1618号(近国权路)"},{"poiid":"B2094757D068A3FC4992","title":"五角场800号","lon":"121.52526855","lat":"31.294179916","category":"47","category_name":"住宅区","address":"南开滨海高新技术产业开发区华苑产业区兰苑路2号西侧(海泰大厦对面)"},{"poiid":"B2094757D06FA4F44399","title":"必胜客(黄兴大润发店)","lon":"121.521587","lat":"31.289531","category":"68","category_name":"快餐厅","address":"杨浦区黄兴路1618号大润发附近(近国顺东路)"},{"poiid":"B2094654DB6BA2F8499A","title":"文化佳园","lon":"121.52584","lat":"31.289118","category":"47","category_name":"住宅区","address":"上海市杨浦区黄兴路1618号"},{"poiid":"B2094757D06FAAF9449A","title":"现场酒吧","lon":"121.524631","lat":"31.293843","category":"172","category_name":"酒吧","address":"杨浦区国顺东路800号黄兴公园内(近双阳北路)"},{"poiid":"B2094757D06FA1FE449E","title":"肯德基 KFC (大润发店)","lon":"121.521554","lat":"31.288011","category":"68","category_name":"快餐厅","address":"杨浦区黄兴路1616号大润发1楼(近国权路)"},{"poiid":"B2094654D56EA4FA469F","title":"财富国际广场","lon":"121.52492531799","lat":"31.294047836057","category":"46","category_name":"楼宇","address":"上海市奉贤区南奉公路8515,8519号"},{"poiid":"B2094757D068A7F8429F","title":"天空音乐城","lon":"121.529710745","lat":"31.2878488008","category":"170","category_name":"KTV","address":"杨浦区永吉路9号翰昌天地4楼(近松花江路)"},{"poiid":"B2094757D06FA5FA439D","title":"DQ冰雪皇后(黄兴店)","lon":"121.52171","lat":"31.28903","category":"113","category_name":"冷饮店","address":"普陀区金沙江路1685号农工商118店1楼(近真北路)"},{"poiid":"B2094757D065A6F44598","title":"大润发","lon":"121.52683823","lat":"31.287860914","category":"500","category_name":"未知分类","address":"上海黄兴路"},{"poiid":"B2094655D26BA3F8409F","title":"康师傅私房牛肉面 黄兴店","lon":"121.522009054","lat":"31.288231793","category":"68","category_name":"快餐厅","address":"杨浦区黄兴路1618号大润发1楼(近国权路)"},{"poiid":"B2094757D465ABF4419B","title":"争鲜回转寿司 黄兴路店","lon":"121.522009054","lat":"31.288231793","category":"95","category_name":"日本料理","address":"杨浦区黄兴路1618号大润发超市1楼(近国权路)"},{"poiid":"B2094757D068A6F9459F","title":"繁江酒楼(靖宇中路店)","lon":"121.52969","lat":"31.28539","category":"76","category_name":"上海菜","address":"杨浦区靖宇中路60号(近双阳路口)"},{"poiid":"B2094757D064A6FE4798","title":"万里山川","lon":"121.52288001","lat":"31.292956187","category":"95","category_name":"日本料理","address":"杨浦区国定东路41号(近翔殷路)"},{"poiid":"B2094757D569A1FB4993","title":"味千拉面(黄兴路店)","lon":"121.521586999998","lat":"31.2895309999998","category":"95","category_name":"日本料理","address":"杨浦区黄兴路1618号大润发1楼商店街67号(近国权路)"},{"poiid":"B2094654D56FA6F54699","title":"顺角轩酒店","lon":"121.52155","lat":"31.28801","category":"82","category_name":"东北菜","address":"杨浦区黄兴路1616号百安居内(近国权路)"},{"poiid":"B2094655D26DA5FE4492","title":"新纪元国际广场","lon":"121.527","lat":"31.2925","category":"46","category_name":"楼宇","address":"上海市杨浦区黄兴路1599号"},{"poiid":"B2094757D068AAF54799","title":"新招鲜本地鸡窝(靖宇中路店)","lon":"121.52742","lat":"31.284466","category":"86","category_name":"火锅店","address":"杨浦区靖宇中路120号(近沧州路)"},{"poiid":"B2094757D06FA6FC4292","title":"百安居(杨浦店)","lon":"121.52203","lat":"31.2869","category":"123","category_name":"家具建材市场","address":"杨浦区黄兴路1616号(近国权路)"},{"poiid":"B2094654D56FA6F54892","title":"黄兴公园(西门)","lon":"121.52723","lat":"31.29103","category":"656","category_name":"大门","address":"双阳北路59"},{"poiid":"B2094655D26AA6F8489F","title":"800艺术区","lon":"121.52526","lat":"31.29418","category":"247","category_name":"餐饮美食","address":"杨浦区国顺东路800号黄兴公园东楼(近双阳北路)"},{"poiid":"B2094751D56BA4FE4399","title":"江南公社","lon":"121.530746","lat":"31.291198","category":"247","category_name":"餐饮美食","address":"杨浦区靖宇中路280号"},{"poiid":"B2094655D26AA6FE469B","title":"上岛咖啡 黄兴路店 UBC Coffee","lon":"121.522009054","lat":"31.288231793","category":"247","category_name":"餐饮美食","address":"杨浦区黄兴路1618号大润发超市1楼(近国权路)"},{"poiid":"B2094757D068ABF9439F","title":"大娘水饺(杨浦店)","lon":"121.521969215","lat":"31.2889596944","category":"68","category_name":"快餐厅","address":"杨浦区黄兴路1618号大润发超市内(近国权路)"},{"poiid":"B2094654D56FA6F4499B","title":"双花公寓","lon":"121.52742","lat":"31.288017","category":"47","category_name":"住宅区","address":"双阳路666弄"},{"poiid":"B2094757D06FA4F54293","title":"凤城四村","lon":"121.528","lat":"31.2891","category":"252","category_name":"楼宇机构","address":"上海黄兴路抚顺路"},{"poiid":"B2094757D06BA6FE439B","title":"控江二村小学(本部)","lon":"121.52853","lat":"31.2874","category":"56","category_name":"小学","address":"杨浦区双阳路650号(双阳路松花江路)"},{"poiid":"B2094757D06BA4FA4498","title":"味之都 黄兴店","lon":"121.522009054","lat":"31.288231793","category":"68","category_name":"快餐厅","address":"杨浦区黄兴路1618号大润发超市内1楼(近国权路)"},{"poiid":"B2094654DB6BA2F8489D","title":"公园3000·黄兴花园","lon":"121.524105","lat":"31.2917125","category":"47","category_name":"住宅区","address":"双阳北路288弄"},{"poiid":"B2094654DB6BA2F84899","title":"苏宁电器(黄兴路店)","lon":"121.52175","lat":"31.28775","category":"138","category_name":"家电电子卖场","address":"上海杨浦区黄兴路1616号(近国权路)"},{"poiid":"B2094757D06FABF8409E","title":"85度C(黄兴店)","lon":"121.521587","lat":"31.289531","category":"112","category_name":"糕饼店","address":"杨浦区黄兴路1618号大润发1楼(近国权路)"},{"poiid":"B2094654D56FA6F54792","title":"公园3000·黄兴花园(国顺东路)","lon":"121.52431","lat":"31.29144","category":"47","category_name":"住宅区","address":"国顺东路889"},{"poiid":"B2094654D56FA6F5499B","title":"浪情咖啡","lon":"121.52563","lat":"31.29036","category":"65","category_name":"咖啡厅","address":"国权东路85"},{"poiid":"B2094757D06BA5FB499B","title":"福瑞私房菜","lon":"121.524067","lat":"31.293404","category":"247","category_name":"餐饮美食","address":"国顺东路800号西楼1-3楼近黄兴路"},{"poiid":"B2094655D264A2FA4892","title":"秀域健康美容机构","lon":"121.52669","lat":"31.29062","category":"148","category_name":"美容美发店","address":"国权东路25"},{"poiid":"B2094757DB6CABF9479B","title":"松江大学城","lon":"121.526643","lat":"31.289737","category":"500","category_name":"未知分类","address":"文汇路"},{"poiid":"B2094757D16AABFF409F","title":"岳阳阁湘菜馆","lon":"121.5265011","lat":"31.292032874","category":"77","category_name":"湖南菜","address":"杨浦区国顺东路800号艺术园区东楼1116号商铺(近双阳路)"},{"poiid":"B2094757D064A3F44493","title":"中和堂茶馆","lon":"121.525752","lat":"31.294305","category":"247","category_name":"餐饮美食","address":"上海国顺东路800号"},{"poiid":"B2094654DB6BA2F8479C","title":"双阳小区(西门)","lon":"121.52805","lat":"31.28854","category":"47","category_name":"住宅区","address":"双阳路665号"},{"poiid":"B2094655D265AAFE4198","title":"千味拉面杨浦店","lon":"121.52406","lat":"31.28997","category":"95","category_name":"日本料理","address":"国权东路119-1识别"},{"poiid":"B2094654DB6BA2F84793","title":"松花小区(南门)","lon":"121.5268","lat":"31.28743","category":"47","category_name":"住宅区","address":"松花江路930"},{"poiid":"B2094654D56FA6F5499D","title":"快客(国权东路)","lon":"121.52469","lat":"31.29013","category":"117","category_name":"便民商店/便利店","address":"国权东路105"},{"poiid":"B2094654DB6BA2F8479D","title":"双花公寓(东门)","lon":"121.52776","lat":"31.28814","category":"47","category_name":"住宅区","address":"双阳路666弄"},{"poiid":"B2094757D069A0FB4699","title":"松苑小区","lon":"121.52485","lat":"31.287096","category":"47","category_name":"住宅区","address":"上海松花江路1160弄"},{"poiid":"B2094655D26EA7FF409E","title":"全家便利店(国权店)","lon":"121.52456","lat":"31.29027","category":"117","category_name":"便民商店/便利店","address":"宝山区国权东路95号1层"},{"poiid":"B2094654D56FA5FD4398","title":"好德No.3077","lon":"121.52835","lat":"31.28782","category":"117","category_name":"便民商店/便利店","address":""},{"poiid":"B2094654D56FA5FC409F","title":"春草堂足道(国权东路)","lon":"121.52387","lat":"31.28991","category":"149","category_name":"洗浴推拿场所","address":"国权东路121-2"},{"poiid":"B209475DD16BA2FE419A","title":"小南国花园酒店","lon":"121.528518","lat":"31.288389","category":"500","category_name":"未知分类","address":"上海市 黄兴路"},{"poiid":"B2094655D26FA0FC499C","title":"双阳小区","lon":"121.5283","lat":"31.288605","category":"47","category_name":"住宅区","address":"双阳路665号"},{"poiid":"B2094655D26FA7FE4598","title":"松苑小区(南门)","lon":"121.52481","lat":"31.28673","category":"47","category_name":"住宅区","address":"松花江路1160弄"},{"poiid":"B2094654DB65A4F4449F","title":"大润发杨浦店","lon":"121.52198","lat":"31.28889","category":"118","category_name":"超级市场","address":"杨浦区黄兴路1618号(近国权路)"},{"poiid":"B2094757D068A3FC4992","title":"五角场800号","lon":"121.52526855","lat":"31.294179916","category":"47","category_name":"住宅区","address":"南开滨海高新技术产业开发区华苑产业区兰苑路2号西侧(海泰大厦对面)"},{"poiid":"B2094757D06FA4F44399","title":"必胜客(黄兴大润发店)","lon":"121.521587","lat":"31.289531","category":"68","category_name":"快餐厅","address":"杨浦区黄兴路1618号大润发附近(近国顺东路)"},{"poiid":"B2094654DB6BA2F8499A","title":"文化佳园","lon":"121.52584","lat":"31.289118","category":"47","category_name":"住宅区","address":"上海市杨浦区黄兴路1618号"},{"poiid":"B2094757D06FAAF9449A","title":"现场酒吧","lon":"121.524631","lat":"31.293843","category":"172","category_name":"酒吧","address":"杨浦区国顺东路800号黄兴公园内(近双阳北路)"},{"poiid":"B2094757D06FA1FE449E","title":"肯德基 KFC (大润发店)","lon":"121.521554","lat":"31.288011","category":"68","category_name":"快餐厅","address":"杨浦区黄兴路1616号大润发1楼(近国权路)"},{"poiid":"B2094654D56EA4FA469F","title":"财富国际广场","lon":"121.52492531799","lat":"31.294047836057","category":"46","category_name":"楼宇","address":"上海市奉贤区南奉公路8515,8519号"},{"poiid":"B2094757D068A7F8429F","title":"天空音乐城","lon":"121.529710745","lat":"31.2878488008","category":"170","category_name":"KTV","address":"杨浦区永吉路9号翰昌天地4楼(近松花江路)"},{"poiid":"B2094757D06FA5FA439D","title":"DQ冰雪皇后(黄兴店)","lon":"121.52171","lat":"31.28903","category":"113","category_name":"冷饮店","address":"普陀区金沙江路1685号农工商118店1楼(近真北路)"},{"poiid":"B2094757D065A6F44598","title":"大润发","lon":"121.52683823","lat":"31.287860914","category":"500","category_name":"未知分类","address":"上海黄兴路"},{"poiid":"B2094655D26BA3F8409F","title":"康师傅私房牛肉面 黄兴店","lon":"121.522009054","lat":"31.288231793","category":"68","category_name":"快餐厅","address":"杨浦区黄兴路1618号大润发1楼(近国权路)"},{"poiid":"B2094757D465ABF4419B","title":"争鲜回转寿司 黄兴路店","lon":"121.522009054","lat":"31.288231793","category":"95","category_name":"日本料理","address":"杨浦区黄兴路1618号大润发超市1楼(近国权路)"},{"poiid":"B2094757D068A6F9459F","title":"繁江酒楼(靖宇中路店)","lon":"121.52969","lat":"31.28539","category":"76","category_name":"上海菜","address":"杨浦区靖宇中路60号(近双阳路口)"},{"poiid":"B2094757D064A6FE4798","title":"万里山川","lon":"121.52288001","lat":"31.292956187","category":"95","category_name":"日本料理","address":"杨浦区国定东路41号(近翔殷路)"},{"poiid":"B2094757D569A1FB4993","title":"味千拉面(黄兴路店)","lon":"121.521586999998","lat":"31.2895309999998","category":"95","category_name":"日本料理","address":"杨浦区黄兴路1618号大润发1楼商店街67号(近国权路)"},{"poiid":"B2094654D56FA6F54699","title":"顺角轩酒店","lon":"121.52155","lat":"31.28801","category":"82","category_name":"东北菜","address":"杨浦区黄兴路1616号百安居内(近国权路)"},{"poiid":"B2094655D26DA5FE4492","title":"新纪元国际广场","lon":"121.527","lat":"31.2925","category":"46","category_name":"楼宇","address":"上海市杨浦区黄兴路1599号"},{"poiid":"B2094757D068AAF54799","title":"新招鲜本地鸡窝(靖宇中路店)","lon":"121.52742","lat":"31.284466","category":"86","category_name":"火锅店","address":"杨浦区靖宇中路120号(近沧州路)"},{"poiid":"B2094757D06FA6FC4292","title":"百安居(杨浦店)","lon":"121.52203","lat":"31.2869","category":"123","category_name":"家具建材市场","address":"杨浦区黄兴路1616号(近国权路)"},{"poiid":"B2094654D56FA6F54892","title":"黄兴公园(西门)","lon":"121.52723","lat":"31.29103","category":"656","category_name":"大门","address":"双阳北路59"},{"poiid":"B2094655D26AA6F8489F","title":"800艺术区","lon":"121.52526","lat":"31.29418","category":"247","category_name":"餐饮美食","address":"杨浦区国顺东路800号黄兴公园东楼(近双阳北路)"},{"poiid":"B2094751D56BA4FE4399","title":"江南公社","lon":"121.530746","lat":"31.291198","category":"247","category_name":"餐饮美食","address":"杨浦区靖宇中路280号"},{"poiid":"B2094655D26AA6FE469B","title":"上岛咖啡 黄兴路店 UBC Coffee","lon":"121.522009054","lat":"31.288231793","category":"247","category_name":"餐饮美食","address":"杨浦区黄兴路1618号大润发超市1楼(近国权路)"},{"poiid":"B2094757D068ABF9439F","title":"大娘水饺(杨浦店)","lon":"121.521969215","lat":"31.2889596944","category":"68","category_name":"快餐厅","address":"杨浦区黄兴路1618号大润发超市内(近国权路)"},{"poiid":"B2094654D56FA6F4499B","title":"双花公寓","lon":"121.52742","lat":"31.288017","category":"47","category_name":"住宅区","address":"双阳路666弄"},{"poiid":"B2094757D06FA4F54293","title":"凤城四村","lon":"121.528","lat":"31.2891","category":"252","category_name":"楼宇机构","address":"上海黄兴路抚顺路"},{"poiid":"B2094757D06BA6FE439B","title":"控江二村小学(本部)","lon":"121.52853","lat":"31.2874","category":"56","category_name":"小学","address":"杨浦区双阳路650号(双阳路松花江路)"},{"poiid":"B2094757D06BA4FA4498","title":"味之都 黄兴店","lon":"121.522009054","lat":"31.288231793","category":"68","category_name":"快餐厅","address":"杨浦区黄兴路1618号大润发超市内1楼(近国权路)"},{"poiid":"B2094654DB6BA2F8489D","title":"公园3000·黄兴花园","lon":"121.524105","lat":"31.2917125","category":"47","category_name":"住宅区","address":"双阳北路288弄"},{"poiid":"B2094654DB6BA2F84899","title":"苏宁电器(黄兴路店)","lon":"121.52175","lat":"31.28775","category":"138","category_name":"家电电子卖场","address":"上海杨浦区黄兴路1616号(近国权路)"},{"poiid":"B2094757D06FABF8409E","title":"85度C(黄兴店)","lon":"121.521587","lat":"31.289531","category":"112","category_name":"糕饼店","address":"杨浦区黄兴路1618号大润发1楼(近国权路)"},{"poiid":"B2094654D56FA6F54792","title":"公园3000·黄兴花园(国顺东路)","lon":"121.52431","lat":"31.29144","category":"47","category_name":"住宅区","address":"国顺东路889"},{"poiid":"B2094654D56FA6F5499B","title":"浪情咖啡","lon":"121.52563","lat":"31.29036","category":"65","category_name":"咖啡厅","address":"国权东路85"},{"poiid":"B2094757D06BA5FB499B","title":"福瑞私房菜","lon":"121.524067","lat":"31.293404","category":"247","category_name":"餐饮美食","address":"国顺东路800号西楼1-3楼近黄兴路"},{"poiid":"B2094655D264A2FA4892","title":"秀域健康美容机构","lon":"121.52669","lat":"31.29062","category":"148","category_name":"美容美发店","address":"国权东路25"},{"poiid":"B2094757DB6CABF9479B","title":"松江大学城","lon":"121.526643","lat":"31.289737","category":"500","category_name":"未知分类","address":"文汇路"},{"poiid":"B2094757D16AABFF409F","title":"岳阳阁湘菜馆","lon":"121.5265011","lat":"31.292032874","category":"77","category_name":"湖南菜","address":"杨浦区国顺东路800号艺术园区东楼1116号商铺(近双阳路)"},{"poiid":"B2094757D064A3F44493","title":"中和堂茶馆","lon":"121.525752","lat":"31.294305","category":"247","category_name":"餐饮美食","address":"上海国顺东路800号"},{"poiid":"B2094654DB6BA2F8479C","title":"双阳小区(西门)","lon":"121.52805","lat":"31.28854","category":"47","category_name":"住宅区","address":"双阳路665号"},{"poiid":"B2094655D265AAFE4198","title":"千味拉面杨浦店","lon":"121.52406","lat":"31.28997","category":"95","category_name":"日本料理","address":"国权东路119-1识别"},{"poiid":"B2094654DB6BA2F84793","title":"松花小区(南门)","lon":"121.5268","lat":"31.28743","category":"47","category_name":"住宅区","address":"松花江路930"},{"poiid":"B2094654D56FA6F5499D","title":"快客(国权东路)","lon":"121.52469","lat":"31.29013","category":"117","category_name":"便民商店/便利店","address":"国权东路105"},{"poiid":"B2094654DB6BA2F8479D","title":"双花公寓(东门)","lon":"121.52776","lat":"31.28814","category":"47","category_name":"住宅区","address":"双阳路666弄"},{"poiid":"B2094757D069A0FB4699","title":"松苑小区","lon":"121.52485","lat":"31.287096","category":"47","category_name":"住宅区","address":"上海松花江路1160弄"},{"poiid":"B2094655D26EA7FF409E","title":"全家便利店(国权店)","lon":"121.52456","lat":"31.29027","category":"117","category_name":"便民商店/便利店","address":"宝山区国权东路95号1层"},{"poiid":"B2094654D56FA5FD4398","title":"好德No.3077","lon":"121.52835","lat":"31.28782","category":"117","category_name":"便民商店/便利店","address":""},{"poiid":"B2094654D56FA5FC409F","title":"春草堂足道(国权东路)","lon":"121.52387","lat":"31.28991","category":"149","category_name":"洗浴推拿场所","address":"国权东路121-2"},{"poiid":"B209475DD16BA2FE419A","title":"小南国花园酒店","lon":"121.528518","lat":"31.288389","category":"500","category_name":"未知分类","address":"上海市 黄兴路"},{"poiid":"B2094655D26FA0FC499C","title":"双阳小区","lon":"121.5283","lat":"31.288605","category":"47","category_name":"住宅区","address":"双阳路665号"},{"poiid":"B2094655D26FA7FE4598","title":"松苑小区(南门)","lon":"121.52481","lat":"31.28673","category":"47","category_name":"住宅区","address":"松花江路1160弄"},{"poiid":"B2094654DB65A4F4449F","title":"大润发杨浦店","lon":"121.52198","lat":"31.28889","category":"118","category_name":"超级市场","address":"杨浦区黄兴路1618号(近国权路)"},{"poiid":"B2094757D068A3FC4992","title":"五角场800号","lon":"121.52526855","lat":"31.294179916","category":"47","category_name":"住宅区","address":"南开滨海高新技术产业开发区华苑产业区兰苑路2号西侧(海泰大厦对面)"},{"poiid":"B2094757D06FA4F44399","title":"必胜客(黄兴大润发店)","lon":"121.521587","lat":"31.289531","category":"68","category_name":"快餐厅","address":"杨浦区黄兴路1618号大润发附近(近国顺东路)"},{"poiid":"B2094654DB6BA2F8499A","title":"文化佳园","lon":"121.52584","lat":"31.289118","category":"47","category_name":"住宅区","address":"上海市杨浦区黄兴路1618号"},{"poiid":"B2094757D06FAAF9449A","title":"现场酒吧","lon":"121.524631","lat":"31.293843","category":"172","category_name":"酒吧","address":"杨浦区国顺东路800号黄兴公园内(近双阳北路)"},{"poiid":"B2094757D06FA1FE449E","title":"肯德基 KFC (大润发店)","lon":"121.521554","lat":"31.288011","category":"68","category_name":"快餐厅","address":"杨浦区黄兴路1616号大润发1楼(近国权路)"},{"poiid":"B2094654D56EA4FA469F","title":"财富国际广场","lon":"121.52492531799","lat":"31.294047836057","category":"46","category_name":"楼宇","address":"上海市奉贤区南奉公路8515,8519号"},{"poiid":"B2094757D068A7F8429F","title":"天空音乐城","lon":"121.529710745","lat":"31.2878488008","category":"170","category_name":"KTV","address":"杨浦区永吉路9号翰昌天地4楼(近松花江路)"},{"poiid":"B2094757D06FA5FA439D","title":"DQ冰雪皇后(黄兴店)","lon":"121.52171","lat":"31.28903","category":"113","category_name":"冷饮店","address":"普陀区金沙江路1685号农工商118店1楼(近真北路)"},{"poiid":"B2094757D065A6F44598","title":"大润发","lon":"121.52683823","lat":"31.287860914","category":"500","category_name":"未知分类","address":"上海黄兴路"},{"poiid":"B2094655D26BA3F8409F","title":"康师傅私房牛肉面 黄兴店","lon":"121.522009054","lat":"31.288231793","category":"68","category_name":"快餐厅","address":"杨浦区黄兴路1618号大润发1楼(近国权路)"},{"poiid":"B2094757D465ABF4419B","title":"争鲜回转寿司 黄兴路店","lon":"121.522009054","lat":"31.288231793","category":"95","category_name":"日本料理","address":"杨浦区黄兴路1618号大润发超市1楼(近国权路)"},{"poiid":"B2094757D068A6F9459F","title":"繁江酒楼(靖宇中路店)","lon":"121.52969","lat":"31.28539","category":"76","category_name":"上海菜","address":"杨浦区靖宇中路60号(近双阳路口)"},{"poiid":"B2094757D064A6FE4798","title":"万里山川","lon":"121.52288001","lat":"31.292956187","category":"95","category_name":"日本料理","address":"杨浦区国定东路41号(近翔殷路)"},{"poiid":"B2094757D569A1FB4993","title":"味千拉面(黄兴路店)","lon":"121.521586999998","lat":"31.2895309999998","category":"95","category_name":"日本料理","address":"杨浦区黄兴路1618号大润发1楼商店街67号(近国权路)"},{"poiid":"B2094654D56FA6F54699","title":"顺角轩酒店","lon":"121.52155","lat":"31.28801","category":"82","category_name":"东北菜","address":"杨浦区黄兴路1616号百安居内(近国权路)"},{"poiid":"B2094655D26DA5FE4492","title":"新纪元国际广场","lon":"121.527","lat":"31.2925","category":"46","category_name":"楼宇","address":"上海市杨浦区黄兴路1599号"},{"poiid":"B2094757D068AAF54799","title":"新招鲜本地鸡窝(靖宇中路店)","lon":"121.52742","lat":"31.284466","category":"86","category_name":"火锅店","address":"杨浦区靖宇中路120号(近沧州路)"},{"poiid":"B2094757D06FA6FC4292","title":"百安居(杨浦店)","lon":"121.52203","lat":"31.2869","category":"123","category_name":"家具建材市场","address":"杨浦区黄兴路1616号(近国权路)"},{"poiid":"B2094654D56FA6F54892","title":"黄兴公园(西门)","lon":"121.52723","lat":"31.29103","category":"656","category_name":"大门","address":"双阳北路59"},{"poiid":"B2094655D26AA6F8489F","title":"800艺术区","lon":"121.52526","lat":"31.29418","category":"247","category_name":"餐饮美食","address":"杨浦区国顺东路800号黄兴公园东楼(近双阳北路)"},{"poiid":"B2094751D56BA4FE4399","title":"江南公社","lon":"121.530746","lat":"31.291198","category":"247","category_name":"餐饮美食","address":"杨浦区靖宇中路280号"},{"poiid":"B2094655D26AA6FE469B","title":"上岛咖啡 黄兴路店 UBC Coffee","lon":"121.522009054","lat":"31.288231793","category":"247","category_name":"餐饮美食","address":"杨浦区黄兴路1618号大润发超市1楼(近国权路)"},{"poiid":"B2094757D068ABF9439F","title":"大娘水饺(杨浦店)","lon":"121.521969215","lat":"31.2889596944","category":"68","category_name":"快餐厅","address":"杨浦区黄兴路1618号大润发超市内(近国权路)"},{"poiid":"B2094654D56FA6F4499B","title":"双花公寓","lon":"121.52742","lat":"31.288017","category":"47","category_name":"住宅区","address":"双阳路666弄"},{"poiid":"B2094757D06FA4F54293","title":"凤城四村","lon":"121.528","lat":"31.2891","category":"252","category_name":"楼宇机构","address":"上海黄兴路抚顺路"},{"poiid":"B2094757D06BA6FE439B","title":"控江二村小学(本部)","lon":"121.52853","lat":"31.2874","category":"56","category_name":"小学","address":"杨浦区双阳路650号(双阳路松花江路)"},{"poiid":"B2094757D06BA4FA4498","title":"味之都 黄兴店","lon":"121.522009054","lat":"31.288231793","category":"68","category_name":"快餐厅","address":"杨浦区黄兴路1618号大润发超市内1楼(近国权路)"},{"poiid":"B2094654DB6BA2F8489D","title":"公园3000·黄兴花园","lon":"121.524105","lat":"31.2917125","category":"47","category_name":"住宅区","address":"双阳北路288弄"},{"poiid":"B2094654DB6BA2F84899","title":"苏宁电器(黄兴路店)","lon":"121.52175","lat":"31.28775","category":"138","category_name":"家电电子卖场","address":"上海杨浦区黄兴路1616号(近国权路)"},{"poiid":"B2094757D06FABF8409E","title":"85度C(黄兴店)","lon":"121.521587","lat":"31.289531","category":"112","category_name":"糕饼店","address":"杨浦区黄兴路1618号大润发1楼(近国权路)"},{"poiid":"B2094654D56FA6F54792","title":"公园3000·黄兴花园(国顺东路)","lon":"121.52431","lat":"31.29144","category":"47","category_name":"住宅区","address":"国顺东路889"},{"poiid":"B2094654D56FA6F5499B","title":"浪情咖啡","lon":"121.52563","lat":"31.29036","category":"65","category_name":"咖啡厅","address":"国权东路85"},{"poiid":"B2094757D06BA5FB499B","title":"福瑞私房菜","lon":"121.524067","lat":"31.293404","category":"247","category_name":"餐饮美食","address":"国顺东路800号西楼1-3楼近黄兴路"},{"poiid":"B2094655D264A2FA4892","title":"秀域健康美容机构","lon":"121.52669","lat":"31.29062","category":"148","category_name":"美容美发店","address":"国权东路25"},{"poiid":"B2094757DB6CABF9479B","title":"松江大学城","lon":"121.526643","lat":"31.289737","category":"500","category_name":"未知分类","address":"文汇路"},{"poiid":"B2094757D16AABFF409F","title":"岳阳阁湘菜馆","lon":"121.5265011","lat":"31.292032874","category":"77","category_name":"湖南菜","address":"杨浦区国顺东路800号艺术园区东楼1116号商铺(近双阳路)"},{"poiid":"B2094757D064A3F44493","title":"中和堂茶馆","lon":"121.525752","lat":"31.294305","category":"247","category_name":"餐饮美食","address":"上海国顺东路800号"},{"poiid":"B2094654DB6BA2F8479C","title":"双阳小区(西门)","lon":"121.52805","lat":"31.28854","category":"47","category_name":"住宅区","address":"双阳路665号"},{"poiid":"B2094655D265AAFE4198","title":"千味拉面杨浦店","lon":"121.52406","lat":"31.28997","category":"95","category_name":"日本料理","address":"国权东路119-1识别"},{"poiid":"B2094654DB6BA2F84793","title":"松花小区(南门)","lon":"121.5268","lat":"31.28743","category":"47","category_name":"住宅区","address":"松花江路930"},{"poiid":"B2094654D56FA6F5499D","title":"快客(国权东路)","lon":"121.52469","lat":"31.29013","category":"117","category_name":"便民商店/便利店","address":"国权东路105"},{"poiid":"B2094654DB6BA2F8479D","title":"双花公寓(东门)","lon":"121.52776","lat":"31.28814","category":"47","category_name":"住宅区","address":"双阳路666弄"},{"poiid":"B2094757D069A0FB4699","title":"松苑小区","lon":"121.52485","lat":"31.287096","category":"47","category_name":"住宅区","address":"上海松花江路1160弄"},{"poiid":"B2094655D26EA7FF409E","title":"全家便利店(国权店)","lon":"121.52456","lat":"31.29027","category":"117","category_name":"便民商店/便利店","address":"宝山区国权东路95号1层"},{"poiid":"B2094654D56FA5FD4398","title":"好德No.3077","lon":"121.52835","lat":"31.28782","category":"117","category_name":"便民商店/便利店","address":""},{"poiid":"B2094654D56FA5FC409F","title":"春草堂足道(国权东路)","lon":"121.52387","lat":"31.28991","category":"149","category_name":"洗浴推拿场所","address":"国权东路121-2"},{"poiid":"B209475DD16BA2FE419A","title":"小南国花园酒店","lon":"121.528518","lat":"31.288389","category":"500","category_name":"未知分类","address":"上海市 黄兴路"},{"poiid":"B2094655D26FA0FC499C","title":"双阳小区","lon":"121.5283","lat":"31.288605","category":"47","category_name":"住宅区","address":"双阳路665号"},{"poiid":"B2094655D26FA7FE4598","title":"松苑小区(南门)","lon":"121.52481","lat":"31.28673","category":"47","category_name":"住宅区","address":"松花江路1160弄"}]