[{"poiid":"B2094750D26EABF8459A","title":"上海虹桥机场","lon":"121.48","lat":"31.22","category":"21","category_name":"飞机场","address":"上海长宁区虹桥路2550号"},{"poiid":"B2094654DA6EA7FF409A","title":"大肠面","lon":"121.48144","lat":"31.21834","category":"68","category_name":"快餐厅","address":"卢湾区复兴中路59号(吉安路东台路间)"},{"poiid":"B2094757D16AA5F94593","title":"好乐迪","lon":"121.47968292","lat":"31.220613479","category":"500","category_name":"未知分类","address":"上海卢湾区顺昌路2号"},{"poiid":"B2094753D76FAAFA449C","title":"上海滩国泰旗舰店","lon":"121.466011","lat":"31.216125","category":"249","category_name":"购物服务","address":"淮海中路868号"},{"poiid":"B209475CD564A7F84292","title":"上海滩新天地店","lon":"121.47463","lat":"31.22164","category":"119","category_name":"商场","address":"\"太仓路181弄新天地北里15号\r\n\""},{"poiid":"B209475CD564A7F8439E","title":"上海滩中信泰富店","lon":"121.45602","lat":"31.22851","category":"119","category_name":"商场","address":"\"南京西路1168号中信泰富广场，店铺号221.\r\n\""},{"poiid":"B209475CD564A7F84392","title":"上海滩浦东香格里拉店","lon":"121.50058","lat":"31.23634","category":"119","category_name":"商场","address":"浦东富成路33号香格里拉酒店内大堂层"},{"poiid":"B2094757D06FA5FF499D","title":"新天地太平桥人工湖","lon":"121.479294","lat":"31.222233","category":"196","category_name":"公园","address":"上海济南路"},{"poiid":"B2094757D06AA4FD419D","title":"格澜国际大酒店","lon":"121.482429538","lat":"31.2197208762","category":"76","category_name":"上海菜","address":"黄浦区西藏南路567号(近复兴中路)"},{"poiid":"B2094757D16DA1FB499B","title":"华美国际酒店","lon":"121.481757","lat":"31.22221","category":"217","category_name":"旅馆招待所","address":"黄浦区西藏南路381号(近淮海中路)"},{"poiid":"B2094757D06FA6F8429E","title":"万商花鸟市场","lon":"121.48199","lat":"31.22132","category":"249","category_name":"购物服务","address":"黄浦区西藏南路417号(近东台路)"},{"poiid":"B2094654DA6EABFB4493","title":"东台路古玩市场(自忠路)","lon":"121.48128","lat":"31.22059","category":"134","category_name":"古玩字画店","address":"自忠路28"},{"poiid":"B2094654DA6EAAFC429C","title":"曙光大厦","lon":"121.47886","lat":"31.22255","category":"46","category_name":"楼宇","address":"静安区西康路946号"},{"poiid":"B2094757D66BA3F94698","title":"伊莎贝尔 Trattoria Isabelle","lon":"121.479601054","lat":"31.221654793","category":"98","category_name":"意式菜品餐厅","address":"卢湾区吉安路11号(湖滨路崇德路间)"},{"poiid":"B2094753D46AA1FD459D","title":"环球港","lon":"121.480438","lat":"31.22241","category":"500","category_name":"未知分类","address":"上海市 中山北路"},{"poiid":"B2094751D36BA5FF469F","title":"上海南站","lon":"121.48","lat":"31.22","category":"195","category_name":"游乐场","address":"上海徐家汇"},{"poiid":"B2094654DA6EAAFC469E","title":"上海时光整形外科医院","lon":"121.47886","lat":"31.22255","category":"162","category_name":"医院","address":"卢湾区普安路189号曙光大厦2楼(近淮海公园)"},{"poiid":"B2094654DA6EABFB499B","title":"上海市比乐中学","lon":"121.47971","lat":"31.22154","category":"55","category_name":"中学","address":"卢湾区崇德路43号(近顺昌路)"},{"poiid":"B2094654DB65A5FF4393","title":"雅叙屋食府家常菜(自忠路)","lon":"121.48136","lat":"31.22041","category":"76","category_name":"上海菜","address":"卢湾区自忠路13号(近东台路)"},{"poiid":"B2094654DB6BA4FA499B","title":"好再来河南牛肉拉面","lon":"121.48007","lat":"31.22043","category":"257","category_name":"中餐厅","address":"卢湾区吉安路35号(人工湖对面)"},{"poiid":"B2094757D465A7FF499B","title":"新新美食林","lon":"121.48006393688","lat":"31.219839547289","category":"68","category_name":"快餐厅","address":"卢湾区自忠路75号(近吉安路)"},{"poiid":"B2094655D36DA7FB439E","title":"自忠路东台路","lon":"121.48058","lat":"31.22023","category":"38","category_name":"公交车站","address":""},{"poiid":"B2094757D06AA5FC4393","title":"专剪坊-光头理发店","lon":"121.48009491","lat":"31.2201137543","category":"148","category_name":"美容美发店","address":"上海嵩山路115号"},{"poiid":"B209475DD669A6F5469B","title":"赵小姐不等位","lon":"121.481353","lat":"31.220138","category":"247","category_name":"餐饮美食","address":"上海市 太仓路70号"},{"poiid":"B2094654DB6BA4FA4799","title":"福源里(自忠路)","lon":"121.48047","lat":"31.22056","category":"47","category_name":"住宅区","address":"自忠路60弄1-46号"},{"poiid":"B2094654DA6EABFB4993","title":"丁祥里","lon":"121.48024","lat":"31.22097","category":"47","category_name":"住宅区","address":"浏河口路57弄1-33号"},{"poiid":"B2094654DB6BA4FA479B","title":"裕福里(自忠路)","lon":"121.48148","lat":"31.22064","category":"47","category_name":"住宅区","address":"自忠路18弄1-26号"},{"poiid":"B2094654DA6EABF44293","title":"好德No.199","lon":"121.48021","lat":"31.22017","category":"117","category_name":"便民商店/便利店","address":"自忠路74-78"},{"poiid":"B209475DD16BA2FB4399","title":"么么mussels","lon":"121.481315","lat":"31.220224","category":"500","category_name":"未知分类","address":"上海市 太仓路70号"},{"poiid":"B2094753D76CA2F44598","title":"上海朗庭酒店","lon":"121.479156","lat":"31.22248","category":"500","category_name":"未知分类","address":"上海市 卢湾区马当路"},{"poiid":"B2094757D06BA4F84298","title":"自忠路東臺路","lon":"121.480342","lat":"31.220158","category":"500","category_name":"未知分类","address":"上海自忠路東臺路"},{"poiid":"B2094654DA6EABF44498","title":"STAR SALON zhang shi xin工作室","lon":"121.48046","lat":"31.22006","category":"148","category_name":"美容美发店","address":"自忠路61"},{"poiid":"B209475CD769ABF5489D","title":"上海环贸广场","lon":"121.481025","lat":"31.220426","category":"500","category_name":"未知分类","address":"上海市 上海环贸广场"},{"poiid":"B2094757D169A5FE4798","title":"保时捷专卖店（淮海中路店）","lon":"121.48023273","lat":"31.220034707","category":"500","category_name":"未知分类","address":"上海淮海中路177-191号"},{"poiid":"B209475DD76EA1F84799","title":"Blue Car Coffee","lon":"121.480636","lat":"31.222131","category":"247","category_name":"餐饮美食","address":"上海市 淮海中路193-8号"},{"poiid":"B2094654DB6BA4FA499A","title":"良友金伴自忠路店","lon":"121.47985","lat":"31.21979","category":"117","category_name":"便民商店/便利店","address":"自忠路87"},{"poiid":"B2094757D66DABFD429A","title":"温野菜","lon":"121.479470546","lat":"31.2204507663","category":"247","category_name":"餐饮美食","address":"上海淮海中路283号香港广场负一楼"},{"poiid":"B2094757D164A2FA479E","title":"寿宁路6号","lon":"121.48107333","lat":"31.220904101","category":"500","category_name":"未知分类","address":"上海香巴岛。。从好位子换到了坏位子。。坑爹。。。"},{"poiid":"B2094753D768A1F4419C","title":"上海外滩","lon":"121.480438","lat":"31.222406","category":"500","category_name":"未知分类","address":"上海市 外滩"},{"poiid":"B2094757D168A4F54899","title":"老宅里农家菜","lon":"121.479805","lat":"31.219811","category":"247","category_name":"餐饮美食","address":"上海西门路"},{"poiid":"B209475CD76BA6FB449A","title":"老友螺蛳粉","lon":"121.481895","lat":"31.220659","category":"247","category_name":"餐饮美食","address":"上海市 西藏南路390号"},{"poiid":"B2094757D66CA3FE4198","title":"虎跳峽(下虎跳)","lon":"121.48102943","lat":"31.222836642","category":"234","category_name":"海滨浴场","address":"迪庆州香格里拉县(近大具乡) 下虎跳峡"},{"poiid":"B2094654DA6EAAFE4192","title":"崇尚麻辣烫","lon":"121.47941","lat":"31.22203","category":"68","category_name":"快餐厅","address":"卢湾区崇德路46号(近柳林路)"},{"poiid":"B2094757D66FA2FF4199","title":"吉安路自忠路","lon":"121.47998873","lat":"31.21946207","category":"500","category_name":"未知分类","address":"上海吉安路自忠路126弄号"},{"poiid":"B2094654DA6EABFB449E","title":"好德No.220","lon":"121.48164","lat":"31.22072","category":"117","category_name":"便民商店/便利店","address":"自忠路2-4"},{"poiid":"B2094655D264A7F54392","title":"相思苑餐厅","lon":"121.480455054","lat":"31.222468793","category":"76","category_name":"上海菜","address":"卢湾区崇德路24号(近太仓路)"},{"poiid":"B2094753D568A2FB479C","title":"PwC","lon":"121.479919","lat":"31.219842","category":"500","category_name":"未知分类","address":"上海市 黄浦区新天地湖滨路202号"},{"poiid":"B2094757D16BA5FB479A","title":"peach john 蜜桃派","lon":"121.47901863","lat":"31.220890426","category":"247","category_name":"餐饮美食","address":"上海新天地"},{"poiid":"B2094757DB69A7FA4993","title":"李向阳葱油饼","lon":"121.47865","lat":"31.22204","category":"68","category_name":"快餐厅","address":"卢湾区普安路185号(近上海中医大学附属曙光医院)"},{"poiid":"B2094750D26EABF8459A","title":"上海虹桥机场","lon":"121.48","lat":"31.22","category":"21","category_name":"飞机场","address":"上海长宁区虹桥路2550号"},{"poiid":"B2094654DA6EA7FF409A","title":"大肠面","lon":"121.48144","lat":"31.21834","category":"68","category_name":"快餐厅","address":"卢湾区复兴中路59号(吉安路东台路间)"},{"poiid":"B2094757D16AA5F94593","title":"好乐迪","lon":"121.47968292","lat":"31.220613479","category":"500","category_name":"未知分类","address":"上海卢湾区顺昌路2号"},{"poiid":"B2094753D76FAAFA449C","title":"上海滩国泰旗舰店","lon":"121.466011","lat":"31.216125","category":"249","category_name":"购物服务","address":"淮海中路868号"},{"poiid":"B209475CD564A7F84292","title":"上海滩新天地店","lon":"121.47463","lat":"31.22164","category":"119","category_name":"商场","address":"\"太仓路181弄新天地北里15号\r\n\""},{"poiid":"B209475CD564A7F8439E","title":"上海滩中信泰富店","lon":"121.45602","lat":"31.22851","category":"119","category_name":"商场","address":"\"南京西路1168号中信泰富广场，店铺号221.\r\n\""},{"poiid":"B209475CD564A7F84392","title":"上海滩浦东香格里拉店","lon":"121.50058","lat":"31.23634","category":"119","category_name":"商场","address":"浦东富成路33号香格里拉酒店内大堂层"},{"poiid":"B2094757D06FA5FF499D","title":"新天地太平桥人工湖","lon":"121.479294","lat":"31.222233","category":"196","category_name":"公园","address":"上海济南路"},{"poiid":"B2094757D06AA4FD419D","title":"格澜国际大酒店","lon":"121.482429538","lat":"31.2197208762","category":"76","category_name":"上海菜","address":"黄浦区西藏南路567号(近复兴中路)"},{"poiid":"B2094757D16DA1FB499B","title":"华美国际酒店","lon":"121.481757","lat":"31.22221","category":"217","category_name":"旅馆招待所","address":"黄浦区西藏南路381号(近淮海中路)"},{"poiid":"B2094757D06FA6F8429E","title":"万商花鸟市场","lon":"121.48199","lat":"31.22132","category":"249","category_name":"购物服务","address":"黄浦区西藏南路417号(近东台路)"},{"poiid":"B2094654DA6EABFB4493","title":"东台路古玩市场(自忠路)","lon":"121.48128","lat":"31.22059","category":"134","category_name":"古玩字画店","address":"自忠路28"},{"poiid":"B2094654DA6EAAFC429C","title":"曙光大厦","lon":"121.47886","lat":"31.22255","category":"46","category_name":"楼宇","address":"静安区西康路946号"},{"poiid":"B2094757D66BA3F94698","title":"伊莎贝尔 Trattoria Isabelle","lon":"121.479601054","lat":"31.221654793","category":"98","category_name":"意式菜品餐厅","address":"卢湾区吉安路11号(湖滨路崇德路间)"},{"poiid":"B2094753D46AA1FD459D","title":"环球港","lon":"121.480438","lat":"31.22241","category":"500","category_name":"未知分类","address":"上海市 中山北路"},{"poiid":"B2094751D36BA5FF469F","title":"上海南站","lon":"121.48","lat":"31.22","category":"195","category_name":"游乐场","address":"上海徐家汇"},{"poiid":"B2094654DA6EAAFC469E","title":"上海时光整形外科医院","lon":"121.47886","lat":"31.22255","category":"162","category_name":"医院","address":"卢湾区普安路189号曙光大厦2楼(近淮海公园)"},{"poiid":"B2094654DA6EABFB499B","title":"上海市比乐中学","lon":"121.47971","lat":"31.22154","category":"55","category_name":"中学","address":"卢湾区崇德路43号(近顺昌路)"},{"poiid":"B2094654DB65A5FF4393","title":"雅叙屋食府家常菜(自忠路)","lon":"121.48136","lat":"31.22041","category":"76","category_name":"上海菜","address":"卢湾区自忠路13号(近东台路)"},{"poiid":"B2094654DB6BA4FA499B","title":"好再来河南牛肉拉面","lon":"121.48007","lat":"31.22043","category":"257","category_name":"中餐厅","address":"卢湾区吉安路35号(人工湖对面)"},{"poiid":"B2094757D465A7FF499B","title":"新新美食林","lon":"121.48006393688","lat":"31.219839547289","category":"68","category_name":"快餐厅","address":"卢湾区自忠路75号(近吉安路)"},{"poiid":"B2094655D36DA7FB439E","title":"自忠路东台路","lon":"121.48058","lat":"31.22023","category":"38","category_name":"公交车站","address":""},{"poiid":"B2094757D06AA5FC4393","title":"专剪坊-光头理发店","lon":"121.48009491","lat":"31.2201137543","category":"148","category_name":"美容美发店","address":"上海嵩山路115号"},{"poiid":"B209475DD669A6F5469B","title":"赵小姐不等位","lon":"121.481353","lat":"31.220138","category":"247","category_name":"餐饮美食","address":"上海市 太仓路70号"},{"poiid":"B2094654DB6BA4FA4799","title":"福源里(自忠路)","lon":"121.48047","lat":"31.22056","category":"47","category_name":"住宅区","address":"自忠路60弄1-46号"},{"poiid":"B2094654DA6EABFB4993","title":"丁祥里","lon":"121.48024","lat":"31.22097","category":"47","category_name":"住宅区","address":"浏河口路57弄1-33号"},{"poiid":"B2094654DB6BA4FA479B","title":"裕福里(自忠路)","lon":"121.48148","lat":"31.22064","category":"47","category_name":"住宅区","address":"自忠路18弄1-26号"},{"poiid":"B2094654DA6EABF44293","title":"好德No.199","lon":"121.48021","lat":"31.22017","category":"117","category_name":"便民商店/便利店","address":"自忠路74-78"},{"poiid":"B209475DD16BA2FB4399","title":"么么mussels","lon":"121.481315","lat":"31.220224","category":"500","category_name":"未知分类","address":"上海市 太仓路70号"},{"poiid":"B2094753D76CA2F44598","title":"上海朗庭酒店","lon":"121.479156","lat":"31.22248","category":"500","category_name":"未知分类","address":"上海市 卢湾区马当路"},{"poiid":"B2094757D06BA4F84298","title":"自忠路東臺路","lon":"121.480342","lat":"31.220158","category":"500","category_name":"未知分类","address":"上海自忠路東臺路"},{"poiid":"B2094654DA6EABF44498","title":"STAR SALON zhang shi xin工作室","lon":"121.48046","lat":"31.22006","category":"148","category_name":"美容美发店","address":"自忠路61"},{"poiid":"B209475CD769ABF5489D","title":"上海环贸广场","lon":"121.481025","lat":"31.220426","category":"500","category_name":"未知分类","address":"上海市 上海环贸广场"},{"poiid":"B2094757D169A5FE4798","title":"保时捷专卖店（淮海中路店）","lon":"121.48023273","lat":"31.220034707","category":"500","category_name":"未知分类","address":"上海淮海中路177-191号"},{"poiid":"B209475DD76EA1F84799","title":"Blue Car Coffee","lon":"121.480636","lat":"31.222131","category":"247","category_name":"餐饮美食","address":"上海市 淮海中路193-8号"},{"poiid":"B2094654DB6BA4FA499A","title":"良友金伴自忠路店","lon":"121.47985","lat":"31.21979","category":"117","category_name":"便民商店/便利店","address":"自忠路87"},{"poiid":"B2094757D66DABFD429A","title":"温野菜","lon":"121.479470546","lat":"31.2204507663","category":"247","category_name":"餐饮美食","address":"上海淮海中路283号香港广场负一楼"},{"poiid":"B2094757D164A2FA479E","title":"寿宁路6号","lon":"121.48107333","lat":"31.220904101","category":"500","category_name":"未知分类","address":"上海香巴岛。。从好位子换到了坏位子。。坑爹。。。"},{"poiid":"B2094753D768A1F4419C","title":"上海外滩","lon":"121.480438","lat":"31.222406","category":"500","category_name":"未知分类","address":"上海市 外滩"},{"poiid":"B2094757D168A4F54899","title":"老宅里农家菜","lon":"121.479805","lat":"31.219811","category":"247","category_name":"餐饮美食","address":"上海西门路"},{"poiid":"B209475CD76BA6FB449A","title":"老友螺蛳粉","lon":"121.481895","lat":"31.220659","category":"247","category_name":"餐饮美食","address":"上海市 西藏南路390号"},{"poiid":"B2094757D66CA3FE4198","title":"虎跳峽(下虎跳)","lon":"121.48102943","lat":"31.222836642","category":"234","category_name":"海滨浴场","address":"迪庆州香格里拉县(近大具乡) 下虎跳峡"},{"poiid":"B2094654DA6EAAFE4192","title":"崇尚麻辣烫","lon":"121.47941","lat":"31.22203","category":"68","category_name":"快餐厅","address":"卢湾区崇德路46号(近柳林路)"},{"poiid":"B2094757D66FA2FF4199","title":"吉安路自忠路","lon":"121.47998873","lat":"31.21946207","category":"500","category_name":"未知分类","address":"上海吉安路自忠路126弄号"},{"poiid":"B2094654DA6EABFB449E","title":"好德No.220","lon":"121.48164","lat":"31.22072","category":"117","category_name":"便民商店/便利店","address":"自忠路2-4"},{"poiid":"B2094655D264A7F54392","title":"相思苑餐厅","lon":"121.480455054","lat":"31.222468793","category":"76","category_name":"上海菜","address":"卢湾区崇德路24号(近太仓路)"},{"poiid":"B2094753D568A2FB479C","title":"PwC","lon":"121.479919","lat":"31.219842","category":"500","category_name":"未知分类","address":"上海市 黄浦区新天地湖滨路202号"},{"poiid":"B2094757D16BA5FB479A","title":"peach john 蜜桃派","lon":"121.47901863","lat":"31.220890426","category":"247","category_name":"餐饮美食","address":"上海新天地"},{"poiid":"B2094757DB69A7FA4993","title":"李向阳葱油饼","lon":"121.47865","lat":"31.22204","category":"68","category_name":"快餐厅","address":"卢湾区普安路185号(近上海中医大学附属曙光医院)"},{"poiid":"B2094750D26EABF8459A","title":"上海虹桥机场","lon":"121.48","lat":"31.22","category":"21","category_name":"飞机场","address":"上海长宁区虹桥路2550号"},{"poiid":"B2094654DA6EA7FF409A","title":"大肠面","lon":"121.48144","lat":"31.21834","category":"68","category_name":"快餐厅","address":"卢湾区复兴中路59号(吉安路东台路间)"},{"poiid":"B2094757D16AA5F94593","title":"好乐迪","lon":"121.47968292","lat":"31.220613479","category":"500","category_name":"未知分类","address":"上海卢湾区顺昌路2号"},{"poiid":"B2094753D76FAAFA449C","title":"上海滩国泰旗舰店","lon":"121.466011","lat":"31.216125","category":"249","category_name":"购物服务","address":"淮海中路868号"},{"poiid":"B209475CD564A7F84292","title":"上海滩新天地店","lon":"121.47463","lat":"31.22164","category":"119","category_name":"商场","address":"\"太仓路181弄新天地北里15号\r\n\""},{"poiid":"B209475CD564A7F8439E","title":"上海滩中信泰富店","lon":"121.45602","lat":"31.22851","category":"119","category_name":"商场","address":"\"南京西路1168号中信泰富广场，店铺号221.\r\n\""},{"poiid":"B209475CD564A7F84392","title":"上海滩浦东香格里拉店","lon":"121.50058","lat":"31.23634","category":"119","category_name":"商场","address":"浦东富成路33号香格里拉酒店内大堂层"},{"poiid":"B2094757D06FA5FF499D","title":"新天地太平桥人工湖","lon":"121.479294","lat":"31.222233","category":"196","category_name":"公园","address":"上海济南路"},{"poiid":"B2094757D06AA4FD419D","title":"格澜国际大酒店","lon":"121.482429538","lat":"31.2197208762","category":"76","category_name":"上海菜","address":"黄浦区西藏南路567号(近复兴中路)"},{"poiid":"B2094757D16DA1FB499B","title":"华美国际酒店","lon":"121.481757","lat":"31.22221","category":"217","category_name":"旅馆招待所","address":"黄浦区西藏南路381号(近淮海中路)"},{"poiid":"B2094757D06FA6F8429E","title":"万商花鸟市场","lon":"121.48199","lat":"31.22132","category":"249","category_name":"购物服务","address":"黄浦区西藏南路417号(近东台路)"},{"poiid":"B2094654DA6EABFB4493","title":"东台路古玩市场(自忠路)","lon":"121.48128","lat":"31.22059","category":"134","category_name":"古玩字画店","address":"自忠路28"},{"poiid":"B2094654DA6EAAFC429C","title":"曙光大厦","lon":"121.47886","lat":"31.22255","category":"46","category_name":"楼宇","address":"静安区西康路946号"},{"poiid":"B2094757D66BA3F94698","title":"伊莎贝尔 Trattoria Isabelle","lon":"121.479601054","lat":"31.221654793","category":"98","category_name":"意式菜品餐厅","address":"卢湾区吉安路11号(湖滨路崇德路间)"},{"poiid":"B2094753D46AA1FD459D","title":"环球港","lon":"121.480438","lat":"31.22241","category":"500","category_name":"未知分类","address":"上海市 中山北路"},{"poiid":"B2094751D36BA5FF469F","title":"上海南站","lon":"121.48","lat":"31.22","category":"195","category_name":"游乐场","address":"上海徐家汇"},{"poiid":"B2094654DA6EAAFC469E","title":"上海时光整形外科医院","lon":"121.47886","lat":"31.22255","category":"162","category_name":"医院","address":"卢湾区普安路189号曙光大厦2楼(近淮海公园)"},{"poiid":"B2094654DA6EABFB499B","title":"上海市比乐中学","lon":"121.47971","lat":"31.22154","category":"55","category_name":"中学","address":"卢湾区崇德路43号(近顺昌路)"},{"poiid":"B2094654DB65A5FF4393","title":"雅叙屋食府家常菜(自忠路)","lon":"121.48136","lat":"31.22041","category":"76","category_name":"上海菜","address":"卢湾区自忠路13号(近东台路)"},{"poiid":"B2094654DB6BA4FA499B","title":"好再来河南牛肉拉面","lon":"121.48007","lat":"31.22043","category":"257","category_name":"中餐厅","address":"卢湾区吉安路35号(人工湖对面)"},{"poiid":"B2094757D465A7FF499B","title":"新新美食林","lon":"121.48006393688","lat":"31.219839547289","category":"68","category_name":"快餐厅","address":"卢湾区自忠路75号(近吉安路)"},{"poiid":"B2094655D36DA7FB439E","title":"自忠路东台路","lon":"121.48058","lat":"31.22023","category":"38","category_name":"公交车站","address":""},{"poiid":"B2094757D06AA5FC4393","title":"专剪坊-光头理发店","lon":"121.48009491","lat":"31.2201137543","category":"148","category_name":"美容美发店","address":"上海嵩山路115号"},{"poiid":"B209475DD669A6F5469B","title":"赵小姐不等位","lon":"121.481353","lat":"31.220138","category":"247","category_name":"餐饮美食","address":"上海市 太仓路70号"},{"poiid":"B2094654DB6BA4FA4799","title":"福源里(自忠路)","lon":"121.48047","lat":"31.22056","category":"47","category_name":"住宅区","address":"自忠路60弄1-46号"},{"poiid":"B2094654DA6EABFB4993","title":"丁祥里","lon":"121.48024","lat":"31.22097","category":"47","category_name":"住宅区","address":"浏河口路57弄1-33号"},{"poiid":"B2094654DB6BA4FA479B","title":"裕福里(自忠路)","lon":"121.48148","lat":"31.22064","category":"47","category_name":"住宅区","address":"自忠路18弄1-26号"},{"poiid":"B2094654DA6EABF44293","title":"好德No.199","lon":"121.48021","lat":"31.22017","category":"117","category_name":"便民商店/便利店","address":"自忠路74-78"},{"poiid":"B209475DD16BA2FB4399","title":"么么mussels","lon":"121.481315","lat":"31.220224","category":"500","category_name":"未知分类","address":"上海市 太仓路70号"},{"poiid":"B2094753D76CA2F44598","title":"上海朗庭酒店","lon":"121.479156","lat":"31.22248","category":"500","category_name":"未知分类","address":"上海市 卢湾区马当路"},{"poiid":"B2094757D06BA4F84298","title":"自忠路東臺路","lon":"121.480342","lat":"31.220158","category":"500","category_name":"未知分类","address":"上海自忠路東臺路"},{"poiid":"B2094654DA6EABF44498","title":"STAR SALON zhang shi xin工作室","lon":"121.48046","lat":"31.22006","category":"148","category_name":"美容美发店","address":"自忠路61"},{"poiid":"B209475CD769ABF5489D","title":"上海环贸广场","lon":"121.481025","lat":"31.220426","category":"500","category_name":"未知分类","address":"上海市 上海环贸广场"},{"poiid":"B2094757D169A5FE4798","title":"保时捷专卖店（淮海中路店）","lon":"121.48023273","lat":"31.220034707","category":"500","category_name":"未知分类","address":"上海淮海中路177-191号"},{"poiid":"B209475DD76EA1F84799","title":"Blue Car Coffee","lon":"121.480636","lat":"31.222131","category":"247","category_name":"餐饮美食","address":"上海市 淮海中路193-8号"},{"poiid":"B2094654DB6BA4FA499A","title":"良友金伴自忠路店","lon":"121.47985","lat":"31.21979","category":"117","category_name":"便民商店/便利店","address":"自忠路87"},{"poiid":"B2094757D66DABFD429A","title":"温野菜","lon":"121.479470546","lat":"31.2204507663","category":"247","category_name":"餐饮美食","address":"上海淮海中路283号香港广场负一楼"},{"poiid":"B2094757D164A2FA479E","title":"寿宁路6号","lon":"121.48107333","lat":"31.220904101","category":"500","category_name":"未知分类","address":"上海香巴岛。。从好位子换到了坏位子。。坑爹。。。"},{"poiid":"B2094753D768A1F4419C","title":"上海外滩","lon":"121.480438","lat":"31.222406","category":"500","category_name":"未知分类","address":"上海市 外滩"},{"poiid":"B2094757D168A4F54899","title":"老宅里农家菜","lon":"121.479805","lat":"31.219811","category":"247","category_name":"餐饮美食","address":"上海西门路"},{"poiid":"B209475CD76BA6FB449A","title":"老友螺蛳粉","lon":"121.481895","lat":"31.220659","category":"247","category_name":"餐饮美食","address":"上海市 西藏南路390号"},{"poiid":"B2094757D66CA3FE4198","title":"虎跳峽(下虎跳)","lon":"121.48102943","lat":"31.222836642","category":"234","category_name":"海滨浴场","address":"迪庆州香格里拉县(近大具乡) 下虎跳峡"},{"poiid":"B2094654DA6EAAFE4192","title":"崇尚麻辣烫","lon":"121.47941","lat":"31.22203","category":"68","category_name":"快餐厅","address":"卢湾区崇德路46号(近柳林路)"},{"poiid":"B2094757D66FA2FF4199","title":"吉安路自忠路","lon":"121.47998873","lat":"31.21946207","category":"500","category_name":"未知分类","address":"上海吉安路自忠路126弄号"},{"poiid":"B2094654DA6EABFB449E","title":"好德No.220","lon":"121.48164","lat":"31.22072","category":"117","category_name":"便民商店/便利店","address":"自忠路2-4"},{"poiid":"B2094655D264A7F54392","title":"相思苑餐厅","lon":"121.480455054","lat":"31.222468793","category":"76","category_name":"上海菜","address":"卢湾区崇德路24号(近太仓路)"},{"poiid":"B2094753D568A2FB479C","title":"PwC","lon":"121.479919","lat":"31.219842","category":"500","category_name":"未知分类","address":"上海市 黄浦区新天地湖滨路202号"},{"poiid":"B2094757D16BA5FB479A","title":"peach john 蜜桃派","lon":"121.47901863","lat":"31.220890426","category":"247","category_name":"餐饮美食","address":"上海新天地"},{"poiid":"B2094757DB69A7FA4993","title":"李向阳葱油饼","lon":"121.47865","lat":"31.22204","category":"68","category_name":"快餐厅","address":"卢湾区普安路185号(近上海中医大学附属曙光医院)"},{"poiid":"B2094750D26EABF8459A","title":"上海虹桥机场","lon":"121.48","lat":"31.22","category":"21","category_name":"飞机场","address":"上海长宁区虹桥路2550号"},{"poiid":"B2094654DA6EA7FF409A","title":"大肠面","lon":"121.48144","lat":"31.21834","category":"68","category_name":"快餐厅","address":"卢湾区复兴中路59号(吉安路东台路间)"},{"poiid":"B2094757D16AA5F94593","title":"好乐迪","lon":"121.47968292","lat":"31.220613479","category":"500","category_name":"未知分类","address":"上海卢湾区顺昌路2号"},{"poiid":"B2094753D76FAAFA449C","title":"上海滩国泰旗舰店","lon":"121.466011","lat":"31.216125","category":"249","category_name":"购物服务","address":"淮海中路868号"},{"poiid":"B209475CD564A7F84292","title":"上海滩新天地店","lon":"121.47463","lat":"31.22164","category":"119","category_name":"商场","address":"\"太仓路181弄新天地北里15号\r\n\""},{"poiid":"B209475CD564A7F8439E","title":"上海滩中信泰富店","lon":"121.45602","lat":"31.22851","category":"119","category_name":"商场","address":"\"南京西路1168号中信泰富广场，店铺号221.\r\n\""},{"poiid":"B209475CD564A7F84392","title":"上海滩浦东香格里拉店","lon":"121.50058","lat":"31.23634","category":"119","category_name":"商场","address":"浦东富成路33号香格里拉酒店内大堂层"},{"poiid":"B2094757D06FA5FF499D","title":"新天地太平桥人工湖","lon":"121.479294","lat":"31.222233","category":"196","category_name":"公园","address":"上海济南路"},{"poiid":"B2094757D06AA4FD419D","title":"格澜国际大酒店","lon":"121.482429538","lat":"31.2197208762","category":"76","category_name":"上海菜","address":"黄浦区西藏南路567号(近复兴中路)"},{"poiid":"B2094757D16DA1FB499B","title":"华美国际酒店","lon":"121.481757","lat":"31.22221","category":"217","category_name":"旅馆招待所","address":"黄浦区西藏南路381号(近淮海中路)"},{"poiid":"B2094757D06FA6F8429E","title":"万商花鸟市场","lon":"121.48199","lat":"31.22132","category":"249","category_name":"购物服务","address":"黄浦区西藏南路417号(近东台路)"},{"poiid":"B2094654DA6EABFB4493","title":"东台路古玩市场(自忠路)","lon":"121.48128","lat":"31.22059","category":"134","category_name":"古玩字画店","address":"自忠路28"},{"poiid":"B2094654DA6EAAFC429C","title":"曙光大厦","lon":"121.47886","lat":"31.22255","category":"46","category_name":"楼宇","address":"静安区西康路946号"},{"poiid":"B2094757D66BA3F94698","title":"伊莎贝尔 Trattoria Isabelle","lon":"121.479601054","lat":"31.221654793","category":"98","category_name":"意式菜品餐厅","address":"卢湾区吉安路11号(湖滨路崇德路间)"},{"poiid":"B2094753D46AA1FD459D","title":"环球港","lon":"121.480438","lat":"31.22241","category":"500","category_name":"未知分类","address":"上海市 中山北路"},{"poiid":"B2094751D36BA5FF469F","title":"上海南站","lon":"121.48","lat":"31.22","category":"195","category_name":"游乐场","address":"上海徐家汇"},{"poiid":"B2094654DA6EAAFC469E","title":"上海时光整形外科医院","lon":"121.47886","lat":"31.22255","category":"162","category_name":"医院","address":"卢湾区普安路189号曙光大厦2楼(近淮海公园)"},{"poiid":"B2094654DA6EABFB499B","title":"上海市比乐中学","lon":"121.47971","lat":"31.22154","category":"55","category_name":"中学","address":"卢湾区崇德路43号(近顺昌路)"},{"poiid":"B2094654DB65A5FF4393","title":"雅叙屋食府家常菜(自忠路)","lon":"121.48136","lat":"31.22041","category":"76","category_name":"上海菜","address":"卢湾区自忠路13号(近东台路)"},{"poiid":"B2094654DB6BA4FA499B","title":"好再来河南牛肉拉面","lon":"121.48007","lat":"31.22043","category":"257","category_name":"中餐厅","address":"卢湾区吉安路35号(人工湖对面)"},{"poiid":"B2094757D465A7FF499B","title":"新新美食林","lon":"121.48006393688","lat":"31.219839547289","category":"68","category_name":"快餐厅","address":"卢湾区自忠路75号(近吉安路)"},{"poiid":"B2094655D36DA7FB439E","title":"自忠路东台路","lon":"121.48058","lat":"31.22023","category":"38","category_name":"公交车站","address":""},{"poiid":"B2094757D06AA5FC4393","title":"专剪坊-光头理发店","lon":"121.48009491","lat":"31.2201137543","category":"148","category_name":"美容美发店","address":"上海嵩山路115号"},{"poiid":"B209475DD669A6F5469B","title":"赵小姐不等位","lon":"121.481353","lat":"31.220138","category":"247","category_name":"餐饮美食","address":"上海市 太仓路70号"},{"poiid":"B2094654DB6BA4FA4799","title":"福源里(自忠路)","lon":"121.48047","lat":"31.22056","category":"47","category_name":"住宅区","address":"自忠路60弄1-46号"},{"poiid":"B2094654DA6EABFB4993","title":"丁祥里","lon":"121.48024","lat":"31.22097","category":"47","category_name":"住宅区","address":"浏河口路57弄1-33号"},{"poiid":"B2094654DB6BA4FA479B","title":"裕福里(自忠路)","lon":"121.48148","lat":"31.22064","category":"47","category_name":"住宅区","address":"自忠路18弄1-26号"},{"poiid":"B2094654DA6EABF44293","title":"好德No.199","lon":"121.48021","lat":"31.22017","category":"117","category_name":"便民商店/便利店","address":"自忠路74-78"},{"poiid":"B209475DD16BA2FB4399","title":"么么mussels","lon":"121.481315","lat":"31.220224","category":"500","category_name":"未知分类","address":"上海市 太仓路70号"},{"poiid":"B2094753D76CA2F44598","title":"上海朗庭酒店","lon":"121.479156","lat":"31.22248","category":"500","category_name":"未知分类","address":"上海市 卢湾区马当路"},{"poiid":"B2094757D06BA4F84298","title":"自忠路東臺路","lon":"121.480342","lat":"31.220158","category":"500","category_name":"未知分类","address":"上海自忠路東臺路"},{"poiid":"B2094654DA6EABF44498","title":"STAR SALON zhang shi xin工作室","lon":"121.48046","lat":"31.22006","category":"148","category_name":"美容美发店","address":"自忠路61"},{"poiid":"B209475CD769ABF5489D","title":"上海环贸广场","lon":"121.481025","lat":"31.220426","category":"500","category_name":"未知分类","address":"上海市 上海环贸广场"},{"poiid":"B2094757D169A5FE4798","title":"保时捷专卖店（淮海中路店）","lon":"121.48023273","lat":"31.220034707","category":"500","category_name":"未知分类","address":"上海淮海中路177-191号"},{"poiid":"B209475DD76EA1F84799","title":"Blue Car Coffee","lon":"121.480636","lat":"31.222131","category":"247","category_name":"餐饮美食","address":"上海市 淮海中路193-8号"},{"poiid":"B2094654DB6BA4FA499A","title":"良友金伴自忠路店","lon":"121.47985","lat":"31.21979","category":"117","category_name":"便民商店/便利店","address":"自忠路87"},{"poiid":"B2094757D66DABFD429A","title":"温野菜","lon":"121.479470546","lat":"31.2204507663","category":"247","category_name":"餐饮美食","address":"上海淮海中路283号香港广场负一楼"},{"poiid":"B2094757D164A2FA479E","title":"寿宁路6号","lon":"121.48107333","lat":"31.220904101","category":"500","category_name":"未知分类","address":"上海香巴岛。。从好位子换到了坏位子。。坑爹。。。"},{"poiid":"B2094753D768A1F4419C","title":"上海外滩","lon":"121.480438","lat":"31.222406","category":"500","category_name":"未知分类","address":"上海市 外滩"},{"poiid":"B2094757D168A4F54899","title":"老宅里农家菜","lon":"121.479805","lat":"31.219811","category":"247","category_name":"餐饮美食","address":"上海西门路"},{"poiid":"B209475CD76BA6FB449A","title":"老友螺蛳粉","lon":"121.481895","lat":"31.220659","category":"247","category_name":"餐饮美食","address":"上海市 西藏南路390号"},{"poiid":"B2094757D66CA3FE4198","title":"虎跳峽(下虎跳)","lon":"121.48102943","lat":"31.222836642","category":"234","category_name":"海滨浴场","address":"迪庆州香格里拉县(近大具乡) 下虎跳峡"},{"poiid":"B2094654DA6EAAFE4192","title":"崇尚麻辣烫","lon":"121.47941","lat":"31.22203","category":"68","category_name":"快餐厅","address":"卢湾区崇德路46号(近柳林路)"},{"poiid":"B2094757D66FA2FF4199","title":"吉安路自忠路","lon":"121.47998873","lat":"31.21946207","category":"500","category_name":"未知分类","address":"上海吉安路自忠路126弄号"},{"poiid":"B2094654DA6EABFB449E","title":"好德No.220","lon":"121.48164","lat":"31.22072","category":"117","category_name":"便民商店/便利店","address":"自忠路2-4"},{"poiid":"B2094655D264A7F54392","title":"相思苑餐厅","lon":"121.480455054","lat":"31.222468793","category":"76","category_name":"上海菜","address":"卢湾区崇德路24号(近太仓路)"},{"poiid":"B2094753D568A2FB479C","title":"PwC","lon":"121.479919","lat":"31.219842","category":"500","category_name":"未知分类","address":"上海市 黄浦区新天地湖滨路202号"},{"poiid":"B2094757D16BA5FB479A","title":"peach john 蜜桃派","lon":"121.47901863","lat":"31.220890426","category":"247","category_name":"餐饮美食","address":"上海新天地"},{"poiid":"B2094757DB69A7FA4993","title":"李向阳葱油饼","lon":"121.47865","lat":"31.22204","category":"68","category_name":"快餐厅","address":"卢湾区普安路185号(近上海中医大学附属曙光医院)"}]