[{"poiid":"B2094757D06FA3F9419A","title":"上海会馆","lon":"121.492239138","lat":"31.2239696667","category":"76","category_name":"上海菜","address":"黄浦区河南南路489号香港名都5楼(近复兴东路)"},{"poiid":"B2094757D06FA6F5469A","title":"鼎泰丰(豫园店)","lon":"121.492692816","lat":"31.2247337512","category":"68","category_name":"快餐厅","address":"黄浦区方浜中路168号豫城时尚内(近三牌楼路)"},{"poiid":"B2094757D06FA1FD4093","title":"健康煮(豫城店)","lon":"121.49303673","lat":"31.224846185","category":"86","category_name":"火锅店","address":"黄浦区方浜中路168号豫城时尚3楼(近三牌楼路)"},{"poiid":"B2094753D76FAAFA449C","title":"上海滩国泰旗舰店","lon":"121.466011","lat":"31.216125","category":"249","category_name":"购物服务","address":"淮海中路868号"},{"poiid":"B209475CD564A7F84292","title":"上海滩新天地店","lon":"121.47463","lat":"31.22164","category":"119","category_name":"商场","address":"\"太仓路181弄新天地北里15号\r\n\""},{"poiid":"B209475CD564A7F84392","title":"上海滩浦东香格里拉店","lon":"121.50058","lat":"31.23634","category":"119","category_name":"商场","address":"浦东富成路33号香格里拉酒店内大堂层"},{"poiid":"B2094757D069A7F44392","title":"南翔小笼","lon":"121.49280873","lat":"31.220081083","category":"247","category_name":"餐饮美食","address":"上海老城隍庙豫园路58号"},{"poiid":"B2094757D06FA1FF4693","title":"避风塘(豫园店)","lon":"121.492699","lat":"31.22484","category":"72","category_name":"广东菜","address":"黄浦区方浜中路168号豫城时尚3楼L3-01-02号商铺(近三牌楼路)"},{"poiid":"B2094757D568A6FF4598","title":"山海亭(复兴东路)","lon":"121.49009928","lat":"31.22246962","category":"268","category_name":"自助","address":"黄浦区河南南路489号香港名都4楼(近复兴东路)"},{"poiid":"B2094757D06BA7FF4193","title":"老西门国际青年旅舍","lon":"121.49243","lat":"31.21852","category":"216","category_name":"经济型连锁酒店","address":"黄浦区蓬莱路115号(近河南南路)"},{"poiid":"B2094757D66FA6FA4392","title":"新元素(西藏南路店)","lon":"121.489419","lat":"31.221615","category":"94","category_name":"西餐厅","address":"黄浦区西藏南路228号永银大厦6楼(桃源路西藏南路)"},{"poiid":"B2094757D06FA1F54199","title":"豫城时尚","lon":"121.4927","lat":"31.22486","category":"119","category_name":"商场","address":"黄浦区方浜中路168号豫龙坊内(近昼锦路)"},{"poiid":"B2094655D36CA6FF4299","title":"复兴东路光启路","lon":"121.49307","lat":"31.22185","category":"38","category_name":"公交车站","address":""},{"poiid":"B2094655D36CA7F94599","title":"河南南路复兴东路","lon":"121.48953","lat":"31.22242","category":"38","category_name":"公交车站","address":""},{"poiid":"B2094757D464A4FE469F","title":"燕太太燕窝 香港名都店","lon":"121.49009","lat":"31.22246","category":"67","category_name":"甜品店","address":"黄浦区河南南路489号香港名都1楼L125室(近复兴东路)"},{"poiid":"B2094757D068A5FB459D","title":"憨豆咖啡","lon":"121.48986773","lat":"31.22226513","category":"260","category_name":"其他","address":"黄浦区河南南路489号香港名都1楼(近复兴东路)"},{"poiid":"B2094752D769A0F44593","title":"城隍庙","lon":"121.492118","lat":"31.220313","category":"500","category_name":"未知分类","address":"上海市城隍庙"},{"poiid":"B2094757D069ABFE499C","title":"8号线人民广场站","lon":"121.494712738","lat":"31.2204060908","category":"500","category_name":"未知分类","address":"上海市人民广场"},{"poiid":"B2094655D36CA7F9459F","title":"河南南路文庙路","lon":"121.49068","lat":"31.22031","category":"38","category_name":"公交车站","address":""},{"poiid":"B2094757D068A6FE409C","title":"文庙商品街","lon":"121.494036","lat":"31.220354","category":"263","category_name":"公司","address":"上海市文庙路"},{"poiid":"B2094757D068A6FD449F","title":"味千拉面(豫龙坊店)","lon":"121.49305373","lat":"31.224894186","category":"95","category_name":"日本料理","address":"黄浦区方浜中路168号豫城时尚B1-17B室(近三牌楼路)"},{"poiid":"B2094750DA68A6F54893","title":"道顺射箭馆(黄浦)","lon":"121.4915","lat":"31.222013","category":"248","category_name":"生活娱乐","address":"黄浦区复兴东路699号3楼(近河南南路)"},{"poiid":"B2094757D168A1FF409D","title":"克莉丝汀(复兴东路店)","lon":"121.49251","lat":"31.22188","category":"112","category_name":"糕饼店","address":"黄浦区复兴东路643号(近三牌楼路)"},{"poiid":"B2094757DA65A5F4419E","title":"如家快捷酒店（上海外滩城隍庙店）","lon":"121.490711","lat":"31.222069","category":"216","category_name":"经济型连锁酒店","address":"上海市黄浦区复兴东路699号(近河南南路)"},{"poiid":"B2094757D06AA5FA409A","title":"大块头排挡","lon":"121.49559","lat":"31.22314","category":"76","category_name":"上海菜","address":"黄浦区四牌楼106号(学院路口)"},{"poiid":"B2094655D36CA6FF429F","title":"复兴东路豫园","lon":"121.49288","lat":"31.22187","category":"38","category_name":"公交车站","address":""},{"poiid":"B2094751D36AA5F8489E","title":"丰收日幸福家宴","lon":"121.49009","lat":"31.22246","category":"76","category_name":"上海菜","address":"黄浦区河南南路489号香港名都广场4楼(近复兴东路)"},{"poiid":"B2094757D16BAAF8429C","title":"永惠大厦","lon":"121.49333898869","lat":"31.222608612505","category":"252","category_name":"楼宇机构","address":"上海市黄浦区西藏南路775-779号"},{"poiid":"B2094655D36CA7F9459E","title":"河南南路蓬莱路","lon":"121.49098","lat":"31.21994","category":"38","category_name":"公交车站","address":""},{"poiid":"B2094757D064A3FF489B","title":"傣妹(豫园店)","lon":"121.49268","lat":"31.22336","category":"86","category_name":"火锅店","address":"黄浦区三牌楼路11号"},{"poiid":"B2094751D06EA2F94393","title":"老码头一号会所","lon":"121.4940999","lat":"31.2203573","category":"247","category_name":"餐饮美食","address":"中山南路479号"},{"poiid":"B2094654DA6EABFA439B","title":"光明乳业配送中心","lon":"121.49222","lat":"31.22238","category":"117","category_name":"便民商店/便利店","address":""},{"poiid":"B2094654DA6EABFA4298","title":"复地雅园","lon":"121.49072","lat":"31.222973","category":"47","category_name":"住宅区","address":"上海市黄浦区昼锦路180弄8,9号"},{"poiid":"B2094654DB6BA4FA469F","title":"快客(复兴小区东南)","lon":"121.49222","lat":"31.22241","category":"117","category_name":"便民商店/便利店","address":"三牌楼路124"},{"poiid":"B2094757DA65A5F54092","title":"格林联盟（上海复兴东路外滩店）","lon":"121.491327882","lat":"31.221563961","category":"216","category_name":"经济型连锁酒店","address":"上海市黄浦区复兴东路702号(靠近河南南路)"},{"poiid":"B2094757D065A4FF449D","title":"韩林炭烤 香港名都店","lon":"121.48988","lat":"31.22201","category":"96","category_name":"韩国料理","address":"黄浦区河南南路495-519号香港名都商场L4楼02(复兴东路河南南路)"},{"poiid":"B2094757D169A2FF459A","title":"方浜中路","lon":"121.492808738","lat":"31.2200810838","category":"500","category_name":"未知分类","address":"上海黄浦区方浜中路"},{"poiid":"B2094654DA6EABFA429D","title":"复兴小区(南门)","lon":"121.49179","lat":"31.22218","category":"47","category_name":"住宅区","address":"复兴东路663弄1-7号"},{"poiid":"B2094654DA6EABFA4398","title":"新华书店(三牌楼路)","lon":"121.49223","lat":"31.22244","category":"125","category_name":"书店","address":"三牌楼路120-122号"},{"poiid":"B2094757D16FA3F4419A","title":"小桃园清真寺","lon":"121.49179","lat":"31.21861","category":"68","category_name":"快餐厅","address":"黄浦区小桃园街52号(近复兴东路)"},{"poiid":"B2094757D169A7FE4193","title":"城隍庙三牌楼路","lon":"121.49249267","lat":"31.2236557","category":"500","category_name":"未知分类","address":"上海城隍庙傣妹"},{"poiid":"B2094654DA6EA7FC4199","title":"良友金伴(复兴东路)","lon":"121.49408","lat":"31.22179","category":"117","category_name":"便民商店/便利店","address":"老西门"},{"poiid":"B2094757D16AA6F4429D","title":"寿宁路568龙虾","lon":"121.49166373","lat":"31.221715118","category":"500","category_name":"未知分类","address":"上海市黄浦区松雪街"},{"poiid":"B2094757D664A2FC4993","title":"六千馆","lon":"121.48975","lat":"31.22226","category":"76","category_name":"上海菜","address":"黄浦区河南南路489号香港名都5楼(近复兴东路)"},{"poiid":"B2094757D06FABFA419F","title":"复兴东路河南南路车站","lon":"121.49232423","lat":"31.222628338","category":"500","category_name":"未知分类","address":"上海黄浦区复兴东路河南南路，66路，980路，方川线，929路，969路，306路车站"},{"poiid":"B2094757D568A5FF479F","title":"金御红茶叶","lon":"121.4921799","lat":"31.22155409","category":"255","category_name":"专卖店","address":"复兴东路690号"},{"poiid":"B2094655D26FA5FF419F","title":"复兴小区","lon":"121.49194","lat":"31.222656","category":"47","category_name":"住宅区","address":"复兴东路663弄1-7号"},{"poiid":"B2094654DB69A7F8479D","title":"艾家小区","lon":"121.49362","lat":"31.22076","category":"47","category_name":"住宅区","address":"黄浦区西唐家弄113号"},{"poiid":"B2094654DB6AA1FD4992","title":"上海十六铺家具城城隍庙商厦","lon":"121.49404","lat":"31.22243","category":"119","category_name":"商场","address":"光启路204号"},{"poiid":"B2094654DA6EABFA4799","title":"开富休闲足沐","lon":"121.49297","lat":"31.22224","category":"149","category_name":"洗浴推拿场所","address":"复兴东路617临"},{"poiid":"B2094757D06FA3F9419A","title":"上海会馆","lon":"121.492239138","lat":"31.2239696667","category":"76","category_name":"上海菜","address":"黄浦区河南南路489号香港名都5楼(近复兴东路)"},{"poiid":"B2094757D06FA6F5469A","title":"鼎泰丰(豫园店)","lon":"121.492692816","lat":"31.2247337512","category":"68","category_name":"快餐厅","address":"黄浦区方浜中路168号豫城时尚内(近三牌楼路)"},{"poiid":"B2094757D06FA1FD4093","title":"健康煮(豫城店)","lon":"121.49303673","lat":"31.224846185","category":"86","category_name":"火锅店","address":"黄浦区方浜中路168号豫城时尚3楼(近三牌楼路)"},{"poiid":"B2094753D76FAAFA449C","title":"上海滩国泰旗舰店","lon":"121.466011","lat":"31.216125","category":"249","category_name":"购物服务","address":"淮海中路868号"},{"poiid":"B209475CD564A7F84292","title":"上海滩新天地店","lon":"121.47463","lat":"31.22164","category":"119","category_name":"商场","address":"\"太仓路181弄新天地北里15号\r\n\""},{"poiid":"B209475CD564A7F84392","title":"上海滩浦东香格里拉店","lon":"121.50058","lat":"31.23634","category":"119","category_name":"商场","address":"浦东富成路33号香格里拉酒店内大堂层"},{"poiid":"B2094757D069A7F44392","title":"南翔小笼","lon":"121.49280873","lat":"31.220081083","category":"247","category_name":"餐饮美食","address":"上海老城隍庙豫园路58号"},{"poiid":"B2094757D06FA1FF4693","title":"避风塘(豫园店)","lon":"121.492699","lat":"31.22484","category":"72","category_name":"广东菜","address":"黄浦区方浜中路168号豫城时尚3楼L3-01-02号商铺(近三牌楼路)"},{"poiid":"B2094757D568A6FF4598","title":"山海亭(复兴东路)","lon":"121.49009928","lat":"31.22246962","category":"268","category_name":"自助","address":"黄浦区河南南路489号香港名都4楼(近复兴东路)"},{"poiid":"B2094757D06BA7FF4193","title":"老西门国际青年旅舍","lon":"121.49243","lat":"31.21852","category":"216","category_name":"经济型连锁酒店","address":"黄浦区蓬莱路115号(近河南南路)"},{"poiid":"B2094757D66FA6FA4392","title":"新元素(西藏南路店)","lon":"121.489419","lat":"31.221615","category":"94","category_name":"西餐厅","address":"黄浦区西藏南路228号永银大厦6楼(桃源路西藏南路)"},{"poiid":"B2094757D06FA1F54199","title":"豫城时尚","lon":"121.4927","lat":"31.22486","category":"119","category_name":"商场","address":"黄浦区方浜中路168号豫龙坊内(近昼锦路)"},{"poiid":"B2094655D36CA6FF4299","title":"复兴东路光启路","lon":"121.49307","lat":"31.22185","category":"38","category_name":"公交车站","address":""},{"poiid":"B2094655D36CA7F94599","title":"河南南路复兴东路","lon":"121.48953","lat":"31.22242","category":"38","category_name":"公交车站","address":""},{"poiid":"B2094757D464A4FE469F","title":"燕太太燕窝 香港名都店","lon":"121.49009","lat":"31.22246","category":"67","category_name":"甜品店","address":"黄浦区河南南路489号香港名都1楼L125室(近复兴东路)"},{"poiid":"B2094757D068A5FB459D","title":"憨豆咖啡","lon":"121.48986773","lat":"31.22226513","category":"260","category_name":"其他","address":"黄浦区河南南路489号香港名都1楼(近复兴东路)"},{"poiid":"B2094752D769A0F44593","title":"城隍庙","lon":"121.492118","lat":"31.220313","category":"500","category_name":"未知分类","address":"上海市城隍庙"},{"poiid":"B2094757D069ABFE499C","title":"8号线人民广场站","lon":"121.494712738","lat":"31.2204060908","category":"500","category_name":"未知分类","address":"上海市人民广场"},{"poiid":"B2094655D36CA7F9459F","title":"河南南路文庙路","lon":"121.49068","lat":"31.22031","category":"38","category_name":"公交车站","address":""},{"poiid":"B2094757D068A6FE409C","title":"文庙商品街","lon":"121.494036","lat":"31.220354","category":"263","category_name":"公司","address":"上海市文庙路"},{"poiid":"B2094757D068A6FD449F","title":"味千拉面(豫龙坊店)","lon":"121.49305373","lat":"31.224894186","category":"95","category_name":"日本料理","address":"黄浦区方浜中路168号豫城时尚B1-17B室(近三牌楼路)"},{"poiid":"B2094750DA68A6F54893","title":"道顺射箭馆(黄浦)","lon":"121.4915","lat":"31.222013","category":"248","category_name":"生活娱乐","address":"黄浦区复兴东路699号3楼(近河南南路)"},{"poiid":"B2094757D168A1FF409D","title":"克莉丝汀(复兴东路店)","lon":"121.49251","lat":"31.22188","category":"112","category_name":"糕饼店","address":"黄浦区复兴东路643号(近三牌楼路)"},{"poiid":"B2094757DA65A5F4419E","title":"如家快捷酒店（上海外滩城隍庙店）","lon":"121.490711","lat":"31.222069","category":"216","category_name":"经济型连锁酒店","address":"上海市黄浦区复兴东路699号(近河南南路)"},{"poiid":"B2094757D06AA5FA409A","title":"大块头排挡","lon":"121.49559","lat":"31.22314","category":"76","category_name":"上海菜","address":"黄浦区四牌楼106号(学院路口)"},{"poiid":"B2094655D36CA6FF429F","title":"复兴东路豫园","lon":"121.49288","lat":"31.22187","category":"38","category_name":"公交车站","address":""},{"poiid":"B2094751D36AA5F8489E","title":"丰收日幸福家宴","lon":"121.49009","lat":"31.22246","category":"76","category_name":"上海菜","address":"黄浦区河南南路489号香港名都广场4楼(近复兴东路)"},{"poiid":"B2094757D16BAAF8429C","title":"永惠大厦","lon":"121.49333898869","lat":"31.222608612505","category":"252","category_name":"楼宇机构","address":"上海市黄浦区西藏南路775-779号"},{"poiid":"B2094655D36CA7F9459E","title":"河南南路蓬莱路","lon":"121.49098","lat":"31.21994","category":"38","category_name":"公交车站","address":""},{"poiid":"B2094757D064A3FF489B","title":"傣妹(豫园店)","lon":"121.49268","lat":"31.22336","category":"86","category_name":"火锅店","address":"黄浦区三牌楼路11号"},{"poiid":"B2094751D06EA2F94393","title":"老码头一号会所","lon":"121.4940999","lat":"31.2203573","category":"247","category_name":"餐饮美食","address":"中山南路479号"},{"poiid":"B2094654DA6EABFA439B","title":"光明乳业配送中心","lon":"121.49222","lat":"31.22238","category":"117","category_name":"便民商店/便利店","address":""},{"poiid":"B2094654DA6EABFA4298","title":"复地雅园","lon":"121.49072","lat":"31.222973","category":"47","category_name":"住宅区","address":"上海市黄浦区昼锦路180弄8,9号"},{"poiid":"B2094654DB6BA4FA469F","title":"快客(复兴小区东南)","lon":"121.49222","lat":"31.22241","category":"117","category_name":"便民商店/便利店","address":"三牌楼路124"},{"poiid":"B2094757DA65A5F54092","title":"格林联盟（上海复兴东路外滩店）","lon":"121.491327882","lat":"31.221563961","category":"216","category_name":"经济型连锁酒店","address":"上海市黄浦区复兴东路702号(靠近河南南路)"},{"poiid":"B2094757D065A4FF449D","title":"韩林炭烤 香港名都店","lon":"121.48988","lat":"31.22201","category":"96","category_name":"韩国料理","address":"黄浦区河南南路495-519号香港名都商场L4楼02(复兴东路河南南路)"},{"poiid":"B2094757D169A2FF459A","title":"方浜中路","lon":"121.492808738","lat":"31.2200810838","category":"500","category_name":"未知分类","address":"上海黄浦区方浜中路"},{"poiid":"B2094654DA6EABFA429D","title":"复兴小区(南门)","lon":"121.49179","lat":"31.22218","category":"47","category_name":"住宅区","address":"复兴东路663弄1-7号"},{"poiid":"B2094654DA6EABFA4398","title":"新华书店(三牌楼路)","lon":"121.49223","lat":"31.22244","category":"125","category_name":"书店","address":"三牌楼路120-122号"},{"poiid":"B2094757D16FA3F4419A","title":"小桃园清真寺","lon":"121.49179","lat":"31.21861","category":"68","category_name":"快餐厅","address":"黄浦区小桃园街52号(近复兴东路)"},{"poiid":"B2094757D169A7FE4193","title":"城隍庙三牌楼路","lon":"121.49249267","lat":"31.2236557","category":"500","category_name":"未知分类","address":"上海城隍庙傣妹"},{"poiid":"B2094654DA6EA7FC4199","title":"良友金伴(复兴东路)","lon":"121.49408","lat":"31.22179","category":"117","category_name":"便民商店/便利店","address":"老西门"},{"poiid":"B2094757D16AA6F4429D","title":"寿宁路568龙虾","lon":"121.49166373","lat":"31.221715118","category":"500","category_name":"未知分类","address":"上海市黄浦区松雪街"},{"poiid":"B2094757D664A2FC4993","title":"六千馆","lon":"121.48975","lat":"31.22226","category":"76","category_name":"上海菜","address":"黄浦区河南南路489号香港名都5楼(近复兴东路)"},{"poiid":"B2094757D06FABFA419F","title":"复兴东路河南南路车站","lon":"121.49232423","lat":"31.222628338","category":"500","category_name":"未知分类","address":"上海黄浦区复兴东路河南南路，66路，980路，方川线，929路，969路，306路车站"},{"poiid":"B2094757D568A5FF479F","title":"金御红茶叶","lon":"121.4921799","lat":"31.22155409","category":"255","category_name":"专卖店","address":"复兴东路690号"},{"poiid":"B2094655D26FA5FF419F","title":"复兴小区","lon":"121.49194","lat":"31.222656","category":"47","category_name":"住宅区","address":"复兴东路663弄1-7号"},{"poiid":"B2094654DB69A7F8479D","title":"艾家小区","lon":"121.49362","lat":"31.22076","category":"47","category_name":"住宅区","address":"黄浦区西唐家弄113号"},{"poiid":"B2094654DB6AA1FD4992","title":"上海十六铺家具城城隍庙商厦","lon":"121.49404","lat":"31.22243","category":"119","category_name":"商场","address":"光启路204号"},{"poiid":"B2094654DA6EABFA4799","title":"开富休闲足沐","lon":"121.49297","lat":"31.22224","category":"149","category_name":"洗浴推拿场所","address":"复兴东路617临"},{"poiid":"B2094757D06FA3F9419A","title":"上海会馆","lon":"121.492239138","lat":"31.2239696667","category":"76","category_name":"上海菜","address":"黄浦区河南南路489号香港名都5楼(近复兴东路)"},{"poiid":"B2094757D06FA6F5469A","title":"鼎泰丰(豫园店)","lon":"121.492692816","lat":"31.2247337512","category":"68","category_name":"快餐厅","address":"黄浦区方浜中路168号豫城时尚内(近三牌楼路)"},{"poiid":"B2094757D06FA1FD4093","title":"健康煮(豫城店)","lon":"121.49303673","lat":"31.224846185","category":"86","category_name":"火锅店","address":"黄浦区方浜中路168号豫城时尚3楼(近三牌楼路)"},{"poiid":"B2094753D76FAAFA449C","title":"上海滩国泰旗舰店","lon":"121.466011","lat":"31.216125","category":"249","category_name":"购物服务","address":"淮海中路868号"},{"poiid":"B209475CD564A7F84292","title":"上海滩新天地店","lon":"121.47463","lat":"31.22164","category":"119","category_name":"商场","address":"\"太仓路181弄新天地北里15号\r\n\""},{"poiid":"B209475CD564A7F84392","title":"上海滩浦东香格里拉店","lon":"121.50058","lat":"31.23634","category":"119","category_name":"商场","address":"浦东富成路33号香格里拉酒店内大堂层"},{"poiid":"B2094757D069A7F44392","title":"南翔小笼","lon":"121.49280873","lat":"31.220081083","category":"247","category_name":"餐饮美食","address":"上海老城隍庙豫园路58号"},{"poiid":"B2094757D06FA1FF4693","title":"避风塘(豫园店)","lon":"121.492699","lat":"31.22484","category":"72","category_name":"广东菜","address":"黄浦区方浜中路168号豫城时尚3楼L3-01-02号商铺(近三牌楼路)"},{"poiid":"B2094757D568A6FF4598","title":"山海亭(复兴东路)","lon":"121.49009928","lat":"31.22246962","category":"268","category_name":"自助","address":"黄浦区河南南路489号香港名都4楼(近复兴东路)"},{"poiid":"B2094757D06BA7FF4193","title":"老西门国际青年旅舍","lon":"121.49243","lat":"31.21852","category":"216","category_name":"经济型连锁酒店","address":"黄浦区蓬莱路115号(近河南南路)"},{"poiid":"B2094757D66FA6FA4392","title":"新元素(西藏南路店)","lon":"121.489419","lat":"31.221615","category":"94","category_name":"西餐厅","address":"黄浦区西藏南路228号永银大厦6楼(桃源路西藏南路)"},{"poiid":"B2094757D06FA1F54199","title":"豫城时尚","lon":"121.4927","lat":"31.22486","category":"119","category_name":"商场","address":"黄浦区方浜中路168号豫龙坊内(近昼锦路)"},{"poiid":"B2094655D36CA6FF4299","title":"复兴东路光启路","lon":"121.49307","lat":"31.22185","category":"38","category_name":"公交车站","address":""},{"poiid":"B2094655D36CA7F94599","title":"河南南路复兴东路","lon":"121.48953","lat":"31.22242","category":"38","category_name":"公交车站","address":""},{"poiid":"B2094757D464A4FE469F","title":"燕太太燕窝 香港名都店","lon":"121.49009","lat":"31.22246","category":"67","category_name":"甜品店","address":"黄浦区河南南路489号香港名都1楼L125室(近复兴东路)"},{"poiid":"B2094757D068A5FB459D","title":"憨豆咖啡","lon":"121.48986773","lat":"31.22226513","category":"260","category_name":"其他","address":"黄浦区河南南路489号香港名都1楼(近复兴东路)"},{"poiid":"B2094752D769A0F44593","title":"城隍庙","lon":"121.492118","lat":"31.220313","category":"500","category_name":"未知分类","address":"上海市城隍庙"},{"poiid":"B2094757D069ABFE499C","title":"8号线人民广场站","lon":"121.494712738","lat":"31.2204060908","category":"500","category_name":"未知分类","address":"上海市人民广场"},{"poiid":"B2094655D36CA7F9459F","title":"河南南路文庙路","lon":"121.49068","lat":"31.22031","category":"38","category_name":"公交车站","address":""},{"poiid":"B2094757D068A6FE409C","title":"文庙商品街","lon":"121.494036","lat":"31.220354","category":"263","category_name":"公司","address":"上海市文庙路"},{"poiid":"B2094757D068A6FD449F","title":"味千拉面(豫龙坊店)","lon":"121.49305373","lat":"31.224894186","category":"95","category_name":"日本料理","address":"黄浦区方浜中路168号豫城时尚B1-17B室(近三牌楼路)"},{"poiid":"B2094750DA68A6F54893","title":"道顺射箭馆(黄浦)","lon":"121.4915","lat":"31.222013","category":"248","category_name":"生活娱乐","address":"黄浦区复兴东路699号3楼(近河南南路)"},{"poiid":"B2094757D168A1FF409D","title":"克莉丝汀(复兴东路店)","lon":"121.49251","lat":"31.22188","category":"112","category_name":"糕饼店","address":"黄浦区复兴东路643号(近三牌楼路)"},{"poiid":"B2094757DA65A5F4419E","title":"如家快捷酒店（上海外滩城隍庙店）","lon":"121.490711","lat":"31.222069","category":"216","category_name":"经济型连锁酒店","address":"上海市黄浦区复兴东路699号(近河南南路)"},{"poiid":"B2094757D06AA5FA409A","title":"大块头排挡","lon":"121.49559","lat":"31.22314","category":"76","category_name":"上海菜","address":"黄浦区四牌楼106号(学院路口)"},{"poiid":"B2094655D36CA6FF429F","title":"复兴东路豫园","lon":"121.49288","lat":"31.22187","category":"38","category_name":"公交车站","address":""},{"poiid":"B2094751D36AA5F8489E","title":"丰收日幸福家宴","lon":"121.49009","lat":"31.22246","category":"76","category_name":"上海菜","address":"黄浦区河南南路489号香港名都广场4楼(近复兴东路)"},{"poiid":"B2094757D16BAAF8429C","title":"永惠大厦","lon":"121.49333898869","lat":"31.222608612505","category":"252","category_name":"楼宇机构","address":"上海市黄浦区西藏南路775-779号"},{"poiid":"B2094655D36CA7F9459E","title":"河南南路蓬莱路","lon":"121.49098","lat":"31.21994","category":"38","category_name":"公交车站","address":""},{"poiid":"B2094757D064A3FF489B","title":"傣妹(豫园店)","lon":"121.49268","lat":"31.22336","category":"86","category_name":"火锅店","address":"黄浦区三牌楼路11号"},{"poiid":"B2094751D06EA2F94393","title":"老码头一号会所","lon":"121.4940999","lat":"31.2203573","category":"247","category_name":"餐饮美食","address":"中山南路479号"},{"poiid":"B2094654DA6EABFA439B","title":"光明乳业配送中心","lon":"121.49222","lat":"31.22238","category":"117","category_name":"便民商店/便利店","address":""},{"poiid":"B2094654DA6EABFA4298","title":"复地雅园","lon":"121.49072","lat":"31.222973","category":"47","category_name":"住宅区","address":"上海市黄浦区昼锦路180弄8,9号"},{"poiid":"B2094654DB6BA4FA469F","title":"快客(复兴小区东南)","lon":"121.49222","lat":"31.22241","category":"117","category_name":"便民商店/便利店","address":"三牌楼路124"},{"poiid":"B2094757DA65A5F54092","title":"格林联盟（上海复兴东路外滩店）","lon":"121.491327882","lat":"31.221563961","category":"216","category_name":"经济型连锁酒店","address":"上海市黄浦区复兴东路702号(靠近河南南路)"},{"poiid":"B2094757D065A4FF449D","title":"韩林炭烤 香港名都店","lon":"121.48988","lat":"31.22201","category":"96","category_name":"韩国料理","address":"黄浦区河南南路495-519号香港名都商场L4楼02(复兴东路河南南路)"},{"poiid":"B2094757D169A2FF459A","title":"方浜中路","lon":"121.492808738","lat":"31.2200810838","category":"500","category_name":"未知分类","address":"上海黄浦区方浜中路"},{"poiid":"B2094654DA6EABFA429D","title":"复兴小区(南门)","lon":"121.49179","lat":"31.22218","category":"47","category_name":"住宅区","address":"复兴东路663弄1-7号"},{"poiid":"B2094654DA6EABFA4398","title":"新华书店(三牌楼路)","lon":"121.49223","lat":"31.22244","category":"125","category_name":"书店","address":"三牌楼路120-122号"},{"poiid":"B2094757D16FA3F4419A","title":"小桃园清真寺","lon":"121.49179","lat":"31.21861","category":"68","category_name":"快餐厅","address":"黄浦区小桃园街52号(近复兴东路)"},{"poiid":"B2094757D169A7FE4193","title":"城隍庙三牌楼路","lon":"121.49249267","lat":"31.2236557","category":"500","category_name":"未知分类","address":"上海城隍庙傣妹"},{"poiid":"B2094654DA6EA7FC4199","title":"良友金伴(复兴东路)","lon":"121.49408","lat":"31.22179","category":"117","category_name":"便民商店/便利店","address":"老西门"},{"poiid":"B2094757D16AA6F4429D","title":"寿宁路568龙虾","lon":"121.49166373","lat":"31.221715118","category":"500","category_name":"未知分类","address":"上海市黄浦区松雪街"},{"poiid":"B2094757D664A2FC4993","title":"六千馆","lon":"121.48975","lat":"31.22226","category":"76","category_name":"上海菜","address":"黄浦区河南南路489号香港名都5楼(近复兴东路)"},{"poiid":"B2094757D06FABFA419F","title":"复兴东路河南南路车站","lon":"121.49232423","lat":"31.222628338","category":"500","category_name":"未知分类","address":"上海黄浦区复兴东路河南南路，66路，980路，方川线，929路，969路，306路车站"},{"poiid":"B2094757D568A5FF479F","title":"金御红茶叶","lon":"121.4921799","lat":"31.22155409","category":"255","category_name":"专卖店","address":"复兴东路690号"},{"poiid":"B2094655D26FA5FF419F","title":"复兴小区","lon":"121.49194","lat":"31.222656","category":"47","category_name":"住宅区","address":"复兴东路663弄1-7号"},{"poiid":"B2094654DB69A7F8479D","title":"艾家小区","lon":"121.49362","lat":"31.22076","category":"47","category_name":"住宅区","address":"黄浦区西唐家弄113号"},{"poiid":"B2094654DB6AA1FD4992","title":"上海十六铺家具城城隍庙商厦","lon":"121.49404","lat":"31.22243","category":"119","category_name":"商场","address":"光启路204号"},{"poiid":"B2094654DA6EABFA4799","title":"开富休闲足沐","lon":"121.49297","lat":"31.22224","category":"149","category_name":"洗浴推拿场所","address":"复兴东路617临"},{"poiid":"B2094757D06FA3F9419A","title":"上海会馆","lon":"121.492239138","lat":"31.2239696667","category":"76","category_name":"上海菜","address":"黄浦区河南南路489号香港名都5楼(近复兴东路)"},{"poiid":"B2094757D06FA6F5469A","title":"鼎泰丰(豫园店)","lon":"121.492692816","lat":"31.2247337512","category":"68","category_name":"快餐厅","address":"黄浦区方浜中路168号豫城时尚内(近三牌楼路)"},{"poiid":"B2094757D06FA1FD4093","title":"健康煮(豫城店)","lon":"121.49303673","lat":"31.224846185","category":"86","category_name":"火锅店","address":"黄浦区方浜中路168号豫城时尚3楼(近三牌楼路)"},{"poiid":"B2094753D76FAAFA449C","title":"上海滩国泰旗舰店","lon":"121.466011","lat":"31.216125","category":"249","category_name":"购物服务","address":"淮海中路868号"},{"poiid":"B209475CD564A7F84292","title":"上海滩新天地店","lon":"121.47463","lat":"31.22164","category":"119","category_name":"商场","address":"\"太仓路181弄新天地北里15号\r\n\""},{"poiid":"B209475CD564A7F84392","title":"上海滩浦东香格里拉店","lon":"121.50058","lat":"31.23634","category":"119","category_name":"商场","address":"浦东富成路33号香格里拉酒店内大堂层"},{"poiid":"B2094757D069A7F44392","title":"南翔小笼","lon":"121.49280873","lat":"31.220081083","category":"247","category_name":"餐饮美食","address":"上海老城隍庙豫园路58号"},{"poiid":"B2094757D06FA1FF4693","title":"避风塘(豫园店)","lon":"121.492699","lat":"31.22484","category":"72","category_name":"广东菜","address":"黄浦区方浜中路168号豫城时尚3楼L3-01-02号商铺(近三牌楼路)"},{"poiid":"B2094757D568A6FF4598","title":"山海亭(复兴东路)","lon":"121.49009928","lat":"31.22246962","category":"268","category_name":"自助","address":"黄浦区河南南路489号香港名都4楼(近复兴东路)"},{"poiid":"B2094757D06BA7FF4193","title":"老西门国际青年旅舍","lon":"121.49243","lat":"31.21852","category":"216","category_name":"经济型连锁酒店","address":"黄浦区蓬莱路115号(近河南南路)"},{"poiid":"B2094757D66FA6FA4392","title":"新元素(西藏南路店)","lon":"121.489419","lat":"31.221615","category":"94","category_name":"西餐厅","address":"黄浦区西藏南路228号永银大厦6楼(桃源路西藏南路)"},{"poiid":"B2094757D06FA1F54199","title":"豫城时尚","lon":"121.4927","lat":"31.22486","category":"119","category_name":"商场","address":"黄浦区方浜中路168号豫龙坊内(近昼锦路)"},{"poiid":"B2094655D36CA6FF4299","title":"复兴东路光启路","lon":"121.49307","lat":"31.22185","category":"38","category_name":"公交车站","address":""},{"poiid":"B2094655D36CA7F94599","title":"河南南路复兴东路","lon":"121.48953","lat":"31.22242","category":"38","category_name":"公交车站","address":""},{"poiid":"B2094757D464A4FE469F","title":"燕太太燕窝 香港名都店","lon":"121.49009","lat":"31.22246","category":"67","category_name":"甜品店","address":"黄浦区河南南路489号香港名都1楼L125室(近复兴东路)"},{"poiid":"B2094757D068A5FB459D","title":"憨豆咖啡","lon":"121.48986773","lat":"31.22226513","category":"260","category_name":"其他","address":"黄浦区河南南路489号香港名都1楼(近复兴东路)"},{"poiid":"B2094752D769A0F44593","title":"城隍庙","lon":"121.492118","lat":"31.220313","category":"500","category_name":"未知分类","address":"上海市城隍庙"},{"poiid":"B2094757D069ABFE499C","title":"8号线人民广场站","lon":"121.494712738","lat":"31.2204060908","category":"500","category_name":"未知分类","address":"上海市人民广场"},{"poiid":"B2094655D36CA7F9459F","title":"河南南路文庙路","lon":"121.49068","lat":"31.22031","category":"38","category_name":"公交车站","address":""},{"poiid":"B2094757D068A6FE409C","title":"文庙商品街","lon":"121.494036","lat":"31.220354","category":"263","category_name":"公司","address":"上海市文庙路"},{"poiid":"B2094757D068A6FD449F","title":"味千拉面(豫龙坊店)","lon":"121.49305373","lat":"31.224894186","category":"95","category_name":"日本料理","address":"黄浦区方浜中路168号豫城时尚B1-17B室(近三牌楼路)"},{"poiid":"B2094750DA68A6F54893","title":"道顺射箭馆(黄浦)","lon":"121.4915","lat":"31.222013","category":"248","category_name":"生活娱乐","address":"黄浦区复兴东路699号3楼(近河南南路)"},{"poiid":"B2094757D168A1FF409D","title":"克莉丝汀(复兴东路店)","lon":"121.49251","lat":"31.22188","category":"112","category_name":"糕饼店","address":"黄浦区复兴东路643号(近三牌楼路)"},{"poiid":"B2094757DA65A5F4419E","title":"如家快捷酒店（上海外滩城隍庙店）","lon":"121.490711","lat":"31.222069","category":"216","category_name":"经济型连锁酒店","address":"上海市黄浦区复兴东路699号(近河南南路)"},{"poiid":"B2094757D06AA5FA409A","title":"大块头排挡","lon":"121.49559","lat":"31.22314","category":"76","category_name":"上海菜","address":"黄浦区四牌楼106号(学院路口)"},{"poiid":"B2094655D36CA6FF429F","title":"复兴东路豫园","lon":"121.49288","lat":"31.22187","category":"38","category_name":"公交车站","address":""},{"poiid":"B2094751D36AA5F8489E","title":"丰收日幸福家宴","lon":"121.49009","lat":"31.22246","category":"76","category_name":"上海菜","address":"黄浦区河南南路489号香港名都广场4楼(近复兴东路)"},{"poiid":"B2094757D16BAAF8429C","title":"永惠大厦","lon":"121.49333898869","lat":"31.222608612505","category":"252","category_name":"楼宇机构","address":"上海市黄浦区西藏南路775-779号"},{"poiid":"B2094655D36CA7F9459E","title":"河南南路蓬莱路","lon":"121.49098","lat":"31.21994","category":"38","category_name":"公交车站","address":""},{"poiid":"B2094757D064A3FF489B","title":"傣妹(豫园店)","lon":"121.49268","lat":"31.22336","category":"86","category_name":"火锅店","address":"黄浦区三牌楼路11号"},{"poiid":"B2094751D06EA2F94393","title":"老码头一号会所","lon":"121.4940999","lat":"31.2203573","category":"247","category_name":"餐饮美食","address":"中山南路479号"},{"poiid":"B2094654DA6EABFA439B","title":"光明乳业配送中心","lon":"121.49222","lat":"31.22238","category":"117","category_name":"便民商店/便利店","address":""},{"poiid":"B2094654DA6EABFA4298","title":"复地雅园","lon":"121.49072","lat":"31.222973","category":"47","category_name":"住宅区","address":"上海市黄浦区昼锦路180弄8,9号"},{"poiid":"B2094654DB6BA4FA469F","title":"快客(复兴小区东南)","lon":"121.49222","lat":"31.22241","category":"117","category_name":"便民商店/便利店","address":"三牌楼路124"},{"poiid":"B2094757DA65A5F54092","title":"格林联盟（上海复兴东路外滩店）","lon":"121.491327882","lat":"31.221563961","category":"216","category_name":"经济型连锁酒店","address":"上海市黄浦区复兴东路702号(靠近河南南路)"},{"poiid":"B2094757D065A4FF449D","title":"韩林炭烤 香港名都店","lon":"121.48988","lat":"31.22201","category":"96","category_name":"韩国料理","address":"黄浦区河南南路495-519号香港名都商场L4楼02(复兴东路河南南路)"},{"poiid":"B2094757D169A2FF459A","title":"方浜中路","lon":"121.492808738","lat":"31.2200810838","category":"500","category_name":"未知分类","address":"上海黄浦区方浜中路"},{"poiid":"B2094654DA6EABFA429D","title":"复兴小区(南门)","lon":"121.49179","lat":"31.22218","category":"47","category_name":"住宅区","address":"复兴东路663弄1-7号"},{"poiid":"B2094654DA6EABFA4398","title":"新华书店(三牌楼路)","lon":"121.49223","lat":"31.22244","category":"125","category_name":"书店","address":"三牌楼路120-122号"},{"poiid":"B2094757D16FA3F4419A","title":"小桃园清真寺","lon":"121.49179","lat":"31.21861","category":"68","category_name":"快餐厅","address":"黄浦区小桃园街52号(近复兴东路)"},{"poiid":"B2094757D169A7FE4193","title":"城隍庙三牌楼路","lon":"121.49249267","lat":"31.2236557","category":"500","category_name":"未知分类","address":"上海城隍庙傣妹"},{"poiid":"B2094654DA6EA7FC4199","title":"良友金伴(复兴东路)","lon":"121.49408","lat":"31.22179","category":"117","category_name":"便民商店/便利店","address":"老西门"},{"poiid":"B2094757D16AA6F4429D","title":"寿宁路568龙虾","lon":"121.49166373","lat":"31.221715118","category":"500","category_name":"未知分类","address":"上海市黄浦区松雪街"},{"poiid":"B2094757D664A2FC4993","title":"六千馆","lon":"121.48975","lat":"31.22226","category":"76","category_name":"上海菜","address":"黄浦区河南南路489号香港名都5楼(近复兴东路)"},{"poiid":"B2094757D06FABFA419F","title":"复兴东路河南南路车站","lon":"121.49232423","lat":"31.222628338","category":"500","category_name":"未知分类","address":"上海黄浦区复兴东路河南南路，66路，980路，方川线，929路，969路，306路车站"},{"poiid":"B2094757D568A5FF479F","title":"金御红茶叶","lon":"121.4921799","lat":"31.22155409","category":"255","category_name":"专卖店","address":"复兴东路690号"},{"poiid":"B2094655D26FA5FF419F","title":"复兴小区","lon":"121.49194","lat":"31.222656","category":"47","category_name":"住宅区","address":"复兴东路663弄1-7号"},{"poiid":"B2094654DB69A7F8479D","title":"艾家小区","lon":"121.49362","lat":"31.22076","category":"47","category_name":"住宅区","address":"黄浦区西唐家弄113号"},{"poiid":"B2094654DB6AA1FD4992","title":"上海十六铺家具城城隍庙商厦","lon":"121.49404","lat":"31.22243","category":"119","category_name":"商场","address":"光启路204号"},{"poiid":"B2094654DA6EABFA4799","title":"开富休闲足沐","lon":"121.49297","lat":"31.22224","category":"149","category_name":"洗浴推拿场所","address":"复兴东路617临"}]