[{"poiid":"B2094757D06FA1FA489A","title":"上海玻璃博物馆","lon":"121.46929904","lat":"31.345047099","category":"182","category_name":"博物馆","address":"宝山区长江西路685号(近钢四路)"},{"poiid":"B2094757D068A1F8439B","title":"上海宝诚中环店","lon":"121.4615131","lat":"31.339974877","category":"500","category_name":"未知分类","address":"上海市宝山区长江西路999号"},{"poiid":"B2094757D06FA0FE4392","title":"呼玛二村","lon":"121.455","lat":"31.348","category":"47","category_name":"住宅区","address":"上海呼玛二村"},{"poiid":"B2094757D06FA0FB449B","title":"通河二村","lon":"121.45710475911","lat":"31.341000419025","category":"47","category_name":"住宅区","address":"长江西路1568号"},{"poiid":"B2094655D36DA7F4499D","title":"泗塘新村","lon":"121.465","lat":"31.3372","category":"38","category_name":"公交车站","address":"上海宝山区长江西路"},{"poiid":"B2094654D469ABF9409F","title":"泗塘五村","lon":"121.466","lat":"31.3389","category":"47","category_name":"住宅区","address":"上海虎林路"},{"poiid":"B2094757D069AAFE419D","title":"永达福特4S店","lon":"121.46133","lat":"31.339723","category":"500","category_name":"未知分类","address":"宝山区长江西路977号(近江杨南路)"},{"poiid":"B2094654D46AA0FD4392","title":"泗塘一村小区","lon":"121.45582","lat":"31.33941","category":"47","category_name":"住宅区","address":"泗塘新村"},{"poiid":"B2094654D469ABF9469F","title":"泗塘四村小区","lon":"121.46002","lat":"31.3368","category":"47","category_name":"住宅区","address":""},{"poiid":"B2094654D469ABF84498","title":"泗塘二、三村小区","lon":"121.45567","lat":"31.335306","category":"47","category_name":"住宅区","address":"泗塘新村"},{"poiid":"B2094757D068A2F8479F","title":"富浩花苑","lon":"121.453779174","lat":"31.3445242076","category":"47","category_name":"住宅区","address":"上海市宝山区虎林路800弄"},{"poiid":"B2094757D069A4F94399","title":"喜阁亭(长江西路店)","lon":"121.45782","lat":"31.33712","category":"76","category_name":"上海菜","address":"宝山区长江西路1230号(近虎林路)"},{"poiid":"B2094655D36CA7FF4299","title":"呼玛一村","lon":"121.44975","lat":"31.341736","category":"38","category_name":"公交车站","address":"呼玛路爱辉路"},{"poiid":"B2094757D06FA6F94092","title":"85度C(虎林店)","lon":"121.458866","lat":"31.335496","category":"112","category_name":"糕饼店","address":"宝山区虎林路313号(近长江西路)"},{"poiid":"B2094654D56DA1FE489E","title":"泗塘七村","lon":"121.467","lat":"31.3364","category":"47","category_name":"住宅区","address":"虎林路58号"},{"poiid":"B2094655D36CA5F9439F","title":"长江西路江杨南路","lon":"121.46631","lat":"31.34127","category":"38","category_name":"公交车站","address":""},{"poiid":"B2094757D065A6FB409B","title":"上海二十一机动车安全检测站","lon":"121.460246","lat":"31.338679","category":"500","category_name":"未知分类","address":"上海长江西路1038号"},{"poiid":"B2094757D068AAFE469D","title":"泗塘二村","lon":"121.46104238731","lat":"31.339332167225","category":"47","category_name":"住宅区","address":"上海宝山区长江西路爱晖路"},{"poiid":"B2094757D06FA0F9479F","title":"泗塘一村","lon":"121.46240339826","lat":"31.345710773169","category":"500","category_name":"未知分类","address":"上海宝山区长江西路爱辉路"},{"poiid":"B2094757D06FA3F4419A","title":"张庙","lon":"121.45220947","lat":"31.336538314","category":"260","category_name":"其他","address":"上海宝山区"},{"poiid":"B2094757D068A7F8439B","title":"泗塘三村","lon":"121.461","lat":"31.3399","category":"252","category_name":"楼宇机构","address":"上海长江西路泗塘三村"},{"poiid":"B2094757D16FA6FB4392","title":"玉品轩私房菜","lon":"121.454689353","lat":"31.3407964444","category":"76","category_name":"上海菜","address":"宝山区虎林路611号(近呼玛路)"},{"poiid":"B2094654D469AAFC409B","title":"宝山钢铁股份有限公司冷轧薄板厂","lon":"121.46224","lat":"31.34715","category":"263","category_name":"公司","address":"江杨南路2288"},{"poiid":"B2094757D065A5F94093","title":"MG 4S店","lon":"121.4653621","lat":"31.338357843","category":"249","category_name":"购物服务","address":"上海市宝山区长江西路963号"},{"poiid":"B2094654DB64A5FE499F","title":"上海宝诚中环汽车销售服务有限公司","lon":"121.46093","lat":"31.33988","category":"158","category_name":"汽车销售","address":"长江西路999号"},{"poiid":"B2094757D06FABFE439F","title":"冷轧薄板厂酸洗车间","lon":"121.46160701","lat":"31.345430512","category":"500","category_name":"未知分类","address":"上海冷轧薄板厂酸洗车间"},{"poiid":"B2094757D168A4FE409C","title":"上海宝诚中环MINI展厅","lon":"121.4591511","lat":"31.339066858","category":"500","category_name":"未知分类","address":"上海长江西路999号"},{"poiid":"B2094757D06BA0FF489A","title":"丰泽大酒店","lon":"121.458836","lat":"31.338762","category":"76","category_name":"上海菜","address":"近郊金山区卫清西路168弄99号百联金山购物中心内(近松卫南路)"},{"poiid":"B2094757D16DA6FC489D","title":"一汽大众宝山店","lon":"121.464641103","lat":"31.3374038234","category":"500","category_name":"未知分类","address":"上海江扬南路"},{"poiid":"B2094654DB64A5FE499D","title":"上海威仕华凯汽车销售服务有限公司","lon":"121.46102","lat":"31.33991","category":"159","category_name":"汽车维修","address":"宝山区长江西路963号(近江杨南路)"},{"poiid":"B2094757D16DA5F84093","title":"锦腾一汽大众","lon":"121.459730103","lat":"31.3381618393","category":"500","category_name":"未知分类","address":"上海市宝山区江杨南路1706号"},{"poiid":"B2094757D768A5F44498","title":"来伊份 虎林路店","lon":"121.45606","lat":"31.34039","category":"68","category_name":"快餐厅","address":"宝山区虎林路526号联华超市(近呼玛路)"},{"poiid":"B2094655D26AA2F84498","title":"凡仔汉堡 虎林店","lon":"121.45622","lat":"31.33981","category":"68","category_name":"快餐厅","address":"宝山区虎林路514号(近长江西路)"},{"poiid":"B2094757DB69ABF9479B","title":"起亚4s店","lon":"121.4588661468888","lat":"31.34093124452078","category":"627","category_name":"一般地点标志","address":"长江西路968号"},{"poiid":"B2094655D36CA7FF419E","title":"虎林路呼玛路","lon":"121.45495","lat":"31.34264","category":"38","category_name":"公交车站","address":""},{"poiid":"B2094757D169A7FA419E","title":"上海大众特约维修中心长江西路4s店","lon":"121.4610371","lat":"31.339385864","category":"500","category_name":"未知分类","address":"上海ShanghaiBaoshanquHulin Rd"},{"poiid":"B2094751DA6EABFF499A","title":"宾利上海","lon":"121.463745","lat":"31.340881","category":"263","category_name":"公司","address":"长江西路935号"},{"poiid":"B2094654D469ABF9499B","title":"好德多超市长江西路店","lon":"121.45986","lat":"31.33876","category":"117","category_name":"便民商店/便利店","address":""},{"poiid":"B2094655D36CA7FF419C","title":"虎林路","lon":"121.45411","lat":"31.34433","category":"38","category_name":"公交车站","address":""},{"poiid":"B2094757D568A5FD479E","title":"天安幼儿园","lon":"121.46236491","lat":"31.33897298","category":"57","category_name":"幼儿园","address":"联长路325"},{"poiid":"B2094654D469ABF84799","title":"李氏面馆","lon":"121.45660268394","lat":"31.33889313992","category":"68","category_name":"快餐厅","address":"宝山区虎林路412号(近长江西路)"},{"poiid":"B2094654D469AAFC489B","title":"上海市虎林中学","lon":"121.4565","lat":"31.33979","category":"55","category_name":"中学","address":"宝山区虎林路565号(近泗塘电影院)"},{"poiid":"B2094757D06AA7FB459D","title":"宝钢不锈钢事业部","lon":"121.469065722","lat":"31.3482048173","category":"46","category_name":"楼宇","address":"上海不知"},{"poiid":"B2094757DA69A1FB489E","title":"上海威仕华凯_MG4S","lon":"121.4632042616","lat":"31.340500072808","category":"639","category_name":"汽车交通类公司","address":"长江西路963号"},{"poiid":"B2094654D469ABF9499C","title":"21上海机动车安全检测站","lon":"121.46024","lat":"31.33868","category":"250","category_name":"公园户外","address":"长江西路1038"},{"poiid":"B2094654D46AA0FD419A","title":"光明食品集团(虎林路)","lon":"121.45621","lat":"31.34038","category":"117","category_name":"便民商店/便利店","address":""},{"poiid":"B2094654D469AAFC4898","title":"上海新联百货商场","lon":"121.45606","lat":"31.3401","category":"119","category_name":"商场","address":"虎林路518号"},{"poiid":"B2094753D66EA0FF4999","title":"上海永达奥迪中环店","lon":"121.459876","lat":"31.339247","category":"639","category_name":"汽车交通类公司","address":"上海市宝山区长江西路1139号"},{"poiid":"B2094655D36DA6FE469C","title":"通河新村","lon":"121.459","lat":"31.3376","category":"47","category_name":"住宅区","address":"长江西路98弄"},{"poiid":"B2094654D46AA0FD429C","title":"快客NO.1288","lon":"121.45597","lat":"31.34027","category":"117","category_name":"便民商店/便利店","address":"虎林路520-1"},{"poiid":"B2094757D06FA1FA489A","title":"上海玻璃博物馆","lon":"121.46929904","lat":"31.345047099","category":"182","category_name":"博物馆","address":"宝山区长江西路685号(近钢四路)"},{"poiid":"B2094757D068A1F8439B","title":"上海宝诚中环店","lon":"121.4615131","lat":"31.339974877","category":"500","category_name":"未知分类","address":"上海市宝山区长江西路999号"},{"poiid":"B2094757D06FA0FE4392","title":"呼玛二村","lon":"121.455","lat":"31.348","category":"47","category_name":"住宅区","address":"上海呼玛二村"},{"poiid":"B2094757D06FA0FB449B","title":"通河二村","lon":"121.45710475911","lat":"31.341000419025","category":"47","category_name":"住宅区","address":"长江西路1568号"},{"poiid":"B2094655D36DA7F4499D","title":"泗塘新村","lon":"121.465","lat":"31.3372","category":"38","category_name":"公交车站","address":"上海宝山区长江西路"},{"poiid":"B2094654D469ABF9409F","title":"泗塘五村","lon":"121.466","lat":"31.3389","category":"47","category_name":"住宅区","address":"上海虎林路"},{"poiid":"B2094757D069AAFE419D","title":"永达福特4S店","lon":"121.46133","lat":"31.339723","category":"500","category_name":"未知分类","address":"宝山区长江西路977号(近江杨南路)"},{"poiid":"B2094654D46AA0FD4392","title":"泗塘一村小区","lon":"121.45582","lat":"31.33941","category":"47","category_name":"住宅区","address":"泗塘新村"},{"poiid":"B2094654D469ABF9469F","title":"泗塘四村小区","lon":"121.46002","lat":"31.3368","category":"47","category_name":"住宅区","address":""},{"poiid":"B2094654D469ABF84498","title":"泗塘二、三村小区","lon":"121.45567","lat":"31.335306","category":"47","category_name":"住宅区","address":"泗塘新村"},{"poiid":"B2094757D068A2F8479F","title":"富浩花苑","lon":"121.453779174","lat":"31.3445242076","category":"47","category_name":"住宅区","address":"上海市宝山区虎林路800弄"},{"poiid":"B2094757D069A4F94399","title":"喜阁亭(长江西路店)","lon":"121.45782","lat":"31.33712","category":"76","category_name":"上海菜","address":"宝山区长江西路1230号(近虎林路)"},{"poiid":"B2094655D36CA7FF4299","title":"呼玛一村","lon":"121.44975","lat":"31.341736","category":"38","category_name":"公交车站","address":"呼玛路爱辉路"},{"poiid":"B2094757D06FA6F94092","title":"85度C(虎林店)","lon":"121.458866","lat":"31.335496","category":"112","category_name":"糕饼店","address":"宝山区虎林路313号(近长江西路)"},{"poiid":"B2094654D56DA1FE489E","title":"泗塘七村","lon":"121.467","lat":"31.3364","category":"47","category_name":"住宅区","address":"虎林路58号"},{"poiid":"B2094655D36CA5F9439F","title":"长江西路江杨南路","lon":"121.46631","lat":"31.34127","category":"38","category_name":"公交车站","address":""},{"poiid":"B2094757D065A6FB409B","title":"上海二十一机动车安全检测站","lon":"121.460246","lat":"31.338679","category":"500","category_name":"未知分类","address":"上海长江西路1038号"},{"poiid":"B2094757D068AAFE469D","title":"泗塘二村","lon":"121.46104238731","lat":"31.339332167225","category":"47","category_name":"住宅区","address":"上海宝山区长江西路爱晖路"},{"poiid":"B2094757D06FA0F9479F","title":"泗塘一村","lon":"121.46240339826","lat":"31.345710773169","category":"500","category_name":"未知分类","address":"上海宝山区长江西路爱辉路"},{"poiid":"B2094757D06FA3F4419A","title":"张庙","lon":"121.45220947","lat":"31.336538314","category":"260","category_name":"其他","address":"上海宝山区"},{"poiid":"B2094757D068A7F8439B","title":"泗塘三村","lon":"121.461","lat":"31.3399","category":"252","category_name":"楼宇机构","address":"上海长江西路泗塘三村"},{"poiid":"B2094757D16FA6FB4392","title":"玉品轩私房菜","lon":"121.454689353","lat":"31.3407964444","category":"76","category_name":"上海菜","address":"宝山区虎林路611号(近呼玛路)"},{"poiid":"B2094654D469AAFC409B","title":"宝山钢铁股份有限公司冷轧薄板厂","lon":"121.46224","lat":"31.34715","category":"263","category_name":"公司","address":"江杨南路2288"},{"poiid":"B2094757D065A5F94093","title":"MG 4S店","lon":"121.4653621","lat":"31.338357843","category":"249","category_name":"购物服务","address":"上海市宝山区长江西路963号"},{"poiid":"B2094654DB64A5FE499F","title":"上海宝诚中环汽车销售服务有限公司","lon":"121.46093","lat":"31.33988","category":"158","category_name":"汽车销售","address":"长江西路999号"},{"poiid":"B2094757D06FABFE439F","title":"冷轧薄板厂酸洗车间","lon":"121.46160701","lat":"31.345430512","category":"500","category_name":"未知分类","address":"上海冷轧薄板厂酸洗车间"},{"poiid":"B2094757D168A4FE409C","title":"上海宝诚中环MINI展厅","lon":"121.4591511","lat":"31.339066858","category":"500","category_name":"未知分类","address":"上海长江西路999号"},{"poiid":"B2094757D06BA0FF489A","title":"丰泽大酒店","lon":"121.458836","lat":"31.338762","category":"76","category_name":"上海菜","address":"近郊金山区卫清西路168弄99号百联金山购物中心内(近松卫南路)"},{"poiid":"B2094757D16DA6FC489D","title":"一汽大众宝山店","lon":"121.464641103","lat":"31.3374038234","category":"500","category_name":"未知分类","address":"上海江扬南路"},{"poiid":"B2094654DB64A5FE499D","title":"上海威仕华凯汽车销售服务有限公司","lon":"121.46102","lat":"31.33991","category":"159","category_name":"汽车维修","address":"宝山区长江西路963号(近江杨南路)"},{"poiid":"B2094757D16DA5F84093","title":"锦腾一汽大众","lon":"121.459730103","lat":"31.3381618393","category":"500","category_name":"未知分类","address":"上海市宝山区江杨南路1706号"},{"poiid":"B2094757D768A5F44498","title":"来伊份 虎林路店","lon":"121.45606","lat":"31.34039","category":"68","category_name":"快餐厅","address":"宝山区虎林路526号联华超市(近呼玛路)"},{"poiid":"B2094655D26AA2F84498","title":"凡仔汉堡 虎林店","lon":"121.45622","lat":"31.33981","category":"68","category_name":"快餐厅","address":"宝山区虎林路514号(近长江西路)"},{"poiid":"B2094757DB69ABF9479B","title":"起亚4s店","lon":"121.4588661468888","lat":"31.34093124452078","category":"627","category_name":"一般地点标志","address":"长江西路968号"},{"poiid":"B2094655D36CA7FF419E","title":"虎林路呼玛路","lon":"121.45495","lat":"31.34264","category":"38","category_name":"公交车站","address":""},{"poiid":"B2094757D169A7FA419E","title":"上海大众特约维修中心长江西路4s店","lon":"121.4610371","lat":"31.339385864","category":"500","category_name":"未知分类","address":"上海ShanghaiBaoshanquHulin Rd"},{"poiid":"B2094751DA6EABFF499A","title":"宾利上海","lon":"121.463745","lat":"31.340881","category":"263","category_name":"公司","address":"长江西路935号"},{"poiid":"B2094654D469ABF9499B","title":"好德多超市长江西路店","lon":"121.45986","lat":"31.33876","category":"117","category_name":"便民商店/便利店","address":""},{"poiid":"B2094655D36CA7FF419C","title":"虎林路","lon":"121.45411","lat":"31.34433","category":"38","category_name":"公交车站","address":""},{"poiid":"B2094757D568A5FD479E","title":"天安幼儿园","lon":"121.46236491","lat":"31.33897298","category":"57","category_name":"幼儿园","address":"联长路325"},{"poiid":"B2094654D469ABF84799","title":"李氏面馆","lon":"121.45660268394","lat":"31.33889313992","category":"68","category_name":"快餐厅","address":"宝山区虎林路412号(近长江西路)"},{"poiid":"B2094654D469AAFC489B","title":"上海市虎林中学","lon":"121.4565","lat":"31.33979","category":"55","category_name":"中学","address":"宝山区虎林路565号(近泗塘电影院)"},{"poiid":"B2094757D06AA7FB459D","title":"宝钢不锈钢事业部","lon":"121.469065722","lat":"31.3482048173","category":"46","category_name":"楼宇","address":"上海不知"},{"poiid":"B2094757DA69A1FB489E","title":"上海威仕华凯_MG4S","lon":"121.4632042616","lat":"31.340500072808","category":"639","category_name":"汽车交通类公司","address":"长江西路963号"},{"poiid":"B2094654D469ABF9499C","title":"21上海机动车安全检测站","lon":"121.46024","lat":"31.33868","category":"250","category_name":"公园户外","address":"长江西路1038"},{"poiid":"B2094654D46AA0FD419A","title":"光明食品集团(虎林路)","lon":"121.45621","lat":"31.34038","category":"117","category_name":"便民商店/便利店","address":""},{"poiid":"B2094654D469AAFC4898","title":"上海新联百货商场","lon":"121.45606","lat":"31.3401","category":"119","category_name":"商场","address":"虎林路518号"},{"poiid":"B2094753D66EA0FF4999","title":"上海永达奥迪中环店","lon":"121.459876","lat":"31.339247","category":"639","category_name":"汽车交通类公司","address":"上海市宝山区长江西路1139号"},{"poiid":"B2094655D36DA6FE469C","title":"通河新村","lon":"121.459","lat":"31.3376","category":"47","category_name":"住宅区","address":"长江西路98弄"},{"poiid":"B2094654D46AA0FD429C","title":"快客NO.1288","lon":"121.45597","lat":"31.34027","category":"117","category_name":"便民商店/便利店","address":"虎林路520-1"},{"poiid":"B2094757D06FA1FA489A","title":"上海玻璃博物馆","lon":"121.46929904","lat":"31.345047099","category":"182","category_name":"博物馆","address":"宝山区长江西路685号(近钢四路)"},{"poiid":"B2094757D068A1F8439B","title":"上海宝诚中环店","lon":"121.4615131","lat":"31.339974877","category":"500","category_name":"未知分类","address":"上海市宝山区长江西路999号"},{"poiid":"B2094757D06FA0FE4392","title":"呼玛二村","lon":"121.455","lat":"31.348","category":"47","category_name":"住宅区","address":"上海呼玛二村"},{"poiid":"B2094757D06FA0FB449B","title":"通河二村","lon":"121.45710475911","lat":"31.341000419025","category":"47","category_name":"住宅区","address":"长江西路1568号"},{"poiid":"B2094655D36DA7F4499D","title":"泗塘新村","lon":"121.465","lat":"31.3372","category":"38","category_name":"公交车站","address":"上海宝山区长江西路"},{"poiid":"B2094654D469ABF9409F","title":"泗塘五村","lon":"121.466","lat":"31.3389","category":"47","category_name":"住宅区","address":"上海虎林路"},{"poiid":"B2094757D069AAFE419D","title":"永达福特4S店","lon":"121.46133","lat":"31.339723","category":"500","category_name":"未知分类","address":"宝山区长江西路977号(近江杨南路)"},{"poiid":"B2094654D46AA0FD4392","title":"泗塘一村小区","lon":"121.45582","lat":"31.33941","category":"47","category_name":"住宅区","address":"泗塘新村"},{"poiid":"B2094654D469ABF9469F","title":"泗塘四村小区","lon":"121.46002","lat":"31.3368","category":"47","category_name":"住宅区","address":""},{"poiid":"B2094654D469ABF84498","title":"泗塘二、三村小区","lon":"121.45567","lat":"31.335306","category":"47","category_name":"住宅区","address":"泗塘新村"},{"poiid":"B2094757D068A2F8479F","title":"富浩花苑","lon":"121.453779174","lat":"31.3445242076","category":"47","category_name":"住宅区","address":"上海市宝山区虎林路800弄"},{"poiid":"B2094757D069A4F94399","title":"喜阁亭(长江西路店)","lon":"121.45782","lat":"31.33712","category":"76","category_name":"上海菜","address":"宝山区长江西路1230号(近虎林路)"},{"poiid":"B2094655D36CA7FF4299","title":"呼玛一村","lon":"121.44975","lat":"31.341736","category":"38","category_name":"公交车站","address":"呼玛路爱辉路"},{"poiid":"B2094757D06FA6F94092","title":"85度C(虎林店)","lon":"121.458866","lat":"31.335496","category":"112","category_name":"糕饼店","address":"宝山区虎林路313号(近长江西路)"},{"poiid":"B2094654D56DA1FE489E","title":"泗塘七村","lon":"121.467","lat":"31.3364","category":"47","category_name":"住宅区","address":"虎林路58号"},{"poiid":"B2094655D36CA5F9439F","title":"长江西路江杨南路","lon":"121.46631","lat":"31.34127","category":"38","category_name":"公交车站","address":""},{"poiid":"B2094757D065A6FB409B","title":"上海二十一机动车安全检测站","lon":"121.460246","lat":"31.338679","category":"500","category_name":"未知分类","address":"上海长江西路1038号"},{"poiid":"B2094757D068AAFE469D","title":"泗塘二村","lon":"121.46104238731","lat":"31.339332167225","category":"47","category_name":"住宅区","address":"上海宝山区长江西路爱晖路"},{"poiid":"B2094757D06FA0F9479F","title":"泗塘一村","lon":"121.46240339826","lat":"31.345710773169","category":"500","category_name":"未知分类","address":"上海宝山区长江西路爱辉路"},{"poiid":"B2094757D06FA3F4419A","title":"张庙","lon":"121.45220947","lat":"31.336538314","category":"260","category_name":"其他","address":"上海宝山区"},{"poiid":"B2094757D068A7F8439B","title":"泗塘三村","lon":"121.461","lat":"31.3399","category":"252","category_name":"楼宇机构","address":"上海长江西路泗塘三村"},{"poiid":"B2094757D16FA6FB4392","title":"玉品轩私房菜","lon":"121.454689353","lat":"31.3407964444","category":"76","category_name":"上海菜","address":"宝山区虎林路611号(近呼玛路)"},{"poiid":"B2094654D469AAFC409B","title":"宝山钢铁股份有限公司冷轧薄板厂","lon":"121.46224","lat":"31.34715","category":"263","category_name":"公司","address":"江杨南路2288"},{"poiid":"B2094757D065A5F94093","title":"MG 4S店","lon":"121.4653621","lat":"31.338357843","category":"249","category_name":"购物服务","address":"上海市宝山区长江西路963号"},{"poiid":"B2094654DB64A5FE499F","title":"上海宝诚中环汽车销售服务有限公司","lon":"121.46093","lat":"31.33988","category":"158","category_name":"汽车销售","address":"长江西路999号"},{"poiid":"B2094757D06FABFE439F","title":"冷轧薄板厂酸洗车间","lon":"121.46160701","lat":"31.345430512","category":"500","category_name":"未知分类","address":"上海冷轧薄板厂酸洗车间"},{"poiid":"B2094757D168A4FE409C","title":"上海宝诚中环MINI展厅","lon":"121.4591511","lat":"31.339066858","category":"500","category_name":"未知分类","address":"上海长江西路999号"},{"poiid":"B2094757D06BA0FF489A","title":"丰泽大酒店","lon":"121.458836","lat":"31.338762","category":"76","category_name":"上海菜","address":"近郊金山区卫清西路168弄99号百联金山购物中心内(近松卫南路)"},{"poiid":"B2094757D16DA6FC489D","title":"一汽大众宝山店","lon":"121.464641103","lat":"31.3374038234","category":"500","category_name":"未知分类","address":"上海江扬南路"},{"poiid":"B2094654DB64A5FE499D","title":"上海威仕华凯汽车销售服务有限公司","lon":"121.46102","lat":"31.33991","category":"159","category_name":"汽车维修","address":"宝山区长江西路963号(近江杨南路)"},{"poiid":"B2094757D16DA5F84093","title":"锦腾一汽大众","lon":"121.459730103","lat":"31.3381618393","category":"500","category_name":"未知分类","address":"上海市宝山区江杨南路1706号"},{"poiid":"B2094757D768A5F44498","title":"来伊份 虎林路店","lon":"121.45606","lat":"31.34039","category":"68","category_name":"快餐厅","address":"宝山区虎林路526号联华超市(近呼玛路)"},{"poiid":"B2094655D26AA2F84498","title":"凡仔汉堡 虎林店","lon":"121.45622","lat":"31.33981","category":"68","category_name":"快餐厅","address":"宝山区虎林路514号(近长江西路)"},{"poiid":"B2094757DB69ABF9479B","title":"起亚4s店","lon":"121.4588661468888","lat":"31.34093124452078","category":"627","category_name":"一般地点标志","address":"长江西路968号"},{"poiid":"B2094655D36CA7FF419E","title":"虎林路呼玛路","lon":"121.45495","lat":"31.34264","category":"38","category_name":"公交车站","address":""},{"poiid":"B2094757D169A7FA419E","title":"上海大众特约维修中心长江西路4s店","lon":"121.4610371","lat":"31.339385864","category":"500","category_name":"未知分类","address":"上海ShanghaiBaoshanquHulin Rd"},{"poiid":"B2094751DA6EABFF499A","title":"宾利上海","lon":"121.463745","lat":"31.340881","category":"263","category_name":"公司","address":"长江西路935号"},{"poiid":"B2094654D469ABF9499B","title":"好德多超市长江西路店","lon":"121.45986","lat":"31.33876","category":"117","category_name":"便民商店/便利店","address":""},{"poiid":"B2094655D36CA7FF419C","title":"虎林路","lon":"121.45411","lat":"31.34433","category":"38","category_name":"公交车站","address":""},{"poiid":"B2094757D568A5FD479E","title":"天安幼儿园","lon":"121.46236491","lat":"31.33897298","category":"57","category_name":"幼儿园","address":"联长路325"},{"poiid":"B2094654D469ABF84799","title":"李氏面馆","lon":"121.45660268394","lat":"31.33889313992","category":"68","category_name":"快餐厅","address":"宝山区虎林路412号(近长江西路)"},{"poiid":"B2094654D469AAFC489B","title":"上海市虎林中学","lon":"121.4565","lat":"31.33979","category":"55","category_name":"中学","address":"宝山区虎林路565号(近泗塘电影院)"},{"poiid":"B2094757D06AA7FB459D","title":"宝钢不锈钢事业部","lon":"121.469065722","lat":"31.3482048173","category":"46","category_name":"楼宇","address":"上海不知"},{"poiid":"B2094757DA69A1FB489E","title":"上海威仕华凯_MG4S","lon":"121.4632042616","lat":"31.340500072808","category":"639","category_name":"汽车交通类公司","address":"长江西路963号"},{"poiid":"B2094654D469ABF9499C","title":"21上海机动车安全检测站","lon":"121.46024","lat":"31.33868","category":"250","category_name":"公园户外","address":"长江西路1038"},{"poiid":"B2094654D46AA0FD419A","title":"光明食品集团(虎林路)","lon":"121.45621","lat":"31.34038","category":"117","category_name":"便民商店/便利店","address":""},{"poiid":"B2094654D469AAFC4898","title":"上海新联百货商场","lon":"121.45606","lat":"31.3401","category":"119","category_name":"商场","address":"虎林路518号"},{"poiid":"B2094753D66EA0FF4999","title":"上海永达奥迪中环店","lon":"121.459876","lat":"31.339247","category":"639","category_name":"汽车交通类公司","address":"上海市宝山区长江西路1139号"},{"poiid":"B2094655D36DA6FE469C","title":"通河新村","lon":"121.459","lat":"31.3376","category":"47","category_name":"住宅区","address":"长江西路98弄"},{"poiid":"B2094654D46AA0FD429C","title":"快客NO.1288","lon":"121.45597","lat":"31.34027","category":"117","category_name":"便民商店/便利店","address":"虎林路520-1"},{"poiid":"B2094757D06FA1FA489A","title":"上海玻璃博物馆","lon":"121.46929904","lat":"31.345047099","category":"182","category_name":"博物馆","address":"宝山区长江西路685号(近钢四路)"},{"poiid":"B2094757D068A1F8439B","title":"上海宝诚中环店","lon":"121.4615131","lat":"31.339974877","category":"500","category_name":"未知分类","address":"上海市宝山区长江西路999号"},{"poiid":"B2094757D06FA0FE4392","title":"呼玛二村","lon":"121.455","lat":"31.348","category":"47","category_name":"住宅区","address":"上海呼玛二村"},{"poiid":"B2094757D06FA0FB449B","title":"通河二村","lon":"121.45710475911","lat":"31.341000419025","category":"47","category_name":"住宅区","address":"长江西路1568号"},{"poiid":"B2094655D36DA7F4499D","title":"泗塘新村","lon":"121.465","lat":"31.3372","category":"38","category_name":"公交车站","address":"上海宝山区长江西路"},{"poiid":"B2094654D469ABF9409F","title":"泗塘五村","lon":"121.466","lat":"31.3389","category":"47","category_name":"住宅区","address":"上海虎林路"},{"poiid":"B2094757D069AAFE419D","title":"永达福特4S店","lon":"121.46133","lat":"31.339723","category":"500","category_name":"未知分类","address":"宝山区长江西路977号(近江杨南路)"},{"poiid":"B2094654D46AA0FD4392","title":"泗塘一村小区","lon":"121.45582","lat":"31.33941","category":"47","category_name":"住宅区","address":"泗塘新村"},{"poiid":"B2094654D469ABF9469F","title":"泗塘四村小区","lon":"121.46002","lat":"31.3368","category":"47","category_name":"住宅区","address":""},{"poiid":"B2094654D469ABF84498","title":"泗塘二、三村小区","lon":"121.45567","lat":"31.335306","category":"47","category_name":"住宅区","address":"泗塘新村"},{"poiid":"B2094757D068A2F8479F","title":"富浩花苑","lon":"121.453779174","lat":"31.3445242076","category":"47","category_name":"住宅区","address":"上海市宝山区虎林路800弄"},{"poiid":"B2094757D069A4F94399","title":"喜阁亭(长江西路店)","lon":"121.45782","lat":"31.33712","category":"76","category_name":"上海菜","address":"宝山区长江西路1230号(近虎林路)"},{"poiid":"B2094655D36CA7FF4299","title":"呼玛一村","lon":"121.44975","lat":"31.341736","category":"38","category_name":"公交车站","address":"呼玛路爱辉路"},{"poiid":"B2094757D06FA6F94092","title":"85度C(虎林店)","lon":"121.458866","lat":"31.335496","category":"112","category_name":"糕饼店","address":"宝山区虎林路313号(近长江西路)"},{"poiid":"B2094654D56DA1FE489E","title":"泗塘七村","lon":"121.467","lat":"31.3364","category":"47","category_name":"住宅区","address":"虎林路58号"},{"poiid":"B2094655D36CA5F9439F","title":"长江西路江杨南路","lon":"121.46631","lat":"31.34127","category":"38","category_name":"公交车站","address":""},{"poiid":"B2094757D065A6FB409B","title":"上海二十一机动车安全检测站","lon":"121.460246","lat":"31.338679","category":"500","category_name":"未知分类","address":"上海长江西路1038号"},{"poiid":"B2094757D068AAFE469D","title":"泗塘二村","lon":"121.46104238731","lat":"31.339332167225","category":"47","category_name":"住宅区","address":"上海宝山区长江西路爱晖路"},{"poiid":"B2094757D06FA0F9479F","title":"泗塘一村","lon":"121.46240339826","lat":"31.345710773169","category":"500","category_name":"未知分类","address":"上海宝山区长江西路爱辉路"},{"poiid":"B2094757D06FA3F4419A","title":"张庙","lon":"121.45220947","lat":"31.336538314","category":"260","category_name":"其他","address":"上海宝山区"},{"poiid":"B2094757D068A7F8439B","title":"泗塘三村","lon":"121.461","lat":"31.3399","category":"252","category_name":"楼宇机构","address":"上海长江西路泗塘三村"},{"poiid":"B2094757D16FA6FB4392","title":"玉品轩私房菜","lon":"121.454689353","lat":"31.3407964444","category":"76","category_name":"上海菜","address":"宝山区虎林路611号(近呼玛路)"},{"poiid":"B2094654D469AAFC409B","title":"宝山钢铁股份有限公司冷轧薄板厂","lon":"121.46224","lat":"31.34715","category":"263","category_name":"公司","address":"江杨南路2288"},{"poiid":"B2094757D065A5F94093","title":"MG 4S店","lon":"121.4653621","lat":"31.338357843","category":"249","category_name":"购物服务","address":"上海市宝山区长江西路963号"},{"poiid":"B2094654DB64A5FE499F","title":"上海宝诚中环汽车销售服务有限公司","lon":"121.46093","lat":"31.33988","category":"158","category_name":"汽车销售","address":"长江西路999号"},{"poiid":"B2094757D06FABFE439F","title":"冷轧薄板厂酸洗车间","lon":"121.46160701","lat":"31.345430512","category":"500","category_name":"未知分类","address":"上海冷轧薄板厂酸洗车间"},{"poiid":"B2094757D168A4FE409C","title":"上海宝诚中环MINI展厅","lon":"121.4591511","lat":"31.339066858","category":"500","category_name":"未知分类","address":"上海长江西路999号"},{"poiid":"B2094757D06BA0FF489A","title":"丰泽大酒店","lon":"121.458836","lat":"31.338762","category":"76","category_name":"上海菜","address":"近郊金山区卫清西路168弄99号百联金山购物中心内(近松卫南路)"},{"poiid":"B2094757D16DA6FC489D","title":"一汽大众宝山店","lon":"121.464641103","lat":"31.3374038234","category":"500","category_name":"未知分类","address":"上海江扬南路"},{"poiid":"B2094654DB64A5FE499D","title":"上海威仕华凯汽车销售服务有限公司","lon":"121.46102","lat":"31.33991","category":"159","category_name":"汽车维修","address":"宝山区长江西路963号(近江杨南路)"},{"poiid":"B2094757D16DA5F84093","title":"锦腾一汽大众","lon":"121.459730103","lat":"31.3381618393","category":"500","category_name":"未知分类","address":"上海市宝山区江杨南路1706号"},{"poiid":"B2094757D768A5F44498","title":"来伊份 虎林路店","lon":"121.45606","lat":"31.34039","category":"68","category_name":"快餐厅","address":"宝山区虎林路526号联华超市(近呼玛路)"},{"poiid":"B2094655D26AA2F84498","title":"凡仔汉堡 虎林店","lon":"121.45622","lat":"31.33981","category":"68","category_name":"快餐厅","address":"宝山区虎林路514号(近长江西路)"},{"poiid":"B2094757DB69ABF9479B","title":"起亚4s店","lon":"121.4588661468888","lat":"31.34093124452078","category":"627","category_name":"一般地点标志","address":"长江西路968号"},{"poiid":"B2094655D36CA7FF419E","title":"虎林路呼玛路","lon":"121.45495","lat":"31.34264","category":"38","category_name":"公交车站","address":""},{"poiid":"B2094757D169A7FA419E","title":"上海大众特约维修中心长江西路4s店","lon":"121.4610371","lat":"31.339385864","category":"500","category_name":"未知分类","address":"上海ShanghaiBaoshanquHulin Rd"},{"poiid":"B2094751DA6EABFF499A","title":"宾利上海","lon":"121.463745","lat":"31.340881","category":"263","category_name":"公司","address":"长江西路935号"},{"poiid":"B2094654D469ABF9499B","title":"好德多超市长江西路店","lon":"121.45986","lat":"31.33876","category":"117","category_name":"便民商店/便利店","address":""},{"poiid":"B2094655D36CA7FF419C","title":"虎林路","lon":"121.45411","lat":"31.34433","category":"38","category_name":"公交车站","address":""},{"poiid":"B2094757D568A5FD479E","title":"天安幼儿园","lon":"121.46236491","lat":"31.33897298","category":"57","category_name":"幼儿园","address":"联长路325"},{"poiid":"B2094654D469ABF84799","title":"李氏面馆","lon":"121.45660268394","lat":"31.33889313992","category":"68","category_name":"快餐厅","address":"宝山区虎林路412号(近长江西路)"},{"poiid":"B2094654D469AAFC489B","title":"上海市虎林中学","lon":"121.4565","lat":"31.33979","category":"55","category_name":"中学","address":"宝山区虎林路565号(近泗塘电影院)"},{"poiid":"B2094757D06AA7FB459D","title":"宝钢不锈钢事业部","lon":"121.469065722","lat":"31.3482048173","category":"46","category_name":"楼宇","address":"上海不知"},{"poiid":"B2094757DA69A1FB489E","title":"上海威仕华凯_MG4S","lon":"121.4632042616","lat":"31.340500072808","category":"639","category_name":"汽车交通类公司","address":"长江西路963号"},{"poiid":"B2094654D469ABF9499C","title":"21上海机动车安全检测站","lon":"121.46024","lat":"31.33868","category":"250","category_name":"公园户外","address":"长江西路1038"},{"poiid":"B2094654D46AA0FD419A","title":"光明食品集团(虎林路)","lon":"121.45621","lat":"31.34038","category":"117","category_name":"便民商店/便利店","address":""},{"poiid":"B2094654D469AAFC4898","title":"上海新联百货商场","lon":"121.45606","lat":"31.3401","category":"119","category_name":"商场","address":"虎林路518号"},{"poiid":"B2094753D66EA0FF4999","title":"上海永达奥迪中环店","lon":"121.459876","lat":"31.339247","category":"639","category_name":"汽车交通类公司","address":"上海市宝山区长江西路1139号"},{"poiid":"B2094655D36DA6FE469C","title":"通河新村","lon":"121.459","lat":"31.3376","category":"47","category_name":"住宅区","address":"长江西路98弄"},{"poiid":"B2094654D46AA0FD429C","title":"快客NO.1288","lon":"121.45597","lat":"31.34027","category":"117","category_name":"便民商店/便利店","address":"虎林路520-1"}]