[{"poiid":"B2094655D36DA7F44992","title":"泗泾","lon":"121.27429","lat":"31.10866","category":"38","category_name":"公交车站","address":""},{"poiid":"B2094757D068A4FF409A","title":"松江钢材城","lon":"121.28397478","lat":"31.108853042","category":"123","category_name":"家具建材市场","address":"上海松江区泗泾镇泗砖路103号"},{"poiid":"B2094757D16BA2F5459E","title":"泗泾古镇","lon":"121.278487831","lat":"31.1102715986","category":"260","category_name":"其他","address":"上海松江"},{"poiid":"B2094654DA64A6F54592","title":"丽水豪庭","lon":"121.28366","lat":"31.113916","category":"47","category_name":"住宅区","address":"上海市松江区沪松公路2517弄"},{"poiid":"B2094654DA64A6F5459F","title":"丽茵别墅","lon":"121.296","lat":"31.1274","category":"47","category_name":"住宅区","address":"上海市松江区泗泾镇泗陈公路2弄358号"},{"poiid":"B2094757D064A3FB479F","title":"欢乐谷4D电影院","lon":"121.29806533","lat":"31.116317229","category":"178","category_name":"电影院","address":"欢乐谷上海滩内"},{"poiid":"B2094757D064A2FD4999","title":"长泰西郊别墅","lon":"121.292297","lat":"31.109041","category":"47","category_name":"住宅区","address":"松江区泗砖南路1500号"},{"poiid":"B209475DD56FA6F9469C","title":"泰晤士小镇","lon":"121.293526","lat":"31.114239","category":"250","category_name":"公园户外","address":"上海市 上海松江大学城"},{"poiid":"B2094655D36DA0FA4093","title":"叶家公路","lon":"121.29143","lat":"31.12184","category":"38","category_name":"公交车站","address":""},{"poiid":"B2094757D464A0F94992","title":"小咸亨","lon":"121.2837139959","lat":"31.117566597902","category":"75","category_name":"浙江菜","address":"松江区泗泾镇鼓浪路58号(沪松公路)"},{"poiid":"B2094751D368A3F8429F","title":"湘西部落","lon":"121.28337","lat":"31.11372","category":"77","category_name":"湖南菜","address":"松江区泗泾镇沪松公路2519弄2-6号(近泗泾老街)"},{"poiid":"B2094757D16AABFA4699","title":"佘山曼荼园别墅","lon":"121.295249431","lat":"31.1247159103","category":"47","category_name":"住宅区","address":"上海沈砖公路4777号"},{"poiid":"B2094654DA64A1F54399","title":"上海松江高科技园","lon":"121.30258","lat":"31.13141","category":"45","category_name":"产业园区","address":""},{"poiid":"B2094757D16FA5F5469D","title":"天雅村酒店(松江店)","lon":"121.27643","lat":"31.11559","category":"76","category_name":"上海菜","address":"松江区泗泾镇文化路227号(鼓浪路口)"},{"poiid":"B2094753D56DABFB4299","title":"泗泾五金城","lon":"121.294044","lat":"31.113128","category":"249","category_name":"购物服务","address":"上海市 。z"},{"poiid":"B2094757D66EA3F84692","title":"张施小区","lon":"121.29324283","lat":"31.108453559","category":"47","category_name":"住宅区","address":"上海长施公路398弄"},{"poiid":"B2094753D56FA1FB409C","title":"玛雅海滩水公园","lon":"121.284721","lat":"31.116203","category":"500","category_name":"未知分类","address":"上海市 上海市松江区"},{"poiid":"B2094654DA64A7FC4199","title":"流动人口居住中心","lon":"121.2934","lat":"31.111315","category":"47","category_name":"住宅区","address":"长施路116号"},{"poiid":"B2094654DA64A6F9489A","title":"会波苑小区","lon":"121.289","lat":"31.1227","category":"47","category_name":"住宅区","address":"鼓浪路57号"},{"poiid":"B2094750D269A0FC449E","title":"凯德龙之梦（莘庄店）","lon":"121.28688","lat":"31.111957","category":"500","category_name":"未知分类","address":null},{"poiid":"B2094757D16FA4F5429C","title":"啊玺屋企!","lon":"121.284937598","lat":"31.116389664","category":"247","category_name":"餐饮美食","address":"上海鼓浪路"},{"poiid":"B2094757D164A1FC479D","title":"国际食品城","lon":"121.29677","lat":"31.12469","category":"500","category_name":"未知分类","address":"松江区沪松公路2101号(望东北路口)"},{"poiid":"B2094757D16CAAF5499A","title":"天喔食品","lon":"121.28992049","lat":"31.122074853","category":"500","category_name":"未知分类","address":"上海松江区泗泾镇九干路165号"},{"poiid":"B2094757D06AABFB409D","title":"同润菲诗艾伦","lon":"121.287","lat":"31.1234","category":"249","category_name":"购物服务","address":"上海松江区古楼公路1198弄"},{"poiid":"B2094654DA64A6F94899","title":"快客NO.6283","lon":"121.28316","lat":"31.11687","category":"117","category_name":"便民商店/便利店","address":"泗泾镇"},{"poiid":"B2094757D66CA5FC439D","title":"九亭连富路","lon":"121.306948","lat":"31.114726","category":"500","category_name":"未知分类","address":"上海松江九亭连富路"},{"poiid":"B2094757D069A4FA4092","title":"保利十二橡树庄园","lon":"121.296","lat":"31.0993","category":"500","category_name":"未知分类","address":"上海市松江区莘砖公路3118弄"},{"poiid":"B2094654DA64A0F54698","title":"上海沪松海鲜港","lon":"121.28374","lat":"31.11129","category":"88","category_name":"海鲜酒楼","address":"泗泾镇"},{"poiid":"B2094757D169A6FE489D","title":"上海大造气雾剂有限公司","lon":"121.29123383","lat":"31.122574864","category":"263","category_name":"公司","address":"上海市松江区泗泾东部工业区望东中路135号"},{"poiid":"B2094654DA64A7FC499B","title":"上海骏源塑胶有限公司","lon":"121.29016","lat":"31.11109","category":"263","category_name":"公司","address":"长施路303号"},{"poiid":"B2094655D265A6F5469A","title":"泗泾颐景园","lon":"121.28695530166","lat":"31.126735800072","category":"47","category_name":"住宅区","address":"泗陈公路518弄"},{"poiid":"B2094757D66FA1F4499B","title":"泗泾福音堂","lon":"121.283400831","lat":"31.1154507104","category":"500","category_name":"未知分类","address":"上海市松江区泗泾镇开江东路"},{"poiid":"B2094757D06BA3FE409D","title":"九亭鎮-英國會別墅","lon":"121.310258","lat":"31.124811","category":"500","category_name":"未知分类","address":"上海九亭大街1382弄-靠近滬松公路。"},{"poiid":"B2094757D169A6FD419B","title":"泗泾良佳会所","lon":"121.282635831","lat":"31.1212458354","category":"500","category_name":"未知分类","address":"上海泗泾镇鼓浪路88号"},{"poiid":"B2094654DA64A5FC4592","title":"上海冠达纺织制造有限公司","lon":"121.30035","lat":"31.11642","category":"263","category_name":"公司","address":""},{"poiid":"B2094654DA64A6F9469E","title":"名角女士生活馆(上海邹氏食品有限公司东南)","lon":"121.28115","lat":"31.11644","category":"148","category_name":"美容美发店","address":""},{"poiid":"B2094757D16EA3FB4392","title":"上岛咖啡泗泾五金城店","lon":"121.280029","lat":"31.112779","category":"65","category_name":"咖啡厅","address":"松江区沪松公路2517弄泗泾五金城32-33号2楼"},{"poiid":"B2094757D16AA2FF469B","title":"泗泾医院","lon":"121.27336283","lat":"31.112432645","category":"162","category_name":"医院","address":"松江区泗泾镇江川北路108号(近泗泾老街)"},{"poiid":"B2094654DA64A6F44799","title":"俊爵假日酒店泗泾店(保利华宾馆西)","lon":"121.29388","lat":"31.12586","category":"250","category_name":"公园户外","address":""},{"poiid":"B2094654DA64A5FC459E","title":"上海上虹实业公司工业小区","lon":"121.30091","lat":"31.11941","category":"263","category_name":"公司","address":"得心路69号"},{"poiid":"B2094757D165A1FF429E","title":"松江四中","lon":"121.279143091","lat":"31.1099784023","category":"55","category_name":"中学","address":"松江区泗泾镇开江东路子192弄11号"},{"poiid":"B2094757D568A4F4499A","title":"新南丽都","lon":"121.2793","lat":"31.109119","category":"47","category_name":"住宅区","address":"上海市松江区沪松公路2749弄"},{"poiid":"B2094757D16EA6FF429C","title":"上海华氏大药房有限公司鼓浪路药房","lon":"121.28195583","lat":"31.11684074","category":"500","category_name":"未知分类","address":"上海市松江区鼓浪路131-133号"},{"poiid":"B2094757D168A4F4479C","title":"悦豪大酒店","lon":"121.277993663","lat":"31.1124963374","category":"76","category_name":"上海菜","address":"松江区泗泾镇鼓浪路508号"},{"poiid":"B2094655D26EAAFE4899","title":"美鹭海鲜大酒楼","lon":"121.28468","lat":"31.10571","category":"260","category_name":"其他","address":"松江区泗泾镇泗砖公路99弄1号A幢"},{"poiid":"B2094757D66EA5F9499C","title":"威乐","lon":"121.30422448","lat":"31.114377437","category":"500","category_name":"未知分类","address":"上海松江久富经济区"},{"poiid":"B2094757D168A4F8419B","title":"泗泾镇人民政府","lon":"121.27498883","lat":"31.116565734","category":"500","category_name":"未知分类","address":"上海市松江区泗泾镇人民路1号"},{"poiid":"B2094654DA64A5FC469D","title":"上海松申水环境净化有限公司","lon":"121.302","lat":"31.12019","category":"263","category_name":"公司","address":""},{"poiid":"B2094654DA64A0FC4599","title":"江南重工股份有限公司金属结构件车间","lon":"121.29527","lat":"31.12609","category":"263","category_name":"公司","address":"九干路50"},{"poiid":"B2094654DA64A6F94698","title":"松江区人民法院泗泾人民法庭","lon":"121.28068","lat":"31.11633","category":"252","category_name":"楼宇机构","address":"鼓浪路181"},{"poiid":"B2094655D36DA7F44992","title":"泗泾","lon":"121.27429","lat":"31.10866","category":"38","category_name":"公交车站","address":""},{"poiid":"B2094757D068A4FF409A","title":"松江钢材城","lon":"121.28397478","lat":"31.108853042","category":"123","category_name":"家具建材市场","address":"上海松江区泗泾镇泗砖路103号"},{"poiid":"B2094757D16BA2F5459E","title":"泗泾古镇","lon":"121.278487831","lat":"31.1102715986","category":"260","category_name":"其他","address":"上海松江"},{"poiid":"B2094654DA64A6F54592","title":"丽水豪庭","lon":"121.28366","lat":"31.113916","category":"47","category_name":"住宅区","address":"上海市松江区沪松公路2517弄"},{"poiid":"B2094654DA64A6F5459F","title":"丽茵别墅","lon":"121.296","lat":"31.1274","category":"47","category_name":"住宅区","address":"上海市松江区泗泾镇泗陈公路2弄358号"},{"poiid":"B2094757D064A3FB479F","title":"欢乐谷4D电影院","lon":"121.29806533","lat":"31.116317229","category":"178","category_name":"电影院","address":"欢乐谷上海滩内"},{"poiid":"B2094757D064A2FD4999","title":"长泰西郊别墅","lon":"121.292297","lat":"31.109041","category":"47","category_name":"住宅区","address":"松江区泗砖南路1500号"},{"poiid":"B209475DD56FA6F9469C","title":"泰晤士小镇","lon":"121.293526","lat":"31.114239","category":"250","category_name":"公园户外","address":"上海市 上海松江大学城"},{"poiid":"B2094655D36DA0FA4093","title":"叶家公路","lon":"121.29143","lat":"31.12184","category":"38","category_name":"公交车站","address":""},{"poiid":"B2094757D464A0F94992","title":"小咸亨","lon":"121.2837139959","lat":"31.117566597902","category":"75","category_name":"浙江菜","address":"松江区泗泾镇鼓浪路58号(沪松公路)"},{"poiid":"B2094751D368A3F8429F","title":"湘西部落","lon":"121.28337","lat":"31.11372","category":"77","category_name":"湖南菜","address":"松江区泗泾镇沪松公路2519弄2-6号(近泗泾老街)"},{"poiid":"B2094757D16AABFA4699","title":"佘山曼荼园别墅","lon":"121.295249431","lat":"31.1247159103","category":"47","category_name":"住宅区","address":"上海沈砖公路4777号"},{"poiid":"B2094654DA64A1F54399","title":"上海松江高科技园","lon":"121.30258","lat":"31.13141","category":"45","category_name":"产业园区","address":""},{"poiid":"B2094757D16FA5F5469D","title":"天雅村酒店(松江店)","lon":"121.27643","lat":"31.11559","category":"76","category_name":"上海菜","address":"松江区泗泾镇文化路227号(鼓浪路口)"},{"poiid":"B2094753D56DABFB4299","title":"泗泾五金城","lon":"121.294044","lat":"31.113128","category":"249","category_name":"购物服务","address":"上海市 。z"},{"poiid":"B2094757D66EA3F84692","title":"张施小区","lon":"121.29324283","lat":"31.108453559","category":"47","category_name":"住宅区","address":"上海长施公路398弄"},{"poiid":"B2094753D56FA1FB409C","title":"玛雅海滩水公园","lon":"121.284721","lat":"31.116203","category":"500","category_name":"未知分类","address":"上海市 上海市松江区"},{"poiid":"B2094654DA64A7FC4199","title":"流动人口居住中心","lon":"121.2934","lat":"31.111315","category":"47","category_name":"住宅区","address":"长施路116号"},{"poiid":"B2094654DA64A6F9489A","title":"会波苑小区","lon":"121.289","lat":"31.1227","category":"47","category_name":"住宅区","address":"鼓浪路57号"},{"poiid":"B2094750D269A0FC449E","title":"凯德龙之梦（莘庄店）","lon":"121.28688","lat":"31.111957","category":"500","category_name":"未知分类","address":null},{"poiid":"B2094757D16FA4F5429C","title":"啊玺屋企!","lon":"121.284937598","lat":"31.116389664","category":"247","category_name":"餐饮美食","address":"上海鼓浪路"},{"poiid":"B2094757D164A1FC479D","title":"国际食品城","lon":"121.29677","lat":"31.12469","category":"500","category_name":"未知分类","address":"松江区沪松公路2101号(望东北路口)"},{"poiid":"B2094757D16CAAF5499A","title":"天喔食品","lon":"121.28992049","lat":"31.122074853","category":"500","category_name":"未知分类","address":"上海松江区泗泾镇九干路165号"},{"poiid":"B2094757D06AABFB409D","title":"同润菲诗艾伦","lon":"121.287","lat":"31.1234","category":"249","category_name":"购物服务","address":"上海松江区古楼公路1198弄"},{"poiid":"B2094654DA64A6F94899","title":"快客NO.6283","lon":"121.28316","lat":"31.11687","category":"117","category_name":"便民商店/便利店","address":"泗泾镇"},{"poiid":"B2094757D66CA5FC439D","title":"九亭连富路","lon":"121.306948","lat":"31.114726","category":"500","category_name":"未知分类","address":"上海松江九亭连富路"},{"poiid":"B2094757D069A4FA4092","title":"保利十二橡树庄园","lon":"121.296","lat":"31.0993","category":"500","category_name":"未知分类","address":"上海市松江区莘砖公路3118弄"},{"poiid":"B2094654DA64A0F54698","title":"上海沪松海鲜港","lon":"121.28374","lat":"31.11129","category":"88","category_name":"海鲜酒楼","address":"泗泾镇"},{"poiid":"B2094757D169A6FE489D","title":"上海大造气雾剂有限公司","lon":"121.29123383","lat":"31.122574864","category":"263","category_name":"公司","address":"上海市松江区泗泾东部工业区望东中路135号"},{"poiid":"B2094654DA64A7FC499B","title":"上海骏源塑胶有限公司","lon":"121.29016","lat":"31.11109","category":"263","category_name":"公司","address":"长施路303号"},{"poiid":"B2094655D265A6F5469A","title":"泗泾颐景园","lon":"121.28695530166","lat":"31.126735800072","category":"47","category_name":"住宅区","address":"泗陈公路518弄"},{"poiid":"B2094757D66FA1F4499B","title":"泗泾福音堂","lon":"121.283400831","lat":"31.1154507104","category":"500","category_name":"未知分类","address":"上海市松江区泗泾镇开江东路"},{"poiid":"B2094757D06BA3FE409D","title":"九亭鎮-英國會別墅","lon":"121.310258","lat":"31.124811","category":"500","category_name":"未知分类","address":"上海九亭大街1382弄-靠近滬松公路。"},{"poiid":"B2094757D169A6FD419B","title":"泗泾良佳会所","lon":"121.282635831","lat":"31.1212458354","category":"500","category_name":"未知分类","address":"上海泗泾镇鼓浪路88号"},{"poiid":"B2094654DA64A5FC4592","title":"上海冠达纺织制造有限公司","lon":"121.30035","lat":"31.11642","category":"263","category_name":"公司","address":""},{"poiid":"B2094654DA64A6F9469E","title":"名角女士生活馆(上海邹氏食品有限公司东南)","lon":"121.28115","lat":"31.11644","category":"148","category_name":"美容美发店","address":""},{"poiid":"B2094757D16EA3FB4392","title":"上岛咖啡泗泾五金城店","lon":"121.280029","lat":"31.112779","category":"65","category_name":"咖啡厅","address":"松江区沪松公路2517弄泗泾五金城32-33号2楼"},{"poiid":"B2094757D16AA2FF469B","title":"泗泾医院","lon":"121.27336283","lat":"31.112432645","category":"162","category_name":"医院","address":"松江区泗泾镇江川北路108号(近泗泾老街)"},{"poiid":"B2094654DA64A6F44799","title":"俊爵假日酒店泗泾店(保利华宾馆西)","lon":"121.29388","lat":"31.12586","category":"250","category_name":"公园户外","address":""},{"poiid":"B2094654DA64A5FC459E","title":"上海上虹实业公司工业小区","lon":"121.30091","lat":"31.11941","category":"263","category_name":"公司","address":"得心路69号"},{"poiid":"B2094757D165A1FF429E","title":"松江四中","lon":"121.279143091","lat":"31.1099784023","category":"55","category_name":"中学","address":"松江区泗泾镇开江东路子192弄11号"},{"poiid":"B2094757D568A4F4499A","title":"新南丽都","lon":"121.2793","lat":"31.109119","category":"47","category_name":"住宅区","address":"上海市松江区沪松公路2749弄"},{"poiid":"B2094757D16EA6FF429C","title":"上海华氏大药房有限公司鼓浪路药房","lon":"121.28195583","lat":"31.11684074","category":"500","category_name":"未知分类","address":"上海市松江区鼓浪路131-133号"},{"poiid":"B2094757D168A4F4479C","title":"悦豪大酒店","lon":"121.277993663","lat":"31.1124963374","category":"76","category_name":"上海菜","address":"松江区泗泾镇鼓浪路508号"},{"poiid":"B2094655D26EAAFE4899","title":"美鹭海鲜大酒楼","lon":"121.28468","lat":"31.10571","category":"260","category_name":"其他","address":"松江区泗泾镇泗砖公路99弄1号A幢"},{"poiid":"B2094757D66EA5F9499C","title":"威乐","lon":"121.30422448","lat":"31.114377437","category":"500","category_name":"未知分类","address":"上海松江久富经济区"},{"poiid":"B2094757D168A4F8419B","title":"泗泾镇人民政府","lon":"121.27498883","lat":"31.116565734","category":"500","category_name":"未知分类","address":"上海市松江区泗泾镇人民路1号"},{"poiid":"B2094654DA64A5FC469D","title":"上海松申水环境净化有限公司","lon":"121.302","lat":"31.12019","category":"263","category_name":"公司","address":""},{"poiid":"B2094654DA64A0FC4599","title":"江南重工股份有限公司金属结构件车间","lon":"121.29527","lat":"31.12609","category":"263","category_name":"公司","address":"九干路50"},{"poiid":"B2094654DA64A6F94698","title":"松江区人民法院泗泾人民法庭","lon":"121.28068","lat":"31.11633","category":"252","category_name":"楼宇机构","address":"鼓浪路181"},{"poiid":"B2094655D36DA7F44992","title":"泗泾","lon":"121.27429","lat":"31.10866","category":"38","category_name":"公交车站","address":""},{"poiid":"B2094757D068A4FF409A","title":"松江钢材城","lon":"121.28397478","lat":"31.108853042","category":"123","category_name":"家具建材市场","address":"上海松江区泗泾镇泗砖路103号"},{"poiid":"B2094757D16BA2F5459E","title":"泗泾古镇","lon":"121.278487831","lat":"31.1102715986","category":"260","category_name":"其他","address":"上海松江"},{"poiid":"B2094654DA64A6F54592","title":"丽水豪庭","lon":"121.28366","lat":"31.113916","category":"47","category_name":"住宅区","address":"上海市松江区沪松公路2517弄"},{"poiid":"B2094654DA64A6F5459F","title":"丽茵别墅","lon":"121.296","lat":"31.1274","category":"47","category_name":"住宅区","address":"上海市松江区泗泾镇泗陈公路2弄358号"},{"poiid":"B2094757D064A3FB479F","title":"欢乐谷4D电影院","lon":"121.29806533","lat":"31.116317229","category":"178","category_name":"电影院","address":"欢乐谷上海滩内"},{"poiid":"B2094757D064A2FD4999","title":"长泰西郊别墅","lon":"121.292297","lat":"31.109041","category":"47","category_name":"住宅区","address":"松江区泗砖南路1500号"},{"poiid":"B209475DD56FA6F9469C","title":"泰晤士小镇","lon":"121.293526","lat":"31.114239","category":"250","category_name":"公园户外","address":"上海市 上海松江大学城"},{"poiid":"B2094655D36DA0FA4093","title":"叶家公路","lon":"121.29143","lat":"31.12184","category":"38","category_name":"公交车站","address":""},{"poiid":"B2094757D464A0F94992","title":"小咸亨","lon":"121.2837139959","lat":"31.117566597902","category":"75","category_name":"浙江菜","address":"松江区泗泾镇鼓浪路58号(沪松公路)"},{"poiid":"B2094751D368A3F8429F","title":"湘西部落","lon":"121.28337","lat":"31.11372","category":"77","category_name":"湖南菜","address":"松江区泗泾镇沪松公路2519弄2-6号(近泗泾老街)"},{"poiid":"B2094757D16AABFA4699","title":"佘山曼荼园别墅","lon":"121.295249431","lat":"31.1247159103","category":"47","category_name":"住宅区","address":"上海沈砖公路4777号"},{"poiid":"B2094654DA64A1F54399","title":"上海松江高科技园","lon":"121.30258","lat":"31.13141","category":"45","category_name":"产业园区","address":""},{"poiid":"B2094757D16FA5F5469D","title":"天雅村酒店(松江店)","lon":"121.27643","lat":"31.11559","category":"76","category_name":"上海菜","address":"松江区泗泾镇文化路227号(鼓浪路口)"},{"poiid":"B2094753D56DABFB4299","title":"泗泾五金城","lon":"121.294044","lat":"31.113128","category":"249","category_name":"购物服务","address":"上海市 。z"},{"poiid":"B2094757D66EA3F84692","title":"张施小区","lon":"121.29324283","lat":"31.108453559","category":"47","category_name":"住宅区","address":"上海长施公路398弄"},{"poiid":"B2094753D56FA1FB409C","title":"玛雅海滩水公园","lon":"121.284721","lat":"31.116203","category":"500","category_name":"未知分类","address":"上海市 上海市松江区"},{"poiid":"B2094654DA64A7FC4199","title":"流动人口居住中心","lon":"121.2934","lat":"31.111315","category":"47","category_name":"住宅区","address":"长施路116号"},{"poiid":"B2094654DA64A6F9489A","title":"会波苑小区","lon":"121.289","lat":"31.1227","category":"47","category_name":"住宅区","address":"鼓浪路57号"},{"poiid":"B2094750D269A0FC449E","title":"凯德龙之梦（莘庄店）","lon":"121.28688","lat":"31.111957","category":"500","category_name":"未知分类","address":null},{"poiid":"B2094757D16FA4F5429C","title":"啊玺屋企!","lon":"121.284937598","lat":"31.116389664","category":"247","category_name":"餐饮美食","address":"上海鼓浪路"},{"poiid":"B2094757D164A1FC479D","title":"国际食品城","lon":"121.29677","lat":"31.12469","category":"500","category_name":"未知分类","address":"松江区沪松公路2101号(望东北路口)"},{"poiid":"B2094757D16CAAF5499A","title":"天喔食品","lon":"121.28992049","lat":"31.122074853","category":"500","category_name":"未知分类","address":"上海松江区泗泾镇九干路165号"},{"poiid":"B2094757D06AABFB409D","title":"同润菲诗艾伦","lon":"121.287","lat":"31.1234","category":"249","category_name":"购物服务","address":"上海松江区古楼公路1198弄"},{"poiid":"B2094654DA64A6F94899","title":"快客NO.6283","lon":"121.28316","lat":"31.11687","category":"117","category_name":"便民商店/便利店","address":"泗泾镇"},{"poiid":"B2094757D66CA5FC439D","title":"九亭连富路","lon":"121.306948","lat":"31.114726","category":"500","category_name":"未知分类","address":"上海松江九亭连富路"},{"poiid":"B2094757D069A4FA4092","title":"保利十二橡树庄园","lon":"121.296","lat":"31.0993","category":"500","category_name":"未知分类","address":"上海市松江区莘砖公路3118弄"},{"poiid":"B2094654DA64A0F54698","title":"上海沪松海鲜港","lon":"121.28374","lat":"31.11129","category":"88","category_name":"海鲜酒楼","address":"泗泾镇"},{"poiid":"B2094757D169A6FE489D","title":"上海大造气雾剂有限公司","lon":"121.29123383","lat":"31.122574864","category":"263","category_name":"公司","address":"上海市松江区泗泾东部工业区望东中路135号"},{"poiid":"B2094654DA64A7FC499B","title":"上海骏源塑胶有限公司","lon":"121.29016","lat":"31.11109","category":"263","category_name":"公司","address":"长施路303号"},{"poiid":"B2094655D265A6F5469A","title":"泗泾颐景园","lon":"121.28695530166","lat":"31.126735800072","category":"47","category_name":"住宅区","address":"泗陈公路518弄"},{"poiid":"B2094757D66FA1F4499B","title":"泗泾福音堂","lon":"121.283400831","lat":"31.1154507104","category":"500","category_name":"未知分类","address":"上海市松江区泗泾镇开江东路"},{"poiid":"B2094757D06BA3FE409D","title":"九亭鎮-英國會別墅","lon":"121.310258","lat":"31.124811","category":"500","category_name":"未知分类","address":"上海九亭大街1382弄-靠近滬松公路。"},{"poiid":"B2094757D169A6FD419B","title":"泗泾良佳会所","lon":"121.282635831","lat":"31.1212458354","category":"500","category_name":"未知分类","address":"上海泗泾镇鼓浪路88号"},{"poiid":"B2094654DA64A5FC4592","title":"上海冠达纺织制造有限公司","lon":"121.30035","lat":"31.11642","category":"263","category_name":"公司","address":""},{"poiid":"B2094654DA64A6F9469E","title":"名角女士生活馆(上海邹氏食品有限公司东南)","lon":"121.28115","lat":"31.11644","category":"148","category_name":"美容美发店","address":""},{"poiid":"B2094757D16EA3FB4392","title":"上岛咖啡泗泾五金城店","lon":"121.280029","lat":"31.112779","category":"65","category_name":"咖啡厅","address":"松江区沪松公路2517弄泗泾五金城32-33号2楼"},{"poiid":"B2094757D16AA2FF469B","title":"泗泾医院","lon":"121.27336283","lat":"31.112432645","category":"162","category_name":"医院","address":"松江区泗泾镇江川北路108号(近泗泾老街)"},{"poiid":"B2094654DA64A6F44799","title":"俊爵假日酒店泗泾店(保利华宾馆西)","lon":"121.29388","lat":"31.12586","category":"250","category_name":"公园户外","address":""},{"poiid":"B2094654DA64A5FC459E","title":"上海上虹实业公司工业小区","lon":"121.30091","lat":"31.11941","category":"263","category_name":"公司","address":"得心路69号"},{"poiid":"B2094757D165A1FF429E","title":"松江四中","lon":"121.279143091","lat":"31.1099784023","category":"55","category_name":"中学","address":"松江区泗泾镇开江东路子192弄11号"},{"poiid":"B2094757D568A4F4499A","title":"新南丽都","lon":"121.2793","lat":"31.109119","category":"47","category_name":"住宅区","address":"上海市松江区沪松公路2749弄"},{"poiid":"B2094757D16EA6FF429C","title":"上海华氏大药房有限公司鼓浪路药房","lon":"121.28195583","lat":"31.11684074","category":"500","category_name":"未知分类","address":"上海市松江区鼓浪路131-133号"},{"poiid":"B2094757D168A4F4479C","title":"悦豪大酒店","lon":"121.277993663","lat":"31.1124963374","category":"76","category_name":"上海菜","address":"松江区泗泾镇鼓浪路508号"},{"poiid":"B2094655D26EAAFE4899","title":"美鹭海鲜大酒楼","lon":"121.28468","lat":"31.10571","category":"260","category_name":"其他","address":"松江区泗泾镇泗砖公路99弄1号A幢"},{"poiid":"B2094757D66EA5F9499C","title":"威乐","lon":"121.30422448","lat":"31.114377437","category":"500","category_name":"未知分类","address":"上海松江久富经济区"},{"poiid":"B2094757D168A4F8419B","title":"泗泾镇人民政府","lon":"121.27498883","lat":"31.116565734","category":"500","category_name":"未知分类","address":"上海市松江区泗泾镇人民路1号"},{"poiid":"B2094654DA64A5FC469D","title":"上海松申水环境净化有限公司","lon":"121.302","lat":"31.12019","category":"263","category_name":"公司","address":""},{"poiid":"B2094654DA64A0FC4599","title":"江南重工股份有限公司金属结构件车间","lon":"121.29527","lat":"31.12609","category":"263","category_name":"公司","address":"九干路50"},{"poiid":"B2094654DA64A6F94698","title":"松江区人民法院泗泾人民法庭","lon":"121.28068","lat":"31.11633","category":"252","category_name":"楼宇机构","address":"鼓浪路181"}]