[{"poiid":"B2094655D268A3FF4498","title":"世博园区中国馆","lon":"121.49475","lat":"31.18453","category":"183","category_name":"展览馆","address":""},{"poiid":"B2094655D268A3FF449E","title":"世博演艺中心","lon":"121.494","lat":"31.18899","category":"180","category_name":"剧场","address":"上海市浦东新区世博大道"},{"poiid":"B2094757D064ABFB4392","title":"梅赛德斯奔驰文化中心音乐俱乐部","lon":"121.495735738","lat":"31.1882344057","category":"500","category_name":"未知分类","address":"上海世博大道1200号西门一层"},{"poiid":"B2094750D365A4F5489C","title":"中华艺术宫","lon":"121.494338","lat":"31.183723","category":"248","category_name":"生活娱乐","address":"国展路云台路口（原中国国家馆）"},{"poiid":"B2094655D36DA6FF499E","title":"上海影城--世博国际影城","lon":"121.48736","lat":"31.18564","category":"178","category_name":"电影院","address":"上海市浦东新区世博大道1200号世博文化中心6楼(梅赛德斯-奔驰文化中心)"},{"poiid":"B2094757D06FA3FB4393","title":"上海世博展览馆 Shanghai World EXPO Exhibition & Convention Center","lon":"121.489975548","lat":"31.1822755304","category":"260","category_name":"其他","address":"上海浦东新区国展路1099号"},{"poiid":"B2094757D06EAAF9409C","title":"世博会中国国家馆","lon":"121.494923671","lat":"31.184639805","category":"260","category_name":"其他","address":"上海浦东新区国展路云台路口(原上海世博会A片区)"},{"poiid":"B2094750D36BA7FC409B","title":"梅赛德斯-奔驰文化中心 Mercedes-Benz Arena","lon":"121.493168","lat":"31.190006","category":"646","category_name":"文化体育类公司","address":"浦东新区世博大道1200号(近上南路)"},{"poiid":"B2094757D06FA3FE4493","title":"上海世博中心","lon":"121.489342559","lat":"31.1860505323","category":"260","category_name":"其他","address":"上海浦东新区世博大道1500号"},{"poiid":"B2094757DA6EA6FE489C","title":"望湘园(世博店)","lon":"121.4943","lat":"31.18886","category":"77","category_name":"湖南菜","address":"浦东新区世博大道1200号梅赛德斯奔驰文化中心6楼603号(近上南路)"},{"poiid":"B2094757D06EABF54893","title":"星巴克 STARBUCKS (世博演艺中心店)","lon":"121.4896985","lat":"31.1858498","category":"260","category_name":"其他","address":"浦东新区世博大道1200号世博演艺中心L111商铺"},{"poiid":"B2094757D06FA2FE4092","title":"世纪星滑冰俱乐部(Century Star Rink)","lon":"121.49329056","lat":"31.18833552","category":"260","category_name":"其他","address":"浦东新区世博大道1200号梅赛德斯奔驰文化中心B1楼"},{"poiid":"B2094750D66CA7F9449E","title":"月亮船","lon":"121.496009","lat":"31.188825","category":"500","category_name":"未知分类","address":null},{"poiid":"B2094757DA6EA4F8459F","title":"世博场馆沙特阿拉伯馆","lon":"121.4958","lat":"31.188443","category":"252","category_name":"楼宇机构","address":"浦东新区博成路1221号(近高科西路口)"},{"poiid":"B2094751D56BA1F5479A","title":"世博源(The River Mall)","lon":"121.491795","lat":"31.187409","category":"247","category_name":"餐饮美食","address":"浦东新区世博大道1368号(近中华艺术宫)"},{"poiid":"B2094752DB6AA3FB489A","title":"银乐迪","lon":"121.492111","lat":"31.187576","category":"500","category_name":"未知分类","address":"上海市 世博大道1368号1G13(近上南路)"},{"poiid":"B2094757D06EABF4499A","title":"The Mixing Room&amp;MUSE","lon":"121.4909603","lat":"31.1862715","category":"179","category_name":"音乐厅","address":"上海浦东新区世博大道1200号(梅赛德斯-奔驰文化中心B1层)"},{"poiid":"B2094751DA68ABFA459D","title":"世博源王鼎日本料理","lon":"121.491779","lat":"31.187822","category":"247","category_name":"餐饮美食","address":"世博源"},{"poiid":"B2094750D26FA0FE4993","title":"上海世博展览馆","lon":"121.490014","lat":"31.182562","category":"183","category_name":"展览馆","address":"浦东新区国展路1099号(近世博轴西侧)"},{"poiid":"B2094757D06FA1F54292","title":"世博会世博轴","lon":"121.49265997","lat":"31.183181722","category":"260","category_name":"其他","address":"上海浦东新区上南路周家渡路间(原上海世博会A/B片区交汇处)"},{"poiid":"B2094751D464A7F9499C","title":"梅赛德斯文化中心","lon":"121.492462","lat":"31.188721","category":"500","category_name":"未知分类","address":"上海浦东"},{"poiid":"B2094757D06BA1FA409A","title":"绍兴饭店(世博店)","lon":"121.48555","lat":"31.18079","category":"75","category_name":"浙江菜","address":"浦东新区国展路1099号上海世博展览馆2楼"},{"poiid":"B2094757D069A0FF4298","title":"乐町Rakumachi 日本料理","lon":"121.49200542","lat":"31.187594186","category":"500","category_name":"未知分类","address":"上海浦东世博大道1200号世博文化中心6楼605"},{"poiid":"B2094751DA6FA7F44093","title":"麝香猫咖啡世博店","lon":"121.49202","lat":"31.18782","category":"247","category_name":"餐饮美食","address":"浦东新区浦东南路3588号世博源购物中心LM楼1LM06室"},{"poiid":"B2094757D06FA4FE4698","title":"味千拉面(世博文化中心店)","lon":"121.49320902","lat":"31.188971979","category":"68","category_name":"快餐厅","address":"浦东新区世博大道1200号B1层B101-103号"},{"poiid":"B2094751D26FA2F54699","title":"上海地铁8号线中华艺术宫站","lon":"121.49370496826168","lat":"31.184915300620595","category":"36","category_name":"地铁站","address":"浦东新区上南路近博成路"},{"poiid":"B2094757D068ABF84899","title":"世博庆典广场","lon":"121.49148323","lat":"31.188546226","category":"201","category_name":"城市广场","address":"原上海世博会世博园世博轴北面(近黄浦江畔)"},{"poiid":"B2094752DB6DA3FC4393","title":"银乐迪（世博源店）","lon":"121.490905","lat":"31.187173","category":"500","category_name":"未知分类","address":"上海市 世博大道1368号1G11"},{"poiid":"B209475DDB6DABF5439B","title":"世博源","lon":"121.492805","lat":"31.182491","category":"249","category_name":"购物服务","address":"上海市 博成路"},{"poiid":"B2094757D66FA2F94798","title":"世博展览馆1馆","lon":"121.490898738","lat":"31.1825972857","category":"500","category_name":"未知分类","address":"上海国展路1099号"},{"poiid":"B2094752D065A0FE449B","title":"王鼎日本料理铁板烧","lon":"121.492686","lat":"31.189287","category":"247","category_name":"餐饮美食","address":"世博大道1368号世博源1LM03-04号铺(近梅赛德斯奔驰文化中心西门)"},{"poiid":"B2094757D069A7F9429B","title":"世博大道","lon":"121.49357258","lat":"31.183651909","category":"260","category_name":"其他","address":"上海世博园"},{"poiid":"B2094757D068A3F94492","title":"世博会阿联酋馆","lon":"121.49784","lat":"31.18622","category":"260","category_name":"其他","address":"上海浦东新区国展路近云台路(原上海世博会A片区)"},{"poiid":"B2094757D06FA5FC429D","title":"世博园六号门","lon":"121.49372438","lat":"31.179298936","category":"260","category_name":"其他","address":"上海世博园六号门上南路出入口"},{"poiid":"B2094751DA69A7F44992","title":"王鼎","lon":"121.492645","lat":"31.189255","category":"247","category_name":"餐饮美食","address":"浦东新区世博大道1368号世博源1LM03-04号铺(近梅赛德斯奔驰文化中心西门)"},{"poiid":"B2094750D66CAAFD4792","title":"上海东方体育中心","lon":"121.494178","lat":"31.185503","category":"500","category_name":"未知分类","address":null},{"poiid":"B2094753D16EAAFD499D","title":"巴国布衣(世博店)","lon":"121.49274","lat":"31.18397","category":"71","category_name":"四川菜","address":"浦东新区世博大道1368号世博源1楼110号铺(近上南路)"},{"poiid":"B2094757D469A3F94193","title":"心乐蝶舞灵性舞蹈养生餐厅","lon":"121.4909603","lat":"31.1862715","category":"76","category_name":"上海菜","address":"世博大道1515号梅赛德斯奔驰文化中心L601近雪野路"},{"poiid":"B2094752D664A4F9449A","title":"广潮味","lon":"121.491635","lat":"31.187727","category":"247","category_name":"餐饮美食","address":"世博源"},{"poiid":"B2094752D465A0F8449E","title":"鱻道","lon":"121.49171","lat":"31.187348","category":"247","category_name":"餐饮美食","address":"世博大道1368号世博源1G08号铺(近上南路)"},{"poiid":"B2094757D06FA5F44998","title":"世博会主题馆","lon":"121.4902454","lat":"31.182306354","category":"260","category_name":"其他","address":"上海世博会B片区 世博馆路"},{"poiid":"B2094655D265A1FF469F","title":"中国国家馆下沉广场","lon":"121.49467","lat":"31.18577","category":"183","category_name":"展览馆","address":"上海世博园区"},{"poiid":"B2094752D36DA4F4469B","title":"奔驰梅赛德斯文化中心","lon":"121.491959","lat":"31.187866","category":"500","category_name":"未知分类","address":"世博源公馆"},{"poiid":"B2094757D065A5FD4698","title":"上海协和双语学校(浦东校区) Shanghai United Bilingual School Pudong Campus","lon":"121.49784038","lat":"31.18314481","category":"55","category_name":"中学","address":"浦东新区雪野路48号(近云台路)"},{"poiid":"B2094750DB6AA7F5439D","title":"上海新国际博览中心","lon":"121.493598","lat":"31.189872","category":"500","category_name":"未知分类","address":"浦东新区龙阳路2345号"},{"poiid":"B2094753D76AA1FB499B","title":"BES,CLUB","lon":"121.491666","lat":"31.188207","category":"256","category_name":"外国餐厅","address":"上海市浦东新区世博大道1368号世博源LM02号商铺(上南路口)"},{"poiid":"B2094757D068A5FD409B","title":"雪野二村","lon":"121.49775","lat":"31.182205","category":"47","category_name":"住宅区","address":"上海浦东新区浦东南路4800弄(雪野路34弄)"},{"poiid":"B2094752DB6DA3FB429B","title":"梅德赛斯奔驰文化中心","lon":"121.493049","lat":"31.188869","category":"500","category_name":"未知分类","address":"上海市 世博大道"},{"poiid":"B2094750DA64ABFE4493","title":"上海世博园沙特馆","lon":"121.495628","lat":"31.188323","category":"500","category_name":"未知分类","address":null},{"poiid":"B2094752D265A3FE459F","title":"世博源公馆","lon":"121.493027","lat":"31.186973","category":"247","category_name":"餐饮美食","address":"上海市浦东新区世博大道1368号"},{"poiid":"B2094750DB6DA1F94098","title":"中华艺术馆","lon":"121.4924913","lat":"31.1825086","category":"183","category_name":"展览馆","address":"浦东新区上南路161号"},{"poiid":"B2094752D26BA5FD409F","title":"斗牛士","lon":"121.491699","lat":"31.187439","category":"247","category_name":"餐饮美食","address":"梅赛德斯"},{"poiid":"B2094753D76AA1FB489E","title":"太平洋咖啡(世博源店)","lon":"121.492","lat":"31.18764","category":"65","category_name":"咖啡厅","address":"上海市浦东新区世博大道1368号世博源L203号铺"},{"poiid":"B209475CD06CA4FA459B","title":"王鼎铁板烧精致料理 世博源店","lon":"121.49183","lat":"31.18802","category":"268","category_name":"自助","address":"世博大道1368号世博源1LM03-04号铺(近梅赛德斯奔驰文化中心西门)"},{"poiid":"B2094753DA6BA0F4479C","title":"猛哥芒果冰","lon":"121.493026","lat":"31.188022","category":"247","category_name":"餐饮美食","address":"上海市 日月光台湾馆"},{"poiid":"B2094753D564ABF8449F","title":"鼎味源融合菜","lon":"121.490716","lat":"31.187739","category":"76","category_name":"上海菜","address":"浦东新区世博大道1368号世博源1LM(奔驰文化中心,西门进入,左转直行))"},{"poiid":"B2094750DB6BAAFF449A","title":"上海爵士音乐节","lon":"121.491935","lat":"31.188577","category":"250","category_name":"公园户外","address":"世博公园"},{"poiid":"B2094757D064A6F44799","title":"星巴克 STARBUCKS (浦东二店)","lon":"121.49099731","lat":"31.184299469","category":"247","category_name":"餐饮美食","address":"上海浦东新区世博园区世博轴01-307区域"},{"poiid":"B209475DD76DA6FF499D","title":"比比客世博店","lon":"121.49246","lat":"31.187023","category":"247","category_name":"餐饮美食","address":"上海市浦东大道1368号"},{"poiid":"B2094750D26CA6FD4598","title":"辰辰小厨 coco`s kitchen","lon":"121.493104","lat":"31.189152","category":"68","category_name":"快餐厅","address":"浦东新区世博大道1200号梅赛德斯奔驰中心内(近音乐俱乐部)"},{"poiid":"B2094752D66FAAFB449D","title":"首尔阳光","lon":"121.494113","lat":"31.182496","category":"247","category_name":"餐饮美食","address":"上南路898号"},{"poiid":"B2094752D06DAAFB4098","title":"杨思医院","lon":"121.492991","lat":"31.183484","category":"162","category_name":"医院","address":null},{"poiid":"B2094655D264A4F8449A","title":"赵金志金钥匙博物馆","lon":"121.49591","lat":"31.18534","category":"182","category_name":"博物馆","address":"Lázeňská3TepláValley"},{"poiid":"B2094752D76FA6FC4598","title":"世博影城6号厅","lon":"121.494064","lat":"31.18808","category":"178","category_name":"电影院","address":null},{"poiid":"B2094757D069A3FB409B","title":"世博会中国省区市联合馆","lon":"121.49562072","lat":"31.184608459","category":"183","category_name":"展览馆","address":"上海世博会A片区"},{"poiid":"B2094757D168A4FB479A","title":"海逸酒家","lon":"121.497772217","lat":"31.1877937317","category":"247","category_name":"餐饮美食","address":"浦东新区世博大道1200号世博文化中心6楼"},{"poiid":"B2094757D164A5F94299","title":"乐町","lon":"121.49369173","lat":"31.189618435","category":"95","category_name":"日本料理","address":"浦东新区世博大道1200号世博文化中心6楼605室(近中国馆)"},{"poiid":"B2094753D76AA1FB4792","title":"三米蓝南洋风味餐厅","lon":"121.492","lat":"31.187292","category":"256","category_name":"外国餐厅","address":"上海市浦东新区世博大道1368号世博源1G03号铺(近上南路)"},{"poiid":"B2094750D56EAAF5489D","title":"虹桥路凯旋路","lon":"121.491882","lat":"31.18485","category":"500","category_name":"未知分类","address":null},{"poiid":"B2094750D06CA3FF419B","title":"仁济医院","lon":"121.489074","lat":"31.182588","category":"162","category_name":"医院","address":"浦建路"},{"poiid":"B2094752DB6CA4FC4998","title":"银乐迪ktv","lon":"121.491618","lat":"31.187821","category":"170","category_name":"KTV","address":"上海市 世博源"},{"poiid":"B209475CD26CA2FB4492","title":"广潮味","lon":"121.493003","lat":"31.187994","category":"247","category_name":"餐饮美食","address":"上海市 上海浦东世博大道1368号世博源1层"},{"poiid":"B2094753D569ABFD489B","title":"上海梅塞德斯奔驰文化中心","lon":"121.494567","lat":"31.188966","category":"500","category_name":"未知分类","address":"上海市 上海"},{"poiid":"B2094655D264A1FC4493","title":"主题馆下沉广场","lon":"121.49061","lat":"31.18365","category":"183","category_name":"展览馆","address":"上海世博园区"},{"poiid":"B2094753DA6FA6F4439F","title":"友丽拌饭（奔驰文化中心店）","lon":"121.492825","lat":"31.18806","category":"247","category_name":"餐饮美食","address":"上海市浦东新区世博大道1200号梅赛德斯-奔驰文化中心B1楼B130（溜冰场旁）"},{"poiid":"B2094751DA69A0F44198","title":"第一八佰伴","lon":"121.4987051559967","lat":"31.18380815258452","category":"247","category_name":"餐饮美食","address":"上海浦东张扬路501号第一八佰伴9楼"},{"poiid":"B2094751DA6DA0FB4898","title":"浦东新区东方路浦电路","lon":"121.492948","lat":"31.183518","category":"500","category_name":"未知分类","address":null},{"poiid":"B2094655D268A3FF4499","title":"中国2010年上海世界博览会AB片区外国自建馆办公区","lon":"121.49754","lat":"31.18379","category":"46","category_name":"楼宇","address":""},{"poiid":"B2094750D76CA1FD459E","title":"东京甜品","lon":"121.493","lat":"31.1891","category":"113","category_name":"冷饮店","address":"浦东新区世博大道1200号梅赛德斯奔驰文化中心6楼(近世博国际影院)"},{"poiid":"B2094655D268A6F8409D","title":"上海世博会浦东临时场馆及配套设施项目A片区","lon":"121.49526","lat":"31.18758","category":"46","category_name":"楼宇","address":""},{"poiid":"B2094753D769AAF9419A","title":"海逸海鲜(世博店)","lon":"121.493207","lat":"31.188954","category":"72","category_name":"广东菜","address":"上海市浦东新区世博大道1200号世博文化中心6楼"},{"poiid":"B2094752D669A5F54993","title":"梅赛德斯奔驰文化中心","lon":"121.499021","lat":"31.186684","category":"500","category_name":"未知分类","address":null},{"poiid":"B2094757D468A4F84498","title":"来亿锅羊蝎子火锅 洪山路店","lon":"121.497333","lat":"31.180673","category":"86","category_name":"火锅店","address":"浦东新区洪山路91号(近浦东南路)"},{"poiid":"B2094753D26DA7FC4498","title":"友丽拌饭","lon":"121.492316","lat":"31.188794","category":"247","category_name":"餐饮美食","address":"上海市 世博大道1200号梅赛德斯奔驰文化中心B1楼B130室"},{"poiid":"B2094753D26CA4F84099","title":"BMW宝马体验中心","lon":"121.489786","lat":"31.18405","category":"500","category_name":"未知分类","address":"上海市 世博园上南路雪野路"},{"poiid":"B2094751DA6DAAFB429E","title":"王鼎日料","lon":"121.492645","lat":"31.189255","category":"247","category_name":"餐饮美食","address":null},{"poiid":"B2094655D264A1FC459A","title":"主题馆(南大门)","lon":"121.4905","lat":"31.1815","category":"183","category_name":"展览馆","address":"上海世博园区"},{"poiid":"B2094753D664AAF44692","title":"巴国布衣世博店","lon":"121.491699","lat":"31.187456","category":"500","category_name":"未知分类","address":"上海市 世纪大道1368号111号"},{"poiid":"B2094751D565A2FE4493","title":"新石器烤肉NEOLITHIC  BARBECUE","lon":"121.497584","lat":"31.18285","category":"247","category_name":"餐饮美食","address":"上海浦东新区齐河路258号"},{"poiid":"B2094655D265A1F9419C","title":"世界风味小吃区","lon":"121.48999","lat":"31.1853","category":"256","category_name":"外国餐厅","address":"上海世博园区"},{"poiid":"B209475CD76DA6F9419B","title":"世博源","lon":"121.496467","lat":"31.187179","category":"500","category_name":"未知分类","address":"上海市 浦东世博源"},{"poiid":"B2094655D264A2FA419F","title":"中心广场(阿曼馆北)","lon":"121.49552","lat":"31.18748","category":"201","category_name":"城市广场","address":"上海世博园区"},{"poiid":"B2094753D36CA1FD429B","title":"鱻道创作料理","lon":"121.490944","lat":"31.18779","category":"95","category_name":"日本料理","address":"世博大道1368号1G08B1"},{"poiid":"B2094757D064A7FD489F","title":"世博中心红厅","lon":"121.48905181","lat":"31.186658859","category":"500","category_name":"未知分类","address":"上海世博中心西侧"},{"poiid":"B209475CD06CAAFF429E","title":"贝斯音乐餐厅  BES CLUB","lon":"121.49166","lat":"31.1882","category":"94","category_name":"西餐厅","address":"世博大道1368号世博源LM02号商铺近上南路口"},{"poiid":"B2094757D168A6F4419E","title":"德克士（世博店）","lon":"121.49140167","lat":"31.184267044","category":"500","category_name":"未知分类","address":"上海世博轴A片区B2"},{"poiid":"B2094454D264A0F8459B","title":"世博源","lon":"121.493309","lat":"31.179927","category":"249","category_name":"购物服务","address":"上海市 上海市"},{"poiid":"B2094753D26AAAF4439A","title":"鼎味源","lon":"121.492577","lat":"31.189119","category":"247","category_name":"餐饮美食","address":"上海市 世博大道1368号世博源"},{"poiid":"B2094757D068A7F9409E","title":"世博园五号门","lon":"121.49645449","lat":"31.183726531","category":"500","category_name":"未知分类","address":"上海世博园五号门高科西路出入口"},{"poiid":"B2094757D168A3F54098","title":"蘑菇宝贝(新村店)","lon":"121.49463903","lat":"31.183609573","category":"249","category_name":"购物服务","address":"上海新村路423号1幢36号"},{"poiid":"B2094750D76EA2FF469B","title":"FreshMix(世博奔驰文化中心店)","lon":"121.493","lat":"31.1889","category":"68","category_name":"快餐厅","address":"世博大道1200号梅赛德斯奔驰文化演艺中心6楼(近世博影城5号厅旁)"},{"poiid":"B2094750DA6BA5F44093","title":"世博会沙特馆","lon":"121.494422","lat":"31.187765","category":"263","category_name":"公司","address":null},{"poiid":"B2094655D265A1FF4698","title":"主题馆室外展场(东南)","lon":"121.49111","lat":"31.18157","category":"183","category_name":"展览馆","address":"上海世博园区"},{"poiid":"B2094753D56DA1FF449B","title":"上海梅赛德斯奔驰文化中心","lon":"121.496444","lat":"31.187229","category":"500","category_name":"未知分类","address":"上海市 上海"},{"poiid":"B2094757D065A4FA499B","title":"世博会新闻中心","lon":"121.488212585","lat":"31.1857433319","category":"46","category_name":"楼宇","address":"上海浦东新区世博会园区B片区世博中心西侧"},{"poiid":"B209475CD265A5FB499F","title":"心乐蝶舞精致上海美食餐厅","lon":"121.4931","lat":"31.18915","category":"76","category_name":"上海菜","address":"世博大道1200号梅赛德斯奔驰文化中心L601号(近庆典广场)"},{"poiid":"B2094752D369A1FC499D","title":"浦东嘉里城","lon":"121.495691","lat":"31.187632","category":"500","category_name":"未知分类","address":null},{"poiid":"B2094752DA6AA5FE469B","title":"银乐迪浦东世博店","lon":"121.487487","lat":"31.185516","category":"500","category_name":"未知分类","address":"上海市 浦东新区世博大道1368号1G3(世博源)"},{"poiid":"B2094757D06FA2F4419C","title":"世博会尼泊尔馆","lon":"121.48887","lat":"31.18675","category":"260","category_name":"其他","address":"上海浦东新区博成路近云台路(原上海世博会A片区)"},{"poiid":"B2094757D66EA2FB4598","title":"曹杨路(西宫后门)","lon":"121.492415048","lat":"31.1876424731","category":"500","category_name":"未知分类","address":"上海曹杨路520号"},{"poiid":"B2094751D26CAAFA4598","title":"上海世博展馆","lon":"121.491149","lat":"31.182983","category":"500","category_name":"未知分类","address":null},{"poiid":"B2094757D065A7F8429A","title":"世博会中国馆41米小火车","lon":"121.49461191","lat":"31.184457375","category":"260","category_name":"其他","address":"上海浦东"},{"poiid":"B2094757D164A2F8499B","title":"心乐蝶舞灵性舞蹈养生餐厅","lon":"121.49228434","lat":"31.188778627","category":"500","category_name":"未知分类","address":"上海世博大道1200号世博文化中心六楼"},{"poiid":"B2094655D26FA5FF409A","title":"耀高小区","lon":"121.495","lat":"31.1816","category":"47","category_name":"住宅区","address":"耀华路240弄"},{"poiid":"B2094757D66EA0FD449F","title":"龙东大道金桥路","lon":"121.49391673","lat":"31.182631286","category":"500","category_name":"未知分类","address":"上海市浦东新区金桥路"},{"poiid":"B2094752D764A5FF499D","title":"Musk Cat Coffee","lon":"121.491409","lat":"31.188141","category":"248","category_name":"生活娱乐","address":"世博大道1368号第LM层1LM06室"},{"poiid":"B2094753D26FAAFC499F","title":"蜀府","lon":"121.489499","lat":"31.189642","category":"247","category_name":"餐饮美食","address":"上海市 梅赛德斯"},{"poiid":"B2094757D56DA5FF429F","title":"世博会园区浦东B片区","lon":"121.48872613907","lat":"31.184572421514","category":"250","category_name":"公园户外","address":"浦东新区世博会园区浦东B片区"},{"poiid":"B2094752D565A4FD479E","title":"Bes Club","lon":"121.487541","lat":"31.186709","category":"247","category_name":"餐饮美食","address":"世博大道1368号世博园LM02号商铺"},{"poiid":"B2094752D56AA3F5409E","title":"上海东方体育中心","lon":"121.48996","lat":"31.184158","category":"500","category_name":"未知分类","address":null},{"poiid":"B2094655D265A1F8499D","title":"主题馆室外展场(西北)","lon":"121.48898","lat":"31.18341","category":"183","category_name":"展览馆","address":"上海世博园区"},{"poiid":"B2094757D06EAAFE4993","title":"2011上海国际嘉年华","lon":"121.49152473","lat":"31.186532369","category":"173","category_name":"游戏厅","address":"浦东新区上海世博区白莲泾路世博园4号入口(近浦东南路)"},{"poiid":"B2094757D168A1FB479B","title":"罗曼园高级婚礼会馆(世博中心馆)","lon":"121.488529438","lat":"31.1867324737","category":"500","category_name":"未知分类","address":"浦东新区世博大道1500号世博中心内(近世博馆路)查看地图"},{"poiid":"B2094752D06DABF84693","title":"裕泰東方","lon":"121.491675","lat":"31.188256","category":"247","category_name":"餐饮美食","address":"世博大道1368号1LM09"},{"poiid":"B2094757D66EA4FE419E","title":"snacko","lon":"121.49176432","lat":"31.188153145","category":"500","category_name":"未知分类","address":"上海世博会"},{"poiid":"B2094757D568A1FB469F","title":"Pasta & Coffee","lon":"121.49383762","lat":"31.18962646","category":"65","category_name":"咖啡厅","address":"上海世博园区"},{"poiid":"B209475CD668A6FB4392","title":"世博公园","lon":"121.492591","lat":"31.180448","category":"500","category_name":"未知分类","address":"上海市 世博大道1700号"},{"poiid":"B2094752D66AA0FA4599","title":"张江","lon":"121.493853","lat":"31.188463","category":"500","category_name":"未知分类","address":null},{"poiid":"B2094757D068A0FA409C","title":"世博会香港馆","lon":"121.49410247","lat":"31.182994842","category":"260","category_name":"其他","address":"上海浦东新区国展路上南路口(原上海世博会A片区)"},{"poiid":"B2094757D16DA3FF4899","title":"浦东南路","lon":"121.49919246","lat":"31.186612791","category":"500","category_name":"未知分类","address":"上海浦东南路"},{"poiid":"B2094757D168ABFA4299","title":"南京西路338天安廣場","lon":"121.493188","lat":"31.18896","category":"500","category_name":"未知分类","address":"上海Mercedes-Benz"},{"poiid":"B2094752DB6BA5FB4898","title":"BMW全球体验中心","lon":"121.489582","lat":"31.183337","category":"500","category_name":"未知分类","address":"上海市 上海市浦东新区上南路"},{"poiid":"B2094757D06AA7F84892","title":"上海世博东座酒店公寓","lon":"121.496086","lat":"31.182186","category":"217","category_name":"旅馆招待所","address":"上海浦东新区浦建路727号"},{"poiid":"B2094757D568A0FE499C","title":"中国邮政(主题馆东)","lon":"121.49079","lat":"31.18258285","category":"621","category_name":"邮局","address":"上海世博园区"},{"poiid":"B2094655D265A1F8499C","title":"主题馆室外展场(西南)","lon":"121.48938","lat":"31.1813","category":"183","category_name":"展览馆","address":"上海世博园区"},{"poiid":"B209475CD668A1F8499E","title":"世博公园","lon":"121.49031","lat":"31.188146","category":"500","category_name":"未知分类","address":"上海市 国展路"},{"poiid":"B2094757D16EA1FD439B","title":"世博演艺中心地下室…","lon":"121.49504","lat":"31.188704","category":"500","category_name":"未知分类","address":"上海世博演艺中心"},{"poiid":"B2094752D76FA2FF4398","title":"2013上海国际宠物犬博览会","lon":"121.492116","lat":"31.180275","category":"248","category_name":"生活娱乐","address":"浦东新区国展路1099号上海世博展览馆（原世博主题馆）"},{"poiid":"B2094757D069A0FA479D","title":"世博会澳门馆","lon":"121.49408721","lat":"31.183185577","category":"260","category_name":"其他","address":"上海浦东新区国展路近云台路(原上海世博会A片区)"},{"poiid":"B2094750DB6BA0F94898","title":"浦东图书馆","lon":"121.493591","lat":"31.189863","category":"500","category_name":"未知分类","address":"浦东新区前程路88号(近锦绣路)"},{"poiid":"B2094757D168ABFE489C","title":"东渡名人大厦","lon":"121.49715373","lat":"31.184279321","category":"252","category_name":"楼宇机构","address":"上海曲阳路"},{"poiid":"B2094751D06CA2FF449B","title":"8号线中华艺术馆站","lon":"121.4894564","lat":"31.1872629","category":"500","category_name":"未知分类","address":null},{"poiid":"B2094750D669A4FD4792","title":"上海新国际博览中心","lon":"121.493591","lat":"31.189865","category":"500","category_name":"未知分类","address":"浦东新区芳甸路"},{"poiid":"B2094752D768A1FC409D","title":"斗牛士世博源店","lon":"121.489549","lat":"31.187525","category":"500","category_name":"未知分类","address":null},{"poiid":"B2094757D168A6FA459A","title":"世博会时乐美食","lon":"121.4972763","lat":"31.188724517","category":"247","category_name":"餐饮美食","address":"上海世博演艺中心一楼"},{"poiid":"B2094750D66FA2FC489C","title":"金桥国际广场","lon":"121.493606","lat":"31.18988","category":"500","category_name":"未知分类","address":null},{"poiid":"B2094757D165A0FA449E","title":"fresh mix","lon":"121.496304638","lat":"31.1877311949","category":"500","category_name":"未知分类","address":null},{"poiid":"B2094752D06EA4FD4892","title":"世博源","lon":"121.491087","lat":"31.189154","category":"250","category_name":"公园户外","address":null},{"poiid":"B2094757D16FAAFE419D","title":"清明上河图","lon":"121.49883549","lat":"31.182473539","category":"500","category_name":"未知分类","address":"上海世博会中国馆"},{"poiid":"B2094757D568A5F44499","title":"等候广场(主题馆东南)","lon":"121.4929279","lat":"31.18092543","category":"248","category_name":"生活娱乐","address":"上海世博园区"},{"poiid":"B2094757D469A1F5469D","title":"老鱼","lon":"121.49142","lat":"31.18644","category":"260","category_name":"其他","address":"浦东新区世博大道746号(近梅赛德斯-奔驰文化中心)"},{"poiid":"B2094757D568A5FA4493","title":"中国邮政(世博文化中心东)","lon":"121.49401991","lat":"31.18924289","category":"621","category_name":"邮局","address":"上海世博园区"},{"poiid":"B2094750DA6CA5F9489D","title":"上海东锦江希尔顿酒店","lon":"121.493591","lat":"31.189868","category":"500","category_name":"未知分类","address":"杨高南路"},{"poiid":"B2094757D069A2FF4392","title":"世博会阿曼馆","lon":"121.49681854","lat":"31.184967041","category":"260","category_name":"其他","address":"上海浦东新区国展路云台路口(原上海世博会A片区)"},{"poiid":"B2094757D568A2FB4499","title":"集散广场(上钢二村北)","lon":"121.49364882","lat":"31.17906521","category":"201","category_name":"城市广场","address":"上海世博园区"},{"poiid":"B2094757D06FAAFC4498","title":"世博会印度馆","lon":"121.48887","lat":"31.18675","category":"260","category_name":"其他","address":"上海浦东新区世博大道近高科西路(原上海世博会A片区)"},{"poiid":"B2094757D068A2FE449C","title":"世博会俄罗斯馆","lon":"121.48887","lat":"31.18675","category":"260","category_name":"其他","address":"上海浦东新区上钢路近博成路(原上海世博会C片区)"},{"poiid":"B209475DD76FAAF54799","title":"k11","lon":"121.498527","lat":"31.185899","category":"627","category_name":"一般地点标志","address":"上海市 上海"},{"poiid":"B2094750D36BA0F54993","title":"世纪星滑冰俱乐部-上海世博店","lon":"121.48736","lat":"31.18564","category":"646","category_name":"文化体育类公司","address":"世博大道1200号，梅赛德斯奔驰文化中心B1楼"},{"poiid":"B2094757D06EAAFA429B","title":"世博会美国馆","lon":"121.48887","lat":"31.18675","category":"260","category_name":"其他","address":"上海浦东新区国展路后滩路口(原上海世博会C片区)"},{"poiid":"B2094753D46FAAFA459D","title":"ibaby国际尖端婴童摄影浦东旗舰店","lon":"121.4914085180053","lat":"31.181341543702594","category":"633","category_name":"商务服务类公司","address":"浦东新区世博园区C片区墨西哥馆（国展路上钢路路口）"},{"poiid":"B2094757D06FA4FA4299","title":"世博会加拿大馆","lon":"121.48887","lat":"31.18675","category":"260","category_name":"其他","address":"上海浦东新区上钢路国展路口(原上海世博会C片区)"},{"poiid":"B2094757D068A3FD499C","title":"世博会新加坡馆","lon":"121.48887","lat":"31.18675","category":"260","category_name":"其他","address":"上海浦东新区博成路近长清北路(原上海世博会B片区)"},{"poiid":"B2094757D06FA4F8429A","title":"世博会新西兰馆","lon":"121.48887","lat":"31.18675","category":"260","category_name":"其他","address":"上海浦东新区世博馆路近博成路(原上海世博会B片区)"},{"poiid":"B2094757D069A4F9409F","title":"世博会以色列馆","lon":"121.48887","lat":"31.18675","category":"260","category_name":"其他","address":"上海浦东新区云台路近国展路(原上海世博会A片区)"},{"poiid":"B2094757D068A5F4409C","title":"世博会马来西亚馆","lon":"121.48887","lat":"31.18675","category":"260","category_name":"其他","address":"上海浦东新区世博馆路近博成路(原上海世博会B片区)"},{"poiid":"B2094655D26DA7F8489E","title":"雪野二村(北门)","lon":"121.49751","lat":"31.18286","category":"656","category_name":"大门","address":"雪野路34弄"},{"poiid":"B2094655D26EA1FB409C","title":"雪野二村(西门)","lon":"121.49721","lat":"31.18074","category":"656","category_name":"大门","address":"雪野路34弄"}]