[{"poiid":"B2094757D06EAAFF439B","title":"王鼎日本料理铁板烧","lon":"121.4714","lat":"31.23237","category":"95","category_name":"日本料理","address":"黄浦区南京西路258号世茂商都7-8楼(近黄河路)"},{"poiid":"B2094654DA68A3FB469F","title":"上海大剧院","lon":"121.471968","lat":"31.230142","category":"180","category_name":"剧场","address":"黄浦区人民大道300号(近人民广场)"},{"poiid":"B2094654DA68A2FD4399","title":"上海美术馆","lon":"121.47093","lat":"31.23108","category":"184","category_name":"美术馆","address":"黄浦区南京西路325号(近黄陂北路)"},{"poiid":"B2094753D76FAAFA449C","title":"上海滩国泰旗舰店","lon":"121.466011","lat":"31.216125","category":"249","category_name":"购物服务","address":"淮海中路868号"},{"poiid":"B209475CD564A7F84292","title":"上海滩新天地店","lon":"121.47463","lat":"31.22164","category":"119","category_name":"商场","address":"\"太仓路181弄新天地北里15号\r\n\""},{"poiid":"B209475CD564A7F8439E","title":"上海滩中信泰富店","lon":"121.45602","lat":"31.22851","category":"119","category_name":"商场","address":"\"南京西路1168号中信泰富广场，店铺号221.\r\n\""},{"poiid":"B209475CD564A7F84392","title":"上海滩浦东香格里拉店","lon":"121.50058","lat":"31.23634","category":"119","category_name":"商场","address":"浦东富成路33号香格里拉酒店内大堂层"},{"poiid":"B2094654DB64A6FD4593","title":"大光明电影院","lon":"121.47128","lat":"31.23298","category":"178","category_name":"电影院","address":"黄浦区南京西路216号(黄河路南京西路)"},{"poiid":"B2094655D26EA2FA489D","title":"人民公园","lon":"121.633072","lat":"31.197651","category":"196","category_name":"公园","address":"上海黄浦区南京西路231号(近黄陂北路)"},{"poiid":"B2094757D06FA3FF469E","title":"国际饭店","lon":"121.47188","lat":"31.23312","category":"214","category_name":"四星级宾馆","address":"黄浦区南京西路170号(近黄河路)"},{"poiid":"B2094757D06FA3F54893","title":"Kathleen's 5 Rooftop Restaurant &amp; Bar","lon":"121.470920351","lat":"31.2311566892","category":"94","category_name":"西餐厅","address":"黄浦区南京西路325号上海美术馆5楼(近黄陂北路)"},{"poiid":"B2094757D16FA0FB4192","title":"Barbarossa","lon":"121.471591738","lat":"31.2314373258","category":"500","category_name":"未知分类","address":"上海市黄浦区成都北路"},{"poiid":"B2094757D66BA6FD4799","title":"星巴克(人民公园店)","lon":"121.471031","lat":"31.231656","category":"260","category_name":"其他","address":"黄浦区南京西路189号(近新昌路)"},{"poiid":"B2094757D06EAAFA4593","title":"MOCA上海当代艺术馆","lon":"121.47345","lat":"31.23194","category":"260","category_name":"其他","address":"上海黄浦区南京西路231号人民公园7号门(近黄陂北路)"},{"poiid":"B2094757D16FA6FF459C","title":"雅科","lon":"121.47077873","lat":"31.231950336","category":"76","category_name":"上海菜","address":"黄浦区南京西路248号大光明影院3楼屋顶花园(近黄河路)"},{"poiid":"B2094655D26EA6FF479E","title":"MOCA莫卡意大利餐厅","lon":"121.47208","lat":"31.23255","category":"98","category_name":"意式菜品餐厅","address":"南京西路南京西路231号人民公园7号门"},{"poiid":"B2094655D26BA7F8449E","title":"上海大剧院-中剧场(Shanghai Grand Theatre - Drama Theatre)","lon":"121.47076","lat":"31.23004","category":"180","category_name":"剧场","address":"黄浦区人民大道300号大剧院1楼(近黄陂路)"},{"poiid":"B2094757DA6EABFF499A","title":"爆爆椒香辣虾干锅三绝(人民广场店)","lon":"121.470959999998","lat":"31.2325700000003","category":"71","category_name":"四川菜","address":"黄浦区南京西路258号世茂商都5楼(近黄河路)"},{"poiid":"B2094654DB64A5FD4099","title":"苏浙汇(黄浦店)","lon":"121.47048","lat":"31.23164","category":"76","category_name":"上海菜","address":"黄浦区南京西路288号创兴金融中心3楼(近新昌路)"},{"poiid":"B2094757D06EAAFD4292","title":"老克勒上海菜 南京西路店","lon":"121.47031","lat":"31.23222","category":"76","category_name":"上海菜","address":"黄浦区南京西路288号创兴金融中心2楼(近新昌路)"},{"poiid":"B2094654DB6AA3FA409B","title":"芭芭露莎","lon":"121.47208","lat":"31.23255","category":"260","category_name":"其他","address":"黄浦区南京西路231号人民公园内人工湖(近黄陂北路)"},{"poiid":"B2094757D06AAAFA4192","title":"王鼎日本料理","lon":"121.471065738","lat":"31.2323493453","category":"500","category_name":"未知分类","address":"上海南京西路258世贸商都7-8"},{"poiid":"B2094757D46EA5F44198","title":"林记小馆 人民广场店","lon":"121.470848","lat":"31.229474","category":"72","category_name":"广东菜","address":"普陀区真北路2022号映象戴斯大酒店内(近铜川路)"},{"poiid":"B2094757D06FA3FA4599","title":"必胜客(大光明店)","lon":"121.47163","lat":"31.23285","category":"68","category_name":"快餐厅","address":"黄浦区南京西路190号-208号(近黄河路)"},{"poiid":"B2094757D06FA2F94199","title":"唐朝大酒店(明天店)","lon":"121.47028","lat":"31.2298","category":"72","category_name":"广东菜","address":"上海南京西路389号明天广场二楼"},{"poiid":"B2094757D06FA0F8499D","title":"王品台塑牛排(仙乐斯店)","lon":"121.47152548","lat":"31.230202321","category":"94","category_name":"西餐厅","address":"静安区南京西路388号仙乐斯广场3楼(黄陂北路口)"},{"poiid":"B2094757D06FA3F4439E","title":"上海市人民政府","lon":"121.47373199","lat":"31.230110168","category":"260","category_name":"其他","address":"上海人民大道200号"},{"poiid":"B2094757D06FABFC449F","title":"人民公园相亲角","lon":"121.47255873","lat":"31.231616329","category":"196","category_name":"公园","address":"上海市黄浦区凤阳路"},{"poiid":"B2094751D56AA4FF4299","title":"七叶和茶","lon":"121.471078","lat":"31.232059","category":"247","category_name":"餐饮美食","address":"人民广场迪美"},{"poiid":"B2094757D06BA1F84698","title":"杏花楼","lon":"121.471473738","lat":"31.2333003655","category":"72","category_name":"广东菜","address":"黄浦区黄河路21号鸿祥大厦3-4楼(近南京西路)"},{"poiid":"B2094757D568A7FD4098","title":"barbarossalounge(芭芭露莎)","lon":"121.470839999998","lat":"31.2313530600002","category":"172","category_name":"酒吧","address":"黄浦区南京西路231号(人民公园内)"},{"poiid":"B2094757D069A2FE469B","title":"Barbarossa","lon":"121.471756738","lat":"31.2323963463","category":"172","category_name":"酒吧","address":"上海黄浦区南京西路231号人民公园内人工湖"},{"poiid":"B2094757D06FABFC439A","title":"JW万豪咖啡厅","lon":"121.47152068","lat":"31.232234257","category":"268","category_name":"自助","address":"黄浦区南京西路399号明天广场JW万豪酒店38楼(近黄陂北路)"},{"poiid":"B2094757D068A2FE469E","title":"酒池星座(黄陂北路)","lon":"121.470575126","lat":"31.2296706472","category":"260","category_name":"其他","address":"黄浦区黄陂北路251号(近江阴路)"},{"poiid":"B2094757D068A7F5419B","title":"翠濮梧桐","lon":"121.47084393","lat":"31.231908135","category":"260","category_name":"其他","address":"黄浦区南京西路258号世茂商都4楼(近上海美术馆)"},{"poiid":"B209475DD06CA3FC419A","title":"南京大排档","lon":"121.470893","lat":"31.232265","category":"247","category_name":"餐饮美食","address":"上海市 南京西路258号世茂商都3楼(近新昌路)"},{"poiid":"B2094752D16AA1F44099","title":"Mr.Pizza","lon":"121.471802","lat":"31.232245","category":"247","category_name":"餐饮美食","address":"上海福州路666号"},{"poiid":"B2094750D26AA2FC4593","title":"上海当代艺术馆","lon":"121.4728524764","lat":"31.231439951094","category":"645","category_name":"机构及其他类公司","address":"南京西路231号人民公园内"},{"poiid":"B2094757D069A2F94392","title":"宝得莱","lon":"121.47042873","lat":"31.230037296","category":"95","category_name":"日本料理","address":"黄浦区黄陂北路227号中区广场1楼(近大剧院)"},{"poiid":"B2094757D06FA0FA4598","title":"渝乡人家(世茂商都店)","lon":"121.47092","lat":"31.23143","category":"71","category_name":"四川菜","address":"黄浦区南京西路258号世茂商都6楼(近大光明电影院，上海美术馆)  "},{"poiid":"B2094757D06FA1F4499D","title":"创兴金融中心","lon":"121.4704895","lat":"31.231645584","category":"46","category_name":"楼宇","address":"上海南京西路288号"},{"poiid":"B209475DD06CA3FC469F","title":"南京大牌档","lon":"121.470848","lat":"31.232343","category":"500","category_name":"未知分类","address":"上海市 南京西路258号世茂商都3楼(近新昌路)"},{"poiid":"B2094655D26CAAF8499D","title":"恒利国际大厦","lon":"121.473173","lat":"31.233112","category":"46","category_name":"楼宇","address":"越秀区环市东路362-366号"},{"poiid":"B209475DD56BAAFC4893","title":"南京大排档","lon":"121.470718","lat":"31.231937","category":"247","category_name":"餐饮美食","address":"上海市 南京西路258号世贸商都3楼"},{"poiid":"B2094654DB6BABFE4598","title":"马克西姆西餐厅 Maxim's","lon":"121.47126716885","lat":"31.228677607786","category":"97","category_name":"法式菜品餐厅","address":"黄陂北路200号上海大剧院1楼近人民大道"},{"poiid":"B2094757D06FAAFB449F","title":"近江和牛正传(中区广场店)","lon":"121.47032673","lat":"31.22977029","category":"95","category_name":"日本料理","address":"黄浦区黄陂北路227号中区广场201室(近人民大道)"},{"poiid":"B2094757D069A3FC4692","title":"流年咖啡","lon":"121.470938752","lat":"31.2315203906","category":"94","category_name":"西餐厅","address":"黄浦区南京西路205号(近上海美术馆)"},{"poiid":"B2094757D06FA5FD4598","title":"人民公园游乐园","lon":"121.47083282","lat":"31.231388092","category":"195","category_name":"游乐场","address":"上海黄浦区南京西路231号人民公园内"},{"poiid":"B2094757D469A1F5429C","title":"JW's Lounge Bar","lon":"121.470491054","lat":"31.229576793","category":"172","category_name":"酒吧","address":"黄浦区南京西路399号JW万豪酒店40楼(近黄陂北路)"},{"poiid":"B2094757D569A2FA4792","title":"雅科空中花园酒吧","lon":"121.4712956","lat":"31.23302417","category":"172","category_name":"酒吧","address":"南京西路216号大光明影院3层"},{"poiid":"B2094757D06EAAFF439B","title":"王鼎日本料理铁板烧","lon":"121.4714","lat":"31.23237","category":"95","category_name":"日本料理","address":"黄浦区南京西路258号世茂商都7-8楼(近黄河路)"},{"poiid":"B2094654DA68A3FB469F","title":"上海大剧院","lon":"121.471968","lat":"31.230142","category":"180","category_name":"剧场","address":"黄浦区人民大道300号(近人民广场)"},{"poiid":"B2094654DA68A2FD4399","title":"上海美术馆","lon":"121.47093","lat":"31.23108","category":"184","category_name":"美术馆","address":"黄浦区南京西路325号(近黄陂北路)"},{"poiid":"B2094753D76FAAFA449C","title":"上海滩国泰旗舰店","lon":"121.466011","lat":"31.216125","category":"249","category_name":"购物服务","address":"淮海中路868号"},{"poiid":"B209475CD564A7F84292","title":"上海滩新天地店","lon":"121.47463","lat":"31.22164","category":"119","category_name":"商场","address":"\"太仓路181弄新天地北里15号\r\n\""},{"poiid":"B209475CD564A7F8439E","title":"上海滩中信泰富店","lon":"121.45602","lat":"31.22851","category":"119","category_name":"商场","address":"\"南京西路1168号中信泰富广场，店铺号221.\r\n\""},{"poiid":"B209475CD564A7F84392","title":"上海滩浦东香格里拉店","lon":"121.50058","lat":"31.23634","category":"119","category_name":"商场","address":"浦东富成路33号香格里拉酒店内大堂层"},{"poiid":"B2094654DB64A6FD4593","title":"大光明电影院","lon":"121.47128","lat":"31.23298","category":"178","category_name":"电影院","address":"黄浦区南京西路216号(黄河路南京西路)"},{"poiid":"B2094655D26EA2FA489D","title":"人民公园","lon":"121.633072","lat":"31.197651","category":"196","category_name":"公园","address":"上海黄浦区南京西路231号(近黄陂北路)"},{"poiid":"B2094757D06FA3FF469E","title":"国际饭店","lon":"121.47188","lat":"31.23312","category":"214","category_name":"四星级宾馆","address":"黄浦区南京西路170号(近黄河路)"},{"poiid":"B2094757D06FA3F54893","title":"Kathleen's 5 Rooftop Restaurant &amp; Bar","lon":"121.470920351","lat":"31.2311566892","category":"94","category_name":"西餐厅","address":"黄浦区南京西路325号上海美术馆5楼(近黄陂北路)"},{"poiid":"B2094757D16FA0FB4192","title":"Barbarossa","lon":"121.471591738","lat":"31.2314373258","category":"500","category_name":"未知分类","address":"上海市黄浦区成都北路"},{"poiid":"B2094757D66BA6FD4799","title":"星巴克(人民公园店)","lon":"121.471031","lat":"31.231656","category":"260","category_name":"其他","address":"黄浦区南京西路189号(近新昌路)"},{"poiid":"B2094757D06EAAFA4593","title":"MOCA上海当代艺术馆","lon":"121.47345","lat":"31.23194","category":"260","category_name":"其他","address":"上海黄浦区南京西路231号人民公园7号门(近黄陂北路)"},{"poiid":"B2094757D16FA6FF459C","title":"雅科","lon":"121.47077873","lat":"31.231950336","category":"76","category_name":"上海菜","address":"黄浦区南京西路248号大光明影院3楼屋顶花园(近黄河路)"},{"poiid":"B2094655D26EA6FF479E","title":"MOCA莫卡意大利餐厅","lon":"121.47208","lat":"31.23255","category":"98","category_name":"意式菜品餐厅","address":"南京西路南京西路231号人民公园7号门"},{"poiid":"B2094655D26BA7F8449E","title":"上海大剧院-中剧场(Shanghai Grand Theatre - Drama Theatre)","lon":"121.47076","lat":"31.23004","category":"180","category_name":"剧场","address":"黄浦区人民大道300号大剧院1楼(近黄陂路)"},{"poiid":"B2094757DA6EABFF499A","title":"爆爆椒香辣虾干锅三绝(人民广场店)","lon":"121.470959999998","lat":"31.2325700000003","category":"71","category_name":"四川菜","address":"黄浦区南京西路258号世茂商都5楼(近黄河路)"},{"poiid":"B2094654DB64A5FD4099","title":"苏浙汇(黄浦店)","lon":"121.47048","lat":"31.23164","category":"76","category_name":"上海菜","address":"黄浦区南京西路288号创兴金融中心3楼(近新昌路)"},{"poiid":"B2094757D06EAAFD4292","title":"老克勒上海菜 南京西路店","lon":"121.47031","lat":"31.23222","category":"76","category_name":"上海菜","address":"黄浦区南京西路288号创兴金融中心2楼(近新昌路)"},{"poiid":"B2094654DB6AA3FA409B","title":"芭芭露莎","lon":"121.47208","lat":"31.23255","category":"260","category_name":"其他","address":"黄浦区南京西路231号人民公园内人工湖(近黄陂北路)"},{"poiid":"B2094757D06AAAFA4192","title":"王鼎日本料理","lon":"121.471065738","lat":"31.2323493453","category":"500","category_name":"未知分类","address":"上海南京西路258世贸商都7-8"},{"poiid":"B2094757D46EA5F44198","title":"林记小馆 人民广场店","lon":"121.470848","lat":"31.229474","category":"72","category_name":"广东菜","address":"普陀区真北路2022号映象戴斯大酒店内(近铜川路)"},{"poiid":"B2094757D06FA3FA4599","title":"必胜客(大光明店)","lon":"121.47163","lat":"31.23285","category":"68","category_name":"快餐厅","address":"黄浦区南京西路190号-208号(近黄河路)"},{"poiid":"B2094757D06FA2F94199","title":"唐朝大酒店(明天店)","lon":"121.47028","lat":"31.2298","category":"72","category_name":"广东菜","address":"上海南京西路389号明天广场二楼"},{"poiid":"B2094757D06FA0F8499D","title":"王品台塑牛排(仙乐斯店)","lon":"121.47152548","lat":"31.230202321","category":"94","category_name":"西餐厅","address":"静安区南京西路388号仙乐斯广场3楼(黄陂北路口)"},{"poiid":"B2094757D06FA3F4439E","title":"上海市人民政府","lon":"121.47373199","lat":"31.230110168","category":"260","category_name":"其他","address":"上海人民大道200号"},{"poiid":"B2094757D06FABFC449F","title":"人民公园相亲角","lon":"121.47255873","lat":"31.231616329","category":"196","category_name":"公园","address":"上海市黄浦区凤阳路"},{"poiid":"B2094751D56AA4FF4299","title":"七叶和茶","lon":"121.471078","lat":"31.232059","category":"247","category_name":"餐饮美食","address":"人民广场迪美"},{"poiid":"B2094757D06BA1F84698","title":"杏花楼","lon":"121.471473738","lat":"31.2333003655","category":"72","category_name":"广东菜","address":"黄浦区黄河路21号鸿祥大厦3-4楼(近南京西路)"},{"poiid":"B2094757D568A7FD4098","title":"barbarossalounge(芭芭露莎)","lon":"121.470839999998","lat":"31.2313530600002","category":"172","category_name":"酒吧","address":"黄浦区南京西路231号(人民公园内)"},{"poiid":"B2094757D069A2FE469B","title":"Barbarossa","lon":"121.471756738","lat":"31.2323963463","category":"172","category_name":"酒吧","address":"上海黄浦区南京西路231号人民公园内人工湖"},{"poiid":"B2094757D06FABFC439A","title":"JW万豪咖啡厅","lon":"121.47152068","lat":"31.232234257","category":"268","category_name":"自助","address":"黄浦区南京西路399号明天广场JW万豪酒店38楼(近黄陂北路)"},{"poiid":"B2094757D068A2FE469E","title":"酒池星座(黄陂北路)","lon":"121.470575126","lat":"31.2296706472","category":"260","category_name":"其他","address":"黄浦区黄陂北路251号(近江阴路)"},{"poiid":"B2094757D068A7F5419B","title":"翠濮梧桐","lon":"121.47084393","lat":"31.231908135","category":"260","category_name":"其他","address":"黄浦区南京西路258号世茂商都4楼(近上海美术馆)"},{"poiid":"B209475DD06CA3FC419A","title":"南京大排档","lon":"121.470893","lat":"31.232265","category":"247","category_name":"餐饮美食","address":"上海市 南京西路258号世茂商都3楼(近新昌路)"},{"poiid":"B2094752D16AA1F44099","title":"Mr.Pizza","lon":"121.471802","lat":"31.232245","category":"247","category_name":"餐饮美食","address":"上海福州路666号"},{"poiid":"B2094750D26AA2FC4593","title":"上海当代艺术馆","lon":"121.4728524764","lat":"31.231439951094","category":"645","category_name":"机构及其他类公司","address":"南京西路231号人民公园内"},{"poiid":"B2094757D069A2F94392","title":"宝得莱","lon":"121.47042873","lat":"31.230037296","category":"95","category_name":"日本料理","address":"黄浦区黄陂北路227号中区广场1楼(近大剧院)"},{"poiid":"B2094757D06FA0FA4598","title":"渝乡人家(世茂商都店)","lon":"121.47092","lat":"31.23143","category":"71","category_name":"四川菜","address":"黄浦区南京西路258号世茂商都6楼(近大光明电影院，上海美术馆)  "},{"poiid":"B2094757D06FA1F4499D","title":"创兴金融中心","lon":"121.4704895","lat":"31.231645584","category":"46","category_name":"楼宇","address":"上海南京西路288号"},{"poiid":"B209475DD06CA3FC469F","title":"南京大牌档","lon":"121.470848","lat":"31.232343","category":"500","category_name":"未知分类","address":"上海市 南京西路258号世茂商都3楼(近新昌路)"},{"poiid":"B2094655D26CAAF8499D","title":"恒利国际大厦","lon":"121.473173","lat":"31.233112","category":"46","category_name":"楼宇","address":"越秀区环市东路362-366号"},{"poiid":"B209475DD56BAAFC4893","title":"南京大排档","lon":"121.470718","lat":"31.231937","category":"247","category_name":"餐饮美食","address":"上海市 南京西路258号世贸商都3楼"},{"poiid":"B2094654DB6BABFE4598","title":"马克西姆西餐厅 Maxim's","lon":"121.47126716885","lat":"31.228677607786","category":"97","category_name":"法式菜品餐厅","address":"黄陂北路200号上海大剧院1楼近人民大道"},{"poiid":"B2094757D06FAAFB449F","title":"近江和牛正传(中区广场店)","lon":"121.47032673","lat":"31.22977029","category":"95","category_name":"日本料理","address":"黄浦区黄陂北路227号中区广场201室(近人民大道)"},{"poiid":"B2094757D069A3FC4692","title":"流年咖啡","lon":"121.470938752","lat":"31.2315203906","category":"94","category_name":"西餐厅","address":"黄浦区南京西路205号(近上海美术馆)"},{"poiid":"B2094757D06FA5FD4598","title":"人民公园游乐园","lon":"121.47083282","lat":"31.231388092","category":"195","category_name":"游乐场","address":"上海黄浦区南京西路231号人民公园内"},{"poiid":"B2094757D469A1F5429C","title":"JW's Lounge Bar","lon":"121.470491054","lat":"31.229576793","category":"172","category_name":"酒吧","address":"黄浦区南京西路399号JW万豪酒店40楼(近黄陂北路)"},{"poiid":"B2094757D569A2FA4792","title":"雅科空中花园酒吧","lon":"121.4712956","lat":"31.23302417","category":"172","category_name":"酒吧","address":"南京西路216号大光明影院3层"},{"poiid":"B2094757D06EAAFF439B","title":"王鼎日本料理铁板烧","lon":"121.4714","lat":"31.23237","category":"95","category_name":"日本料理","address":"黄浦区南京西路258号世茂商都7-8楼(近黄河路)"},{"poiid":"B2094654DA68A3FB469F","title":"上海大剧院","lon":"121.471968","lat":"31.230142","category":"180","category_name":"剧场","address":"黄浦区人民大道300号(近人民广场)"},{"poiid":"B2094654DA68A2FD4399","title":"上海美术馆","lon":"121.47093","lat":"31.23108","category":"184","category_name":"美术馆","address":"黄浦区南京西路325号(近黄陂北路)"},{"poiid":"B2094753D76FAAFA449C","title":"上海滩国泰旗舰店","lon":"121.466011","lat":"31.216125","category":"249","category_name":"购物服务","address":"淮海中路868号"},{"poiid":"B209475CD564A7F84292","title":"上海滩新天地店","lon":"121.47463","lat":"31.22164","category":"119","category_name":"商场","address":"\"太仓路181弄新天地北里15号\r\n\""},{"poiid":"B209475CD564A7F8439E","title":"上海滩中信泰富店","lon":"121.45602","lat":"31.22851","category":"119","category_name":"商场","address":"\"南京西路1168号中信泰富广场，店铺号221.\r\n\""},{"poiid":"B209475CD564A7F84392","title":"上海滩浦东香格里拉店","lon":"121.50058","lat":"31.23634","category":"119","category_name":"商场","address":"浦东富成路33号香格里拉酒店内大堂层"},{"poiid":"B2094654DB64A6FD4593","title":"大光明电影院","lon":"121.47128","lat":"31.23298","category":"178","category_name":"电影院","address":"黄浦区南京西路216号(黄河路南京西路)"},{"poiid":"B2094655D26EA2FA489D","title":"人民公园","lon":"121.633072","lat":"31.197651","category":"196","category_name":"公园","address":"上海黄浦区南京西路231号(近黄陂北路)"},{"poiid":"B2094757D06FA3FF469E","title":"国际饭店","lon":"121.47188","lat":"31.23312","category":"214","category_name":"四星级宾馆","address":"黄浦区南京西路170号(近黄河路)"},{"poiid":"B2094757D06FA3F54893","title":"Kathleen's 5 Rooftop Restaurant &amp; Bar","lon":"121.470920351","lat":"31.2311566892","category":"94","category_name":"西餐厅","address":"黄浦区南京西路325号上海美术馆5楼(近黄陂北路)"},{"poiid":"B2094757D16FA0FB4192","title":"Barbarossa","lon":"121.471591738","lat":"31.2314373258","category":"500","category_name":"未知分类","address":"上海市黄浦区成都北路"},{"poiid":"B2094757D66BA6FD4799","title":"星巴克(人民公园店)","lon":"121.471031","lat":"31.231656","category":"260","category_name":"其他","address":"黄浦区南京西路189号(近新昌路)"},{"poiid":"B2094757D06EAAFA4593","title":"MOCA上海当代艺术馆","lon":"121.47345","lat":"31.23194","category":"260","category_name":"其他","address":"上海黄浦区南京西路231号人民公园7号门(近黄陂北路)"},{"poiid":"B2094757D16FA6FF459C","title":"雅科","lon":"121.47077873","lat":"31.231950336","category":"76","category_name":"上海菜","address":"黄浦区南京西路248号大光明影院3楼屋顶花园(近黄河路)"},{"poiid":"B2094655D26EA6FF479E","title":"MOCA莫卡意大利餐厅","lon":"121.47208","lat":"31.23255","category":"98","category_name":"意式菜品餐厅","address":"南京西路南京西路231号人民公园7号门"},{"poiid":"B2094655D26BA7F8449E","title":"上海大剧院-中剧场(Shanghai Grand Theatre - Drama Theatre)","lon":"121.47076","lat":"31.23004","category":"180","category_name":"剧场","address":"黄浦区人民大道300号大剧院1楼(近黄陂路)"},{"poiid":"B2094757DA6EABFF499A","title":"爆爆椒香辣虾干锅三绝(人民广场店)","lon":"121.470959999998","lat":"31.2325700000003","category":"71","category_name":"四川菜","address":"黄浦区南京西路258号世茂商都5楼(近黄河路)"},{"poiid":"B2094654DB64A5FD4099","title":"苏浙汇(黄浦店)","lon":"121.47048","lat":"31.23164","category":"76","category_name":"上海菜","address":"黄浦区南京西路288号创兴金融中心3楼(近新昌路)"},{"poiid":"B2094757D06EAAFD4292","title":"老克勒上海菜 南京西路店","lon":"121.47031","lat":"31.23222","category":"76","category_name":"上海菜","address":"黄浦区南京西路288号创兴金融中心2楼(近新昌路)"},{"poiid":"B2094654DB6AA3FA409B","title":"芭芭露莎","lon":"121.47208","lat":"31.23255","category":"260","category_name":"其他","address":"黄浦区南京西路231号人民公园内人工湖(近黄陂北路)"},{"poiid":"B2094757D06AAAFA4192","title":"王鼎日本料理","lon":"121.471065738","lat":"31.2323493453","category":"500","category_name":"未知分类","address":"上海南京西路258世贸商都7-8"},{"poiid":"B2094757D46EA5F44198","title":"林记小馆 人民广场店","lon":"121.470848","lat":"31.229474","category":"72","category_name":"广东菜","address":"普陀区真北路2022号映象戴斯大酒店内(近铜川路)"},{"poiid":"B2094757D06FA3FA4599","title":"必胜客(大光明店)","lon":"121.47163","lat":"31.23285","category":"68","category_name":"快餐厅","address":"黄浦区南京西路190号-208号(近黄河路)"},{"poiid":"B2094757D06FA2F94199","title":"唐朝大酒店(明天店)","lon":"121.47028","lat":"31.2298","category":"72","category_name":"广东菜","address":"上海南京西路389号明天广场二楼"},{"poiid":"B2094757D06FA0F8499D","title":"王品台塑牛排(仙乐斯店)","lon":"121.47152548","lat":"31.230202321","category":"94","category_name":"西餐厅","address":"静安区南京西路388号仙乐斯广场3楼(黄陂北路口)"},{"poiid":"B2094757D06FA3F4439E","title":"上海市人民政府","lon":"121.47373199","lat":"31.230110168","category":"260","category_name":"其他","address":"上海人民大道200号"},{"poiid":"B2094757D06FABFC449F","title":"人民公园相亲角","lon":"121.47255873","lat":"31.231616329","category":"196","category_name":"公园","address":"上海市黄浦区凤阳路"},{"poiid":"B2094751D56AA4FF4299","title":"七叶和茶","lon":"121.471078","lat":"31.232059","category":"247","category_name":"餐饮美食","address":"人民广场迪美"},{"poiid":"B2094757D06BA1F84698","title":"杏花楼","lon":"121.471473738","lat":"31.2333003655","category":"72","category_name":"广东菜","address":"黄浦区黄河路21号鸿祥大厦3-4楼(近南京西路)"},{"poiid":"B2094757D568A7FD4098","title":"barbarossalounge(芭芭露莎)","lon":"121.470839999998","lat":"31.2313530600002","category":"172","category_name":"酒吧","address":"黄浦区南京西路231号(人民公园内)"},{"poiid":"B2094757D069A2FE469B","title":"Barbarossa","lon":"121.471756738","lat":"31.2323963463","category":"172","category_name":"酒吧","address":"上海黄浦区南京西路231号人民公园内人工湖"},{"poiid":"B2094757D06FABFC439A","title":"JW万豪咖啡厅","lon":"121.47152068","lat":"31.232234257","category":"268","category_name":"自助","address":"黄浦区南京西路399号明天广场JW万豪酒店38楼(近黄陂北路)"},{"poiid":"B2094757D068A2FE469E","title":"酒池星座(黄陂北路)","lon":"121.470575126","lat":"31.2296706472","category":"260","category_name":"其他","address":"黄浦区黄陂北路251号(近江阴路)"},{"poiid":"B2094757D068A7F5419B","title":"翠濮梧桐","lon":"121.47084393","lat":"31.231908135","category":"260","category_name":"其他","address":"黄浦区南京西路258号世茂商都4楼(近上海美术馆)"},{"poiid":"B209475DD06CA3FC419A","title":"南京大排档","lon":"121.470893","lat":"31.232265","category":"247","category_name":"餐饮美食","address":"上海市 南京西路258号世茂商都3楼(近新昌路)"},{"poiid":"B2094752D16AA1F44099","title":"Mr.Pizza","lon":"121.471802","lat":"31.232245","category":"247","category_name":"餐饮美食","address":"上海福州路666号"},{"poiid":"B2094750D26AA2FC4593","title":"上海当代艺术馆","lon":"121.4728524764","lat":"31.231439951094","category":"645","category_name":"机构及其他类公司","address":"南京西路231号人民公园内"},{"poiid":"B2094757D069A2F94392","title":"宝得莱","lon":"121.47042873","lat":"31.230037296","category":"95","category_name":"日本料理","address":"黄浦区黄陂北路227号中区广场1楼(近大剧院)"},{"poiid":"B2094757D06FA0FA4598","title":"渝乡人家(世茂商都店)","lon":"121.47092","lat":"31.23143","category":"71","category_name":"四川菜","address":"黄浦区南京西路258号世茂商都6楼(近大光明电影院，上海美术馆)  "},{"poiid":"B2094757D06FA1F4499D","title":"创兴金融中心","lon":"121.4704895","lat":"31.231645584","category":"46","category_name":"楼宇","address":"上海南京西路288号"},{"poiid":"B209475DD06CA3FC469F","title":"南京大牌档","lon":"121.470848","lat":"31.232343","category":"500","category_name":"未知分类","address":"上海市 南京西路258号世茂商都3楼(近新昌路)"},{"poiid":"B2094655D26CAAF8499D","title":"恒利国际大厦","lon":"121.473173","lat":"31.233112","category":"46","category_name":"楼宇","address":"越秀区环市东路362-366号"},{"poiid":"B209475DD56BAAFC4893","title":"南京大排档","lon":"121.470718","lat":"31.231937","category":"247","category_name":"餐饮美食","address":"上海市 南京西路258号世贸商都3楼"},{"poiid":"B2094654DB6BABFE4598","title":"马克西姆西餐厅 Maxim's","lon":"121.47126716885","lat":"31.228677607786","category":"97","category_name":"法式菜品餐厅","address":"黄陂北路200号上海大剧院1楼近人民大道"},{"poiid":"B2094757D06FAAFB449F","title":"近江和牛正传(中区广场店)","lon":"121.47032673","lat":"31.22977029","category":"95","category_name":"日本料理","address":"黄浦区黄陂北路227号中区广场201室(近人民大道)"},{"poiid":"B2094757D069A3FC4692","title":"流年咖啡","lon":"121.470938752","lat":"31.2315203906","category":"94","category_name":"西餐厅","address":"黄浦区南京西路205号(近上海美术馆)"},{"poiid":"B2094757D06FA5FD4598","title":"人民公园游乐园","lon":"121.47083282","lat":"31.231388092","category":"195","category_name":"游乐场","address":"上海黄浦区南京西路231号人民公园内"},{"poiid":"B2094757D469A1F5429C","title":"JW's Lounge Bar","lon":"121.470491054","lat":"31.229576793","category":"172","category_name":"酒吧","address":"黄浦区南京西路399号JW万豪酒店40楼(近黄陂北路)"},{"poiid":"B2094757D569A2FA4792","title":"雅科空中花园酒吧","lon":"121.4712956","lat":"31.23302417","category":"172","category_name":"酒吧","address":"南京西路216号大光明影院3层"},{"poiid":"B2094757D06EAAFF439B","title":"王鼎日本料理铁板烧","lon":"121.4714","lat":"31.23237","category":"95","category_name":"日本料理","address":"黄浦区南京西路258号世茂商都7-8楼(近黄河路)"},{"poiid":"B2094654DA68A3FB469F","title":"上海大剧院","lon":"121.471968","lat":"31.230142","category":"180","category_name":"剧场","address":"黄浦区人民大道300号(近人民广场)"},{"poiid":"B2094654DA68A2FD4399","title":"上海美术馆","lon":"121.47093","lat":"31.23108","category":"184","category_name":"美术馆","address":"黄浦区南京西路325号(近黄陂北路)"},{"poiid":"B2094753D76FAAFA449C","title":"上海滩国泰旗舰店","lon":"121.466011","lat":"31.216125","category":"249","category_name":"购物服务","address":"淮海中路868号"},{"poiid":"B209475CD564A7F84292","title":"上海滩新天地店","lon":"121.47463","lat":"31.22164","category":"119","category_name":"商场","address":"\"太仓路181弄新天地北里15号\r\n\""},{"poiid":"B209475CD564A7F8439E","title":"上海滩中信泰富店","lon":"121.45602","lat":"31.22851","category":"119","category_name":"商场","address":"\"南京西路1168号中信泰富广场，店铺号221.\r\n\""},{"poiid":"B209475CD564A7F84392","title":"上海滩浦东香格里拉店","lon":"121.50058","lat":"31.23634","category":"119","category_name":"商场","address":"浦东富成路33号香格里拉酒店内大堂层"},{"poiid":"B2094654DB64A6FD4593","title":"大光明电影院","lon":"121.47128","lat":"31.23298","category":"178","category_name":"电影院","address":"黄浦区南京西路216号(黄河路南京西路)"},{"poiid":"B2094655D26EA2FA489D","title":"人民公园","lon":"121.633072","lat":"31.197651","category":"196","category_name":"公园","address":"上海黄浦区南京西路231号(近黄陂北路)"},{"poiid":"B2094757D06FA3FF469E","title":"国际饭店","lon":"121.47188","lat":"31.23312","category":"214","category_name":"四星级宾馆","address":"黄浦区南京西路170号(近黄河路)"},{"poiid":"B2094757D06FA3F54893","title":"Kathleen's 5 Rooftop Restaurant &amp; Bar","lon":"121.470920351","lat":"31.2311566892","category":"94","category_name":"西餐厅","address":"黄浦区南京西路325号上海美术馆5楼(近黄陂北路)"},{"poiid":"B2094757D16FA0FB4192","title":"Barbarossa","lon":"121.471591738","lat":"31.2314373258","category":"500","category_name":"未知分类","address":"上海市黄浦区成都北路"},{"poiid":"B2094757D66BA6FD4799","title":"星巴克(人民公园店)","lon":"121.471031","lat":"31.231656","category":"260","category_name":"其他","address":"黄浦区南京西路189号(近新昌路)"},{"poiid":"B2094757D06EAAFA4593","title":"MOCA上海当代艺术馆","lon":"121.47345","lat":"31.23194","category":"260","category_name":"其他","address":"上海黄浦区南京西路231号人民公园7号门(近黄陂北路)"},{"poiid":"B2094757D16FA6FF459C","title":"雅科","lon":"121.47077873","lat":"31.231950336","category":"76","category_name":"上海菜","address":"黄浦区南京西路248号大光明影院3楼屋顶花园(近黄河路)"},{"poiid":"B2094655D26EA6FF479E","title":"MOCA莫卡意大利餐厅","lon":"121.47208","lat":"31.23255","category":"98","category_name":"意式菜品餐厅","address":"南京西路南京西路231号人民公园7号门"},{"poiid":"B2094655D26BA7F8449E","title":"上海大剧院-中剧场(Shanghai Grand Theatre - Drama Theatre)","lon":"121.47076","lat":"31.23004","category":"180","category_name":"剧场","address":"黄浦区人民大道300号大剧院1楼(近黄陂路)"},{"poiid":"B2094757DA6EABFF499A","title":"爆爆椒香辣虾干锅三绝(人民广场店)","lon":"121.470959999998","lat":"31.2325700000003","category":"71","category_name":"四川菜","address":"黄浦区南京西路258号世茂商都5楼(近黄河路)"},{"poiid":"B2094654DB64A5FD4099","title":"苏浙汇(黄浦店)","lon":"121.47048","lat":"31.23164","category":"76","category_name":"上海菜","address":"黄浦区南京西路288号创兴金融中心3楼(近新昌路)"},{"poiid":"B2094757D06EAAFD4292","title":"老克勒上海菜 南京西路店","lon":"121.47031","lat":"31.23222","category":"76","category_name":"上海菜","address":"黄浦区南京西路288号创兴金融中心2楼(近新昌路)"},{"poiid":"B2094654DB6AA3FA409B","title":"芭芭露莎","lon":"121.47208","lat":"31.23255","category":"260","category_name":"其他","address":"黄浦区南京西路231号人民公园内人工湖(近黄陂北路)"},{"poiid":"B2094757D06AAAFA4192","title":"王鼎日本料理","lon":"121.471065738","lat":"31.2323493453","category":"500","category_name":"未知分类","address":"上海南京西路258世贸商都7-8"},{"poiid":"B2094757D46EA5F44198","title":"林记小馆 人民广场店","lon":"121.470848","lat":"31.229474","category":"72","category_name":"广东菜","address":"普陀区真北路2022号映象戴斯大酒店内(近铜川路)"},{"poiid":"B2094757D06FA3FA4599","title":"必胜客(大光明店)","lon":"121.47163","lat":"31.23285","category":"68","category_name":"快餐厅","address":"黄浦区南京西路190号-208号(近黄河路)"},{"poiid":"B2094757D06FA2F94199","title":"唐朝大酒店(明天店)","lon":"121.47028","lat":"31.2298","category":"72","category_name":"广东菜","address":"上海南京西路389号明天广场二楼"},{"poiid":"B2094757D06FA0F8499D","title":"王品台塑牛排(仙乐斯店)","lon":"121.47152548","lat":"31.230202321","category":"94","category_name":"西餐厅","address":"静安区南京西路388号仙乐斯广场3楼(黄陂北路口)"},{"poiid":"B2094757D06FA3F4439E","title":"上海市人民政府","lon":"121.47373199","lat":"31.230110168","category":"260","category_name":"其他","address":"上海人民大道200号"},{"poiid":"B2094757D06FABFC449F","title":"人民公园相亲角","lon":"121.47255873","lat":"31.231616329","category":"196","category_name":"公园","address":"上海市黄浦区凤阳路"},{"poiid":"B2094751D56AA4FF4299","title":"七叶和茶","lon":"121.471078","lat":"31.232059","category":"247","category_name":"餐饮美食","address":"人民广场迪美"},{"poiid":"B2094757D06BA1F84698","title":"杏花楼","lon":"121.471473738","lat":"31.2333003655","category":"72","category_name":"广东菜","address":"黄浦区黄河路21号鸿祥大厦3-4楼(近南京西路)"},{"poiid":"B2094757D568A7FD4098","title":"barbarossalounge(芭芭露莎)","lon":"121.470839999998","lat":"31.2313530600002","category":"172","category_name":"酒吧","address":"黄浦区南京西路231号(人民公园内)"},{"poiid":"B2094757D069A2FE469B","title":"Barbarossa","lon":"121.471756738","lat":"31.2323963463","category":"172","category_name":"酒吧","address":"上海黄浦区南京西路231号人民公园内人工湖"},{"poiid":"B2094757D06FABFC439A","title":"JW万豪咖啡厅","lon":"121.47152068","lat":"31.232234257","category":"268","category_name":"自助","address":"黄浦区南京西路399号明天广场JW万豪酒店38楼(近黄陂北路)"},{"poiid":"B2094757D068A2FE469E","title":"酒池星座(黄陂北路)","lon":"121.470575126","lat":"31.2296706472","category":"260","category_name":"其他","address":"黄浦区黄陂北路251号(近江阴路)"},{"poiid":"B2094757D068A7F5419B","title":"翠濮梧桐","lon":"121.47084393","lat":"31.231908135","category":"260","category_name":"其他","address":"黄浦区南京西路258号世茂商都4楼(近上海美术馆)"},{"poiid":"B209475DD06CA3FC419A","title":"南京大排档","lon":"121.470893","lat":"31.232265","category":"247","category_name":"餐饮美食","address":"上海市 南京西路258号世茂商都3楼(近新昌路)"},{"poiid":"B2094752D16AA1F44099","title":"Mr.Pizza","lon":"121.471802","lat":"31.232245","category":"247","category_name":"餐饮美食","address":"上海福州路666号"},{"poiid":"B2094750D26AA2FC4593","title":"上海当代艺术馆","lon":"121.4728524764","lat":"31.231439951094","category":"645","category_name":"机构及其他类公司","address":"南京西路231号人民公园内"},{"poiid":"B2094757D069A2F94392","title":"宝得莱","lon":"121.47042873","lat":"31.230037296","category":"95","category_name":"日本料理","address":"黄浦区黄陂北路227号中区广场1楼(近大剧院)"},{"poiid":"B2094757D06FA0FA4598","title":"渝乡人家(世茂商都店)","lon":"121.47092","lat":"31.23143","category":"71","category_name":"四川菜","address":"黄浦区南京西路258号世茂商都6楼(近大光明电影院，上海美术馆)  "},{"poiid":"B2094757D06FA1F4499D","title":"创兴金融中心","lon":"121.4704895","lat":"31.231645584","category":"46","category_name":"楼宇","address":"上海南京西路288号"},{"poiid":"B209475DD06CA3FC469F","title":"南京大牌档","lon":"121.470848","lat":"31.232343","category":"500","category_name":"未知分类","address":"上海市 南京西路258号世茂商都3楼(近新昌路)"},{"poiid":"B2094655D26CAAF8499D","title":"恒利国际大厦","lon":"121.473173","lat":"31.233112","category":"46","category_name":"楼宇","address":"越秀区环市东路362-366号"},{"poiid":"B209475DD56BAAFC4893","title":"南京大排档","lon":"121.470718","lat":"31.231937","category":"247","category_name":"餐饮美食","address":"上海市 南京西路258号世贸商都3楼"},{"poiid":"B2094654DB6BABFE4598","title":"马克西姆西餐厅 Maxim's","lon":"121.47126716885","lat":"31.228677607786","category":"97","category_name":"法式菜品餐厅","address":"黄陂北路200号上海大剧院1楼近人民大道"},{"poiid":"B2094757D06FAAFB449F","title":"近江和牛正传(中区广场店)","lon":"121.47032673","lat":"31.22977029","category":"95","category_name":"日本料理","address":"黄浦区黄陂北路227号中区广场201室(近人民大道)"},{"poiid":"B2094757D069A3FC4692","title":"流年咖啡","lon":"121.470938752","lat":"31.2315203906","category":"94","category_name":"西餐厅","address":"黄浦区南京西路205号(近上海美术馆)"},{"poiid":"B2094757D06FA5FD4598","title":"人民公园游乐园","lon":"121.47083282","lat":"31.231388092","category":"195","category_name":"游乐场","address":"上海黄浦区南京西路231号人民公园内"},{"poiid":"B2094757D469A1F5429C","title":"JW's Lounge Bar","lon":"121.470491054","lat":"31.229576793","category":"172","category_name":"酒吧","address":"黄浦区南京西路399号JW万豪酒店40楼(近黄陂北路)"},{"poiid":"B2094757D569A2FA4792","title":"雅科空中花园酒吧","lon":"121.4712956","lat":"31.23302417","category":"172","category_name":"酒吧","address":"南京西路216号大光明影院3层"},{"poiid":"B2094757D06EAAFF439B","title":"王鼎日本料理铁板烧","lon":"121.4714","lat":"31.23237","category":"95","category_name":"日本料理","address":"黄浦区南京西路258号世茂商都7-8楼(近黄河路)"},{"poiid":"B2094654DA68A3FB469F","title":"上海大剧院","lon":"121.471968","lat":"31.230142","category":"180","category_name":"剧场","address":"黄浦区人民大道300号(近人民广场)"},{"poiid":"B2094654DA68A2FD4399","title":"上海美术馆","lon":"121.47093","lat":"31.23108","category":"184","category_name":"美术馆","address":"黄浦区南京西路325号(近黄陂北路)"},{"poiid":"B2094753D76FAAFA449C","title":"上海滩国泰旗舰店","lon":"121.466011","lat":"31.216125","category":"249","category_name":"购物服务","address":"淮海中路868号"},{"poiid":"B209475CD564A7F84292","title":"上海滩新天地店","lon":"121.47463","lat":"31.22164","category":"119","category_name":"商场","address":"\"太仓路181弄新天地北里15号\r\n\""},{"poiid":"B209475CD564A7F8439E","title":"上海滩中信泰富店","lon":"121.45602","lat":"31.22851","category":"119","category_name":"商场","address":"\"南京西路1168号中信泰富广场，店铺号221.\r\n\""},{"poiid":"B209475CD564A7F84392","title":"上海滩浦东香格里拉店","lon":"121.50058","lat":"31.23634","category":"119","category_name":"商场","address":"浦东富成路33号香格里拉酒店内大堂层"},{"poiid":"B2094654DB64A6FD4593","title":"大光明电影院","lon":"121.47128","lat":"31.23298","category":"178","category_name":"电影院","address":"黄浦区南京西路216号(黄河路南京西路)"},{"poiid":"B2094655D26EA2FA489D","title":"人民公园","lon":"121.633072","lat":"31.197651","category":"196","category_name":"公园","address":"上海黄浦区南京西路231号(近黄陂北路)"},{"poiid":"B2094757D06FA3FF469E","title":"国际饭店","lon":"121.47188","lat":"31.23312","category":"214","category_name":"四星级宾馆","address":"黄浦区南京西路170号(近黄河路)"},{"poiid":"B2094757D06FA3F54893","title":"Kathleen's 5 Rooftop Restaurant &amp; Bar","lon":"121.470920351","lat":"31.2311566892","category":"94","category_name":"西餐厅","address":"黄浦区南京西路325号上海美术馆5楼(近黄陂北路)"},{"poiid":"B2094757D16FA0FB4192","title":"Barbarossa","lon":"121.471591738","lat":"31.2314373258","category":"500","category_name":"未知分类","address":"上海市黄浦区成都北路"},{"poiid":"B2094757D66BA6FD4799","title":"星巴克(人民公园店)","lon":"121.471031","lat":"31.231656","category":"260","category_name":"其他","address":"黄浦区南京西路189号(近新昌路)"},{"poiid":"B2094757D06EAAFA4593","title":"MOCA上海当代艺术馆","lon":"121.47345","lat":"31.23194","category":"260","category_name":"其他","address":"上海黄浦区南京西路231号人民公园7号门(近黄陂北路)"},{"poiid":"B2094757D16FA6FF459C","title":"雅科","lon":"121.47077873","lat":"31.231950336","category":"76","category_name":"上海菜","address":"黄浦区南京西路248号大光明影院3楼屋顶花园(近黄河路)"},{"poiid":"B2094655D26EA6FF479E","title":"MOCA莫卡意大利餐厅","lon":"121.47208","lat":"31.23255","category":"98","category_name":"意式菜品餐厅","address":"南京西路南京西路231号人民公园7号门"},{"poiid":"B2094655D26BA7F8449E","title":"上海大剧院-中剧场(Shanghai Grand Theatre - Drama Theatre)","lon":"121.47076","lat":"31.23004","category":"180","category_name":"剧场","address":"黄浦区人民大道300号大剧院1楼(近黄陂路)"},{"poiid":"B2094757DA6EABFF499A","title":"爆爆椒香辣虾干锅三绝(人民广场店)","lon":"121.470959999998","lat":"31.2325700000003","category":"71","category_name":"四川菜","address":"黄浦区南京西路258号世茂商都5楼(近黄河路)"},{"poiid":"B2094654DB64A5FD4099","title":"苏浙汇(黄浦店)","lon":"121.47048","lat":"31.23164","category":"76","category_name":"上海菜","address":"黄浦区南京西路288号创兴金融中心3楼(近新昌路)"},{"poiid":"B2094757D06EAAFD4292","title":"老克勒上海菜 南京西路店","lon":"121.47031","lat":"31.23222","category":"76","category_name":"上海菜","address":"黄浦区南京西路288号创兴金融中心2楼(近新昌路)"},{"poiid":"B2094654DB6AA3FA409B","title":"芭芭露莎","lon":"121.47208","lat":"31.23255","category":"260","category_name":"其他","address":"黄浦区南京西路231号人民公园内人工湖(近黄陂北路)"},{"poiid":"B2094757D06AAAFA4192","title":"王鼎日本料理","lon":"121.471065738","lat":"31.2323493453","category":"500","category_name":"未知分类","address":"上海南京西路258世贸商都7-8"},{"poiid":"B2094757D46EA5F44198","title":"林记小馆 人民广场店","lon":"121.470848","lat":"31.229474","category":"72","category_name":"广东菜","address":"普陀区真北路2022号映象戴斯大酒店内(近铜川路)"},{"poiid":"B2094757D06FA3FA4599","title":"必胜客(大光明店)","lon":"121.47163","lat":"31.23285","category":"68","category_name":"快餐厅","address":"黄浦区南京西路190号-208号(近黄河路)"},{"poiid":"B2094757D06FA2F94199","title":"唐朝大酒店(明天店)","lon":"121.47028","lat":"31.2298","category":"72","category_name":"广东菜","address":"上海南京西路389号明天广场二楼"},{"poiid":"B2094757D06FA0F8499D","title":"王品台塑牛排(仙乐斯店)","lon":"121.47152548","lat":"31.230202321","category":"94","category_name":"西餐厅","address":"静安区南京西路388号仙乐斯广场3楼(黄陂北路口)"},{"poiid":"B2094757D06FA3F4439E","title":"上海市人民政府","lon":"121.47373199","lat":"31.230110168","category":"260","category_name":"其他","address":"上海人民大道200号"},{"poiid":"B2094757D06FABFC449F","title":"人民公园相亲角","lon":"121.47255873","lat":"31.231616329","category":"196","category_name":"公园","address":"上海市黄浦区凤阳路"},{"poiid":"B2094751D56AA4FF4299","title":"七叶和茶","lon":"121.471078","lat":"31.232059","category":"247","category_name":"餐饮美食","address":"人民广场迪美"},{"poiid":"B2094757D06BA1F84698","title":"杏花楼","lon":"121.471473738","lat":"31.2333003655","category":"72","category_name":"广东菜","address":"黄浦区黄河路21号鸿祥大厦3-4楼(近南京西路)"},{"poiid":"B2094757D568A7FD4098","title":"barbarossalounge(芭芭露莎)","lon":"121.470839999998","lat":"31.2313530600002","category":"172","category_name":"酒吧","address":"黄浦区南京西路231号(人民公园内)"},{"poiid":"B2094757D069A2FE469B","title":"Barbarossa","lon":"121.471756738","lat":"31.2323963463","category":"172","category_name":"酒吧","address":"上海黄浦区南京西路231号人民公园内人工湖"},{"poiid":"B2094757D06FABFC439A","title":"JW万豪咖啡厅","lon":"121.47152068","lat":"31.232234257","category":"268","category_name":"自助","address":"黄浦区南京西路399号明天广场JW万豪酒店38楼(近黄陂北路)"},{"poiid":"B2094757D068A2FE469E","title":"酒池星座(黄陂北路)","lon":"121.470575126","lat":"31.2296706472","category":"260","category_name":"其他","address":"黄浦区黄陂北路251号(近江阴路)"},{"poiid":"B2094757D068A7F5419B","title":"翠濮梧桐","lon":"121.47084393","lat":"31.231908135","category":"260","category_name":"其他","address":"黄浦区南京西路258号世茂商都4楼(近上海美术馆)"},{"poiid":"B209475DD06CA3FC419A","title":"南京大排档","lon":"121.470893","lat":"31.232265","category":"247","category_name":"餐饮美食","address":"上海市 南京西路258号世茂商都3楼(近新昌路)"},{"poiid":"B2094752D16AA1F44099","title":"Mr.Pizza","lon":"121.471802","lat":"31.232245","category":"247","category_name":"餐饮美食","address":"上海福州路666号"},{"poiid":"B2094750D26AA2FC4593","title":"上海当代艺术馆","lon":"121.4728524764","lat":"31.231439951094","category":"645","category_name":"机构及其他类公司","address":"南京西路231号人民公园内"},{"poiid":"B2094757D069A2F94392","title":"宝得莱","lon":"121.47042873","lat":"31.230037296","category":"95","category_name":"日本料理","address":"黄浦区黄陂北路227号中区广场1楼(近大剧院)"},{"poiid":"B2094757D06FA0FA4598","title":"渝乡人家(世茂商都店)","lon":"121.47092","lat":"31.23143","category":"71","category_name":"四川菜","address":"黄浦区南京西路258号世茂商都6楼(近大光明电影院，上海美术馆)  "},{"poiid":"B2094757D06FA1F4499D","title":"创兴金融中心","lon":"121.4704895","lat":"31.231645584","category":"46","category_name":"楼宇","address":"上海南京西路288号"},{"poiid":"B209475DD06CA3FC469F","title":"南京大牌档","lon":"121.470848","lat":"31.232343","category":"500","category_name":"未知分类","address":"上海市 南京西路258号世茂商都3楼(近新昌路)"},{"poiid":"B2094655D26CAAF8499D","title":"恒利国际大厦","lon":"121.473173","lat":"31.233112","category":"46","category_name":"楼宇","address":"越秀区环市东路362-366号"},{"poiid":"B209475DD56BAAFC4893","title":"南京大排档","lon":"121.470718","lat":"31.231937","category":"247","category_name":"餐饮美食","address":"上海市 南京西路258号世贸商都3楼"},{"poiid":"B2094654DB6BABFE4598","title":"马克西姆西餐厅 Maxim's","lon":"121.47126716885","lat":"31.228677607786","category":"97","category_name":"法式菜品餐厅","address":"黄陂北路200号上海大剧院1楼近人民大道"},{"poiid":"B2094757D06FAAFB449F","title":"近江和牛正传(中区广场店)","lon":"121.47032673","lat":"31.22977029","category":"95","category_name":"日本料理","address":"黄浦区黄陂北路227号中区广场201室(近人民大道)"},{"poiid":"B2094757D069A3FC4692","title":"流年咖啡","lon":"121.470938752","lat":"31.2315203906","category":"94","category_name":"西餐厅","address":"黄浦区南京西路205号(近上海美术馆)"},{"poiid":"B2094757D06FA5FD4598","title":"人民公园游乐园","lon":"121.47083282","lat":"31.231388092","category":"195","category_name":"游乐场","address":"上海黄浦区南京西路231号人民公园内"},{"poiid":"B2094757D469A1F5429C","title":"JW's Lounge Bar","lon":"121.470491054","lat":"31.229576793","category":"172","category_name":"酒吧","address":"黄浦区南京西路399号JW万豪酒店40楼(近黄陂北路)"},{"poiid":"B2094757D569A2FA4792","title":"雅科空中花园酒吧","lon":"121.4712956","lat":"31.23302417","category":"172","category_name":"酒吧","address":"南京西路216号大光明影院3层"}]