[{"poiid":"B2094757D06EAAF8439F","title":"泰晤士小镇小区","lon":"121.20448030631","lat":"31.035668438909","category":"250","category_name":"公园户外","address":"上海市松江区玉华路仓桥镇"},{"poiid":"B2094655D265A4FF4892","title":"泰吾士小镇","lon":"121.20122","lat":"31.02934","category":"47","category_name":"住宅区","address":""},{"poiid":"B2094757D068A1FF409F","title":"华亭湖时代大酒店","lon":"121.20665","lat":"31.0384","category":"76","category_name":"上海菜","address":"松江区滨湖路99号(滨湖路新松江路)"},{"poiid":"B2094655D268A3F9419E","title":"上海宝隆花园酒店","lon":"121.20487","lat":"31.02801","category":"76","category_name":"上海菜","address":"松江区玉树北路6号"},{"poiid":"B2094757D16CA6FE4798","title":"上海新晖大酒店","lon":"121.210652467","lat":"31.0322185475","category":"94","category_name":"西餐厅","address":"上海市松江区文诚路765号(近江学路)"},{"poiid":"B2094757DB68A4FF4992","title":"世贸时尚欢乐影城","lon":"121.214987","lat":"31.034961","category":"500","category_name":"未知分类","address":"上海市松江新城文诚路238弄1号2楼"},{"poiid":"B2094757D16FA7FE439A","title":"8898","lon":"121.21052","lat":"31.03914","category":"260","category_name":"其他","address":"松江区新松江路1296号(近江学路)"},{"poiid":"B2094750D664AAF44592","title":"御澜轩精菜馆","lon":"121.211","lat":"31.0395","category":"76","category_name":"上海菜","address":"松江区新松江路1290号(江学路瑛皇附近)"},{"poiid":"B2094654DB65A6F4419E","title":"珠江新城","lon":"121.20952","lat":"31.03328","category":"47","category_name":"住宅区","address":"上海,上海市,文诚路888弄"},{"poiid":"B2094751D46AA6F8439C","title":"金纯K歌","lon":"121.2125890996374","lat":"31.03451822483569","category":"248","category_name":"生活娱乐","address":"松江新城文诚路500弄1号4楼"},{"poiid":"B2094750D56CABFC409A","title":"麦当劳(开元地中海)","lon":"121.216506","lat":"31.035909","category":"247","category_name":"餐饮美食","address":"松江区新松江路925号开元地中海商业广场2楼(近星巴克)"},{"poiid":"B2094654DB6EA2FA409E","title":"避风港时尚餐厅","lon":"121.21555","lat":"31.03854","category":"257","category_name":"中餐厅","address":""},{"poiid":"B2094757D16DA1FF419F","title":"兰桥公寓","lon":"121.209564087","lat":"31.0286593716","category":"47","category_name":"住宅区","address":"兰桥公寓位于松江思贤路1259弄"},{"poiid":"B2094757D065A7F5429D","title":"海捞坊","lon":"121.21215","lat":"31.03006","category":"86","category_name":"火锅店","address":"松江区江学路381弄18-20号"},{"poiid":"B2094654DB6EA1FD4492","title":"上海市松江区血站","lon":"121.20898597668645","lat":"31.03223787685391","category":"162","category_name":"医院","address":"上海市松江区文诚路801号"},{"poiid":"B2094757D069A2FB4992","title":"紫东新苑","lon":"121.20824","lat":"31.043177","category":"47","category_name":"住宅区","address":"中艺花园位于宝山海江路9号"},{"poiid":"B2094757D064A5FC409C","title":"宝都大酒店","lon":"121.21257779","lat":"31.040709537","category":"76","category_name":"上海菜","address":"松江区松江新松江路1234号(近大学城)"},{"poiid":"B2094654DB64A0FD429C","title":"海德名园","lon":"121.20211","lat":"31.02763","category":"47","category_name":"住宅区","address":"上海市松江区玉树北路455弄"},{"poiid":"B2094757D16CA1FB499E","title":"方松街道社区卫生服务中心","lon":"121.207728","lat":"31.031545","category":"162","category_name":"医院","address":"上海松江区文诚路805号"},{"poiid":"B2094757D068A0FA429B","title":"檀香花苑","lon":"121.21349611","lat":"31.040920209","category":"500","category_name":"未知分类","address":"上海市长宁区天山路209弄"},{"poiid":"B2094654DB6EA1FD439E","title":"玉膳房 龙满楼","lon":"121.206155054","lat":"31.031457793","category":"257","category_name":"中餐厅","address":"江学路381弄1号2-3楼近思贤路"},{"poiid":"B2094757D065ABFD4699","title":"汤士家汤馆(松江一店)","lon":"121.212066","lat":"31.039097","category":"68","category_name":"快餐厅","address":"上海市松江区江学路877号(近松江大学城大学生体育中心)"},{"poiid":"B2094655D268A2FF4593","title":"莫泰168松江文诚路店","lon":"121.21257","lat":"31.03281","category":"216","category_name":"经济型连锁酒店","address":"松江区文诚路500弄5号(近江学路)"},{"poiid":"B2094757D065ABFF439C","title":"御牛台湾牛肉面","lon":"121.21156","lat":"31.03913","category":"91","category_name":"台湾菜","address":"松江区江学路869号(近喜来登)"},{"poiid":"B209475CD768A0FE4099","title":"肥猫餐厅","lon":"121.211997","lat":"31.040697","category":"500","category_name":"未知分类","address":"上海市 新松江路1229号云豹广场3F"},{"poiid":"B2094655D268A2F44092","title":"山菜益汤","lon":"121.21154","lat":"31.02975","category":"257","category_name":"中餐厅","address":"江学路321弄16号"},{"poiid":"B2094655D268A0FA469D","title":"九华楼","lon":"121.21157","lat":"31.03183","category":"76","category_name":"上海菜","address":"松江区江学路(文诚路口)"},{"poiid":"B2094655D26FAAFA4998","title":"快客No.6697","lon":"121.20848","lat":"31.03251","category":"117","category_name":"便民商店/便利店","address":"文诚路946"},{"poiid":"B2094654DB6EA1FC4492","title":"华东师范大学松江实验高级中学","lon":"121.21345","lat":"31.03101","category":"55","category_name":"中学","address":""},{"poiid":"B2094655D26BA2FD4599","title":"文诚路滨湖路","lon":"121.20825","lat":"31.03227","category":"38","category_name":"公交车站","address":""},{"poiid":"B2094654DB6DA4FE469E","title":"合众湖畔花园","lon":"121.20506","lat":"31.037439","category":"47","category_name":"住宅区","address":"滨湖路299弄"},{"poiid":"B2094750D26CA0FB4298","title":"松江鲜芋仙","lon":"121.214174","lat":"31.040599","category":"247","category_name":"餐饮美食","address":"松江区新松江路925号开元地中海商业广场2楼(近松江大学城)"},{"poiid":"B2094750D664A3FA4299","title":"米沢馆·日本菜","lon":"121.211","lat":"31.0307","category":"95","category_name":"日本料理","address":"松江区江学路381弄1号"},{"poiid":"B2094757D168A7FB499E","title":"方松社区文化活动中心","lon":"121.216213","lat":"31.036505","category":"500","category_name":"未知分类","address":"上海市松江区北翠路1077号"},{"poiid":"B2094655D268A0FA469F","title":"米沢日本馆","lon":"121.21105","lat":"31.03076","category":"95","category_name":"日本料理","address":"江学路381弄1"},{"poiid":"B2094654DB64A0FC4992","title":"珠江新城(边门)","lon":"121.2093","lat":"31.03272","category":"47","category_name":"住宅区","address":""},{"poiid":"B2094655D36DA0FD4693","title":"新松江路江学路","lon":"121.21147","lat":"31.03878","category":"38","category_name":"公交车站","address":""},{"poiid":"B2094757D464A7F9439F","title":"富利酒店","lon":"121.210532","lat":"31.039112","category":"75","category_name":"浙江菜","address":"松江区新松江路1296号7楼"},{"poiid":"B2094757D06AA7FF4792","title":"云豹宴舞自助火锅","lon":"121.211812","lat":"31.039036","category":"86","category_name":"火锅店","address":"松江区新松江路1296号2楼(近江学路口)"},{"poiid":"B2094654DB6EA2FB419D","title":"世纪新城(新松江路)","lon":"121.20455","lat":"31.03912","category":"47","category_name":"住宅区","address":"上海市松江区文翔路"},{"poiid":"B2094757D168A0F54492","title":"许cc家","lon":"121.20797846","lat":"31.033869583","category":"500","category_name":"未知分类","address":"上海市松江区珠江新城"},{"poiid":"B2094654DB6EA2FA4192","title":"南部阳光翠庭","lon":"121.2149","lat":"31.037857","category":"47","category_name":"住宅区","address":"新松江路1111弄"},{"poiid":"B2094654DB64A0FD429B","title":"象山海鲜楼","lon":"121.21154","lat":"31.02963","category":"88","category_name":"海鲜酒楼","address":"江学路321弄36号"},{"poiid":"B2094654DB6EA1FD4598","title":"松江区方松地段医院","lon":"121.20772","lat":"31.03154","category":"162","category_name":"医院","address":"文诚路805号"},{"poiid":"B2094757D66BA3FF4499","title":"毛家饭庄","lon":"121.2115082","lat":"31.0388615","category":"77","category_name":"湖南菜","address":"松江区新松江路1292弄133号(近东明国际商城)"},{"poiid":"B2094757D469A0FF4192","title":"陈家私房菜","lon":"121.205911054","lat":"31.029782793","category":"76","category_name":"上海菜","address":"松江区江学路321弄30号"},{"poiid":"B2094757D06AA6FD4198","title":"新晖豪生大酒店餐厅","lon":"121.21013","lat":"31.03167","category":"217","category_name":"旅馆招待所","address":"上海近郊松江区文诚路765号  "},{"poiid":"B2094655D268A7FD469C","title":"好德便利No.3111","lon":"121.21118","lat":"31.03249","category":"117","category_name":"便民商店/便利店","address":"文诚路842"},{"poiid":"B2094655D268A7FF4298","title":"兰桥休闲商业街","lon":"121.21125","lat":"31.03124","category":"116","category_name":"特色商业街","address":""},{"poiid":"B2094757D66AA5F44192","title":"康季台湾料理","lon":"121.212069","lat":"31.039554","category":"91","category_name":"台湾菜","address":"松江区江学路871号(近新松江路)"},{"poiid":"B2094757D06EAAF8439F","title":"泰晤士小镇小区","lon":"121.20448030631","lat":"31.035668438909","category":"250","category_name":"公园户外","address":"上海市松江区玉华路仓桥镇"},{"poiid":"B2094655D265A4FF4892","title":"泰吾士小镇","lon":"121.20122","lat":"31.02934","category":"47","category_name":"住宅区","address":""},{"poiid":"B2094757D068A1FF409F","title":"华亭湖时代大酒店","lon":"121.20665","lat":"31.0384","category":"76","category_name":"上海菜","address":"松江区滨湖路99号(滨湖路新松江路)"},{"poiid":"B2094655D268A3F9419E","title":"上海宝隆花园酒店","lon":"121.20487","lat":"31.02801","category":"76","category_name":"上海菜","address":"松江区玉树北路6号"},{"poiid":"B2094757D16CA6FE4798","title":"上海新晖大酒店","lon":"121.210652467","lat":"31.0322185475","category":"94","category_name":"西餐厅","address":"上海市松江区文诚路765号(近江学路)"},{"poiid":"B2094757DB68A4FF4992","title":"世贸时尚欢乐影城","lon":"121.214987","lat":"31.034961","category":"500","category_name":"未知分类","address":"上海市松江新城文诚路238弄1号2楼"},{"poiid":"B2094757D16FA7FE439A","title":"8898","lon":"121.21052","lat":"31.03914","category":"260","category_name":"其他","address":"松江区新松江路1296号(近江学路)"},{"poiid":"B2094750D664AAF44592","title":"御澜轩精菜馆","lon":"121.211","lat":"31.0395","category":"76","category_name":"上海菜","address":"松江区新松江路1290号(江学路瑛皇附近)"},{"poiid":"B2094654DB65A6F4419E","title":"珠江新城","lon":"121.20952","lat":"31.03328","category":"47","category_name":"住宅区","address":"上海,上海市,文诚路888弄"},{"poiid":"B2094751D46AA6F8439C","title":"金纯K歌","lon":"121.2125890996374","lat":"31.03451822483569","category":"248","category_name":"生活娱乐","address":"松江新城文诚路500弄1号4楼"},{"poiid":"B2094750D56CABFC409A","title":"麦当劳(开元地中海)","lon":"121.216506","lat":"31.035909","category":"247","category_name":"餐饮美食","address":"松江区新松江路925号开元地中海商业广场2楼(近星巴克)"},{"poiid":"B2094654DB6EA2FA409E","title":"避风港时尚餐厅","lon":"121.21555","lat":"31.03854","category":"257","category_name":"中餐厅","address":""},{"poiid":"B2094757D16DA1FF419F","title":"兰桥公寓","lon":"121.209564087","lat":"31.0286593716","category":"47","category_name":"住宅区","address":"兰桥公寓位于松江思贤路1259弄"},{"poiid":"B2094757D065A7F5429D","title":"海捞坊","lon":"121.21215","lat":"31.03006","category":"86","category_name":"火锅店","address":"松江区江学路381弄18-20号"},{"poiid":"B2094654DB6EA1FD4492","title":"上海市松江区血站","lon":"121.20898597668645","lat":"31.03223787685391","category":"162","category_name":"医院","address":"上海市松江区文诚路801号"},{"poiid":"B2094757D069A2FB4992","title":"紫东新苑","lon":"121.20824","lat":"31.043177","category":"47","category_name":"住宅区","address":"中艺花园位于宝山海江路9号"},{"poiid":"B2094757D064A5FC409C","title":"宝都大酒店","lon":"121.21257779","lat":"31.040709537","category":"76","category_name":"上海菜","address":"松江区松江新松江路1234号(近大学城)"},{"poiid":"B2094654DB64A0FD429C","title":"海德名园","lon":"121.20211","lat":"31.02763","category":"47","category_name":"住宅区","address":"上海市松江区玉树北路455弄"},{"poiid":"B2094757D16CA1FB499E","title":"方松街道社区卫生服务中心","lon":"121.207728","lat":"31.031545","category":"162","category_name":"医院","address":"上海松江区文诚路805号"},{"poiid":"B2094757D068A0FA429B","title":"檀香花苑","lon":"121.21349611","lat":"31.040920209","category":"500","category_name":"未知分类","address":"上海市长宁区天山路209弄"},{"poiid":"B2094654DB6EA1FD439E","title":"玉膳房 龙满楼","lon":"121.206155054","lat":"31.031457793","category":"257","category_name":"中餐厅","address":"江学路381弄1号2-3楼近思贤路"},{"poiid":"B2094757D065ABFD4699","title":"汤士家汤馆(松江一店)","lon":"121.212066","lat":"31.039097","category":"68","category_name":"快餐厅","address":"上海市松江区江学路877号(近松江大学城大学生体育中心)"},{"poiid":"B2094655D268A2FF4593","title":"莫泰168松江文诚路店","lon":"121.21257","lat":"31.03281","category":"216","category_name":"经济型连锁酒店","address":"松江区文诚路500弄5号(近江学路)"},{"poiid":"B2094757D065ABFF439C","title":"御牛台湾牛肉面","lon":"121.21156","lat":"31.03913","category":"91","category_name":"台湾菜","address":"松江区江学路869号(近喜来登)"},{"poiid":"B209475CD768A0FE4099","title":"肥猫餐厅","lon":"121.211997","lat":"31.040697","category":"500","category_name":"未知分类","address":"上海市 新松江路1229号云豹广场3F"},{"poiid":"B2094655D268A2F44092","title":"山菜益汤","lon":"121.21154","lat":"31.02975","category":"257","category_name":"中餐厅","address":"江学路321弄16号"},{"poiid":"B2094655D268A0FA469D","title":"九华楼","lon":"121.21157","lat":"31.03183","category":"76","category_name":"上海菜","address":"松江区江学路(文诚路口)"},{"poiid":"B2094655D26FAAFA4998","title":"快客No.6697","lon":"121.20848","lat":"31.03251","category":"117","category_name":"便民商店/便利店","address":"文诚路946"},{"poiid":"B2094654DB6EA1FC4492","title":"华东师范大学松江实验高级中学","lon":"121.21345","lat":"31.03101","category":"55","category_name":"中学","address":""},{"poiid":"B2094655D26BA2FD4599","title":"文诚路滨湖路","lon":"121.20825","lat":"31.03227","category":"38","category_name":"公交车站","address":""},{"poiid":"B2094654DB6DA4FE469E","title":"合众湖畔花园","lon":"121.20506","lat":"31.037439","category":"47","category_name":"住宅区","address":"滨湖路299弄"},{"poiid":"B2094750D26CA0FB4298","title":"松江鲜芋仙","lon":"121.214174","lat":"31.040599","category":"247","category_name":"餐饮美食","address":"松江区新松江路925号开元地中海商业广场2楼(近松江大学城)"},{"poiid":"B2094750D664A3FA4299","title":"米沢馆·日本菜","lon":"121.211","lat":"31.0307","category":"95","category_name":"日本料理","address":"松江区江学路381弄1号"},{"poiid":"B2094757D168A7FB499E","title":"方松社区文化活动中心","lon":"121.216213","lat":"31.036505","category":"500","category_name":"未知分类","address":"上海市松江区北翠路1077号"},{"poiid":"B2094655D268A0FA469F","title":"米沢日本馆","lon":"121.21105","lat":"31.03076","category":"95","category_name":"日本料理","address":"江学路381弄1"},{"poiid":"B2094654DB64A0FC4992","title":"珠江新城(边门)","lon":"121.2093","lat":"31.03272","category":"47","category_name":"住宅区","address":""},{"poiid":"B2094655D36DA0FD4693","title":"新松江路江学路","lon":"121.21147","lat":"31.03878","category":"38","category_name":"公交车站","address":""},{"poiid":"B2094757D464A7F9439F","title":"富利酒店","lon":"121.210532","lat":"31.039112","category":"75","category_name":"浙江菜","address":"松江区新松江路1296号7楼"},{"poiid":"B2094757D06AA7FF4792","title":"云豹宴舞自助火锅","lon":"121.211812","lat":"31.039036","category":"86","category_name":"火锅店","address":"松江区新松江路1296号2楼(近江学路口)"},{"poiid":"B2094654DB6EA2FB419D","title":"世纪新城(新松江路)","lon":"121.20455","lat":"31.03912","category":"47","category_name":"住宅区","address":"上海市松江区文翔路"},{"poiid":"B2094757D168A0F54492","title":"许cc家","lon":"121.20797846","lat":"31.033869583","category":"500","category_name":"未知分类","address":"上海市松江区珠江新城"},{"poiid":"B2094654DB6EA2FA4192","title":"南部阳光翠庭","lon":"121.2149","lat":"31.037857","category":"47","category_name":"住宅区","address":"新松江路1111弄"},{"poiid":"B2094654DB64A0FD429B","title":"象山海鲜楼","lon":"121.21154","lat":"31.02963","category":"88","category_name":"海鲜酒楼","address":"江学路321弄36号"},{"poiid":"B2094654DB6EA1FD4598","title":"松江区方松地段医院","lon":"121.20772","lat":"31.03154","category":"162","category_name":"医院","address":"文诚路805号"},{"poiid":"B2094757D66BA3FF4499","title":"毛家饭庄","lon":"121.2115082","lat":"31.0388615","category":"77","category_name":"湖南菜","address":"松江区新松江路1292弄133号(近东明国际商城)"},{"poiid":"B2094757D469A0FF4192","title":"陈家私房菜","lon":"121.205911054","lat":"31.029782793","category":"76","category_name":"上海菜","address":"松江区江学路321弄30号"},{"poiid":"B2094757D06AA6FD4198","title":"新晖豪生大酒店餐厅","lon":"121.21013","lat":"31.03167","category":"217","category_name":"旅馆招待所","address":"上海近郊松江区文诚路765号  "},{"poiid":"B2094655D268A7FD469C","title":"好德便利No.3111","lon":"121.21118","lat":"31.03249","category":"117","category_name":"便民商店/便利店","address":"文诚路842"},{"poiid":"B2094655D268A7FF4298","title":"兰桥休闲商业街","lon":"121.21125","lat":"31.03124","category":"116","category_name":"特色商业街","address":""},{"poiid":"B2094757D66AA5F44192","title":"康季台湾料理","lon":"121.212069","lat":"31.039554","category":"91","category_name":"台湾菜","address":"松江区江学路871号(近新松江路)"},{"poiid":"B2094757D06EAAF8439F","title":"泰晤士小镇小区","lon":"121.20448030631","lat":"31.035668438909","category":"250","category_name":"公园户外","address":"上海市松江区玉华路仓桥镇"},{"poiid":"B2094655D265A4FF4892","title":"泰吾士小镇","lon":"121.20122","lat":"31.02934","category":"47","category_name":"住宅区","address":""},{"poiid":"B2094757D068A1FF409F","title":"华亭湖时代大酒店","lon":"121.20665","lat":"31.0384","category":"76","category_name":"上海菜","address":"松江区滨湖路99号(滨湖路新松江路)"},{"poiid":"B2094655D268A3F9419E","title":"上海宝隆花园酒店","lon":"121.20487","lat":"31.02801","category":"76","category_name":"上海菜","address":"松江区玉树北路6号"},{"poiid":"B2094757D16CA6FE4798","title":"上海新晖大酒店","lon":"121.210652467","lat":"31.0322185475","category":"94","category_name":"西餐厅","address":"上海市松江区文诚路765号(近江学路)"},{"poiid":"B2094757DB68A4FF4992","title":"世贸时尚欢乐影城","lon":"121.214987","lat":"31.034961","category":"500","category_name":"未知分类","address":"上海市松江新城文诚路238弄1号2楼"},{"poiid":"B2094757D16FA7FE439A","title":"8898","lon":"121.21052","lat":"31.03914","category":"260","category_name":"其他","address":"松江区新松江路1296号(近江学路)"},{"poiid":"B2094750D664AAF44592","title":"御澜轩精菜馆","lon":"121.211","lat":"31.0395","category":"76","category_name":"上海菜","address":"松江区新松江路1290号(江学路瑛皇附近)"},{"poiid":"B2094654DB65A6F4419E","title":"珠江新城","lon":"121.20952","lat":"31.03328","category":"47","category_name":"住宅区","address":"上海,上海市,文诚路888弄"},{"poiid":"B2094751D46AA6F8439C","title":"金纯K歌","lon":"121.2125890996374","lat":"31.03451822483569","category":"248","category_name":"生活娱乐","address":"松江新城文诚路500弄1号4楼"},{"poiid":"B2094750D56CABFC409A","title":"麦当劳(开元地中海)","lon":"121.216506","lat":"31.035909","category":"247","category_name":"餐饮美食","address":"松江区新松江路925号开元地中海商业广场2楼(近星巴克)"},{"poiid":"B2094654DB6EA2FA409E","title":"避风港时尚餐厅","lon":"121.21555","lat":"31.03854","category":"257","category_name":"中餐厅","address":""},{"poiid":"B2094757D16DA1FF419F","title":"兰桥公寓","lon":"121.209564087","lat":"31.0286593716","category":"47","category_name":"住宅区","address":"兰桥公寓位于松江思贤路1259弄"},{"poiid":"B2094757D065A7F5429D","title":"海捞坊","lon":"121.21215","lat":"31.03006","category":"86","category_name":"火锅店","address":"松江区江学路381弄18-20号"},{"poiid":"B2094654DB6EA1FD4492","title":"上海市松江区血站","lon":"121.20898597668645","lat":"31.03223787685391","category":"162","category_name":"医院","address":"上海市松江区文诚路801号"},{"poiid":"B2094757D069A2FB4992","title":"紫东新苑","lon":"121.20824","lat":"31.043177","category":"47","category_name":"住宅区","address":"中艺花园位于宝山海江路9号"},{"poiid":"B2094757D064A5FC409C","title":"宝都大酒店","lon":"121.21257779","lat":"31.040709537","category":"76","category_name":"上海菜","address":"松江区松江新松江路1234号(近大学城)"},{"poiid":"B2094654DB64A0FD429C","title":"海德名园","lon":"121.20211","lat":"31.02763","category":"47","category_name":"住宅区","address":"上海市松江区玉树北路455弄"},{"poiid":"B2094757D16CA1FB499E","title":"方松街道社区卫生服务中心","lon":"121.207728","lat":"31.031545","category":"162","category_name":"医院","address":"上海松江区文诚路805号"},{"poiid":"B2094757D068A0FA429B","title":"檀香花苑","lon":"121.21349611","lat":"31.040920209","category":"500","category_name":"未知分类","address":"上海市长宁区天山路209弄"},{"poiid":"B2094654DB6EA1FD439E","title":"玉膳房 龙满楼","lon":"121.206155054","lat":"31.031457793","category":"257","category_name":"中餐厅","address":"江学路381弄1号2-3楼近思贤路"},{"poiid":"B2094757D065ABFD4699","title":"汤士家汤馆(松江一店)","lon":"121.212066","lat":"31.039097","category":"68","category_name":"快餐厅","address":"上海市松江区江学路877号(近松江大学城大学生体育中心)"},{"poiid":"B2094655D268A2FF4593","title":"莫泰168松江文诚路店","lon":"121.21257","lat":"31.03281","category":"216","category_name":"经济型连锁酒店","address":"松江区文诚路500弄5号(近江学路)"},{"poiid":"B2094757D065ABFF439C","title":"御牛台湾牛肉面","lon":"121.21156","lat":"31.03913","category":"91","category_name":"台湾菜","address":"松江区江学路869号(近喜来登)"},{"poiid":"B209475CD768A0FE4099","title":"肥猫餐厅","lon":"121.211997","lat":"31.040697","category":"500","category_name":"未知分类","address":"上海市 新松江路1229号云豹广场3F"},{"poiid":"B2094655D268A2F44092","title":"山菜益汤","lon":"121.21154","lat":"31.02975","category":"257","category_name":"中餐厅","address":"江学路321弄16号"},{"poiid":"B2094655D268A0FA469D","title":"九华楼","lon":"121.21157","lat":"31.03183","category":"76","category_name":"上海菜","address":"松江区江学路(文诚路口)"},{"poiid":"B2094655D26FAAFA4998","title":"快客No.6697","lon":"121.20848","lat":"31.03251","category":"117","category_name":"便民商店/便利店","address":"文诚路946"},{"poiid":"B2094654DB6EA1FC4492","title":"华东师范大学松江实验高级中学","lon":"121.21345","lat":"31.03101","category":"55","category_name":"中学","address":""},{"poiid":"B2094655D26BA2FD4599","title":"文诚路滨湖路","lon":"121.20825","lat":"31.03227","category":"38","category_name":"公交车站","address":""},{"poiid":"B2094654DB6DA4FE469E","title":"合众湖畔花园","lon":"121.20506","lat":"31.037439","category":"47","category_name":"住宅区","address":"滨湖路299弄"},{"poiid":"B2094750D26CA0FB4298","title":"松江鲜芋仙","lon":"121.214174","lat":"31.040599","category":"247","category_name":"餐饮美食","address":"松江区新松江路925号开元地中海商业广场2楼(近松江大学城)"},{"poiid":"B2094750D664A3FA4299","title":"米沢馆·日本菜","lon":"121.211","lat":"31.0307","category":"95","category_name":"日本料理","address":"松江区江学路381弄1号"},{"poiid":"B2094757D168A7FB499E","title":"方松社区文化活动中心","lon":"121.216213","lat":"31.036505","category":"500","category_name":"未知分类","address":"上海市松江区北翠路1077号"},{"poiid":"B2094655D268A0FA469F","title":"米沢日本馆","lon":"121.21105","lat":"31.03076","category":"95","category_name":"日本料理","address":"江学路381弄1"},{"poiid":"B2094654DB64A0FC4992","title":"珠江新城(边门)","lon":"121.2093","lat":"31.03272","category":"47","category_name":"住宅区","address":""},{"poiid":"B2094655D36DA0FD4693","title":"新松江路江学路","lon":"121.21147","lat":"31.03878","category":"38","category_name":"公交车站","address":""},{"poiid":"B2094757D464A7F9439F","title":"富利酒店","lon":"121.210532","lat":"31.039112","category":"75","category_name":"浙江菜","address":"松江区新松江路1296号7楼"},{"poiid":"B2094757D06AA7FF4792","title":"云豹宴舞自助火锅","lon":"121.211812","lat":"31.039036","category":"86","category_name":"火锅店","address":"松江区新松江路1296号2楼(近江学路口)"},{"poiid":"B2094654DB6EA2FB419D","title":"世纪新城(新松江路)","lon":"121.20455","lat":"31.03912","category":"47","category_name":"住宅区","address":"上海市松江区文翔路"},{"poiid":"B2094757D168A0F54492","title":"许cc家","lon":"121.20797846","lat":"31.033869583","category":"500","category_name":"未知分类","address":"上海市松江区珠江新城"},{"poiid":"B2094654DB6EA2FA4192","title":"南部阳光翠庭","lon":"121.2149","lat":"31.037857","category":"47","category_name":"住宅区","address":"新松江路1111弄"},{"poiid":"B2094654DB64A0FD429B","title":"象山海鲜楼","lon":"121.21154","lat":"31.02963","category":"88","category_name":"海鲜酒楼","address":"江学路321弄36号"},{"poiid":"B2094654DB6EA1FD4598","title":"松江区方松地段医院","lon":"121.20772","lat":"31.03154","category":"162","category_name":"医院","address":"文诚路805号"},{"poiid":"B2094757D66BA3FF4499","title":"毛家饭庄","lon":"121.2115082","lat":"31.0388615","category":"77","category_name":"湖南菜","address":"松江区新松江路1292弄133号(近东明国际商城)"},{"poiid":"B2094757D469A0FF4192","title":"陈家私房菜","lon":"121.205911054","lat":"31.029782793","category":"76","category_name":"上海菜","address":"松江区江学路321弄30号"},{"poiid":"B2094757D06AA6FD4198","title":"新晖豪生大酒店餐厅","lon":"121.21013","lat":"31.03167","category":"217","category_name":"旅馆招待所","address":"上海近郊松江区文诚路765号  "},{"poiid":"B2094655D268A7FD469C","title":"好德便利No.3111","lon":"121.21118","lat":"31.03249","category":"117","category_name":"便民商店/便利店","address":"文诚路842"},{"poiid":"B2094655D268A7FF4298","title":"兰桥休闲商业街","lon":"121.21125","lat":"31.03124","category":"116","category_name":"特色商业街","address":""},{"poiid":"B2094757D66AA5F44192","title":"康季台湾料理","lon":"121.212069","lat":"31.039554","category":"91","category_name":"台湾菜","address":"松江区江学路871号(近新松江路)"},{"poiid":"B2094757D06EAAF8439F","title":"泰晤士小镇小区","lon":"121.20448030631","lat":"31.035668438909","category":"250","category_name":"公园户外","address":"上海市松江区玉华路仓桥镇"},{"poiid":"B2094655D265A4FF4892","title":"泰吾士小镇","lon":"121.20122","lat":"31.02934","category":"47","category_name":"住宅区","address":""},{"poiid":"B2094757D068A1FF409F","title":"华亭湖时代大酒店","lon":"121.20665","lat":"31.0384","category":"76","category_name":"上海菜","address":"松江区滨湖路99号(滨湖路新松江路)"},{"poiid":"B2094655D268A3F9419E","title":"上海宝隆花园酒店","lon":"121.20487","lat":"31.02801","category":"76","category_name":"上海菜","address":"松江区玉树北路6号"},{"poiid":"B2094757D16CA6FE4798","title":"上海新晖大酒店","lon":"121.210652467","lat":"31.0322185475","category":"94","category_name":"西餐厅","address":"上海市松江区文诚路765号(近江学路)"},{"poiid":"B2094757DB68A4FF4992","title":"世贸时尚欢乐影城","lon":"121.214987","lat":"31.034961","category":"500","category_name":"未知分类","address":"上海市松江新城文诚路238弄1号2楼"},{"poiid":"B2094757D16FA7FE439A","title":"8898","lon":"121.21052","lat":"31.03914","category":"260","category_name":"其他","address":"松江区新松江路1296号(近江学路)"},{"poiid":"B2094750D664AAF44592","title":"御澜轩精菜馆","lon":"121.211","lat":"31.0395","category":"76","category_name":"上海菜","address":"松江区新松江路1290号(江学路瑛皇附近)"},{"poiid":"B2094654DB65A6F4419E","title":"珠江新城","lon":"121.20952","lat":"31.03328","category":"47","category_name":"住宅区","address":"上海,上海市,文诚路888弄"},{"poiid":"B2094751D46AA6F8439C","title":"金纯K歌","lon":"121.2125890996374","lat":"31.03451822483569","category":"248","category_name":"生活娱乐","address":"松江新城文诚路500弄1号4楼"},{"poiid":"B2094750D56CABFC409A","title":"麦当劳(开元地中海)","lon":"121.216506","lat":"31.035909","category":"247","category_name":"餐饮美食","address":"松江区新松江路925号开元地中海商业广场2楼(近星巴克)"},{"poiid":"B2094654DB6EA2FA409E","title":"避风港时尚餐厅","lon":"121.21555","lat":"31.03854","category":"257","category_name":"中餐厅","address":""},{"poiid":"B2094757D16DA1FF419F","title":"兰桥公寓","lon":"121.209564087","lat":"31.0286593716","category":"47","category_name":"住宅区","address":"兰桥公寓位于松江思贤路1259弄"},{"poiid":"B2094757D065A7F5429D","title":"海捞坊","lon":"121.21215","lat":"31.03006","category":"86","category_name":"火锅店","address":"松江区江学路381弄18-20号"},{"poiid":"B2094654DB6EA1FD4492","title":"上海市松江区血站","lon":"121.20898597668645","lat":"31.03223787685391","category":"162","category_name":"医院","address":"上海市松江区文诚路801号"},{"poiid":"B2094757D069A2FB4992","title":"紫东新苑","lon":"121.20824","lat":"31.043177","category":"47","category_name":"住宅区","address":"中艺花园位于宝山海江路9号"},{"poiid":"B2094757D064A5FC409C","title":"宝都大酒店","lon":"121.21257779","lat":"31.040709537","category":"76","category_name":"上海菜","address":"松江区松江新松江路1234号(近大学城)"},{"poiid":"B2094654DB64A0FD429C","title":"海德名园","lon":"121.20211","lat":"31.02763","category":"47","category_name":"住宅区","address":"上海市松江区玉树北路455弄"},{"poiid":"B2094757D16CA1FB499E","title":"方松街道社区卫生服务中心","lon":"121.207728","lat":"31.031545","category":"162","category_name":"医院","address":"上海松江区文诚路805号"},{"poiid":"B2094757D068A0FA429B","title":"檀香花苑","lon":"121.21349611","lat":"31.040920209","category":"500","category_name":"未知分类","address":"上海市长宁区天山路209弄"},{"poiid":"B2094654DB6EA1FD439E","title":"玉膳房 龙满楼","lon":"121.206155054","lat":"31.031457793","category":"257","category_name":"中餐厅","address":"江学路381弄1号2-3楼近思贤路"},{"poiid":"B2094757D065ABFD4699","title":"汤士家汤馆(松江一店)","lon":"121.212066","lat":"31.039097","category":"68","category_name":"快餐厅","address":"上海市松江区江学路877号(近松江大学城大学生体育中心)"},{"poiid":"B2094655D268A2FF4593","title":"莫泰168松江文诚路店","lon":"121.21257","lat":"31.03281","category":"216","category_name":"经济型连锁酒店","address":"松江区文诚路500弄5号(近江学路)"},{"poiid":"B2094757D065ABFF439C","title":"御牛台湾牛肉面","lon":"121.21156","lat":"31.03913","category":"91","category_name":"台湾菜","address":"松江区江学路869号(近喜来登)"},{"poiid":"B209475CD768A0FE4099","title":"肥猫餐厅","lon":"121.211997","lat":"31.040697","category":"500","category_name":"未知分类","address":"上海市 新松江路1229号云豹广场3F"},{"poiid":"B2094655D268A2F44092","title":"山菜益汤","lon":"121.21154","lat":"31.02975","category":"257","category_name":"中餐厅","address":"江学路321弄16号"},{"poiid":"B2094655D268A0FA469D","title":"九华楼","lon":"121.21157","lat":"31.03183","category":"76","category_name":"上海菜","address":"松江区江学路(文诚路口)"},{"poiid":"B2094655D26FAAFA4998","title":"快客No.6697","lon":"121.20848","lat":"31.03251","category":"117","category_name":"便民商店/便利店","address":"文诚路946"},{"poiid":"B2094654DB6EA1FC4492","title":"华东师范大学松江实验高级中学","lon":"121.21345","lat":"31.03101","category":"55","category_name":"中学","address":""},{"poiid":"B2094655D26BA2FD4599","title":"文诚路滨湖路","lon":"121.20825","lat":"31.03227","category":"38","category_name":"公交车站","address":""},{"poiid":"B2094654DB6DA4FE469E","title":"合众湖畔花园","lon":"121.20506","lat":"31.037439","category":"47","category_name":"住宅区","address":"滨湖路299弄"},{"poiid":"B2094750D26CA0FB4298","title":"松江鲜芋仙","lon":"121.214174","lat":"31.040599","category":"247","category_name":"餐饮美食","address":"松江区新松江路925号开元地中海商业广场2楼(近松江大学城)"},{"poiid":"B2094750D664A3FA4299","title":"米沢馆·日本菜","lon":"121.211","lat":"31.0307","category":"95","category_name":"日本料理","address":"松江区江学路381弄1号"},{"poiid":"B2094757D168A7FB499E","title":"方松社区文化活动中心","lon":"121.216213","lat":"31.036505","category":"500","category_name":"未知分类","address":"上海市松江区北翠路1077号"},{"poiid":"B2094655D268A0FA469F","title":"米沢日本馆","lon":"121.21105","lat":"31.03076","category":"95","category_name":"日本料理","address":"江学路381弄1"},{"poiid":"B2094654DB64A0FC4992","title":"珠江新城(边门)","lon":"121.2093","lat":"31.03272","category":"47","category_name":"住宅区","address":""},{"poiid":"B2094655D36DA0FD4693","title":"新松江路江学路","lon":"121.21147","lat":"31.03878","category":"38","category_name":"公交车站","address":""},{"poiid":"B2094757D464A7F9439F","title":"富利酒店","lon":"121.210532","lat":"31.039112","category":"75","category_name":"浙江菜","address":"松江区新松江路1296号7楼"},{"poiid":"B2094757D06AA7FF4792","title":"云豹宴舞自助火锅","lon":"121.211812","lat":"31.039036","category":"86","category_name":"火锅店","address":"松江区新松江路1296号2楼(近江学路口)"},{"poiid":"B2094654DB6EA2FB419D","title":"世纪新城(新松江路)","lon":"121.20455","lat":"31.03912","category":"47","category_name":"住宅区","address":"上海市松江区文翔路"},{"poiid":"B2094757D168A0F54492","title":"许cc家","lon":"121.20797846","lat":"31.033869583","category":"500","category_name":"未知分类","address":"上海市松江区珠江新城"},{"poiid":"B2094654DB6EA2FA4192","title":"南部阳光翠庭","lon":"121.2149","lat":"31.037857","category":"47","category_name":"住宅区","address":"新松江路1111弄"},{"poiid":"B2094654DB64A0FD429B","title":"象山海鲜楼","lon":"121.21154","lat":"31.02963","category":"88","category_name":"海鲜酒楼","address":"江学路321弄36号"},{"poiid":"B2094654DB6EA1FD4598","title":"松江区方松地段医院","lon":"121.20772","lat":"31.03154","category":"162","category_name":"医院","address":"文诚路805号"},{"poiid":"B2094757D66BA3FF4499","title":"毛家饭庄","lon":"121.2115082","lat":"31.0388615","category":"77","category_name":"湖南菜","address":"松江区新松江路1292弄133号(近东明国际商城)"},{"poiid":"B2094757D469A0FF4192","title":"陈家私房菜","lon":"121.205911054","lat":"31.029782793","category":"76","category_name":"上海菜","address":"松江区江学路321弄30号"},{"poiid":"B2094757D06AA6FD4198","title":"新晖豪生大酒店餐厅","lon":"121.21013","lat":"31.03167","category":"217","category_name":"旅馆招待所","address":"上海近郊松江区文诚路765号  "},{"poiid":"B2094655D268A7FD469C","title":"好德便利No.3111","lon":"121.21118","lat":"31.03249","category":"117","category_name":"便民商店/便利店","address":"文诚路842"},{"poiid":"B2094655D268A7FF4298","title":"兰桥休闲商业街","lon":"121.21125","lat":"31.03124","category":"116","category_name":"特色商业街","address":""},{"poiid":"B2094757D66AA5F44192","title":"康季台湾料理","lon":"121.212069","lat":"31.039554","category":"91","category_name":"台湾菜","address":"松江区江学路871号(近新松江路)"}]