[{"poiid":"B2094757D068A7F8499A","title":"浦东新区房产交易中心","lon":"121.56503497","lat":"31.246380438","category":"500","category_name":"未知分类","address":"上海张杨路德平路"},{"poiid":"B2094757D06FA3FA479C","title":"名人苑","lon":"121.56677011772149","lat":"31.24642229889824","category":"196","category_name":"公园","address":"浦东新区张杨路2988号(近居家桥路)"},{"poiid":"B2094757D06FA4FF469E","title":"罗曼园高级婚礼会馆(浦东店)","lon":"121.56599539442539","lat":"31.245736684141356","category":"184","category_name":"美术馆","address":"浦东新区张杨路2948号查看地图"},{"poiid":"B2094757D06FA6F44998","title":"尚海派主题餐厅(云山路店)","lon":"121.57141","lat":"31.24974","category":"76","category_name":"上海菜","address":"浦东新区云山路886号2-3楼(近张杨路)"},{"poiid":"B2094655D36CA5F44099","title":"博山东路云山路","lon":"121.56816","lat":"31.25262","category":"38","category_name":"公交车站","address":""},{"poiid":"B2094654D568A7FE499D","title":"象山海鲜城 居家桥店","lon":"121.56621113256","lat":"31.253418673801","category":"247","category_name":"餐饮美食","address":"浦东新区居家桥路635号(近博山东路)"},{"poiid":"B2094757D06FA7FC469B","title":"浦东大道","lon":"121.56493549","lat":"31.255178412","category":"260","category_name":"其他","address":"上海市浦东大道"},{"poiid":"B2094757D069A3FB409D","title":"亚龙大酒店","lon":"121.56667","lat":"31.25298","category":"72","category_name":"广东菜","address":"浦东新区居家桥路595号(近博山路)"},{"poiid":"B2094757D064A2FC4998","title":"云山路张杨路","lon":"121.572011339","lat":"31.2496217887","category":"500","category_name":"未知分类","address":"上海市浦东新区"},{"poiid":"B2094654DA69A2FC469B","title":"浦东邮政大厦","lon":"121.5649","lat":"31.24658","category":"46","category_name":"楼宇","address":"浦东区丁香路716号"},{"poiid":"B2094757D06AA0FE4998","title":"张杨路居家桥路","lon":"121.569799839","lat":"31.2491730784","category":"500","category_name":"未知分类","address":"上海张杨路居家桥路"},{"poiid":"B2094757D06BAAFD4692","title":"浦东新区房地产交易中心","lon":"121.56492237","lat":"31.246139233","category":"500","category_name":"未知分类","address":"上海张扬路2899号(邮政大厦)一楼近德平路口"},{"poiid":"B2094757D064AAFE409A","title":"上海振华外经职业技术学校","lon":"121.56191233","lat":"31.253369374","category":"253","category_name":"校园生活","address":"上海龙居路栖山路"},{"poiid":"B2094654D568ABFE4193","title":"古源养生坊足道保健会馆","lon":"121.56597","lat":"31.251","category":"149","category_name":"洗浴推拿场所","address":"上海浦东新区博山东路190号(近居家桥路)  "},{"poiid":"B2094757D064A3FE419D","title":"浦东新区疾病预防控制中心","lon":"121.5677146","lat":"31.248057852","category":"500","category_name":"未知分类","address":"上海张杨路3039号"},{"poiid":"B2094757D468A4F8469F","title":"龙象品臻","lon":"121.566179","lat":"31.252396","category":"75","category_name":"浙江菜","address":"浦东新区居家桥路635号(近博山路)"},{"poiid":"B2094655D26BA3F4429B","title":"黄山宾馆餐厅","lon":"121.56643","lat":"31.25283","category":"76","category_name":"上海菜","address":"浦东新区居家桥路635号(博山东路居家桥路)"},{"poiid":"B2094655D26CA7FA419E","title":"汇汇小厨酒家","lon":"121.56855","lat":"31.25263","category":"257","category_name":"中餐厅","address":"浦东新区博山东路456号(近云山路)"},{"poiid":"B2094654D568ABFE429D","title":"通联苑","lon":"121.56622","lat":"31.250317","category":"47","category_name":"住宅区","address":"上海市浦东新区居家桥路688弄"},{"poiid":"B2094757D06BA7FC4793","title":"明缘渔港","lon":"121.566578","lat":"31.256883","category":"260","category_name":"其他","address":"浦东新区云山路600号(近栖山路)"},{"poiid":"B2094757D664A6FD409B","title":"克莉丝汀 博山东路二店","lon":"121.566087054","lat":"31.251218793","category":"112","category_name":"糕饼店","address":"浦东新区博山东路172号(近居家桥路)"},{"poiid":"B2094752D264A2FE469D","title":"上德宝骏宝马5S","lon":"121.56586","lat":"31.2536","category":"263","category_name":"公司","address":"居家桥路571号"},{"poiid":"B2094757D16BA1FA469B","title":"黄山花鸟市场","lon":"121.571630339","lat":"31.2505738106","category":"249","category_name":"购物服务","address":"上海市浦东新区博山东路"},{"poiid":"B2094654D568A7FE4999","title":"博山菜市场(博山东路)","lon":"121.56723","lat":"31.25181","category":"117","category_name":"便民商店/便利店","address":"博山东路358"},{"poiid":"B2094757D16FA2FD469D","title":"小螺号幼儿园","lon":"121.568082","lat":"31.253763","category":"57","category_name":"幼儿园","address":"浦东新区博山东路81弄26号(博山东路德平路)"},{"poiid":"B2094757D168AAFA459E","title":"必胜客","lon":"121.57076","lat":"31.25373","category":"94","category_name":"西餐厅","address":"浦东新区博山东路570号(博山东路云山路)"},{"poiid":"B2094655D26FA6F8469F","title":"住友名人花园","lon":"121.56658","lat":"31.248566","category":"47","category_name":"住宅区","address":"上海市长宁区延安西路1235弄"},{"poiid":"B2094655D26CA5FA449E","title":"博山公寓","lon":"121.56526","lat":"31.251949","category":"47","category_name":"住宅区","address":"博山东路173弄10,14,20号"},{"poiid":"B2094757D16FA7FC419C","title":"机场四线　德平路","lon":"121.56706303","lat":"31.253076868","category":"36","category_name":"地铁站","address":"上海浦东大道"},{"poiid":"B2094757D064A0FB479C","title":"罗山七村","lon":"121.56448","lat":"31.252216","category":"252","category_name":"楼宇机构","address":"上海市浦东新区龙居路"},{"poiid":"B2094655D36CA5F4409D","title":"博山东路居家桥路","lon":"121.56515","lat":"31.25073","category":"38","category_name":"公交车站","address":""},{"poiid":"B2094757D568A7FD409E","title":"九段沙湿地国家级自然保护区","lon":"121.56708008","lat":"31.25232368","category":"250","category_name":"公园户外","address":"博山东路383"},{"poiid":"B2094654D568A4FA489C","title":"博山公寓(南门)","lon":"121.56577","lat":"31.25137","category":"47","category_name":"住宅区","address":"博山东路173弄10、14、20号"},{"poiid":"B2094654D568A4FA4892","title":"上海世纪星双语实验幼稚园","lon":"121.56483","lat":"31.2509","category":"57","category_name":"幼儿园","address":"浦东新区博山东路169号(近万德路)"},{"poiid":"B2094654D568A7FE499F","title":"黄山宾馆(居家桥路)","lon":"121.56642","lat":"31.25282","category":"250","category_name":"公园户外","address":"浦东新区居家桥路635号(博山东路龙居路)"},{"poiid":"B2094655D264A1FD499B","title":"黄山二村","lon":"121.56821","lat":"31.2535","category":"47","category_name":"住宅区","address":"博山东路459弄1-70号"},{"poiid":"B2094655D26DABFF409B","title":"黄山新村(北门)","lon":"121.56851","lat":"31.25258","category":"47","category_name":"住宅区","address":"博山东路440弄1-50号"},{"poiid":"B2094752D764ABFA419B","title":"彼得西餐","lon":"121.567348","lat":"31.249522","category":"247","category_name":"餐饮美食","address":"碧云休闲中心"},{"poiid":"B2094757DA6FA3FE4598","title":"浦东新区社会统计调查中心","lon":"121.567320999997","lat":"31.2520790000002","category":"263","category_name":"公司","address":"浦东新区博山东路383号"},{"poiid":"B2094654D568ABFE429A","title":"忆星美容美发博山店","lon":"121.56602","lat":"31.25103","category":"148","category_name":"美容美发店","address":"浦东新区博山东路博山公寓正对面(近居家桥路)"},{"poiid":"B2094757D465ABFE4798","title":"都得利面馆","lon":"121.569515054","lat":"31.253680793","category":"68","category_name":"快餐厅","address":"黄浦区南京东路470号42号都市假日酒店内(近福建中路)"},{"poiid":"B2094654DB6BA1F8499A","title":"永琪美容美发","lon":"121.56485","lat":"31.25032","category":"148","category_name":"美容美发店","address":"浦东新区博山东路810号"},{"poiid":"B2094757D169A4FF479F","title":"黄山新村一期","lon":"121.56823733","lat":"31.253154869","category":"47","category_name":"住宅区","address":"上海浦东新区博山东路440弄"},{"poiid":"B2094757D064A3FE409C","title":"广洋华景苑","lon":"121.56556152265","lat":"31.247537457799","category":"47","category_name":"住宅区","address":"上海市闸北区场中路3300弄"},{"poiid":"B2094655D26DAAF44293","title":"好德No.795","lon":"121.56522","lat":"31.25054","category":"117","category_name":"便民商店/便利店","address":"博山东路172"},{"poiid":"B2094654D568A7F8459F","title":"浦东新区医疗保险事务中心","lon":"121.56929","lat":"31.24879","category":"162","category_name":"医院","address":"上海张杨路3059号"},{"poiid":"B2094757D66EABF5499C","title":"黄山新村","lon":"121.56908","lat":"31.252127","category":"252","category_name":"楼宇机构","address":"上海博山东路枣庄路(787大桥三线终点站)"},{"poiid":"B2094757D165A2FA499C","title":"联华超市(博山东路店)","lon":"121.56582","lat":"31.25049","category":"118","category_name":"超级市场","address":"浦东新区博山东路186号(近居家桥路)"},{"poiid":"B2094654D568ABFC4998","title":"好邻居饮食","lon":"121.56305","lat":"31.2522","category":"257","category_name":"中餐厅","address":"浦东新区龙居路157号(近博山东路)"},{"poiid":"B2094654D568A7FE469D","title":"可的(博山东路)","lon":"121.56871","lat":"31.25317","category":"117","category_name":"便民商店/便利店","address":"浦东新区博山东路465号(博山东路云山路)"},{"poiid":"B2094757D068A7F8499A","title":"浦东新区房产交易中心","lon":"121.56503497","lat":"31.246380438","category":"500","category_name":"未知分类","address":"上海张杨路德平路"},{"poiid":"B2094757D06FA3FA479C","title":"名人苑","lon":"121.56677011772149","lat":"31.24642229889824","category":"196","category_name":"公园","address":"浦东新区张杨路2988号(近居家桥路)"},{"poiid":"B2094757D06FA4FF469E","title":"罗曼园高级婚礼会馆(浦东店)","lon":"121.56599539442539","lat":"31.245736684141356","category":"184","category_name":"美术馆","address":"浦东新区张杨路2948号查看地图"},{"poiid":"B2094757D06FA6F44998","title":"尚海派主题餐厅(云山路店)","lon":"121.57141","lat":"31.24974","category":"76","category_name":"上海菜","address":"浦东新区云山路886号2-3楼(近张杨路)"},{"poiid":"B2094655D36CA5F44099","title":"博山东路云山路","lon":"121.56816","lat":"31.25262","category":"38","category_name":"公交车站","address":""},{"poiid":"B2094654D568A7FE499D","title":"象山海鲜城 居家桥店","lon":"121.56621113256","lat":"31.253418673801","category":"247","category_name":"餐饮美食","address":"浦东新区居家桥路635号(近博山东路)"},{"poiid":"B2094757D06FA7FC469B","title":"浦东大道","lon":"121.56493549","lat":"31.255178412","category":"260","category_name":"其他","address":"上海市浦东大道"},{"poiid":"B2094757D069A3FB409D","title":"亚龙大酒店","lon":"121.56667","lat":"31.25298","category":"72","category_name":"广东菜","address":"浦东新区居家桥路595号(近博山路)"},{"poiid":"B2094757D064A2FC4998","title":"云山路张杨路","lon":"121.572011339","lat":"31.2496217887","category":"500","category_name":"未知分类","address":"上海市浦东新区"},{"poiid":"B2094654DA69A2FC469B","title":"浦东邮政大厦","lon":"121.5649","lat":"31.24658","category":"46","category_name":"楼宇","address":"浦东区丁香路716号"},{"poiid":"B2094757D06AA0FE4998","title":"张杨路居家桥路","lon":"121.569799839","lat":"31.2491730784","category":"500","category_name":"未知分类","address":"上海张杨路居家桥路"},{"poiid":"B2094757D06BAAFD4692","title":"浦东新区房地产交易中心","lon":"121.56492237","lat":"31.246139233","category":"500","category_name":"未知分类","address":"上海张扬路2899号(邮政大厦)一楼近德平路口"},{"poiid":"B2094757D064AAFE409A","title":"上海振华外经职业技术学校","lon":"121.56191233","lat":"31.253369374","category":"253","category_name":"校园生活","address":"上海龙居路栖山路"},{"poiid":"B2094654D568ABFE4193","title":"古源养生坊足道保健会馆","lon":"121.56597","lat":"31.251","category":"149","category_name":"洗浴推拿场所","address":"上海浦东新区博山东路190号(近居家桥路)  "},{"poiid":"B2094757D064A3FE419D","title":"浦东新区疾病预防控制中心","lon":"121.5677146","lat":"31.248057852","category":"500","category_name":"未知分类","address":"上海张杨路3039号"},{"poiid":"B2094757D468A4F8469F","title":"龙象品臻","lon":"121.566179","lat":"31.252396","category":"75","category_name":"浙江菜","address":"浦东新区居家桥路635号(近博山路)"},{"poiid":"B2094655D26BA3F4429B","title":"黄山宾馆餐厅","lon":"121.56643","lat":"31.25283","category":"76","category_name":"上海菜","address":"浦东新区居家桥路635号(博山东路居家桥路)"},{"poiid":"B2094655D26CA7FA419E","title":"汇汇小厨酒家","lon":"121.56855","lat":"31.25263","category":"257","category_name":"中餐厅","address":"浦东新区博山东路456号(近云山路)"},{"poiid":"B2094654D568ABFE429D","title":"通联苑","lon":"121.56622","lat":"31.250317","category":"47","category_name":"住宅区","address":"上海市浦东新区居家桥路688弄"},{"poiid":"B2094757D06BA7FC4793","title":"明缘渔港","lon":"121.566578","lat":"31.256883","category":"260","category_name":"其他","address":"浦东新区云山路600号(近栖山路)"},{"poiid":"B2094757D664A6FD409B","title":"克莉丝汀 博山东路二店","lon":"121.566087054","lat":"31.251218793","category":"112","category_name":"糕饼店","address":"浦东新区博山东路172号(近居家桥路)"},{"poiid":"B2094752D264A2FE469D","title":"上德宝骏宝马5S","lon":"121.56586","lat":"31.2536","category":"263","category_name":"公司","address":"居家桥路571号"},{"poiid":"B2094757D16BA1FA469B","title":"黄山花鸟市场","lon":"121.571630339","lat":"31.2505738106","category":"249","category_name":"购物服务","address":"上海市浦东新区博山东路"},{"poiid":"B2094654D568A7FE4999","title":"博山菜市场(博山东路)","lon":"121.56723","lat":"31.25181","category":"117","category_name":"便民商店/便利店","address":"博山东路358"},{"poiid":"B2094757D16FA2FD469D","title":"小螺号幼儿园","lon":"121.568082","lat":"31.253763","category":"57","category_name":"幼儿园","address":"浦东新区博山东路81弄26号(博山东路德平路)"},{"poiid":"B2094757D168AAFA459E","title":"必胜客","lon":"121.57076","lat":"31.25373","category":"94","category_name":"西餐厅","address":"浦东新区博山东路570号(博山东路云山路)"},{"poiid":"B2094655D26FA6F8469F","title":"住友名人花园","lon":"121.56658","lat":"31.248566","category":"47","category_name":"住宅区","address":"上海市长宁区延安西路1235弄"},{"poiid":"B2094655D26CA5FA449E","title":"博山公寓","lon":"121.56526","lat":"31.251949","category":"47","category_name":"住宅区","address":"博山东路173弄10,14,20号"},{"poiid":"B2094757D16FA7FC419C","title":"机场四线　德平路","lon":"121.56706303","lat":"31.253076868","category":"36","category_name":"地铁站","address":"上海浦东大道"},{"poiid":"B2094757D064A0FB479C","title":"罗山七村","lon":"121.56448","lat":"31.252216","category":"252","category_name":"楼宇机构","address":"上海市浦东新区龙居路"},{"poiid":"B2094655D36CA5F4409D","title":"博山东路居家桥路","lon":"121.56515","lat":"31.25073","category":"38","category_name":"公交车站","address":""},{"poiid":"B2094757D568A7FD409E","title":"九段沙湿地国家级自然保护区","lon":"121.56708008","lat":"31.25232368","category":"250","category_name":"公园户外","address":"博山东路383"},{"poiid":"B2094654D568A4FA489C","title":"博山公寓(南门)","lon":"121.56577","lat":"31.25137","category":"47","category_name":"住宅区","address":"博山东路173弄10、14、20号"},{"poiid":"B2094654D568A4FA4892","title":"上海世纪星双语实验幼稚园","lon":"121.56483","lat":"31.2509","category":"57","category_name":"幼儿园","address":"浦东新区博山东路169号(近万德路)"},{"poiid":"B2094654D568A7FE499F","title":"黄山宾馆(居家桥路)","lon":"121.56642","lat":"31.25282","category":"250","category_name":"公园户外","address":"浦东新区居家桥路635号(博山东路龙居路)"},{"poiid":"B2094655D264A1FD499B","title":"黄山二村","lon":"121.56821","lat":"31.2535","category":"47","category_name":"住宅区","address":"博山东路459弄1-70号"},{"poiid":"B2094655D26DABFF409B","title":"黄山新村(北门)","lon":"121.56851","lat":"31.25258","category":"47","category_name":"住宅区","address":"博山东路440弄1-50号"},{"poiid":"B2094752D764ABFA419B","title":"彼得西餐","lon":"121.567348","lat":"31.249522","category":"247","category_name":"餐饮美食","address":"碧云休闲中心"},{"poiid":"B2094757DA6FA3FE4598","title":"浦东新区社会统计调查中心","lon":"121.567320999997","lat":"31.2520790000002","category":"263","category_name":"公司","address":"浦东新区博山东路383号"},{"poiid":"B2094654D568ABFE429A","title":"忆星美容美发博山店","lon":"121.56602","lat":"31.25103","category":"148","category_name":"美容美发店","address":"浦东新区博山东路博山公寓正对面(近居家桥路)"},{"poiid":"B2094757D465ABFE4798","title":"都得利面馆","lon":"121.569515054","lat":"31.253680793","category":"68","category_name":"快餐厅","address":"黄浦区南京东路470号42号都市假日酒店内(近福建中路)"},{"poiid":"B2094654DB6BA1F8499A","title":"永琪美容美发","lon":"121.56485","lat":"31.25032","category":"148","category_name":"美容美发店","address":"浦东新区博山东路810号"},{"poiid":"B2094757D169A4FF479F","title":"黄山新村一期","lon":"121.56823733","lat":"31.253154869","category":"47","category_name":"住宅区","address":"上海浦东新区博山东路440弄"},{"poiid":"B2094757D064A3FE409C","title":"广洋华景苑","lon":"121.56556152265","lat":"31.247537457799","category":"47","category_name":"住宅区","address":"上海市闸北区场中路3300弄"},{"poiid":"B2094655D26DAAF44293","title":"好德No.795","lon":"121.56522","lat":"31.25054","category":"117","category_name":"便民商店/便利店","address":"博山东路172"},{"poiid":"B2094654D568A7F8459F","title":"浦东新区医疗保险事务中心","lon":"121.56929","lat":"31.24879","category":"162","category_name":"医院","address":"上海张杨路3059号"},{"poiid":"B2094757D66EABF5499C","title":"黄山新村","lon":"121.56908","lat":"31.252127","category":"252","category_name":"楼宇机构","address":"上海博山东路枣庄路(787大桥三线终点站)"},{"poiid":"B2094757D165A2FA499C","title":"联华超市(博山东路店)","lon":"121.56582","lat":"31.25049","category":"118","category_name":"超级市场","address":"浦东新区博山东路186号(近居家桥路)"},{"poiid":"B2094654D568ABFC4998","title":"好邻居饮食","lon":"121.56305","lat":"31.2522","category":"257","category_name":"中餐厅","address":"浦东新区龙居路157号(近博山东路)"},{"poiid":"B2094654D568A7FE469D","title":"可的(博山东路)","lon":"121.56871","lat":"31.25317","category":"117","category_name":"便民商店/便利店","address":"浦东新区博山东路465号(博山东路云山路)"},{"poiid":"B2094757D068A7F8499A","title":"浦东新区房产交易中心","lon":"121.56503497","lat":"31.246380438","category":"500","category_name":"未知分类","address":"上海张杨路德平路"},{"poiid":"B2094757D06FA3FA479C","title":"名人苑","lon":"121.56677011772149","lat":"31.24642229889824","category":"196","category_name":"公园","address":"浦东新区张杨路2988号(近居家桥路)"},{"poiid":"B2094757D06FA4FF469E","title":"罗曼园高级婚礼会馆(浦东店)","lon":"121.56599539442539","lat":"31.245736684141356","category":"184","category_name":"美术馆","address":"浦东新区张杨路2948号查看地图"},{"poiid":"B2094757D06FA6F44998","title":"尚海派主题餐厅(云山路店)","lon":"121.57141","lat":"31.24974","category":"76","category_name":"上海菜","address":"浦东新区云山路886号2-3楼(近张杨路)"},{"poiid":"B2094655D36CA5F44099","title":"博山东路云山路","lon":"121.56816","lat":"31.25262","category":"38","category_name":"公交车站","address":""},{"poiid":"B2094654D568A7FE499D","title":"象山海鲜城 居家桥店","lon":"121.56621113256","lat":"31.253418673801","category":"247","category_name":"餐饮美食","address":"浦东新区居家桥路635号(近博山东路)"},{"poiid":"B2094757D06FA7FC469B","title":"浦东大道","lon":"121.56493549","lat":"31.255178412","category":"260","category_name":"其他","address":"上海市浦东大道"},{"poiid":"B2094757D069A3FB409D","title":"亚龙大酒店","lon":"121.56667","lat":"31.25298","category":"72","category_name":"广东菜","address":"浦东新区居家桥路595号(近博山路)"},{"poiid":"B2094757D064A2FC4998","title":"云山路张杨路","lon":"121.572011339","lat":"31.2496217887","category":"500","category_name":"未知分类","address":"上海市浦东新区"},{"poiid":"B2094654DA69A2FC469B","title":"浦东邮政大厦","lon":"121.5649","lat":"31.24658","category":"46","category_name":"楼宇","address":"浦东区丁香路716号"},{"poiid":"B2094757D06AA0FE4998","title":"张杨路居家桥路","lon":"121.569799839","lat":"31.2491730784","category":"500","category_name":"未知分类","address":"上海张杨路居家桥路"},{"poiid":"B2094757D06BAAFD4692","title":"浦东新区房地产交易中心","lon":"121.56492237","lat":"31.246139233","category":"500","category_name":"未知分类","address":"上海张扬路2899号(邮政大厦)一楼近德平路口"},{"poiid":"B2094757D064AAFE409A","title":"上海振华外经职业技术学校","lon":"121.56191233","lat":"31.253369374","category":"253","category_name":"校园生活","address":"上海龙居路栖山路"},{"poiid":"B2094654D568ABFE4193","title":"古源养生坊足道保健会馆","lon":"121.56597","lat":"31.251","category":"149","category_name":"洗浴推拿场所","address":"上海浦东新区博山东路190号(近居家桥路)  "},{"poiid":"B2094757D064A3FE419D","title":"浦东新区疾病预防控制中心","lon":"121.5677146","lat":"31.248057852","category":"500","category_name":"未知分类","address":"上海张杨路3039号"},{"poiid":"B2094757D468A4F8469F","title":"龙象品臻","lon":"121.566179","lat":"31.252396","category":"75","category_name":"浙江菜","address":"浦东新区居家桥路635号(近博山路)"},{"poiid":"B2094655D26BA3F4429B","title":"黄山宾馆餐厅","lon":"121.56643","lat":"31.25283","category":"76","category_name":"上海菜","address":"浦东新区居家桥路635号(博山东路居家桥路)"},{"poiid":"B2094655D26CA7FA419E","title":"汇汇小厨酒家","lon":"121.56855","lat":"31.25263","category":"257","category_name":"中餐厅","address":"浦东新区博山东路456号(近云山路)"},{"poiid":"B2094654D568ABFE429D","title":"通联苑","lon":"121.56622","lat":"31.250317","category":"47","category_name":"住宅区","address":"上海市浦东新区居家桥路688弄"},{"poiid":"B2094757D06BA7FC4793","title":"明缘渔港","lon":"121.566578","lat":"31.256883","category":"260","category_name":"其他","address":"浦东新区云山路600号(近栖山路)"},{"poiid":"B2094757D664A6FD409B","title":"克莉丝汀 博山东路二店","lon":"121.566087054","lat":"31.251218793","category":"112","category_name":"糕饼店","address":"浦东新区博山东路172号(近居家桥路)"},{"poiid":"B2094752D264A2FE469D","title":"上德宝骏宝马5S","lon":"121.56586","lat":"31.2536","category":"263","category_name":"公司","address":"居家桥路571号"},{"poiid":"B2094757D16BA1FA469B","title":"黄山花鸟市场","lon":"121.571630339","lat":"31.2505738106","category":"249","category_name":"购物服务","address":"上海市浦东新区博山东路"},{"poiid":"B2094654D568A7FE4999","title":"博山菜市场(博山东路)","lon":"121.56723","lat":"31.25181","category":"117","category_name":"便民商店/便利店","address":"博山东路358"},{"poiid":"B2094757D16FA2FD469D","title":"小螺号幼儿园","lon":"121.568082","lat":"31.253763","category":"57","category_name":"幼儿园","address":"浦东新区博山东路81弄26号(博山东路德平路)"},{"poiid":"B2094757D168AAFA459E","title":"必胜客","lon":"121.57076","lat":"31.25373","category":"94","category_name":"西餐厅","address":"浦东新区博山东路570号(博山东路云山路)"},{"poiid":"B2094655D26FA6F8469F","title":"住友名人花园","lon":"121.56658","lat":"31.248566","category":"47","category_name":"住宅区","address":"上海市长宁区延安西路1235弄"},{"poiid":"B2094655D26CA5FA449E","title":"博山公寓","lon":"121.56526","lat":"31.251949","category":"47","category_name":"住宅区","address":"博山东路173弄10,14,20号"},{"poiid":"B2094757D16FA7FC419C","title":"机场四线　德平路","lon":"121.56706303","lat":"31.253076868","category":"36","category_name":"地铁站","address":"上海浦东大道"},{"poiid":"B2094757D064A0FB479C","title":"罗山七村","lon":"121.56448","lat":"31.252216","category":"252","category_name":"楼宇机构","address":"上海市浦东新区龙居路"},{"poiid":"B2094655D36CA5F4409D","title":"博山东路居家桥路","lon":"121.56515","lat":"31.25073","category":"38","category_name":"公交车站","address":""},{"poiid":"B2094757D568A7FD409E","title":"九段沙湿地国家级自然保护区","lon":"121.56708008","lat":"31.25232368","category":"250","category_name":"公园户外","address":"博山东路383"},{"poiid":"B2094654D568A4FA489C","title":"博山公寓(南门)","lon":"121.56577","lat":"31.25137","category":"47","category_name":"住宅区","address":"博山东路173弄10、14、20号"},{"poiid":"B2094654D568A4FA4892","title":"上海世纪星双语实验幼稚园","lon":"121.56483","lat":"31.2509","category":"57","category_name":"幼儿园","address":"浦东新区博山东路169号(近万德路)"},{"poiid":"B2094654D568A7FE499F","title":"黄山宾馆(居家桥路)","lon":"121.56642","lat":"31.25282","category":"250","category_name":"公园户外","address":"浦东新区居家桥路635号(博山东路龙居路)"},{"poiid":"B2094655D264A1FD499B","title":"黄山二村","lon":"121.56821","lat":"31.2535","category":"47","category_name":"住宅区","address":"博山东路459弄1-70号"},{"poiid":"B2094655D26DABFF409B","title":"黄山新村(北门)","lon":"121.56851","lat":"31.25258","category":"47","category_name":"住宅区","address":"博山东路440弄1-50号"},{"poiid":"B2094752D764ABFA419B","title":"彼得西餐","lon":"121.567348","lat":"31.249522","category":"247","category_name":"餐饮美食","address":"碧云休闲中心"},{"poiid":"B2094757DA6FA3FE4598","title":"浦东新区社会统计调查中心","lon":"121.567320999997","lat":"31.2520790000002","category":"263","category_name":"公司","address":"浦东新区博山东路383号"},{"poiid":"B2094654D568ABFE429A","title":"忆星美容美发博山店","lon":"121.56602","lat":"31.25103","category":"148","category_name":"美容美发店","address":"浦东新区博山东路博山公寓正对面(近居家桥路)"},{"poiid":"B2094757D465ABFE4798","title":"都得利面馆","lon":"121.569515054","lat":"31.253680793","category":"68","category_name":"快餐厅","address":"黄浦区南京东路470号42号都市假日酒店内(近福建中路)"},{"poiid":"B2094654DB6BA1F8499A","title":"永琪美容美发","lon":"121.56485","lat":"31.25032","category":"148","category_name":"美容美发店","address":"浦东新区博山东路810号"},{"poiid":"B2094757D169A4FF479F","title":"黄山新村一期","lon":"121.56823733","lat":"31.253154869","category":"47","category_name":"住宅区","address":"上海浦东新区博山东路440弄"},{"poiid":"B2094757D064A3FE409C","title":"广洋华景苑","lon":"121.56556152265","lat":"31.247537457799","category":"47","category_name":"住宅区","address":"上海市闸北区场中路3300弄"},{"poiid":"B2094655D26DAAF44293","title":"好德No.795","lon":"121.56522","lat":"31.25054","category":"117","category_name":"便民商店/便利店","address":"博山东路172"},{"poiid":"B2094654D568A7F8459F","title":"浦东新区医疗保险事务中心","lon":"121.56929","lat":"31.24879","category":"162","category_name":"医院","address":"上海张杨路3059号"},{"poiid":"B2094757D66EABF5499C","title":"黄山新村","lon":"121.56908","lat":"31.252127","category":"252","category_name":"楼宇机构","address":"上海博山东路枣庄路(787大桥三线终点站)"},{"poiid":"B2094757D165A2FA499C","title":"联华超市(博山东路店)","lon":"121.56582","lat":"31.25049","category":"118","category_name":"超级市场","address":"浦东新区博山东路186号(近居家桥路)"},{"poiid":"B2094654D568ABFC4998","title":"好邻居饮食","lon":"121.56305","lat":"31.2522","category":"257","category_name":"中餐厅","address":"浦东新区龙居路157号(近博山东路)"},{"poiid":"B2094654D568A7FE469D","title":"可的(博山东路)","lon":"121.56871","lat":"31.25317","category":"117","category_name":"便民商店/便利店","address":"浦东新区博山东路465号(博山东路云山路)"},{"poiid":"B2094757D068A7F8499A","title":"浦东新区房产交易中心","lon":"121.56503497","lat":"31.246380438","category":"500","category_name":"未知分类","address":"上海张杨路德平路"},{"poiid":"B2094757D06FA3FA479C","title":"名人苑","lon":"121.56677011772149","lat":"31.24642229889824","category":"196","category_name":"公园","address":"浦东新区张杨路2988号(近居家桥路)"},{"poiid":"B2094757D06FA4FF469E","title":"罗曼园高级婚礼会馆(浦东店)","lon":"121.56599539442539","lat":"31.245736684141356","category":"184","category_name":"美术馆","address":"浦东新区张杨路2948号查看地图"},{"poiid":"B2094757D06FA6F44998","title":"尚海派主题餐厅(云山路店)","lon":"121.57141","lat":"31.24974","category":"76","category_name":"上海菜","address":"浦东新区云山路886号2-3楼(近张杨路)"},{"poiid":"B2094655D36CA5F44099","title":"博山东路云山路","lon":"121.56816","lat":"31.25262","category":"38","category_name":"公交车站","address":""},{"poiid":"B2094654D568A7FE499D","title":"象山海鲜城 居家桥店","lon":"121.56621113256","lat":"31.253418673801","category":"247","category_name":"餐饮美食","address":"浦东新区居家桥路635号(近博山东路)"},{"poiid":"B2094757D06FA7FC469B","title":"浦东大道","lon":"121.56493549","lat":"31.255178412","category":"260","category_name":"其他","address":"上海市浦东大道"},{"poiid":"B2094757D069A3FB409D","title":"亚龙大酒店","lon":"121.56667","lat":"31.25298","category":"72","category_name":"广东菜","address":"浦东新区居家桥路595号(近博山路)"},{"poiid":"B2094757D064A2FC4998","title":"云山路张杨路","lon":"121.572011339","lat":"31.2496217887","category":"500","category_name":"未知分类","address":"上海市浦东新区"},{"poiid":"B2094654DA69A2FC469B","title":"浦东邮政大厦","lon":"121.5649","lat":"31.24658","category":"46","category_name":"楼宇","address":"浦东区丁香路716号"},{"poiid":"B2094757D06AA0FE4998","title":"张杨路居家桥路","lon":"121.569799839","lat":"31.2491730784","category":"500","category_name":"未知分类","address":"上海张杨路居家桥路"},{"poiid":"B2094757D06BAAFD4692","title":"浦东新区房地产交易中心","lon":"121.56492237","lat":"31.246139233","category":"500","category_name":"未知分类","address":"上海张扬路2899号(邮政大厦)一楼近德平路口"},{"poiid":"B2094757D064AAFE409A","title":"上海振华外经职业技术学校","lon":"121.56191233","lat":"31.253369374","category":"253","category_name":"校园生活","address":"上海龙居路栖山路"},{"poiid":"B2094654D568ABFE4193","title":"古源养生坊足道保健会馆","lon":"121.56597","lat":"31.251","category":"149","category_name":"洗浴推拿场所","address":"上海浦东新区博山东路190号(近居家桥路)  "},{"poiid":"B2094757D064A3FE419D","title":"浦东新区疾病预防控制中心","lon":"121.5677146","lat":"31.248057852","category":"500","category_name":"未知分类","address":"上海张杨路3039号"},{"poiid":"B2094757D468A4F8469F","title":"龙象品臻","lon":"121.566179","lat":"31.252396","category":"75","category_name":"浙江菜","address":"浦东新区居家桥路635号(近博山路)"},{"poiid":"B2094655D26BA3F4429B","title":"黄山宾馆餐厅","lon":"121.56643","lat":"31.25283","category":"76","category_name":"上海菜","address":"浦东新区居家桥路635号(博山东路居家桥路)"},{"poiid":"B2094655D26CA7FA419E","title":"汇汇小厨酒家","lon":"121.56855","lat":"31.25263","category":"257","category_name":"中餐厅","address":"浦东新区博山东路456号(近云山路)"},{"poiid":"B2094654D568ABFE429D","title":"通联苑","lon":"121.56622","lat":"31.250317","category":"47","category_name":"住宅区","address":"上海市浦东新区居家桥路688弄"},{"poiid":"B2094757D06BA7FC4793","title":"明缘渔港","lon":"121.566578","lat":"31.256883","category":"260","category_name":"其他","address":"浦东新区云山路600号(近栖山路)"},{"poiid":"B2094757D664A6FD409B","title":"克莉丝汀 博山东路二店","lon":"121.566087054","lat":"31.251218793","category":"112","category_name":"糕饼店","address":"浦东新区博山东路172号(近居家桥路)"},{"poiid":"B2094752D264A2FE469D","title":"上德宝骏宝马5S","lon":"121.56586","lat":"31.2536","category":"263","category_name":"公司","address":"居家桥路571号"},{"poiid":"B2094757D16BA1FA469B","title":"黄山花鸟市场","lon":"121.571630339","lat":"31.2505738106","category":"249","category_name":"购物服务","address":"上海市浦东新区博山东路"},{"poiid":"B2094654D568A7FE4999","title":"博山菜市场(博山东路)","lon":"121.56723","lat":"31.25181","category":"117","category_name":"便民商店/便利店","address":"博山东路358"},{"poiid":"B2094757D16FA2FD469D","title":"小螺号幼儿园","lon":"121.568082","lat":"31.253763","category":"57","category_name":"幼儿园","address":"浦东新区博山东路81弄26号(博山东路德平路)"},{"poiid":"B2094757D168AAFA459E","title":"必胜客","lon":"121.57076","lat":"31.25373","category":"94","category_name":"西餐厅","address":"浦东新区博山东路570号(博山东路云山路)"},{"poiid":"B2094655D26FA6F8469F","title":"住友名人花园","lon":"121.56658","lat":"31.248566","category":"47","category_name":"住宅区","address":"上海市长宁区延安西路1235弄"},{"poiid":"B2094655D26CA5FA449E","title":"博山公寓","lon":"121.56526","lat":"31.251949","category":"47","category_name":"住宅区","address":"博山东路173弄10,14,20号"},{"poiid":"B2094757D16FA7FC419C","title":"机场四线　德平路","lon":"121.56706303","lat":"31.253076868","category":"36","category_name":"地铁站","address":"上海浦东大道"},{"poiid":"B2094757D064A0FB479C","title":"罗山七村","lon":"121.56448","lat":"31.252216","category":"252","category_name":"楼宇机构","address":"上海市浦东新区龙居路"},{"poiid":"B2094655D36CA5F4409D","title":"博山东路居家桥路","lon":"121.56515","lat":"31.25073","category":"38","category_name":"公交车站","address":""},{"poiid":"B2094757D568A7FD409E","title":"九段沙湿地国家级自然保护区","lon":"121.56708008","lat":"31.25232368","category":"250","category_name":"公园户外","address":"博山东路383"},{"poiid":"B2094654D568A4FA489C","title":"博山公寓(南门)","lon":"121.56577","lat":"31.25137","category":"47","category_name":"住宅区","address":"博山东路173弄10、14、20号"},{"poiid":"B2094654D568A4FA4892","title":"上海世纪星双语实验幼稚园","lon":"121.56483","lat":"31.2509","category":"57","category_name":"幼儿园","address":"浦东新区博山东路169号(近万德路)"},{"poiid":"B2094654D568A7FE499F","title":"黄山宾馆(居家桥路)","lon":"121.56642","lat":"31.25282","category":"250","category_name":"公园户外","address":"浦东新区居家桥路635号(博山东路龙居路)"},{"poiid":"B2094655D264A1FD499B","title":"黄山二村","lon":"121.56821","lat":"31.2535","category":"47","category_name":"住宅区","address":"博山东路459弄1-70号"},{"poiid":"B2094655D26DABFF409B","title":"黄山新村(北门)","lon":"121.56851","lat":"31.25258","category":"47","category_name":"住宅区","address":"博山东路440弄1-50号"},{"poiid":"B2094752D764ABFA419B","title":"彼得西餐","lon":"121.567348","lat":"31.249522","category":"247","category_name":"餐饮美食","address":"碧云休闲中心"},{"poiid":"B2094757DA6FA3FE4598","title":"浦东新区社会统计调查中心","lon":"121.567320999997","lat":"31.2520790000002","category":"263","category_name":"公司","address":"浦东新区博山东路383号"},{"poiid":"B2094654D568ABFE429A","title":"忆星美容美发博山店","lon":"121.56602","lat":"31.25103","category":"148","category_name":"美容美发店","address":"浦东新区博山东路博山公寓正对面(近居家桥路)"},{"poiid":"B2094757D465ABFE4798","title":"都得利面馆","lon":"121.569515054","lat":"31.253680793","category":"68","category_name":"快餐厅","address":"黄浦区南京东路470号42号都市假日酒店内(近福建中路)"},{"poiid":"B2094654DB6BA1F8499A","title":"永琪美容美发","lon":"121.56485","lat":"31.25032","category":"148","category_name":"美容美发店","address":"浦东新区博山东路810号"},{"poiid":"B2094757D169A4FF479F","title":"黄山新村一期","lon":"121.56823733","lat":"31.253154869","category":"47","category_name":"住宅区","address":"上海浦东新区博山东路440弄"},{"poiid":"B2094757D064A3FE409C","title":"广洋华景苑","lon":"121.56556152265","lat":"31.247537457799","category":"47","category_name":"住宅区","address":"上海市闸北区场中路3300弄"},{"poiid":"B2094655D26DAAF44293","title":"好德No.795","lon":"121.56522","lat":"31.25054","category":"117","category_name":"便民商店/便利店","address":"博山东路172"},{"poiid":"B2094654D568A7F8459F","title":"浦东新区医疗保险事务中心","lon":"121.56929","lat":"31.24879","category":"162","category_name":"医院","address":"上海张杨路3059号"},{"poiid":"B2094757D66EABF5499C","title":"黄山新村","lon":"121.56908","lat":"31.252127","category":"252","category_name":"楼宇机构","address":"上海博山东路枣庄路(787大桥三线终点站)"},{"poiid":"B2094757D165A2FA499C","title":"联华超市(博山东路店)","lon":"121.56582","lat":"31.25049","category":"118","category_name":"超级市场","address":"浦东新区博山东路186号(近居家桥路)"},{"poiid":"B2094654D568ABFC4998","title":"好邻居饮食","lon":"121.56305","lat":"31.2522","category":"257","category_name":"中餐厅","address":"浦东新区龙居路157号(近博山东路)"},{"poiid":"B2094654D568A7FE469D","title":"可的(博山东路)","lon":"121.56871","lat":"31.25317","category":"117","category_name":"便民商店/便利店","address":"浦东新区博山东路465号(博山东路云山路)"}]