[{"poiid":"B2094757D06EAAF44298","title":"盈田盈粥庄","lon":"121.56662","lat":"31.24416","category":"72","category_name":"广东菜","address":"浦东新区德平路777号(近羽山路)"},{"poiid":"B2094757D06FA2FF499C","title":"光头烧烤吧(德平路店)","lon":"121.56891","lat":"31.24135","category":"68","category_name":"快餐厅","address":"浦东新区德平路1072号(近灵山路)"},{"poiid":"B2094757D06FA4FF469E","title":"罗曼园高级婚礼会馆(浦东店)","lon":"121.56599539442539","lat":"31.245736684141356","category":"184","category_name":"美术馆","address":"浦东新区张杨路2948号查看地图"},{"poiid":"B2094757D06FA2FC4292","title":"德平路地铁站","lon":"121.56418327","lat":"31.245292273","category":"36","category_name":"地铁站","address":"上海轨道交通 六号线 轨交德平路站 6"},{"poiid":"B2094757D06AA4F5479A","title":"德平路灵山路","lon":"121.569121","lat":"31.2407548","category":"500","category_name":"未知分类","address":"上海德平路灵山路"},{"poiid":"B2094757D165A5FD429E","title":"在路上(杨浦大桥上)","lon":"121.561273575","lat":"31.2427963548","category":"500","category_name":"未知分类","address":"上海杨浦大桥"},{"poiid":"B2094757D068A4F8499D","title":"普陀山海鲜大酒店(德平路店)","lon":"121.56941","lat":"31.24064","category":"88","category_name":"海鲜酒楼","address":"浦东新区德平路1141号(近灵山路)"},{"poiid":"B2094757D56CA0F94699","title":"鼎中鼎澳门豆捞 崮山路店","lon":"121.560459","lat":"31.239118","category":"86","category_name":"火锅店","address":"浦东新区崮山路717号(羽山路口)"},{"poiid":"B2094757D069A0F8439C","title":"羽山路崮山路","lon":"121.56135134","lat":"31.240626104","category":"500","category_name":"未知分类","address":"上海崮山小区"},{"poiid":"B2094757D069A1FA439A","title":"亚龙国际酒店宴会厅","lon":"121.55968","lat":"31.23966","category":"217","category_name":"旅馆招待所","address":"上海浦东新区崮山路688号亚龙国际酒店18楼(羽山路口)  "},{"poiid":"B2094654DA69A1FA439B","title":"康氏龙虾城 德平路店","lon":"121.5691633223","lat":"31.241419821509","category":"247","category_name":"餐饮美食","address":"上海浦东新区德平路1120号(近灵山路)  "},{"poiid":"B2094757D068A3F54493","title":"永达汽车浦东贸易","lon":"121.562179565","lat":"31.2447547913","category":"158","category_name":"汽车销售","address":"浦东新区张杨路2761号(罗山路张杨路)"},{"poiid":"B2094757D068AAFB4699","title":"罗山路立交桥","lon":"121.56602928","lat":"31.236537863","category":"260","category_name":"其他","address":"上海罗山路杨高中路"},{"poiid":"B2094757D06BAAFD4692","title":"浦东新区房地产交易中心","lon":"121.56492237","lat":"31.246139233","category":"500","category_name":"未知分类","address":"上海张扬路2899号(邮政大厦)一楼近德平路口"},{"poiid":"B2094757D068A5FE479A","title":"罗山新村","lon":"121.564161","lat":"31.245353","category":"47","category_name":"住宅区","address":"上海浦东新区德平路(近博山路)"},{"poiid":"B2094654DA69A1FD4093","title":"斐生酒家 崮山店","lon":"121.56047959367","lat":"31.239556801838","category":"76","category_name":"上海菜","address":"浦东新区崮山路717号华联吉买盛5楼(近羽山路)"},{"poiid":"B2094654DA69A1FD429C","title":"上海市第六师范附属小学(羽山路)","lon":"121.5631","lat":"31.24022","category":"56","category_name":"小学","address":"羽山路1476号"},{"poiid":"B2094654DB6BAAFD419D","title":"当代清水园","lon":"121.56539381496","lat":"31.236603120845","category":"47","category_name":"住宅区","address":"芳甸路77弄1-33号"},{"poiid":"B2094757D068A7FE429B","title":"肯德基 KFC (灵山店)","lon":"121.569603","lat":"31.241162","category":"68","category_name":"快餐厅","address":"浦东新区灵山路1785号(德平路灵山路)"},{"poiid":"B2094757D068A1FF4998","title":"新招鲜本地鸡窝 德平店","lon":"121.566250054","lat":"31.243976793","category":"86","category_name":"火锅店","address":"浦东新区羽山路1969号(加油站对面)"},{"poiid":"B2094655D36DA7FD4993","title":"张杨路罗山路","lon":"121.56016","lat":"31.24327","category":"38","category_name":"公交车站","address":""},{"poiid":"B2094655D265A7FE409C","title":"东豫郎热气涮羊肉烧烤德平店","lon":"121.56671","lat":"31.2445","category":"87","category_name":"特色／地方风味餐厅","address":"浦东新区羽山路1969号107(近德平路)"},{"poiid":"B2094654DA69A1F94992","title":"香山新村西北街坊","lon":"121.5671","lat":"31.242519","category":"47","category_name":"住宅区","address":"德平路1671弄1066弄"},{"poiid":"B2094757D06FA1FB479D","title":"羽山台球俱乐部","lon":"121.56801","lat":"31.24438","category":"171","category_name":"台球厅","address":"浦东新区羽山路1969号2楼(近德平路)"},{"poiid":"B2094757D468ABF44993","title":"金湘阁 崮山路店","lon":"121.5604","lat":"31.2389","category":"77","category_name":"湖南菜","address":"浦东新区崮山路717号(近羽山路)"},{"poiid":"B2094757D06AA7FB479E","title":"JEANS日系SALON","lon":"121.567934","lat":"31.242228","category":"148","category_name":"美容美发店","address":"上海浦东新区灵山路1738号2楼(近德平路)"},{"poiid":"B2094654DA69A1FA419B","title":"老面馆浦东德兴馆","lon":"121.56806","lat":"31.24179","category":"68","category_name":"快餐厅","address":"浦东新区德平路1094号(近灵山路)"},{"poiid":"B2094757D065A3FB439F","title":"第三十九机动车检测中心","lon":"121.56143188","lat":"31.235708236","category":"500","category_name":"未知分类","address":"上海固山路930号近杨浦大桥"},{"poiid":"B2094655D26EA7FE469A","title":"天虹苑","lon":"121.56728","lat":"31.242554","category":"47","category_name":"住宅区","address":"德平路1060弄"},{"poiid":"B2094655D26AA7FB429F","title":"六师附小羽毛球馆","lon":"121.56292","lat":"31.23993","category":"247","category_name":"餐饮美食","address":"浦东新区羽山路1476号(近罗山路)"},{"poiid":"B2094654DA69A1FD4493","title":"崮山小区二街坊","lon":"121.56343","lat":"31.23917","category":"47","category_name":"住宅区","address":"灵山路1415弄1-94号"},{"poiid":"B2094757D568A6FB469E","title":"万和轩","lon":"121.55956896","lat":"31.23956272","category":"72","category_name":"广东菜","address":"浦东新区崮山路688号亚隆国际酒店(近张杨路)"},{"poiid":"B2094654DB6BAAFD449F","title":"上海市香山中学(灵山路)","lon":"121.56674","lat":"31.23887","category":"55","category_name":"中学","address":"浦东新区灵山路1672弄36号(灵山路罗山路)"},{"poiid":"B2094654DA69A1F8409B","title":"上海市浦东新区特殊教育学校","lon":"121.56462","lat":"31.24194","category":"253","category_name":"校园生活","address":"羽山路1890"},{"poiid":"B2094757D065A3FA499B","title":"御洋大酒店","lon":"121.559593","lat":"31.239498","category":"76","category_name":"上海菜","address":"浦东新区崮山路751号(近羽山路)"},{"poiid":"B2094757D065A1FE4599","title":"东北菜馆","lon":"121.55916","lat":"31.24043","category":"82","category_name":"东北菜","address":"浦东新区崮山路638号(近张杨路)"},{"poiid":"B2094654DA69A1FD4293","title":"崮山小区三街坊","lon":"121.56226","lat":"31.239594","category":"47","category_name":"住宅区","address":"羽山路1446弄"},{"poiid":"B2094757D06BA2FF479E","title":"志权拉面","lon":"121.57002","lat":"31.24066","category":"68","category_name":"快餐厅","address":"浦东新区灵山路1742号(近德平路)"},{"poiid":"B2094654DA69A1FD4299","title":"崮山小区四街坊(边门)","lon":"121.56258","lat":"31.23991","category":"47","category_name":"住宅区","address":""},{"poiid":"B2094757D16CA4FA409D","title":"特殊教育学校羽毛球馆","lon":"121.56482","lat":"31.24131","category":"220","category_name":"运动场所","address":"浦东新区羽山路1890号(近德平路)"},{"poiid":"B2094654DA69A1FC419F","title":"金羽名庭","lon":"121.564","lat":"31.2428","category":"47","category_name":"住宅区","address":"羽山路998弄1-30号"},{"poiid":"B2094655D265A7FA459F","title":"食知味","lon":"121.56696","lat":"31.24464","category":"257","category_name":"中餐厅","address":"浦东新区羽山路1923号(近德平路)"},{"poiid":"B2094757D569A7FD4799","title":"音乐百度量贩式KTV","lon":"121.5606231","lat":"31.23918889","category":"170","category_name":"KTV","address":"浦东新区崮山路717号华联吉买盛楼4楼(近羽山路)"},{"poiid":"B2094654DA69A1FD459E","title":"崮山小区(北门)","lon":"121.56315","lat":"31.23757","category":"47","category_name":"住宅区","address":"灵山路1396弄1-34号"},{"poiid":"B2094654DB6BAAFD449E","title":"香山新村西北街坊(三号门)","lon":"121.56691","lat":"31.23984","category":"47","category_name":"住宅区","address":"灵山路1671弄1-79号"},{"poiid":"B2094654DA69A1FD459A","title":"崮山小区二街坊(南门)","lon":"121.56334","lat":"31.23802","category":"47","category_name":"住宅区","address":"灵山路1415弄1-94号"},{"poiid":"B2094757D465A7FB449F","title":"重庆鸡公煲 德平店","lon":"121.56848","lat":"31.2417","category":"71","category_name":"四川菜","address":"浦东新区德平路1111号(近羽山路)"},{"poiid":"B2094654DA69A1FD4198","title":"崮山小区四街坊","lon":"121.56057","lat":"31.240339","category":"47","category_name":"住宅区","address":"羽山路1445弄"},{"poiid":"B2094757D168A3FC4792","title":"百灵鸟幼儿园陆洋部","lon":"121.56511377","lat":"31.238419952","category":"253","category_name":"校园生活","address":"浦东新区灵山路1415弄93号(近德平路)"},{"poiid":"B2094757D16EA7FD469F","title":"中星怡景花园","lon":"121.559757","lat":"31.240184","category":"47","category_name":"住宅区","address":"上海市浦东新区青铜路333号"},{"poiid":"B2094757D06EAAF44298","title":"盈田盈粥庄","lon":"121.56662","lat":"31.24416","category":"72","category_name":"广东菜","address":"浦东新区德平路777号(近羽山路)"},{"poiid":"B2094757D06FA2FF499C","title":"光头烧烤吧(德平路店)","lon":"121.56891","lat":"31.24135","category":"68","category_name":"快餐厅","address":"浦东新区德平路1072号(近灵山路)"},{"poiid":"B2094757D06FA4FF469E","title":"罗曼园高级婚礼会馆(浦东店)","lon":"121.56599539442539","lat":"31.245736684141356","category":"184","category_name":"美术馆","address":"浦东新区张杨路2948号查看地图"},{"poiid":"B2094757D06FA2FC4292","title":"德平路地铁站","lon":"121.56418327","lat":"31.245292273","category":"36","category_name":"地铁站","address":"上海轨道交通 六号线 轨交德平路站 6"},{"poiid":"B2094757D06AA4F5479A","title":"德平路灵山路","lon":"121.569121","lat":"31.2407548","category":"500","category_name":"未知分类","address":"上海德平路灵山路"},{"poiid":"B2094757D165A5FD429E","title":"在路上(杨浦大桥上)","lon":"121.561273575","lat":"31.2427963548","category":"500","category_name":"未知分类","address":"上海杨浦大桥"},{"poiid":"B2094757D068A4F8499D","title":"普陀山海鲜大酒店(德平路店)","lon":"121.56941","lat":"31.24064","category":"88","category_name":"海鲜酒楼","address":"浦东新区德平路1141号(近灵山路)"},{"poiid":"B2094757D56CA0F94699","title":"鼎中鼎澳门豆捞 崮山路店","lon":"121.560459","lat":"31.239118","category":"86","category_name":"火锅店","address":"浦东新区崮山路717号(羽山路口)"},{"poiid":"B2094757D069A0F8439C","title":"羽山路崮山路","lon":"121.56135134","lat":"31.240626104","category":"500","category_name":"未知分类","address":"上海崮山小区"},{"poiid":"B2094757D069A1FA439A","title":"亚龙国际酒店宴会厅","lon":"121.55968","lat":"31.23966","category":"217","category_name":"旅馆招待所","address":"上海浦东新区崮山路688号亚龙国际酒店18楼(羽山路口)  "},{"poiid":"B2094654DA69A1FA439B","title":"康氏龙虾城 德平路店","lon":"121.5691633223","lat":"31.241419821509","category":"247","category_name":"餐饮美食","address":"上海浦东新区德平路1120号(近灵山路)  "},{"poiid":"B2094757D068A3F54493","title":"永达汽车浦东贸易","lon":"121.562179565","lat":"31.2447547913","category":"158","category_name":"汽车销售","address":"浦东新区张杨路2761号(罗山路张杨路)"},{"poiid":"B2094757D068AAFB4699","title":"罗山路立交桥","lon":"121.56602928","lat":"31.236537863","category":"260","category_name":"其他","address":"上海罗山路杨高中路"},{"poiid":"B2094757D06BAAFD4692","title":"浦东新区房地产交易中心","lon":"121.56492237","lat":"31.246139233","category":"500","category_name":"未知分类","address":"上海张扬路2899号(邮政大厦)一楼近德平路口"},{"poiid":"B2094757D068A5FE479A","title":"罗山新村","lon":"121.564161","lat":"31.245353","category":"47","category_name":"住宅区","address":"上海浦东新区德平路(近博山路)"},{"poiid":"B2094654DA69A1FD4093","title":"斐生酒家 崮山店","lon":"121.56047959367","lat":"31.239556801838","category":"76","category_name":"上海菜","address":"浦东新区崮山路717号华联吉买盛5楼(近羽山路)"},{"poiid":"B2094654DA69A1FD429C","title":"上海市第六师范附属小学(羽山路)","lon":"121.5631","lat":"31.24022","category":"56","category_name":"小学","address":"羽山路1476号"},{"poiid":"B2094654DB6BAAFD419D","title":"当代清水园","lon":"121.56539381496","lat":"31.236603120845","category":"47","category_name":"住宅区","address":"芳甸路77弄1-33号"},{"poiid":"B2094757D068A7FE429B","title":"肯德基 KFC (灵山店)","lon":"121.569603","lat":"31.241162","category":"68","category_name":"快餐厅","address":"浦东新区灵山路1785号(德平路灵山路)"},{"poiid":"B2094757D068A1FF4998","title":"新招鲜本地鸡窝 德平店","lon":"121.566250054","lat":"31.243976793","category":"86","category_name":"火锅店","address":"浦东新区羽山路1969号(加油站对面)"},{"poiid":"B2094655D36DA7FD4993","title":"张杨路罗山路","lon":"121.56016","lat":"31.24327","category":"38","category_name":"公交车站","address":""},{"poiid":"B2094655D265A7FE409C","title":"东豫郎热气涮羊肉烧烤德平店","lon":"121.56671","lat":"31.2445","category":"87","category_name":"特色／地方风味餐厅","address":"浦东新区羽山路1969号107(近德平路)"},{"poiid":"B2094654DA69A1F94992","title":"香山新村西北街坊","lon":"121.5671","lat":"31.242519","category":"47","category_name":"住宅区","address":"德平路1671弄1066弄"},{"poiid":"B2094757D06FA1FB479D","title":"羽山台球俱乐部","lon":"121.56801","lat":"31.24438","category":"171","category_name":"台球厅","address":"浦东新区羽山路1969号2楼(近德平路)"},{"poiid":"B2094757D468ABF44993","title":"金湘阁 崮山路店","lon":"121.5604","lat":"31.2389","category":"77","category_name":"湖南菜","address":"浦东新区崮山路717号(近羽山路)"},{"poiid":"B2094757D06AA7FB479E","title":"JEANS日系SALON","lon":"121.567934","lat":"31.242228","category":"148","category_name":"美容美发店","address":"上海浦东新区灵山路1738号2楼(近德平路)"},{"poiid":"B2094654DA69A1FA419B","title":"老面馆浦东德兴馆","lon":"121.56806","lat":"31.24179","category":"68","category_name":"快餐厅","address":"浦东新区德平路1094号(近灵山路)"},{"poiid":"B2094757D065A3FB439F","title":"第三十九机动车检测中心","lon":"121.56143188","lat":"31.235708236","category":"500","category_name":"未知分类","address":"上海固山路930号近杨浦大桥"},{"poiid":"B2094655D26EA7FE469A","title":"天虹苑","lon":"121.56728","lat":"31.242554","category":"47","category_name":"住宅区","address":"德平路1060弄"},{"poiid":"B2094655D26AA7FB429F","title":"六师附小羽毛球馆","lon":"121.56292","lat":"31.23993","category":"247","category_name":"餐饮美食","address":"浦东新区羽山路1476号(近罗山路)"},{"poiid":"B2094654DA69A1FD4493","title":"崮山小区二街坊","lon":"121.56343","lat":"31.23917","category":"47","category_name":"住宅区","address":"灵山路1415弄1-94号"},{"poiid":"B2094757D568A6FB469E","title":"万和轩","lon":"121.55956896","lat":"31.23956272","category":"72","category_name":"广东菜","address":"浦东新区崮山路688号亚隆国际酒店(近张杨路)"},{"poiid":"B2094654DB6BAAFD449F","title":"上海市香山中学(灵山路)","lon":"121.56674","lat":"31.23887","category":"55","category_name":"中学","address":"浦东新区灵山路1672弄36号(灵山路罗山路)"},{"poiid":"B2094654DA69A1F8409B","title":"上海市浦东新区特殊教育学校","lon":"121.56462","lat":"31.24194","category":"253","category_name":"校园生活","address":"羽山路1890"},{"poiid":"B2094757D065A3FA499B","title":"御洋大酒店","lon":"121.559593","lat":"31.239498","category":"76","category_name":"上海菜","address":"浦东新区崮山路751号(近羽山路)"},{"poiid":"B2094757D065A1FE4599","title":"东北菜馆","lon":"121.55916","lat":"31.24043","category":"82","category_name":"东北菜","address":"浦东新区崮山路638号(近张杨路)"},{"poiid":"B2094654DA69A1FD4293","title":"崮山小区三街坊","lon":"121.56226","lat":"31.239594","category":"47","category_name":"住宅区","address":"羽山路1446弄"},{"poiid":"B2094757D06BA2FF479E","title":"志权拉面","lon":"121.57002","lat":"31.24066","category":"68","category_name":"快餐厅","address":"浦东新区灵山路1742号(近德平路)"},{"poiid":"B2094654DA69A1FD4299","title":"崮山小区四街坊(边门)","lon":"121.56258","lat":"31.23991","category":"47","category_name":"住宅区","address":""},{"poiid":"B2094757D16CA4FA409D","title":"特殊教育学校羽毛球馆","lon":"121.56482","lat":"31.24131","category":"220","category_name":"运动场所","address":"浦东新区羽山路1890号(近德平路)"},{"poiid":"B2094654DA69A1FC419F","title":"金羽名庭","lon":"121.564","lat":"31.2428","category":"47","category_name":"住宅区","address":"羽山路998弄1-30号"},{"poiid":"B2094655D265A7FA459F","title":"食知味","lon":"121.56696","lat":"31.24464","category":"257","category_name":"中餐厅","address":"浦东新区羽山路1923号(近德平路)"},{"poiid":"B2094757D569A7FD4799","title":"音乐百度量贩式KTV","lon":"121.5606231","lat":"31.23918889","category":"170","category_name":"KTV","address":"浦东新区崮山路717号华联吉买盛楼4楼(近羽山路)"},{"poiid":"B2094654DA69A1FD459E","title":"崮山小区(北门)","lon":"121.56315","lat":"31.23757","category":"47","category_name":"住宅区","address":"灵山路1396弄1-34号"},{"poiid":"B2094654DB6BAAFD449E","title":"香山新村西北街坊(三号门)","lon":"121.56691","lat":"31.23984","category":"47","category_name":"住宅区","address":"灵山路1671弄1-79号"},{"poiid":"B2094654DA69A1FD459A","title":"崮山小区二街坊(南门)","lon":"121.56334","lat":"31.23802","category":"47","category_name":"住宅区","address":"灵山路1415弄1-94号"},{"poiid":"B2094757D465A7FB449F","title":"重庆鸡公煲 德平店","lon":"121.56848","lat":"31.2417","category":"71","category_name":"四川菜","address":"浦东新区德平路1111号(近羽山路)"},{"poiid":"B2094654DA69A1FD4198","title":"崮山小区四街坊","lon":"121.56057","lat":"31.240339","category":"47","category_name":"住宅区","address":"羽山路1445弄"},{"poiid":"B2094757D168A3FC4792","title":"百灵鸟幼儿园陆洋部","lon":"121.56511377","lat":"31.238419952","category":"253","category_name":"校园生活","address":"浦东新区灵山路1415弄93号(近德平路)"},{"poiid":"B2094757D16EA7FD469F","title":"中星怡景花园","lon":"121.559757","lat":"31.240184","category":"47","category_name":"住宅区","address":"上海市浦东新区青铜路333号"},{"poiid":"B2094757D06EAAF44298","title":"盈田盈粥庄","lon":"121.56662","lat":"31.24416","category":"72","category_name":"广东菜","address":"浦东新区德平路777号(近羽山路)"},{"poiid":"B2094757D06FA2FF499C","title":"光头烧烤吧(德平路店)","lon":"121.56891","lat":"31.24135","category":"68","category_name":"快餐厅","address":"浦东新区德平路1072号(近灵山路)"},{"poiid":"B2094757D06FA4FF469E","title":"罗曼园高级婚礼会馆(浦东店)","lon":"121.56599539442539","lat":"31.245736684141356","category":"184","category_name":"美术馆","address":"浦东新区张杨路2948号查看地图"},{"poiid":"B2094757D06FA2FC4292","title":"德平路地铁站","lon":"121.56418327","lat":"31.245292273","category":"36","category_name":"地铁站","address":"上海轨道交通 六号线 轨交德平路站 6"},{"poiid":"B2094757D06AA4F5479A","title":"德平路灵山路","lon":"121.569121","lat":"31.2407548","category":"500","category_name":"未知分类","address":"上海德平路灵山路"},{"poiid":"B2094757D165A5FD429E","title":"在路上(杨浦大桥上)","lon":"121.561273575","lat":"31.2427963548","category":"500","category_name":"未知分类","address":"上海杨浦大桥"},{"poiid":"B2094757D068A4F8499D","title":"普陀山海鲜大酒店(德平路店)","lon":"121.56941","lat":"31.24064","category":"88","category_name":"海鲜酒楼","address":"浦东新区德平路1141号(近灵山路)"},{"poiid":"B2094757D56CA0F94699","title":"鼎中鼎澳门豆捞 崮山路店","lon":"121.560459","lat":"31.239118","category":"86","category_name":"火锅店","address":"浦东新区崮山路717号(羽山路口)"},{"poiid":"B2094757D069A0F8439C","title":"羽山路崮山路","lon":"121.56135134","lat":"31.240626104","category":"500","category_name":"未知分类","address":"上海崮山小区"},{"poiid":"B2094757D069A1FA439A","title":"亚龙国际酒店宴会厅","lon":"121.55968","lat":"31.23966","category":"217","category_name":"旅馆招待所","address":"上海浦东新区崮山路688号亚龙国际酒店18楼(羽山路口)  "},{"poiid":"B2094654DA69A1FA439B","title":"康氏龙虾城 德平路店","lon":"121.5691633223","lat":"31.241419821509","category":"247","category_name":"餐饮美食","address":"上海浦东新区德平路1120号(近灵山路)  "},{"poiid":"B2094757D068A3F54493","title":"永达汽车浦东贸易","lon":"121.562179565","lat":"31.2447547913","category":"158","category_name":"汽车销售","address":"浦东新区张杨路2761号(罗山路张杨路)"},{"poiid":"B2094757D068AAFB4699","title":"罗山路立交桥","lon":"121.56602928","lat":"31.236537863","category":"260","category_name":"其他","address":"上海罗山路杨高中路"},{"poiid":"B2094757D06BAAFD4692","title":"浦东新区房地产交易中心","lon":"121.56492237","lat":"31.246139233","category":"500","category_name":"未知分类","address":"上海张扬路2899号(邮政大厦)一楼近德平路口"},{"poiid":"B2094757D068A5FE479A","title":"罗山新村","lon":"121.564161","lat":"31.245353","category":"47","category_name":"住宅区","address":"上海浦东新区德平路(近博山路)"},{"poiid":"B2094654DA69A1FD4093","title":"斐生酒家 崮山店","lon":"121.56047959367","lat":"31.239556801838","category":"76","category_name":"上海菜","address":"浦东新区崮山路717号华联吉买盛5楼(近羽山路)"},{"poiid":"B2094654DA69A1FD429C","title":"上海市第六师范附属小学(羽山路)","lon":"121.5631","lat":"31.24022","category":"56","category_name":"小学","address":"羽山路1476号"},{"poiid":"B2094654DB6BAAFD419D","title":"当代清水园","lon":"121.56539381496","lat":"31.236603120845","category":"47","category_name":"住宅区","address":"芳甸路77弄1-33号"},{"poiid":"B2094757D068A7FE429B","title":"肯德基 KFC (灵山店)","lon":"121.569603","lat":"31.241162","category":"68","category_name":"快餐厅","address":"浦东新区灵山路1785号(德平路灵山路)"},{"poiid":"B2094757D068A1FF4998","title":"新招鲜本地鸡窝 德平店","lon":"121.566250054","lat":"31.243976793","category":"86","category_name":"火锅店","address":"浦东新区羽山路1969号(加油站对面)"},{"poiid":"B2094655D36DA7FD4993","title":"张杨路罗山路","lon":"121.56016","lat":"31.24327","category":"38","category_name":"公交车站","address":""},{"poiid":"B2094655D265A7FE409C","title":"东豫郎热气涮羊肉烧烤德平店","lon":"121.56671","lat":"31.2445","category":"87","category_name":"特色／地方风味餐厅","address":"浦东新区羽山路1969号107(近德平路)"},{"poiid":"B2094654DA69A1F94992","title":"香山新村西北街坊","lon":"121.5671","lat":"31.242519","category":"47","category_name":"住宅区","address":"德平路1671弄1066弄"},{"poiid":"B2094757D06FA1FB479D","title":"羽山台球俱乐部","lon":"121.56801","lat":"31.24438","category":"171","category_name":"台球厅","address":"浦东新区羽山路1969号2楼(近德平路)"},{"poiid":"B2094757D468ABF44993","title":"金湘阁 崮山路店","lon":"121.5604","lat":"31.2389","category":"77","category_name":"湖南菜","address":"浦东新区崮山路717号(近羽山路)"},{"poiid":"B2094757D06AA7FB479E","title":"JEANS日系SALON","lon":"121.567934","lat":"31.242228","category":"148","category_name":"美容美发店","address":"上海浦东新区灵山路1738号2楼(近德平路)"},{"poiid":"B2094654DA69A1FA419B","title":"老面馆浦东德兴馆","lon":"121.56806","lat":"31.24179","category":"68","category_name":"快餐厅","address":"浦东新区德平路1094号(近灵山路)"},{"poiid":"B2094757D065A3FB439F","title":"第三十九机动车检测中心","lon":"121.56143188","lat":"31.235708236","category":"500","category_name":"未知分类","address":"上海固山路930号近杨浦大桥"},{"poiid":"B2094655D26EA7FE469A","title":"天虹苑","lon":"121.56728","lat":"31.242554","category":"47","category_name":"住宅区","address":"德平路1060弄"},{"poiid":"B2094655D26AA7FB429F","title":"六师附小羽毛球馆","lon":"121.56292","lat":"31.23993","category":"247","category_name":"餐饮美食","address":"浦东新区羽山路1476号(近罗山路)"},{"poiid":"B2094654DA69A1FD4493","title":"崮山小区二街坊","lon":"121.56343","lat":"31.23917","category":"47","category_name":"住宅区","address":"灵山路1415弄1-94号"},{"poiid":"B2094757D568A6FB469E","title":"万和轩","lon":"121.55956896","lat":"31.23956272","category":"72","category_name":"广东菜","address":"浦东新区崮山路688号亚隆国际酒店(近张杨路)"},{"poiid":"B2094654DB6BAAFD449F","title":"上海市香山中学(灵山路)","lon":"121.56674","lat":"31.23887","category":"55","category_name":"中学","address":"浦东新区灵山路1672弄36号(灵山路罗山路)"},{"poiid":"B2094654DA69A1F8409B","title":"上海市浦东新区特殊教育学校","lon":"121.56462","lat":"31.24194","category":"253","category_name":"校园生活","address":"羽山路1890"},{"poiid":"B2094757D065A3FA499B","title":"御洋大酒店","lon":"121.559593","lat":"31.239498","category":"76","category_name":"上海菜","address":"浦东新区崮山路751号(近羽山路)"},{"poiid":"B2094757D065A1FE4599","title":"东北菜馆","lon":"121.55916","lat":"31.24043","category":"82","category_name":"东北菜","address":"浦东新区崮山路638号(近张杨路)"},{"poiid":"B2094654DA69A1FD4293","title":"崮山小区三街坊","lon":"121.56226","lat":"31.239594","category":"47","category_name":"住宅区","address":"羽山路1446弄"},{"poiid":"B2094757D06BA2FF479E","title":"志权拉面","lon":"121.57002","lat":"31.24066","category":"68","category_name":"快餐厅","address":"浦东新区灵山路1742号(近德平路)"},{"poiid":"B2094654DA69A1FD4299","title":"崮山小区四街坊(边门)","lon":"121.56258","lat":"31.23991","category":"47","category_name":"住宅区","address":""},{"poiid":"B2094757D16CA4FA409D","title":"特殊教育学校羽毛球馆","lon":"121.56482","lat":"31.24131","category":"220","category_name":"运动场所","address":"浦东新区羽山路1890号(近德平路)"},{"poiid":"B2094654DA69A1FC419F","title":"金羽名庭","lon":"121.564","lat":"31.2428","category":"47","category_name":"住宅区","address":"羽山路998弄1-30号"},{"poiid":"B2094655D265A7FA459F","title":"食知味","lon":"121.56696","lat":"31.24464","category":"257","category_name":"中餐厅","address":"浦东新区羽山路1923号(近德平路)"},{"poiid":"B2094757D569A7FD4799","title":"音乐百度量贩式KTV","lon":"121.5606231","lat":"31.23918889","category":"170","category_name":"KTV","address":"浦东新区崮山路717号华联吉买盛楼4楼(近羽山路)"},{"poiid":"B2094654DA69A1FD459E","title":"崮山小区(北门)","lon":"121.56315","lat":"31.23757","category":"47","category_name":"住宅区","address":"灵山路1396弄1-34号"},{"poiid":"B2094654DB6BAAFD449E","title":"香山新村西北街坊(三号门)","lon":"121.56691","lat":"31.23984","category":"47","category_name":"住宅区","address":"灵山路1671弄1-79号"},{"poiid":"B2094654DA69A1FD459A","title":"崮山小区二街坊(南门)","lon":"121.56334","lat":"31.23802","category":"47","category_name":"住宅区","address":"灵山路1415弄1-94号"},{"poiid":"B2094757D465A7FB449F","title":"重庆鸡公煲 德平店","lon":"121.56848","lat":"31.2417","category":"71","category_name":"四川菜","address":"浦东新区德平路1111号(近羽山路)"},{"poiid":"B2094654DA69A1FD4198","title":"崮山小区四街坊","lon":"121.56057","lat":"31.240339","category":"47","category_name":"住宅区","address":"羽山路1445弄"},{"poiid":"B2094757D168A3FC4792","title":"百灵鸟幼儿园陆洋部","lon":"121.56511377","lat":"31.238419952","category":"253","category_name":"校园生活","address":"浦东新区灵山路1415弄93号(近德平路)"},{"poiid":"B2094757D16EA7FD469F","title":"中星怡景花园","lon":"121.559757","lat":"31.240184","category":"47","category_name":"住宅区","address":"上海市浦东新区青铜路333号"},{"poiid":"B2094757D06EAAF44298","title":"盈田盈粥庄","lon":"121.56662","lat":"31.24416","category":"72","category_name":"广东菜","address":"浦东新区德平路777号(近羽山路)"},{"poiid":"B2094757D06FA2FF499C","title":"光头烧烤吧(德平路店)","lon":"121.56891","lat":"31.24135","category":"68","category_name":"快餐厅","address":"浦东新区德平路1072号(近灵山路)"},{"poiid":"B2094757D06FA4FF469E","title":"罗曼园高级婚礼会馆(浦东店)","lon":"121.56599539442539","lat":"31.245736684141356","category":"184","category_name":"美术馆","address":"浦东新区张杨路2948号查看地图"},{"poiid":"B2094757D06FA2FC4292","title":"德平路地铁站","lon":"121.56418327","lat":"31.245292273","category":"36","category_name":"地铁站","address":"上海轨道交通 六号线 轨交德平路站 6"},{"poiid":"B2094757D06AA4F5479A","title":"德平路灵山路","lon":"121.569121","lat":"31.2407548","category":"500","category_name":"未知分类","address":"上海德平路灵山路"},{"poiid":"B2094757D165A5FD429E","title":"在路上(杨浦大桥上)","lon":"121.561273575","lat":"31.2427963548","category":"500","category_name":"未知分类","address":"上海杨浦大桥"},{"poiid":"B2094757D068A4F8499D","title":"普陀山海鲜大酒店(德平路店)","lon":"121.56941","lat":"31.24064","category":"88","category_name":"海鲜酒楼","address":"浦东新区德平路1141号(近灵山路)"},{"poiid":"B2094757D56CA0F94699","title":"鼎中鼎澳门豆捞 崮山路店","lon":"121.560459","lat":"31.239118","category":"86","category_name":"火锅店","address":"浦东新区崮山路717号(羽山路口)"},{"poiid":"B2094757D069A0F8439C","title":"羽山路崮山路","lon":"121.56135134","lat":"31.240626104","category":"500","category_name":"未知分类","address":"上海崮山小区"},{"poiid":"B2094757D069A1FA439A","title":"亚龙国际酒店宴会厅","lon":"121.55968","lat":"31.23966","category":"217","category_name":"旅馆招待所","address":"上海浦东新区崮山路688号亚龙国际酒店18楼(羽山路口)  "},{"poiid":"B2094654DA69A1FA439B","title":"康氏龙虾城 德平路店","lon":"121.5691633223","lat":"31.241419821509","category":"247","category_name":"餐饮美食","address":"上海浦东新区德平路1120号(近灵山路)  "},{"poiid":"B2094757D068A3F54493","title":"永达汽车浦东贸易","lon":"121.562179565","lat":"31.2447547913","category":"158","category_name":"汽车销售","address":"浦东新区张杨路2761号(罗山路张杨路)"},{"poiid":"B2094757D068AAFB4699","title":"罗山路立交桥","lon":"121.56602928","lat":"31.236537863","category":"260","category_name":"其他","address":"上海罗山路杨高中路"},{"poiid":"B2094757D06BAAFD4692","title":"浦东新区房地产交易中心","lon":"121.56492237","lat":"31.246139233","category":"500","category_name":"未知分类","address":"上海张扬路2899号(邮政大厦)一楼近德平路口"},{"poiid":"B2094757D068A5FE479A","title":"罗山新村","lon":"121.564161","lat":"31.245353","category":"47","category_name":"住宅区","address":"上海浦东新区德平路(近博山路)"},{"poiid":"B2094654DA69A1FD4093","title":"斐生酒家 崮山店","lon":"121.56047959367","lat":"31.239556801838","category":"76","category_name":"上海菜","address":"浦东新区崮山路717号华联吉买盛5楼(近羽山路)"},{"poiid":"B2094654DA69A1FD429C","title":"上海市第六师范附属小学(羽山路)","lon":"121.5631","lat":"31.24022","category":"56","category_name":"小学","address":"羽山路1476号"},{"poiid":"B2094654DB6BAAFD419D","title":"当代清水园","lon":"121.56539381496","lat":"31.236603120845","category":"47","category_name":"住宅区","address":"芳甸路77弄1-33号"},{"poiid":"B2094757D068A7FE429B","title":"肯德基 KFC (灵山店)","lon":"121.569603","lat":"31.241162","category":"68","category_name":"快餐厅","address":"浦东新区灵山路1785号(德平路灵山路)"},{"poiid":"B2094757D068A1FF4998","title":"新招鲜本地鸡窝 德平店","lon":"121.566250054","lat":"31.243976793","category":"86","category_name":"火锅店","address":"浦东新区羽山路1969号(加油站对面)"},{"poiid":"B2094655D36DA7FD4993","title":"张杨路罗山路","lon":"121.56016","lat":"31.24327","category":"38","category_name":"公交车站","address":""},{"poiid":"B2094655D265A7FE409C","title":"东豫郎热气涮羊肉烧烤德平店","lon":"121.56671","lat":"31.2445","category":"87","category_name":"特色／地方风味餐厅","address":"浦东新区羽山路1969号107(近德平路)"},{"poiid":"B2094654DA69A1F94992","title":"香山新村西北街坊","lon":"121.5671","lat":"31.242519","category":"47","category_name":"住宅区","address":"德平路1671弄1066弄"},{"poiid":"B2094757D06FA1FB479D","title":"羽山台球俱乐部","lon":"121.56801","lat":"31.24438","category":"171","category_name":"台球厅","address":"浦东新区羽山路1969号2楼(近德平路)"},{"poiid":"B2094757D468ABF44993","title":"金湘阁 崮山路店","lon":"121.5604","lat":"31.2389","category":"77","category_name":"湖南菜","address":"浦东新区崮山路717号(近羽山路)"},{"poiid":"B2094757D06AA7FB479E","title":"JEANS日系SALON","lon":"121.567934","lat":"31.242228","category":"148","category_name":"美容美发店","address":"上海浦东新区灵山路1738号2楼(近德平路)"},{"poiid":"B2094654DA69A1FA419B","title":"老面馆浦东德兴馆","lon":"121.56806","lat":"31.24179","category":"68","category_name":"快餐厅","address":"浦东新区德平路1094号(近灵山路)"},{"poiid":"B2094757D065A3FB439F","title":"第三十九机动车检测中心","lon":"121.56143188","lat":"31.235708236","category":"500","category_name":"未知分类","address":"上海固山路930号近杨浦大桥"},{"poiid":"B2094655D26EA7FE469A","title":"天虹苑","lon":"121.56728","lat":"31.242554","category":"47","category_name":"住宅区","address":"德平路1060弄"},{"poiid":"B2094655D26AA7FB429F","title":"六师附小羽毛球馆","lon":"121.56292","lat":"31.23993","category":"247","category_name":"餐饮美食","address":"浦东新区羽山路1476号(近罗山路)"},{"poiid":"B2094654DA69A1FD4493","title":"崮山小区二街坊","lon":"121.56343","lat":"31.23917","category":"47","category_name":"住宅区","address":"灵山路1415弄1-94号"},{"poiid":"B2094757D568A6FB469E","title":"万和轩","lon":"121.55956896","lat":"31.23956272","category":"72","category_name":"广东菜","address":"浦东新区崮山路688号亚隆国际酒店(近张杨路)"},{"poiid":"B2094654DB6BAAFD449F","title":"上海市香山中学(灵山路)","lon":"121.56674","lat":"31.23887","category":"55","category_name":"中学","address":"浦东新区灵山路1672弄36号(灵山路罗山路)"},{"poiid":"B2094654DA69A1F8409B","title":"上海市浦东新区特殊教育学校","lon":"121.56462","lat":"31.24194","category":"253","category_name":"校园生活","address":"羽山路1890"},{"poiid":"B2094757D065A3FA499B","title":"御洋大酒店","lon":"121.559593","lat":"31.239498","category":"76","category_name":"上海菜","address":"浦东新区崮山路751号(近羽山路)"},{"poiid":"B2094757D065A1FE4599","title":"东北菜馆","lon":"121.55916","lat":"31.24043","category":"82","category_name":"东北菜","address":"浦东新区崮山路638号(近张杨路)"},{"poiid":"B2094654DA69A1FD4293","title":"崮山小区三街坊","lon":"121.56226","lat":"31.239594","category":"47","category_name":"住宅区","address":"羽山路1446弄"},{"poiid":"B2094757D06BA2FF479E","title":"志权拉面","lon":"121.57002","lat":"31.24066","category":"68","category_name":"快餐厅","address":"浦东新区灵山路1742号(近德平路)"},{"poiid":"B2094654DA69A1FD4299","title":"崮山小区四街坊(边门)","lon":"121.56258","lat":"31.23991","category":"47","category_name":"住宅区","address":""},{"poiid":"B2094757D16CA4FA409D","title":"特殊教育学校羽毛球馆","lon":"121.56482","lat":"31.24131","category":"220","category_name":"运动场所","address":"浦东新区羽山路1890号(近德平路)"},{"poiid":"B2094654DA69A1FC419F","title":"金羽名庭","lon":"121.564","lat":"31.2428","category":"47","category_name":"住宅区","address":"羽山路998弄1-30号"},{"poiid":"B2094655D265A7FA459F","title":"食知味","lon":"121.56696","lat":"31.24464","category":"257","category_name":"中餐厅","address":"浦东新区羽山路1923号(近德平路)"},{"poiid":"B2094757D569A7FD4799","title":"音乐百度量贩式KTV","lon":"121.5606231","lat":"31.23918889","category":"170","category_name":"KTV","address":"浦东新区崮山路717号华联吉买盛楼4楼(近羽山路)"},{"poiid":"B2094654DA69A1FD459E","title":"崮山小区(北门)","lon":"121.56315","lat":"31.23757","category":"47","category_name":"住宅区","address":"灵山路1396弄1-34号"},{"poiid":"B2094654DB6BAAFD449E","title":"香山新村西北街坊(三号门)","lon":"121.56691","lat":"31.23984","category":"47","category_name":"住宅区","address":"灵山路1671弄1-79号"},{"poiid":"B2094654DA69A1FD459A","title":"崮山小区二街坊(南门)","lon":"121.56334","lat":"31.23802","category":"47","category_name":"住宅区","address":"灵山路1415弄1-94号"},{"poiid":"B2094757D465A7FB449F","title":"重庆鸡公煲 德平店","lon":"121.56848","lat":"31.2417","category":"71","category_name":"四川菜","address":"浦东新区德平路1111号(近羽山路)"},{"poiid":"B2094654DA69A1FD4198","title":"崮山小区四街坊","lon":"121.56057","lat":"31.240339","category":"47","category_name":"住宅区","address":"羽山路1445弄"},{"poiid":"B2094757D168A3FC4792","title":"百灵鸟幼儿园陆洋部","lon":"121.56511377","lat":"31.238419952","category":"253","category_name":"校园生活","address":"浦东新区灵山路1415弄93号(近德平路)"},{"poiid":"B2094757D16EA7FD469F","title":"中星怡景花园","lon":"121.559757","lat":"31.240184","category":"47","category_name":"住宅区","address":"上海市浦东新区青铜路333号"}]