[{"poiid":"B2094757D06FA1F84999","title":"踵香","lon":"121.43419","lat":"31.25137","category":"76","category_name":"上海菜","address":"普陀区中山北路1737号浦发大厦A301(光新路乐购对面)"},{"poiid":"B2094757D465A1FE4293","title":"虾满堂手抓龙虾 华池路店","lon":"121.43021211313","lat":"31.256290977027","category":"68","category_name":"快餐厅","address":"普陀区华池路6号(近光新路)"},{"poiid":"B2094654D464ABFA489D","title":"浦发广场","lon":"121.4343","lat":"31.25231","category":"46","category_name":"楼宇","address":"上海市普陀区光新路中山北路1619号"},{"poiid":"B2094655D265A3F44599","title":"悦蓉香锅牛蛙 中山北路店","lon":"121.43339","lat":"31.249916","category":"71","category_name":"四川菜","address":"普陀区中山北路1777号(近光新路乐购)"},{"poiid":"B2094757D068A0FE499A","title":"中一国际商务大厦","lon":"121.4330092","lat":"31.251112599","category":"46","category_name":"楼宇","address":"嘉定区真南路4500号(紧邻11号线南翔站)"},{"poiid":"B2094654DB6AABFA4592","title":"秋月枫舍","lon":"121.43522790295","lat":"31.254804192598","category":"47","category_name":"住宅区","address":"镇坪路176弄3-34号"},{"poiid":"B2094757D06EAAFF429E","title":"肯德基 KFC (甘泉店)","lon":"121.43123626","lat":"31.259388373","category":"68","category_name":"快餐厅","address":"普陀区志丹路135号(甘泉路志丹路)"},{"poiid":"B2094757D16DAAFF499F","title":"洛克篮球公园","lon":"121.42898395","lat":"31.256074794","category":"196","category_name":"公园","address":"上海市普陀区华池路58号"},{"poiid":"B2094757D06FA4FF429C","title":"一茶一坐(光新乐购店)","lon":"121.432105","lat":"31.250933","category":"260","category_name":"其他","address":"普陀区中山北路1855号乐购光新店1楼(近光新路)"},{"poiid":"B2094757D068A0FC469F","title":"名宴汇","lon":"121.434297","lat":"31.252311","category":"75","category_name":"浙江菜","address":"普陀区中山北路1737号浦发广场2楼(近光新路)"},{"poiid":"B2094757D16BAAFF449B","title":"地铁7号线","lon":"121.43630155","lat":"31.25586419","category":"36","category_name":"地铁站","address":"上海7号线 花木路—美兰湖"},{"poiid":"B2094757D06AA0FF459B","title":"美格菲香溢花城会所","lon":"121.433577153","lat":"31.2569792199","category":"500","category_name":"未知分类","address":"普陀区石泉东路228号(近光新路)"},{"poiid":"B2094757D168A7F8409D","title":"浦东机场T2航站楼北步行道","lon":"121.43789915","lat":"31.257590923","category":"21","category_name":"飞机场","address":"上海浦东机场2号航站楼"},{"poiid":"B2094757D068A4F44099","title":"中期大厦","lon":"121.438","lat":"31.2552","category":"46","category_name":"楼宇","address":"中山北路2000号"},{"poiid":"B2094757D06BA0FA4399","title":"光新路中山北路","lon":"121.43265895","lat":"31.251043698","category":"500","category_name":"未知分类","address":"上海市普陀区"},{"poiid":"B2094757D068A0F8489F","title":"京世美容美发连锁机构(光新店)","lon":"121.43208","lat":"31.25258","category":"148","category_name":"美容美发店","address":"上海普陀区光新路211号(近中山北路乐购)  "},{"poiid":"B2094757D068ABFD4698","title":"东方既白(光新店)","lon":"121.432845342","lat":"31.2509434898","category":"68","category_name":"快餐厅","address":"普陀区中山北路1855号乐购光新店1楼(近光新路)"},{"poiid":"B2094757D069A4FD4593","title":"阿郎龙虾(华池路店)","lon":"121.43001","lat":"31.25613","category":"68","category_name":"快餐厅","address":"普陀区华池路18号(近光新路)"},{"poiid":"B2094655D26AA2FA4392","title":"阿婆烧烤摊","lon":"121.43008","lat":"31.25279","category":"68","category_name":"快餐厅","address":"普陀区石泉路(近光新路)"},{"poiid":"B2094757D069A2F4439A","title":"依云浴场","lon":"121.43332","lat":"31.25968","category":"149","category_name":"洗浴推拿场所","address":"上海普陀区延长西路543号(近子长路)"},{"poiid":"B2094654DB69A6F94899","title":"浦发财富广场","lon":"121.43807","lat":"31.25418","category":"46","category_name":"楼宇","address":"上海市平凉路1398号"},{"poiid":"B2094757D064A6FE499C","title":"美格菲健身会所","lon":"121.43238895","lat":"31.2532177395","category":"500","category_name":"未知分类","address":"上海市普陀区石泉东路"},{"poiid":"B2094655D26FA6F5419A","title":"石泉金融大厦","lon":"121.43231","lat":"31.25223","category":"46","category_name":"楼宇","address":"上海市普陀区光新路168号"},{"poiid":"B2094654D464ABFA469D","title":"宝钢公寓","lon":"121.43562","lat":"31.254045","category":"47","category_name":"住宅区","address":"上海普陀区中山北路1655弄29支弄14号"},{"poiid":"B2094654D465A2F5489E","title":"光新大楼","lon":"121.43114","lat":"31.251375","category":"47","category_name":"住宅区","address":"光新路177弄"},{"poiid":"B2094655D265A3F44598","title":"香溢花城二期","lon":"121.43495","lat":"31.2559","category":"47","category_name":"住宅区","address":"石泉东路240号"},{"poiid":"B2094654DA6CA7FB4193","title":"万千大厦","lon":"121.437","lat":"31.2536","category":"46","category_name":"楼宇","address":"上海市平凉路1398号"},{"poiid":"B2094757D164A3FC4393","title":"呷哺呷哺","lon":"121.432822801","lat":"31.2549322789","category":"247","category_name":"餐饮美食","address":"上海普陀区华池路58号呷哺呷哺"},{"poiid":"B2094654D464ABF94493","title":"汪家井","lon":"121.43488","lat":"31.258587","category":"47","category_name":"住宅区","address":"交通路2285弄"},{"poiid":"B2094757D06FA1FB419B","title":"太浜巷","lon":"121.433","lat":"31.2534","category":"500","category_name":"未知分类","address":"上海岚皋路166弄"},{"poiid":"B2094757D76DA0F4439F","title":"鑫亮酒家私房菜 华池路店","lon":"121.430124054","lat":"31.256290793","category":"76","category_name":"上海菜","address":"普陀区华池路6号(近光新路)"},{"poiid":"B2094757D16DABFD4798","title":"家里蹲","lon":"121.43771895","lat":"31.258147833","category":"500","category_name":"未知分类","address":null},{"poiid":"B2094654DA6CA7FA459E","title":"振源大厦","lon":"121.438","lat":"31.2542","category":"46","category_name":"楼宇","address":"上海市四川北路1851号"},{"poiid":"B2094655D264A1FE4298","title":"香溢花城二期(南门)","lon":"121.4346","lat":"31.25562","category":"47","category_name":"住宅区","address":"石泉东路240号"},{"poiid":"B2094757D16DA6F8449B","title":"普陀区人力资源与社会保障局","lon":"121.43230595","lat":"31.2578188273","category":"500","category_name":"未知分类","address":"上海志丹路8号"},{"poiid":"B2094757D06FA7F4459E","title":"永乐生活电器(光新店)","lon":"121.432532","lat":"31.25158","category":"138","category_name":"家电电子卖场","address":"普陀区光新路132号(近中山北路)"},{"poiid":"B2094654D464ABF9439C","title":"嘉怡苑","lon":"121.43361","lat":"31.25823","category":"47","category_name":"住宅区","address":"嘉怡苑位于普陀交通路2245弄"},{"poiid":"B2094757D06AA0FB4192","title":"袁记怪味鸭唇","lon":"121.430340054","lat":"31.256309793","category":"71","category_name":"四川菜","address":"普陀区华池路14号(近光新路桥)"},{"poiid":"B2094654D464ABFA4798","title":"良友金伴(农林路)","lon":"121.43511","lat":"31.25482","category":"117","category_name":"便民商店/便利店","address":"宜川路"},{"poiid":"B2094757D76FA5F44199","title":"豫香斋火锅店","lon":"121.429637","lat":"31.256441","category":"86","category_name":"火锅店","address":"普陀区华池路10号(近光新路)"},{"poiid":"B2094654D464ABF84993","title":"工汇花苑","lon":"121.4356","lat":"31.257875","category":"47","category_name":"住宅区","address":"交通路2107弄"},{"poiid":"B2094654D464ABFA4999","title":"光新苑","lon":"121.43239","lat":"31.253443","category":"47","category_name":"住宅区","address":"光新路200弄,240弄,250弄"},{"poiid":"B2094757D06FA4FD4592","title":"上海市药剂学校","lon":"121.431654","lat":"31.259446","category":"500","category_name":"未知分类","address":"普陀区延长西路583号(近志丹路)"},{"poiid":"B2094757D469A7F4479C","title":"九香牛蛙店 光新路店","lon":"121.4318753","lat":"31.2523802","category":"71","category_name":"四川菜","address":"普陀区光新路198号(近中山北路)"},{"poiid":"B2094654D464A0FE419C","title":"信仪新村","lon":"121.429","lat":"31.2551","category":"47","category_name":"住宅区","address":"上海石泉路227弄"},{"poiid":"B2094654D464ABFB4098","title":"上海市光新学校","lon":"121.43358","lat":"31.25373","category":"55","category_name":"中学","address":"光新路240弄6"},{"poiid":"B2094757D464A7FC449E","title":"草津堂 华池路店","lon":"121.430552","lat":"31.256185","category":"76","category_name":"上海菜","address":"普陀区光新路405号(近华池路)"},{"poiid":"B2094757D16EABFC4298","title":"美格菲","lon":"121.43322995","lat":"31.256273797","category":"249","category_name":"购物服务","address":"上海市普陀区石泉东路"},{"poiid":"B2094752DB6AABFC4493","title":"光大会展中心","lon":"121.433374","lat":"31.256741","category":"500","category_name":"未知分类","address":"上海市 徐汇区漕宝路88号"},{"poiid":"B2094757D569A2FD459C","title":"农林路烧烤摊","lon":"121.4314681","lat":"31.25334556","category":"87","category_name":"特色／地方风味餐厅","address":"普陀区光新路250弄旁(农林路口)"},{"poiid":"B2094757D06FA1F84999","title":"踵香","lon":"121.43419","lat":"31.25137","category":"76","category_name":"上海菜","address":"普陀区中山北路1737号浦发大厦A301(光新路乐购对面)"},{"poiid":"B2094757D465A1FE4293","title":"虾满堂手抓龙虾 华池路店","lon":"121.43021211313","lat":"31.256290977027","category":"68","category_name":"快餐厅","address":"普陀区华池路6号(近光新路)"},{"poiid":"B2094654D464ABFA489D","title":"浦发广场","lon":"121.4343","lat":"31.25231","category":"46","category_name":"楼宇","address":"上海市普陀区光新路中山北路1619号"},{"poiid":"B2094655D265A3F44599","title":"悦蓉香锅牛蛙 中山北路店","lon":"121.43339","lat":"31.249916","category":"71","category_name":"四川菜","address":"普陀区中山北路1777号(近光新路乐购)"},{"poiid":"B2094757D068A0FE499A","title":"中一国际商务大厦","lon":"121.4330092","lat":"31.251112599","category":"46","category_name":"楼宇","address":"嘉定区真南路4500号(紧邻11号线南翔站)"},{"poiid":"B2094654DB6AABFA4592","title":"秋月枫舍","lon":"121.43522790295","lat":"31.254804192598","category":"47","category_name":"住宅区","address":"镇坪路176弄3-34号"},{"poiid":"B2094757D06EAAFF429E","title":"肯德基 KFC (甘泉店)","lon":"121.43123626","lat":"31.259388373","category":"68","category_name":"快餐厅","address":"普陀区志丹路135号(甘泉路志丹路)"},{"poiid":"B2094757D16DAAFF499F","title":"洛克篮球公园","lon":"121.42898395","lat":"31.256074794","category":"196","category_name":"公园","address":"上海市普陀区华池路58号"},{"poiid":"B2094757D06FA4FF429C","title":"一茶一坐(光新乐购店)","lon":"121.432105","lat":"31.250933","category":"260","category_name":"其他","address":"普陀区中山北路1855号乐购光新店1楼(近光新路)"},{"poiid":"B2094757D068A0FC469F","title":"名宴汇","lon":"121.434297","lat":"31.252311","category":"75","category_name":"浙江菜","address":"普陀区中山北路1737号浦发广场2楼(近光新路)"},{"poiid":"B2094757D16BAAFF449B","title":"地铁7号线","lon":"121.43630155","lat":"31.25586419","category":"36","category_name":"地铁站","address":"上海7号线 花木路—美兰湖"},{"poiid":"B2094757D06AA0FF459B","title":"美格菲香溢花城会所","lon":"121.433577153","lat":"31.2569792199","category":"500","category_name":"未知分类","address":"普陀区石泉东路228号(近光新路)"},{"poiid":"B2094757D168A7F8409D","title":"浦东机场T2航站楼北步行道","lon":"121.43789915","lat":"31.257590923","category":"21","category_name":"飞机场","address":"上海浦东机场2号航站楼"},{"poiid":"B2094757D068A4F44099","title":"中期大厦","lon":"121.438","lat":"31.2552","category":"46","category_name":"楼宇","address":"中山北路2000号"},{"poiid":"B2094757D06BA0FA4399","title":"光新路中山北路","lon":"121.43265895","lat":"31.251043698","category":"500","category_name":"未知分类","address":"上海市普陀区"},{"poiid":"B2094757D068A0F8489F","title":"京世美容美发连锁机构(光新店)","lon":"121.43208","lat":"31.25258","category":"148","category_name":"美容美发店","address":"上海普陀区光新路211号(近中山北路乐购)  "},{"poiid":"B2094757D068ABFD4698","title":"东方既白(光新店)","lon":"121.432845342","lat":"31.2509434898","category":"68","category_name":"快餐厅","address":"普陀区中山北路1855号乐购光新店1楼(近光新路)"},{"poiid":"B2094757D069A4FD4593","title":"阿郎龙虾(华池路店)","lon":"121.43001","lat":"31.25613","category":"68","category_name":"快餐厅","address":"普陀区华池路18号(近光新路)"},{"poiid":"B2094655D26AA2FA4392","title":"阿婆烧烤摊","lon":"121.43008","lat":"31.25279","category":"68","category_name":"快餐厅","address":"普陀区石泉路(近光新路)"},{"poiid":"B2094757D069A2F4439A","title":"依云浴场","lon":"121.43332","lat":"31.25968","category":"149","category_name":"洗浴推拿场所","address":"上海普陀区延长西路543号(近子长路)"},{"poiid":"B2094654DB69A6F94899","title":"浦发财富广场","lon":"121.43807","lat":"31.25418","category":"46","category_name":"楼宇","address":"上海市平凉路1398号"},{"poiid":"B2094757D064A6FE499C","title":"美格菲健身会所","lon":"121.43238895","lat":"31.2532177395","category":"500","category_name":"未知分类","address":"上海市普陀区石泉东路"},{"poiid":"B2094655D26FA6F5419A","title":"石泉金融大厦","lon":"121.43231","lat":"31.25223","category":"46","category_name":"楼宇","address":"上海市普陀区光新路168号"},{"poiid":"B2094654D464ABFA469D","title":"宝钢公寓","lon":"121.43562","lat":"31.254045","category":"47","category_name":"住宅区","address":"上海普陀区中山北路1655弄29支弄14号"},{"poiid":"B2094654D465A2F5489E","title":"光新大楼","lon":"121.43114","lat":"31.251375","category":"47","category_name":"住宅区","address":"光新路177弄"},{"poiid":"B2094655D265A3F44598","title":"香溢花城二期","lon":"121.43495","lat":"31.2559","category":"47","category_name":"住宅区","address":"石泉东路240号"},{"poiid":"B2094654DA6CA7FB4193","title":"万千大厦","lon":"121.437","lat":"31.2536","category":"46","category_name":"楼宇","address":"上海市平凉路1398号"},{"poiid":"B2094757D164A3FC4393","title":"呷哺呷哺","lon":"121.432822801","lat":"31.2549322789","category":"247","category_name":"餐饮美食","address":"上海普陀区华池路58号呷哺呷哺"},{"poiid":"B2094654D464ABF94493","title":"汪家井","lon":"121.43488","lat":"31.258587","category":"47","category_name":"住宅区","address":"交通路2285弄"},{"poiid":"B2094757D06FA1FB419B","title":"太浜巷","lon":"121.433","lat":"31.2534","category":"500","category_name":"未知分类","address":"上海岚皋路166弄"},{"poiid":"B2094757D76DA0F4439F","title":"鑫亮酒家私房菜 华池路店","lon":"121.430124054","lat":"31.256290793","category":"76","category_name":"上海菜","address":"普陀区华池路6号(近光新路)"},{"poiid":"B2094757D16DABFD4798","title":"家里蹲","lon":"121.43771895","lat":"31.258147833","category":"500","category_name":"未知分类","address":null},{"poiid":"B2094654DA6CA7FA459E","title":"振源大厦","lon":"121.438","lat":"31.2542","category":"46","category_name":"楼宇","address":"上海市四川北路1851号"},{"poiid":"B2094655D264A1FE4298","title":"香溢花城二期(南门)","lon":"121.4346","lat":"31.25562","category":"47","category_name":"住宅区","address":"石泉东路240号"},{"poiid":"B2094757D16DA6F8449B","title":"普陀区人力资源与社会保障局","lon":"121.43230595","lat":"31.2578188273","category":"500","category_name":"未知分类","address":"上海志丹路8号"},{"poiid":"B2094757D06FA7F4459E","title":"永乐生活电器(光新店)","lon":"121.432532","lat":"31.25158","category":"138","category_name":"家电电子卖场","address":"普陀区光新路132号(近中山北路)"},{"poiid":"B2094654D464ABF9439C","title":"嘉怡苑","lon":"121.43361","lat":"31.25823","category":"47","category_name":"住宅区","address":"嘉怡苑位于普陀交通路2245弄"},{"poiid":"B2094757D06AA0FB4192","title":"袁记怪味鸭唇","lon":"121.430340054","lat":"31.256309793","category":"71","category_name":"四川菜","address":"普陀区华池路14号(近光新路桥)"},{"poiid":"B2094654D464ABFA4798","title":"良友金伴(农林路)","lon":"121.43511","lat":"31.25482","category":"117","category_name":"便民商店/便利店","address":"宜川路"},{"poiid":"B2094757D76FA5F44199","title":"豫香斋火锅店","lon":"121.429637","lat":"31.256441","category":"86","category_name":"火锅店","address":"普陀区华池路10号(近光新路)"},{"poiid":"B2094654D464ABF84993","title":"工汇花苑","lon":"121.4356","lat":"31.257875","category":"47","category_name":"住宅区","address":"交通路2107弄"},{"poiid":"B2094654D464ABFA4999","title":"光新苑","lon":"121.43239","lat":"31.253443","category":"47","category_name":"住宅区","address":"光新路200弄,240弄,250弄"},{"poiid":"B2094757D06FA4FD4592","title":"上海市药剂学校","lon":"121.431654","lat":"31.259446","category":"500","category_name":"未知分类","address":"普陀区延长西路583号(近志丹路)"},{"poiid":"B2094757D469A7F4479C","title":"九香牛蛙店 光新路店","lon":"121.4318753","lat":"31.2523802","category":"71","category_name":"四川菜","address":"普陀区光新路198号(近中山北路)"},{"poiid":"B2094654D464A0FE419C","title":"信仪新村","lon":"121.429","lat":"31.2551","category":"47","category_name":"住宅区","address":"上海石泉路227弄"},{"poiid":"B2094654D464ABFB4098","title":"上海市光新学校","lon":"121.43358","lat":"31.25373","category":"55","category_name":"中学","address":"光新路240弄6"},{"poiid":"B2094757D464A7FC449E","title":"草津堂 华池路店","lon":"121.430552","lat":"31.256185","category":"76","category_name":"上海菜","address":"普陀区光新路405号(近华池路)"},{"poiid":"B2094757D16EABFC4298","title":"美格菲","lon":"121.43322995","lat":"31.256273797","category":"249","category_name":"购物服务","address":"上海市普陀区石泉东路"},{"poiid":"B2094752DB6AABFC4493","title":"光大会展中心","lon":"121.433374","lat":"31.256741","category":"500","category_name":"未知分类","address":"上海市 徐汇区漕宝路88号"},{"poiid":"B2094757D569A2FD459C","title":"农林路烧烤摊","lon":"121.4314681","lat":"31.25334556","category":"87","category_name":"特色／地方风味餐厅","address":"普陀区光新路250弄旁(农林路口)"},{"poiid":"B2094757D06FA1F84999","title":"踵香","lon":"121.43419","lat":"31.25137","category":"76","category_name":"上海菜","address":"普陀区中山北路1737号浦发大厦A301(光新路乐购对面)"},{"poiid":"B2094757D465A1FE4293","title":"虾满堂手抓龙虾 华池路店","lon":"121.43021211313","lat":"31.256290977027","category":"68","category_name":"快餐厅","address":"普陀区华池路6号(近光新路)"},{"poiid":"B2094654D464ABFA489D","title":"浦发广场","lon":"121.4343","lat":"31.25231","category":"46","category_name":"楼宇","address":"上海市普陀区光新路中山北路1619号"},{"poiid":"B2094655D265A3F44599","title":"悦蓉香锅牛蛙 中山北路店","lon":"121.43339","lat":"31.249916","category":"71","category_name":"四川菜","address":"普陀区中山北路1777号(近光新路乐购)"},{"poiid":"B2094757D068A0FE499A","title":"中一国际商务大厦","lon":"121.4330092","lat":"31.251112599","category":"46","category_name":"楼宇","address":"嘉定区真南路4500号(紧邻11号线南翔站)"},{"poiid":"B2094654DB6AABFA4592","title":"秋月枫舍","lon":"121.43522790295","lat":"31.254804192598","category":"47","category_name":"住宅区","address":"镇坪路176弄3-34号"},{"poiid":"B2094757D06EAAFF429E","title":"肯德基 KFC (甘泉店)","lon":"121.43123626","lat":"31.259388373","category":"68","category_name":"快餐厅","address":"普陀区志丹路135号(甘泉路志丹路)"},{"poiid":"B2094757D16DAAFF499F","title":"洛克篮球公园","lon":"121.42898395","lat":"31.256074794","category":"196","category_name":"公园","address":"上海市普陀区华池路58号"},{"poiid":"B2094757D06FA4FF429C","title":"一茶一坐(光新乐购店)","lon":"121.432105","lat":"31.250933","category":"260","category_name":"其他","address":"普陀区中山北路1855号乐购光新店1楼(近光新路)"},{"poiid":"B2094757D068A0FC469F","title":"名宴汇","lon":"121.434297","lat":"31.252311","category":"75","category_name":"浙江菜","address":"普陀区中山北路1737号浦发广场2楼(近光新路)"},{"poiid":"B2094757D16BAAFF449B","title":"地铁7号线","lon":"121.43630155","lat":"31.25586419","category":"36","category_name":"地铁站","address":"上海7号线 花木路—美兰湖"},{"poiid":"B2094757D06AA0FF459B","title":"美格菲香溢花城会所","lon":"121.433577153","lat":"31.2569792199","category":"500","category_name":"未知分类","address":"普陀区石泉东路228号(近光新路)"},{"poiid":"B2094757D168A7F8409D","title":"浦东机场T2航站楼北步行道","lon":"121.43789915","lat":"31.257590923","category":"21","category_name":"飞机场","address":"上海浦东机场2号航站楼"},{"poiid":"B2094757D068A4F44099","title":"中期大厦","lon":"121.438","lat":"31.2552","category":"46","category_name":"楼宇","address":"中山北路2000号"},{"poiid":"B2094757D06BA0FA4399","title":"光新路中山北路","lon":"121.43265895","lat":"31.251043698","category":"500","category_name":"未知分类","address":"上海市普陀区"},{"poiid":"B2094757D068A0F8489F","title":"京世美容美发连锁机构(光新店)","lon":"121.43208","lat":"31.25258","category":"148","category_name":"美容美发店","address":"上海普陀区光新路211号(近中山北路乐购)  "},{"poiid":"B2094757D068ABFD4698","title":"东方既白(光新店)","lon":"121.432845342","lat":"31.2509434898","category":"68","category_name":"快餐厅","address":"普陀区中山北路1855号乐购光新店1楼(近光新路)"},{"poiid":"B2094757D069A4FD4593","title":"阿郎龙虾(华池路店)","lon":"121.43001","lat":"31.25613","category":"68","category_name":"快餐厅","address":"普陀区华池路18号(近光新路)"},{"poiid":"B2094655D26AA2FA4392","title":"阿婆烧烤摊","lon":"121.43008","lat":"31.25279","category":"68","category_name":"快餐厅","address":"普陀区石泉路(近光新路)"},{"poiid":"B2094757D069A2F4439A","title":"依云浴场","lon":"121.43332","lat":"31.25968","category":"149","category_name":"洗浴推拿场所","address":"上海普陀区延长西路543号(近子长路)"},{"poiid":"B2094654DB69A6F94899","title":"浦发财富广场","lon":"121.43807","lat":"31.25418","category":"46","category_name":"楼宇","address":"上海市平凉路1398号"},{"poiid":"B2094757D064A6FE499C","title":"美格菲健身会所","lon":"121.43238895","lat":"31.2532177395","category":"500","category_name":"未知分类","address":"上海市普陀区石泉东路"},{"poiid":"B2094655D26FA6F5419A","title":"石泉金融大厦","lon":"121.43231","lat":"31.25223","category":"46","category_name":"楼宇","address":"上海市普陀区光新路168号"},{"poiid":"B2094654D464ABFA469D","title":"宝钢公寓","lon":"121.43562","lat":"31.254045","category":"47","category_name":"住宅区","address":"上海普陀区中山北路1655弄29支弄14号"},{"poiid":"B2094654D465A2F5489E","title":"光新大楼","lon":"121.43114","lat":"31.251375","category":"47","category_name":"住宅区","address":"光新路177弄"},{"poiid":"B2094655D265A3F44598","title":"香溢花城二期","lon":"121.43495","lat":"31.2559","category":"47","category_name":"住宅区","address":"石泉东路240号"},{"poiid":"B2094654DA6CA7FB4193","title":"万千大厦","lon":"121.437","lat":"31.2536","category":"46","category_name":"楼宇","address":"上海市平凉路1398号"},{"poiid":"B2094757D164A3FC4393","title":"呷哺呷哺","lon":"121.432822801","lat":"31.2549322789","category":"247","category_name":"餐饮美食","address":"上海普陀区华池路58号呷哺呷哺"},{"poiid":"B2094654D464ABF94493","title":"汪家井","lon":"121.43488","lat":"31.258587","category":"47","category_name":"住宅区","address":"交通路2285弄"},{"poiid":"B2094757D06FA1FB419B","title":"太浜巷","lon":"121.433","lat":"31.2534","category":"500","category_name":"未知分类","address":"上海岚皋路166弄"},{"poiid":"B2094757D76DA0F4439F","title":"鑫亮酒家私房菜 华池路店","lon":"121.430124054","lat":"31.256290793","category":"76","category_name":"上海菜","address":"普陀区华池路6号(近光新路)"},{"poiid":"B2094757D16DABFD4798","title":"家里蹲","lon":"121.43771895","lat":"31.258147833","category":"500","category_name":"未知分类","address":null},{"poiid":"B2094654DA6CA7FA459E","title":"振源大厦","lon":"121.438","lat":"31.2542","category":"46","category_name":"楼宇","address":"上海市四川北路1851号"},{"poiid":"B2094655D264A1FE4298","title":"香溢花城二期(南门)","lon":"121.4346","lat":"31.25562","category":"47","category_name":"住宅区","address":"石泉东路240号"},{"poiid":"B2094757D16DA6F8449B","title":"普陀区人力资源与社会保障局","lon":"121.43230595","lat":"31.2578188273","category":"500","category_name":"未知分类","address":"上海志丹路8号"},{"poiid":"B2094757D06FA7F4459E","title":"永乐生活电器(光新店)","lon":"121.432532","lat":"31.25158","category":"138","category_name":"家电电子卖场","address":"普陀区光新路132号(近中山北路)"},{"poiid":"B2094654D464ABF9439C","title":"嘉怡苑","lon":"121.43361","lat":"31.25823","category":"47","category_name":"住宅区","address":"嘉怡苑位于普陀交通路2245弄"},{"poiid":"B2094757D06AA0FB4192","title":"袁记怪味鸭唇","lon":"121.430340054","lat":"31.256309793","category":"71","category_name":"四川菜","address":"普陀区华池路14号(近光新路桥)"},{"poiid":"B2094654D464ABFA4798","title":"良友金伴(农林路)","lon":"121.43511","lat":"31.25482","category":"117","category_name":"便民商店/便利店","address":"宜川路"},{"poiid":"B2094757D76FA5F44199","title":"豫香斋火锅店","lon":"121.429637","lat":"31.256441","category":"86","category_name":"火锅店","address":"普陀区华池路10号(近光新路)"},{"poiid":"B2094654D464ABF84993","title":"工汇花苑","lon":"121.4356","lat":"31.257875","category":"47","category_name":"住宅区","address":"交通路2107弄"},{"poiid":"B2094654D464ABFA4999","title":"光新苑","lon":"121.43239","lat":"31.253443","category":"47","category_name":"住宅区","address":"光新路200弄,240弄,250弄"},{"poiid":"B2094757D06FA4FD4592","title":"上海市药剂学校","lon":"121.431654","lat":"31.259446","category":"500","category_name":"未知分类","address":"普陀区延长西路583号(近志丹路)"},{"poiid":"B2094757D469A7F4479C","title":"九香牛蛙店 光新路店","lon":"121.4318753","lat":"31.2523802","category":"71","category_name":"四川菜","address":"普陀区光新路198号(近中山北路)"},{"poiid":"B2094654D464A0FE419C","title":"信仪新村","lon":"121.429","lat":"31.2551","category":"47","category_name":"住宅区","address":"上海石泉路227弄"},{"poiid":"B2094654D464ABFB4098","title":"上海市光新学校","lon":"121.43358","lat":"31.25373","category":"55","category_name":"中学","address":"光新路240弄6"},{"poiid":"B2094757D464A7FC449E","title":"草津堂 华池路店","lon":"121.430552","lat":"31.256185","category":"76","category_name":"上海菜","address":"普陀区光新路405号(近华池路)"},{"poiid":"B2094757D16EABFC4298","title":"美格菲","lon":"121.43322995","lat":"31.256273797","category":"249","category_name":"购物服务","address":"上海市普陀区石泉东路"},{"poiid":"B2094752DB6AABFC4493","title":"光大会展中心","lon":"121.433374","lat":"31.256741","category":"500","category_name":"未知分类","address":"上海市 徐汇区漕宝路88号"},{"poiid":"B2094757D569A2FD459C","title":"农林路烧烤摊","lon":"121.4314681","lat":"31.25334556","category":"87","category_name":"特色／地方风味餐厅","address":"普陀区光新路250弄旁(农林路口)"},{"poiid":"B2094757D06FA1F84999","title":"踵香","lon":"121.43419","lat":"31.25137","category":"76","category_name":"上海菜","address":"普陀区中山北路1737号浦发大厦A301(光新路乐购对面)"},{"poiid":"B2094757D465A1FE4293","title":"虾满堂手抓龙虾 华池路店","lon":"121.43021211313","lat":"31.256290977027","category":"68","category_name":"快餐厅","address":"普陀区华池路6号(近光新路)"},{"poiid":"B2094654D464ABFA489D","title":"浦发广场","lon":"121.4343","lat":"31.25231","category":"46","category_name":"楼宇","address":"上海市普陀区光新路中山北路1619号"},{"poiid":"B2094655D265A3F44599","title":"悦蓉香锅牛蛙 中山北路店","lon":"121.43339","lat":"31.249916","category":"71","category_name":"四川菜","address":"普陀区中山北路1777号(近光新路乐购)"},{"poiid":"B2094757D068A0FE499A","title":"中一国际商务大厦","lon":"121.4330092","lat":"31.251112599","category":"46","category_name":"楼宇","address":"嘉定区真南路4500号(紧邻11号线南翔站)"},{"poiid":"B2094654DB6AABFA4592","title":"秋月枫舍","lon":"121.43522790295","lat":"31.254804192598","category":"47","category_name":"住宅区","address":"镇坪路176弄3-34号"},{"poiid":"B2094757D06EAAFF429E","title":"肯德基 KFC (甘泉店)","lon":"121.43123626","lat":"31.259388373","category":"68","category_name":"快餐厅","address":"普陀区志丹路135号(甘泉路志丹路)"},{"poiid":"B2094757D16DAAFF499F","title":"洛克篮球公园","lon":"121.42898395","lat":"31.256074794","category":"196","category_name":"公园","address":"上海市普陀区华池路58号"},{"poiid":"B2094757D06FA4FF429C","title":"一茶一坐(光新乐购店)","lon":"121.432105","lat":"31.250933","category":"260","category_name":"其他","address":"普陀区中山北路1855号乐购光新店1楼(近光新路)"},{"poiid":"B2094757D068A0FC469F","title":"名宴汇","lon":"121.434297","lat":"31.252311","category":"75","category_name":"浙江菜","address":"普陀区中山北路1737号浦发广场2楼(近光新路)"},{"poiid":"B2094757D16BAAFF449B","title":"地铁7号线","lon":"121.43630155","lat":"31.25586419","category":"36","category_name":"地铁站","address":"上海7号线 花木路—美兰湖"},{"poiid":"B2094757D06AA0FF459B","title":"美格菲香溢花城会所","lon":"121.433577153","lat":"31.2569792199","category":"500","category_name":"未知分类","address":"普陀区石泉东路228号(近光新路)"},{"poiid":"B2094757D168A7F8409D","title":"浦东机场T2航站楼北步行道","lon":"121.43789915","lat":"31.257590923","category":"21","category_name":"飞机场","address":"上海浦东机场2号航站楼"},{"poiid":"B2094757D068A4F44099","title":"中期大厦","lon":"121.438","lat":"31.2552","category":"46","category_name":"楼宇","address":"中山北路2000号"},{"poiid":"B2094757D06BA0FA4399","title":"光新路中山北路","lon":"121.43265895","lat":"31.251043698","category":"500","category_name":"未知分类","address":"上海市普陀区"},{"poiid":"B2094757D068A0F8489F","title":"京世美容美发连锁机构(光新店)","lon":"121.43208","lat":"31.25258","category":"148","category_name":"美容美发店","address":"上海普陀区光新路211号(近中山北路乐购)  "},{"poiid":"B2094757D068ABFD4698","title":"东方既白(光新店)","lon":"121.432845342","lat":"31.2509434898","category":"68","category_name":"快餐厅","address":"普陀区中山北路1855号乐购光新店1楼(近光新路)"},{"poiid":"B2094757D069A4FD4593","title":"阿郎龙虾(华池路店)","lon":"121.43001","lat":"31.25613","category":"68","category_name":"快餐厅","address":"普陀区华池路18号(近光新路)"},{"poiid":"B2094655D26AA2FA4392","title":"阿婆烧烤摊","lon":"121.43008","lat":"31.25279","category":"68","category_name":"快餐厅","address":"普陀区石泉路(近光新路)"},{"poiid":"B2094757D069A2F4439A","title":"依云浴场","lon":"121.43332","lat":"31.25968","category":"149","category_name":"洗浴推拿场所","address":"上海普陀区延长西路543号(近子长路)"},{"poiid":"B2094654DB69A6F94899","title":"浦发财富广场","lon":"121.43807","lat":"31.25418","category":"46","category_name":"楼宇","address":"上海市平凉路1398号"},{"poiid":"B2094757D064A6FE499C","title":"美格菲健身会所","lon":"121.43238895","lat":"31.2532177395","category":"500","category_name":"未知分类","address":"上海市普陀区石泉东路"},{"poiid":"B2094655D26FA6F5419A","title":"石泉金融大厦","lon":"121.43231","lat":"31.25223","category":"46","category_name":"楼宇","address":"上海市普陀区光新路168号"},{"poiid":"B2094654D464ABFA469D","title":"宝钢公寓","lon":"121.43562","lat":"31.254045","category":"47","category_name":"住宅区","address":"上海普陀区中山北路1655弄29支弄14号"},{"poiid":"B2094654D465A2F5489E","title":"光新大楼","lon":"121.43114","lat":"31.251375","category":"47","category_name":"住宅区","address":"光新路177弄"},{"poiid":"B2094655D265A3F44598","title":"香溢花城二期","lon":"121.43495","lat":"31.2559","category":"47","category_name":"住宅区","address":"石泉东路240号"},{"poiid":"B2094654DA6CA7FB4193","title":"万千大厦","lon":"121.437","lat":"31.2536","category":"46","category_name":"楼宇","address":"上海市平凉路1398号"},{"poiid":"B2094757D164A3FC4393","title":"呷哺呷哺","lon":"121.432822801","lat":"31.2549322789","category":"247","category_name":"餐饮美食","address":"上海普陀区华池路58号呷哺呷哺"},{"poiid":"B2094654D464ABF94493","title":"汪家井","lon":"121.43488","lat":"31.258587","category":"47","category_name":"住宅区","address":"交通路2285弄"},{"poiid":"B2094757D06FA1FB419B","title":"太浜巷","lon":"121.433","lat":"31.2534","category":"500","category_name":"未知分类","address":"上海岚皋路166弄"},{"poiid":"B2094757D76DA0F4439F","title":"鑫亮酒家私房菜 华池路店","lon":"121.430124054","lat":"31.256290793","category":"76","category_name":"上海菜","address":"普陀区华池路6号(近光新路)"},{"poiid":"B2094757D16DABFD4798","title":"家里蹲","lon":"121.43771895","lat":"31.258147833","category":"500","category_name":"未知分类","address":null},{"poiid":"B2094654DA6CA7FA459E","title":"振源大厦","lon":"121.438","lat":"31.2542","category":"46","category_name":"楼宇","address":"上海市四川北路1851号"},{"poiid":"B2094655D264A1FE4298","title":"香溢花城二期(南门)","lon":"121.4346","lat":"31.25562","category":"47","category_name":"住宅区","address":"石泉东路240号"},{"poiid":"B2094757D16DA6F8449B","title":"普陀区人力资源与社会保障局","lon":"121.43230595","lat":"31.2578188273","category":"500","category_name":"未知分类","address":"上海志丹路8号"},{"poiid":"B2094757D06FA7F4459E","title":"永乐生活电器(光新店)","lon":"121.432532","lat":"31.25158","category":"138","category_name":"家电电子卖场","address":"普陀区光新路132号(近中山北路)"},{"poiid":"B2094654D464ABF9439C","title":"嘉怡苑","lon":"121.43361","lat":"31.25823","category":"47","category_name":"住宅区","address":"嘉怡苑位于普陀交通路2245弄"},{"poiid":"B2094757D06AA0FB4192","title":"袁记怪味鸭唇","lon":"121.430340054","lat":"31.256309793","category":"71","category_name":"四川菜","address":"普陀区华池路14号(近光新路桥)"},{"poiid":"B2094654D464ABFA4798","title":"良友金伴(农林路)","lon":"121.43511","lat":"31.25482","category":"117","category_name":"便民商店/便利店","address":"宜川路"},{"poiid":"B2094757D76FA5F44199","title":"豫香斋火锅店","lon":"121.429637","lat":"31.256441","category":"86","category_name":"火锅店","address":"普陀区华池路10号(近光新路)"},{"poiid":"B2094654D464ABF84993","title":"工汇花苑","lon":"121.4356","lat":"31.257875","category":"47","category_name":"住宅区","address":"交通路2107弄"},{"poiid":"B2094654D464ABFA4999","title":"光新苑","lon":"121.43239","lat":"31.253443","category":"47","category_name":"住宅区","address":"光新路200弄,240弄,250弄"},{"poiid":"B2094757D06FA4FD4592","title":"上海市药剂学校","lon":"121.431654","lat":"31.259446","category":"500","category_name":"未知分类","address":"普陀区延长西路583号(近志丹路)"},{"poiid":"B2094757D469A7F4479C","title":"九香牛蛙店 光新路店","lon":"121.4318753","lat":"31.2523802","category":"71","category_name":"四川菜","address":"普陀区光新路198号(近中山北路)"},{"poiid":"B2094654D464A0FE419C","title":"信仪新村","lon":"121.429","lat":"31.2551","category":"47","category_name":"住宅区","address":"上海石泉路227弄"},{"poiid":"B2094654D464ABFB4098","title":"上海市光新学校","lon":"121.43358","lat":"31.25373","category":"55","category_name":"中学","address":"光新路240弄6"},{"poiid":"B2094757D464A7FC449E","title":"草津堂 华池路店","lon":"121.430552","lat":"31.256185","category":"76","category_name":"上海菜","address":"普陀区光新路405号(近华池路)"},{"poiid":"B2094757D16EABFC4298","title":"美格菲","lon":"121.43322995","lat":"31.256273797","category":"249","category_name":"购物服务","address":"上海市普陀区石泉东路"},{"poiid":"B2094752DB6AABFC4493","title":"光大会展中心","lon":"121.433374","lat":"31.256741","category":"500","category_name":"未知分类","address":"上海市 徐汇区漕宝路88号"},{"poiid":"B2094757D569A2FD459C","title":"农林路烧烤摊","lon":"121.4314681","lat":"31.25334556","category":"87","category_name":"特色／地方风味餐厅","address":"普陀区光新路250弄旁(农林路口)"}]