[{"poiid":"B2094757D06EAAF44198","title":"昌里路夜市(昌里特色一条街)","lon":"121.492757521","lat":"31.173216522","category":"249","category_name":"购物服务","address":"浦东新区昌里路(近美食一条街)"},{"poiid":"B2094757D06FA1F9439B","title":"品粥坊 湛江三仔烤海鲜","lon":"121.49274","lat":"31.17393","category":"88","category_name":"海鲜酒楼","address":"上海浦东新区历城路120-122号(近昌里路)"},{"poiid":"B2094654DB64A7F4449A","title":"必胜客(昌里店)","lon":"121.49311","lat":"31.17409","category":"94","category_name":"西餐厅","address":"浦东新区昌里路267号(昌里路历城路)"},{"poiid":"B2094757D06FA3F4429A","title":"历城路小吃一条街","lon":"121.49325","lat":"31.17385","category":"257","category_name":"中餐厅","address":"上海浦东新区历城路(近昌里路)"},{"poiid":"B2094655D36CA5FA4198","title":"昌里路历城路","lon":"121.49311","lat":"31.17395","category":"38","category_name":"公交车站","address":""},{"poiid":"B2094757D068A1FF499C","title":"7年8班韩式烤肉店","lon":"121.48860773","lat":"31.171605051","category":"247","category_name":"餐饮美食","address":"上海市浦东新区长青路77号"},{"poiid":"B2094751DA6AA4FF4593","title":"上海歌城","lon":"121.491153","lat":"31.174163","category":"170","category_name":"KTV","address":"昌里店"},{"poiid":"B2094655D36CA5FA4199","title":"昌里路长清路","lon":"121.49109","lat":"31.17357","category":"38","category_name":"公交车站","address":""},{"poiid":"B2094757D06FA1FE4698","title":"大马头茶餐厅(昌里店)","lon":"121.49352","lat":"31.17387","category":"72","category_name":"广东菜","address":"浦东新区昌里路277号2号楼(近历城路)"},{"poiid":"B2094757D06FA2F8489E","title":"扬歌视听歌城(昌里店)","lon":"121.49408","lat":"31.17396","category":"170","category_name":"KTV","address":"浦东新区昌里路247号2-3楼(昌里路历城路)"},{"poiid":"B2094654DB6BABFF489F","title":"麦当劳(昌里路店)","lon":"121.49222","lat":"31.17393","category":"68","category_name":"快餐厅","address":"浦东新区昌里路333号浦东商城B1楼(近历城路)"},{"poiid":"B2094757D06FA2FD409A","title":"广东明火粥(历城路店)","lon":"121.49279","lat":"31.17427","category":"68","category_name":"快餐厅","address":"浦东新区历城路122号(近昌里路)"},{"poiid":"B2094751D568A3FB4192","title":"上海歌城昌里店","lon":"121.487887","lat":"31.173912","category":"248","category_name":"生活娱乐","address":"昌里路337号浦东商场4层"},{"poiid":"B2094757D06FA0FE429C","title":"传奇台球(昌里店)","lon":"121.49321","lat":"31.17377","category":"171","category_name":"台球厅","address":"上海浦东新区昌里路267号3楼(历城路口)"},{"poiid":"B2094757D06FA6FA479B","title":"长青公园","lon":"121.488820127","lat":"31.1739269077","category":"196","category_name":"公园","address":"浦东新区长清路11号(昌里路口)"},{"poiid":"B2094757D06FA6F9479E","title":"傣妹(昌里店)","lon":"121.49389","lat":"31.17392","category":"86","category_name":"火锅店","address":"浦东新区昌里路257号2-3楼(近历城路)"},{"poiid":"B2094751DA6EA2FA409B","title":"上海歌城","lon":"121.492645","lat":"31.171219","category":"170","category_name":"KTV","address":"昌里东路"},{"poiid":"B2094757D06FABF5469D","title":"小浦东鸡粥店(长清路店)","lon":"121.48931","lat":"31.17269","category":"68","category_name":"快餐厅","address":"浦东新区昌里路360号(近长清路)"},{"poiid":"B2094757D06FA1FE429C","title":"85度C(昌里店)","lon":"121.49388","lat":"31.17402","category":"67","category_name":"甜品店","address":"浦东新区昌里路257-1号(近历城路)"},{"poiid":"B2094757D06FAAFB4792","title":"豪享来上海长清店","lon":"121.4884","lat":"31.1717","category":"247","category_name":"餐饮美食","address":"上海市浦东新区长清路92号"},{"poiid":"B2094757D065A5FE469F","title":"浦东机场T2航站楼停车场","lon":"121.4873315","lat":"31.174126905","category":"21","category_name":"飞机场","address":"上海浦东新区启航路900号T2航站楼"},{"poiid":"B2094757D664A1F94593","title":"7年8班","lon":"121.48865936","lat":"31.17180078","category":"96","category_name":"韩国料理","address":"浦东新区长清路77号(近昌里路)"},{"poiid":"B2094757D06FABF54599","title":"阿玛尼护肤造型中心(昌里路店)","lon":"121.49339","lat":"31.17363","category":"148","category_name":"美容美发店","address":"浦东新区昌里路267号(近历城路必胜客)"},{"poiid":"B2094654DA68A1F8409A","title":"德兴馆 昌里店","lon":"121.49032875342","lat":"31.173875509465","category":"76","category_name":"上海菜","address":"浦东新区昌里路353号历城中学对面(历城路长清路间)"},{"poiid":"B2094654DA68A1F8439B","title":"浦东商场(边门)","lon":"121.49179","lat":"31.17382","category":"119","category_name":"商场","address":"昌里路321、333"},{"poiid":"B2094757D76CA3F9449D","title":"历城路章鱼小丸子","lon":"121.49254","lat":"31.17403","category":"87","category_name":"特色／地方风味餐厅","address":"浦东新区昌里路223号(近历城路)"},{"poiid":"B2094750D76DA3F8449B","title":"泰煌鸡(昌里店)","lon":"121.491","lat":"31.1738","category":"68","category_name":"快餐厅","address":"浦东新区昌里路333号浦东商场内(近麦当劳)"},{"poiid":"B2094757D169A6FA439F","title":"上钢地段医院","lon":"121.48863373","lat":"31.173232086","category":"162","category_name":"医院","address":"浦东新区昌里路360号(昌里路长清路)"},{"poiid":"B2094757D069A3F5489F","title":"手牵手专业美甲SPA","lon":"121.493936","lat":"31.174259","category":"122","category_name":"个人用品/化妆品店","address":"浦东新区昌里路243号(昌里路历城路)"},{"poiid":"B2094757D06FA4FF4593","title":"肯德基 KFC (长青店)","lon":"121.491574","lat":"31.1738","category":"68","category_name":"快餐厅","address":"浦东新区昌里路333号浦东商场B1楼(近历城路)"},{"poiid":"B2094757DB6CA7F9459D","title":"小周烧烤","lon":"121.48801","lat":"31.17288","category":"68","category_name":"快餐厅","address":"浦东新区长清路(昌里路口)"},{"poiid":"B2094655D265A1FB449D","title":"昌里路油炸摊","lon":"121.49064","lat":"31.17343","category":"68","category_name":"快餐厅","address":"浦东新区昌里路340弄弄内"},{"poiid":"B2094757D464AAFA439C","title":"蜀山渔村","lon":"121.492536","lat":"31.174514","category":"71","category_name":"四川菜","address":"浦东新区历城路116号"},{"poiid":"B2094750DA6FA6F5459E","title":"野人岛烤肉","lon":"121.494018","lat":"31.17418","category":"68","category_name":"快餐厅","address":"浦东新区昌里路220号2楼(近上南路)"},{"poiid":"B2094757D764AAFF499E","title":"哈尔滨食品厂 昌里店","lon":"121.49046","lat":"31.17356","category":"112","category_name":"糕饼店","address":"浦东新区昌里路349号(近浦东商场)"},{"poiid":"B2094757D068A7FF4799","title":"呀咪咖哩屋(上南店)","lon":"121.49304473","lat":"31.173566093","category":"247","category_name":"餐饮美食","address":"上海市浦东新区上南路1210号(近昌里路)"},{"poiid":"B2094655D26FA2F9489E","title":"马哥孛罗 昌里店 Marco Polo","lon":"121.491586054","lat":"31.173863793","category":"112","category_name":"糕饼店","address":"浦东新区昌里路308号(近历城路)"},{"poiid":"B2094757D16AA7FC469D","title":"品湘阁","lon":"121.491019738","lat":"31.1739922026","category":"77","category_name":"湖南菜","address":"浦东新区历城路110号"},{"poiid":"B2094750DA6BA4F9469E","title":"米兰国际护肤造型中心","lon":"121.490814","lat":"31.173557","category":"248","category_name":"生活娱乐","address":"昌里路342号"},{"poiid":"B2094654DA68A1F8409C","title":"上海市历城中学","lon":"121.49056","lat":"31.17325","category":"55","category_name":"中学","address":"浦东新区昌里路350号(浦东商场对面)"},{"poiid":"B2094750D664AAFF409F","title":"大王锅贴(历城路店)","lon":"121.492","lat":"31.1742","category":"68","category_name":"快餐厅","address":"浦东新区历城路124号(近昌里路)"},{"poiid":"B2094757D068AAFB4292","title":"豪大大台湾大鸡排(历城店)","lon":"121.492445","lat":"31.173951","category":"68","category_name":"快餐厅","address":"浦东新区历城路124号"},{"poiid":"B2094757D06BA0F94192","title":"田仓龙虾馆","lon":"121.492523","lat":"31.174541","category":"247","category_name":"餐饮美食","address":"上海历城路118号"},{"poiid":"B2094654DA68A1F84193","title":"永琪美容美发(昌里路)","lon":"121.49081","lat":"31.17338","category":"148","category_name":"美容美发店","address":"上钢新村"},{"poiid":"B2094654DB6BABFF4793","title":"图门烧烤(昌里路)","lon":"121.4895","lat":"31.17342","category":"68","category_name":"快餐厅","address":"浦东新区昌里路359号2楼"},{"poiid":"B2094655D26EABFB439B","title":"浦东清真饭店","lon":"121.49238025444","lat":"31.174459675613","category":"90","category_name":"清真餐馆","address":"浦东新区历城路121号(近昌里路)"},{"poiid":"B2094757D465A1FB489B","title":"老天母卤味专家 昌里路店","lon":"121.491412054","lat":"31.173934793","category":"68","category_name":"快餐厅","address":"浦东新区昌里路294号(历城路口)"},{"poiid":"B2094655D26CA7F9479C","title":"上钢五村","lon":"121.48959","lat":"31.174212","category":"47","category_name":"住宅区","address":"上海长清路昌里路"},{"poiid":"B2094757D16AA6FC409B","title":"阿玛尼","lon":"121.491537","lat":"31.173821","category":"500","category_name":"未知分类","address":"上海昌里路"},{"poiid":"B2094757D66EA5FE409C","title":"重庆炭烤鱼","lon":"121.492414738","lat":"31.1744101115","category":"257","category_name":"中餐厅","address":"上海历城路"},{"poiid":"B2094757D06EAAF44198","title":"昌里路夜市(昌里特色一条街)","lon":"121.492757521","lat":"31.173216522","category":"249","category_name":"购物服务","address":"浦东新区昌里路(近美食一条街)"},{"poiid":"B2094757D06FA1F9439B","title":"品粥坊 湛江三仔烤海鲜","lon":"121.49274","lat":"31.17393","category":"88","category_name":"海鲜酒楼","address":"上海浦东新区历城路120-122号(近昌里路)"},{"poiid":"B2094654DB64A7F4449A","title":"必胜客(昌里店)","lon":"121.49311","lat":"31.17409","category":"94","category_name":"西餐厅","address":"浦东新区昌里路267号(昌里路历城路)"},{"poiid":"B2094757D06FA3F4429A","title":"历城路小吃一条街","lon":"121.49325","lat":"31.17385","category":"257","category_name":"中餐厅","address":"上海浦东新区历城路(近昌里路)"},{"poiid":"B2094655D36CA5FA4198","title":"昌里路历城路","lon":"121.49311","lat":"31.17395","category":"38","category_name":"公交车站","address":""},{"poiid":"B2094757D068A1FF499C","title":"7年8班韩式烤肉店","lon":"121.48860773","lat":"31.171605051","category":"247","category_name":"餐饮美食","address":"上海市浦东新区长青路77号"},{"poiid":"B2094751DA6AA4FF4593","title":"上海歌城","lon":"121.491153","lat":"31.174163","category":"170","category_name":"KTV","address":"昌里店"},{"poiid":"B2094655D36CA5FA4199","title":"昌里路长清路","lon":"121.49109","lat":"31.17357","category":"38","category_name":"公交车站","address":""},{"poiid":"B2094757D06FA1FE4698","title":"大马头茶餐厅(昌里店)","lon":"121.49352","lat":"31.17387","category":"72","category_name":"广东菜","address":"浦东新区昌里路277号2号楼(近历城路)"},{"poiid":"B2094757D06FA2F8489E","title":"扬歌视听歌城(昌里店)","lon":"121.49408","lat":"31.17396","category":"170","category_name":"KTV","address":"浦东新区昌里路247号2-3楼(昌里路历城路)"},{"poiid":"B2094654DB6BABFF489F","title":"麦当劳(昌里路店)","lon":"121.49222","lat":"31.17393","category":"68","category_name":"快餐厅","address":"浦东新区昌里路333号浦东商城B1楼(近历城路)"},{"poiid":"B2094757D06FA2FD409A","title":"广东明火粥(历城路店)","lon":"121.49279","lat":"31.17427","category":"68","category_name":"快餐厅","address":"浦东新区历城路122号(近昌里路)"},{"poiid":"B2094751D568A3FB4192","title":"上海歌城昌里店","lon":"121.487887","lat":"31.173912","category":"248","category_name":"生活娱乐","address":"昌里路337号浦东商场4层"},{"poiid":"B2094757D06FA0FE429C","title":"传奇台球(昌里店)","lon":"121.49321","lat":"31.17377","category":"171","category_name":"台球厅","address":"上海浦东新区昌里路267号3楼(历城路口)"},{"poiid":"B2094757D06FA6FA479B","title":"长青公园","lon":"121.488820127","lat":"31.1739269077","category":"196","category_name":"公园","address":"浦东新区长清路11号(昌里路口)"},{"poiid":"B2094757D06FA6F9479E","title":"傣妹(昌里店)","lon":"121.49389","lat":"31.17392","category":"86","category_name":"火锅店","address":"浦东新区昌里路257号2-3楼(近历城路)"},{"poiid":"B2094751DA6EA2FA409B","title":"上海歌城","lon":"121.492645","lat":"31.171219","category":"170","category_name":"KTV","address":"昌里东路"},{"poiid":"B2094757D06FABF5469D","title":"小浦东鸡粥店(长清路店)","lon":"121.48931","lat":"31.17269","category":"68","category_name":"快餐厅","address":"浦东新区昌里路360号(近长清路)"},{"poiid":"B2094757D06FA1FE429C","title":"85度C(昌里店)","lon":"121.49388","lat":"31.17402","category":"67","category_name":"甜品店","address":"浦东新区昌里路257-1号(近历城路)"},{"poiid":"B2094757D06FAAFB4792","title":"豪享来上海长清店","lon":"121.4884","lat":"31.1717","category":"247","category_name":"餐饮美食","address":"上海市浦东新区长清路92号"},{"poiid":"B2094757D065A5FE469F","title":"浦东机场T2航站楼停车场","lon":"121.4873315","lat":"31.174126905","category":"21","category_name":"飞机场","address":"上海浦东新区启航路900号T2航站楼"},{"poiid":"B2094757D664A1F94593","title":"7年8班","lon":"121.48865936","lat":"31.17180078","category":"96","category_name":"韩国料理","address":"浦东新区长清路77号(近昌里路)"},{"poiid":"B2094757D06FABF54599","title":"阿玛尼护肤造型中心(昌里路店)","lon":"121.49339","lat":"31.17363","category":"148","category_name":"美容美发店","address":"浦东新区昌里路267号(近历城路必胜客)"},{"poiid":"B2094654DA68A1F8409A","title":"德兴馆 昌里店","lon":"121.49032875342","lat":"31.173875509465","category":"76","category_name":"上海菜","address":"浦东新区昌里路353号历城中学对面(历城路长清路间)"},{"poiid":"B2094654DA68A1F8439B","title":"浦东商场(边门)","lon":"121.49179","lat":"31.17382","category":"119","category_name":"商场","address":"昌里路321、333"},{"poiid":"B2094757D76CA3F9449D","title":"历城路章鱼小丸子","lon":"121.49254","lat":"31.17403","category":"87","category_name":"特色／地方风味餐厅","address":"浦东新区昌里路223号(近历城路)"},{"poiid":"B2094750D76DA3F8449B","title":"泰煌鸡(昌里店)","lon":"121.491","lat":"31.1738","category":"68","category_name":"快餐厅","address":"浦东新区昌里路333号浦东商场内(近麦当劳)"},{"poiid":"B2094757D169A6FA439F","title":"上钢地段医院","lon":"121.48863373","lat":"31.173232086","category":"162","category_name":"医院","address":"浦东新区昌里路360号(昌里路长清路)"},{"poiid":"B2094757D069A3F5489F","title":"手牵手专业美甲SPA","lon":"121.493936","lat":"31.174259","category":"122","category_name":"个人用品/化妆品店","address":"浦东新区昌里路243号(昌里路历城路)"},{"poiid":"B2094757D06FA4FF4593","title":"肯德基 KFC (长青店)","lon":"121.491574","lat":"31.1738","category":"68","category_name":"快餐厅","address":"浦东新区昌里路333号浦东商场B1楼(近历城路)"},{"poiid":"B2094757DB6CA7F9459D","title":"小周烧烤","lon":"121.48801","lat":"31.17288","category":"68","category_name":"快餐厅","address":"浦东新区长清路(昌里路口)"},{"poiid":"B2094655D265A1FB449D","title":"昌里路油炸摊","lon":"121.49064","lat":"31.17343","category":"68","category_name":"快餐厅","address":"浦东新区昌里路340弄弄内"},{"poiid":"B2094757D464AAFA439C","title":"蜀山渔村","lon":"121.492536","lat":"31.174514","category":"71","category_name":"四川菜","address":"浦东新区历城路116号"},{"poiid":"B2094750DA6FA6F5459E","title":"野人岛烤肉","lon":"121.494018","lat":"31.17418","category":"68","category_name":"快餐厅","address":"浦东新区昌里路220号2楼(近上南路)"},{"poiid":"B2094757D764AAFF499E","title":"哈尔滨食品厂 昌里店","lon":"121.49046","lat":"31.17356","category":"112","category_name":"糕饼店","address":"浦东新区昌里路349号(近浦东商场)"},{"poiid":"B2094757D068A7FF4799","title":"呀咪咖哩屋(上南店)","lon":"121.49304473","lat":"31.173566093","category":"247","category_name":"餐饮美食","address":"上海市浦东新区上南路1210号(近昌里路)"},{"poiid":"B2094655D26FA2F9489E","title":"马哥孛罗 昌里店 Marco Polo","lon":"121.491586054","lat":"31.173863793","category":"112","category_name":"糕饼店","address":"浦东新区昌里路308号(近历城路)"},{"poiid":"B2094757D16AA7FC469D","title":"品湘阁","lon":"121.491019738","lat":"31.1739922026","category":"77","category_name":"湖南菜","address":"浦东新区历城路110号"},{"poiid":"B2094750DA6BA4F9469E","title":"米兰国际护肤造型中心","lon":"121.490814","lat":"31.173557","category":"248","category_name":"生活娱乐","address":"昌里路342号"},{"poiid":"B2094654DA68A1F8409C","title":"上海市历城中学","lon":"121.49056","lat":"31.17325","category":"55","category_name":"中学","address":"浦东新区昌里路350号(浦东商场对面)"},{"poiid":"B2094750D664AAFF409F","title":"大王锅贴(历城路店)","lon":"121.492","lat":"31.1742","category":"68","category_name":"快餐厅","address":"浦东新区历城路124号(近昌里路)"},{"poiid":"B2094757D068AAFB4292","title":"豪大大台湾大鸡排(历城店)","lon":"121.492445","lat":"31.173951","category":"68","category_name":"快餐厅","address":"浦东新区历城路124号"},{"poiid":"B2094757D06BA0F94192","title":"田仓龙虾馆","lon":"121.492523","lat":"31.174541","category":"247","category_name":"餐饮美食","address":"上海历城路118号"},{"poiid":"B2094654DA68A1F84193","title":"永琪美容美发(昌里路)","lon":"121.49081","lat":"31.17338","category":"148","category_name":"美容美发店","address":"上钢新村"},{"poiid":"B2094654DB6BABFF4793","title":"图门烧烤(昌里路)","lon":"121.4895","lat":"31.17342","category":"68","category_name":"快餐厅","address":"浦东新区昌里路359号2楼"},{"poiid":"B2094655D26EABFB439B","title":"浦东清真饭店","lon":"121.49238025444","lat":"31.174459675613","category":"90","category_name":"清真餐馆","address":"浦东新区历城路121号(近昌里路)"},{"poiid":"B2094757D465A1FB489B","title":"老天母卤味专家 昌里路店","lon":"121.491412054","lat":"31.173934793","category":"68","category_name":"快餐厅","address":"浦东新区昌里路294号(历城路口)"},{"poiid":"B2094655D26CA7F9479C","title":"上钢五村","lon":"121.48959","lat":"31.174212","category":"47","category_name":"住宅区","address":"上海长清路昌里路"},{"poiid":"B2094757D16AA6FC409B","title":"阿玛尼","lon":"121.491537","lat":"31.173821","category":"500","category_name":"未知分类","address":"上海昌里路"},{"poiid":"B2094757D66EA5FE409C","title":"重庆炭烤鱼","lon":"121.492414738","lat":"31.1744101115","category":"257","category_name":"中餐厅","address":"上海历城路"},{"poiid":"B2094757D06EAAF44198","title":"昌里路夜市(昌里特色一条街)","lon":"121.492757521","lat":"31.173216522","category":"249","category_name":"购物服务","address":"浦东新区昌里路(近美食一条街)"},{"poiid":"B2094757D06FA1F9439B","title":"品粥坊 湛江三仔烤海鲜","lon":"121.49274","lat":"31.17393","category":"88","category_name":"海鲜酒楼","address":"上海浦东新区历城路120-122号(近昌里路)"},{"poiid":"B2094654DB64A7F4449A","title":"必胜客(昌里店)","lon":"121.49311","lat":"31.17409","category":"94","category_name":"西餐厅","address":"浦东新区昌里路267号(昌里路历城路)"},{"poiid":"B2094757D06FA3F4429A","title":"历城路小吃一条街","lon":"121.49325","lat":"31.17385","category":"257","category_name":"中餐厅","address":"上海浦东新区历城路(近昌里路)"},{"poiid":"B2094655D36CA5FA4198","title":"昌里路历城路","lon":"121.49311","lat":"31.17395","category":"38","category_name":"公交车站","address":""},{"poiid":"B2094757D068A1FF499C","title":"7年8班韩式烤肉店","lon":"121.48860773","lat":"31.171605051","category":"247","category_name":"餐饮美食","address":"上海市浦东新区长青路77号"},{"poiid":"B2094751DA6AA4FF4593","title":"上海歌城","lon":"121.491153","lat":"31.174163","category":"170","category_name":"KTV","address":"昌里店"},{"poiid":"B2094655D36CA5FA4199","title":"昌里路长清路","lon":"121.49109","lat":"31.17357","category":"38","category_name":"公交车站","address":""},{"poiid":"B2094757D06FA1FE4698","title":"大马头茶餐厅(昌里店)","lon":"121.49352","lat":"31.17387","category":"72","category_name":"广东菜","address":"浦东新区昌里路277号2号楼(近历城路)"},{"poiid":"B2094757D06FA2F8489E","title":"扬歌视听歌城(昌里店)","lon":"121.49408","lat":"31.17396","category":"170","category_name":"KTV","address":"浦东新区昌里路247号2-3楼(昌里路历城路)"},{"poiid":"B2094654DB6BABFF489F","title":"麦当劳(昌里路店)","lon":"121.49222","lat":"31.17393","category":"68","category_name":"快餐厅","address":"浦东新区昌里路333号浦东商城B1楼(近历城路)"},{"poiid":"B2094757D06FA2FD409A","title":"广东明火粥(历城路店)","lon":"121.49279","lat":"31.17427","category":"68","category_name":"快餐厅","address":"浦东新区历城路122号(近昌里路)"},{"poiid":"B2094751D568A3FB4192","title":"上海歌城昌里店","lon":"121.487887","lat":"31.173912","category":"248","category_name":"生活娱乐","address":"昌里路337号浦东商场4层"},{"poiid":"B2094757D06FA0FE429C","title":"传奇台球(昌里店)","lon":"121.49321","lat":"31.17377","category":"171","category_name":"台球厅","address":"上海浦东新区昌里路267号3楼(历城路口)"},{"poiid":"B2094757D06FA6FA479B","title":"长青公园","lon":"121.488820127","lat":"31.1739269077","category":"196","category_name":"公园","address":"浦东新区长清路11号(昌里路口)"},{"poiid":"B2094757D06FA6F9479E","title":"傣妹(昌里店)","lon":"121.49389","lat":"31.17392","category":"86","category_name":"火锅店","address":"浦东新区昌里路257号2-3楼(近历城路)"},{"poiid":"B2094751DA6EA2FA409B","title":"上海歌城","lon":"121.492645","lat":"31.171219","category":"170","category_name":"KTV","address":"昌里东路"},{"poiid":"B2094757D06FABF5469D","title":"小浦东鸡粥店(长清路店)","lon":"121.48931","lat":"31.17269","category":"68","category_name":"快餐厅","address":"浦东新区昌里路360号(近长清路)"},{"poiid":"B2094757D06FA1FE429C","title":"85度C(昌里店)","lon":"121.49388","lat":"31.17402","category":"67","category_name":"甜品店","address":"浦东新区昌里路257-1号(近历城路)"},{"poiid":"B2094757D06FAAFB4792","title":"豪享来上海长清店","lon":"121.4884","lat":"31.1717","category":"247","category_name":"餐饮美食","address":"上海市浦东新区长清路92号"},{"poiid":"B2094757D065A5FE469F","title":"浦东机场T2航站楼停车场","lon":"121.4873315","lat":"31.174126905","category":"21","category_name":"飞机场","address":"上海浦东新区启航路900号T2航站楼"},{"poiid":"B2094757D664A1F94593","title":"7年8班","lon":"121.48865936","lat":"31.17180078","category":"96","category_name":"韩国料理","address":"浦东新区长清路77号(近昌里路)"},{"poiid":"B2094757D06FABF54599","title":"阿玛尼护肤造型中心(昌里路店)","lon":"121.49339","lat":"31.17363","category":"148","category_name":"美容美发店","address":"浦东新区昌里路267号(近历城路必胜客)"},{"poiid":"B2094654DA68A1F8409A","title":"德兴馆 昌里店","lon":"121.49032875342","lat":"31.173875509465","category":"76","category_name":"上海菜","address":"浦东新区昌里路353号历城中学对面(历城路长清路间)"},{"poiid":"B2094654DA68A1F8439B","title":"浦东商场(边门)","lon":"121.49179","lat":"31.17382","category":"119","category_name":"商场","address":"昌里路321、333"},{"poiid":"B2094757D76CA3F9449D","title":"历城路章鱼小丸子","lon":"121.49254","lat":"31.17403","category":"87","category_name":"特色／地方风味餐厅","address":"浦东新区昌里路223号(近历城路)"},{"poiid":"B2094750D76DA3F8449B","title":"泰煌鸡(昌里店)","lon":"121.491","lat":"31.1738","category":"68","category_name":"快餐厅","address":"浦东新区昌里路333号浦东商场内(近麦当劳)"},{"poiid":"B2094757D169A6FA439F","title":"上钢地段医院","lon":"121.48863373","lat":"31.173232086","category":"162","category_name":"医院","address":"浦东新区昌里路360号(昌里路长清路)"},{"poiid":"B2094757D069A3F5489F","title":"手牵手专业美甲SPA","lon":"121.493936","lat":"31.174259","category":"122","category_name":"个人用品/化妆品店","address":"浦东新区昌里路243号(昌里路历城路)"},{"poiid":"B2094757D06FA4FF4593","title":"肯德基 KFC (长青店)","lon":"121.491574","lat":"31.1738","category":"68","category_name":"快餐厅","address":"浦东新区昌里路333号浦东商场B1楼(近历城路)"},{"poiid":"B2094757DB6CA7F9459D","title":"小周烧烤","lon":"121.48801","lat":"31.17288","category":"68","category_name":"快餐厅","address":"浦东新区长清路(昌里路口)"},{"poiid":"B2094655D265A1FB449D","title":"昌里路油炸摊","lon":"121.49064","lat":"31.17343","category":"68","category_name":"快餐厅","address":"浦东新区昌里路340弄弄内"},{"poiid":"B2094757D464AAFA439C","title":"蜀山渔村","lon":"121.492536","lat":"31.174514","category":"71","category_name":"四川菜","address":"浦东新区历城路116号"},{"poiid":"B2094750DA6FA6F5459E","title":"野人岛烤肉","lon":"121.494018","lat":"31.17418","category":"68","category_name":"快餐厅","address":"浦东新区昌里路220号2楼(近上南路)"},{"poiid":"B2094757D764AAFF499E","title":"哈尔滨食品厂 昌里店","lon":"121.49046","lat":"31.17356","category":"112","category_name":"糕饼店","address":"浦东新区昌里路349号(近浦东商场)"},{"poiid":"B2094757D068A7FF4799","title":"呀咪咖哩屋(上南店)","lon":"121.49304473","lat":"31.173566093","category":"247","category_name":"餐饮美食","address":"上海市浦东新区上南路1210号(近昌里路)"},{"poiid":"B2094655D26FA2F9489E","title":"马哥孛罗 昌里店 Marco Polo","lon":"121.491586054","lat":"31.173863793","category":"112","category_name":"糕饼店","address":"浦东新区昌里路308号(近历城路)"},{"poiid":"B2094757D16AA7FC469D","title":"品湘阁","lon":"121.491019738","lat":"31.1739922026","category":"77","category_name":"湖南菜","address":"浦东新区历城路110号"},{"poiid":"B2094750DA6BA4F9469E","title":"米兰国际护肤造型中心","lon":"121.490814","lat":"31.173557","category":"248","category_name":"生活娱乐","address":"昌里路342号"},{"poiid":"B2094654DA68A1F8409C","title":"上海市历城中学","lon":"121.49056","lat":"31.17325","category":"55","category_name":"中学","address":"浦东新区昌里路350号(浦东商场对面)"},{"poiid":"B2094750D664AAFF409F","title":"大王锅贴(历城路店)","lon":"121.492","lat":"31.1742","category":"68","category_name":"快餐厅","address":"浦东新区历城路124号(近昌里路)"},{"poiid":"B2094757D068AAFB4292","title":"豪大大台湾大鸡排(历城店)","lon":"121.492445","lat":"31.173951","category":"68","category_name":"快餐厅","address":"浦东新区历城路124号"},{"poiid":"B2094757D06BA0F94192","title":"田仓龙虾馆","lon":"121.492523","lat":"31.174541","category":"247","category_name":"餐饮美食","address":"上海历城路118号"},{"poiid":"B2094654DA68A1F84193","title":"永琪美容美发(昌里路)","lon":"121.49081","lat":"31.17338","category":"148","category_name":"美容美发店","address":"上钢新村"},{"poiid":"B2094654DB6BABFF4793","title":"图门烧烤(昌里路)","lon":"121.4895","lat":"31.17342","category":"68","category_name":"快餐厅","address":"浦东新区昌里路359号2楼"},{"poiid":"B2094655D26EABFB439B","title":"浦东清真饭店","lon":"121.49238025444","lat":"31.174459675613","category":"90","category_name":"清真餐馆","address":"浦东新区历城路121号(近昌里路)"},{"poiid":"B2094757D465A1FB489B","title":"老天母卤味专家 昌里路店","lon":"121.491412054","lat":"31.173934793","category":"68","category_name":"快餐厅","address":"浦东新区昌里路294号(历城路口)"},{"poiid":"B2094655D26CA7F9479C","title":"上钢五村","lon":"121.48959","lat":"31.174212","category":"47","category_name":"住宅区","address":"上海长清路昌里路"},{"poiid":"B2094757D16AA6FC409B","title":"阿玛尼","lon":"121.491537","lat":"31.173821","category":"500","category_name":"未知分类","address":"上海昌里路"},{"poiid":"B2094757D66EA5FE409C","title":"重庆炭烤鱼","lon":"121.492414738","lat":"31.1744101115","category":"257","category_name":"中餐厅","address":"上海历城路"},{"poiid":"B2094757D06EAAF44198","title":"昌里路夜市(昌里特色一条街)","lon":"121.492757521","lat":"31.173216522","category":"249","category_name":"购物服务","address":"浦东新区昌里路(近美食一条街)"},{"poiid":"B2094757D06FA1F9439B","title":"品粥坊 湛江三仔烤海鲜","lon":"121.49274","lat":"31.17393","category":"88","category_name":"海鲜酒楼","address":"上海浦东新区历城路120-122号(近昌里路)"},{"poiid":"B2094654DB64A7F4449A","title":"必胜客(昌里店)","lon":"121.49311","lat":"31.17409","category":"94","category_name":"西餐厅","address":"浦东新区昌里路267号(昌里路历城路)"},{"poiid":"B2094757D06FA3F4429A","title":"历城路小吃一条街","lon":"121.49325","lat":"31.17385","category":"257","category_name":"中餐厅","address":"上海浦东新区历城路(近昌里路)"},{"poiid":"B2094655D36CA5FA4198","title":"昌里路历城路","lon":"121.49311","lat":"31.17395","category":"38","category_name":"公交车站","address":""},{"poiid":"B2094757D068A1FF499C","title":"7年8班韩式烤肉店","lon":"121.48860773","lat":"31.171605051","category":"247","category_name":"餐饮美食","address":"上海市浦东新区长青路77号"},{"poiid":"B2094751DA6AA4FF4593","title":"上海歌城","lon":"121.491153","lat":"31.174163","category":"170","category_name":"KTV","address":"昌里店"},{"poiid":"B2094655D36CA5FA4199","title":"昌里路长清路","lon":"121.49109","lat":"31.17357","category":"38","category_name":"公交车站","address":""},{"poiid":"B2094757D06FA1FE4698","title":"大马头茶餐厅(昌里店)","lon":"121.49352","lat":"31.17387","category":"72","category_name":"广东菜","address":"浦东新区昌里路277号2号楼(近历城路)"},{"poiid":"B2094757D06FA2F8489E","title":"扬歌视听歌城(昌里店)","lon":"121.49408","lat":"31.17396","category":"170","category_name":"KTV","address":"浦东新区昌里路247号2-3楼(昌里路历城路)"},{"poiid":"B2094654DB6BABFF489F","title":"麦当劳(昌里路店)","lon":"121.49222","lat":"31.17393","category":"68","category_name":"快餐厅","address":"浦东新区昌里路333号浦东商城B1楼(近历城路)"},{"poiid":"B2094757D06FA2FD409A","title":"广东明火粥(历城路店)","lon":"121.49279","lat":"31.17427","category":"68","category_name":"快餐厅","address":"浦东新区历城路122号(近昌里路)"},{"poiid":"B2094751D568A3FB4192","title":"上海歌城昌里店","lon":"121.487887","lat":"31.173912","category":"248","category_name":"生活娱乐","address":"昌里路337号浦东商场4层"},{"poiid":"B2094757D06FA0FE429C","title":"传奇台球(昌里店)","lon":"121.49321","lat":"31.17377","category":"171","category_name":"台球厅","address":"上海浦东新区昌里路267号3楼(历城路口)"},{"poiid":"B2094757D06FA6FA479B","title":"长青公园","lon":"121.488820127","lat":"31.1739269077","category":"196","category_name":"公园","address":"浦东新区长清路11号(昌里路口)"},{"poiid":"B2094757D06FA6F9479E","title":"傣妹(昌里店)","lon":"121.49389","lat":"31.17392","category":"86","category_name":"火锅店","address":"浦东新区昌里路257号2-3楼(近历城路)"},{"poiid":"B2094751DA6EA2FA409B","title":"上海歌城","lon":"121.492645","lat":"31.171219","category":"170","category_name":"KTV","address":"昌里东路"},{"poiid":"B2094757D06FABF5469D","title":"小浦东鸡粥店(长清路店)","lon":"121.48931","lat":"31.17269","category":"68","category_name":"快餐厅","address":"浦东新区昌里路360号(近长清路)"},{"poiid":"B2094757D06FA1FE429C","title":"85度C(昌里店)","lon":"121.49388","lat":"31.17402","category":"67","category_name":"甜品店","address":"浦东新区昌里路257-1号(近历城路)"},{"poiid":"B2094757D06FAAFB4792","title":"豪享来上海长清店","lon":"121.4884","lat":"31.1717","category":"247","category_name":"餐饮美食","address":"上海市浦东新区长清路92号"},{"poiid":"B2094757D065A5FE469F","title":"浦东机场T2航站楼停车场","lon":"121.4873315","lat":"31.174126905","category":"21","category_name":"飞机场","address":"上海浦东新区启航路900号T2航站楼"},{"poiid":"B2094757D664A1F94593","title":"7年8班","lon":"121.48865936","lat":"31.17180078","category":"96","category_name":"韩国料理","address":"浦东新区长清路77号(近昌里路)"},{"poiid":"B2094757D06FABF54599","title":"阿玛尼护肤造型中心(昌里路店)","lon":"121.49339","lat":"31.17363","category":"148","category_name":"美容美发店","address":"浦东新区昌里路267号(近历城路必胜客)"},{"poiid":"B2094654DA68A1F8409A","title":"德兴馆 昌里店","lon":"121.49032875342","lat":"31.173875509465","category":"76","category_name":"上海菜","address":"浦东新区昌里路353号历城中学对面(历城路长清路间)"},{"poiid":"B2094654DA68A1F8439B","title":"浦东商场(边门)","lon":"121.49179","lat":"31.17382","category":"119","category_name":"商场","address":"昌里路321、333"},{"poiid":"B2094757D76CA3F9449D","title":"历城路章鱼小丸子","lon":"121.49254","lat":"31.17403","category":"87","category_name":"特色／地方风味餐厅","address":"浦东新区昌里路223号(近历城路)"},{"poiid":"B2094750D76DA3F8449B","title":"泰煌鸡(昌里店)","lon":"121.491","lat":"31.1738","category":"68","category_name":"快餐厅","address":"浦东新区昌里路333号浦东商场内(近麦当劳)"},{"poiid":"B2094757D169A6FA439F","title":"上钢地段医院","lon":"121.48863373","lat":"31.173232086","category":"162","category_name":"医院","address":"浦东新区昌里路360号(昌里路长清路)"},{"poiid":"B2094757D069A3F5489F","title":"手牵手专业美甲SPA","lon":"121.493936","lat":"31.174259","category":"122","category_name":"个人用品/化妆品店","address":"浦东新区昌里路243号(昌里路历城路)"},{"poiid":"B2094757D06FA4FF4593","title":"肯德基 KFC (长青店)","lon":"121.491574","lat":"31.1738","category":"68","category_name":"快餐厅","address":"浦东新区昌里路333号浦东商场B1楼(近历城路)"},{"poiid":"B2094757DB6CA7F9459D","title":"小周烧烤","lon":"121.48801","lat":"31.17288","category":"68","category_name":"快餐厅","address":"浦东新区长清路(昌里路口)"},{"poiid":"B2094655D265A1FB449D","title":"昌里路油炸摊","lon":"121.49064","lat":"31.17343","category":"68","category_name":"快餐厅","address":"浦东新区昌里路340弄弄内"},{"poiid":"B2094757D464AAFA439C","title":"蜀山渔村","lon":"121.492536","lat":"31.174514","category":"71","category_name":"四川菜","address":"浦东新区历城路116号"},{"poiid":"B2094750DA6FA6F5459E","title":"野人岛烤肉","lon":"121.494018","lat":"31.17418","category":"68","category_name":"快餐厅","address":"浦东新区昌里路220号2楼(近上南路)"},{"poiid":"B2094757D764AAFF499E","title":"哈尔滨食品厂 昌里店","lon":"121.49046","lat":"31.17356","category":"112","category_name":"糕饼店","address":"浦东新区昌里路349号(近浦东商场)"},{"poiid":"B2094757D068A7FF4799","title":"呀咪咖哩屋(上南店)","lon":"121.49304473","lat":"31.173566093","category":"247","category_name":"餐饮美食","address":"上海市浦东新区上南路1210号(近昌里路)"},{"poiid":"B2094655D26FA2F9489E","title":"马哥孛罗 昌里店 Marco Polo","lon":"121.491586054","lat":"31.173863793","category":"112","category_name":"糕饼店","address":"浦东新区昌里路308号(近历城路)"},{"poiid":"B2094757D16AA7FC469D","title":"品湘阁","lon":"121.491019738","lat":"31.1739922026","category":"77","category_name":"湖南菜","address":"浦东新区历城路110号"},{"poiid":"B2094750DA6BA4F9469E","title":"米兰国际护肤造型中心","lon":"121.490814","lat":"31.173557","category":"248","category_name":"生活娱乐","address":"昌里路342号"},{"poiid":"B2094654DA68A1F8409C","title":"上海市历城中学","lon":"121.49056","lat":"31.17325","category":"55","category_name":"中学","address":"浦东新区昌里路350号(浦东商场对面)"},{"poiid":"B2094750D664AAFF409F","title":"大王锅贴(历城路店)","lon":"121.492","lat":"31.1742","category":"68","category_name":"快餐厅","address":"浦东新区历城路124号(近昌里路)"},{"poiid":"B2094757D068AAFB4292","title":"豪大大台湾大鸡排(历城店)","lon":"121.492445","lat":"31.173951","category":"68","category_name":"快餐厅","address":"浦东新区历城路124号"},{"poiid":"B2094757D06BA0F94192","title":"田仓龙虾馆","lon":"121.492523","lat":"31.174541","category":"247","category_name":"餐饮美食","address":"上海历城路118号"},{"poiid":"B2094654DA68A1F84193","title":"永琪美容美发(昌里路)","lon":"121.49081","lat":"31.17338","category":"148","category_name":"美容美发店","address":"上钢新村"},{"poiid":"B2094654DB6BABFF4793","title":"图门烧烤(昌里路)","lon":"121.4895","lat":"31.17342","category":"68","category_name":"快餐厅","address":"浦东新区昌里路359号2楼"},{"poiid":"B2094655D26EABFB439B","title":"浦东清真饭店","lon":"121.49238025444","lat":"31.174459675613","category":"90","category_name":"清真餐馆","address":"浦东新区历城路121号(近昌里路)"},{"poiid":"B2094757D465A1FB489B","title":"老天母卤味专家 昌里路店","lon":"121.491412054","lat":"31.173934793","category":"68","category_name":"快餐厅","address":"浦东新区昌里路294号(历城路口)"},{"poiid":"B2094655D26CA7F9479C","title":"上钢五村","lon":"121.48959","lat":"31.174212","category":"47","category_name":"住宅区","address":"上海长清路昌里路"},{"poiid":"B2094757D16AA6FC409B","title":"阿玛尼","lon":"121.491537","lat":"31.173821","category":"500","category_name":"未知分类","address":"上海昌里路"},{"poiid":"B2094757D66EA5FE409C","title":"重庆炭烤鱼","lon":"121.492414738","lat":"31.1744101115","category":"257","category_name":"中餐厅","address":"上海历城路"}]