[{"poiid":"B2094654DB6AA6F8419D","title":"上海东锦江希尔顿逸林酒店","lon":"121.53461","lat":"31.21125","category":"213","category_name":"五星级宾馆","address":"浦东新区杨高南路889号东锦江希尔顿逸林酒店41楼(近蓝村路)"},{"poiid":"B2094751D565AAFE409B","title":"纽斯汉蒸spa会所","lon":"121.536595","lat":"31.210135","category":"248","category_name":"生活娱乐","address":"上海市东绣路288号"},{"poiid":"B2094757D169A0FA439A","title":"由由世纪广场","lon":"121.538165738","lat":"31.2163130036","category":"500","category_name":"未知分类","address":"上海杨高南路428号"},{"poiid":"B2094757D465A1FE4899","title":"东锦江大酒店法式旋转餐厅 X  Sensation","lon":"121.53331202737","lat":"31.210789080806","category":"97","category_name":"法式菜品餐厅","address":"浦东新区杨高南路889号(近蓝村路)"},{"poiid":"B2094757D06BA7FF4798","title":"浦建路锦绣路","lon":"121.538101938","lat":"31.2077684216","category":"500","category_name":"未知分类","address":"上海浦建路锦绣路"},{"poiid":"B2094757D06FA4FD429D","title":"陆家嘴软件园8号楼","lon":"121.533349394","lat":"31.2149005694","category":"46","category_name":"楼宇","address":"上海浦东新区峨山路91弄120号"},{"poiid":"B2094757D068A4FD409D","title":"韶梦酒店(峨山路店)","lon":"121.53166251","lat":"31.21570173","category":"76","category_name":"上海菜","address":"浦东新区峨山路95弄3号4幢(伟泰宾馆对面)"},{"poiid":"B2094757D065A5FA4392","title":"上海市浦东公证处","lon":"121.53320673","lat":"31.215202979","category":"500","category_name":"未知分类","address":"上海市浦东新区峨山路91弄20号9号楼1楼南塔"},{"poiid":"B2094654DB6BABFA499F","title":"香梅花园","lon":"121.53968","lat":"31.21086","category":"47","category_name":"住宅区","address":"上海市浦东新区锦康路389弄"},{"poiid":"B2094655D26DA6F54893","title":"软件园9号楼","lon":"121.53388","lat":"31.21531","category":"46","category_name":"楼宇","address":"上海,上海市,峨山路91弄20号"},{"poiid":"B2094654DB64A6FB469A","title":"汉庭快捷(东方路店)","lon":"121.53318","lat":"31.21574","category":"216","category_name":"经济型连锁酒店","address":"浦东新区峨山路91弄38号在陆家嘴软件园内(近东方路)"},{"poiid":"B2094757D065A3F84299","title":"东锦江大酒店","lon":"121.53396723","lat":"31.211128561","category":"217","category_name":"旅馆招待所","address":"杨高南路889号东锦江大酒店46-47楼近蓝村路"},{"poiid":"B2094757D06BAAF8409D","title":"上海市建平香梅中学","lon":"121.538746588","lat":"31.2080499526","category":"55","category_name":"中学","address":"上海东绣路463号"},{"poiid":"B2094757D068A7F5419A","title":"海富花园","lon":"121.53044","lat":"31.213524","category":"47","category_name":"住宅区","address":"上海市杨浦区内江路168号(长阳路内江路口)"},{"poiid":"B2094654DA69A1F4419B","title":"金牛大厦","lon":"121.53271","lat":"31.21506","category":"46","category_name":"楼宇","address":"浦东新区峨山路77"},{"poiid":"B2094757D069A4F5499C","title":"乔顿花园","lon":"121.535","lat":"31.2108","category":"47","category_name":"住宅区","address":"上海市浦东新区浦建路588号"},{"poiid":"B2094757D06AA1FD489E","title":"重庆富侨 上海浦东养生殿","lon":"121.530632","lat":"31.214523","category":"149","category_name":"洗浴推拿场所","address":"上海峨山路77号,近杨高南路"},{"poiid":"B2094654DA69A6FA419F","title":"新都花园","lon":"121.532","lat":"31.21323","category":"47","category_name":"住宅区","address":"蓝村路31弄1-13号"},{"poiid":"B2094655D26BA7FB479C","title":"进才中学国际部","lon":"121.53326","lat":"31.21374","category":"55","category_name":"中学","address":"峨山路26号"},{"poiid":"B2094655D26BA0FC4592","title":"和港餐厅","lon":"121.5339","lat":"31.2153","category":"77","category_name":"湖南菜","address":"浦东新区峨山路91弄20号9号楼北塔1楼(近杨高南路)"},{"poiid":"B2094655D36DA0F8479F","title":"杨高南路蓝村路","lon":"121.53335","lat":"31.21203","category":"38","category_name":"公交车站","address":""},{"poiid":"B2094750DA64A7FC4699","title":"人民广场地铁","lon":"121.532783","lat":"31.211862","category":"500","category_name":"未知分类","address":null},{"poiid":"B2094757D064A4F54498","title":"仕嘉名苑","lon":"121.530885","lat":"31.212285","category":"47","category_name":"住宅区","address":"上海市浦东新区兰村路55弄3号"},{"poiid":"B2094654DA69A6F44093","title":"兰高小区","lon":"121.53134","lat":"31.21101","category":"47","category_name":"住宅区","address":"蓝村路30弄1-51号"},{"poiid":"B2094751DA65AAF8479F","title":"纽斯spa浦东店","lon":"121.534704","lat":"31.211833","category":"248","category_name":"生活娱乐","address":"上海市东绣路288号"},{"poiid":"B2094757D568ABFA449D","title":"上海绿城一期","lon":"121.538644","lat":"31.211024","category":"47","category_name":"住宅区","address":"上海市浦东新区锦和路99弄"},{"poiid":"B2094655D268A1FA439D","title":"木槿","lon":"121.536317054","lat":"31.218201793","category":"96","category_name":"韩国料理","address":"浦东新区锦延路83号(近锦康路)"},{"poiid":"B2094654DA69A6FA4092","title":"华东理工大学网络教育学院浦东教育中心","lon":"121.53302","lat":"31.21375","category":"52","category_name":"高等院校","address":"峨山路26"},{"poiid":"B2094655D265A2FC4498","title":"浦江之星旅店","lon":"121.53266","lat":"31.21112","category":"216","category_name":"经济型连锁酒店","address":"浦东新区蓝村路2号(近东方路)"},{"poiid":"B2094750DB65AAF44692","title":"Kerry Parkside","lon":"121.534622","lat":"31.210884","category":"500","category_name":"未知分类","address":null},{"poiid":"B2094757D064A1FA499C","title":"友家日本料理","lon":"121.53835","lat":"31.21656","category":"95","category_name":"日本料理","address":"浦东新区锦延路69号张家浜创意街(近锦康路)"},{"poiid":"B2094655D26FA3FA449B","title":"Heineken","lon":"121.53269103691","lat":"31.211832836132","category":"247","category_name":"餐饮美食","address":"蓝村路9号"},{"poiid":"B2094751DA68A0F84193","title":"纽斯桑拿会所浦东店","lon":"121.534704","lat":"31.209241","category":"500","category_name":"未知分类","address":"浦东新区东绣路288号"},{"poiid":"B2094655D36DA0F8479E","title":"杨高南路花木路","lon":"121.53487","lat":"31.21539","category":"38","category_name":"公交车站","address":""},{"poiid":"B2094757D569A2FB4399","title":"陆家嘴软件园10号楼","lon":"121.532019","lat":"31.21645752","category":"45","category_name":"产业园区","address":"中国上海市浦东新区"},{"poiid":"B2094654DB64A3FC429D","title":"上海市浦东中学初中部","lon":"121.53302","lat":"31.21375","category":"55","category_name":"中学","address":"峨山路26"},{"poiid":"B2094654DA69A3F8429D","title":"上海日本人学校","lon":"121.53818","lat":"31.21427","category":"253","category_name":"校园生活","address":"上海浦东新区花木路"},{"poiid":"B2094654DA69A6FA419B","title":"夜风铃咖啡店","lon":"121.5325","lat":"31.21171","category":"65","category_name":"咖啡厅","address":"浦东新区蓝村路9号(近杨高南路)"},{"poiid":"B2094757D66CA1FF459B","title":"上海东昌企业集团","lon":"121.53562743","lat":"31.213942353","category":"263","category_name":"公司","address":"上海浦东峨山路"},{"poiid":"B2094655D36DA0F84798","title":"杨高南路峨山路","lon":"121.53455","lat":"31.2151","category":"38","category_name":"公交车站","address":""},{"poiid":"B2094757D568ABFC4492","title":"新都花苑上海早晨","lon":"121.5319969","lat":"31.21323694","category":"47","category_name":"住宅区","address":"新都花苑-上海早晨位于浦东蓝村路31号(东方路、杨高路之间)"},{"poiid":"B2094757D064A3FF439A","title":"塘桥社区文化中心","lon":"121.530563438","lat":"31.2102128736","category":"500","category_name":"未知分类","address":"上海蓝村路86号"},{"poiid":"B2094757D569A7FE4292","title":"新都花园二期","lon":"121.5319969","lat":"31.21323694","category":"47","category_name":"住宅区","address":"上海市浦东新区蓝村路31号"},{"poiid":"B2094757D168A1FD489F","title":"唯尚咖啡 蓝村店","lon":"121.53322634596","lat":"31.211813837805","category":"260","category_name":"其他","address":"浦东新区蓝村路1号(杨高中路口)"},{"poiid":"B2094655D26FA6FD459A","title":"上海市浦东新区东方小学","lon":"121.53165","lat":"31.21158","category":"56","category_name":"小学","address":"浦东新区蓝村路30弄11号(杨高中路口)"},{"poiid":"B2094655D26BA6F54693","title":"とうだいもん烧肉","lon":"121.53736","lat":"31.20972","category":"95","category_name":"日本料理","address":""},{"poiid":"B2094654DA69A6F4409C","title":"永琪美容美发(蓝村路)","lon":"121.53128","lat":"31.21133","category":"148","category_name":"美容美发店","address":"蓝村路36-2识别"},{"poiid":"B2094654DA69A6FA419C","title":"新都花园(南门)","lon":"121.53171","lat":"31.21164","category":"47","category_name":"住宅区","address":"蓝村路31弄1-13号"},{"poiid":"B2094655D26DA1FB4792","title":"浦东软件园陆家嘴分园2号楼","lon":"121.53284","lat":"31.21722","category":"46","category_name":"楼宇","address":""},{"poiid":"B2094753DB69A3FB469A","title":"上海浦东香格里拉大酒店","lon":"121.535018","lat":"31.215614","category":"500","category_name":"未知分类","address":"上海市 富成路33号"},{"poiid":"B2094654DB6AA6F8419D","title":"上海东锦江希尔顿逸林酒店","lon":"121.53461","lat":"31.21125","category":"213","category_name":"五星级宾馆","address":"浦东新区杨高南路889号东锦江希尔顿逸林酒店41楼(近蓝村路)"},{"poiid":"B2094751D565AAFE409B","title":"纽斯汉蒸spa会所","lon":"121.536595","lat":"31.210135","category":"248","category_name":"生活娱乐","address":"上海市东绣路288号"},{"poiid":"B2094757D169A0FA439A","title":"由由世纪广场","lon":"121.538165738","lat":"31.2163130036","category":"500","category_name":"未知分类","address":"上海杨高南路428号"},{"poiid":"B2094757D465A1FE4899","title":"东锦江大酒店法式旋转餐厅 X  Sensation","lon":"121.53331202737","lat":"31.210789080806","category":"97","category_name":"法式菜品餐厅","address":"浦东新区杨高南路889号(近蓝村路)"},{"poiid":"B2094757D06BA7FF4798","title":"浦建路锦绣路","lon":"121.538101938","lat":"31.2077684216","category":"500","category_name":"未知分类","address":"上海浦建路锦绣路"},{"poiid":"B2094757D06FA4FD429D","title":"陆家嘴软件园8号楼","lon":"121.533349394","lat":"31.2149005694","category":"46","category_name":"楼宇","address":"上海浦东新区峨山路91弄120号"},{"poiid":"B2094757D068A4FD409D","title":"韶梦酒店(峨山路店)","lon":"121.53166251","lat":"31.21570173","category":"76","category_name":"上海菜","address":"浦东新区峨山路95弄3号4幢(伟泰宾馆对面)"},{"poiid":"B2094757D065A5FA4392","title":"上海市浦东公证处","lon":"121.53320673","lat":"31.215202979","category":"500","category_name":"未知分类","address":"上海市浦东新区峨山路91弄20号9号楼1楼南塔"},{"poiid":"B2094654DB6BABFA499F","title":"香梅花园","lon":"121.53968","lat":"31.21086","category":"47","category_name":"住宅区","address":"上海市浦东新区锦康路389弄"},{"poiid":"B2094655D26DA6F54893","title":"软件园9号楼","lon":"121.53388","lat":"31.21531","category":"46","category_name":"楼宇","address":"上海,上海市,峨山路91弄20号"},{"poiid":"B2094654DB64A6FB469A","title":"汉庭快捷(东方路店)","lon":"121.53318","lat":"31.21574","category":"216","category_name":"经济型连锁酒店","address":"浦东新区峨山路91弄38号在陆家嘴软件园内(近东方路)"},{"poiid":"B2094757D065A3F84299","title":"东锦江大酒店","lon":"121.53396723","lat":"31.211128561","category":"217","category_name":"旅馆招待所","address":"杨高南路889号东锦江大酒店46-47楼近蓝村路"},{"poiid":"B2094757D06BAAF8409D","title":"上海市建平香梅中学","lon":"121.538746588","lat":"31.2080499526","category":"55","category_name":"中学","address":"上海东绣路463号"},{"poiid":"B2094757D068A7F5419A","title":"海富花园","lon":"121.53044","lat":"31.213524","category":"47","category_name":"住宅区","address":"上海市杨浦区内江路168号(长阳路内江路口)"},{"poiid":"B2094654DA69A1F4419B","title":"金牛大厦","lon":"121.53271","lat":"31.21506","category":"46","category_name":"楼宇","address":"浦东新区峨山路77"},{"poiid":"B2094757D069A4F5499C","title":"乔顿花园","lon":"121.535","lat":"31.2108","category":"47","category_name":"住宅区","address":"上海市浦东新区浦建路588号"},{"poiid":"B2094757D06AA1FD489E","title":"重庆富侨 上海浦东养生殿","lon":"121.530632","lat":"31.214523","category":"149","category_name":"洗浴推拿场所","address":"上海峨山路77号,近杨高南路"},{"poiid":"B2094654DA69A6FA419F","title":"新都花园","lon":"121.532","lat":"31.21323","category":"47","category_name":"住宅区","address":"蓝村路31弄1-13号"},{"poiid":"B2094655D26BA7FB479C","title":"进才中学国际部","lon":"121.53326","lat":"31.21374","category":"55","category_name":"中学","address":"峨山路26号"},{"poiid":"B2094655D26BA0FC4592","title":"和港餐厅","lon":"121.5339","lat":"31.2153","category":"77","category_name":"湖南菜","address":"浦东新区峨山路91弄20号9号楼北塔1楼(近杨高南路)"},{"poiid":"B2094655D36DA0F8479F","title":"杨高南路蓝村路","lon":"121.53335","lat":"31.21203","category":"38","category_name":"公交车站","address":""},{"poiid":"B2094750DA64A7FC4699","title":"人民广场地铁","lon":"121.532783","lat":"31.211862","category":"500","category_name":"未知分类","address":null},{"poiid":"B2094757D064A4F54498","title":"仕嘉名苑","lon":"121.530885","lat":"31.212285","category":"47","category_name":"住宅区","address":"上海市浦东新区兰村路55弄3号"},{"poiid":"B2094654DA69A6F44093","title":"兰高小区","lon":"121.53134","lat":"31.21101","category":"47","category_name":"住宅区","address":"蓝村路30弄1-51号"},{"poiid":"B2094751DA65AAF8479F","title":"纽斯spa浦东店","lon":"121.534704","lat":"31.211833","category":"248","category_name":"生活娱乐","address":"上海市东绣路288号"},{"poiid":"B2094757D568ABFA449D","title":"上海绿城一期","lon":"121.538644","lat":"31.211024","category":"47","category_name":"住宅区","address":"上海市浦东新区锦和路99弄"},{"poiid":"B2094655D268A1FA439D","title":"木槿","lon":"121.536317054","lat":"31.218201793","category":"96","category_name":"韩国料理","address":"浦东新区锦延路83号(近锦康路)"},{"poiid":"B2094654DA69A6FA4092","title":"华东理工大学网络教育学院浦东教育中心","lon":"121.53302","lat":"31.21375","category":"52","category_name":"高等院校","address":"峨山路26"},{"poiid":"B2094655D265A2FC4498","title":"浦江之星旅店","lon":"121.53266","lat":"31.21112","category":"216","category_name":"经济型连锁酒店","address":"浦东新区蓝村路2号(近东方路)"},{"poiid":"B2094750DB65AAF44692","title":"Kerry Parkside","lon":"121.534622","lat":"31.210884","category":"500","category_name":"未知分类","address":null},{"poiid":"B2094757D064A1FA499C","title":"友家日本料理","lon":"121.53835","lat":"31.21656","category":"95","category_name":"日本料理","address":"浦东新区锦延路69号张家浜创意街(近锦康路)"},{"poiid":"B2094655D26FA3FA449B","title":"Heineken","lon":"121.53269103691","lat":"31.211832836132","category":"247","category_name":"餐饮美食","address":"蓝村路9号"},{"poiid":"B2094751DA68A0F84193","title":"纽斯桑拿会所浦东店","lon":"121.534704","lat":"31.209241","category":"500","category_name":"未知分类","address":"浦东新区东绣路288号"},{"poiid":"B2094655D36DA0F8479E","title":"杨高南路花木路","lon":"121.53487","lat":"31.21539","category":"38","category_name":"公交车站","address":""},{"poiid":"B2094757D569A2FB4399","title":"陆家嘴软件园10号楼","lon":"121.532019","lat":"31.21645752","category":"45","category_name":"产业园区","address":"中国上海市浦东新区"},{"poiid":"B2094654DB64A3FC429D","title":"上海市浦东中学初中部","lon":"121.53302","lat":"31.21375","category":"55","category_name":"中学","address":"峨山路26"},{"poiid":"B2094654DA69A3F8429D","title":"上海日本人学校","lon":"121.53818","lat":"31.21427","category":"253","category_name":"校园生活","address":"上海浦东新区花木路"},{"poiid":"B2094654DA69A6FA419B","title":"夜风铃咖啡店","lon":"121.5325","lat":"31.21171","category":"65","category_name":"咖啡厅","address":"浦东新区蓝村路9号(近杨高南路)"},{"poiid":"B2094757D66CA1FF459B","title":"上海东昌企业集团","lon":"121.53562743","lat":"31.213942353","category":"263","category_name":"公司","address":"上海浦东峨山路"},{"poiid":"B2094655D36DA0F84798","title":"杨高南路峨山路","lon":"121.53455","lat":"31.2151","category":"38","category_name":"公交车站","address":""},{"poiid":"B2094757D568ABFC4492","title":"新都花苑上海早晨","lon":"121.5319969","lat":"31.21323694","category":"47","category_name":"住宅区","address":"新都花苑-上海早晨位于浦东蓝村路31号(东方路、杨高路之间)"},{"poiid":"B2094757D064A3FF439A","title":"塘桥社区文化中心","lon":"121.530563438","lat":"31.2102128736","category":"500","category_name":"未知分类","address":"上海蓝村路86号"},{"poiid":"B2094757D569A7FE4292","title":"新都花园二期","lon":"121.5319969","lat":"31.21323694","category":"47","category_name":"住宅区","address":"上海市浦东新区蓝村路31号"},{"poiid":"B2094757D168A1FD489F","title":"唯尚咖啡 蓝村店","lon":"121.53322634596","lat":"31.211813837805","category":"260","category_name":"其他","address":"浦东新区蓝村路1号(杨高中路口)"},{"poiid":"B2094655D26FA6FD459A","title":"上海市浦东新区东方小学","lon":"121.53165","lat":"31.21158","category":"56","category_name":"小学","address":"浦东新区蓝村路30弄11号(杨高中路口)"},{"poiid":"B2094655D26BA6F54693","title":"とうだいもん烧肉","lon":"121.53736","lat":"31.20972","category":"95","category_name":"日本料理","address":""},{"poiid":"B2094654DA69A6F4409C","title":"永琪美容美发(蓝村路)","lon":"121.53128","lat":"31.21133","category":"148","category_name":"美容美发店","address":"蓝村路36-2识别"},{"poiid":"B2094654DA69A6FA419C","title":"新都花园(南门)","lon":"121.53171","lat":"31.21164","category":"47","category_name":"住宅区","address":"蓝村路31弄1-13号"},{"poiid":"B2094655D26DA1FB4792","title":"浦东软件园陆家嘴分园2号楼","lon":"121.53284","lat":"31.21722","category":"46","category_name":"楼宇","address":""},{"poiid":"B2094753DB69A3FB469A","title":"上海浦东香格里拉大酒店","lon":"121.535018","lat":"31.215614","category":"500","category_name":"未知分类","address":"上海市 富成路33号"},{"poiid":"B2094654DB6AA6F8419D","title":"上海东锦江希尔顿逸林酒店","lon":"121.53461","lat":"31.21125","category":"213","category_name":"五星级宾馆","address":"浦东新区杨高南路889号东锦江希尔顿逸林酒店41楼(近蓝村路)"},{"poiid":"B2094751D565AAFE409B","title":"纽斯汉蒸spa会所","lon":"121.536595","lat":"31.210135","category":"248","category_name":"生活娱乐","address":"上海市东绣路288号"},{"poiid":"B2094757D169A0FA439A","title":"由由世纪广场","lon":"121.538165738","lat":"31.2163130036","category":"500","category_name":"未知分类","address":"上海杨高南路428号"},{"poiid":"B2094757D465A1FE4899","title":"东锦江大酒店法式旋转餐厅 X  Sensation","lon":"121.53331202737","lat":"31.210789080806","category":"97","category_name":"法式菜品餐厅","address":"浦东新区杨高南路889号(近蓝村路)"},{"poiid":"B2094757D06BA7FF4798","title":"浦建路锦绣路","lon":"121.538101938","lat":"31.2077684216","category":"500","category_name":"未知分类","address":"上海浦建路锦绣路"},{"poiid":"B2094757D06FA4FD429D","title":"陆家嘴软件园8号楼","lon":"121.533349394","lat":"31.2149005694","category":"46","category_name":"楼宇","address":"上海浦东新区峨山路91弄120号"},{"poiid":"B2094757D068A4FD409D","title":"韶梦酒店(峨山路店)","lon":"121.53166251","lat":"31.21570173","category":"76","category_name":"上海菜","address":"浦东新区峨山路95弄3号4幢(伟泰宾馆对面)"},{"poiid":"B2094757D065A5FA4392","title":"上海市浦东公证处","lon":"121.53320673","lat":"31.215202979","category":"500","category_name":"未知分类","address":"上海市浦东新区峨山路91弄20号9号楼1楼南塔"},{"poiid":"B2094654DB6BABFA499F","title":"香梅花园","lon":"121.53968","lat":"31.21086","category":"47","category_name":"住宅区","address":"上海市浦东新区锦康路389弄"},{"poiid":"B2094655D26DA6F54893","title":"软件园9号楼","lon":"121.53388","lat":"31.21531","category":"46","category_name":"楼宇","address":"上海,上海市,峨山路91弄20号"},{"poiid":"B2094654DB64A6FB469A","title":"汉庭快捷(东方路店)","lon":"121.53318","lat":"31.21574","category":"216","category_name":"经济型连锁酒店","address":"浦东新区峨山路91弄38号在陆家嘴软件园内(近东方路)"},{"poiid":"B2094757D065A3F84299","title":"东锦江大酒店","lon":"121.53396723","lat":"31.211128561","category":"217","category_name":"旅馆招待所","address":"杨高南路889号东锦江大酒店46-47楼近蓝村路"},{"poiid":"B2094757D06BAAF8409D","title":"上海市建平香梅中学","lon":"121.538746588","lat":"31.2080499526","category":"55","category_name":"中学","address":"上海东绣路463号"},{"poiid":"B2094757D068A7F5419A","title":"海富花园","lon":"121.53044","lat":"31.213524","category":"47","category_name":"住宅区","address":"上海市杨浦区内江路168号(长阳路内江路口)"},{"poiid":"B2094654DA69A1F4419B","title":"金牛大厦","lon":"121.53271","lat":"31.21506","category":"46","category_name":"楼宇","address":"浦东新区峨山路77"},{"poiid":"B2094757D069A4F5499C","title":"乔顿花园","lon":"121.535","lat":"31.2108","category":"47","category_name":"住宅区","address":"上海市浦东新区浦建路588号"},{"poiid":"B2094757D06AA1FD489E","title":"重庆富侨 上海浦东养生殿","lon":"121.530632","lat":"31.214523","category":"149","category_name":"洗浴推拿场所","address":"上海峨山路77号,近杨高南路"},{"poiid":"B2094654DA69A6FA419F","title":"新都花园","lon":"121.532","lat":"31.21323","category":"47","category_name":"住宅区","address":"蓝村路31弄1-13号"},{"poiid":"B2094655D26BA7FB479C","title":"进才中学国际部","lon":"121.53326","lat":"31.21374","category":"55","category_name":"中学","address":"峨山路26号"},{"poiid":"B2094655D26BA0FC4592","title":"和港餐厅","lon":"121.5339","lat":"31.2153","category":"77","category_name":"湖南菜","address":"浦东新区峨山路91弄20号9号楼北塔1楼(近杨高南路)"},{"poiid":"B2094655D36DA0F8479F","title":"杨高南路蓝村路","lon":"121.53335","lat":"31.21203","category":"38","category_name":"公交车站","address":""},{"poiid":"B2094750DA64A7FC4699","title":"人民广场地铁","lon":"121.532783","lat":"31.211862","category":"500","category_name":"未知分类","address":null},{"poiid":"B2094757D064A4F54498","title":"仕嘉名苑","lon":"121.530885","lat":"31.212285","category":"47","category_name":"住宅区","address":"上海市浦东新区兰村路55弄3号"},{"poiid":"B2094654DA69A6F44093","title":"兰高小区","lon":"121.53134","lat":"31.21101","category":"47","category_name":"住宅区","address":"蓝村路30弄1-51号"},{"poiid":"B2094751DA65AAF8479F","title":"纽斯spa浦东店","lon":"121.534704","lat":"31.211833","category":"248","category_name":"生活娱乐","address":"上海市东绣路288号"},{"poiid":"B2094757D568ABFA449D","title":"上海绿城一期","lon":"121.538644","lat":"31.211024","category":"47","category_name":"住宅区","address":"上海市浦东新区锦和路99弄"},{"poiid":"B2094655D268A1FA439D","title":"木槿","lon":"121.536317054","lat":"31.218201793","category":"96","category_name":"韩国料理","address":"浦东新区锦延路83号(近锦康路)"},{"poiid":"B2094654DA69A6FA4092","title":"华东理工大学网络教育学院浦东教育中心","lon":"121.53302","lat":"31.21375","category":"52","category_name":"高等院校","address":"峨山路26"},{"poiid":"B2094655D265A2FC4498","title":"浦江之星旅店","lon":"121.53266","lat":"31.21112","category":"216","category_name":"经济型连锁酒店","address":"浦东新区蓝村路2号(近东方路)"},{"poiid":"B2094750DB65AAF44692","title":"Kerry Parkside","lon":"121.534622","lat":"31.210884","category":"500","category_name":"未知分类","address":null},{"poiid":"B2094757D064A1FA499C","title":"友家日本料理","lon":"121.53835","lat":"31.21656","category":"95","category_name":"日本料理","address":"浦东新区锦延路69号张家浜创意街(近锦康路)"},{"poiid":"B2094655D26FA3FA449B","title":"Heineken","lon":"121.53269103691","lat":"31.211832836132","category":"247","category_name":"餐饮美食","address":"蓝村路9号"},{"poiid":"B2094751DA68A0F84193","title":"纽斯桑拿会所浦东店","lon":"121.534704","lat":"31.209241","category":"500","category_name":"未知分类","address":"浦东新区东绣路288号"},{"poiid":"B2094655D36DA0F8479E","title":"杨高南路花木路","lon":"121.53487","lat":"31.21539","category":"38","category_name":"公交车站","address":""},{"poiid":"B2094757D569A2FB4399","title":"陆家嘴软件园10号楼","lon":"121.532019","lat":"31.21645752","category":"45","category_name":"产业园区","address":"中国上海市浦东新区"},{"poiid":"B2094654DB64A3FC429D","title":"上海市浦东中学初中部","lon":"121.53302","lat":"31.21375","category":"55","category_name":"中学","address":"峨山路26"},{"poiid":"B2094654DA69A3F8429D","title":"上海日本人学校","lon":"121.53818","lat":"31.21427","category":"253","category_name":"校园生活","address":"上海浦东新区花木路"},{"poiid":"B2094654DA69A6FA419B","title":"夜风铃咖啡店","lon":"121.5325","lat":"31.21171","category":"65","category_name":"咖啡厅","address":"浦东新区蓝村路9号(近杨高南路)"},{"poiid":"B2094757D66CA1FF459B","title":"上海东昌企业集团","lon":"121.53562743","lat":"31.213942353","category":"263","category_name":"公司","address":"上海浦东峨山路"},{"poiid":"B2094655D36DA0F84798","title":"杨高南路峨山路","lon":"121.53455","lat":"31.2151","category":"38","category_name":"公交车站","address":""},{"poiid":"B2094757D568ABFC4492","title":"新都花苑上海早晨","lon":"121.5319969","lat":"31.21323694","category":"47","category_name":"住宅区","address":"新都花苑-上海早晨位于浦东蓝村路31号(东方路、杨高路之间)"},{"poiid":"B2094757D064A3FF439A","title":"塘桥社区文化中心","lon":"121.530563438","lat":"31.2102128736","category":"500","category_name":"未知分类","address":"上海蓝村路86号"},{"poiid":"B2094757D569A7FE4292","title":"新都花园二期","lon":"121.5319969","lat":"31.21323694","category":"47","category_name":"住宅区","address":"上海市浦东新区蓝村路31号"},{"poiid":"B2094757D168A1FD489F","title":"唯尚咖啡 蓝村店","lon":"121.53322634596","lat":"31.211813837805","category":"260","category_name":"其他","address":"浦东新区蓝村路1号(杨高中路口)"},{"poiid":"B2094655D26FA6FD459A","title":"上海市浦东新区东方小学","lon":"121.53165","lat":"31.21158","category":"56","category_name":"小学","address":"浦东新区蓝村路30弄11号(杨高中路口)"},{"poiid":"B2094655D26BA6F54693","title":"とうだいもん烧肉","lon":"121.53736","lat":"31.20972","category":"95","category_name":"日本料理","address":""},{"poiid":"B2094654DA69A6F4409C","title":"永琪美容美发(蓝村路)","lon":"121.53128","lat":"31.21133","category":"148","category_name":"美容美发店","address":"蓝村路36-2识别"},{"poiid":"B2094654DA69A6FA419C","title":"新都花园(南门)","lon":"121.53171","lat":"31.21164","category":"47","category_name":"住宅区","address":"蓝村路31弄1-13号"},{"poiid":"B2094655D26DA1FB4792","title":"浦东软件园陆家嘴分园2号楼","lon":"121.53284","lat":"31.21722","category":"46","category_name":"楼宇","address":""},{"poiid":"B2094753DB69A3FB469A","title":"上海浦东香格里拉大酒店","lon":"121.535018","lat":"31.215614","category":"500","category_name":"未知分类","address":"上海市 富成路33号"}]