[{"poiid":"B2094757D06FABFF439C","title":"茴香量贩式KTV","lon":"121.6045","lat":"31.27983","category":"170","category_name":"KTV","address":"上海浦东新区杨高北路易初莲花旁(近巨峰路)  "},{"poiid":"B2094757D06FA1FE459F","title":"卜蜂莲花(杨高北路店)","lon":"121.60793","lat":"31.2776","category":"118","category_name":"超级市场","address":"浦东新区金高路1256号(近巨峰路)"},{"poiid":"B2094757D06FA6F4429F","title":"上海博宽羽毛球馆","lon":"121.60199","lat":"31.28451","category":"260","category_name":"其他","address":"浦东新区双桥路302号(近杨高北路)"},{"poiid":"B2094757D06FAAF84493","title":"盆景汇大酒店","lon":"121.59943793","lat":"31.280443416","category":"76","category_name":"上海菜","address":"浦东新区五莲路1668号(近巨峰路)"},{"poiid":"B2094654DB65A6FD459B","title":"必胜客(金高店)","lon":"121.6099529","lat":"31.2776794","category":"94","category_name":"西餐厅","address":"浦东新区金高路1296弄147-150号1楼(金高路乐园路)"},{"poiid":"B2094757D069A7FD489A","title":"证大家园","lon":"121.59651","lat":"31.281961","category":"500","category_name":"未知分类","address":"上海市浦东新区巨峰路667弄"},{"poiid":"B2094757D068A0F44392","title":"渔堂公园餐厅","lon":"121.60529","lat":"31.2767","category":"76","category_name":"上海菜","address":"浦东新区乐园路3号(近杨高北路)"},{"poiid":"B2094757D068ABFB409E","title":"富利达钱桥国际酒店","lon":"121.59730237","lat":"31.276689485","category":"215","category_name":"三星级宾馆","address":"浦东新区凌河路269号(五莲路口)"},{"poiid":"B2094757D068A7F44299","title":"一兆韦德(证大店)","lon":"121.600569","lat":"31.281924","category":"221","category_name":"健身中心","address":"浦东新区五莲路1769弄46号证大家园"},{"poiid":"B2094655D26CA5FB459A","title":"东陆新村六街坊","lon":"121.59671","lat":"31.278631","category":"47","category_name":"住宅区","address":"巨峰路176弄"},{"poiid":"B2094757D06FA5F4489B","title":"肯德基 KFC (巨峰店)","lon":"121.59299","lat":"31.280109","category":"68","category_name":"快餐厅","address":"浦东新区巨峰路239号家乐福内(巨峰路利津路)"},{"poiid":"B2094655D36DA0F8479A","title":"杨高北路巨峰路","lon":"121.60158","lat":"31.28016","category":"38","category_name":"公交车站","address":""},{"poiid":"B2094757D06FAAFD429D","title":"凌河路五莲路","lon":"121.59870248","lat":"31.274882547","category":"500","category_name":"未知分类","address":"上海浦东新区浦兴路街道东陆新村二街坊"},{"poiid":"B2094757D069A2F5459F","title":"通昌羽毛球馆台球馆兵乓球馆","lon":"121.604933237","lat":"31.27895176","category":"220","category_name":"运动场所","address":"上海浦东新区乐林路133号(易初莲花超市旁)"},{"poiid":"B2094757D16DABFD4598","title":"邻海小镇","lon":"121.5990423","lat":"31.2801028","category":"75","category_name":"浙江菜","address":"浦东新区五莲路1751号(近双桥路)"},{"poiid":"B2094757D069A0FC4292","title":"豪享来上海五莲店","lon":"121.598","lat":"31.285","category":"247","category_name":"餐饮美食","address":"上海市浦东新区五莲路1705号"},{"poiid":"B2094757D064A3FA4092","title":"证大家园三期","lon":"121.602814","lat":"31.286214","category":"47","category_name":"住宅区","address":"上海市浦东新区巨峰路339弄"},{"poiid":"B2094757D16DA5FB449C","title":"广灵阁八仙海鲜城","lon":"121.59895281","lat":"31.281102726","category":"72","category_name":"广东菜","address":"浦东新区五莲路1739号(近巨峰路)"},{"poiid":"B2094757D06FA4FD4292","title":"肯德基 KFC (金高店)","lon":"121.607864","lat":"31.278682","category":"68","category_name":"快餐厅","address":"浦东新区金高路1256号卜蜂莲花1楼(近巨峰路)"},{"poiid":"B2094757D069AAF5469F","title":"双桥小区","lon":"121.59892","lat":"31.282758","category":"47","category_name":"住宅区","address":"上海双桥路218弄"},{"poiid":"B2094757D16AA2FD4399","title":"巴顿火锅","lon":"121.59923014","lat":"31.2743351323","category":"86","category_name":"火锅店","address":"浦东新区凌河路431号(五莲路口)"},{"poiid":"B2094757D06AA4F84293","title":"重庆秦妈火锅","lon":"121.601588","lat":"31.280164","category":"86","category_name":"火锅店","address":"浦东新区乐林路135号(近巨峰路)"},{"poiid":"B2094654DB69A4FB459D","title":"重庆鸡公煲(巨峰路店)","lon":"121.59946","lat":"31.28077","category":"71","category_name":"四川菜","address":"浦东新区五莲路华夏银行旁(近巨峰路)"},{"poiid":"B2094757D16EAAFA439A","title":"梵一瑜伽会所","lon":"121.59672","lat":"31.28015","category":"148","category_name":"美容美发店","address":"浦东新区巨峰路399弄57-58号证大家园1楼102室(近五莲路)"},{"poiid":"B2094757D064A3FD4293","title":"棒约翰比萨(利津路店)","lon":"121.59385","lat":"31.28211","category":"94","category_name":"西餐厅","address":"浦东新区利津路1295号(近巨峰路)"},{"poiid":"B2094757D06BA6FD479F","title":"浦兴地段医院","lon":"121.59882","lat":"31.27711","category":"162","category_name":"医院","address":"浦东新区归昌路250号(归昌路五莲路)"},{"poiid":"B2094752D06DA7FB459C","title":"K歌达人","lon":"121.603592","lat":"31.283306","category":"248","category_name":"生活娱乐","address":"金高路945号"},{"poiid":"B2094757D569A0FE449A","title":"老盛昌苏州汤包馆(博兴路店)","lon":"121.601287000001","lat":"31.2740969999999","category":"68","category_name":"快餐厅","address":"浦东新区博兴路(近五莲路)"},{"poiid":"B2094757DB6FA5F9499B","title":"崇明岛","lon":"121.601589","lat":"31.281162","category":"500","category_name":"未知分类","address":"崇明岛"},{"poiid":"B2094757D16CA7FE4799","title":"欢乐士牛排","lon":"121.598899","lat":"31.281357","category":"94","category_name":"西餐厅","address":"浦东新区五莲路1713号(近巨峰路)"},{"poiid":"B2094757D664AAF9429E","title":"元子韩国料理 金桥店","lon":"121.606507","lat":"31.279224","category":"96","category_name":"韩国料理","address":"浦东新区乐林路135号(近巨峰路)"},{"poiid":"B2094750D665ABFC479C","title":"盆景汇养生火锅","lon":"121.599","lat":"31.2809","category":"86","category_name":"火锅店","address":"浦东新区五莲路1676号(巨峰路口)"},{"poiid":"B2094655D36CA0FC419C","title":"巨峰路五莲路","lon":"121.60004","lat":"31.28011","category":"38","category_name":"公交车站","address":""},{"poiid":"B2094750D16AABFD4992","title":"大桶大","lon":"121.60189","lat":"31.279413","category":"248","category_name":"生活娱乐","address":"巨峰路718号"},{"poiid":"B2094654D568A0F44893","title":"好德便利No.910","lon":"121.60008","lat":"31.28242","category":"117","category_name":"便民商店/便利店","address":"巨峰路667弄138号"},{"poiid":"B2094654D568A0F54099","title":"华氏大药房巨峰路药房","lon":"121.60065","lat":"31.28269","category":"162","category_name":"医院","address":"浦东新区五莲路1728弄6-101(近巨峰路)"},{"poiid":"B2094654D568A0F4489B","title":"快客No.6311","lon":"121.59967","lat":"31.28244","category":"117","category_name":"便民商店/便利店","address":"巨峰路667弄134号"},{"poiid":"B2094654D568A0F5409C","title":"上海福山外国语小学(五莲路)","lon":"121.59878","lat":"31.28401","category":"56","category_name":"小学","address":"浦东新区五莲路1819号(双桥路五莲路)"},{"poiid":"B2094757D469A0F8409C","title":"味上火锅","lon":"121.598909","lat":"31.281433","category":"86","category_name":"火锅店","address":"浦东新区五莲路1723号(近巨峰路)"},{"poiid":"B2094654D568A0F44898","title":"永琪美容美发(五莲路)","lon":"121.59925","lat":"31.2816","category":"148","category_name":"美容美发店","address":""},{"poiid":"B2094655D26BA3F5479F","title":"五莲路双桥路","lon":"121.59907","lat":"31.28288","category":"38","category_name":"公交车站","address":""},{"poiid":"B2094654D568A0FC4492","title":"半岛雅园酒楼","lon":"121.60577","lat":"31.27976","category":"70","category_name":"综合酒楼","address":"浦东新区杨高北路巨峰路868号(近易初莲花)"},{"poiid":"B2094654D568A0F4479E","title":"文峰美发美容五莲店","lon":"121.5989","lat":"31.2808","category":"148","category_name":"美容美发店","address":"五莲路1683"},{"poiid":"B2094654D568A0F4479C","title":"红鼎房火锅","lon":"121.59915503713","lat":"31.279996842775","category":"86","category_name":"火锅店","address":"五莲路1723号近巨峰路"},{"poiid":"B2094654D568A7FE4392","title":"上海市高桥-东陆学校(证大校区)","lon":"121.60111","lat":"31.27958","category":"55","category_name":"中学","address":"巨峰路712弄18"},{"poiid":"B2094655D26CA6FB479B","title":"浦兴苑","lon":"121.60207","lat":"31.278645","category":"47","category_name":"住宅区","address":"巨峰路716弄1-27号"},{"poiid":"B2094757D06AA7F8429B","title":"coco都可茶饮(金桥店)","lon":"121.60775533","lat":"31.279059465","category":"113","category_name":"冷饮店","address":"浦东新区金高路1256号卜峰莲花底楼(乐林路杨高北路)"},{"poiid":"B2094757D169A0F54493","title":"上海世纪星证大幼稚园","lon":"121.599548339","lat":"31.282393542","category":"500","category_name":"未知分类","address":"上海五莲路1818号"},{"poiid":"B2094655D26FA7FB4993","title":"证大家园东区(西门)","lon":"121.59922","lat":"31.28231","category":"656","category_name":"大门","address":"五莲路1728弄1-70号"},{"poiid":"B2094752D26CA6FA419F","title":"禾味牛杂凉茶铺","lon":"121.59388","lat":"31.28004","category":"68","category_name":"快餐厅","address":"浦东新区金桥镇利津路1204号(近巨峰路)"},{"poiid":"B2094757D06FABFF439C","title":"茴香量贩式KTV","lon":"121.6045","lat":"31.27983","category":"170","category_name":"KTV","address":"上海浦东新区杨高北路易初莲花旁(近巨峰路)  "},{"poiid":"B2094757D06FA1FE459F","title":"卜蜂莲花(杨高北路店)","lon":"121.60793","lat":"31.2776","category":"118","category_name":"超级市场","address":"浦东新区金高路1256号(近巨峰路)"},{"poiid":"B2094757D06FA6F4429F","title":"上海博宽羽毛球馆","lon":"121.60199","lat":"31.28451","category":"260","category_name":"其他","address":"浦东新区双桥路302号(近杨高北路)"},{"poiid":"B2094757D06FAAF84493","title":"盆景汇大酒店","lon":"121.59943793","lat":"31.280443416","category":"76","category_name":"上海菜","address":"浦东新区五莲路1668号(近巨峰路)"},{"poiid":"B2094654DB65A6FD459B","title":"必胜客(金高店)","lon":"121.6099529","lat":"31.2776794","category":"94","category_name":"西餐厅","address":"浦东新区金高路1296弄147-150号1楼(金高路乐园路)"},{"poiid":"B2094757D069A7FD489A","title":"证大家园","lon":"121.59651","lat":"31.281961","category":"500","category_name":"未知分类","address":"上海市浦东新区巨峰路667弄"},{"poiid":"B2094757D068A0F44392","title":"渔堂公园餐厅","lon":"121.60529","lat":"31.2767","category":"76","category_name":"上海菜","address":"浦东新区乐园路3号(近杨高北路)"},{"poiid":"B2094757D068ABFB409E","title":"富利达钱桥国际酒店","lon":"121.59730237","lat":"31.276689485","category":"215","category_name":"三星级宾馆","address":"浦东新区凌河路269号(五莲路口)"},{"poiid":"B2094757D068A7F44299","title":"一兆韦德(证大店)","lon":"121.600569","lat":"31.281924","category":"221","category_name":"健身中心","address":"浦东新区五莲路1769弄46号证大家园"},{"poiid":"B2094655D26CA5FB459A","title":"东陆新村六街坊","lon":"121.59671","lat":"31.278631","category":"47","category_name":"住宅区","address":"巨峰路176弄"},{"poiid":"B2094757D06FA5F4489B","title":"肯德基 KFC (巨峰店)","lon":"121.59299","lat":"31.280109","category":"68","category_name":"快餐厅","address":"浦东新区巨峰路239号家乐福内(巨峰路利津路)"},{"poiid":"B2094655D36DA0F8479A","title":"杨高北路巨峰路","lon":"121.60158","lat":"31.28016","category":"38","category_name":"公交车站","address":""},{"poiid":"B2094757D06FAAFD429D","title":"凌河路五莲路","lon":"121.59870248","lat":"31.274882547","category":"500","category_name":"未知分类","address":"上海浦东新区浦兴路街道东陆新村二街坊"},{"poiid":"B2094757D069A2F5459F","title":"通昌羽毛球馆台球馆兵乓球馆","lon":"121.604933237","lat":"31.27895176","category":"220","category_name":"运动场所","address":"上海浦东新区乐林路133号(易初莲花超市旁)"},{"poiid":"B2094757D16DABFD4598","title":"邻海小镇","lon":"121.5990423","lat":"31.2801028","category":"75","category_name":"浙江菜","address":"浦东新区五莲路1751号(近双桥路)"},{"poiid":"B2094757D069A0FC4292","title":"豪享来上海五莲店","lon":"121.598","lat":"31.285","category":"247","category_name":"餐饮美食","address":"上海市浦东新区五莲路1705号"},{"poiid":"B2094757D064A3FA4092","title":"证大家园三期","lon":"121.602814","lat":"31.286214","category":"47","category_name":"住宅区","address":"上海市浦东新区巨峰路339弄"},{"poiid":"B2094757D16DA5FB449C","title":"广灵阁八仙海鲜城","lon":"121.59895281","lat":"31.281102726","category":"72","category_name":"广东菜","address":"浦东新区五莲路1739号(近巨峰路)"},{"poiid":"B2094757D06FA4FD4292","title":"肯德基 KFC (金高店)","lon":"121.607864","lat":"31.278682","category":"68","category_name":"快餐厅","address":"浦东新区金高路1256号卜蜂莲花1楼(近巨峰路)"},{"poiid":"B2094757D069AAF5469F","title":"双桥小区","lon":"121.59892","lat":"31.282758","category":"47","category_name":"住宅区","address":"上海双桥路218弄"},{"poiid":"B2094757D16AA2FD4399","title":"巴顿火锅","lon":"121.59923014","lat":"31.2743351323","category":"86","category_name":"火锅店","address":"浦东新区凌河路431号(五莲路口)"},{"poiid":"B2094757D06AA4F84293","title":"重庆秦妈火锅","lon":"121.601588","lat":"31.280164","category":"86","category_name":"火锅店","address":"浦东新区乐林路135号(近巨峰路)"},{"poiid":"B2094654DB69A4FB459D","title":"重庆鸡公煲(巨峰路店)","lon":"121.59946","lat":"31.28077","category":"71","category_name":"四川菜","address":"浦东新区五莲路华夏银行旁(近巨峰路)"},{"poiid":"B2094757D16EAAFA439A","title":"梵一瑜伽会所","lon":"121.59672","lat":"31.28015","category":"148","category_name":"美容美发店","address":"浦东新区巨峰路399弄57-58号证大家园1楼102室(近五莲路)"},{"poiid":"B2094757D064A3FD4293","title":"棒约翰比萨(利津路店)","lon":"121.59385","lat":"31.28211","category":"94","category_name":"西餐厅","address":"浦东新区利津路1295号(近巨峰路)"},{"poiid":"B2094757D06BA6FD479F","title":"浦兴地段医院","lon":"121.59882","lat":"31.27711","category":"162","category_name":"医院","address":"浦东新区归昌路250号(归昌路五莲路)"},{"poiid":"B2094752D06DA7FB459C","title":"K歌达人","lon":"121.603592","lat":"31.283306","category":"248","category_name":"生活娱乐","address":"金高路945号"},{"poiid":"B2094757D569A0FE449A","title":"老盛昌苏州汤包馆(博兴路店)","lon":"121.601287000001","lat":"31.2740969999999","category":"68","category_name":"快餐厅","address":"浦东新区博兴路(近五莲路)"},{"poiid":"B2094757DB6FA5F9499B","title":"崇明岛","lon":"121.601589","lat":"31.281162","category":"500","category_name":"未知分类","address":"崇明岛"},{"poiid":"B2094757D16CA7FE4799","title":"欢乐士牛排","lon":"121.598899","lat":"31.281357","category":"94","category_name":"西餐厅","address":"浦东新区五莲路1713号(近巨峰路)"},{"poiid":"B2094757D664AAF9429E","title":"元子韩国料理 金桥店","lon":"121.606507","lat":"31.279224","category":"96","category_name":"韩国料理","address":"浦东新区乐林路135号(近巨峰路)"},{"poiid":"B2094750D665ABFC479C","title":"盆景汇养生火锅","lon":"121.599","lat":"31.2809","category":"86","category_name":"火锅店","address":"浦东新区五莲路1676号(巨峰路口)"},{"poiid":"B2094655D36CA0FC419C","title":"巨峰路五莲路","lon":"121.60004","lat":"31.28011","category":"38","category_name":"公交车站","address":""},{"poiid":"B2094750D16AABFD4992","title":"大桶大","lon":"121.60189","lat":"31.279413","category":"248","category_name":"生活娱乐","address":"巨峰路718号"},{"poiid":"B2094654D568A0F44893","title":"好德便利No.910","lon":"121.60008","lat":"31.28242","category":"117","category_name":"便民商店/便利店","address":"巨峰路667弄138号"},{"poiid":"B2094654D568A0F54099","title":"华氏大药房巨峰路药房","lon":"121.60065","lat":"31.28269","category":"162","category_name":"医院","address":"浦东新区五莲路1728弄6-101(近巨峰路)"},{"poiid":"B2094654D568A0F4489B","title":"快客No.6311","lon":"121.59967","lat":"31.28244","category":"117","category_name":"便民商店/便利店","address":"巨峰路667弄134号"},{"poiid":"B2094654D568A0F5409C","title":"上海福山外国语小学(五莲路)","lon":"121.59878","lat":"31.28401","category":"56","category_name":"小学","address":"浦东新区五莲路1819号(双桥路五莲路)"},{"poiid":"B2094757D469A0F8409C","title":"味上火锅","lon":"121.598909","lat":"31.281433","category":"86","category_name":"火锅店","address":"浦东新区五莲路1723号(近巨峰路)"},{"poiid":"B2094654D568A0F44898","title":"永琪美容美发(五莲路)","lon":"121.59925","lat":"31.2816","category":"148","category_name":"美容美发店","address":""},{"poiid":"B2094655D26BA3F5479F","title":"五莲路双桥路","lon":"121.59907","lat":"31.28288","category":"38","category_name":"公交车站","address":""},{"poiid":"B2094654D568A0FC4492","title":"半岛雅园酒楼","lon":"121.60577","lat":"31.27976","category":"70","category_name":"综合酒楼","address":"浦东新区杨高北路巨峰路868号(近易初莲花)"},{"poiid":"B2094654D568A0F4479E","title":"文峰美发美容五莲店","lon":"121.5989","lat":"31.2808","category":"148","category_name":"美容美发店","address":"五莲路1683"},{"poiid":"B2094654D568A0F4479C","title":"红鼎房火锅","lon":"121.59915503713","lat":"31.279996842775","category":"86","category_name":"火锅店","address":"五莲路1723号近巨峰路"},{"poiid":"B2094654D568A7FE4392","title":"上海市高桥-东陆学校(证大校区)","lon":"121.60111","lat":"31.27958","category":"55","category_name":"中学","address":"巨峰路712弄18"},{"poiid":"B2094655D26CA6FB479B","title":"浦兴苑","lon":"121.60207","lat":"31.278645","category":"47","category_name":"住宅区","address":"巨峰路716弄1-27号"},{"poiid":"B2094757D06AA7F8429B","title":"coco都可茶饮(金桥店)","lon":"121.60775533","lat":"31.279059465","category":"113","category_name":"冷饮店","address":"浦东新区金高路1256号卜峰莲花底楼(乐林路杨高北路)"},{"poiid":"B2094757D169A0F54493","title":"上海世纪星证大幼稚园","lon":"121.599548339","lat":"31.282393542","category":"500","category_name":"未知分类","address":"上海五莲路1818号"},{"poiid":"B2094655D26FA7FB4993","title":"证大家园东区(西门)","lon":"121.59922","lat":"31.28231","category":"656","category_name":"大门","address":"五莲路1728弄1-70号"},{"poiid":"B2094752D26CA6FA419F","title":"禾味牛杂凉茶铺","lon":"121.59388","lat":"31.28004","category":"68","category_name":"快餐厅","address":"浦东新区金桥镇利津路1204号(近巨峰路)"},{"poiid":"B2094757D06FABFF439C","title":"茴香量贩式KTV","lon":"121.6045","lat":"31.27983","category":"170","category_name":"KTV","address":"上海浦东新区杨高北路易初莲花旁(近巨峰路)  "},{"poiid":"B2094757D06FA1FE459F","title":"卜蜂莲花(杨高北路店)","lon":"121.60793","lat":"31.2776","category":"118","category_name":"超级市场","address":"浦东新区金高路1256号(近巨峰路)"},{"poiid":"B2094757D06FA6F4429F","title":"上海博宽羽毛球馆","lon":"121.60199","lat":"31.28451","category":"260","category_name":"其他","address":"浦东新区双桥路302号(近杨高北路)"},{"poiid":"B2094757D06FAAF84493","title":"盆景汇大酒店","lon":"121.59943793","lat":"31.280443416","category":"76","category_name":"上海菜","address":"浦东新区五莲路1668号(近巨峰路)"},{"poiid":"B2094654DB65A6FD459B","title":"必胜客(金高店)","lon":"121.6099529","lat":"31.2776794","category":"94","category_name":"西餐厅","address":"浦东新区金高路1296弄147-150号1楼(金高路乐园路)"},{"poiid":"B2094757D069A7FD489A","title":"证大家园","lon":"121.59651","lat":"31.281961","category":"500","category_name":"未知分类","address":"上海市浦东新区巨峰路667弄"},{"poiid":"B2094757D068A0F44392","title":"渔堂公园餐厅","lon":"121.60529","lat":"31.2767","category":"76","category_name":"上海菜","address":"浦东新区乐园路3号(近杨高北路)"},{"poiid":"B2094757D068ABFB409E","title":"富利达钱桥国际酒店","lon":"121.59730237","lat":"31.276689485","category":"215","category_name":"三星级宾馆","address":"浦东新区凌河路269号(五莲路口)"},{"poiid":"B2094757D068A7F44299","title":"一兆韦德(证大店)","lon":"121.600569","lat":"31.281924","category":"221","category_name":"健身中心","address":"浦东新区五莲路1769弄46号证大家园"},{"poiid":"B2094655D26CA5FB459A","title":"东陆新村六街坊","lon":"121.59671","lat":"31.278631","category":"47","category_name":"住宅区","address":"巨峰路176弄"},{"poiid":"B2094757D06FA5F4489B","title":"肯德基 KFC (巨峰店)","lon":"121.59299","lat":"31.280109","category":"68","category_name":"快餐厅","address":"浦东新区巨峰路239号家乐福内(巨峰路利津路)"},{"poiid":"B2094655D36DA0F8479A","title":"杨高北路巨峰路","lon":"121.60158","lat":"31.28016","category":"38","category_name":"公交车站","address":""},{"poiid":"B2094757D06FAAFD429D","title":"凌河路五莲路","lon":"121.59870248","lat":"31.274882547","category":"500","category_name":"未知分类","address":"上海浦东新区浦兴路街道东陆新村二街坊"},{"poiid":"B2094757D069A2F5459F","title":"通昌羽毛球馆台球馆兵乓球馆","lon":"121.604933237","lat":"31.27895176","category":"220","category_name":"运动场所","address":"上海浦东新区乐林路133号(易初莲花超市旁)"},{"poiid":"B2094757D16DABFD4598","title":"邻海小镇","lon":"121.5990423","lat":"31.2801028","category":"75","category_name":"浙江菜","address":"浦东新区五莲路1751号(近双桥路)"},{"poiid":"B2094757D069A0FC4292","title":"豪享来上海五莲店","lon":"121.598","lat":"31.285","category":"247","category_name":"餐饮美食","address":"上海市浦东新区五莲路1705号"},{"poiid":"B2094757D064A3FA4092","title":"证大家园三期","lon":"121.602814","lat":"31.286214","category":"47","category_name":"住宅区","address":"上海市浦东新区巨峰路339弄"},{"poiid":"B2094757D16DA5FB449C","title":"广灵阁八仙海鲜城","lon":"121.59895281","lat":"31.281102726","category":"72","category_name":"广东菜","address":"浦东新区五莲路1739号(近巨峰路)"},{"poiid":"B2094757D06FA4FD4292","title":"肯德基 KFC (金高店)","lon":"121.607864","lat":"31.278682","category":"68","category_name":"快餐厅","address":"浦东新区金高路1256号卜蜂莲花1楼(近巨峰路)"},{"poiid":"B2094757D069AAF5469F","title":"双桥小区","lon":"121.59892","lat":"31.282758","category":"47","category_name":"住宅区","address":"上海双桥路218弄"},{"poiid":"B2094757D16AA2FD4399","title":"巴顿火锅","lon":"121.59923014","lat":"31.2743351323","category":"86","category_name":"火锅店","address":"浦东新区凌河路431号(五莲路口)"},{"poiid":"B2094757D06AA4F84293","title":"重庆秦妈火锅","lon":"121.601588","lat":"31.280164","category":"86","category_name":"火锅店","address":"浦东新区乐林路135号(近巨峰路)"},{"poiid":"B2094654DB69A4FB459D","title":"重庆鸡公煲(巨峰路店)","lon":"121.59946","lat":"31.28077","category":"71","category_name":"四川菜","address":"浦东新区五莲路华夏银行旁(近巨峰路)"},{"poiid":"B2094757D16EAAFA439A","title":"梵一瑜伽会所","lon":"121.59672","lat":"31.28015","category":"148","category_name":"美容美发店","address":"浦东新区巨峰路399弄57-58号证大家园1楼102室(近五莲路)"},{"poiid":"B2094757D064A3FD4293","title":"棒约翰比萨(利津路店)","lon":"121.59385","lat":"31.28211","category":"94","category_name":"西餐厅","address":"浦东新区利津路1295号(近巨峰路)"},{"poiid":"B2094757D06BA6FD479F","title":"浦兴地段医院","lon":"121.59882","lat":"31.27711","category":"162","category_name":"医院","address":"浦东新区归昌路250号(归昌路五莲路)"},{"poiid":"B2094752D06DA7FB459C","title":"K歌达人","lon":"121.603592","lat":"31.283306","category":"248","category_name":"生活娱乐","address":"金高路945号"},{"poiid":"B2094757D569A0FE449A","title":"老盛昌苏州汤包馆(博兴路店)","lon":"121.601287000001","lat":"31.2740969999999","category":"68","category_name":"快餐厅","address":"浦东新区博兴路(近五莲路)"},{"poiid":"B2094757DB6FA5F9499B","title":"崇明岛","lon":"121.601589","lat":"31.281162","category":"500","category_name":"未知分类","address":"崇明岛"},{"poiid":"B2094757D16CA7FE4799","title":"欢乐士牛排","lon":"121.598899","lat":"31.281357","category":"94","category_name":"西餐厅","address":"浦东新区五莲路1713号(近巨峰路)"},{"poiid":"B2094757D664AAF9429E","title":"元子韩国料理 金桥店","lon":"121.606507","lat":"31.279224","category":"96","category_name":"韩国料理","address":"浦东新区乐林路135号(近巨峰路)"},{"poiid":"B2094750D665ABFC479C","title":"盆景汇养生火锅","lon":"121.599","lat":"31.2809","category":"86","category_name":"火锅店","address":"浦东新区五莲路1676号(巨峰路口)"},{"poiid":"B2094655D36CA0FC419C","title":"巨峰路五莲路","lon":"121.60004","lat":"31.28011","category":"38","category_name":"公交车站","address":""},{"poiid":"B2094750D16AABFD4992","title":"大桶大","lon":"121.60189","lat":"31.279413","category":"248","category_name":"生活娱乐","address":"巨峰路718号"},{"poiid":"B2094654D568A0F44893","title":"好德便利No.910","lon":"121.60008","lat":"31.28242","category":"117","category_name":"便民商店/便利店","address":"巨峰路667弄138号"},{"poiid":"B2094654D568A0F54099","title":"华氏大药房巨峰路药房","lon":"121.60065","lat":"31.28269","category":"162","category_name":"医院","address":"浦东新区五莲路1728弄6-101(近巨峰路)"},{"poiid":"B2094654D568A0F4489B","title":"快客No.6311","lon":"121.59967","lat":"31.28244","category":"117","category_name":"便民商店/便利店","address":"巨峰路667弄134号"},{"poiid":"B2094654D568A0F5409C","title":"上海福山外国语小学(五莲路)","lon":"121.59878","lat":"31.28401","category":"56","category_name":"小学","address":"浦东新区五莲路1819号(双桥路五莲路)"},{"poiid":"B2094757D469A0F8409C","title":"味上火锅","lon":"121.598909","lat":"31.281433","category":"86","category_name":"火锅店","address":"浦东新区五莲路1723号(近巨峰路)"},{"poiid":"B2094654D568A0F44898","title":"永琪美容美发(五莲路)","lon":"121.59925","lat":"31.2816","category":"148","category_name":"美容美发店","address":""},{"poiid":"B2094655D26BA3F5479F","title":"五莲路双桥路","lon":"121.59907","lat":"31.28288","category":"38","category_name":"公交车站","address":""},{"poiid":"B2094654D568A0FC4492","title":"半岛雅园酒楼","lon":"121.60577","lat":"31.27976","category":"70","category_name":"综合酒楼","address":"浦东新区杨高北路巨峰路868号(近易初莲花)"},{"poiid":"B2094654D568A0F4479E","title":"文峰美发美容五莲店","lon":"121.5989","lat":"31.2808","category":"148","category_name":"美容美发店","address":"五莲路1683"},{"poiid":"B2094654D568A0F4479C","title":"红鼎房火锅","lon":"121.59915503713","lat":"31.279996842775","category":"86","category_name":"火锅店","address":"五莲路1723号近巨峰路"},{"poiid":"B2094654D568A7FE4392","title":"上海市高桥-东陆学校(证大校区)","lon":"121.60111","lat":"31.27958","category":"55","category_name":"中学","address":"巨峰路712弄18"},{"poiid":"B2094655D26CA6FB479B","title":"浦兴苑","lon":"121.60207","lat":"31.278645","category":"47","category_name":"住宅区","address":"巨峰路716弄1-27号"},{"poiid":"B2094757D06AA7F8429B","title":"coco都可茶饮(金桥店)","lon":"121.60775533","lat":"31.279059465","category":"113","category_name":"冷饮店","address":"浦东新区金高路1256号卜峰莲花底楼(乐林路杨高北路)"},{"poiid":"B2094757D169A0F54493","title":"上海世纪星证大幼稚园","lon":"121.599548339","lat":"31.282393542","category":"500","category_name":"未知分类","address":"上海五莲路1818号"},{"poiid":"B2094655D26FA7FB4993","title":"证大家园东区(西门)","lon":"121.59922","lat":"31.28231","category":"656","category_name":"大门","address":"五莲路1728弄1-70号"},{"poiid":"B2094752D26CA6FA419F","title":"禾味牛杂凉茶铺","lon":"121.59388","lat":"31.28004","category":"68","category_name":"快餐厅","address":"浦东新区金桥镇利津路1204号(近巨峰路)"},{"poiid":"B2094757D06FABFF439C","title":"茴香量贩式KTV","lon":"121.6045","lat":"31.27983","category":"170","category_name":"KTV","address":"上海浦东新区杨高北路易初莲花旁(近巨峰路)  "},{"poiid":"B2094757D06FA1FE459F","title":"卜蜂莲花(杨高北路店)","lon":"121.60793","lat":"31.2776","category":"118","category_name":"超级市场","address":"浦东新区金高路1256号(近巨峰路)"},{"poiid":"B2094757D06FA6F4429F","title":"上海博宽羽毛球馆","lon":"121.60199","lat":"31.28451","category":"260","category_name":"其他","address":"浦东新区双桥路302号(近杨高北路)"},{"poiid":"B2094757D06FAAF84493","title":"盆景汇大酒店","lon":"121.59943793","lat":"31.280443416","category":"76","category_name":"上海菜","address":"浦东新区五莲路1668号(近巨峰路)"},{"poiid":"B2094654DB65A6FD459B","title":"必胜客(金高店)","lon":"121.6099529","lat":"31.2776794","category":"94","category_name":"西餐厅","address":"浦东新区金高路1296弄147-150号1楼(金高路乐园路)"},{"poiid":"B2094757D069A7FD489A","title":"证大家园","lon":"121.59651","lat":"31.281961","category":"500","category_name":"未知分类","address":"上海市浦东新区巨峰路667弄"},{"poiid":"B2094757D068A0F44392","title":"渔堂公园餐厅","lon":"121.60529","lat":"31.2767","category":"76","category_name":"上海菜","address":"浦东新区乐园路3号(近杨高北路)"},{"poiid":"B2094757D068ABFB409E","title":"富利达钱桥国际酒店","lon":"121.59730237","lat":"31.276689485","category":"215","category_name":"三星级宾馆","address":"浦东新区凌河路269号(五莲路口)"},{"poiid":"B2094757D068A7F44299","title":"一兆韦德(证大店)","lon":"121.600569","lat":"31.281924","category":"221","category_name":"健身中心","address":"浦东新区五莲路1769弄46号证大家园"},{"poiid":"B2094655D26CA5FB459A","title":"东陆新村六街坊","lon":"121.59671","lat":"31.278631","category":"47","category_name":"住宅区","address":"巨峰路176弄"},{"poiid":"B2094757D06FA5F4489B","title":"肯德基 KFC (巨峰店)","lon":"121.59299","lat":"31.280109","category":"68","category_name":"快餐厅","address":"浦东新区巨峰路239号家乐福内(巨峰路利津路)"},{"poiid":"B2094655D36DA0F8479A","title":"杨高北路巨峰路","lon":"121.60158","lat":"31.28016","category":"38","category_name":"公交车站","address":""},{"poiid":"B2094757D06FAAFD429D","title":"凌河路五莲路","lon":"121.59870248","lat":"31.274882547","category":"500","category_name":"未知分类","address":"上海浦东新区浦兴路街道东陆新村二街坊"},{"poiid":"B2094757D069A2F5459F","title":"通昌羽毛球馆台球馆兵乓球馆","lon":"121.604933237","lat":"31.27895176","category":"220","category_name":"运动场所","address":"上海浦东新区乐林路133号(易初莲花超市旁)"},{"poiid":"B2094757D16DABFD4598","title":"邻海小镇","lon":"121.5990423","lat":"31.2801028","category":"75","category_name":"浙江菜","address":"浦东新区五莲路1751号(近双桥路)"},{"poiid":"B2094757D069A0FC4292","title":"豪享来上海五莲店","lon":"121.598","lat":"31.285","category":"247","category_name":"餐饮美食","address":"上海市浦东新区五莲路1705号"},{"poiid":"B2094757D064A3FA4092","title":"证大家园三期","lon":"121.602814","lat":"31.286214","category":"47","category_name":"住宅区","address":"上海市浦东新区巨峰路339弄"},{"poiid":"B2094757D16DA5FB449C","title":"广灵阁八仙海鲜城","lon":"121.59895281","lat":"31.281102726","category":"72","category_name":"广东菜","address":"浦东新区五莲路1739号(近巨峰路)"},{"poiid":"B2094757D06FA4FD4292","title":"肯德基 KFC (金高店)","lon":"121.607864","lat":"31.278682","category":"68","category_name":"快餐厅","address":"浦东新区金高路1256号卜蜂莲花1楼(近巨峰路)"},{"poiid":"B2094757D069AAF5469F","title":"双桥小区","lon":"121.59892","lat":"31.282758","category":"47","category_name":"住宅区","address":"上海双桥路218弄"},{"poiid":"B2094757D16AA2FD4399","title":"巴顿火锅","lon":"121.59923014","lat":"31.2743351323","category":"86","category_name":"火锅店","address":"浦东新区凌河路431号(五莲路口)"},{"poiid":"B2094757D06AA4F84293","title":"重庆秦妈火锅","lon":"121.601588","lat":"31.280164","category":"86","category_name":"火锅店","address":"浦东新区乐林路135号(近巨峰路)"},{"poiid":"B2094654DB69A4FB459D","title":"重庆鸡公煲(巨峰路店)","lon":"121.59946","lat":"31.28077","category":"71","category_name":"四川菜","address":"浦东新区五莲路华夏银行旁(近巨峰路)"},{"poiid":"B2094757D16EAAFA439A","title":"梵一瑜伽会所","lon":"121.59672","lat":"31.28015","category":"148","category_name":"美容美发店","address":"浦东新区巨峰路399弄57-58号证大家园1楼102室(近五莲路)"},{"poiid":"B2094757D064A3FD4293","title":"棒约翰比萨(利津路店)","lon":"121.59385","lat":"31.28211","category":"94","category_name":"西餐厅","address":"浦东新区利津路1295号(近巨峰路)"},{"poiid":"B2094757D06BA6FD479F","title":"浦兴地段医院","lon":"121.59882","lat":"31.27711","category":"162","category_name":"医院","address":"浦东新区归昌路250号(归昌路五莲路)"},{"poiid":"B2094752D06DA7FB459C","title":"K歌达人","lon":"121.603592","lat":"31.283306","category":"248","category_name":"生活娱乐","address":"金高路945号"},{"poiid":"B2094757D569A0FE449A","title":"老盛昌苏州汤包馆(博兴路店)","lon":"121.601287000001","lat":"31.2740969999999","category":"68","category_name":"快餐厅","address":"浦东新区博兴路(近五莲路)"},{"poiid":"B2094757DB6FA5F9499B","title":"崇明岛","lon":"121.601589","lat":"31.281162","category":"500","category_name":"未知分类","address":"崇明岛"},{"poiid":"B2094757D16CA7FE4799","title":"欢乐士牛排","lon":"121.598899","lat":"31.281357","category":"94","category_name":"西餐厅","address":"浦东新区五莲路1713号(近巨峰路)"},{"poiid":"B2094757D664AAF9429E","title":"元子韩国料理 金桥店","lon":"121.606507","lat":"31.279224","category":"96","category_name":"韩国料理","address":"浦东新区乐林路135号(近巨峰路)"},{"poiid":"B2094750D665ABFC479C","title":"盆景汇养生火锅","lon":"121.599","lat":"31.2809","category":"86","category_name":"火锅店","address":"浦东新区五莲路1676号(巨峰路口)"},{"poiid":"B2094655D36CA0FC419C","title":"巨峰路五莲路","lon":"121.60004","lat":"31.28011","category":"38","category_name":"公交车站","address":""},{"poiid":"B2094750D16AABFD4992","title":"大桶大","lon":"121.60189","lat":"31.279413","category":"248","category_name":"生活娱乐","address":"巨峰路718号"},{"poiid":"B2094654D568A0F44893","title":"好德便利No.910","lon":"121.60008","lat":"31.28242","category":"117","category_name":"便民商店/便利店","address":"巨峰路667弄138号"},{"poiid":"B2094654D568A0F54099","title":"华氏大药房巨峰路药房","lon":"121.60065","lat":"31.28269","category":"162","category_name":"医院","address":"浦东新区五莲路1728弄6-101(近巨峰路)"},{"poiid":"B2094654D568A0F4489B","title":"快客No.6311","lon":"121.59967","lat":"31.28244","category":"117","category_name":"便民商店/便利店","address":"巨峰路667弄134号"},{"poiid":"B2094654D568A0F5409C","title":"上海福山外国语小学(五莲路)","lon":"121.59878","lat":"31.28401","category":"56","category_name":"小学","address":"浦东新区五莲路1819号(双桥路五莲路)"},{"poiid":"B2094757D469A0F8409C","title":"味上火锅","lon":"121.598909","lat":"31.281433","category":"86","category_name":"火锅店","address":"浦东新区五莲路1723号(近巨峰路)"},{"poiid":"B2094654D568A0F44898","title":"永琪美容美发(五莲路)","lon":"121.59925","lat":"31.2816","category":"148","category_name":"美容美发店","address":""},{"poiid":"B2094655D26BA3F5479F","title":"五莲路双桥路","lon":"121.59907","lat":"31.28288","category":"38","category_name":"公交车站","address":""},{"poiid":"B2094654D568A0FC4492","title":"半岛雅园酒楼","lon":"121.60577","lat":"31.27976","category":"70","category_name":"综合酒楼","address":"浦东新区杨高北路巨峰路868号(近易初莲花)"},{"poiid":"B2094654D568A0F4479E","title":"文峰美发美容五莲店","lon":"121.5989","lat":"31.2808","category":"148","category_name":"美容美发店","address":"五莲路1683"},{"poiid":"B2094654D568A0F4479C","title":"红鼎房火锅","lon":"121.59915503713","lat":"31.279996842775","category":"86","category_name":"火锅店","address":"五莲路1723号近巨峰路"},{"poiid":"B2094654D568A7FE4392","title":"上海市高桥-东陆学校(证大校区)","lon":"121.60111","lat":"31.27958","category":"55","category_name":"中学","address":"巨峰路712弄18"},{"poiid":"B2094655D26CA6FB479B","title":"浦兴苑","lon":"121.60207","lat":"31.278645","category":"47","category_name":"住宅区","address":"巨峰路716弄1-27号"},{"poiid":"B2094757D06AA7F8429B","title":"coco都可茶饮(金桥店)","lon":"121.60775533","lat":"31.279059465","category":"113","category_name":"冷饮店","address":"浦东新区金高路1256号卜峰莲花底楼(乐林路杨高北路)"},{"poiid":"B2094757D169A0F54493","title":"上海世纪星证大幼稚园","lon":"121.599548339","lat":"31.282393542","category":"500","category_name":"未知分类","address":"上海五莲路1818号"},{"poiid":"B2094655D26FA7FB4993","title":"证大家园东区(西门)","lon":"121.59922","lat":"31.28231","category":"656","category_name":"大门","address":"五莲路1728弄1-70号"},{"poiid":"B2094752D26CA6FA419F","title":"禾味牛杂凉茶铺","lon":"121.59388","lat":"31.28004","category":"68","category_name":"快餐厅","address":"浦东新区金桥镇利津路1204号(近巨峰路)"}]