[{"poiid":"B2094757D06EAAFA4998","title":"召稼楼古镇","lon":"121.533903","lat":"31.06921","category":"250","category_name":"公园户外","address":"上海闵行区浦江镇沈杜路(近苏召路)"},{"poiid":"B2094757D06AAAFB449E","title":"浦江镇体育中心","lon":"121.536940009","lat":"31.0564950577","category":"500","category_name":"未知分类","address":"闵行区江玮路269号(近浦江二中北侧)"},{"poiid":"B2094757D068A6F54093","title":"浦江森林公园","lon":"121.519645348","lat":"31.0457266427","category":"196","category_name":"公园","address":"闵行区浦江镇联跃路100号(浦星公路三鲁路间)"},{"poiid":"B2094757D068A0F44093","title":"水语人家","lon":"121.54162","lat":"31.049992","category":"252","category_name":"楼宇机构","address":"上海浦涛路768弄"},{"poiid":"B2094757D069ABF54593","title":"博雅苑","lon":"121.539087","lat":"31.05645","category":"47","category_name":"住宅区","address":"闵行区召楼路2056弄"},{"poiid":"B2094757D068ABFF489F","title":"虹浦新城","lon":"121.53542","lat":"31.047377","category":"47","category_name":"住宅区","address":"上海浦涛路501,505弄"},{"poiid":"B2094757D069AAF84492","title":"瑞和新苑","lon":"121.538303009","lat":"31.0484398827","category":"47","category_name":"住宅区","address":"上海市闵行区江航路"},{"poiid":"B2094751D568A6FC4798","title":"南鱼咖啡","lon":"121.536152","lat":"31.060772","category":"247","category_name":"餐饮美食","address":"上海闵行区浦江镇江文路559弄36号［kfc隔壁］"},{"poiid":"B2094655D26DA6F44698","title":"汇颂南苑","lon":"121.53203","lat":"31.050186","category":"47","category_name":"住宅区","address":"浦连路789弄1-36号"},{"poiid":"B2094655D26BA2F44898","title":"浦涛路三鲁路","lon":"121.53127","lat":"31.04642","category":"38","category_name":"公交车站","address":""},{"poiid":"B2094757D06BA4F44192","title":"闵浦新苑6村","lon":"121.53520217","lat":"31.059463394","category":"47","category_name":"住宅区","address":"上海市闵行区浦江镇江玮路298弄"},{"poiid":"B2094757D569A0FC419C","title":"申能汇颂苑(浦江镇1号地块)","lon":"121.531255","lat":"31.05069083","category":"47","category_name":"住宅区","address":"上海闵行区浦连路789弄"},{"poiid":"B2094655D36CA2FA489A","title":"三鲁公路浦连路","lon":"121.53037","lat":"31.04999","category":"38","category_name":"公交车站","address":""},{"poiid":"B2094757D069A5FE439F","title":"浦江丽都","lon":"121.53684","lat":"31.05422","category":"252","category_name":"楼宇机构","address":"上海市闵行区浦连路"},{"poiid":"B2094757D06FA4F8419B","title":"浦星公路","lon":"121.5151892","lat":"31.045785531","category":"260","category_name":"其他","address":"上海浦星公路"},{"poiid":"B2094655D264A0F9499A","title":"浦航新城(瑞和新苑)","lon":"121.53624","lat":"31.04992","category":"47","category_name":"住宅区","address":"江航路60弄"},{"poiid":"B2094751D26CA6F54999","title":"肯德基（浦江镇店）","lon":"121.534759","lat":"31.061233","category":"68","category_name":"快餐厅","address":"闵行区浦江镇江文路589号(近江玮路)"},{"poiid":"B2094655D26BA2F5409F","title":"浦江基地","lon":"121.5304","lat":"31.04661","category":"38","category_name":"公交车站","address":""},{"poiid":"B2094655D26BA2F5409B","title":"浦连路三鲁路","lon":"121.53349","lat":"31.05136","category":"38","category_name":"公交车站","address":""},{"poiid":"B2094757D065A4FA469D","title":"浦江宝邸","lon":"121.53938","lat":"31.060217","category":"47","category_name":"住宅区","address":"上海闵行区江文路330弄57号"},{"poiid":"B2094655D26BA2F54098","title":"浦连路召楼路","lon":"121.53662","lat":"31.05435","category":"38","category_name":"公交车站","address":""},{"poiid":"B2094750D565A5FA4693","title":"清风人家","lon":"121.535308","lat":"31.060588","category":"66","category_name":"茶艺馆","address":"闵行区浦江镇江文路559弄8号(近三鲁公路)"},{"poiid":"B2094655D36DA3F44993","title":"向阳河桥","lon":"121.53336","lat":"31.05132","category":"250","category_name":"公园户外","address":""},{"poiid":"B2094757D16BA3F84893","title":"北京大学医学部教学楼　","lon":"121.5306466","lat":"31.053045082","category":"253","category_name":"校园生活","address":"北京大学医学部教学楼"},{"poiid":"B2094655D26BA2F4489B","title":"浦涛路江航路","lon":"121.53657","lat":"31.04739","category":"38","category_name":"公交车站","address":""},{"poiid":"B2094757D06BA7F54193","title":"金硕河畔","lon":"121.535225","lat":"31.044552","category":"500","category_name":"未知分类","address":"上海江协路51弄"},{"poiid":"B2094757D66DAAFC4999","title":"奉贤建材市场","lon":"121.529396","lat":"31.053694996","category":"500","category_name":"未知分类","address":"上海市奉贤区"},{"poiid":"B2094655D36CA0F94392","title":"江航路闵瑞路","lon":"121.53595","lat":"31.05172","category":"38","category_name":"公交车站","address":""},{"poiid":"B2094757D06AA7F5469F","title":"佳良犬业","lon":"121.52946173","lat":"31.055043166","category":"249","category_name":"购物服务","address":"闵行区三鲁路1858号(近沈杜公路)"},{"poiid":"B2094757D065A7FC449F","title":"浦涛路 瑞和新苑","lon":"121.53823164","lat":"31.047809719","category":"252","category_name":"楼宇机构","address":"上海市闵行区浦涛路"},{"poiid":"B2094655D36CA0F8469B","title":"江玮路江文路","lon":"121.53438","lat":"31.06005","category":"38","category_name":"公交车站","address":""},{"poiid":"B2094655D264A7F94998","title":"浦航新城博雅苑","lon":"121.540672","lat":"31.050935","category":"47","category_name":"住宅区","address":"闵行区浦连路150弄、召楼路2056弄"},{"poiid":"B2094655D264A4FA499E","title":"S32三鲁公路收费站","lon":"121.53145","lat":"31.05515","category":"267","category_name":"收费站","address":""},{"poiid":"B2094757D068A7FD499A","title":"八号线浦江镇危险品库","lon":"121.526431","lat":"31.054732019","category":"500","category_name":"未知分类","address":"上海三鲁公路2009"},{"poiid":"B2094655D264A1FB459A","title":"闵行区浦江第二中学","lon":"121.53389","lat":"31.05757","category":"55","category_name":"中学","address":""},{"poiid":"B2094655D26BA2FA439A","title":"谈家港","lon":"121.5267","lat":"31.06426","category":"38","category_name":"公交车站","address":""},{"poiid":"B2094757D568A7FD449E","title":"森港大酒店","lon":"121.5297111","lat":"31.06344781","category":"76","category_name":"上海菜","address":"闵行区浦江镇叶家桥路261号(鹤坡路叶家桥路)"},{"poiid":"B2094757D66DA1FE459B","title":"闵浦新苑三村","lon":"121.529292","lat":"31.060967154","category":"252","category_name":"楼宇机构","address":"上海市闵行区浦江镇鹤破南路169弄"},{"poiid":"B2094654DB6FA0FE4492","title":"上海斯米克陶瓷有限公司","lon":"121.52835","lat":"31.05722","category":"263","category_name":"公司","address":""},{"poiid":"B2094757D065AAFD4393","title":"International Ice Hockey Arena","lon":"121.518925","lat":"31.04836088","category":"500","category_name":"未知分类","address":"上海songjiang"},{"poiid":"B2094655D26FA4F9499A","title":"闵浦新苑6村(西门)","lon":"121.53427","lat":"31.0592","category":"47","category_name":"住宅区","address":"江玮路298弄"},{"poiid":"B2094654DB6FA0FE449D","title":"上海斯米克建筑陶瓷股份有限公司","lon":"121.52781","lat":"31.05951","category":"263","category_name":"公司","address":""},{"poiid":"B2094655D36CA1FC4099","title":"沈杜公路三鲁路","lon":"121.52564","lat":"31.06311","category":"38","category_name":"公交车站","address":""},{"poiid":"B2094654DB6FA0F9419C","title":"浦江影剧院","lon":"121.529086","lat":"31.063747","category":"178","category_name":"电影院","address":"叶家桥路"},{"poiid":"B2094751D369ABFD429B","title":"沈湖生态农庄农家乐","lon":"121.54659","lat":"31.0501","category":"76","category_name":"上海菜","address":"浦东新区航头镇牌楼村汇驰路388号(浦涛路口)"},{"poiid":"B209475CD568A2F4429A","title":"浦江馨都","lon":"121.539543","lat":"31.043594","category":"47","category_name":"住宅区","address":"上海市 闵行区先新路"},{"poiid":"B2094757D16AA4F5439D","title":"浦江二中室内体育馆","lon":"121.5332996","lat":"31.060501344","category":"500","category_name":"未知分类","address":"上海协和路"},{"poiid":"B2094750D16AA7FE4192","title":"欣佳宝坻","lon":"121.539138","lat":"31.048971","category":"627","category_name":"一般地点标志","address":"闵驰二路59弄"},{"poiid":"B2094757D66CA3FB469B","title":"公交174浦涛路三鲁路站","lon":"121.54047755","lat":"31.050737152","category":"500","category_name":"未知分类","address":"上海浦江镇浦涛路三鲁路"},{"poiid":"B2094655D26FA4F94292","title":"虹浦新城南区(北门)","lon":"121.53678","lat":"31.04696","category":"656","category_name":"大门","address":"浦涛路505弄1-48号"},{"poiid":"B2094757D06EAAFA4998","title":"召稼楼古镇","lon":"121.533903","lat":"31.06921","category":"250","category_name":"公园户外","address":"上海闵行区浦江镇沈杜路(近苏召路)"},{"poiid":"B2094757D06AAAFB449E","title":"浦江镇体育中心","lon":"121.536940009","lat":"31.0564950577","category":"500","category_name":"未知分类","address":"闵行区江玮路269号(近浦江二中北侧)"},{"poiid":"B2094757D068A6F54093","title":"浦江森林公园","lon":"121.519645348","lat":"31.0457266427","category":"196","category_name":"公园","address":"闵行区浦江镇联跃路100号(浦星公路三鲁路间)"},{"poiid":"B2094757D068A0F44093","title":"水语人家","lon":"121.54162","lat":"31.049992","category":"252","category_name":"楼宇机构","address":"上海浦涛路768弄"},{"poiid":"B2094757D069ABF54593","title":"博雅苑","lon":"121.539087","lat":"31.05645","category":"47","category_name":"住宅区","address":"闵行区召楼路2056弄"},{"poiid":"B2094757D068ABFF489F","title":"虹浦新城","lon":"121.53542","lat":"31.047377","category":"47","category_name":"住宅区","address":"上海浦涛路501,505弄"},{"poiid":"B2094757D069AAF84492","title":"瑞和新苑","lon":"121.538303009","lat":"31.0484398827","category":"47","category_name":"住宅区","address":"上海市闵行区江航路"},{"poiid":"B2094751D568A6FC4798","title":"南鱼咖啡","lon":"121.536152","lat":"31.060772","category":"247","category_name":"餐饮美食","address":"上海闵行区浦江镇江文路559弄36号［kfc隔壁］"},{"poiid":"B2094655D26DA6F44698","title":"汇颂南苑","lon":"121.53203","lat":"31.050186","category":"47","category_name":"住宅区","address":"浦连路789弄1-36号"},{"poiid":"B2094655D26BA2F44898","title":"浦涛路三鲁路","lon":"121.53127","lat":"31.04642","category":"38","category_name":"公交车站","address":""},{"poiid":"B2094757D06BA4F44192","title":"闵浦新苑6村","lon":"121.53520217","lat":"31.059463394","category":"47","category_name":"住宅区","address":"上海市闵行区浦江镇江玮路298弄"},{"poiid":"B2094757D569A0FC419C","title":"申能汇颂苑(浦江镇1号地块)","lon":"121.531255","lat":"31.05069083","category":"47","category_name":"住宅区","address":"上海闵行区浦连路789弄"},{"poiid":"B2094655D36CA2FA489A","title":"三鲁公路浦连路","lon":"121.53037","lat":"31.04999","category":"38","category_name":"公交车站","address":""},{"poiid":"B2094757D069A5FE439F","title":"浦江丽都","lon":"121.53684","lat":"31.05422","category":"252","category_name":"楼宇机构","address":"上海市闵行区浦连路"},{"poiid":"B2094757D06FA4F8419B","title":"浦星公路","lon":"121.5151892","lat":"31.045785531","category":"260","category_name":"其他","address":"上海浦星公路"},{"poiid":"B2094655D264A0F9499A","title":"浦航新城(瑞和新苑)","lon":"121.53624","lat":"31.04992","category":"47","category_name":"住宅区","address":"江航路60弄"},{"poiid":"B2094751D26CA6F54999","title":"肯德基（浦江镇店）","lon":"121.534759","lat":"31.061233","category":"68","category_name":"快餐厅","address":"闵行区浦江镇江文路589号(近江玮路)"},{"poiid":"B2094655D26BA2F5409F","title":"浦江基地","lon":"121.5304","lat":"31.04661","category":"38","category_name":"公交车站","address":""},{"poiid":"B2094655D26BA2F5409B","title":"浦连路三鲁路","lon":"121.53349","lat":"31.05136","category":"38","category_name":"公交车站","address":""},{"poiid":"B2094757D065A4FA469D","title":"浦江宝邸","lon":"121.53938","lat":"31.060217","category":"47","category_name":"住宅区","address":"上海闵行区江文路330弄57号"},{"poiid":"B2094655D26BA2F54098","title":"浦连路召楼路","lon":"121.53662","lat":"31.05435","category":"38","category_name":"公交车站","address":""},{"poiid":"B2094750D565A5FA4693","title":"清风人家","lon":"121.535308","lat":"31.060588","category":"66","category_name":"茶艺馆","address":"闵行区浦江镇江文路559弄8号(近三鲁公路)"},{"poiid":"B2094655D36DA3F44993","title":"向阳河桥","lon":"121.53336","lat":"31.05132","category":"250","category_name":"公园户外","address":""},{"poiid":"B2094757D16BA3F84893","title":"北京大学医学部教学楼　","lon":"121.5306466","lat":"31.053045082","category":"253","category_name":"校园生活","address":"北京大学医学部教学楼"},{"poiid":"B2094655D26BA2F4489B","title":"浦涛路江航路","lon":"121.53657","lat":"31.04739","category":"38","category_name":"公交车站","address":""},{"poiid":"B2094757D06BA7F54193","title":"金硕河畔","lon":"121.535225","lat":"31.044552","category":"500","category_name":"未知分类","address":"上海江协路51弄"},{"poiid":"B2094757D66DAAFC4999","title":"奉贤建材市场","lon":"121.529396","lat":"31.053694996","category":"500","category_name":"未知分类","address":"上海市奉贤区"},{"poiid":"B2094655D36CA0F94392","title":"江航路闵瑞路","lon":"121.53595","lat":"31.05172","category":"38","category_name":"公交车站","address":""},{"poiid":"B2094757D06AA7F5469F","title":"佳良犬业","lon":"121.52946173","lat":"31.055043166","category":"249","category_name":"购物服务","address":"闵行区三鲁路1858号(近沈杜公路)"},{"poiid":"B2094757D065A7FC449F","title":"浦涛路 瑞和新苑","lon":"121.53823164","lat":"31.047809719","category":"252","category_name":"楼宇机构","address":"上海市闵行区浦涛路"},{"poiid":"B2094655D36CA0F8469B","title":"江玮路江文路","lon":"121.53438","lat":"31.06005","category":"38","category_name":"公交车站","address":""},{"poiid":"B2094655D264A7F94998","title":"浦航新城博雅苑","lon":"121.540672","lat":"31.050935","category":"47","category_name":"住宅区","address":"闵行区浦连路150弄、召楼路2056弄"},{"poiid":"B2094655D264A4FA499E","title":"S32三鲁公路收费站","lon":"121.53145","lat":"31.05515","category":"267","category_name":"收费站","address":""},{"poiid":"B2094757D068A7FD499A","title":"八号线浦江镇危险品库","lon":"121.526431","lat":"31.054732019","category":"500","category_name":"未知分类","address":"上海三鲁公路2009"},{"poiid":"B2094655D264A1FB459A","title":"闵行区浦江第二中学","lon":"121.53389","lat":"31.05757","category":"55","category_name":"中学","address":""},{"poiid":"B2094655D26BA2FA439A","title":"谈家港","lon":"121.5267","lat":"31.06426","category":"38","category_name":"公交车站","address":""},{"poiid":"B2094757D568A7FD449E","title":"森港大酒店","lon":"121.5297111","lat":"31.06344781","category":"76","category_name":"上海菜","address":"闵行区浦江镇叶家桥路261号(鹤坡路叶家桥路)"},{"poiid":"B2094757D66DA1FE459B","title":"闵浦新苑三村","lon":"121.529292","lat":"31.060967154","category":"252","category_name":"楼宇机构","address":"上海市闵行区浦江镇鹤破南路169弄"},{"poiid":"B2094654DB6FA0FE4492","title":"上海斯米克陶瓷有限公司","lon":"121.52835","lat":"31.05722","category":"263","category_name":"公司","address":""},{"poiid":"B2094757D065AAFD4393","title":"International Ice Hockey Arena","lon":"121.518925","lat":"31.04836088","category":"500","category_name":"未知分类","address":"上海songjiang"},{"poiid":"B2094655D26FA4F9499A","title":"闵浦新苑6村(西门)","lon":"121.53427","lat":"31.0592","category":"47","category_name":"住宅区","address":"江玮路298弄"},{"poiid":"B2094654DB6FA0FE449D","title":"上海斯米克建筑陶瓷股份有限公司","lon":"121.52781","lat":"31.05951","category":"263","category_name":"公司","address":""},{"poiid":"B2094655D36CA1FC4099","title":"沈杜公路三鲁路","lon":"121.52564","lat":"31.06311","category":"38","category_name":"公交车站","address":""},{"poiid":"B2094654DB6FA0F9419C","title":"浦江影剧院","lon":"121.529086","lat":"31.063747","category":"178","category_name":"电影院","address":"叶家桥路"},{"poiid":"B2094751D369ABFD429B","title":"沈湖生态农庄农家乐","lon":"121.54659","lat":"31.0501","category":"76","category_name":"上海菜","address":"浦东新区航头镇牌楼村汇驰路388号(浦涛路口)"},{"poiid":"B209475CD568A2F4429A","title":"浦江馨都","lon":"121.539543","lat":"31.043594","category":"47","category_name":"住宅区","address":"上海市 闵行区先新路"},{"poiid":"B2094757D16AA4F5439D","title":"浦江二中室内体育馆","lon":"121.5332996","lat":"31.060501344","category":"500","category_name":"未知分类","address":"上海协和路"},{"poiid":"B2094750D16AA7FE4192","title":"欣佳宝坻","lon":"121.539138","lat":"31.048971","category":"627","category_name":"一般地点标志","address":"闵驰二路59弄"},{"poiid":"B2094757D66CA3FB469B","title":"公交174浦涛路三鲁路站","lon":"121.54047755","lat":"31.050737152","category":"500","category_name":"未知分类","address":"上海浦江镇浦涛路三鲁路"},{"poiid":"B2094655D26FA4F94292","title":"虹浦新城南区(北门)","lon":"121.53678","lat":"31.04696","category":"656","category_name":"大门","address":"浦涛路505弄1-48号"}]