[{"poiid":"B2094757D069A6F84293","title":"沈湖生态农庄","lon":"121.559176","lat":"31.05299","category":"247","category_name":"餐饮美食","address":"上海航头镇牌楼村"},{"poiid":"B2094750D66FA0FF439C","title":"浦江玫瑰园","lon":"121.55423807327","lat":"31.045134300237","category":"250","category_name":"公园户外","address":"闵行区浦江镇先新路41号"},{"poiid":"B2094757D16AA0FD4199","title":"两河流域 北岸纯连排别墅区","lon":"121.58316224","lat":"31.05078632","category":"500","category_name":"未知分类","address":"上海航鹤路1699号"},{"poiid":"B2094757D16BA1FC409D","title":"中虹浦江苑","lon":"121.56789814","lat":"31.054806816","category":"47","category_name":"住宅区","address":"上海浦江镇浦涛路"},{"poiid":"B2094655D26BA1FD489B","title":"牌楼3组","lon":"121.56291","lat":"31.05165","category":"38","category_name":"公交车站","address":""},{"poiid":"B2094655D36CA7F94493","title":"鹤立西路林海公路","lon":"121.57407","lat":"31.05463","category":"38","category_name":"公交车站","address":""},{"poiid":"B2094655D26BA1FD4898","title":"牌楼村委","lon":"121.5601","lat":"31.05199","category":"38","category_name":"公交车站","address":""},{"poiid":"B2094757D16FA4FA439B","title":"两河流域健身俱乐部","lon":"121.58266088","lat":"31.04165295","category":"500","category_name":"未知分类","address":"上海市浦东新区下沙西街"},{"poiid":"B2094757D16EA6F94698","title":"万达广场(周浦店)","lon":"121.565420246","lat":"31.0601465437","category":"500","category_name":"未知分类","address":"上海浦东新区年家浜路518号(近沪南公路)"},{"poiid":"B2094655D26BA1FD489A","title":"牌楼20组","lon":"121.55933","lat":"31.05313","category":"38","category_name":"公交车站","address":""},{"poiid":"B2094654DB6FA0FD479E","title":"绿洲千岛花园","lon":"121.5806","lat":"31.053007","category":"47","category_name":"住宅区","address":"上海市南汇区鹤立西路183弄"},{"poiid":"B2094655D26BA1FD4793","title":"牌楼13组","lon":"121.55807","lat":"31.05342","category":"38","category_name":"公交车站","address":""},{"poiid":"B2094757D164A0FB449E","title":"厢里厢邻农家乐","lon":"121.574072","lat":"31.054638","category":"247","category_name":"餐饮美食","address":"浦东新区航头路长达村666号"},{"poiid":"B2094757D66DA0F44492","title":"绿洲千岛别墅","lon":"121.57981824","lat":"31.050486313","category":"252","category_name":"楼宇机构","address":"上海市浦东新区鹤立西路"},{"poiid":"B2094655D26BA1FA4299","title":"梅园4组","lon":"121.57751","lat":"31.05455","category":"38","category_name":"公交车站","address":""},{"poiid":"B2094654DB65A3FE499A","title":"鹤鸣新苑","lon":"121.58565","lat":"31.047745","category":"47","category_name":"住宅区","address":"航鹤路1700弄75支弄1-45号"},{"poiid":"B209475CD36EAAFC489D","title":"鹤丰庄园度假村","lon":"121.56404","lat":"31.05887","category":"87","category_name":"特色／地方风味餐厅","address":"南汇航头镇鹤立西路牌楼村13组490号(近三鲁公路)"},{"poiid":"B2094655D36DA3F4499D","title":"肇沥港桥","lon":"121.5536","lat":"31.03868","category":"250","category_name":"公园户外","address":""},{"poiid":"B2094655D36CA2F4409E","title":"商贸","lon":"121.58116","lat":"31.03802","category":"38","category_name":"公交车站","address":""},{"poiid":"B2094757D068ABFD4598","title":"鹤丰庄园","lon":"121.58055","lat":"31.05902","category":"260","category_name":"其他","address":"浦东新区南汇航头镇鹤立西路牌楼村13组490号(近三鲁公路)"},{"poiid":"B2094655D36DA7FF4998","title":"中华园","lon":"121.58423","lat":"31.04784","category":"38","category_name":"公交车站","address":""},{"poiid":"B2094757D165AAFF469B","title":"南郊中华园","lon":"121.584413882","lat":"31.0456200471","category":"252","category_name":"楼宇机构","address":"上海浦东新区"},{"poiid":"B2094654DB64A0F8499C","title":"鹤鸣新苑一村(下沙西街)","lon":"121.58523","lat":"31.05021","category":"47","category_name":"住宅区","address":"航鹤路1858弄75支弄1-48号"},{"poiid":"B2094757D66CA1F4439F","title":"瑞和新苑","lon":"121.58553224","lat":"31.049469289","category":"47","category_name":"住宅区","address":"上海市浦涛路江航路"},{"poiid":"B2094757D568AAF4409D","title":"鹤鸣新村一期商业","lon":"121.5855939","lat":"31.05088389","category":"47","category_name":"住宅区","address":"航头镇航鹤路1858弄1号"},{"poiid":"B2094757D16AA7FA4193","title":"传奇火锅","lon":"121.558928246","lat":"31.0605655536","category":"247","category_name":"餐饮美食","address":"上海浦东御青路1039号"},{"poiid":"B2094757D16AA5F9499E","title":"沈庄公交站","lon":"121.56588264","lat":"31.064441546","category":"38","category_name":"公交车站","address":"上海浦东新区沪南公路(近沈杜公路)"},{"poiid":"B2094757D16CA3F84393","title":"宜居尚城","lon":"121.575007882","lat":"31.0273886026","category":"47","category_name":"住宅区","address":"上海市浦东新区航头路"},{"poiid":"B2094655D36DA3F44999","title":"鹤梅桥","lon":"121.57918","lat":"31.05865","category":"250","category_name":"公园户外","address":""}]